timestamp,timestamp_sample_x,ref_timestamp,ref_lat,ref_lon,x,y,z,delta_xy[0],delta_xy[1],delta_z,vx,vy,vz,z_deriv,delta_vxy[0],delta_vxy[1],delta_vz,ax,ay,az,heading,delta_heading,ref_alt,dist_bottom,eph,epv,evh,evv,vxy_max,vz_max,hagl_min,hagl_max,xy_valid,z_valid,v_xy_valid,v_z_valid,xy_reset_counter,z_reset_counter,vxy_reset_counter,vz_reset_counter,heading_reset_counter,heading_good_for_control,xy_global,z_global,dist_bottom_valid,dist_bottom_sensor_bitfield,time_s_x,flag_armed,flag_multicopter_position_control_enabled,flag_control_manual_enabled,flag_control_auto_enabled,flag_control_offboard_enabled,flag_control_rates_enabled,flag_control_attitude_enabled,flag_control_acceleration_enabled,flag_control_velocity_enabled,flag_control_position_enabled,flag_control_altitude_enabled,flag_control_climb_rate_enabled,flag_control_termination_enabled,time_s_y,timestamp_sample_y,xyz[0],xyz[1],xyz[2],time_s_x,timestamp_sample,control[0],control[1],control[2],control[3],control[4],control[5],control[6],control[7],time_s_y,speed,angular_rate,actuator_scale,max_actuator
21726356000,21726356000,1036000,41.606704,-86.3556021,-0.66824317,-1.152605,0.13225149,0.0004925808,0.000107556276,0.0,-0.008810277,0.0019138604,0.0004226813,-6.5982706e-05,-0.00020542361,-0.0023216454,0.0030729105,-0.05694377,-0.07275457,0.03366818,-1.0712705,0.065375656,229.40294,0.1,0.049090184,0.05540937,0.0128492955,0.009192899,inf,inf,inf,inf,1,1,1,1,2,0,2,1,47,0,1,1,1,0,21726.356,1.0,1.0,0.0,1.0,0.0,1.0,1.0,0.0,1.0,1.0,1.0,1.0,0.0,21726.36,21726360000,0.001872753,0.0011443836,0.0011700502,21726.36,21726360000,-0.0031448829,0.0028716705,-0.00024646232,0.001,0.0,0.0,0.0,-1.0,21726.36,0.009025657977609547,0.002487133911448678,normalized,1.0
21726364000,21726364000,1036000,41.606704,-86.3556021,-0.6682575,-1.1526443,0.1322375,0.0004925808,0.000107556276,0.0,-0.00892875,0.001717758,0.0006105421,0.00011832167,-0.00020542361,-0.0023216454,0.0030729105,-0.02924611,0.017102689,-0.0010068228,-1.0712653,0.065375656,229.40294,0.1,0.04909126,0.05540988,0.013494369,0.009664898,inf,inf,inf,inf,1,1,1,1,2,0,2,1,47,0,1,1,1,0,21726.364,1.0,1.0,0.0,1.0,0.0,1.0,1.0,0.0,1.0,1.0,1.0,1.0,0.0,21726.36,21726360000,0.001872753,0.0011443836,0.0011700502,21726.36,21726360000,-0.0031448829,0.0028716705,-0.00024646232,0.001,0.0,0.0,0.0,-1.0,21726.36,0.009112959495407427,0.002487133911448678,normalized,1.0
21726372000,21726372000,1036000,41.606704,-86.3556021,-0.668272,-1.1526827,0.13222332,0.0004925808,0.000107556276,0.0,-0.0087794205,0.0018793578,0.0005701514,7.421328e-05,-0.00020542361,-0.0023216454,0.0030729105,0.012258199,0.028748566,0.012373488,-1.0712446,0.065375656,229.40294,0.1,0.049092565,0.055403553,0.014114511,0.010119838,inf,inf,inf,inf,1,1,1,1,2,0,2,1,47,0,1,1,1,0,21726.372,1.0,1.0,0.0,1.0,0.0,1.0,1.0,0.0,1.0,1.0,1.0,1.0,0.0,21726.36,21726372000,0.0014509037,-0.0009222223,0.0027849,21726.372,21726368000,-0.0029860965,0.0029358945,-0.0004959805,0.001,0.0,0.0,0.0,-1.0,21726.368,0.008996403874613625,0.003272809729772108,normalized,1.0
21726380000,21726380000,1036000,41.606704,-86.3556021,-0.66828424,-1.1527197,0.13221067,0.0004925808,0.000107556276,0.0,-0.008427496,0.0018575289,0.00082850386,0.00032904596,-0.00020542361,-0.0023216454,0.0030729105,0.007891413,0.009895935,0.02673355,-1.0712715,0.065375656,229.40294,0.1,0.04909412,0.055404283,0.014713079,0.010559923,inf,inf,inf,inf,1,1,1,1,2,0,2,1,47,0,1,1,1,0,21726.38,1.0,1.0,0.0,1.0,0.0,1.0,1.0,0.0,1.0,1.0,1.0,1.0,0.0,21726.36,21726380000,0.0036222264,-0.0007892873,-0.0027992418,21726.38,21726368000,-0.0029860965,0.0029358945,-0.0004959805,0.001,0.0,0.0,0.0,-1.0,21726.368,0.008669459100219927,0.004645347477817508,normalized,1.0
21726388000,21726388000,1036000,41.606704,-86.3556021,-0.6682969,-1.1527565,0.1321984,0.0004925808,0.000107556276,0.0,-0.008806798,0.0018931628,0.00064279,0.00014000518,-0.00020542361,-0.0023216454,0.0030729105,-0.08812588,0.030906582,-0.016911019,-1.0712624,0.065375656,229.40294,0.1,0.049095944,0.055405144,0.015292397,0.010986938,inf,inf,inf,inf,1,1,1,1,2,0,2,1,47,0,1,1,1,0,21726.388,1.0,1.0,0.0,1.0,0.0,1.0,1.0,0.0,1.0,1.0,1.0,1.0,0.0,21726.36,21726388000,-0.0028698996,0.0002964108,0.0011646887,21726.388,21726368000,-0.0029860965,0.0029358945,-0.0004959805,0.001,0.0,0.0,0.0,-1.0,21726.368,0.009030887851380275,0.0031113795725279956,normalized,1.0
21726396000,21726396000,1036000,41.606704,-86.3556021,-0.6683112,-1.1527909,0.13218603,0.0004925808,0.000107556276,0.0,-0.008485252,0.0021627815,0.00067182153,0.00016589752,-0.00020542361,-0.0023216454,0.0030729105,0.0678301,0.03929878,-0.0052974257,-1.0712458,0.065375656,229.40294,0.1,0.049098063,0.055406142,0.015854442,0.011402353,inf,inf,inf,inf,1,1,1,1,2,0,2,1,47,0,1,1,1,0,21726.396,1.0,1.0,0.0,1.0,0.0,1.0,1.0,0.0,1.0,1.0,1.0,1.0,0.0,21726.36,21726396000,-0.0049963593,-0.003355696,0.0028521703,21726.396,21726408000,-0.00334984,0.0018262807,-1.08224775e-07,0.001,0.0,0.0,0.0,-1.0,21726.408,0.008782281565084201,0.006660268562101275,normalized,1.0
21726404000,21726404000,1036000,41.606704,-86.3556021,-0.66832155,-1.1528242,0.13217306,0.0004925808,0.000107556276,0.0,-0.00804188,0.0020522387,0.0004487114,-6.016894e-05,-0.00020542361,-0.0023216454,0.0030729105,0.0014091836,-0.008934448,-0.031936042,-1.0712416,0.065375656,229.40294,0.1,0.04910051,0.05540729,0.016401041,0.0118073905,inf,inf,inf,inf,1,1,1,1,2,0,2,1,47,0,1,1,1,0,21726.404,1.0,1.0,0.0,1.0,0.0,1.0,1.0,0.0,1.0,1.0,1.0,1.0,0.0,21726.36,21726408000,-5.5327546e-06,0.0052922,-1.0303294e-05,21726.408,21726408000,-0.00334984,0.0018262807,-1.08224775e-07,0.001,0.0,0.0,0.0,-1.0,21726.408,0.008311730237241079,0.0052922129217597355,normalized,1.0
21726820000,21726820000,1036000,41.606704,-86.3556021,-0.6673929,-1.1551803,0.13113688,0.0004925808,0.000107556276,0.0,-0.00431725,-0.0047414675,-0.001714349,-0.0019912026,-0.00020542361,-0.0023216454,0.0030729105,0.030312572,-0.056961417,-0.0576452,-1.0712554,0.065375656,229.40294,0.10031845,0.04907298,0.05537277,0.016388483,0.011803327,inf,inf,inf,inf,1,1,1,1,2,0,2,1,47,0,1,1,1,0,21726.82,1.0,1.0,0.0,1.0,0.0,1.0,1.0,0.0,1.0,1.0,1.0,1.0,0.0,21726.864,21726820000,-0.0035322986,-0.0015387267,0.0010646526,21726.82,21726808000,-0.0035634467,0.0016180024,1.06258485e-05,0.001,0.0,0.0,0.0,-1.0,21726.808,0.006637706991865282,0.003997286381477015,normalized,1.0
21726828000,21726828000,1036000,41.606704,-86.3556021,-0.6673799,-1.1552109,0.13112807,0.0004925808,0.000107556276,0.0,-0.00398172,-0.0045826677,-0.00192895,-0.0021952586,-0.00020542361,-0.0023216454,0.0030729105,0.01734468,0.0466687,-0.03274443,-1.071261,0.065375656,229.40294,0.100326,0.049075764,0.055374086,0.01692198,0.012199108,inf,inf,inf,inf,1,1,1,1,2,0,2,1,47,0,1,1,1,0,21726.828,1.0,1.0,0.0,1.0,0.0,1.0,1.0,0.0,1.0,1.0,1.0,1.0,0.0,21726.864,21726828000,-9.3258976e-05,0.0005439891,-0.0011515366,21726.828,21726808000,-0.0035634467,0.0016180024,1.06258485e-05,0.001,0.0,0.0,0.0,-1.0,21726.808,0.006369912519770054,0.0012769721683196305,normalized,1.0
21726836000,21726836000,1036000,41.606704,-86.3556021,-0.6673666,-1.1552371,0.13111888,0.0004925808,0.000107556276,0.0,-0.003973936,-0.004108167,-0.0017496753,-0.0020057198,-0.00020542361,-0.0023216454,0.0030729105,-0.01394486,0.031495865,0.046113443,-1.0712638,0.065375656,229.40294,0.100332454,0.04907891,0.055375572,0.017442727,0.012586419,inf,inf,inf,inf,1,1,1,1,2,0,2,1,47,0,1,1,1,0,21726.836,1.0,1.0,0.0,1.0,0.0,1.0,1.0,0.0,1.0,1.0,1.0,1.0,0.0,21726.864,21726840000,-3.202347e-05,0.00170076,-0.0013494815,21726.84,21726856000,-0.003696935,0.00241555,-0.00035782575,0.001,0.0,0.0,0.0,-1.0,21726.856,0.005977505088865679,0.0021713383888913055,normalized,1.0
21726844000,21726844000,1036000,41.606704,-86.3556021,-0.66735506,-1.1552606,0.13111313,0.0004925808,0.000107556276,0.0,-0.0041685523,-0.0040240246,-0.0012704077,-0.0015164636,-0.00020542361,-0.0023216454,0.0030729105,-0.033851,-0.0049817874,0.04606129,-1.0712837,0.065375656,229.40294,0.10033508,0.049082454,0.055377245,0.017951997,0.012966017,inf,inf,inf,inf,1,1,1,1,2,0,2,1,47,0,1,1,1,0,21726.844,1.0,1.0,0.0,1.0,0.0,1.0,1.0,0.0,1.0,1.0,1.0,1.0,0.0,21726.864,21726840000,-3.202347e-05,0.00170076,-0.0013494815,21726.84,21726856000,-0.003696935,0.00241555,-0.00035782575,0.001,0.0,0.0,0.0,-1.0,21726.856,0.005931571291273481,0.0021713383888913055,normalized,1.0
21726852000,21726852000,1036000,41.606704,-86.3556021,-0.6673448,-1.1552838,0.13110945,0.0004925808,0.000107556276,0.0,-0.0040301625,-0.00422504,-0.0012017506,-0.0014385222,-0.00020542361,-0.0023216454,0.0030729105,0.012937005,-0.035138026,-0.0146814305,-1.0712899,0.065375656,229.40294,0.10032269,0.049086418,0.055372182,0.018450549,0.013338562,inf,inf,inf,inf,1,1,1,1,2,0,2,1,47,0,1,1,1,0,21726.852,1.0,1.0,0.0,1.0,0.0,1.0,1.0,0.0,1.0,1.0,1.0,1.0,0.0,21726.864,21726848000,-0.0036149467,0.004351603,-0.0027870436,21726.848,21726856000,-0.003696935,0.00241555,-0.00035782575,0.001,0.0,0.0,0.0,-1.0,21726.856,0.005961323450594391,0.0063064966773757085,normalized,1.0
21726860000,21726860000,1036000,41.606704,-86.3556021,-0.667335,-1.1553093,0.13110508,0.0004925808,0.000107556276,0.0,-0.004098295,-0.0047275396,-0.0013839364,-0.0016116741,-0.00020542361,-0.0023216454,0.0030729105,-0.02579048,-0.07105128,-0.020833747,-1.0712367,0.065375656,229.40294,0.10032438,0.04909082,0.055374265,0.018939843,0.013704631,inf,inf,inf,inf,1,1,1,1,2,0,2,1,47,0,1,1,1,0,21726.86,1.0,1.0,0.0,1.0,0.0,1.0,1.0,0.0,1.0,1.0,1.0,1.0,0.0,21726.864,21726856000,0.0028815023,0.0048773605,0.0017219426,21726.856,21726856000,-0.003696935,0.00241555,-0.00035782575,0.001,0.0,0.0,0.0,-1.0,21726.856,0.0064078805026184845,0.005920877238176814,normalized,1.0
21726868000,21726868000,1036000,41.606704,-86.3556021,-0.6673258,-1.1553377,0.13109991,0.0004925808,0.000107556276,0.0,-0.0039366554,-0.0051301094,-0.0014271964,-0.0016461458,-0.00020542361,-0.0023216454,0.0030729105,0.008480784,-0.06445775,-0.00029901773,-1.0712286,0.065375656,229.40294,0.1003249,0.04909569,0.05537657,0.019420227,0.014064726,inf,inf,inf,inf,1,1,1,1,2,0,2,1,47,0,1,1,1,0,21726.868,1.0,1.0,0.0,1.0,0.0,1.0,1.0,0.0,1.0,1.0,1.0,1.0,0.0,21726.864,21726872000,-0.0043153837,-0.0023822405,-0.0019593204,21726.872,21726856000,-0.003696935,0.00241555,-0.00035782575,0.001,0.0,0.0,0.0,-1.0,21726.856,0.006622096930617256,0.005304389004204169,normalized,1.0
21726876000,21726876000,1036000,41.606704,-86.3556021,-0.66731703,-1.1553665,0.13109566,0.0004925808,0.000107556276,0.0,-0.0039659636,-0.0047750985,-0.0012725797,-0.0014829821,-0.00020542361,-0.0023216454,0.0030729105,-0.01581885,0.0871072,0.0029289462,-1.0712326,0.065375656,229.40294,0.100321755,0.049101055,0.05537911,0.019892577,0.014419299,inf,inf,inf,inf,1,1,1,1,2,0,2,1,47,0,1,1,1,0,21726.876,1.0,1.0,0.0,1.0,0.0,1.0,1.0,0.0,1.0,1.0,1.0,1.0,0.0,21726.864,21726872000,-0.0043153837,-0.0023822405,-0.0019593204,21726.872,21726856000,-0.003696935,0.00241555,-0.00035782575,0.001,0.0,0.0,0.0,-1.0,21726.856,0.006336394247052444,0.005304389004204169,normalized,1.0
21726884000,21726884000,1036000,41.606704,-86.3556021,-0.66730875,-1.1553903,0.13109064,0.0004925808,0.000107556276,0.0,-0.003759006,-0.0042215344,-0.0016638476,-0.0018659402,-0.00020542361,-0.0023216454,0.0030729105,0.027732838,0.05346471,-0.06620871,-1.0712367,0.065375656,229.40294,0.10031894,0.049106937,0.0553819,0.020356514,0.014768743,inf,inf,inf,inf,1,1,1,1,2,0,2,1,47,0,1,1,1,0,21726.884,1.0,1.0,0.0,1.0,0.0,1.0,1.0,0.0,1.0,1.0,1.0,1.0,0.0,21726.864,21726880000,0.00118266,7.562125e-05,-0.0010563481,21726.88,21726856000,-0.003696935,0.00241555,-0.00035782575,0.001,0.0,0.0,0.0,-1.0,21726.856,0.005892356713102587,0.0015875372617438536,normalized,1.0
21726892000,21726892000,1036000,41.606704,-86.3556021,-0.6673004,-1.1554087,0.1310831,0.0004925808,0.000107556276,0.0,-0.0038489408,-0.0036426277,-0.0017848532,-0.0019788686,-0.00020542361,-0.0023216454,0.0030729105,-0.04002197,0.046844672,0.0028553717,-1.0712401,0.065375656,229.40294,0.10032219,0.049113367,0.055384953,0.0208131,0.015113417,inf,inf,inf,inf,1,1,1,1,2,0,2,1,47,0,1,1,1,0,21726.892,1.0,1.0,0.0,1.0,0.0,1.0,1.0,0.0,1.0,1.0,1.0,1.0,0.0,21726.864,21726892000,-0.0009255585,0.00063457934,-0.00069203,21726.892,21726912000,-0.0021261054,0.0025944277,-0.0010143912,0.001,0.0,0.0,0.0,-1.0,21726.912,0.0055918496750415395,0.0013184289880676491,normalized,1.0
21726900000,21726900000,1036000,41.606704,-86.3556021,-0.667282,-1.1554198,0.1310786,0.0004925808,0.000107556276,0.0,-0.003474596,-0.0037352284,-0.0014835552,-0.001665584,-0.00020542361,-0.0023216454,0.0030729105,0.04919944,-0.032245208,0.039827947,-1.0712222,0.065375656,229.40294,0.100388974,0.049075253,0.05536645,0.0014142136,0.001,inf,inf,inf,inf,1,1,1,1,2,0,2,1,47,0,1,1,1,0,21726.9,1.0,1.0,0.0,1.0,0.0,1.0,1.0,0.0,1.0,1.0,1.0,1.0,0.0,21726.864,21726900000,-0.0024439495,0.0024687552,0.0021956433,21726.9,21726912000,-0.0021261054,0.0025944277,-0.0010143912,0.001,0.0,0.0,0.0,-1.0,21726.912,0.005312785013044439,0.004109560912909331,normalized,1.0
21726908000,21726908000,1036000,41.606704,-86.3556021,-0.6672601,-1.1554309,0.13107657,0.0004925808,0.000107556276,0.0,-0.0030790057,-0.0037267036,-0.001292048,-0.001462419,-0.00020542361,-0.0023216454,0.0030729105,0.007272052,0.0037026305,0.007222343,-1.071182,0.065375656,229.40294,0.10038996,0.049075287,0.055366464,0.0042137955,0.0029834518,inf,inf,inf,inf,1,1,1,1,2,0,2,1,47,0,1,1,1,0,21726.908,1.0,1.0,0.0,1.0,0.0,1.0,1.0,0.0,1.0,1.0,1.0,1.0,0.0,21726.864,21726912000,-0.0077664815,0.0029969555,0.0049366895,21726.912,21726912000,-0.0021261054,0.0025944277,-0.0010143912,0.001,0.0,0.0,0.0,-1.0,21726.912,0.00500379694404054,0.009678371783426835,normalized,1.0
21727324000,21727324000,1036000,41.606704,-86.3556021,-0.66648287,-1.1551777,0.13119699,0.0004925808,0.000107556276,0.0,-0.0028270476,-0.0011982974,-0.0014597696,-0.0013512268,-0.00020542361,-0.0023216454,0.0030729105,0.005459152,-0.0265073,0.034339663,-1.0711384,0.065375656,229.40294,0.100350484,0.049047913,0.055325147,0.004213755,0.002983452,inf,inf,inf,inf,1,1,1,1,2,0,2,1,47,0,1,1,1,0,21727.324,1.0,1.0,0.0,1.0,0.0,1.0,1.0,0.0,1.0,1.0,1.0,1.0,0.0,21727.368,21727320000,0.0034230244,-0.00037595088,-0.0011949796,21727.32,21727312000,-0.0033492346,0.002528281,-1.6084632e-05,0.001,0.0,0.0,0.0,-1.0,21727.312,0.0033998591259928224,0.00364505299708856,normalized,1.0
21727332000,21727332000,1036000,41.606704,-86.3556021,-0.66647625,-1.1551691,0.13119273,0.0004925808,0.000107556276,0.0,-0.0025373455,-0.0013955917,-0.0016824901,-0.00156792,-0.00020542361,-0.0023216454,0.0030729105,0.010576633,-0.01727071,-0.04465884,-1.0711455,0.065375656,229.40294,0.10035466,0.049047954,0.05532517,0.0057993843,0.004111199,inf,inf,inf,inf,1,1,1,1,2,0,2,1,47,0,1,1,1,0,21727.332,1.0,1.0,0.0,1.0,0.0,1.0,1.0,0.0,1.0,1.0,1.0,1.0,0.0,21727.368,21727332000,0.0012084396,0.00053301273,-0.00067537674,21727.332,21727312000,-0.0033492346,0.002528281,-1.6084632e-05,0.001,0.0,0.0,0.0,-1.0,21727.312,0.0033491150049046016,0.0014834293303434582,normalized,1.0
21727340000,21727340000,1036000,41.606704,-86.3556021,-0.6664705,-1.1551608,0.13118824,0.0004925808,0.000107556276,0.0,-0.0030859555,-0.0011892868,-0.0014471007,-0.0013267208,-0.00020542361,-0.0023216454,0.0030729105,-0.10972037,0.034878645,0.033601124,-1.0711575,0.065375656,229.40294,0.10035956,0.049048025,0.055325206,0.00704499,0.005000291,inf,inf,inf,inf,1,1,1,1,2,0,2,1,47,0,1,1,1,0,21727.34,1.0,1.0,0.0,1.0,0.0,1.0,1.0,0.0,1.0,1.0,1.0,1.0,0.0,21727.368,21727340000,-0.0015920008,0.002332616,-0.001187509,21727.34,21727356000,-0.0024436223,0.0031785944,0.00021985824,0.001,0.0,0.0,0.0,-1.0,21727.356,0.003609934192831634,0.0030636157682936743,normalized,1.0
21727348000,21727348000,1036000,41.606704,-86.3556021,-0.6664692,-1.1551504,0.13118559,0.0004925808,0.000107556276,0.0,-0.003422299,-0.0010662884,-0.0013072217,-0.0011812454,-0.00020542361,-0.0023216454,0.0030729105,-0.04220766,-0.015570682,0.0041256957,-1.0711727,0.065375656,229.40294,0.10036087,0.049048148,0.055325266,0.008109078,0.005762279,inf,inf,inf,inf,1,1,1,1,2,0,2,1,47,0,1,1,1,0,21727.348,1.0,1.0,0.0,1.0,0.0,1.0,1.0,0.0,1.0,1.0,1.0,1.0,0.0,21727.368,21727352000,0.0005934159,0.00033868937,-0.00082896784,21727.352,21727356000,-0.0024436223,0.0031785944,0.00021985824,0.001,0.0,0.0,0.0,-1.0,21727.356,0.003815485548436326,0.0010742628167623007,normalized,1.0
21727356000,21727356000,1036000,41.606704,-86.3556021,-0.6664685,-1.1551412,0.13118157,0.0004925808,0.000107556276,0.0,-0.0032332875,-0.0011489921,-0.0017684452,-0.0016370818,-0.00020542361,-0.0023216454,0.0030729105,0.015003018,0.024791542,-0.0626492,-1.0711823,0.065375656,229.40294,0.100358784,0.049048338,0.05532536,0.009055858,0.006442421,inf,inf,inf,inf,1,1,1,1,2,0,2,1,47,0,1,1,1,0,21727.356,1.0,1.0,0.0,1.0,0.0,1.0,1.0,0.0,1.0,1.0,1.0,1.0,0.0,21727.368,21727356000,-0.002857203,-0.0009139981,-0.001117153,21727.356,21727356000,-0.0024436223,0.0031785944,0.00021985824,0.001,0.0,0.0,0.0,-1.0,21727.356,0.0038602758099547368,0.0032010986138233245,normalized,1.0
21727364000,21727364000,1036000,41.606704,-86.3556021,-0.6664681,-1.1551288,0.131176,0.0004925808,0.000107556276,0.0,-0.0035320963,-0.00049130345,-0.0016982114,-0.0015616659,-0.00020542361,-0.0023216454,0.0030729105,-0.064409636,0.06478429,0.007471006,-1.0712086,0.065375656,229.40294,0.10035503,0.04904862,0.055325497,0.009918697,0.007064398,inf,inf,inf,inf,1,1,1,1,2,0,2,1,47,0,1,1,1,0,21727.364,1.0,1.0,0.0,1.0,0.0,1.0,1.0,0.0,1.0,1.0,1.0,1.0,0.0,21727.368,21727356000,-0.002857203,-0.0009139981,-0.001117153,21727.356,21727356000,-0.0024436223,0.0031785944,0.00021985824,0.001,0.0,0.0,0.0,-1.0,21727.356,0.003949810794398328,0.0032010986138233245,normalized,1.0
21727372000,21727372000,1036000,41.606704,-86.3556021,-0.66646934,-1.1551147,0.13117148,0.0004925808,0.000107556276,0.0,-0.0035267978,-0.00066209066,-0.0015110477,-0.0013695211,-0.00020542361,-0.0023216454,0.0030729105,-0.009870306,-0.040953174,0.022306042,-1.0712165,0.065375656,229.40294,0.10034998,0.04904902,0.055325687,0.010717983,0.0076424237,inf,inf,inf,inf,1,1,1,1,2,0,2,1,47,0,1,1,1,0,21727.372,1.0,1.0,0.0,1.0,0.0,1.0,1.0,0.0,1.0,1.0,1.0,1.0,0.0,21727.368,21727372000,-0.00503981,-0.0058367737,-0.0010155526,21727.372,21727356000,-0.0024436223,0.0031785944,0.00021985824,0.001,0.0,0.0,0.0,-1.0,21727.356,0.003893575723652921,0.0077781076840371935,normalized,1.0
21727380000,21727380000,1036000,41.606704,-86.3556021,-0.6664716,-1.1551028,0.13116913,0.0004925808,0.000107556276,0.0,-0.0037745016,-0.0009265632,-0.0010818592,-0.0009356657,-0.00020542361,-0.0023216454,0.0030729105,-0.049853023,-0.019029286,0.067539446,-1.0711974,0.065375656,229.40294,0.10033877,0.049049556,0.055319034,0.01146721,0.008185813,inf,inf,inf,inf,1,1,1,1,2,0,2,1,47,0,1,1,1,0,21727.38,1.0,1.0,0.0,1.0,0.0,1.0,1.0,0.0,1.0,1.0,1.0,1.0,0.0,21727.368,21727380000,-0.007076665,-0.00093734486,0.0022126215,21727.38,21727356000,-0.0024436223,0.0031785944,0.00021985824,0.001,0.0,0.0,0.0,-1.0,21727.356,0.004034327827609135,0.007473519707009253,normalized,1.0
21727388000,21727388000,1036000,41.606704,-86.3556021,-0.66647416,-1.1550905,0.13117027,0.0004925808,0.000107556276,0.0,-0.003498155,-0.0005599563,-0.0008479581,-0.00069728674,-0.00020542361,-0.0023216454,0.0030729105,0.030295458,0.039507765,-0.006323743,-1.0712323,0.065375656,229.40294,0.10032803,0.04905025,0.05531936,0.012175362,0.008701058,inf,inf,inf,inf,1,1,1,1,2,0,2,1,47,0,1,1,1,0,21727.388,1.0,1.0,0.0,1.0,0.0,1.0,1.0,0.0,1.0,1.0,1.0,1.0,0.0,21727.392,21727392000,-4.7907815e-06,0.000638196,-0.0033366678,21727.392,21727412000,-0.0029460283,0.002966751,-0.00055674603,0.001,0.0,0.0,0.0,-1.0,21727.412,0.0036427561545195834,0.003397156030205298,normalized,1.0
21727396000,21727396000,1036000,41.606704,-86.3556021,-0.66647506,-1.1550767,0.131171,0.0004925808,0.000107556276,0.0,-0.0033135517,-0.0005067144,-0.001055604,-0.0009006488,-0.00020542361,-0.0023216454,0.0030729105,0.015904037,0.01631138,-0.0267225,-1.0712332,0.065375656,229.40294,0.10032003,0.049051125,0.05531978,0.0128493,0.009192894,inf,inf,inf,inf,1,1,1,1,2,0,2,1,47,0,1,1,1,0,21727.396,1.0,1.0,0.0,1.0,0.0,1.0,1.0,0.0,1.0,1.0,1.0,1.0,0.0,21727.392,21727392000,-4.7907815e-06,0.000638196,-0.0033366678,21727.392,21727412000,-0.0029460283,0.002966751,-0.00055674603,0.001,0.0,0.0,0.0,-1.0,21727.412,0.0035143540169647464,0.003397156030205298,normalized,1.0
21727404000,21727404000,1036000,41.606704,-86.3556021,-0.6664733,-1.1550623,0.1311707,0.0004925808,0.000107556276,0.0,-0.0028669133,-0.00050991523,-0.001090339,-0.0009312993,-0.00020542361,-0.0023216454,0.0030729105,0.030865844,-0.031132987,-0.00022637457,-1.071205,0.065375656,229.40294,0.100315675,0.049052205,0.055320285,0.013494307,0.009664894,inf,inf,inf,inf,1,1,1,1,2,0,2,1,47,0,1,1,1,0,21727.404,1.0,1.0,0.0,1.0,0.0,1.0,1.0,0.0,1.0,1.0,1.0,1.0,0.0,21727.392,21727400000,0.0011691618,-0.0010989518,0.0014228105,21727.4,21727412000,-0.0029460283,0.002966751,-0.00055674603,0.001,0.0,0.0,0.0,-1.0,21727.412,0.0031093479294578537,0.00214453353720867,normalized,1.0
21727412000,21727412000,1036000,41.606704,-86.3556021,-0.6664702,-1.1550503,0.13117033,0.0004925808,0.000107556276,0.0,-0.0028552953,-0.0009611694,-0.001108647,-0.00094571785,-0.00020542361,-0.0023216454,0.0030729105,-0.017372996,-0.057520587,-0.0064401585,-1.071182,0.065375656,229.40294,0.10031149,0.04905351,0.0553209,0.014114699,0.010119834,inf,inf,inf,inf,1,1,1,1,2,0,2,1,47,0,1,1,1,0,21727.412,1.0,1.0,0.0,1.0,0.0,1.0,1.0,0.0,1.0,1.0,1.0,1.0,0.0,21727.392,21727412000,-0.00030478305,0.0004687645,0.0027165918,21727.412,21727412000,-0.0029460283,0.002966751,-0.00055674603,0.001,0.0,0.0,0.0,-1.0,21727.412,0.003210242364107023,0.002773536347671469,normalized,1.0
21727420000,21727420000,1036000,41.606704,-86.3556021,-0.66646683,-1.1550409,0.13116936,0.0004925808,0.000107556276,0.0,-0.002653058,-0.0011177338,-0.0012853567,-0.0011187298,-0.00020542361,-0.0023216454,0.0030729105,0.023463773,-0.012349471,-0.037409425,-1.0711747,0.065375656,229.40294,0.1003076,0.049055062,0.055321634,0.0147129875,0.010559918,inf,inf,inf,inf,1,1,1,1,2,0,2,1,47,0,1,1,1,0,21727.42,1.0,1.0,0.0,1.0,0.0,1.0,1.0,0.0,1.0,1.0,1.0,1.0,0.0,21727.392,21727420000,-0.0022579504,-0.0019215129,0.00027159555,21727.42,21727412000,-0.0029460283,0.002966751,-0.00055674603,0.001,0.0,0.0,0.0,-1.0,21727.412,0.00315280628096008,0.0029773001152900882,normalized,1.0
21727428000,21727428000,1036000,41.606704,-86.3556021,-0.6664623,-1.1550337,0.13116778,0.0004925808,0.000107556276,0.0,-0.0026104557,-0.0015314051,-0.0012001363,-0.001029999,-0.00020542361,-0.0023216454,0.0030729105,-0.025841694,-0.059950512,0.01027615,-1.0711688,0.065375656,229.40294,0.10030551,0.04905689,0.055322494,0.015292116,0.0109869335,inf,inf,inf,inf,1,1,1,1,2,0,2,1,47,0,1,1,1,0,21727.428,1.0,1.0,0.0,1.0,0.0,1.0,1.0,0.0,1.0,1.0,1.0,1.0,0.0,21727.392,21727432000,-0.00016235717,-0.0028808406,-0.0016657553,21727.432,21727412000,-0.0029460283,0.002966751,-0.00055674603,0.001,0.0,0.0,0.0,-1.0,21727.412,0.0032557652987502323,0.0033317177450583745,normalized,1.0
21727436000,21727436000,1036000,41.606704,-86.3556021,-0.66645795,-1.1550299,0.13116525,0.0004925808,0.000107556276,0.0,-0.002488771,-0.0018599083,-0.0015704315,-0.0013969672,-0.00020542361,-0.0023216454,0.0030729105,0.015598912,-0.03487931,-0.058963954,-1.0711976,0.065375656,229.40294,0.10030274,0.049059015,0.055323493,0.015854592,0.011402347,inf,inf,inf,inf,1,1,1,1,2,0,2,1,47,0,1,1,1,0,21727.436,1.0,1.0,0.0,1.0,0.0,1.0,1.0,0.0,1.0,1.0,1.0,1.0,0.0,21727.392,21727432000,-0.00016235717,-0.0028808406,-0.0016657553,21727.432,21727412000,-0.0029460283,0.002966751,-0.00055674603,0.001,0.0,0.0,0.0,-1.0,21727.412,0.003481306517823752,0.0033317177450583745,normalized,1.0
21727852000,21727852000,1036000,41.606704,-86.3556021,-0.6662624,-1.1550959,0.13177611,0.0004925808,0.000107556276,0.0,-0.0025885834,-0.0006840766,-0.0006494431,-0.0003319582,-0.00020542361,-0.0023216454,0.0030729105,-0.020517008,-0.05103073,-0.02913835,-1.071229,0.065375656,229.40294,0.1,0.04903173,0.055282325,0.01585097,0.011401016,inf,inf,inf,inf,1,1,1,1,2,0,2,1,47,0,1,1,1,0,21727.852,1.0,1.0,0.0,1.0,0.0,1.0,1.0,0.0,1.0,1.0,1.0,1.0,0.0,21727.896,21727852000,0.0077594663,-0.0001409952,-0.0035310374,21727.852,21727860000,-0.003574045,0.003224369,-0.00048039455,0.001,0.0,0.0,0.0,-1.0,21727.86,0.0027550864148989463,0.008526278322190608,normalized,1.0
21727860000,21727860000,1036000,41.606704,-86.3556021,-0.6662699,-1.1550733,0.131772,0.0004925808,0.000107556276,0.0,-0.0027325372,-0.00053816993,-0.00090363395,-0.00059234677,-0.00020542361,-0.0023216454,0.0030729105,-0.0029556742,0.0075655114,-0.019555975,-1.0712126,0.065375656,229.40294,0.1,0.04903417,0.055283476,0.016397826,0.011806084,inf,inf,inf,inf,1,1,1,1,2,0,2,1,47,0,1,1,1,0,21727.86,1.0,1.0,0.0,1.0,0.0,1.0,1.0,0.0,1.0,1.0,1.0,1.0,0.0,21727.896,21727860000,0.0053130225,-0.0013735936,0.0023501005,21727.86,21727860000,-0.003574045,0.003224369,-0.00048039455,0.001,0.0,0.0,0.0,-1.0,21727.86,0.0029279584591542017,0.00596975207387773,normalized,1.0
21727868000,21727868000,1036000,41.606704,-86.3556021,-0.6662773,-1.1550496,0.13176645,0.0004925808,0.000107556276,0.0,-0.0025396198,-0.00037137014,-0.0009784033,-0.0006732619,-0.00020542361,-0.0023216454,0.0030729105,0.014249673,0.026584713,-0.009904678,-1.07121,0.065375656,229.40294,0.1,0.04903696,0.05528479,0.016930673,0.012201806,inf,inf,inf,inf,1,1,1,1,2,0,2,1,47,0,1,1,1,0,21727.868,1.0,1.0,0.0,1.0,0.0,1.0,1.0,0.0,1.0,1.0,1.0,1.0,0.0,21727.896,21727872000,0.0027970285,-0.00090628385,0.0013585654,21727.872,21727860000,-0.003574045,0.003224369,-0.00048039455,0.001,0.0,0.0,0.0,-1.0,21727.86,0.0027467904046152756,0.0032388915993994353,normalized,1.0
21727876000,21727876000,1036000,41.606704,-86.3556021,-0.66628325,-1.155024,0.13175964,0.0004925808,0.000107556276,0.0,-0.0022250172,-0.00017760287,-0.001205457,-0.0009064091,-0.00020542361,-0.0023216454,0.0030729105,0.03944277,0.0061511984,-0.042041823,-1.0711983,0.065375656,229.40294,0.1,0.049040116,0.055286277,0.017451031,0.0125890635,inf,inf,inf,inf,1,1,1,1,2,0,2,1,47,0,1,1,1,0,21727.876,1.0,1.0,0.0,1.0,0.0,1.0,1.0,0.0,1.0,1.0,1.0,1.0,0.0,21727.896,21727872000,0.0027970285,-0.00090628385,0.0013585654,21727.872,21727860000,-0.003574045,0.003224369,-0.00048039455,0.001,0.0,0.0,0.0,-1.0,21727.86,0.002536803283381878,0.0032388915993994353,normalized,1.0
21727884000,21727884000,1036000,41.606704,-86.3556021,-0.6662861,-1.154999,0.1317495,0.0004925808,0.000107556276,0.0,-0.0016775853,-0.0004564467,-0.001669527,-0.0013765193,-0.00020542361,-0.0023216454,0.0030729105,0.062263887,-0.04123491,-0.05379977,-1.0711951,0.065375656,229.40294,0.1,0.049043667,0.055287953,0.017959522,0.012968615,inf,inf,inf,inf,1,1,1,1,2,0,2,1,47,0,1,1,1,0,21727.884,1.0,1.0,0.0,1.0,0.0,1.0,1.0,0.0,1.0,1.0,1.0,1.0,0.0,21727.896,21727880000,-0.001283726,0.0028030279,3.0700932e-05,21727.88,21727860000,-0.003574045,0.003224369,-0.00048039455,0.001,0.0,0.0,0.0,-1.0,21727.86,0.002410385121188309,0.003083157537084357,normalized,1.0
21727892000,21727892000,1036000,41.606704,-86.3556021,-0.6662851,-1.1549752,0.13173573,0.0004925808,0.000107556276,0.0,-0.001146486,-0.00040415846,-0.0019951148,-0.0017080938,-0.00020542361,-0.0023216454,0.0030729105,0.051261336,0.0035815733,-0.025207238,-1.0711597,0.065375656,229.40294,0.1,0.049047634,0.055289827,0.018457772,0.013341118,inf,inf,inf,inf,1,1,1,1,2,0,2,1,47,0,1,1,1,0,21727.892,1.0,1.0,0.0,1.0,0.0,1.0,1.0,0.0,1.0,1.0,1.0,1.0,0.0,21727.896,21727888000,-0.0033979593,0.0022324997,0.002952443,21727.888,21727912000,-0.0026781731,0.0019417674,0.0006793833,0.001,0.0,0.0,0.0,-1.0,21727.912,0.0023362913504451047,0.00502464943883706,normalized,1.0
21727900000,21727900000,1036000,41.606704,-86.3556021,-0.6662812,-1.1549487,0.13172038,0.0004925808,0.000107556276,0.0,-0.00079815893,0.00024243272,-0.0020734896,-0.0017924017,-0.00020542361,-0.0023216454,0.0030729105,0.040232968,0.09308157,-0.013442772,-1.071122,0.065375656,229.40294,0.1,0.049052045,0.055291913,0.018946894,0.013707146,inf,inf,inf,inf,1,1,1,1,2,0,2,1,47,0,1,1,1,0,21727.9,1.0,1.0,0.0,1.0,0.0,1.0,1.0,0.0,1.0,1.0,1.0,1.0,0.0,21727.896,21727896000,-0.0016776798,0.0010481641,0.005537041,21727.896,21727912000,-0.0026781731,0.0019417674,0.0006793833,0.001,0.0,0.0,0.0,-1.0,21727.912,0.0022349922645444444,0.005879802762639054,normalized,1.0
21727908000,21727908000,1036000,41.606704,-86.3556021,-0.66627544,-1.1549172,0.13170524,0.0004925808,0.000107556276,0.0,-0.00059014146,0.00075032853,-0.0018218369,-0.0015464937,-0.00020542361,-0.0023216454,0.0030729105,0.014166824,0.044158958,0.051127683,-1.0711384,0.065375656,229.40294,0.10000698,0.04905693,0.055287324,0.01942742,0.014067204,inf,inf,inf,inf,1,1,1,1,2,0,2,1,47,0,1,1,1,0,21727.908,1.0,1.0,0.0,1.0,0.0,1.0,1.0,0.0,1.0,1.0,1.0,1.0,0.0,21727.896,21727912000,-0.0058059054,0.0074148,-0.0033773028,21727.912,21727912000,-0.0026781731,0.0019417674,0.0006793833,0.001,0.0,0.0,0.0,-1.0,21727.912,0.002056781353460912,0.010004697434537288,normalized,1.0
21727916000,21727916000,1036000,41.606704,-86.3556021,-0.6662684,-1.1548821,0.13169144,0.0004925808,0.000107556276,0.0,-0.0003477227,0.0012582943,-0.0018378969,-0.0015682491,-0.00020542361,-0.0023216454,0.0030729105,0.021714179,0.06074034,-0.02187776,-1.0711514,0.065375656,229.40294,0.10001589,0.0490623,0.05528987,0.019899413,0.014421741,inf,inf,inf,inf,1,1,1,1,2,0,2,1,47,0,1,1,1,0,21727.916,1.0,1.0,0.0,1.0,0.0,1.0,1.0,0.0,1.0,1.0,1.0,1.0,0.0,21727.896,21727912000,-0.0058059054,0.0074148,-0.0033773028,21727.912,21727912000,-0.0026781731,0.0019417674,0.0006793833,0.001,0.0,0.0,0.0,-1.0,21727.912,0.0022543470532589674,0.010004697434537288,normalized,1.0
21727924000,21727924000,1036000,41.606704,-86.3556021,-0.6662605,-1.1548448,0.13167751,0.0004925808,0.000107556276,0.0,-0.00028221798,0.0011843025,-0.0016766862,-0.0014126839,-0.00020542361,-0.0023216454,0.0030729105,-0.00840109,-0.047090247,0.029588984,-1.0711634,0.065375656,229.40294,0.10002226,0.049068198,0.055292666,0.020364009,0.014771154,inf,inf,inf,inf,1,1,1,1,2,0,2,1,47,0,1,1,1,0,21727.924,1.0,1.0,0.0,1.0,0.0,1.0,1.0,0.0,1.0,1.0,1.0,1.0,0.0,21727.896,21727920000,0.00017021166,0.0021392717,-0.00156223,21727.92,21727912000,-0.0026781731,0.0019417674,0.0006793833,0.001,0.0,0.0,0.0,-1.0,21727.912,0.002072075291347293,0.0026544336474134825,normalized,1.0
21727932000,21727932000,1036000,41.606704,-86.3556021,-0.6662536,-1.1548103,0.13166271,0.0004925808,0.000107556276,0.0,-0.0004242129,0.00069989346,-0.0021814234,-0.0019230158,-0.00020542361,-0.0023216454,0.0030729105,-0.019215925,-0.06641617,-0.099728875,-1.071167,0.065375656,229.40294,0.10002659,0.04907464,0.055295724,0.020821264,0.015115797,inf,inf,inf,inf,1,1,1,1,2,0,2,1,47,0,1,1,1,0,21727.932,1.0,1.0,0.0,1.0,0.0,1.0,1.0,0.0,1.0,1.0,1.0,1.0,0.0,21727.896,21727928000,-0.0015215556,-0.0070820707,-0.0011193531,21727.928,21727912000,-0.0026781731,0.0019417674,0.0006793833,0.001,0.0,0.0,0.0,-1.0,21727.912,0.002329896025565249,0.0073296526661342865,normalized,1.0
21727940000,21727940000,1036000,41.606704,-86.3556021,-0.6662373,-1.1547849,0.13164735,0.0004925808,0.000107556276,0.0,-0.0003580549,0.00042448204,-0.002742418,-0.0024789665,-0.00020542361,-0.0023216454,0.0030729105,-0.011964083,-0.006230113,-0.031609148,-1.0711392,0.065375656,229.40294,0.10019827,0.049036458,0.05527718,0.0014142136,0.001,inf,inf,inf,inf,1,1,1,1,2,0,2,1,47,0,1,1,1,0,21727.94,1.0,1.0,0.0,1.0,0.0,1.0,1.0,0.0,1.0,1.0,1.0,1.0,0.0,21727.896,21727936000,-0.0039432216,-0.0029747097,0.0020741585,21727.936,21727956000,-0.0031789446,0.0032930123,-1.0265294e-05,0.001,0.0,0.0,0.0,-1.0,21727.956,0.002798078769516786,0.0053572406954609485,normalized,1.0
21728356000,21728356000,1036000,41.606704,-86.3556021,-0.66586554,-1.1544656,0.13187169,0.0004925808,0.000107556276,0.0,-0.0014273952,-0.0019787396,-0.00024281294,-3.5916448e-05,-0.00020542361,-0.0023216454,0.0030729105,0.008755672,-0.011320229,-0.013480024,-1.0710065,0.065375656,229.40294,0.1,0.04900926,0.055243026,0.0014142136,0.001,inf,inf,inf,inf,1,1,1,1,2,0,2,1,47,0,1,1,1,0,21728.356,1.0,1.0,0.0,1.0,0.0,1.0,1.0,0.0,1.0,1.0,1.0,1.0,0.0,21728.4,21728356000,0.0028037159,0.0013351374,0.0023698574,21728.356,21728356000,-0.0038008138,0.003018278,-0.00048974797,0.001,0.0,0.0,0.0,-1.0,21728.356,0.0024519024420687385,0.003906358767589881,normalized,1.0
21728364000,21728364000,1036000,41.606704,-86.3556021,-0.6658609,-1.154475,0.13186972,0.0004925808,0.000107556276,0.0,-0.0011733419,-0.0023186675,-0.000549057,-0.00034066488,-0.00020542361,-0.0023216454,0.0030729105,0.018584754,-0.05648483,-0.040886052,-1.0709981,0.065375656,229.40294,0.1,0.049009293,0.05524304,0.0042137452,0.0029834514,inf,inf,inf,inf,1,1,1,1,2,0,2,1,47,0,1,1,1,0,21728.364,1.0,1.0,0.0,1.0,0.0,1.0,1.0,0.0,1.0,1.0,1.0,1.0,0.0,21728.4,21728368000,0.0019936585,0.0017285745,0.0006657432,21728.368,21728356000,-0.0038008138,0.003018278,-0.00048974797,0.001,0.0,0.0,0.0,-1.0,21728.356,0.002656014642109652,0.002721370615153096,normalized,1.0
21728372000,21728372000,1036000,41.606704,-86.3556021,-0.6658545,-1.1544862,0.13186616,0.0004925808,0.000107556276,0.0,-0.0011378889,-0.002431076,-0.0005606612,-0.0003508919,-0.00020542361,-0.0023216454,0.0030729105,-0.04486819,-0.011732935,0.017329054,-1.070997,0.065375656,229.40294,0.1,0.049009334,0.05524306,0.005799467,0.0041111982,inf,inf,inf,inf,1,1,1,1,2,0,2,1,47,0,1,1,1,0,21728.372,1.0,1.0,0.0,1.0,0.0,1.0,1.0,0.0,1.0,1.0,1.0,1.0,0.0,21728.4,21728368000,0.0019936585,0.0017285745,0.0006657432,21728.368,21728356000,-0.0038008138,0.003018278,-0.00048974797,0.001,0.0,0.0,0.0,-1.0,21728.356,0.0027421273945067996,0.002721370615153096,normalized,1.0
21728380000,21728380000,1036000,41.606704,-86.3556021,-0.6658507,-1.1544968,0.13186996,0.0004925808,0.000107556276,0.0,-0.0016333053,-0.0021719313,0.0009462197,0.0011578901,-0.00020542361,-0.0023216454,0.0030729105,-0.06485149,0.050206255,0.16556394,-1.0709875,0.065375656,229.40294,0.1,0.049009405,0.055236217,0.007045073,0.005000294,inf,inf,inf,inf,1,1,1,1,2,0,2,1,47,0,1,1,1,0,21728.38,1.0,1.0,0.0,1.0,0.0,1.0,1.0,0.0,1.0,1.0,1.0,1.0,0.0,21728.4,21728380000,-0.0050487933,-0.0015277115,0.0015509692,21728.38,21728356000,-0.0038008138,0.003018278,-0.00048974797,0.001,0.0,0.0,0.0,-1.0,21728.356,0.002877551649509678,0.00549815620664835,normalized,1.0
21728388000,21728388000,1036000,41.606704,-86.3556021,-0.66584957,-1.1545037,0.13187124,0.0004925808,0.000107556276,0.0,-0.0018746284,-0.0017407307,-0.0012189805,-0.0010055444,-0.00020542361,-0.0023216454,0.0030729105,-0.054780133,0.02767123,-0.29882514,-1.0710214,0.065375656,229.40294,0.1,0.049009524,0.055236276,0.008109083,0.005762285,inf,inf,inf,inf,1,1,1,1,2,0,2,1,47,0,1,1,1,0,21728.388,1.0,1.0,0.0,1.0,0.0,1.0,1.0,0.0,1.0,1.0,1.0,1.0,0.0,21728.4,21728388000,-0.0076732053,0.000553409,-0.0040191305,21728.388,21728412000,-0.0028946362,0.0033733991,0.00036758173,0.001,0.0,0.0,0.0,-1.0,21728.412,0.0028337763615693635,0.0086797322005497,normalized,1.0
21728396000,21728396000,1036000,41.606704,-86.3556021,-0.6658515,-1.1545081,0.13186368,0.0004925808,0.000107556276,0.0,-0.00232422,-0.0014258387,-0.00092449045,-0.00070942123,-0.00020542361,-0.0023216454,0.0030729105,-0.06239419,0.061129116,0.09613011,-1.0710616,0.065375656,229.40294,0.1,0.049009714,0.055236373,0.009055476,0.0064424262,inf,inf,inf,inf,1,1,1,1,2,0,2,1,47,0,1,1,1,0,21728.396,1.0,1.0,0.0,1.0,0.0,1.0,1.0,0.0,1.0,1.0,1.0,1.0,0.0,21728.4,21728400000,0.0029171384,0.0054068244,-0.003924809,21728.4,21728412000,-0.0028946362,0.0033733991,0.00036758173,0.001,0.0,0.0,0.0,-1.0,21728.412,0.00287918342572315,0.007290238145881855,normalized,1.0
21728404000,21728404000,1036000,41.606704,-86.3556021,-0.6658549,-1.1545094,0.13186125,0.0004925808,0.000107556276,0.0,-0.0021977415,-0.0012541317,-0.00030132275,-8.4749365e-05,-0.00020542361,-0.0023216454,0.0030729105,0.022261176,-0.023402695,0.047669683,-1.0710933,0.065375656,229.40294,0.100000426,0.04901,0.055236507,0.009918142,0.0070644002,inf,inf,inf,inf,1,1,1,1,2,0,2,1,47,0,1,1,1,0,21728.404,1.0,1.0,0.0,1.0,0.0,1.0,1.0,0.0,1.0,1.0,1.0,1.0,0.0,21728.4,21728400000,0.0029171384,0.0054068244,-0.003924809,21728.4,21728412000,-0.0028946362,0.0033733991,0.00036758173,0.001,0.0,0.0,0.0,-1.0,21728.412,0.002548275774211791,0.007290238145881855,normalized,1.0
21728412000,21728412000,1036000,41.606704,-86.3556021,-0.6658562,-1.1545126,0.1318614,0.0004925808,0.000107556276,0.0,-0.001960566,-0.0018469347,-0.00025632756,-3.8376074e-05,-0.00020542361,-0.0023216454,0.0030729105,-0.0060157795,-0.09098725,-0.015842792,-1.0711132,0.065375656,229.40294,0.1,0.049010403,0.0552367,0.010717443,0.007642424,inf,inf,inf,inf,1,1,1,1,2,0,2,1,47,0,1,1,1,0,21728.412,1.0,1.0,0.0,1.0,0.0,1.0,1.0,0.0,1.0,1.0,1.0,1.0,0.0,21728.4,21728412000,-0.0016255181,-0.00051006087,-0.001814299,21728.412,21728412000,-0.0028946362,0.0033733991,0.00036758173,0.001,0.0,0.0,0.0,-1.0,21728.412,0.0027056774834476566,0.002488805345127209,normalized,1.0
21728420000,21728420000,1036000,41.606704,-86.3556021,-0.665858,-1.1545202,0.13186021,0.0004925808,0.000107556276,0.0,-0.0022430946,-0.0022823608,-0.00049280847,-0.00027360153,-0.00020542361,-0.0023216454,0.0030729105,-0.05141403,-0.03802637,-0.0137892235,-1.0710905,0.065375656,229.40294,0.10000084,0.04901094,0.055236958,0.011466459,0.008185813,inf,inf,inf,inf,1,1,1,1,2,0,2,1,47,0,1,1,1,0,21728.42,1.0,1.0,0.0,1.0,0.0,1.0,1.0,0.0,1.0,1.0,1.0,1.0,0.0,21728.4,21728420000,-0.002401871,-0.0005274706,0.0035535654,21728.42,21728412000,-0.0028946362,0.0033733991,0.00036758173,0.001,0.0,0.0,0.0,-1.0,21728.412,0.0032378240214733013,0.004321462320393702,normalized,1.0
21728428000,21728428000,1036000,41.606704,-86.3556021,-0.66586155,-1.1545297,0.13186076,0.0004925808,0.000107556276,0.0,-0.0024517912,-0.0025233564,0.00047228258,0.0006926252,-0.00020542361,-0.0023216454,0.0030729105,-0.032193396,-0.045503546,0.21258828,-1.0710486,0.065375656,229.40294,0.10000107,0.048982225,0.055237286,0.012169645,0.008699432,inf,inf,inf,inf,1,1,1,1,2,0,2,1,47,0,1,1,1,0,21728.428,1.0,1.0,0.0,1.0,0.0,1.0,1.0,0.0,1.0,1.0,1.0,1.0,0.0,21728.4,21728432000,0.0015557717,0.0024955603,0.0015347279,21728.432,21728412000,-0.0028946362,0.0033733991,0.00036758173,0.001,0.0,0.0,0.0,-1.0,21728.412,0.0035498814691746904,0.0033171729711450664,normalized,1.0
21728436000,21728436000,1036000,41.606704,-86.3556021,-0.66586596,-1.1545422,0.13187042,0.0004925808,0.000107556276,0.0,-0.0024399052,-0.0030149391,0.00069624116,0.0009172223,-0.00020542361,-0.0023216454,0.0030729105,-0.008404074,-0.065210536,-0.17271754,-1.0710756,0.065375656,229.40294,0.1,0.0489831,0.055230822,0.012843977,0.009191336,inf,inf,inf,inf,1,1,1,1,2,0,2,1,47,0,1,1,1,0,21728.436,1.0,1.0,0.0,1.0,0.0,1.0,1.0,0.0,1.0,1.0,1.0,1.0,0.0,21728.4,21728436000,0.000941379,0.005257086,-0.003071952,21728.436,21728412000,-0.0028946362,0.0033733991,0.00036758173,0.001,0.0,0.0,0.0,-1.0,21728.412,0.003940526223053718,0.00616117170052426,normalized,1.0
21728444000,21728444000,1036000,41.606704,-86.3556021,-0.6658706,-1.1545581,0.13187174,0.0004925808,0.000107556276,0.0,-0.0024925072,-0.0033655667,-0.00042657476,-0.00020507231,-0.00020542361,-0.0023216454,0.0030729105,-0.014938775,-0.032745887,-0.042312838,-1.0710727,0.065375656,229.40294,0.1,0.048984177,0.055231333,0.013489561,0.009663395,inf,inf,inf,inf,1,1,1,1,2,0,2,1,47,0,1,1,1,0,21728.444,1.0,1.0,0.0,1.0,0.0,1.0,1.0,0.0,1.0,1.0,1.0,1.0,0.0,21728.4,21728436000,0.000941379,0.005257086,-0.003071952,21728.436,21728460000,-0.0039261496,0.0034175387,0.0004340198,0.001,0.0,0.0,0.0,-1.0,21728.46,0.004209702766237753,0.00616117170052426,normalized,1.0
21728860000,21728860000,1036000,41.606704,-86.3556021,-0.6664762,-1.1549672,0.13187607,0.0004925808,0.000107556276,0.0,-0.0038314795,-0.0025970282,0.0003350766,0.00049547595,-0.00020542361,-0.0023216454,0.0030729105,0.009439387,0.009528482,0.07433158,-1.0709816,0.065375656,229.40294,0.10006483,0.048957143,0.055197313,0.01348899,0.009663395,inf,inf,inf,inf,1,1,1,1,2,0,2,1,47,0,1,1,1,0,21728.86,1.0,1.0,0.0,1.0,0.0,1.0,1.0,0.0,1.0,1.0,1.0,1.0,0.0,21728.904,21728860000,-0.0024388921,0.0012320852,-0.0043192566,21728.86,21728860000,-0.0029418052,0.0031954462,0.0008662183,0.001,0.0,0.0,0.0,-1.0,21728.86,0.004640804559382246,0.005110988768540292,normalized,1.0
21728868000,21728868000,1036000,41.606704,-86.3556021,-0.6664829,-1.1549582,0.13188909,0.0004925808,0.000107556276,0.0,-0.003916833,-0.0024648146,0.0021100903,0.002273828,-0.00020542361,-0.0023216454,0.0030729105,-0.048292037,0.0007540251,0.22002023,-1.0709783,0.065375656,229.40294,0.10005878,0.04895845,0.055197928,0.014109346,0.010118384,inf,inf,inf,inf,1,1,1,1,2,0,2,1,47,0,1,1,1,0,21728.868,1.0,1.0,0.0,1.0,0.0,1.0,1.0,0.0,1.0,1.0,1.0,1.0,0.0,21728.904,21728872000,0.009967572,0.0003909761,0.0026535045,21728.872,21728860000,-0.0029418052,0.0031954462,0.0008662183,0.001,0.0,0.0,0.0,-1.0,21728.86,0.005086194337263987,0.01032213350124263,normalized,1.0
21728876000,21728876000,1036000,41.606704,-86.3556021,-0.6664908,-1.1549476,0.13190222,0.0004925808,0.000107556276,0.0,-0.0038230433,-0.0020416318,5.4156015e-05,0.00022104876,-0.00020542361,-0.0023216454,0.0030729105,0.042473882,0.06785761,-0.3253902,-1.0709394,0.065375656,229.40294,0.10004756,0.048960008,0.055198662,0.014708739,0.01055851,inf,inf,inf,inf,1,1,1,1,2,0,2,1,47,0,1,1,1,0,21728.876,1.0,1.0,0.0,1.0,0.0,1.0,1.0,0.0,1.0,1.0,1.0,1.0,0.0,21728.904,21728876000,0.0027811313,-0.0015418162,0.0048024287,21728.876,21728860000,-0.0029418052,0.0031954462,0.0008662183,0.001,0.0,0.0,0.0,-1.0,21728.86,0.004334380388753023,0.0057597925241284365,normalized,1.0
21728884000,21728884000,1036000,41.606704,-86.3556021,-0.6664942,-1.1549352,0.13190493,0.0004925808,0.000107556276,0.0,-0.0029925113,-0.002182677,-2.247325e-07,0.00016964407,-0.00020542361,-0.0023216454,0.0030729105,0.070992954,-0.056456536,0.052072976,-1.0709038,0.065375656,229.40294,0.10004172,0.048961837,0.055199526,0.015288068,0.0109855635,inf,inf,inf,inf,1,1,1,1,2,0,2,1,47,0,1,1,1,0,21728.884,1.0,1.0,0.0,1.0,0.0,1.0,1.0,0.0,1.0,1.0,1.0,1.0,0.0,21728.904,21728888000,-0.0057296897,0.00225092,0.0011266808,21728.888,21728860000,-0.0029418052,0.0031954462,0.0008662183,0.001,0.0,0.0,0.0,-1.0,21728.86,0.0037039442243993613,0.006258226148820026,normalized,1.0
21728892000,21728892000,1036000,41.606704,-86.3556021,-0.66649413,-1.154925,0.1319081,0.0004925808,0.000107556276,0.0,-0.0028656546,-0.002374771,-0.00022736793,-5.464983e-05,-0.00020542361,-0.0023216454,0.0030729105,-0.012299889,-0.023248317,-0.061034285,-1.0709164,0.065375656,229.40294,0.10003759,0.048963964,0.055193663,0.015850136,0.011401011,inf,inf,inf,inf,1,1,1,1,2,0,2,1,47,0,1,1,1,0,21728.892,1.0,1.0,0.0,1.0,0.0,1.0,1.0,0.0,1.0,1.0,1.0,1.0,0.0,21728.904,21728888000,-0.0057296897,0.00225092,0.0011266808,21728.888,21728912000,-0.0025386198,0.0032730426,-0.00051696826,0.001,0.0,0.0,0.0,-1.0,21728.912,0.003728700814564591,0.006258226148820026,normalized,1.0
21728900000,21728900000,1036000,41.606704,-86.3556021,-0.66649395,-1.1549166,0.13191132,0.0004925808,0.000107556276,0.0,-0.0028969003,-0.0027262482,0.00060223264,0.0007776276,-0.00020542361,-0.0023216454,0.0030729105,-0.02746375,-0.075501606,0.22147124,-1.0709156,0.065375656,229.40294,0.100039884,0.048966408,0.055194814,0.016395604,0.011806079,inf,inf,inf,inf,1,1,1,1,2,0,2,1,47,0,1,1,1,0,21728.9,1.0,1.0,0.0,1.0,0.0,1.0,1.0,0.0,1.0,1.0,1.0,1.0,0.0,21728.904,21728900000,0.0015878953,-0.0041239066,-0.00082575524,21728.9,21728912000,-0.0025386198,0.0032730426,-0.00051696826,0.001,0.0,0.0,0.0,-1.0,21728.912,0.004023325086147614,0.004495540995883934,normalized,1.0
21728908000,21728908000,1036000,41.606704,-86.3556021,-0.66649574,-1.1549109,0.13192424,0.0004925808,0.000107556276,0.0,-0.0031127397,-0.0027434225,0.00085950614,0.0010374095,-0.00020542361,-0.0023216454,0.0030729105,-0.008411241,0.03194861,-0.18321076,-1.0709162,0.065375656,229.40294,0.10003078,0.048969198,0.055196133,0.016930362,0.012201799,inf,inf,inf,inf,1,1,1,1,2,0,2,1,47,0,1,1,1,0,21728.908,1.0,1.0,0.0,1.0,0.0,1.0,1.0,0.0,1.0,1.0,1.0,1.0,0.0,21728.904,21728912000,-0.0032814657,-0.0027723352,0.0025552083,21728.912,21728912000,-0.0025386198,0.0032730426,-0.00051696826,0.001,0.0,0.0,0.0,-1.0,21728.912,0.004237247486064514,0.0049982946149486245,normalized,1.0
21728916000,21728916000,1036000,41.606704,-86.3556021,-0.6664953,-1.1549044,0.1319275,0.0004925808,0.000107556276,0.0,-0.002449038,-0.002721251,-0.0005160399,-0.00033579208,-0.00020542361,-0.0023216454,0.0030729105,0.05468537,-0.031349707,-0.05939795,-1.0708957,0.065375656,229.40294,0.10002236,0.04897236,0.055197623,0.017450863,0.012589055,inf,inf,inf,inf,1,1,1,1,2,0,2,1,47,0,1,1,1,0,21728.916,1.0,1.0,0.0,1.0,0.0,1.0,1.0,0.0,1.0,1.0,1.0,1.0,0.0,21728.904,21728912000,-0.0032814657,-0.0027723352,0.0025552083,21728.912,21728912000,-0.0025386198,0.0032730426,-0.00051696826,0.001,0.0,0.0,0.0,-1.0,21728.912,0.003697200469116736,0.0049982946149486245,normalized,1.0
21728924000,21728924000,1036000,41.606704,-86.3556021,-0.66649294,-1.1549004,0.13192877,0.0004925808,0.000107556276,0.0,-0.0025072733,-0.003266247,-0.0001002587,8.2172875e-05,-0.00020542361,-0.0023216454,0.0030729105,-0.029429462,-0.08105689,0.050283905,-1.0709094,0.065375656,229.40294,0.10001591,0.048975915,0.055199303,0.017959902,0.012968604,inf,inf,inf,inf,1,1,1,1,2,0,2,1,47,0,1,1,1,0,21728.924,1.0,1.0,0.0,1.0,0.0,1.0,1.0,0.0,1.0,1.0,1.0,1.0,0.0,21728.904,21728920000,-0.007841097,-0.0025139498,-0.0017392777,21728.92,21728912000,-0.0025386198,0.0032730426,-0.00051696826,0.001,0.0,0.0,0.0,-1.0,21728.912,0.004118839724100415,0.008415927321338173,normalized,1.0
21728932000,21728932000,1036000,41.606704,-86.3556021,-0.66649115,-1.1549004,0.13193336,0.0004925808,0.000107556276,0.0,-0.002379754,-0.0035084866,0.00028199123,0.00046644988,-0.00020542361,-0.0023216454,0.0030729105,0.024528166,-0.014835929,0.039743196,-1.0709009,0.065375656,229.40294,0.100009084,0.04897989,0.05520118,0.018457869,0.013341106,inf,inf,inf,inf,1,1,1,1,2,0,2,1,47,0,1,1,1,0,21728.932,1.0,1.0,0.0,1.0,0.0,1.0,1.0,0.0,1.0,1.0,1.0,1.0,0.0,21728.904,21728928000,-0.0003410182,-0.0007269749,0.0002276671,21728.928,21728912000,-0.0025386198,0.0032730426,-0.00051696826,0.001,0.0,0.0,0.0,-1.0,21728.912,0.0042487911665193044,0.0008346365834203891,normalized,1.0
21728940000,21728940000,1036000,41.606704,-86.3556021,-0.6664886,-1.1549016,0.13194725,0.0004925808,0.000107556276,0.0,-0.002386807,-0.0036808464,0.0023720842,0.0025584167,-0.00020542361,-0.0023216454,0.0030729105,-0.029825816,-0.048977066,0.29084545,-1.0708756,0.065375656,229.40294,0.1,0.048984308,0.05520327,0.018946143,0.013707132,inf,inf,inf,inf,1,1,1,1,2,0,2,1,47,0,1,1,1,0,21728.94,1.0,1.0,0.0,1.0,0.0,1.0,1.0,0.0,1.0,1.0,1.0,1.0,0.0,21728.904,21728940000,0.0072165336,-0.0029447498,0.0028274267,21728.94,21728960000,-0.003897343,0.00288369,0.0016047275,0.001,0.0,0.0,0.0,-1.0,21728.96,0.004987209773764444,0.008291215250396161,normalized,1.0
21728948000,21728948000,1036000,41.606704,-86.3556021,-0.66648597,-1.1549054,0.13196415,0.0004925808,0.000107556276,0.0,-0.002139849,-0.003902285,0.0010059283,0.0011927077,-0.00020542361,-0.0023216454,0.0030729105,0.030969173,-0.006250689,-0.22838734,-1.0708292,0.065375656,229.40294,0.1,0.048989195,0.055198714,0.019424552,0.014067189,inf,inf,inf,inf,1,1,1,1,2,0,2,1,47,0,1,1,1,0,21728.948,1.0,1.0,0.0,1.0,0.0,1.0,1.0,0.0,1.0,1.0,1.0,1.0,0.0,21728.904,21728952000,-0.016161814,-0.0019386067,0.00043968722,21728.952,21728960000,-0.003897343,0.00288369,0.0016047275,0.001,0.0,0.0,0.0,-1.0,21728.96,0.004562748481865606,0.016283603795207994,normalized,1.0
21729364000,21729364000,1036000,41.606704,-86.3556021,-0.6658424,-1.1546617,0.13257176,0.0004925808,0.000107556276,0.0,0.00031696825,-0.000961482,0.00014816731,-0.00017034452,-0.00020542361,-0.0023216454,0.0030729105,0.008753216,0.0058841477,0.06807123,-1.0713314,0.065375656,229.40294,0.1,0.0489916,0.055171676,0.01942954,0.01406829,inf,inf,inf,inf,1,1,1,1,2,0,2,1,47,0,1,1,1,0,21729.364,1.0,1.0,0.0,1.0,0.0,1.0,1.0,0.0,1.0,1.0,1.0,1.0,0.0,21729.408,21729360000,-0.003929223,0.003854273,0.00038148052,21729.36,21729360000,-0.0026266524,0.0029486646,-8.666362e-05,0.001,0.0,0.0,0.0,-1.0,21729.36,0.0010231666822100387,0.005517222229473584,normalized,1.0
21729372000,21729372000,1036000,41.606704,-86.3556021,-0.6658273,-1.1546468,0.13255632,0.0004925808,0.000107556276,0.0,0.00012547911,-0.0008309454,0.0014158657,0.0010858865,-0.00020542361,-0.0023216454,0.0030729105,-0.041024435,0.015248431,0.2496959,-1.0713657,0.065375656,229.40294,0.1,0.048996985,0.055167373,0.019903166,0.014422809,inf,inf,inf,inf,1,1,1,1,2,0,2,1,47,0,1,1,1,0,21729.372,1.0,1.0,0.0,1.0,0.0,1.0,1.0,0.0,1.0,1.0,1.0,1.0,0.0,21729.408,21729372000,0.0003608422,0.0015212728,-0.004197905,21729.372,21729360000,-0.0026266524,0.0029486646,-8.666362e-05,0.001,0.0,0.0,0.0,-1.0,21729.36,0.0016464783464303567,0.0044796076183462406,normalized,1.0
21729380000,21729380000,1036000,41.606704,-86.3556021,-0.66581637,-1.1546323,0.13255219,0.0004925808,0.000107556276,0.0,-0.0005218192,-0.0011153099,0.0017537177,0.0014126531,-0.00020542361,-0.0023216454,0.0030729105,-0.075172134,-0.059697166,-0.1730165,-1.0713329,0.065375656,229.40294,0.1,0.049002893,0.05517018,0.02036756,0.014772207,inf,inf,inf,inf,1,1,1,1,2,0,2,1,47,0,1,1,1,0,21729.38,1.0,1.0,0.0,1.0,0.0,1.0,1.0,0.0,1.0,1.0,1.0,1.0,0.0,21729.408,21729380000,0.0026314678,0.003650754,0.0036789123,21729.38,21729360000,-0.0026266524,0.0029486646,-8.666362e-05,0.001,0.0,0.0,0.0,-1.0,21729.36,0.0021428339230607535,0.005812660600967867,normalized,1.0
21729388000,21729388000,1036000,41.606704,-86.3556021,-0.66580653,-1.1546217,0.13253818,0.0004925808,0.000107556276,0.0,5.7581165e-05,-0.0015713521,0.0003535946,1.8191786e-06,-0.00020542361,-0.0023216454,0.0030729105,0.09650966,-0.049648277,-0.037825726,-1.0713084,0.065375656,229.40294,0.1,0.049009345,0.05517324,0.020823242,0.015116838,inf,inf,inf,inf,1,1,1,1,2,0,2,1,47,0,1,1,1,0,21729.388,1.0,1.0,0.0,1.0,0.0,1.0,1.0,0.0,1.0,1.0,1.0,1.0,0.0,21729.408,21729392000,-0.00861223,0.004554744,0.0021769283,21729.392,21729412000,-0.0045662653,0.0035569333,-0.0002116318,0.001,0.0,0.0,0.0,-1.0,21729.412,0.0016116737119796698,0.009982745879855747,normalized,1.0
21729396000,21729396000,1036000,41.606704,-86.3556021,-0.66578925,-1.1546125,0.13252278,0.0004925808,0.000107556276,0.0,0.0006074162,-0.0016685409,0.0009829382,0.00061966834,-0.00020542361,-0.0023216454,0.0030729105,0.028238203,-0.016400613,0.069306165,-1.071306,0.065375656,229.40294,0.1,0.048971057,0.055154655,0.0014142136,0.001,inf,inf,inf,inf,1,1,1,1,2,0,2,1,47,0,1,1,1,0,21729.396,1.0,1.0,0.0,1.0,0.0,1.0,1.0,0.0,1.0,1.0,1.0,1.0,0.0,21729.408,21729392000,-0.00861223,0.004554744,0.0021769283,21729.392,21729412000,-0.0045662653,0.0035569333,-0.0002116318,0.001,0.0,0.0,0.0,-1.0,21729.412,0.0020295690872730817,0.009982745879855747,normalized,1.0
21729404000,21729404000,1036000,41.606704,-86.3556021,-0.6657722,-1.1546049,0.13250908,0.0004925808,0.000107556276,0.0,0.0001349985,-0.0019702977,0.0008456556,0.00047128065,-0.00020542361,-0.0023216454,0.0030729105,-0.089917965,-0.056447893,-0.010418768,-1.0713012,0.065375656,229.40294,0.1,0.04897109,0.05515467,0.0042140605,0.0029834516,inf,inf,inf,inf,1,1,1,1,2,0,2,1,47,0,1,1,1,0,21729.404,1.0,1.0,0.0,1.0,0.0,1.0,1.0,0.0,1.0,1.0,1.0,1.0,0.0,21729.408,21729400000,-0.001416859,0.004086599,-0.0004566299,21729.4,21729412000,-0.0045662653,0.0035569333,-0.0002116318,0.001,0.0,0.0,0.0,-1.0,21729.412,0.002148355421116092,0.0043492863412583,normalized,1.0
21729412000,21729412000,1036000,41.606704,-86.3556021,-0.66575974,-1.1545999,0.13250117,0.0004925808,0.000107556276,0.0,-0.00026200258,-0.0022608005,0.0024869828,0.0021018907,-0.00020542361,-0.0023216454,0.0030729105,-0.041397244,-0.037146416,0.22689898,-1.0712924,0.065375656,229.40294,0.1,0.0489418,0.055154692,0.005799326,0.0041110264,inf,inf,inf,inf,1,1,1,1,2,0,2,1,47,0,1,1,1,0,21729.412,1.0,1.0,0.0,1.0,0.0,1.0,1.0,0.0,1.0,1.0,1.0,1.0,0.0,21729.408,21729412000,0.004717378,-0.0015500691,0.001020422,21729.412,21729412000,-0.0045662653,0.0035569333,-0.0002116318,0.001,0.0,0.0,0.0,-1.0,21729.412,0.0033711938093534087,0.00506928303290937,normalized,1.0
21729420000,21729420000,1036000,41.606704,-86.3556021,-0.6657493,-1.1545975,0.13249333,0.0004925808,0.000107556276,0.0,-0.000268084,-0.0025136264,0.0005840275,0.00018859225,-0.00020542361,-0.0023216454,0.0030729105,0.0075281854,-0.026538398,-0.28516543,-1.0712925,0.065375656,229.40294,0.1,0.048941866,0.055154726,0.007045181,0.005000147,inf,inf,inf,inf,1,1,1,1,2,0,2,1,47,0,1,1,1,0,21729.42,1.0,1.0,0.0,1.0,0.0,1.0,1.0,0.0,1.0,1.0,1.0,1.0,0.0,21729.408,21729420000,-0.0013501607,-7.761978e-05,-0.0002150264,21729.42,21729412000,-0.0045662653,0.0035569333,-0.0002116318,0.001,0.0,0.0,0.0,-1.0,21729.412,0.0025944700481195016,0.0013693776319075386,normalized,1.0
21729428000,21729428000,1036000,41.606704,-86.3556021,-0.66573685,-1.1545948,0.13247709,0.0004925808,0.000107556276,0.0,0.00023181405,-0.0020702388,0.0008876498,0.00048223807,-0.00020542361,-0.0023216454,0.0030729105,0.041291263,0.0715985,0.11716589,-1.0712647,0.065375656,229.40294,0.1,0.048941985,0.05515479,0.008108427,0.005762152,inf,inf,inf,inf,1,1,1,1,2,0,2,1,47,0,1,1,1,0,21729.428,1.0,1.0,0.0,1.0,0.0,1.0,1.0,0.0,1.0,1.0,1.0,1.0,0.0,21729.408,21729432000,-0.0010246027,0.0003495673,-6.85876e-05,21729.432,21729412000,-0.0045662653,0.0035569333,-0.0002116318,0.001,0.0,0.0,0.0,-1.0,21729.412,0.0022644091084083906,0.001084763683458448,normalized,1.0
21729436000,21729436000,1036000,41.606704,-86.3556021,-0.6657242,-1.1545885,0.13246801,0.0004925808,0.000107556276,0.0,-0.00013064226,-0.0017078853,0.0017043892,0.0012903754,-0.00020542361,-0.0023216454,0.0030729105,-0.06708633,0.020401226,0.0770259,-1.0712893,0.065375656,229.40294,0.1,0.04894218,0.055148035,0.009055886,0.0064423056,inf,inf,inf,inf,1,1,1,1,2,0,2,1,47,0,1,1,1,0,21729.436,1.0,1.0,0.0,1.0,0.0,1.0,1.0,0.0,1.0,1.0,1.0,1.0,0.0,21729.408,21729432000,-0.0010246027,0.0003495673,-6.85876e-05,21729.432,21729412000,-0.0045662653,0.0035569333,-0.0002116318,0.001,0.0,0.0,0.0,-1.0,21729.412,0.0024163778974180834,0.001084763683458448,normalized,1.0
21729444000,21729444000,1036000,41.606704,-86.3556021,-0.66571534,-1.1545818,0.1324625,0.0004925808,0.000107556276,0.0,-0.0005667746,-0.0017870438,0.0022018005,0.0017795005,-0.00020542361,-0.0023216454,0.0030729105,-0.071866475,-0.009341548,0.14766671,-1.0713012,0.065375656,229.40294,0.1,0.048942465,0.055148173,0.009918766,0.007064291,inf,inf,inf,inf,1,1,1,1,2,0,2,1,47,0,1,1,1,0,21729.444,1.0,1.0,0.0,1.0,0.0,1.0,1.0,0.0,1.0,1.0,1.0,1.0,0.0,21729.408,21729440000,-0.005601794,-0.0021002353,-0.004295621,21729.44,21729460000,-0.0034558182,0.0026822304,0.0007774068,0.001,0.0,0.0,0.0,-1.0,21729.46,0.0028918306368326363,0.007365014875032032,normalized,1.0
21729452000,21729452000,1036000,41.606704,-86.3556021,-0.66571003,-1.1545745,0.13246307,0.0004925808,0.000107556276,0.0,-0.0007443265,-0.0015062371,0.0020648441,0.0016345679,-0.00020542361,-0.0023216454,0.0030729105,0.006687581,0.03287813,-0.21700938,-1.0712874,0.065375656,229.40294,0.1,0.04894286,0.055148363,0.010717447,0.007642322,inf,inf,inf,inf,1,1,1,1,2,0,2,1,47,0,1,1,1,0,21729.452,1.0,1.0,0.0,1.0,0.0,1.0,1.0,0.0,1.0,1.0,1.0,1.0,0.0,21729.408,21729452000,-0.0011872932,-0.0027615756,0.0013940153,21729.452,21729460000,-0.0034558182,0.0026822304,0.0007774068,0.001,0.0,0.0,0.0,-1.0,21729.46,0.0026620205290950466,0.0033134941668751566,normalized,1.0
21729868000,21729868000,1036000,41.606704,-86.3556021,-0.6656484,-1.1550957,0.131659,0.0004925808,0.000107556276,0.0,0.00047877175,-0.0050560148,-0.003285932,-0.0037967237,-0.00020542361,-0.0023216454,0.0030729105,-0.044322997,-0.03904991,-0.1578732,-1.0713326,0.065375656,229.40294,0.1,0.048916016,0.055114575,0.010718104,0.0076422114,inf,inf,inf,inf,1,1,1,1,2,0,2,1,47,0,1,1,1,0,21729.868,1.0,1.0,0.0,1.0,0.0,1.0,1.0,0.0,1.0,1.0,1.0,1.0,0.0,21729.912,21729868000,0.009619272,0.00078102876,0.00052142394,21729.868,21729860000,-0.0055725425,0.0028478114,0.00021411381,0.001,0.0,0.0,0.0,-1.0,21729.86,0.006048955046538295,0.009665002982882946,normalized,1.0
21729876000,21729876000,1036000,41.606704,-86.3556021,-0.6656326,-1.1551042,0.13161409,0.0004925808,0.000107556276,0.0,0.00091307075,-0.0050971094,-0.004726688,-0.005240099,-0.00020542361,-0.0023216454,0.0030729105,0.07036609,-0.008879463,-0.07452449,-1.0713434,0.065375656,229.40294,0.1,0.048916552,0.05511483,0.011468314,0.008185612,inf,inf,inf,inf,1,1,1,1,2,0,2,1,47,0,1,1,1,0,21729.876,1.0,1.0,0.0,1.0,0.0,1.0,1.0,0.0,1.0,1.0,1.0,1.0,0.0,21729.912,21729876000,-0.00853071,-0.001329673,-0.0012958567,21729.876,21729860000,-0.0055725425,0.0028478114,0.00021411381,0.001,0.0,0.0,0.0,-1.0,21729.86,0.007011119873416651,0.008730423127086332,normalized,1.0
21729884000,21729884000,1036000,41.606704,-86.3556021,-0.6656135,-1.155111,0.13156599,0.0004925808,0.000107556276,0.0,0.0011831904,-0.0047215833,-0.0044155587,-0.0049314336,-0.00020542361,-0.0023216454,0.0030729105,0.016081156,0.031356476,0.06034591,-1.071336,0.065375656,229.40294,0.10001075,0.048917245,0.05511516,0.0121767,0.008700868,inf,inf,inf,inf,1,1,1,1,2,0,2,1,47,0,1,1,1,0,21729.884,1.0,1.0,0.0,1.0,0.0,1.0,1.0,0.0,1.0,1.0,1.0,1.0,0.0,21729.912,21729876000,-0.00853071,-0.001329673,-0.0012958567,21729.876,21729860000,-0.0055725425,0.0028478114,0.00021411381,0.001,0.0,0.0,0.0,-1.0,21729.86,0.006571943929663182,0.008730423127086332,normalized,1.0
21729892000,21729892000,1036000,41.606704,-86.3556021,-0.66559243,-1.1551157,0.13152699,0.0004925808,0.000107556276,0.0,0.0014227063,-0.0047668735,-0.0025470983,-0.0030652746,-0.00020542361,-0.0023216454,0.0030729105,0.0117926095,-0.043785606,0.23038027,-1.0712966,0.065375656,229.40294,0.10002278,0.04891812,0.055115577,0.012850032,0.009192709,inf,inf,inf,inf,1,1,1,1,2,0,2,1,47,0,1,1,1,0,21729.892,1.0,1.0,0.0,1.0,0.0,1.0,1.0,0.0,1.0,1.0,1.0,1.0,0.0,21729.912,21729892000,0.008307962,-0.00036432428,0.0050317873,21729.892,21729912000,-0.0041720364,0.0019688723,-0.00046189988,0.001,0.0,0.0,0.0,-1.0,21729.912,0.005588817936820346,0.009719765851443275,normalized,1.0
21729900000,21729900000,1036000,41.606704,-86.3556021,-0.66556853,-1.1551217,0.13148636,0.0004925808,0.000107556276,0.0,0.0019934634,-0.0048124623,-0.0049803103,-0.005500618,-0.00020542361,-0.0023216454,0.0030729105,0.070444554,0.0139631815,-0.34868813,-1.0712733,0.065375656,229.40294,0.10003406,0.0489192,0.055116087,0.013496695,0.0096647125,inf,inf,inf,inf,1,1,1,1,2,0,2,1,47,0,1,1,1,0,21729.9,1.0,1.0,0.0,1.0,0.0,1.0,1.0,0.0,1.0,1.0,1.0,1.0,0.0,21729.912,21729900000,-0.008457281,-0.0021561848,0.003138534,21729.9,21729912000,-0.0041720364,0.0019688723,-0.00046189988,0.001,0.0,0.0,0.0,-1.0,21729.912,0.007206745479087418,0.009274973340871016,normalized,1.0
21729908000,21729908000,1036000,41.606704,-86.3556021,-0.66554177,-1.1551263,0.13143289,0.0004925808,0.000107556276,0.0,0.0020445017,-0.004701527,-0.0054529635,-0.005975236,-0.00020542361,-0.0023216454,0.0030729105,-0.024543494,-0.020935535,-0.027266392,-1.071257,0.065375656,229.40294,0.1000475,0.048920512,0.055116706,0.0141174495,0.010119657,inf,inf,inf,inf,1,1,1,1,2,0,2,1,47,0,1,1,1,0,21729.908,1.0,1.0,0.0,1.0,0.0,1.0,1.0,0.0,1.0,1.0,1.0,1.0,0.0,21729.912,21729912000,-0.001385432,0.005934484,0.0022333914,21729.912,21729912000,-0.0041720364,0.0019688723,-0.00046189988,0.001,0.0,0.0,0.0,-1.0,21729.912,0.007484594462318191,0.006490420581015837,normalized,1.0
21729916000,21729916000,1036000,41.606704,-86.3556021,-0.6655162,-1.1551317,0.1313818,0.0004925808,0.000107556276,0.0,0.0017534692,-0.0049480475,-0.0043177293,-0.004842361,-0.00020542361,-0.0023216454,0.0030729105,-0.06366326,-0.05340333,0.15805562,-1.0712267,0.065375656,229.40294,0.10004453,0.048922066,0.055110607,0.014715023,0.010559745,inf,inf,inf,inf,1,1,1,1,2,0,2,1,47,0,1,1,1,0,21729.916,1.0,1.0,0.0,1.0,0.0,1.0,1.0,0.0,1.0,1.0,1.0,1.0,0.0,21729.912,21729912000,-0.001385432,0.005934484,0.0022333914,21729.912,21729912000,-0.0041720364,0.0019688723,-0.00046189988,0.001,0.0,0.0,0.0,-1.0,21729.912,0.006797103398189804,0.006490420581015837,normalized,1.0
