timestamp,yaw_sp_move_rate,q_d[0],q_d[1],q_d[2],q_d[3],thrust_body[0],thrust_body[1],thrust_body[2],reset_integral,fw_control_yaw_wheel
1743177449813379,0.0,1.0,-0.0,0.0,-0.00018928346,0.0,0.0,-0.001,0,0
1743177449821379,0.0,1.0,-0.0,0.0,-0.00017402106,0.0,0.0,-0.001,0,0
1743177449861379,0.0,1.0,-0.0,0.0,-4.2941094e-05,0.0,0.0,-0.001,0,0
1743177449909379,0.0,1.0,-0.0,0.0,-0.0001137311,0.0,0.0,-0.001,0,0
1743177449965379,0.0,1.0,-0.0,0.0,-0.0001172887,0.0,0.0,-0.001,0,0
1743177450005379,0.0,1.0,-0.0,0.0,-5.741307e-05,0.0,0.0,-0.001,0,0
1743177450061379,0.0,0.7084476,-0.0,0.0,-0.70576346,0.0,0.0,-0.001,0,0
1743177450109379,0.0,0.70855945,-0.0,0.0,-0.7056511,0.0,0.0,-0.001,0,0
1743177450165379,0.0,0.7085388,-0.0,0.0,-0.7056719,0.0,0.0,-0.001,0,0
1743177450213379,0.0,0.7084022,-0.0,0.0,-0.70580894,0.0,0.0,-0.001,0,0
1743177450261379,0.0,0.708248,-0.0,0.0,-0.70596373,0.0,0.0,-0.001,0,0
1743177450309379,0.0,0.7080831,-0.0,0.0,-0.70612913,0.0,0.0,-0.001,0,0
1743177450357379,0.0,0.7079212,-0.0,0.0,-0.7062915,0.0,0.0,-0.001,0,0
1743177450413379,0.0,0.70764834,-0.0,0.0,-0.70656484,0.0,0.0,-0.001,0,0
1743177450461379,0.0,0.7075316,-0.0,0.0,-0.7066818,0.0,0.0,-0.001,0,0
1743177450509379,0.0,0.70749587,-0.0,0.0,-0.7067175,0.0,0.0,-0.001,0,0
1743177450565379,0.0,0.70760417,-0.0,0.0,-0.7066091,0.0,0.0,-0.001,0,0
1743177450613379,0.0,0.7076484,-0.0,0.0,-0.7065648,0.0,0.0,-0.001,0,0
1743177450661379,0.0,0.7077456,-0.0,0.0,-0.7064674,0.0,0.0,-0.001,0,0
1743177450709379,0.0,0.7078337,-0.0,0.0,-0.7063791,0.0,0.0,-0.001,0,0
1743177450765379,0.0,0.707989,-0.0,0.0,-0.7062235,0.0,0.0,-0.001,0,0
1743177450805379,0.0,0.7081238,-0.0,0.0,-0.70608836,0.0,0.0,-0.001,0,0
1743177450861379,0.0,0.7082393,-0.0,0.0,-0.70597243,0.0,0.0,-0.001,0,0
1743177450909379,0.0,0.70828825,-0.0,0.0,-0.7059233,0.0,0.0,-0.001,0,0
1743177450965379,0.0,0.70845586,-0.0,0.0,-0.7057552,0.0,0.0,-0.001,0,0
1743177451013379,0.0,0.70854175,-0.0,0.0,-0.7056689,0.0,0.0,-0.001,0,0
1743177451061379,0.0,0.7086428,-0.0,0.0,-0.7055675,0.0,0.0,-0.001,0,0
1743177451109379,0.0,0.7087162,-0.0,0.0,-0.7054937,0.0,0.0,-0.001,0,0
1743177451157379,0.0,0.7088552,-0.0,0.0,-0.7053541,0.0,0.0,-0.001,0,0
1743177451205379,0.0,0.70888686,-0.0,0.0,-0.7053222,0.0,0.0,-0.001,0,0
1743177451261379,0.0,0.7090169,-0.0,0.0,-0.70519155,0.0,0.0,-0.001,0,0
1743177451309379,0.0,0.7090396,-0.0,0.0,-0.70516866,0.0,0.0,-0.001,0,0
1743177451365379,0.0,0.70912915,-0.0,0.0,-0.7050786,0.0,0.0,-0.001,0,0
1743177451413379,0.0,0.709138,-0.0,0.0,-0.7050698,0.0,0.0,-0.001,0,0
1743177451461379,0.0,0.7092342,-0.0,0.0,-0.704973,0.0,0.0,-0.001,0,0
1743177451509379,0.0,0.7091893,-0.0,0.0,-0.7050181,0.0,0.0,-0.001,0,0
1743177451565379,0.0,0.7090922,-0.0,0.0,-0.7051158,0.0,0.0,-0.001,0,0
1743177451605379,0.0,0.7090606,-0.0,0.0,-0.70514756,0.0,0.0,-0.001,0,0
1743177451661379,0.0,0.70901984,-0.0,0.0,-0.7051886,0.0,0.0,-0.001,0,0
1743177451709379,0.0,0.708932,-0.0,0.0,-0.70527685,0.0,0.0,-0.001,0,0
1743177451765379,0.0,0.7088898,-0.0,0.0,-0.7053193,0.0,0.0,-0.001,0,0
1743177451813379,0.0,0.7088896,-0.0,0.0,-0.70531946,0.0,0.0,-0.001,0,0
1743177451861379,0.0,0.7088529,-0.0,0.0,-0.70535636,0.0,0.0,-0.001,0,0
1743177451909379,0.0,0.70889133,-0.0,0.0,-0.70531774,0.0,0.0,-0.001,0,0
1743177451965379,0.0,0.7088983,-0.0,0.0,-0.7053107,0.0,0.0,-0.001,0,0
1743177452013379,0.0,0.7088447,-0.0,0.0,-0.7053646,0.0,0.0,-0.001,0,0
1743177452061379,0.0,0.7088453,-0.0,0.0,-0.705364,0.0,0.0,-0.001,0,0
1743177452109379,0.0,0.7088358,-0.0,0.0,-0.7053735,0.0,0.0,-0.001,0,0
1743177452165379,0.0,0.70900595,-0.0,0.0,-0.7052026,0.0,0.0,-0.001,0,0
1743177452205379,0.0,0.70908153,-0.0,0.0,-0.7051265,0.0,0.0,-0.001,0,0
1743177452261379,0.0,0.7091404,-0.0,0.0,-0.7050673,0.0,0.0,-0.001,0,0
1743177452309379,0.0,0.70911646,-0.0,0.0,-0.70509136,0.0,0.0,-0.001,0,0
1743177452365379,0.0,0.70913434,-0.0,0.0,-0.7050735,0.0,0.0,-0.001,0,0
1743177452413379,0.0,0.7091544,-0.0,0.0,-0.7050532,0.0,0.0,-0.001,0,0
1743177452461379,0.0,0.70919496,-0.0,0.0,-0.70501244,0.0,0.0,-0.001,0,0
1743177452509379,0.0,0.7091432,-0.0,0.0,-0.7050645,0.0,0.0,-0.001,0,0
1743177452565379,0.0,0.7091499,-0.0,0.0,-0.70505774,0.0,0.0,-0.001,0,0
1743177452613379,0.0,0.70928925,-0.0,0.0,-0.7049176,0.0,0.0,-0.001,0,0
1743177452661379,0.0,0.70927376,-0.0,0.0,-0.7049331,0.0,0.0,-0.001,0,0
1743177452709379,0.0,0.7092522,-0.0,0.0,-0.7049548,0.0,0.0,-0.001,0,0
1743177452765379,0.0,0.709139,-0.0,0.0,-0.7050687,0.0,0.0,-0.001,0,0
1743177452805379,0.0,0.7091474,-0.0,0.0,-0.7050603,0.0,0.0,-0.001,0,0
1743177452861379,0.0,0.7090602,-0.0,0.0,-0.705148,0.0,0.0,-0.001,0,0
1743177452909379,0.0,0.7090496,-0.0,0.0,-0.70515865,0.0,0.0,-0.001,0,0
1743177452965379,0.0,0.7090671,-0.0,0.0,-0.70514107,0.0,0.0,-0.001,0,0
1743177453005379,0.0,0.7090386,-0.0,0.0,-0.7051697,0.0,0.0,-0.001,0,0
1743177453061379,0.0,0.70907104,-0.0,0.0,-0.70513713,0.0,0.0,-0.001,0,0
1743177453109379,0.0,0.7091304,-0.0,0.0,-0.7050774,0.0,0.0,-0.001,0,0
1743177453165379,0.0,0.7091606,-0.0,0.0,-0.70504695,0.0,0.0,-0.001,0,0
1743177453213379,0.0,0.7092737,-0.0,0.0,-0.70493317,0.0,0.0,-0.001,0,0
1743177453261379,0.0,0.70928377,-0.0,0.0,-0.7049231,0.0,0.0,-0.001,0,0
1743177453309379,0.0,0.70928156,-0.0,0.0,-0.7049253,0.0,0.0,-0.001,0,0
1743177453365379,0.0,0.70928556,-0.0,0.0,-0.70492136,0.0,0.0,-0.001,0,0
1743177453405379,0.0,0.7092584,-0.0,0.0,-0.70494866,0.0,0.0,-0.001,0,0
1743177453461379,0.0,0.70928395,-0.0,0.0,-0.7049229,0.0,0.0,-0.001,0,0
1743177453509379,0.0,0.7092995,-0.0,0.0,-0.7049073,0.0,0.0,-0.001,0,0
1743177453565379,0.0,0.7092159,-0.0,0.0,-0.7049914,0.0,0.0,-0.001,0,0
1743177453613379,0.0,0.70918745,-0.0,0.0,-0.70502,0.0,0.0,-0.001,0,0
1743177453661379,0.0,0.70919704,-0.0,0.0,-0.70501035,0.0,0.0,-0.001,0,0
1743177453709379,0.0,0.7092655,-0.0,0.0,-0.7049416,0.0,0.0,-0.001,0,0
1743177453765379,0.0,0.70933586,-0.0,0.0,-0.7048707,0.0,0.0,-0.001,0,0
1743177453813379,0.0,0.70935374,-0.0,0.0,-0.70485264,0.0,0.0,-0.001,0,0
1743177453861379,0.0,0.70939684,-0.0,0.0,-0.70480925,0.0,0.0,-0.001,0,0
1743177453909379,0.0,0.7093804,-0.0,0.0,-0.7048259,0.0,0.0,-0.001,0,0
1743177453965379,0.0,0.70941037,-0.0,0.0,-0.70479566,0.0,0.0,-0.001,0,0
1743177454013379,0.0,0.709457,-0.0,0.0,-0.70474875,0.0,0.0,-0.001,0,0
1743177454061379,0.0,0.7094965,-0.0,0.0,-0.704709,0.0,0.0,-0.001,0,0
1743177454109379,0.0,0.70953876,-0.0,0.0,-0.70466644,0.0,0.0,-0.001,0,0
1743177454165379,0.0,0.7095378,-0.0,0.0,-0.7046674,0.0,0.0,-0.001,0,0
1743177454213379,0.0,0.7095788,-0.0,0.0,-0.70462614,0.0,0.0,-0.001,0,0
1743177454261379,0.0,0.7095464,-0.0,0.0,-0.7046587,0.0,0.0,-0.001,0,0
1743177454309379,0.0,0.7095367,-0.0,0.0,-0.7046686,0.0,0.0,-0.001,0,0
1743177454357379,0.0,0.7095626,-0.0,0.0,-0.7046424,0.0,0.0,-0.001,0,0
1743177454413379,0.0,0.7095677,-0.0,0.0,-0.7046373,0.0,0.0,-0.001,0,0
1743177454461379,0.0,0.70950246,-0.0,0.0,-0.704703,0.0,0.0,-0.001,0,0
1743177454509379,0.0,0.7094882,-0.0,0.0,-0.70471734,0.0,0.0,-0.001,0,0
1743177454565379,0.0,0.7094399,-0.0,0.0,-0.70476604,0.0,0.0,-0.001,0,0
1743177454613379,0.0,0.7092762,-0.0,0.0,-0.7049307,0.0,0.0,-0.001,0,0
1743177454661379,0.0,0.70921654,-0.0,0.0,-0.7049908,0.0,0.0,-0.001,0,0
1743177454709379,0.0,0.7091649,-0.0,0.0,-0.70504266,0.0,0.0,-0.001,0,0
1743177454765379,0.0,0.70913714,-0.0,0.0,-0.7050706,0.0,0.0,-0.001,0,0
1743177454813379,0.0,0.7091659,-0.0,0.0,-0.7050417,0.0,0.0,-0.001,0,0
1743177454861379,0.0,0.7091081,-0.0,0.0,-0.7050998,0.0,0.0,-0.001,0,0
1743177454909379,0.0,0.7091187,-0.0,0.0,-0.7050891,0.0,0.0,-0.001,0,0
1743177454965379,0.0,0.70915467,-0.0,0.0,-0.705053,0.0,0.0,-0.001,0,0
1743177455005379,0.0,0.7091702,-0.0,0.0,-0.70503736,0.0,0.0,-0.001,0,0
1743177455061379,0.0,0.7092239,-0.0,0.0,-0.70498335,0.0,0.0,-0.001,0,0
1743177455109379,0.0,0.70915025,-0.0,0.0,-0.7050574,0.0,0.0,-0.001,0,0
1743177455165379,0.0,0.7092377,-0.0,0.0,-0.7049695,0.0,0.0,-0.001,0,0
1743177455213379,0.0,0.7092663,-0.0,0.0,-0.7049407,0.0,0.0,-0.001,0,0
1743177455261379,0.0,0.70929897,-0.0,0.0,-0.70490783,0.0,0.0,-0.001,0,0
1743177455309379,0.0,0.7092136,-0.0,0.0,-0.7049936,0.0,0.0,-0.001,0,0
1743177455365379,0.0,0.70920897,-0.0,0.0,-0.7049984,0.0,0.0,-0.001,0,0
1743177455405379,0.0,0.70926327,-0.0,0.0,-0.70494366,0.0,0.0,-0.001,0,0
1743177455461379,0.0,0.7091847,-0.0,0.0,-0.7050228,0.0,0.0,-0.001,0,0
1743177455509379,0.0,0.70918065,-0.0,0.0,-0.7050268,0.0,0.0,-0.001,0,0
1743177455565379,0.0,0.7091482,0.0019674858,0.0039066724,-0.7050459,0.0,0.0,-0.009423497,0,0
1743177455605379,0.0,0.709152,-0.00020227936,0.001491328,-0.7050541,0.0,0.0,-0.015694749,0,0
1743177455661379,0.0,0.70909065,-7.9295954e-05,0.001598972,-0.70511556,0.0,0.0,-0.025141427,0,0
1743177455709379,0.0,0.7090407,-0.00040741477,0.0015956267,-0.7051657,0.0,0.0,-0.033818427,0,0
1743177455757379,0.0,0.70914483,-0.0003763166,0.0013837435,-0.70506144,0.0,0.0,-0.043127175,0,0
1743177455805379,0.0,0.7091736,-0.00054510514,0.0015052774,-0.70503205,0.0,0.0,-0.052529484,0,0
1743177455861379,0.0,0.70927644,-0.00077635614,0.0017501306,-0.70492786,0.0,0.0,-0.06455761,0,0
1743177455909379,0.0,0.7092954,-0.00057018956,0.0018439561,-0.7049088,0.0,0.0,-0.075391084,0,0
1743177455965379,0.0,0.70931315,-0.00044333644,0.0017974204,-0.70489115,0.0,0.0,-0.0886711,0,0
1743177456005379,0.0,0.7092852,-0.00040586013,0.0023062755,-0.70491785,0.0,0.0,-0.0981679,0,0
1743177456061379,0.0,0.7092977,-0.00079243147,0.0022371167,-0.70490503,0.0,0.0,-0.11269058,0,0
1743177456109379,0.0,0.709146,-0.0006719231,0.0021758038,-0.705058,0.0,0.0,-0.1255576,0,0
1743177456165379,0.0,0.7091286,-0.0007379078,0.0025706126,-0.7050741,0.0,0.0,-0.14127693,0,0
1743177456213379,0.0,0.70915353,-0.001154022,0.0028277836,-0.7050476,0.0,0.0,-0.15510696,0,0
1743177456261379,0.0,0.70914215,-0.00096274115,0.0029846102,-0.7050586,0.0,0.0,-0.16963789,0,0
1743177456309379,0.0,0.7091141,-0.0008385408,0.0031897803,-0.7050861,0.0,0.0,-0.1845648,0,0
1743177456365379,0.0,0.7091526,-0.00076085975,0.0035150107,-0.70504594,0.0,0.0,-0.20248006,0,0
1743177456413379,0.0,0.70920306,-0.0012058436,0.004093307,-0.7049914,0.0,0.0,-0.21842772,0,0
1743177456461379,0.0,0.70927346,-0.0013791863,0.0039899405,-0.7049208,0.0,0.0,-0.23470886,0,0
1743177456509379,0.0,0.70927614,-0.0015070501,0.0036855992,-0.7049195,0.0,0.0,-0.25191614,0,0
1743177456565379,0.0,0.7091927,-0.0013806802,0.0038409927,-0.70500284,0.0,0.0,-0.2726923,0,0
1743177456613379,0.0,0.7092125,-0.0017690428,0.0036742592,-0.70498306,0.0,0.0,-0.2907703,0,0
1743177456661379,0.0,0.7092515,-0.0015556894,0.0038400483,-0.7049433,0.0,0.0,-0.309481,0,0
1743177456709379,0.0,0.7092998,-0.0015883488,0.0039831125,-0.7048939,0.0,0.0,-0.32839233,0,0
1743177456765379,0.0,0.70925015,-0.0015808877,0.004411928,-0.70494133,0.0,0.0,-0.3513857,0,0
1743177456805379,0.0,0.7092878,-0.0017045846,0.0043792594,-0.70490336,0.0,0.0,-0.36846986,0,0
1743177456861379,0.0,0.7092963,-0.0019193989,0.0044830977,-0.7048937,0.0,0.0,-0.3803735,0,0
1743177456909379,0.0,0.7092096,-0.0017273203,0.0042070397,-0.70498306,0.0,0.0,-0.38515952,0,0
1743177456965379,0.0,0.70917916,-0.0021620337,0.004204445,-0.70501244,0.0,0.0,-0.39316103,0,0
1743177457013379,0.0,0.7090515,-0.0019026549,0.0040689157,-0.70514244,0.0,0.0,-0.40002233,0,0
1743177457061379,0.0,0.7089555,-0.0021822888,0.004085988,-0.7052379,0.0,0.0,-0.4051695,0,0
1743177457109379,0.0,0.70893395,-0.0022492176,0.0042924643,-0.70525825,0.0,0.0,-0.41035903,0,0
1743177457165379,0.0,0.7088863,-0.002036296,0.003981313,-0.70530856,0.0,0.0,-0.4187643,0,0
1743177457205379,0.0,0.7089171,-0.0020191201,0.0039750854,-0.70527774,0.0,0.0,-0.42409956,0,0
1743177457261379,0.0,0.70885855,-0.00204963,0.003917823,-0.70533687,0.0,0.0,-0.43191504,0,0
1743177457309379,0.0,0.7088529,-0.0023275474,0.0038687615,-0.70534194,0.0,0.0,-0.43761733,0,0
1743177457365379,0.0,0.7088204,-0.0020732356,0.0036976335,-0.70537627,0.0,0.0,-0.44713053,0,0
1743177457413379,0.0,0.7088504,-0.0019332536,0.0038314965,-0.7053458,0.0,0.0,-0.45505533,0,0
1743177457461379,0.0,0.7089442,-0.0020219863,0.0037259052,-0.7052518,0.0,0.0,-0.46117434,0,0
1743177457509379,0.0,0.7089191,-0.002312305,0.0034292536,-0.7052776,0.0,0.0,-0.46758395,0,0
1743177457565379,0.0,0.70899516,-0.0019343301,0.0036680107,-0.70520115,0.0,0.0,-0.477618,0,0
1743177457613379,0.0,0.7089801,-0.0018992387,0.003766283,-0.7052159,0.0,0.0,-0.48558295,0,0
1743177457661379,0.0,0.7089572,-0.0020848867,0.0034446649,-0.70524,0.0,0.0,-0.49241704,0,0
1743177457709379,0.0,0.7089309,-0.0017507881,0.0033703207,-0.7052677,0.0,0.0,-0.4994579,0,0
1743177457765379,0.0,0.7088716,-0.0019653798,0.0032727085,-0.7053273,0.0,0.0,-0.5105661,0,0
1743177457813379,0.0,0.7089012,-0.001701035,0.0030973635,-0.705299,0.0,0.0,-0.51910925,0,0
1743177457861379,0.0,0.70880765,-0.001417024,0.0031861253,-0.70539325,0.0,0.0,-0.5265606,0,0
1743177457909379,0.0,0.708785,-0.0014605032,0.003313601,-0.7054153,0.0,0.0,-0.53406966,0,0
1743177457965379,0.0,0.70854664,0.021091701,-0.05054182,-0.70353556,0.0,0.0,-0.5469963,0,0
1743177458013379,0.0,0.7088189,0.009793823,-0.023266165,-0.70493865,0.0,0.0,-0.54357344,0,0
1743177458061379,0.0,0.70888835,0.0071519446,-0.016889593,-0.70508224,0.0,0.0,-0.5400089,0,0
1743177458109379,0.0,0.70886374,0.0061450712,-0.014277446,-0.70517415,0.0,0.0,-0.53675145,0,0
1743177458165379,0.0,0.70891285,0.0051571378,-0.011947414,-0.705176,0.0,0.0,-0.5376175,0,0
1743177458213379,0.0,0.7090121,0.004278299,-0.010930338,-0.70509857,0.0,0.0,-0.5374561,0,0
1743177458261379,0.0,0.7091172,0.003963862,-0.010409365,-0.70500267,0.0,0.0,-0.5357003,0,0
1743177458309379,0.0,0.70911235,0.0036651408,-0.0102208,-0.7050119,0.0,0.0,-0.5339018,0,0
1743177458357379,0.0,0.709195,0.0035435806,-0.010234502,-0.7049292,0.0,0.0,-0.53809965,0,0
1743177458413379,0.0,0.709146,0.0035484366,-0.0100105135,-0.7049816,0.0,0.0,-0.53659195,0,0
1743177458461379,0.0,0.709173,0.003550408,-0.009385982,-0.7049631,0.0,0.0,-0.5347585,0,0
1743177458509379,0.0,0.7090847,0.0032263089,-0.009024505,-0.7050582,0.0,0.0,-0.532634,0,0
1743177458565379,0.0,0.70907897,0.0027944713,-0.008159504,-0.70507634,0.0,0.0,-0.56654507,0,0
1743177458613379,0.0,0.7089861,0.0027330434,-0.0072943824,-0.70517945,0.0,0.0,-0.5834562,0,0
1743177458661379,0.0,0.7090175,0.002205765,-0.006456456,-0.70515794,0.0,0.0,-0.58380294,0,0
1743177458709379,0.0,0.7090838,0.0021152012,-0.0056308038,-0.70509857,0.0,0.0,-0.58082145,0,0
1743177458765379,0.0,0.7091781,0.0019817795,-0.004880422,-0.70500976,0.0,0.0,-0.58818597,0,0
1743177458813379,0.0,0.70921177,0.0015701852,-0.0039490163,-0.7049827,0.0,0.0,-0.5971746,0,0
1743177458861379,0.0,0.70926553,0.0011348579,-0.00393962,-0.7049296,0.0,0.0,-0.59267664,0,0
1743177458909379,0.0,0.7092628,0.00082856085,-0.0035838168,-0.7049346,0.0,0.0,-0.58797365,0,0
1743177458957379,0.0,0.7092233,0.0007537745,-0.0028257906,-0.7049779,0.0,0.0,-0.60805064,0,0
1743177459005379,0.0,0.7092366,0.00013244014,-0.002626138,-0.7049657,0.0,0.0,-0.60358024,0,0
1743177459061379,0.0,0.7090764,0.00029111266,-0.0019390082,-0.70512897,0.0,0.0,-0.60840243,0,0
1743177459109379,0.0,0.7091013,-0.00021366979,-0.0012504682,-0.70510554,0.0,0.0,-0.6029035,0,0
1743177459165379,0.0,0.7090471,-0.0004570207,-0.0011319225,-0.7051601,0.0,0.0,-0.61858356,0,0
1743177459213379,0.0,0.7089574,-0.00047211032,-0.0011257123,-0.7052503,0.0,0.0,-0.6200001,0,0
1743177459261379,0.0,0.7089911,-0.0004428246,-0.0006555571,-0.70521694,0.0,0.0,-0.59234357,0,0
1743177459309379,0.0,0.7090151,-0.0008112985,-0.00041983317,-0.7051928,0.0,0.0,-0.5669152,0,0
1743177459365379,0.0,0.7090962,-0.0008198343,-0.000115434756,-0.70511127,0.0,0.0,-0.5587402,0,0
1743177459413379,0.0,0.7091673,-0.0011187779,-5.785125e-06,-0.7050394,0.0,0.0,-0.556712,0,0
1743177459461379,0.0,0.7091889,-0.00095906586,-6.3755295e-05,-0.7050179,0.0,0.0,-0.5438906,0,0
1743177459509379,0.0,0.70921946,-0.0009485265,0.00041615067,-0.70498705,0.0,0.0,-0.5328725,0,0
1743177459565379,0.0,0.7092642,-0.00094545743,-1.3415356e-05,-0.70494217,0.0,0.0,-0.53549236,0,0
1743177459605379,0.0,0.70871514,-0.00094528095,0.00029986733,-0.7054941,0.0,0.0,-0.5332136,0,0
1743177459661379,0.0,0.7087256,-0.00065335276,0.00022353316,-0.7054839,0.0,0.0,-0.5298835,0,0
1743177459709379,0.0,0.7087822,-0.0009941689,0.0004170357,-0.7054267,0.0,0.0,-0.52065617,0,0
1743177459765379,0.0,0.70846653,-0.00070972106,0.00049127796,-0.7057439,0.0,0.0,-0.52201605,0,0
1743177459805379,0.0,0.7082431,-0.0009140663,0.0006897714,-0.70596766,0.0,0.0,-0.51895183,0,0
1743177459861379,0.0,0.70790195,-0.0012792884,0.00042586646,-0.70630944,0.0,0.0,-0.5145381,0,0
1743177459909379,0.0,0.7077774,-0.001314229,0.0004244415,-0.7064342,0.0,0.0,-0.5058831,0,0
1743177459965379,0.0,0.70764977,-0.0009810668,0.00022535892,-0.7065627,0.0,0.0,-0.5105626,0,0
1743177460013379,0.0,0.7075497,-0.00096703274,-0.0002795119,-0.7066629,0.0,0.0,-0.5246534,0,0
1743177460061379,0.0,0.70757204,-0.00090276677,-0.0001395614,-0.70664066,0.0,0.0,-0.5259096,0,0
1743177460109379,0.0,0.7076435,-0.00073352834,-0.00016786969,-0.70656925,0.0,0.0,-0.52477354,0,0
1743177460157379,0.0,0.7077128,-0.0008126775,-0.00041715754,-0.70649964,0.0,0.0,-0.53725684,0,0
1743177460213379,0.0,0.7078152,-0.0008535019,-0.0005049862,-0.706397,0.0,0.0,-0.5357719,0,0
1743177460261379,0.0,0.7078912,-0.0009370108,-0.00078238547,-0.7063204,0.0,0.0,-0.5335799,0,0
1743177460309379,0.0,0.70810276,-0.0011233772,-0.0011274844,-0.7061077,0.0,0.0,-0.53052235,0,0
1743177460365379,0.0,0.70824844,-0.00070200127,-0.00090470765,-0.70596236,0.0,0.0,-0.5295494,0,0
1743177460413379,0.0,0.7083267,-0.0007868348,-0.0014466866,-0.70588285,0.0,0.0,-0.5287469,0,0
1743177460461379,0.0,0.70855564,-0.0009762642,-0.0022109195,-0.7056508,0.0,0.0,-0.52811086,0,0
1743177460509379,0.0,0.70861363,-0.0009926422,-0.0029848006,-0.7055898,0.0,0.0,-0.5281705,0,0
1743177460557379,0.0,0.7085959,-0.00085768825,-0.0040239394,-0.7056026,0.0,0.0,-0.5278932,0,0
1743177460605379,-6.0831444e-05,0.7086385,-0.0005269449,-0.0049725724,-0.70555407,0.0,0.0,-0.52774584,0,0
1743177460661379,-4.656532e-05,0.7086379,-0.0010177249,-0.006239324,-0.70554405,0.0,0.0,-0.5273065,0,0
1743177460709379,-3.8496462e-05,0.70863825,-0.0006953674,-0.007704513,-0.7055296,0.0,0.0,-0.52723473,0,0
1743177460765379,-2.8415876e-05,0.70863837,-0.00054052914,-0.009630716,-0.705506,0.0,0.0,-0.52759326,0,0
1743177460805379,-2.349196e-05,0.7086385,-0.00029533223,-0.01078935,-0.70548916,0.0,0.0,-0.52744806,0,0
1743177460861379,-1.7982653e-05,0.7086384,-0.00013705116,-0.0132662635,-0.7054471,0.0,0.0,-0.5278249,0,0
1743177460909379,-1.486661e-05,0.70863837,-0.00017443413,-0.01560303,-0.70539933,0.0,0.0,-0.5280285,0,0
1743177460965379,-1.09736775e-05,0.7086382,-8.263695e-05,-0.019027133,-0.7053155,0.0,0.0,-0.5279334,0,0
1743177461013379,-8.400143e-06,0.708638,-0.00013280295,-0.021478416,-0.7052452,0.0,0.0,-0.52797776,0,0
1743177461061379,-6.9445628e-06,0.70863783,5.7123587e-05,-0.024319205,-0.7051531,0.0,0.0,-0.5279905,0,0
1743177461109379,-5.7412058e-06,0.7086376,0.00013581921,-0.027187107,-0.7050486,0.0,0.0,-0.52849454,0,0
1743177461157379,-4.237828e-06,0.70863724,0.00036396555,-0.030395042,-0.7049179,0.0,0.0,-0.5285845,0,0
1743177461213379,-3.2439773e-06,0.708637,0.00026264,-0.03378226,-0.704764,0.0,0.0,-0.52851415,0,0
1743177461261379,-2.6818595e-06,0.7086366,0.00031720108,-0.03699501,-0.704603,0.0,0.0,-0.52880484,0,0
1743177461309379,-2.2171457e-06,0.7086362,0.00030209793,-0.0400543,-0.7044361,0.0,0.0,-0.5288985,0,0
1743177461365379,-1.6365694e-06,0.70863575,0.00029504983,-0.043731537,-0.7042179,0.0,0.0,-0.52887547,0,0
1743177461413379,-1.2527629e-06,0.7086354,0.00028794122,-0.046460293,-0.7040435,0.0,0.0,-0.5288957,0,0
1743177461461379,-1.0356836e-06,0.7086349,0.0005055731,-0.04929507,-0.70385104,0.0,0.0,-0.5294757,0,0
1743177461509379,-8.562199e-07,0.7086345,0.0005226508,-0.052137833,-0.7036466,0.0,0.0,-0.52967674,0,0
1743177461565379,-6.320123e-07,0.70863396,0.0004468347,-0.055320423,-0.70340407,0.0,0.0,-0.53014076,0,0
1743177461613379,-4.8379343e-07,0.7086335,0.00039124742,-0.05812083,-0.7031789,0.0,0.0,-0.5306653,0,0
1743177461661379,-3.999615e-07,0.7086329,0.0007432966,-0.060183883,-0.70300555,0.0,0.0,-0.53082263,0,0
1743177461709379,-3.30656e-07,0.708632,0.0012001769,-0.06220981,-0.70282936,0.0,0.0,-0.53105956,0,0
1743177461765379,-2.4407126e-07,0.7086319,0.0009800683,-0.06456349,-0.7026176,0.0,0.0,-0.53139293,0,0
1743177461813379,-1.8683194e-07,0.7086309,0.0013154653,-0.06655037,-0.70243263,0.0,0.0,-0.53202015,0,0
1743177461861379,-1.5445762e-07,0.7086312,0.0008855927,-0.068301946,-0.7022647,0.0,0.0,-0.5322056,0,0
1743177461909379,-1.2769314e-07,0.70863044,0.0011725907,-0.07014145,-0.7020838,0.0,0.0,-0.53229743,0,0
1743177461957379,-9.425573e-08,0.7086299,0.001336611,-0.07141751,-0.70195544,0.0,0.0,-0.53243154,0,0
1743177462005379,-7.792306e-08,0.70862967,0.0012391171,-0.0730824,-0.7017845,0.0,0.0,-0.532847,0,0
1743177462061379,-5.964863e-08,0.7086295,0.0012418616,-0.07414427,-0.70167327,0.0,0.0,-0.5332869,0,0
1743177462109379,-4.931269e-08,0.7086292,0.0012809298,-0.07511818,-0.70156986,0.0,0.0,-0.53363115,0,0
1743177462165379,-3.639979e-08,0.7086285,0.0015219455,-0.076261476,-0.7014468,0.0,0.0,-0.5335847,0,0
1743177462213379,-2.7863347e-08,0.70862806,0.0016592919,-0.076953426,-0.7013714,0.0,0.0,-0.53352565,0,0
1743177462261379,-2.3035174e-08,0.70862806,0.0016111847,-0.07741874,-0.70132023,0.0,0.0,-0.5336976,0,0
1743177462309379,-1.9043629e-08,0.7086272,0.0018724831,-0.07821352,-0.7012322,0.0,0.0,-0.5338576,0,0
1743177462365379,-1.4056911e-08,0.70862675,0.0020679655,-0.07835003,-0.70121694,0.0,0.0,-0.5338631,0,0
1743177462413379,-1.0760299e-08,0.70862705,0.0018794282,-0.0789206,-0.70115316,0.0,0.0,-0.5344246,0,0
1743177462461379,-8.89575e-09,0.7086259,0.00230544,-0.07894744,-0.7011499,0.0,0.0,-0.5343009,0,0
1743177462509379,-7.354291e-09,0.7086253,0.0024783835,-0.07911925,-0.7011306,0.0,0.0,-0.5343548,0,0
1743177462565379,-5.4285145e-09,0.7086249,0.0025816679,-0.079573624,-0.70107925,0.0,0.0,-0.5343542,0,0
1743177462613379,-4.1554253e-09,0.7086242,0.0027750626,-0.07960887,-0.7010753,0.0,0.0,-0.5345303,0,0
1743177462661379,-3.4353715e-09,0.70862305,0.0030955651,-0.079346344,-0.7011048,0.0,0.0,-0.5344925,0,0
1743177462709379,-2.8400888e-09,0.7086222,0.003264763,-0.07961761,-0.7010742,0.0,0.0,-0.53437304,0,0
1743177462765379,-2.0963902e-09,0.7086216,0.003407522,-0.079505615,-0.7010868,0.0,0.0,-0.5342375,0,0
1743177462813379,-1.604747e-09,0.70861995,0.003758476,-0.07930268,-0.70110965,0.0,0.0,-0.53413826,0,0
1743177462861379,-1.3266758e-09,0.70861965,0.0038386197,-0.07888718,-0.7011564,0.0,0.0,-0.5339754,0,0
1743177462909379,-1.0967888e-09,0.70861965,0.0038433091,-0.07866773,-0.701181,0.0,0.0,-0.53409797,0,0
1743177462965379,-8.095864e-10,0.708617,0.004326088,-0.078768566,-0.7011696,0.0,0.0,-0.5341474,0,0
1743177463013379,-6.197231e-10,0.70861834,0.0041066823,-0.07846608,-0.70120347,0.0,0.0,-0.5339667,0,0
1743177463061379,-5.1233723e-10,0.70862,0.0038092989,-0.077947624,-0.70126116,0.0,0.0,-0.53394336,0,0
1743177463109379,-4.2355922e-10,0.70861894,0.0040256428,-0.077940196,-0.701262,0.0,0.0,-0.53419274,0,0
1743177463165379,-3.1264705e-10,0.7086194,0.003956267,-0.07727403,-0.70133555,0.0,0.0,-0.53433055,0,0
1743177463205379,-2.5847144e-10,0.7086186,0.0041069933,-0.077167965,-0.7013473,0.0,0.0,-0.5342821,0,0
1743177463261379,-1.97855e-10,0.708617,0.004400185,-0.07671211,-0.7013971,0.0,0.0,-0.53422487,0,0
1743177463309379,-1.635706e-10,0.70861876,0.0041192886,-0.07631389,-0.70144045,0.0,0.0,-0.53385156,0,0
1743177463365379,-1.207384e-10,0.70862067,0.0037813329,-0.07575134,-0.7015014,0.0,0.0,-0.5335523,0,0
1743177463413379,-9.242297e-11,0.7086193,0.004056642,-0.07533941,-0.7015456,0.0,0.0,-0.5330508,0,0
1743177463461379,-7.640788e-11,0.7086218,0.003593144,-0.0749044,-0.7015922,0.0,0.0,-0.5329487,0,0
1743177463509379,-6.316789e-11,0.7086222,0.003513439,-0.07474268,-0.7016094,0.0,0.0,-0.5333333,0,0
1743177463565379,-4.66269e-11,0.70862275,0.0034083314,-0.07431811,-0.7016545,0.0,0.0,-0.5333123,0,0
1743177463613379,-3.569201e-11,0.7086234,0.0032725378,-0.07429814,-0.7016566,0.0,0.0,-0.5334376,0,0
1743177463661379,-2.9507282e-11,0.7086242,0.003104237,-0.07395943,-0.7016923,0.0,0.0,-0.5332613,0,0
1743177463709379,-2.4394247e-11,0.7086241,0.0031211334,-0.07401672,-0.7016862,0.0,0.0,-0.53310806,0,0
1743177463757379,-1.800643e-11,0.70862514,0.0028937107,-0.07366759,-0.701723,0.0,0.0,-0.53300524,0,0
1743177463813379,-1.3783581e-11,0.7086254,0.0028281964,-0.07347084,-0.7017436,0.0,0.0,-0.5332443,0,0
1743177463861379,-1.1395156e-11,0.70862716,0.0023175217,-0.073269814,-0.7017647,0.0,0.0,-0.5331236,0,0
1743177463909379,-9.420598e-12,0.70862734,0.002294992,-0.072958075,-0.70179707,0.0,0.0,-0.53312755,0,0
1743177463965379,-6.9537436e-12,0.70862854,0.001853386,-0.07291793,-0.70180136,0.0,0.0,-0.5328996,0,0
1743177464013379,-5.3229587e-12,0.70862865,0.0017907139,-0.07287268,-0.70180607,0.0,0.0,-0.5328548,0,0
1743177464061379,-4.4005945e-12,0.7086291,0.0016649856,-0.0724639,-0.7018482,0.0,0.0,-0.53303385,0,0
1743177464109379,-3.6380577e-12,0.70863,0.0012516098,-0.07150912,-0.70194614,0.0,0.0,-0.53294766,0,0
1743177464165379,-2.685405e-12,0.7086302,0.0010702708,-0.07201477,-0.7018946,0.0,0.0,-0.5331454,0,0
1743177464205379,-2.220077e-12,0.70863044,0.0008681088,-0.072032385,-0.70189273,0.0,0.0,-0.5333699,0,0
1743177464261379,-1.6994271e-12,0.7086308,0.00035883143,-0.0717891,-0.70191777,0.0,0.0,-0.533235,0,0
1743177464309379,-1.4049496e-12,0.7086308,0.000320166,-0.07180196,-0.7019165,0.0,0.0,-0.53313434,0,0
1743177464365379,-1.037053e-12,0.70863086,0.00018093365,-0.07168676,-0.70192826,0.0,0.0,-0.5330799,0,0
1743177464405379,-8.5735206e-13,0.7086308,9.330957e-05,-0.07182522,-0.7019142,0.0,0.0,-0.53311425,0,0
1743177464461379,-6.5628677e-13,0.7086308,-0.0001150132,-0.07189755,-0.7019068,0.0,0.0,-0.53297144,0,0
1743177464509379,-5.425651e-13,0.7086308,-0.00023088067,-0.071690544,-0.7019279,0.0,0.0,-0.5330601,0,0
1743177464557379,-4.0049035e-13,0.7086308,-0.00022685905,-0.07163484,-0.7019336,0.0,0.0,-0.53283656,0,0
1743177464605379,-3.3109323e-13,0.70863086,-0.00011173544,-0.07139571,-0.70195794,0.0,0.0,-0.5328828,0,0
1743177464661379,-2.5344562e-13,0.70863086,-0.00022704828,-0.071267575,-0.7019709,0.0,0.0,-0.53294975,0,0
1743177464709379,-2.0952845e-13,0.7086306,-0.0004931512,-0.07119344,-0.7019785,0.0,0.0,-0.532973,0,0
1743177464765379,-1.5466185e-13,0.7086305,-0.0006534512,-0.07119948,-0.70197797,0.0,0.0,-0.5327146,0,0
1743177464805379,-1.2786197e-13,0.7086307,-0.0004875629,-0.07117882,-0.70198,0.0,0.0,-0.5326122,0,0
1743177464861379,-9.7875924e-14,0.7086307,-0.0004948097,-0.07085796,-0.7020124,0.0,0.0,-0.53222287,0,0
1743177464909379,-8.091594e-14,0.7086307,-0.0005237628,-0.07076811,-0.7020214,0.0,0.0,-0.53232276,0,0
1743177464957379,-5.972749e-14,0.7086306,-0.0006010359,-0.07094772,-0.70200336,0.0,0.0,-0.5326062,0,0
1743177465005379,-4.9377887e-14,0.7086301,-0.0009900067,-0.07078313,-0.7020201,0.0,0.0,-0.52413195,0,0
1743177465061379,-3.7797842e-14,0.7086301,-0.0010275234,-0.07072952,-0.70202535,0.0,0.0,-0.51414096,0,0
1743177465109379,-3.1248214e-14,0.7086303,-0.0007974808,-0.071231484,-0.7019748,0.0,0.0,-0.51003164,0,0
1743177465165379,-2.3065634e-14,0.70863056,-0.00030933926,-0.07221278,-0.7018746,0.0,0.0,-0.50426954,0,0
1743177465205379,-1.906881e-14,0.70863,-0.0007538136,-0.07276884,-0.7018173,0.0,0.0,-0.50269806,0,0
1743177465261379,-1.4596815e-14,0.7086298,-0.0008666324,-0.07304066,-0.7017892,0.0,0.0,-0.5086344,0,0
1743177465309379,-1.20674726e-14,0.7086296,-0.0009135595,-0.07360707,-0.70173013,0.0,0.0,-0.5178923,0,0
1743177465365379,-8.9075145e-15,0.7086289,-0.0013473793,-0.073088445,-0.7017844,0.0,0.0,-0.5261265,0,0
1743177465413379,-6.8185335e-15,0.7086291,-0.0013198557,-0.07264435,-0.7018303,0.0,0.0,-0.5307448,0,0
1743177465461379,-5.6370153e-15,0.7086294,-0.0011608612,-0.07241348,-0.7018541,0.0,0.0,-0.5337236,0,0
1743177465509379,-4.660231e-15,0.708629,-0.0014220211,-0.07198385,-0.7018983,0.0,0.0,-0.5354449,0,0
1743177465565379,-3.4399147e-15,0.70862865,-0.0016377524,-0.07133148,-0.70196474,0.0,0.0,-0.536243,0,0
1743177465613379,-2.6331897e-15,0.7086292,-0.001380109,-0.07148551,-0.7019491,0.0,0.0,-0.52754265,0,0
1743177465661379,-2.1769096e-15,0.70862865,-0.0016250304,-0.071357034,-0.7019623,0.0,0.0,-0.5126824,0,0
1743177465709379,-1.7996939e-15,0.7086272,-0.002083241,-0.07198742,-0.70189816,0.0,0.0,-0.500544,0,0
1743177465757379,-1.3284305e-15,0.7086272,-0.0020212657,-0.072860315,-0.7018082,0.0,0.0,-0.49879205,0,0
1743177465813379,-1.0168884e-15,0.7086269,-0.0020463532,-0.07401437,-0.7016876,0.0,0.0,-0.49420625,0,0
1743177465861379,-8.4068147e-16,0.7086254,-0.002437599,-0.07462852,-0.7016229,0.0,0.0,-0.48959702,0,0
1743177465909379,-6.9500784e-16,0.7086249,-0.0025483277,-0.07513486,-0.70156896,0.0,0.0,-0.4867435,0,0
1743177465957379,-5.1301477e-16,0.70862466,-0.0025537591,-0.07579263,-0.70149845,0.0,0.0,-0.49080762,0,0
1743177466013379,-3.9270314e-16,0.7086248,-0.0025045944,-0.07600532,-0.70147544,0.0,0.0,-0.49096337,0,0
1743177466061379,-3.2465537e-16,0.7086252,-0.0023508475,-0.07663091,-0.7014076,0.0,0.0,-0.48956773,0,0
1743177466109379,-2.6839896e-16,0.70862377,-0.0027159143,-0.07693403,-0.7013744,0.0,0.0,-0.48805743,0,0
1743177466165379,-1.9811667e-16,0.70862305,-0.002864072,-0.07725648,-0.7013391,0.0,0.0,-0.49062115,0,0
1743177466213379,-1.5165455e-16,0.7086221,-0.003063033,-0.0775315,-0.70130897,0.0,0.0,-0.49315268,0,0
1743177466261379,-1.2537579e-16,0.7086213,-0.0032098803,-0.07803918,-0.70125276,0.0,0.0,-0.4918879,0,0
1743177466309379,-1.0365062e-16,0.7086204,-0.0033778856,-0.078272894,-0.70122683,0.0,0.0,-0.49065208,0,0
1743177466365379,-7.6508926e-17,0.70862126,-0.0032099437,-0.07814546,-0.701241,0.0,0.0,-0.49335307,0,0
1743177466413379,-5.856614e-17,0.7086217,-0.0031210629,-0.07826262,-0.7012279,0.0,0.0,-0.49578625,0,0
1743177466461379,-4.8417776e-17,0.7086223,-0.0029873855,-0.07821412,-0.70123327,0.0,0.0,-0.49449345,0,0
1743177466509379,-4.0027922e-17,0.7086219,-0.0030374767,-0.07871584,-0.70117724,0.0,0.0,-0.49342233,0,0
1743177466565379,-2.954631e-17,0.7086219,-0.0030326715,-0.07865979,-0.70118356,0.0,0.0,-0.49563688,0,0
1743177466613379,-2.261714e-17,0.7086229,-0.0027960225,-0.07907795,-0.7011366,0.0,0.0,-0.49765775,0,0
1743177466661379,-1.8698032e-17,0.7086215,-0.003083236,-0.07941309,-0.70109886,0.0,0.0,-0.4963601,0,0
1743177466709379,-1.545803e-17,0.70862263,-0.0028658507,-0.07907205,-0.7011372,0.0,0.0,-0.4949988,0,0
1743177466765379,-1.1410229e-17,0.70862305,-0.00275473,-0.07917394,-0.7011257,0.0,0.0,-0.4970326,0,0
1743177466813379,-8.734314e-18,0.70862275,-0.002800594,-0.07947234,-0.70109206,0.0,0.0,-0.49846834,0,0
1743177466861379,-7.2208285e-18,0.70862293,-0.0027972497,-0.07887356,-0.70115954,0.0,0.0,-0.4973944,0,0
1743177466909379,-5.9696e-18,0.7086229,-0.0027909414,-0.079293795,-0.7011123,0.0,0.0,-0.49659362,0,0
1743177466965379,-4.406415e-18,0.70862454,-0.0023651987,-0.07914794,-0.70112854,0.0,0.0,-0.49853265,0,0
1743177467013379,-3.3730273e-18,0.7086245,-0.0023795036,-0.0792083,-0.7011218,0.0,0.0,-0.49994957,0,0
1743177467061379,-2.7885476e-18,0.7086242,-0.0024276278,-0.07949604,-0.7010893,0.0,0.0,-0.49880013,0,0
1743177467109379,-2.305347e-18,0.70862496,-0.002229331,-0.07938762,-0.70110154,0.0,0.0,-0.49788404,0,0
1743177467165379,-1.7016745e-18,0.7086242,-0.0024509218,-0.07947282,-0.7010919,0.0,0.0,-0.49972245,0,0
1743177467205379,-1.4068077e-18,0.70862323,-0.0026794558,-0.07963648,-0.70107347,0.0,0.0,-0.5000122,0,0
1743177467261379,-1.0768846e-18,0.70862293,-0.002759898,-0.079573445,-0.70108056,0.0,0.0,-0.50027347,0,0
1743177467309379,-8.902816e-19,0.70862335,-0.0026658552,-0.07924791,-0.7011174,0.0,0.0,-0.4994287,0,0
1743177467365379,-6.5715467e-19,0.7086231,-0.0027437503,-0.07906452,-0.701138,0.0,0.0,-0.5009568,0,0
1743177467405379,-5.432826e-19,0.70862484,-0.002293113,-0.07898969,-0.70114636,0.0,0.0,-0.5011653,0,0
1743177467461379,-4.1587258e-19,0.70862436,-0.0024229274,-0.07891977,-0.7011543,0.0,0.0,-0.5008579,0,0
1743177467509379,-3.4381002e-19,0.7086252,-0.0021958454,-0.07877523,-0.70117044,0.0,0.0,-0.49948913,0,0
1743177467565379,-2.537808e-19,0.7086249,-0.0022964666,-0.07866123,-0.7011832,0.0,0.0,-0.50068194,0,0
1743177467605379,-2.0980555e-19,0.7086247,-0.0023664257,-0.07858466,-0.7011917,0.0,0.0,-0.5008665,0,0
1743177467661379,-1.6060218e-19,0.70862615,-0.0019199993,-0.078541845,-0.70119643,0.0,0.0,-0.501103,0,0
1743177467709379,-1.3277297e-19,0.7086256,-0.0021084165,-0.07851538,-0.7011994,0.0,0.0,-0.5003743,0,0
1743177467765379,-9.800537e-20,0.7086256,-0.0021048444,-0.07848947,-0.70120233,0.0,0.0,-0.5015379,0,0
1743177467805379,-8.1022955e-20,0.7086245,-0.0024664449,-0.07790819,-0.7012671,0.0,0.0,-0.50172514,0,0
1743177467861379,-6.202154e-20,0.7086254,-0.0022018196,-0.0780514,-0.70125115,0.0,0.0,-0.5019688,0,0
1743177467909379,-5.1274422e-20,0.7086259,-0.0020496286,-0.07803282,-0.7012531,0.0,0.0,-0.50144124,0,0
1743177467965379,-3.784783e-20,0.70862496,-0.0023303798,-0.077881016,-0.7012701,0.0,0.0,-0.5022602,0,0
1743177468013379,-2.89718e-20,0.7086258,-0.0020837025,-0.077818334,-0.701277,0.0,0.0,-0.5030238,0,0
1743177468061379,-2.3951554e-20,0.7086253,-0.0022559755,-0.07758723,-0.7013026,0.0,0.0,-0.50243294,0,0
1743177468109379,-1.9801219e-20,0.7086251,-0.002324255,-0.07764281,-0.70129645,0.0,0.0,-0.50188637,0,0
1743177468157379,-1.4616121e-20,0.7086254,-0.0022514989,-0.0774628,-0.7013163,0.0,0.0,-0.50403243,0,0
1743177468213379,-1.1188364e-20,0.70862454,-0.002483307,-0.077399716,-0.7013233,0.0,0.0,-0.50405616,0,0
1743177468261379,-9.2496394e-21,0.7086248,-0.0024211043,-0.077529036,-0.70130897,0.0,0.0,-0.50334144,0,0
1743177468309379,-7.646858e-21,0.7086253,-0.0022598894,-0.07744833,-0.7013179,0.0,0.0,-0.50317156,0,0
1743177468365379,-5.644471e-21,0.7086241,-0.0026034745,-0.07717423,-0.7013481,0.0,0.0,-0.5039733,0,0
1743177468413379,-4.3207355e-21,0.7086242,-0.0025760508,-0.07756381,-0.7013052,0.0,0.0,-0.50468844,0,0
1743177468461379,-3.5720365e-21,0.70862377,-0.0026773247,-0.07753252,-0.7013087,0.0,0.0,-0.50393975,0,0
1743177468509379,-2.9530723e-21,0.7086248,-0.0024021394,-0.07764964,-0.7012958,0.0,0.0,-0.5033933,0,0
1743177468565379,-2.1797881e-21,0.70862335,-0.00275971,-0.07765025,-0.70129573,0.0,0.0,-0.50418997,0,0
1743177468613379,-1.6685867e-21,0.70862204,-0.0030782528,-0.077563755,-0.7013054,0.0,0.0,-0.5048877,0,0
1743177468661379,-1.3794533e-21,0.7086213,-0.0032190303,-0.07759301,-0.70130223,0.0,0.0,-0.50454473,0,0
1743177468709379,-1.140421e-21,0.7086214,-0.0032153449,-0.07756109,-0.70130575,0.0,0.0,-0.5040434,0,0
1743177468765379,-8.417932e-22,0.7086211,-0.003279086,-0.07764404,-0.7012965,0.0,0.0,-0.5052652,0,0
1743177468813379,-6.443768e-22,0.70862186,-0.003141157,-0.077233545,-0.7013417,0.0,0.0,-0.50557995,0,0
1743177468861379,-5.327189e-22,0.7086192,-0.0036593706,-0.07733569,-0.70133066,0.0,0.0,-0.50491154,0,0
1743177468909379,-4.4040915e-22,0.70861965,-0.0035541393,-0.077581845,-0.7013036,0.0,0.0,-0.50448716,0,0
1743177468957379,-3.2508468e-22,0.70861965,-0.003566822,-0.0773543,-0.7013286,0.0,0.0,-0.50556344,0,0
1743177469005379,-2.6875388e-22,0.7086199,-0.0035141078,-0.0774591,-0.701317,0.0,0.0,-0.505269,0,0
1743177469061379,-2.0572601e-22,0.7086202,-0.0034684693,-0.07752056,-0.7013102,0.0,0.0,-0.50547796,0,0
1743177469109379,-1.7007772e-22,0.7086188,-0.003717616,-0.077509806,-0.7013115,0.0,0.0,-0.50509965,0,0
1743177469165379,-1.255416e-22,0.7086192,-0.003652439,-0.07760088,-0.70130134,0.0,0.0,-0.50601345,0,0
1743177469205379,-1.0378769e-22,0.7086198,-0.0035286811,-0.07773669,-0.70128644,0.0,0.0,-0.5062174,0,0
1743177469261379,-7.9447513e-23,0.7086173,-0.003973927,-0.07769775,-0.7012908,0.0,0.0,-0.50647616,0,0
1743177469309379,-6.568082e-23,0.70861804,-0.0038539607,-0.077498905,-0.70131266,0.0,0.0,-0.50609237,0,0
1743177469365379,-4.84818e-23,0.70861834,-0.0038060222,-0.077571206,-0.7013046,0.0,0.0,-0.50679207,0,0
1743177469413379,-3.7111904e-23,0.7086183,-0.0037993852,-0.07788997,-0.70126945,0.0,0.0,-0.50732696,0,0
1743177469461379,-3.068114e-23,0.70861906,-0.0036602519,-0.07781547,-0.7012777,0.0,0.0,-0.5072039,0,0
1743177469509379,-2.5364697e-23,0.7086182,-0.0036029636,-0.08229538,-0.7007672,0.0,0.0,-0.5076705,0,0
1743177469565379,-1.872276e-23,0.70861405,0.0042608385,-0.0919971,-0.69956017,0.0,0.0,-0.509536,0,0
1743177469613379,-1.4331918e-23,0.7086108,0.0047681206,-0.092530124,-0.69948995,0.0,0.0,-0.50921935,0,0
1743177469661379,-1.1848477e-23,0.708627,6.354464e-05,-0.08727658,-0.7001646,0.0,0.0,-0.50698316,0,0
1743177469709379,-9.795368e-24,0.7086182,-0.0037335057,-0.0795633,-0.70108205,0.0,0.0,-0.5033545,0,0
1743177469757379,-7.230377e-24,0.70861375,-0.004612996,-0.07566233,-0.70151305,0.0,0.0,-0.5054571,0,0
1743177469805379,-5.977494e-24,0.7086093,-0.0052564098,-0.07524244,-0.7015582,0.0,0.0,-0.50621706,0,0
1743177469861379,-4.5756587e-24,0.7086102,-0.005132139,-0.07528111,-0.701554,0.0,0.0,-0.50704956,0,0
1743177469909379,-3.782787e-24,0.7086083,-0.005345616,-0.076222554,-0.7014526,0.0,0.0,-0.5071721,0,0
1743177469965379,-2.7922357e-24,0.70861024,-0.005080319,-0.07666502,-0.70140445,0.0,0.0,-0.50780344,0,0
1743177470013379,0.058177643,0.7130042,-0.0043647424,-0.077459894,-0.6968543,0.0,0.0,-0.5083271,0,0
1743177470061379,0.18419072,0.7237582,-0.010325602,-0.082833424,-0.6849862,0.0,0.0,-0.508839,0,0
1743177470109379,0.2034676,0.7278323,-0.01630672,-0.08799239,-0.6798909,0.0,0.0,-0.5093099,0,0
1743177470157379,0.14591488,0.7271075,-0.026033014,-0.09665433,-0.6791869,0.0,0.0,-0.5111868,0,0
1743177470213379,0.108151846,0.7264037,-0.03411515,-0.10407135,-0.67848575,0.0,0.0,-0.51197785,0,0
1743177470261379,0.08684202,0.72585076,-0.03991212,-0.1082403,-0.6781089,0.0,0.0,-0.5120753,0,0
1743177470309379,0.06915107,0.72527575,-0.04520268,-0.11269078,-0.677667,0.0,0.0,-0.51193726,0,0
1743177470365379,0.04704831,0.72421837,-0.05426261,-0.12017056,-0.6768474,0.0,0.0,-0.51356876,0,0
1743177470405379,0.03621485,0.72352,-0.05963838,-0.12465903,-0.67633003,0.0,0.0,-0.5140757,0,0
1743177470461379,0.024050718,0.7224646,-0.06719194,-0.13087268,-0.6755757,0.0,0.0,-0.51550585,0,0
1743177470509379,0.017149644,0.72176015,-0.07170364,-0.13436943,-0.6751783,0.0,0.0,-0.51582754,0,0
1743177470565379,0.008594818,0.7203021,-0.08105996,-0.14222531,-0.67406684,0.0,0.0,-0.51849097,0,0
1743177470613379,0.0031427545,0.7189698,-0.08897152,-0.14926596,-0.6729682,0.0,0.0,-0.5208443,0,0
1743177470661379,0.00023657922,0.7182309,-0.0929247,-0.15215313,-0.6725762,0.0,0.0,-0.5208957,0,0
1743177470709379,-0.0020558506,0.71749085,-0.0967797,-0.15510714,-0.67214763,0.0,0.0,-0.52439374,0,0
1743177470757379,-0.0046684816,0.7165161,-0.10143034,-0.15925492,-0.6715314,0.0,0.0,-0.5256249,0,0
1743177470813379,-0.0060069533,0.7173948,-0.094495095,-0.15281038,-0.6731005,0.0,0.0,-0.51966435,0,0
1743177470861379,-0.006560845,0.71823424,-0.087784156,-0.14675863,-0.67445934,0.0,0.0,-0.51576203,0,0
1743177470909379,-0.0068796803,0.7189907,-0.08123568,-0.14106536,-0.6756876,0.0,0.0,-0.5129556,0,0
1743177470957379,-0.0066624954,0.7195248,-0.07584612,-0.13648498,-0.6766856,0.0,0.0,-0.51224476,0,0
1743177471005379,-0.006232476,0.7200901,-0.07045929,-0.13154146,-0.67764485,0.0,0.0,-0.5115414,0,0
1743177471061379,-0.005079854,0.72077036,-0.06376657,-0.12591228,-0.67865306,0.0,0.0,-0.5110022,0,0
1743177471109379,-0.00400653,0.7213147,-0.058263034,-0.12124621,-0.6794188,0.0,0.0,-0.51041913,0,0
1743177471157379,-0.0019078408,0.7218659,-0.052989278,-0.11645043,-0.6801037,0.0,0.0,-0.5102563,0,0
1743177471205379,-0.00038951257,0.7223888,-0.04762494,-0.111702,-0.6807414,0.0,0.0,-0.5093812,0,0
1743177471261379,0.0019344108,0.7230313,-0.041097887,-0.1063186,-0.68134654,0.0,0.0,-0.5087965,0,0
1743177471309379,0.0037189252,0.72352064,-0.035983074,-0.10108768,-0.6819123,0.0,0.0,-0.5082229,0,0
1743177471357379,0.006507839,0.72413015,-0.03050378,-0.09638798,-0.6822128,0.0,0.0,-0.508144,0,0
1743177471405379,0.008324084,0.72462046,-0.024925122,-0.09138608,-0.6826072,0.0,0.0,-0.50776815,0,0
1743177471461379,0.011115545,0.7252575,-0.01805115,-0.08597799,-0.6828495,0.0,0.0,-0.5076545,0,0
1743177471509379,0.013358138,0.7257392,-0.012464645,-0.08158111,-0.68300194,0.0,0.0,-0.5073936,0,0
1743177471565379,0.017364554,0.7264904,-0.0057260008,-0.07535918,-0.68300796,0.0,0.0,-0.5074603,0,0
1743177471605379,0.020085033,0.72699136,-0.0008100425,-0.071107596,-0.6829543,0.0,0.0,-0.5074518,0,0
1743177471661379,0.024162358,0.7277136,0.0063843383,-0.06522721,-0.68274266,0.0,0.0,-0.50763,0,0
1743177471709379,0.027133413,0.7282407,0.011245085,-0.06081429,-0.6825251,0.0,0.0,-0.50764906,0,0
1743177471765379,0.0317799,0.7290849,0.019091442,-0.053833127,-0.68203574,0.0,0.0,-0.5079281,0,0
1743177471813379,0.03578952,0.72982126,0.026056867,-0.04761082,-0.68148005,0.0,0.0,-0.5083274,0,0
1743177471861379,0.038390875,0.7303239,0.031158673,-0.042997602,-0.681034,0.0,0.0,-0.50869745,0,0
1743177471909379,0.0408564,0.7308159,0.03615549,-0.03922961,-0.68048656,0.0,0.0,-0.509178,0,0
1743177471965379,0.04479959,0.73187196,0.039318595,-0.036989294,-0.67930055,0.0,0.0,-0.50977546,0,0
1743177472013379,0.048181932,0.73326683,0.033913452,-0.04225091,-0.6777791,0.0,0.0,-0.5104588,0,0
1743177472061379,0.05032433,0.7342924,0.0289705,-0.04720984,-0.6765697,0.0,0.0,-0.51102823,0,0
1743177472109379,0.05215829,0.73528695,0.023885675,-0.051600184,-0.6753666,0.0,0.0,-0.51155823,0,0
1743177472157379,0.053644598,0.7366756,0.018352957,-0.05673652,-0.67361194,0.0,0.0,-0.51209766,0,0
1743177472213379,0.053909343,0.73779213,0.01323809,-0.061747964,-0.67206746,0.0,0.0,-0.5125163,0,0
1743177472261379,0.053495776,0.738525,0.008914399,-0.06501995,-0.67102444,0.0,0.0,-0.5127935,0,0
1743177472309379,0.05247029,0.73917294,0.0051626214,-0.06802914,-0.67005134,0.0,0.0,-0.5127584,0,0
1743177472365379,0.04983345,0.740058,-3.2415035e-05,-0.07245939,-0.66862833,0.0,0.0,-0.5128391,0,0
1743177472405379,0.04775279,0.7405308,-0.0028976097,-0.074873656,-0.6678321,0.0,0.0,-0.51239336,0,0
1743177472461379,0.04444429,0.7410882,-0.0070768194,-0.07841105,-0.66677576,0.0,0.0,-0.51221925,0,0
1743177472509379,0.04185215,0.7414282,-0.00944599,-0.08029964,-0.6661435,0.0,0.0,-0.5116818,0,0
1743177472565379,0.037848137,0.7418866,-0.0135450605,-0.08302034,-0.66522807,0.0,0.0,-0.51094675,0,0
1743177472613379,0.03369539,0.7421655,-0.01652617,-0.085051015,-0.6645928,0.0,0.0,-0.5142217,0,0
1743177472661379,0.030780397,0.7423342,-0.018052235,-0.086125635,-0.6642261,0.0,0.0,-0.51358426,0,0
1743177472709379,0.027995072,0.7424821,-0.019360796,-0.08669511,-0.66394985,0.0,0.0,-0.5125812,0,0
1743177472765379,0.023978047,0.74269354,-0.020540798,-0.088730864,-0.66340876,0.0,0.0,-0.5117523,0,0
1743177472813379,0.02093917,0.74286383,-0.02136098,-0.08922119,-0.66312635,0.0,0.0,-0.51072556,0,0
1743177472861379,0.018907117,0.74297374,-0.021621222,-0.089488134,-0.6629588,0.0,0.0,-0.50976294,0,0
1743177472909379,0.015630884,0.74296594,-0.021815253,-0.08956221,-0.6629512,0.0,0.0,-0.50909454,0,0
1743177472965379,0.011537819,0.7429465,-0.022363566,-0.08943088,-0.6629725,0.0,0.0,-0.5087959,0,0
1743177473013379,0.008831982,0.74293536,-0.022580577,-0.08976495,-0.6629324,0.0,0.0,-0.50900036,0,0
1743177473061379,0.0073015722,0.7429443,-0.022414269,-0.089465834,-0.6629685,0.0,0.0,-0.5088831,0,0
1743177473109379,0.0060363524,0.7429543,-0.022201147,-0.08923705,-0.66299534,0.0,0.0,-0.5090406,0,0
1743177473165379,0.004455688,0.7429612,-0.022105703,-0.088855155,-0.663042,0.0,0.0,-0.5091928,0,0
1743177473213379,0.003410745,0.742969,-0.021923415,-0.0887478,-0.66305375,0.0,0.0,-0.50952107,0,0
1743177473261379,0.0028197295,0.74300206,-0.021198971,-0.0879875,-0.6631416,0.0,0.0,-0.50977564,0,0
1743177473309379,0.0023311255,0.74302316,-0.020715732,-0.08754261,-0.6631921,0.0,0.0,-0.5099385,0,0
1743177473365379,0.0017207027,0.74303174,-0.02048868,-0.087470226,-0.66319907,0.0,0.0,-0.50989884,0,0
1743177473413379,-0.13477696,0.73258036,-0.020480886,-0.08542288,-0.6749885,0.0,0.0,-0.5067082,0,0
1743177473461379,-0.24751689,0.72185045,-0.023373015,-0.0801812,-0.686991,0.0,0.0,-0.504482,0,0
1743177473509379,-0.3407212,0.710883,-0.027094245,-0.07510486,-0.69876355,0.0,0.0,-0.50451547,0,0
1743177473565379,-0.4571632,0.692905,-0.033054072,-0.06618293,-0.71722376,0.0,0.0,-0.50461316,0,0
1743177473613379,-0.53414047,0.6767123,-0.038940154,-0.05831749,-0.7329006,0.0,0.0,-0.5043567,0,0
1743177473661379,-0.57767856,0.66497445,-0.041970603,-0.05375803,-0.74374557,0.0,0.0,-0.50405765,0,0
1743177473709379,-0.6136723,0.653334,-0.04039321,-0.052740376,-0.75414956,0.0,0.0,-0.50269186,0,0
1743177473765379,-0.65864,0.6348352,-0.027976673,-0.06059241,-0.7697598,0.0,0.0,-0.5004331,0,0
1743177473805379,-0.68060476,0.6229652,-0.018605413,-0.06580365,-0.77925485,0.0,0.0,-0.4989154,0,0
1743177473861379,-0.7051808,0.6057449,-0.020876912,-0.0703774,-0.7922653,0.0,0.0,-0.504525,0,0
1743177473909379,-0.7190809,0.5931944,-0.027105544,-0.072853826,-0.8012976,0.0,0.0,-0.50375694,0,0
1743177473965379,-0.7364466,0.57264364,-0.04071711,-0.07533997,-0.8153191,0.0,0.0,-0.5035977,0,0
1743177474013379,-0.74792665,0.5542767,-0.05286808,-0.077724434,-0.8270074,0.0,0.0,-0.5041946,0,0
1743177474061379,-0.75441974,0.54109615,-0.059090108,-0.07985247,-0.83507305,0.0,0.0,-0.505459,0,0
1743177474109379,-0.75978774,0.5278576,-0.06423429,-0.08220382,-0.8429015,0.0,0.0,-0.50733095,0,0
1743177474165379,-0.766494,0.50634694,-0.07588166,-0.08759762,-0.8545066,0.0,0.0,-0.5111731,0,0
1743177474205379,-0.76976967,-0.49296242,0.08113964,0.09196713,0.8613632,0.0,0.0,-0.51384103,0,0
1743177474261379,-0.7734348,-0.47419885,0.08861377,0.099276744,0.8703029,0.0,0.0,-0.51777744,0,0
1743177474309379,-0.77550787,-0.46089828,0.09165075,0.104738116,0.8764718,0.0,0.0,-0.52002245,0,0
1743177474365379,-0.7780977,-0.4400597,0.09498321,0.11874112,0.88500065,0.0,0.0,-0.52417237,0,0
1743177474413379,-0.77980983,-0.4219858,0.09747082,0.13257946,0.8915436,0.0,0.0,-0.52766657,0,0
1743177474461379,-0.78077817,-0.4091875,0.0946782,0.14273201,0.8962306,0.0,0.0,-0.52839714,0,0
1743177474509379,-0.70304245,-0.4039543,0.092582524,0.15200497,0.8972981,0.0,0.0,-0.5283395,0,0
1743177474565379,-0.5136149,-0.40597236,0.099975295,0.16561072,0.8931766,0.0,0.0,-0.5309333,0,0
1743177474613379,-0.3878464,-0.4078635,0.10793875,0.17723969,0.88914716,0.0,0.0,-0.5330268,0,0
1743177474661379,-0.31648025,-0.40904486,0.10854464,0.1835074,0.8872573,0.0,0.0,-0.5302388,0,0
1743177474709379,-0.2573859,-0.4098137,0.10800126,0.18627772,0.88639104,0.0,0.0,-0.52499825,0,0
1743177474765379,-0.18356021,-0.41065514,0.11324279,0.18750612,0.8850875,0.0,0.0,-0.5184292,0,0
1743177474805379,-0.14761364,-0.41100553,0.11494556,0.18703704,0.88480455,0.0,0.0,-0.5130297,0,0
1743177474861379,-0.107686184,-0.41150913,0.11753368,0.18678877,0.8842828,0.0,0.0,-0.5071924,0,0
1743177474909379,-0.085368074,-0.41171312,0.11595316,0.18543072,0.88468224,0.0,0.0,-0.50218153,0,0
1743177474957379,-0.05800979,-0.4125253,0.12533338,0.1883858,0.8823975,0.0,0.0,-0.5031321,0,0
1743177475013379,-0.04040189,-0.41308492,0.12723088,0.18969782,0.8815826,0.0,0.0,-0.50378215,0,0
1743177475061379,-0.030683856,-0.41331518,0.12390232,0.18901668,0.882095,0.0,0.0,-0.5040587,0,0
1743177475109379,-0.022810608,-0.41292036,0.117875285,0.18346447,0.88427544,0.0,0.0,-0.5029122,0,0
1743177475165379,-0.013209111,-0.41246814,0.11945068,0.17706944,0.8855777,0.0,0.0,-0.5062808,0,0
1743177475213379,-0.006992401,-0.412073,0.11863959,0.17121935,0.88702,0.0,0.0,-0.5100721,0,0
1743177475261379,-0.0034904308,-0.4120889,0.1110226,0.16835684,0.8885453,0.0,0.0,-0.51414967,0,0
1743177475309379,-0.0005779774,-0.41203275,0.09636771,0.16480252,0.8909447,0.0,0.0,-0.5163445,0,0
1743177475365379,0.0031439457,-0.41210672,0.084890686,0.16227835,0.8925398,0.0,0.0,-0.52054,0,0
1743177475413379,0.00572893,-0.41201848,0.0736472,0.15938528,0.8940991,0.0,0.0,-0.5225995,0,0
1743177475461379,0.0072892443,-0.4114627,0.05847394,0.1544706,0.8963359,0.0,0.0,-0.52221376,0,0
1743177475509379,0.008629844,-0.41081908,0.044742506,0.14933212,0.89829046,0.0,0.0,-0.5207582,0,0
1743177475565379,0.010351777,-0.4104125,0.033207692,0.14505208,0.899677,0.0,0.0,-0.5191601,0,0
1743177475613379,0.01148952,-0.4099774,0.023515785,0.14047632,0.9009062,0.0,0.0,-0.5168548,0,0
1743177475661379,0.012078601,-0.40920025,0.011475789,0.1353857,0.9022717,0.0,0.0,-0.5139838,0,0
1743177475709379,0.012499339,-0.40832534,-0.0006700657,0.12999015,0.90353334,0.0,0.0,-0.5110878,0,0
1743177475765379,0.012834652,-0.40766564,-0.0112911165,0.124907725,0.90447736,0.0,0.0,-0.50873876,0,0
1743177475813379,0.012821155,-0.4070317,-0.02063954,0.121088594,0.90511703,0.0,0.0,-0.50745636,0,0
1743177475861379,0.012657357,-0.40630358,-0.028988581,0.114344366,0.90609187,0.0,0.0,-0.5060122,0,0
1743177475909379,0.012385704,-0.40588605,-0.034165345,0.10580686,0.9071351,0.0,0.0,-0.50459945,0,0
1743177475957379,0.011793256,-0.40691215,-0.026558379,0.10438697,0.90709454,0.0,0.0,-0.50439596,0,0
1743177476013379,0.011183725,-0.40816808,-0.017157536,0.1142873,0.90556216,0.0,0.0,-0.5077172,0,0
1743177476061379,0.010736078,-0.40890273,-0.010689168,0.11532501,0.9051986,0.0,0.0,-0.5088445,0,0
1743177476109379,0.010283255,-0.40889543,-0.012853678,0.1163386,0.905044,0.0,0.0,-0.5100322,0,0
1743177476165379,0.009642258,-0.40954098,-0.008198242,0.11747588,0.9046593,0.0,0.0,-0.51075953,0,0
1743177476213379,0.009164584,-0.40996808,-0.0056625297,0.11853704,0.90434676,0.0,0.0,-0.5115005,0,0
1743177476261379,0.008850511,-0.4098023,-0.008846916,0.11690511,0.9046088,0.0,0.0,-0.51146716,0,0
1743177476309379,0.008597879,-0.40962777,-0.012081447,0.11521346,0.9048674,0.0,0.0,-0.51138717,0,0
1743177476365379,0.008235251,-0.4102765,-0.007272072,0.116961636,0.9044005,0.0,0.0,-0.51134026,0,0
1743177476405379,0.008088639,-0.41040072,-0.007395714,0.11692306,0.90434813,0.0,0.0,-0.5109717,0,0
1743177476461379,0.007949122,-0.410483,-0.008575402,0.116367064,0.9043721,0.0,0.0,-0.51024383,0,0
1743177476509379,0.007893956,-0.41045275,-0.010347612,0.11536765,0.9044953,0.0,0.0,-0.5094008,0,0
1743177476565379,0.007852797,-0.41002816,-0.01732913,0.11277456,0.904908,0.0,0.0,-0.508492,0,0
1743177476605379,0.007874479,-0.40913045,-0.027915774,0.10876339,0.9055404,0.0,0.0,-0.50777555,0,0
1743177476661379,0.007923263,-0.4076195,-0.044037215,0.10228862,0.9063355,0.0,0.0,-0.5073793,0,0
1743177476709379,0.007971406,-0.40624174,-0.057304453,0.09728229,0.9067635,0.0,0.0,-0.5079555,0,0
1743177476765379,0.008080183,-0.40529075,-0.06770055,0.08877204,0.90734535,0.0,0.0,-0.5082039,0,0
1743177476813379,0.008141714,-0.4045484,-0.07624574,0.080880634,0.9077364,0.0,0.0,-0.5085927,0,0
1743177476861379,0.008140021,-0.40363133,-0.08420232,0.07980037,0.9075371,0.0,0.0,-0.5102204,0,0
1743177476909379,0.008090015,-0.4032491,-0.087799765,0.080065206,0.9073428,0.0,0.0,-0.51168185,0,0
1743177476957379,0.007904801,-0.40406707,-0.083326325,0.0814955,0.9072734,0.0,0.0,-0.51172256,0,0
1743177477005379,0.0076772785,-0.40402934,-0.08485705,0.079485096,0.90732664,0.0,0.0,-0.5119363,0,0
1743177477061379,0.0071945055,-0.40436038,-0.083586074,0.07927157,0.90731585,0.0,0.0,-0.51228225,0,0
1743177477109379,0.0067244335,-0.40429267,-0.085230395,0.07657229,0.90742487,0.0,0.0,-0.5124734,0,0
1743177477165379,0.005657896,-0.4047323,-0.082714856,0.07626397,0.9074877,0.0,0.0,-0.5128737,0,0
1743177477213379,0.0043925038,-0.40506634,-0.08048339,0.0755213,0.90760136,0.0,0.0,-0.51271766,0,0
1743177477261379,0.0033173012,-0.40501434,-0.08113384,0.0731659,0.9077596,0.0,0.0,-0.5127179,0,0
1743177477309379,0.0020939223,-0.40483168,-0.08262954,0.07032062,0.90793097,0.0,0.0,-0.5129062,0,0
1743177477357379,-0.0002495643,-0.4052065,-0.07818742,0.070742376,0.9081244,0.0,0.0,-0.51283693,0,0
1743177477405379,-0.0019283105,-0.40490004,-0.079879835,0.06753087,0.9083582,0.0,0.0,-0.5134114,0,0
1743177477461379,-0.004545485,-0.40471652,-0.07924664,0.06527306,0.90866053,0.0,0.0,-0.5137441,0,0
1743177477509379,-0.0065723476,-0.40443638,-0.079678215,0.062980175,0.90890926,0.0,0.0,-0.51406825,0,0
1743177477565379,-0.01011177,-0.4041325,-0.07783707,0.061330028,0.9093167,0.0,0.0,-0.5142211,0,0
1743177477613379,-0.013445875,-0.4038144,-0.075690754,0.05994772,0.9097313,0.0,0.0,-0.51422244,0,0
1743177477661379,-0.015883867,-0.403608,-0.074121036,0.056242865,0.9101887,0.0,0.0,-0.5139561,0,0
1743177477709379,-0.018408565,-0.40301555,-0.07489369,0.05449452,0.91049427,0.0,0.0,-0.51416385,0,0
1743177477757379,-0.022499582,-0.40234038,-0.07234499,0.053586766,0.91105264,0.0,0.0,-0.5140661,0,0
1743177477805379,-0.025171153,-0.4016005,-0.073235214,0.051832415,0.9114094,0.0,0.0,-0.51425666,0,0
1743177477861379,-0.028939899,-0.40056962,-0.073592775,0.049812976,0.9119467,0.0,0.0,-0.51484054,0,0
1743177477909379,-0.031671654,-0.39966118,-0.07494821,0.047975313,0.9123333,0.0,0.0,-0.5153469,0,0
1743177477957379,-0.03598988,-0.39888534,-0.0696711,0.046003077,0.9131923,0.0,0.0,-0.51456964,0,0
1743177478013379,-0.03986115,-0.39760497,-0.06957262,0.044265226,0.9138438,0.0,0.0,-0.5145859,0,0
1743177478061379,-0.04264633,-0.3965564,-0.070503466,0.042036794,0.9143332,0.0,0.0,-0.51472706,0,0
1743177478109379,-0.045436807,-0.3954338,-0.0715666,0.0401619,0.9148209,0.0,0.0,-0.5149513,0,0
1743177478165379,-0.049900834,-0.39370614,-0.0710046,0.038843364,0.91566646,0.0,0.0,-0.515065,0,0
1743177478213379,-0.05386551,-0.39242145,-0.06730866,0.03683334,0.9165797,0.0,0.0,-0.51461285,0,0
1743177478261379,-0.056689247,-0.3911384,-0.06794331,0.034882173,0.9171574,0.0,0.0,-0.5150609,0,0
1743177478309379,-0.05955922,-0.3897807,-0.06862401,0.033390485,0.91774005,0.0,0.0,-0.51542187,0,0
1743177478365379,-0.06415802,-0.38758487,-0.06814637,0.03268964,0.9187304,0.0,0.0,-0.5157504,0,0
1743177478413379,-0.06817593,-0.38555542,-0.06780839,0.031813066,0.91963965,0.0,0.0,-0.5155506,0,0
1743177478461379,-0.07106067,-0.38395548,-0.0690026,0.029849794,0.9202857,0.0,0.0,-0.5157838,0,0
1743177478509379,-0.0740047,-0.38265407,-0.06661019,0.026967185,0.9210927,0.0,0.0,-0.5154865,0,0
1743177478565379,-0.07876211,-0.38004157,-0.06565918,0.026403094,0.9222582,0.0,0.0,-0.5153829,0,0
1743177478613379,-0.08308456,-0.37762827,-0.0649226,0.025500085,0.92332643,0.0,0.0,-0.5154903,0,0
1743177478661379,-0.08622649,-0.375746,-0.06570922,0.024069844,0.9240768,0.0,0.0,-0.51559484,0,0
1743177478709379,-0.08943959,-0.37378216,-0.06657509,0.02289896,0.9248407,0.0,0.0,-0.51597595,0,0
1743177478765379,-0.09479292,-0.37066337,-0.065404706,0.022034753,0.9261994,0.0,0.0,-0.51580834,0,0
1743177478805379,-0.09831792,-0.36861584,-0.06476423,0.0211848,0.927081,0.0,0.0,-0.5157611,0,0
1743177478861379,-0.10339079,-0.36585653,-0.06123539,0.019083971,0.9284584,0.0,0.0,-0.51523495,0,0
1743177478909379,-0.10713162,-0.36354318,-0.06191378,0.017573254,0.9293515,0.0,0.0,-0.5154941,0,0
1743177478965379,-0.113081366,-0.35976905,-0.061016325,0.017125707,0.9308866,0.0,0.0,-0.5156927,0,0
1743177479013379,-0.1185899,-0.35626724,-0.06044493,0.016792476,0.9322758,0.0,0.0,-0.5162999,0,0
1743177479061379,-0.1225994,-0.35366255,-0.060510777,0.015738642,0.93328106,0.0,0.0,-0.51625276,0,0
1743177479109379,-0.12664098,-0.35096994,-0.06061956,0.014815878,0.93430495,0.0,0.0,-0.5162862,0,0
1743177479157379,-0.13302295,-0.34661803,-0.0583116,0.014821147,0.9360748,0.0,0.0,-0.5159792,0,0
1743177479205379,-0.1370978,-0.34377626,-0.05767948,0.013646793,0.93717915,0.0,0.0,-0.5160056,0,0
1743177479261379,-0.14290892,-0.33985978,-0.053865906,0.0112233395,0.9388652,0.0,0.0,-0.51519495,0,0
1743177479309379,-0.14723574,-0.33674312,-0.053814355,0.010430964,0.9399996,0.0,0.0,-0.5152306,0,0
1743177479365379,-0.15442441,-0.33156583,-0.052610174,0.01040973,0.9419065,0.0,0.0,-0.51551205,0,0
1743177479413379,-0.160883,-0.3268213,-0.052039493,0.009947011,0.94359994,0.0,0.0,-0.51551276,0,0
1743177479461379,-0.16561532,-0.32327917,-0.052151587,0.009630541,0.9448164,0.0,0.0,-0.5155394,0,0
1743177479509379,-0.1702993,-0.31965914,-0.05215031,0.0091992235,0.9460517,0.0,0.0,-0.51565105,0,0
1743177479565379,-0.1777224,-0.31377214,-0.0500728,0.008909378,0.9481352,0.0,0.0,-0.51585287,0,0
1743177479613379,-0.18425895,-0.30840048,-0.048440676,0.008936279,0.9499804,0.0,0.0,-0.5157644,0,0
1743177479661379,-0.18905818,-0.3044371,-0.047734622,0.008219769,0.95130014,0.0,0.0,-0.51551396,0,0
1743177479709379,-0.19400506,-0.30037585,-0.046742804,0.007403658,0.9526461,0.0,0.0,-0.5154314,0,0
1743177479765379,-0.2023055,-0.2935977,-0.044870082,0.0070358347,0.9548495,0.0,0.0,-0.5153793,0,0
1743177479813379,-0.20979479,-0.2874013,-0.04339959,0.0070893187,0.9568002,0.0,0.0,-0.5152856,0,0
1743177479861379,-0.21516049,-0.28283396,-0.042897783,0.00661542,0.95818627,0.0,0.0,-0.51533055,0,0
1743177479909379,-0.22045606,-0.2781697,-0.042239286,0.0061463844,0.9595831,0.0,0.0,-0.5151499,0,0
1743177479965379,-0.22898126,-0.27048227,-0.040267322,0.0060246433,0.96186364,0.0,0.0,-0.5149474,0,0
1743177480013379,-0.23617919,-0.26352292,-0.038994644,0.006522996,0.96384263,0.0,0.0,-0.5149767,0,0
1743177480061379,-0.24130122,-0.25857916,-0.035102017,0.004830157,0.96534,0.0,0.0,-0.5145929,0,0
1743177480109379,-0.2462877,-0.25338197,-0.034856424,0.004555587,0.9667274,0.0,0.0,-0.5148558,0,0
1743177480165379,-0.25421888,-0.24485682,-0.033716474,0.0047066533,0.96896136,0.0,0.0,-0.51492965,0,0
1743177480213379,-0.2611242,-0.23712784,-0.034200545,0.005443121,0.970861,0.0,0.0,-0.5152349,0,0
1743177480261379,-0.26577476,-0.23154338,-0.034336776,0.005126521,0.97220486,0.0,0.0,-0.5151903,0,0
1743177480309379,-0.2704124,-0.22588468,-0.03365158,0.004805866,0.97356075,0.0,0.0,-0.5148855,0,0
1743177480365379,-0.27778852,-0.21662985,-0.031952538,0.0047532534,0.9757192,0.0,0.0,-0.5150102,0,0
1743177480413379,-0.2843618,-0.2082986,-0.03115704,0.004615017,0.97755796,0.0,0.0,-0.5149618,0,0
1743177480461379,-0.28927502,-0.20220363,-0.030446678,0.0045544747,0.9788595,0.0,0.0,-0.5149013,0,0
1743177480509379,-0.294258,-0.19601351,-0.029666983,0.0038899826,0.9801446,0.0,0.0,-0.51484394,0,0
1743177480565379,-0.30238485,-0.18583584,-0.028527262,0.003922427,0.9821588,0.0,0.0,-0.5146982,0,0
1743177480613379,-0.30983156,-0.17667484,-0.027335893,0.0037442558,0.9838825,0.0,0.0,-0.5149731,0,0
1743177480661379,-0.315221,-0.16998816,-0.027005324,0.0031415871,0.985071,0.0,0.0,-0.515043,0,0
1743177480709379,-0.3209071,-0.16315149,-0.02640563,0.0028257326,0.98624355,0.0,0.0,-0.5149432,0,0
1743177480765379,-0.33028522,-0.15192397,-0.025571443,0.0022954813,0.9880586,0.0,0.0,-0.5149145,0,0
1743177480813379,-0.33929282,-0.14175154,-0.024827132,0.0017219939,0.9895894,0.0,0.0,-0.51430684,0,0
1743177480861379,-0.2805,-0.14176103,-0.024507096,0.0014778562,0.9895964,0.0,0.0,-0.51422006,0,0
1743177480909379,-0.23189485,-0.14176895,-0.02406075,0.0013556876,0.98960644,0.0,0.0,-0.514311,0,0
1743177480957379,-0.17117143,-0.14177829,-0.023290168,0.0013260697,0.98962355,0.0,0.0,-0.51451486,0,0
1743177481005379,-0.14151077,-0.14178658,-0.023260027,0.00096245314,0.9896235,0.0,0.0,-0.5145662,0,0
1743177481061379,-0.10832382,-0.14179182,-0.023109512,0.0007961857,0.9896264,0.0,0.0,-0.51451343,0,0
1743177481109379,-0.08955342,-0.14180423,-0.0228391,0.0003530789,0.9896312,0.0,0.0,-0.51427084,0,0
1743177481157379,-0.06610319,-0.14180247,-0.022063727,0.00079924264,0.9896487,0.0,0.0,-0.51347077,0,0
1743177481205379,-0.0546488,-0.1418149,-0.022047466,0.00021153066,0.9896476,0.0,0.0,-0.5128192,0,0
1743177481261379,-0.041832622,-0.14181498,-0.02180217,0.0003190224,0.989653,0.0,0.0,-0.5119547,0,0
1743177481309379,-0.034583848,-0.14182007,-0.021971297,-2.3405435e-06,0.9896486,0.0,0.0,-0.51133424,0,0
1743177481365379,0.058622,-0.1511247,-0.021500256,0.00081144436,0.98828053,0.0,0.0,-0.5107014,0,0
1743177481413379,0.22906476,-0.17227069,-0.03160556,0.014944607,0.98442906,0.0,0.0,-0.5112765,0,0
1743177481461379,0.32546645,-0.1870881,-0.039539397,0.025804061,0.98120785,0.0,0.0,-0.511759,0,0
1743177481509379,0.40516362,-0.20173258,-0.04613253,0.0376749,0.97762793,0.0,0.0,-0.51210815,0,0
1743177481565379,0.5047309,-0.22504815,-0.059228804,0.045012455,0.97150356,0.0,0.0,-0.51198715,0,0
1743177481613379,0.57055265,-0.24649234,-0.05691705,0.04695147,0.96633196,0.0,0.0,-0.5087637,0,0
