timestamp,timestamp_sample,accel_device_id,gyro_device_id,delta_angle[0],delta_angle[1],delta_angle[2],delta_velocity[0],delta_velocity[1],delta_velocity[2],delta_angle_dt,delta_velocity_dt,delta_angle_clipping,delta_velocity_clipping,accel_calibration_count,gyro_calibration_count
1743177450193379,1743177450193379,1310988,1310988,-1.0652009e-06,4.90022e-05,3.5153687e-05,7.182605e-05,0.00019153682,-0.039135627,4000,4000,0,0,0,1
1743177450693379,1743177450693379,1310988,1310988,-3.195809e-06,4.374032e-11,-1.9174759e-05,-0.00014844052,-0.00023463111,-0.039207447,4000,4000,0,0,0,1
1743177451193379,1743177451193379,1310988,1310988,9.587414e-06,-7.4568165e-06,1.9174759e-05,0.0001436521,0.00015322962,-0.0393511,4000,4000,0,0,0,1
1743177451693379,1743177451693379,1310988,1310988,-1.0653182e-06,7.456859e-06,-3.515373e-05,2.3942019e-05,0.00013886439,-0.039193086,4000,4000,0,0,0,1
1743177452193379,1743177452193379,1310988,1310988,-2.1305766e-06,-4.0480074e-05,-2.5566307e-05,-5.2672436e-05,0.00015322962,-0.03914042,4000,4000,0,0,0,1
1743177452693379,1743177452693379,1310988,1310988,-2.1305032e-06,3.5153735e-05,8.522105e-06,0.00019153614,-0.00029688037,-0.039293647,4000,4000,0,0,0,1
1743177453193379,1743177453193379,1310988,1310988,-9.587408e-06,1.3848437e-05,1.5978954e-05,9.097968e-05,1.4365891e-05,-0.03896324,4000,4000,0,0,0,1
1743177453693379,1743177453693379,1310988,1310988,-3.4088458e-05,-1.9174808e-05,-6.3915127e-06,4.3095635e-05,-9.5767384e-05,-0.039499544,4000,4000,0,0,0,1
1743177454193379,1743177454193379,1310988,1310988,-8.522056e-06,4.261005e-06,3.3023225e-05,-0.00019632453,-4.788335e-05,-0.039279275,4000,4000,0,0,0,1
1743177454693379,1743177454693379,1310988,1310988,-6.3915845e-06,2.5566353e-05,1.4913702e-05,7.6614466e-05,-0.00017717024,-0.039149992,4000,4000,0,0,0,1
1743177455193379,1743177455193379,1310988,1310988,2.1305228e-05,-1.17179125e-05,-2.0240088e-05,0.0001388637,-0.00016280502,-0.03923139,4000,4000,0,0,0,1
1743177455693379,1743177455693379,1310988,1310988,-4.9002192e-05,5.1132676e-05,-2.876215e-05,-8.619127e-05,0.00025378607,-0.039279275,4000,4000,0,0,0,1
1743177456193379,1743177456193379,1310988,1310988,-3.408846e-05,-1.7044249e-05,4.26107e-06,5.267244e-05,0.00033040054,-0.039279275,4000,4000,0,0,0,1
1743177456693379,1743177456693379,1310988,1310988,-2.7696937e-05,3.6219088e-05,5.1132603e-05,0.00016759415,0.00038786136,-0.039245754,4000,4000,0,0,0,1
1743177457193379,1743177457193379,1310988,1310988,3.1957952e-05,-1.5978932e-05,-7.456855e-06,0.00019632453,0.00031124693,-0.03921224,4000,4000,0,0,0,1
1743177457693379,1743177457693379,1310988,1310988,2.7696939e-05,3.8349466e-05,-4.261151e-06,-6.2249244e-05,0.00042138022,-0.039183512,4000,4000,0,0,0,1
1743177458193379,1743177458193379,1310988,1310988,-0.00019600836,0.0001917479,2.3436087e-05,7.6614466e-05,6.224999e-05,-0.042181052,4000,4000,0,0,0,1
1743177458693379,1743177458693379,1310988,1310988,-0.000112918045,5.219795e-05,6.391715e-06,0.00013407531,-0.00011013247,-0.047323793,4000,4000,0,0,0,1
1743177459193379,1743177459193379,1310988,1310988,-6.39159e-05,2.6631586e-05,-1.2783078e-05,-7.6614466e-05,-0.00016759323,-0.052217543,4000,4000,0,0,0,1
1743177459693379,1743177459693379,1310988,1310988,1.1717967e-05,3.7284233e-05,2.1305297e-05,-5.746084e-05,0.00023463249,-0.040356673,4000,4000,0,0,0,1
1743177460193379,1743177460193379,1310988,1310988,2.450112e-05,-8.52203e-06,-1.384843e-05,-0.00019153614,-0.0002394195,-0.040193856,4000,4000,0,0,0,1
1743177460693379,1743177460693379,1310988,1310988,8.9482164e-05,-0.00010439586,-3.941507e-05,-0.00072304904,-0.0008954308,-0.03965756,4000,4000,0,0,0,1
1743177461193379,1743177461193379,1310988,1310988,0.00037390762,-0.0003408849,8.5215615e-06,-0.0024756046,-0.0023702595,-0.039466023,4000,4000,0,0,0,1
1743177461693379,1743177461693379,1310988,1310988,0.0003291664,-0.00028229554,-8.521599e-06,-0.0031172505,-0.0032944214,-0.039140414,4000,4000,0,0,0,1
1743177462193379,1743177462193379,1310988,1310988,0.00010652662,-0.00014700639,-6.1785395e-05,-0.003428497,-0.003505111,-0.03921224,4000,4000,0,0,0,1
1743177462693379,1743177462693379,1310988,1310988,7.030762e-05,2.7696844e-05,-8.095997e-05,-0.0036439751,-0.00368707,-0.038939297,4000,4000,0,0,0,1
1743177463193379,1743177463193379,1310988,1310988,-4.900246e-05,4.3675704e-05,3.9414583e-05,-0.0038833956,-0.003849876,-0.039073378,4000,4000,0,0,0,1
1743177463693379,1743177463693379,1310988,1310988,-7.989459e-05,7.4571553e-06,0.00012037504,-0.003907338,-0.0039025485,-0.038944084,4000,4000,0,0,0,1
1743177464193379,1743177464193379,1310988,1310988,-2.6631535e-05,-4.2610523e-06,2.450117e-05,-0.004199431,-0.0037636848,-0.039011125,4000,4000,0,0,0,1
1743177464693379,1743177464693379,1310988,1310988,1.2783149e-05,3.4088516e-05,1.8109424e-05,-0.0038594536,-0.0038067806,-0.03871424,4000,4000,0,0,0,1
1743177465193379,1743177465193379,1310988,1310988,2.45011e-05,-3.9414797e-05,2.3435792e-05,-0.004156335,-0.0040509887,-0.03569755,4000,4000,0,0,0,1
1743177465693379,1743177465693379,1310988,1310988,-4.0479998e-05,1.8109564e-05,7.3503266e-05,-0.004074931,-0.003835511,-0.03741659,4000,4000,0,0,0,1
1743177466193379,1743177466193379,1310988,1310988,2.876212e-05,-1.8109504e-05,1.38484775e-05,-0.004122816,-0.0038307225,-0.034634523,4000,4000,0,0,0,1
1743177466693379,1743177466693379,1310988,1310988,-3.1957275e-06,-4.1545263e-05,-5.5393804e-05,-0.004036624,-0.003955221,-0.035506014,4000,4000,0,0,0,1
1743177467193379,1743177467193379,1310988,1310988,4.5806362e-05,2.130462e-06,1.1717975e-05,-0.004448427,-0.0039983164,-0.036085412,4000,4000,0,0,0,1
1743177467693379,1743177467693379,1310988,1310988,-2.1305297e-05,4.2610814e-06,1.0652624e-05,-0.004285622,-0.0040222583,-0.036741417,4000,4000,0,0,0,1
1743177468193379,1743177468193379,1310988,1310988,-8.522179e-06,2.1305254e-05,-1.9174777e-05,-0.0041850656,-0.0038833949,-0.037210688,4000,4000,0,0,0,1
1743177468693379,1743177468693379,1310988,1310988,1.06526395e-05,-1.5978978e-05,-5.3263025e-06,-0.004285622,-0.004175488,-0.03751236,4000,4000,0,0,0,1
1743177469193379,1743177469193379,1310988,1310988,3.3023352e-05,1.9174926e-05,6.391575e-05,-0.0044053313,-0.0041706995,-0.03772783,4000,4000,0,0,0,1
1743177469693379,1743177469693379,1310988,1310988,0.0006125269,-9.054829e-05,2.5568163e-05,-0.004501099,-0.0041084494,-0.037790082,4000,4000,0,0,0,1
1743177470193379,1743177470193379,1310988,1310988,0.00017576668,-0.0009629997,0.00021944389,-0.0044771573,-0.0042377375,-0.038388636,4000,4000,0,0,0,1
1743177470693379,1743177470693379,1310988,1310988,-0.00018748592,-0.0013518208,0.0006125274,-0.005343859,-0.003289633,-0.038996764,4000,4000,0,0,0,1
1743177471193379,1743177471193379,1310988,1310988,0.00014700199,0.0012197292,-0.0004612573,-0.007455545,-0.0033279401,-0.037871484,4000,4000,0,0,0,1
1743177471693379,1743177471693379,1310988,1310988,0.00013422365,0.0013358421,-0.00030359847,-0.0074507566,-0.004194642,-0.03807739,4000,4000,0,0,0,1
1743177472193379,1743177472193379,1310988,1310988,-2.3436227e-05,-0.0009225199,0.00037710162,-0.006588844,-0.0042712563,-0.03886268,4000,4000,0,0,0,1
1743177472693379,1743177472693379,1310988,1310988,-0.00014274404,-0.0005773739,0.00048576048,-0.006138733,-0.003280056,-0.038924936,4000,4000,0,0,0,1
1743177473193379,1743177473193379,1310988,1310988,-7.350339e-05,1.0652728e-05,-0.00014061485,-0.0064164614,-0.0033327285,-0.038120486,4000,4000,0,0,0,1
1743177473693379,1743177473693379,1310988,1310988,-0.0016394416,0.00032702752,-0.0014498276,-0.005875372,-0.0036296095,-0.038805228,4000,4000,0,0,0,1
1743177474193379,1743177474193379,1310988,1310988,-0.0010215807,-0.0013667439,-0.005365737,-0.0018818429,-0.0072400663,-0.038652,4000,4000,0,0,0,1
1743177474693379,1743177474693379,1310988,1310988,0.0018471703,-0.0007925541,-0.0032554483,0.0,-0.0084084375,-0.041592073,4000,4000,0,0,0,1
1743177475193379,1743177475193379,1310988,1310988,-0.00037177684,0.00018854094,0.002903912,-0.000100556485,-0.009318233,-0.0372059,4000,4000,0,0,0,1
1743177475693379,1743177475693379,1310988,1310988,0.00040905506,0.0019813906,0.0012357112,-0.004548983,-0.0071969707,-0.039331954,4000,4000,0,0,0,1
1743177476193379,1743177476193379,1310988,1310988,-1.2779721e-05,-0.00074248743,-0.0017757969,-0.0037876277,-0.00782904,-0.03822583,4000,4000,0,0,0,1
1743177476693379,1743177476693379,1310988,1310988,-8.7352906e-05,0.001434911,-0.00018642205,-0.0021068978,-0.008537723,-0.03821625,4000,4000,0,0,0,1
1743177477193379,1743177477193379,1310988,1310988,-0.0001523324,4.7937036e-05,0.00046232494,-0.0019249384,-0.00728795,-0.038814798,4000,4000,0,0,0,1
1743177477693379,1743177477693379,1310988,1310988,-0.00040373547,2.0240084e-05,-0.00017896394,-0.0011827359,-0.0061243675,-0.039260123,4000,4000,0,0,0,1
1743177478193379,1743177478193379,1310988,1310988,-0.00032490486,5.326435e-05,-0.00041332314,-0.00057939684,-0.0053678006,-0.03904464,4000,4000,0,0,0,1
1743177478693379,1743177478693379,1310988,1310988,-0.00020559621,-2.4502095e-05,-0.0003259708,-2.873042e-05,-0.0046255975,-0.03932237,4000,4000,0,0,0,1
1743177479193379,1743177479193379,1310988,1310988,-0.00012889685,-4.793629e-05,-0.0005081313,-0.00021547818,-0.003811569,-0.039135627,4000,4000,0,0,0,1
1743177479693379,1743177479693379,1310988,1310988,-6.924368e-05,-0.00022796789,-0.0008692554,-4.7884034e-05,-0.0029688098,-0.039245754,4000,4000,0,0,0,1
1743177480193379,1743177480193379,1310988,1310988,-0.00010758876,-0.00025353182,-0.0010759177,-6.7037654e-05,-0.002710236,-0.03911647,4000,4000,0,0,0,1
1743177480693379,1743177480693379,1310988,1310988,-7.4540267e-06,-7.776636e-05,-0.0013699301,0.0005410897,-0.0019680331,-0.039154775,4000,4000,0,0,0,1
1743177481193379,1743177481193379,1310988,1310988,-4.6873254e-05,-4.367493e-05,-0.000801079,0.0008571242,-0.001254561,-0.03940857,4000,4000,0,0,0,1
1743177481693379,1743177481693379,1310988,1310988,0.0009896539,0.0007147681,0.0027025742,0.0008667011,-0.0014269436,-0.04005979,4000,4000,0,0,0,1
1743177482193379,1743177482193379,1310988,1310988,0.0016319937,-0.0012069481,0.005879192,5.7460842e-05,-0.002351106,-0.039446875,4000,4000,0,0,0,1
1743177482693379,1743177482693379,1310988,1310988,-0.00023755878,-5.2201958e-05,0.00348661,-0.0017046717,-0.0014987697,-0.040720582,4000,4000,0,0,0,1
1743177483193379,1743177483193379,1310988,1310988,-0.0005475472,-0.00014701026,0.0013923,-0.0042090076,-0.00022505427,-0.04102704,4000,4000,0,0,0,1
1743177483693379,1743177483693379,1310988,1310988,0.00035367065,0.0012953569,-0.002136923,-0.005104438,-0.00023941952,-0.03845089,4000,4000,0,0,0,1
1743177484193379,1743177484193379,1310988,1310988,-0.00013209372,-2.6631882e-05,-0.0007925567,-0.0042712567,-0.000588973,-0.03945645,4000,4000,0,0,0,1
1743177484693379,1743177484693379,1310988,1310988,-7.989676e-05,-2.0237543e-05,0.0009992181,-0.003998317,8.140354e-05,-0.038829163,4000,4000,0,0,0,1
1743177485193379,1743177485193379,1310988,1310988,-2.1307798e-05,0.0012580776,1.3847325e-05,-0.0034620161,-7.182537e-05,-0.03928406,4000,4000,0,0,0,1
1743177485693379,1743177485693379,1310988,1310988,-0.000105461964,8.841799e-05,-0.00060187414,-0.002403779,8.619196e-05,-0.039600104,4000,4000,0,0,0,1
1743177486193379,1743177486193379,1310988,1310988,-4.261059e-05,3.3023087e-05,-6.4981185e-05,-0.0020446482,-8.619058e-05,-0.039585732,4000,4000,0,0,0,1
1743177486693379,1743177486693379,1310988,1310988,-2.2370521e-05,4.5806384e-05,6.3916664e-06,-0.001565808,0.00018674844,-0.0396432,4000,4000,0,0,0,1
1743177487193379,1743177487193379,1310988,1310988,-6.391614e-05,-3.941349e-05,-0.0003206448,-0.0011731591,0.0002825165,-0.03962404,4000,4000,0,0,0,1
1743177487693379,1743177487693379,1310988,1310988,7.243893e-05,-5.326276e-05,-0.0004878911,-0.0008092403,0.00021069044,-0.03909732,4000,4000,0,0,0,1
1743177488193379,1743177488193379,1310988,1310988,5.006705e-05,-0.00010013518,-0.00043462787,-0.00073262583,0.00022505566,-0.039327163,4000,4000,0,0,0,1
1743177488693379,1743177488693379,1310988,1310988,6.391362e-06,-0.00013422233,-0.0005326325,-0.0004692636,0.00024420928,-0.039360676,4000,4000,0,0,0,1
1743177489193379,1743177489193379,1310988,1310988,-0.0013827134,-0.00051878445,-0.00015552797,-0.0003782839,0.0003926498,-0.039628834,4000,4000,0,0,0,1
1743177489693379,1743177489693379,1310988,1310988,0.0011781888,-0.0017832551,-0.0048533427,-0.00071826053,9.098034e-05,-0.038187522,4000,4000,0,0,0,1
1743177490193379,1743177490193379,1310988,1310988,-0.00033767088,0.0023212144,-0.00017789654,-0.0013024457,-9.576738e-05,-0.03963841,4000,4000,0,0,0,1
1743177490693379,1743177490693379,1310988,1310988,-0.0010737934,0.0014956308,0.0028048393,-0.0017956514,0.00011013398,-0.039619252,4000,4000,0,0,0,1
1743177491193379,1743177491193379,1310988,1310988,0.0004676549,-0.00076166244,-0.0013731255,-0.001374272,-2.3941335e-05,-0.039082948,4000,4000,0,0,0,1
1743177491693379,1743177491693379,1310988,1310988,3.6215533e-05,-0.00022263665,-0.0013933666,-0.0014125791,-2.3941324e-05,-0.03970545,4000,4000,0,0,0,1
1743177492193379,1743177492193379,1310988,1310988,0.0015723403,0.00064767065,0.0020932406,-0.0010151415,-5.7460144e-05,-0.04011724,4000,4000,0,0,0,1
1743177492693379,1743177492693379,1310988,1310988,0.0010120032,-0.001560642,0.005852555,-0.001115698,0.00024899768,-0.039308008,4000,4000,0,0,0,1
1743177493193379,1743177493193379,1310988,1310988,-0.00050387986,0.0003323608,0.002639724,-0.0010438721,0.0011731598,-0.04218584,4000,4000,0,0,0,1
1743177493693379,1743177493693379,1310988,1310988,9.59016e-06,-0.00033023252,-0.0032224255,-0.0028778305,0.0014317335,-0.038474824,4000,4000,0,0,0,1
1743177494193379,1743177494193379,1310988,1310988,-0.0001683077,0.0010098713,-0.0010769827,-0.0061770403,0.00024420928,-0.039293647,4000,4000,0,0,0,1
1743177494693379,1743177494693379,1310988,1310988,-2.3434737e-05,-0.00037710118,0.0014679353,-0.007067684,0.00035434257,-0.038800437,4000,4000,0,0,0,1
1743177495193379,1743177495193379,1310988,1310988,-5.3260355e-06,-0.0001853563,9.374276e-05,-0.006588844,0.0012401972,-0.03887705,4000,4000,0,0,0,1
1743177495693379,1743177495693379,1310988,1310988,-5.3268423e-06,-8.41553e-05,-0.00066898623,-0.007359776,0.00084275973,-0.038613692,4000,4000,0,0,0,1
1743177496193379,1743177496193379,1310988,1310988,-2.5566454e-05,-3.621904e-05,0.00011185274,-0.0082312655,0.00076135685,-0.0384844,4000,4000,0,0,0,1
1743177496693379,1743177496693379,1310988,1310988,-2.343619e-05,-1.8109435e-05,0.00027377298,-0.008537724,0.00075656845,-0.038201887,4000,4000,0,0,0,1
1743177497193379,1743177497193379,1310988,1310988,-1.810969e-05,-0.00010865693,-0.00014381074,-0.008863336,0.0010438728,-0.038273714,4000,4000,0,0,0,1
1743177497693379,1743177497693379,1310988,1310988,-5.3263957e-06,-0.00010546109,-7.563392e-05,-0.00942358,0.0007709336,-0.03822583,4000,4000,0,0,0,1
1743177498193379,1743177498193379,1310988,1310988,-3.8343962e-05,0.0013134716,8.308673e-05,-0.010070014,0.0006512236,-0.03736392,4000,4000,0,0,0,1
1743177498693379,1743177498693379,1310988,1310988,1.9174855e-05,-1.9174711e-05,7.776431e-05,-0.009380483,0.00079008733,-0.038431726,4000,4000,0,0,0,1
1743177499193379,1743177499193379,1310988,1310988,1.9174751e-05,8.4155916e-05,-3.4088436e-05,-0.008111555,0.00064643513,-0.038790856,4000,4000,0,0,0,1
1743177499693379,1743177499693379,1310988,1310988,5.326376e-05,0.00017576854,6.711157e-05,-0.0070868377,0.00044053383,-0.038968027,4000,4000,0,0,0,1
1743177500193379,1743177500193379,1310988,1310988,3.7284146e-05,0.00013209278,-2.4501418e-05,-0.0060908496,0.0005171483,-0.038843535,4000,4000,0,0,0,1
1743177500693379,1743177500693379,1310988,1310988,5.432842e-05,0.0001310276,9.5868945e-06,-0.0054348386,0.0005410903,-0.03925055,4000,4000,0,0,0,1
1743177501193379,1743177501193379,1310988,1310988,9.480865e-05,0.00010759174,3.5153367e-05,-0.004223373,0.0007996641,-0.03919787,4000,4000,0,0,0,1
1743177501693379,1743177501693379,1310988,1310988,-1.2783564e-05,9.267785e-05,5.4328684e-05,-0.0034955349,0.00044053385,-0.03930322,4000,4000,0,0,0,1
1743177502193379,1743177502193379,1310988,1310988,5.3263193e-05,-2.0239991e-05,0.00013102754,-0.0032178075,0.0003974382,-0.039308008,4000,4000,0,0,0,1
1743177502693379,1743177502693379,1310988,1310988,-0.0017012286,9.373866e-05,-0.0008948205,-0.0025234886,0.0007900874,-0.040284842,4000,4000,0,0,0,1
1743177503193379,1743177503193379,1310988,1310988,-0.0012239903,-0.0022477077,-0.005483981,-0.003145981,-0.00015322825,-0.03928406,4000,4000,0,0,0,1
1743177503693379,1743177503693379,1310988,1310988,0.0016777952,-0.0006402286,-0.003172355,-0.0035099,-0.0009864104,-0.043028597,4000,4000,0,0,0,1
1743177504193379,1743177504193379,1310988,1310988,-0.0013006981,0.00025672445,0.003301251,-0.005803546,-0.00072304835,-0.03816358,4000,4000,0,0,0,1
1743177504693379,1743177504693379,1310988,1310988,0.00043036733,0.0016852522,0.001125979,-0.0081833815,0.00023463248,-0.03849398,4000,4000,0,0,0,1
1743177505193379,1743177505193379,1310988,1310988,-0.00060932536,0.0015030879,-0.0016181393,-0.00756089,0.00021069043,-0.03824498,4000,4000,0,0,0,1
1743177505693379,1743177505693379,1310988,1310988,0.0001565935,-0.00029294778,-0.00019068265,-0.005621586,-6.224855e-05,-0.039882615,4000,4000,0,0,0,1
1743177506193379,1743177506193379,1310988,1310988,-6.71113e-05,-0.00018322562,0.0006189187,-0.0044675805,0.000158018,-0.039226606,4000,4000,0,0,0,1
1743177506693379,1743177506693379,1310988,1310988,2.2370354e-05,-7.456882e-05,-0.00018429066,-0.0041132383,-6.224856e-05,-0.03916914,4000,4000,0,0,0,1
1743177507193379,1743177507193379,1310988,1310988,-1.278331e-05,0.00010226504,-0.00039627848,-0.0037062247,0.00017238322,-0.039106894,4000,4000,0,0,0,1
1743177507693379,1743177507693379,1310988,1310988,-2.5566207e-05,7.7764256e-05,5.6459165e-05,-0.0033279408,0.000114922375,-0.039217032,4000,4000,0,0,0,1
1743177508193379,1743177508193379,1310988,1310988,8.521883e-06,0.0001097223,-0.00014381071,-0.002949657,9.577494e-06,-0.039375048,4000,4000,0,0,0,1
1743177508693379,1743177508693379,1310988,1310988,-2.7696227e-05,7.4568874e-05,-0.00040266995,-0.0021883005,-0.000114921,-0.038977604,4000,4000,0,0,0,1
1743177509193379,1743177509193379,1310988,1310988,-1.0653653e-06,-2.0239942e-05,-7.137274e-05,-0.00192015,-0.00026336152,-0.039154775,4000,4000,0,0,0,1
1743177509693379,1743177509693379,1310988,1310988,-0.00078082486,-0.001938788,0.0037252298,-0.0018770543,0.00012449919,-0.039528277,4000,4000,0,0,0,1
1743177510193379,1743177510193379,1310988,1310988,0.0002663105,-0.0016820681,0.0053827777,-0.0020015526,0.00022026729,-0.040821142,4000,4000,0,0,0,1
1743177510693379,1743177510693379,1310988,1310988,0.0006263657,0.0016010966,-0.0001107871,-0.002466028,0.0011013335,-0.039671928,4000,4000,0,0,0,1
1743177511193379,1743177511193379,1310988,1310988,0.0001970816,0.0015574129,-0.0030253527,-0.0038833956,0.00017717162,-0.03928406,4000,4000,0,0,0,1
1743177511693379,1743177511693379,1310988,1310988,-0.00026098156,0.0013859116,0.00087884197,-0.0024564513,2.3942715e-05,-0.04002627,4000,4000,0,0,0,1
1743177512193379,1743177512193379,1310988,1310988,-1.0658835e-05,-0.0008543393,0.001965414,-0.0017046717,9.576876e-05,-0.039849095,4000,4000,0,0,0,1
1743177512693379,1743177512693379,1310988,1310988,-0.00012250454,-0.0004186495,0.00015126687,-0.0010342953,0.00032082372,-0.039427716,4000,4000,0,0,0,1
1743177513193379,1743177513193379,1310988,1310988,-0.0017097469,0.00041652127,-0.0019760677,-0.00081402867,0.000454899,-0.04001191,4000,4000,0,0,0,1
1743177513693379,1743177513693379,1310988,1310988,0.00045380936,-0.0016458398,-0.005455218,-0.0011731591,0.000114922375,-0.03911647,4000,4000,0,0,0,1
1743177514193379,1743177514193379,1310988,1310988,-0.00061145076,0.0014253277,-0.003082876,-0.0013694835,-0.00025378467,-0.040964797,4000,4000,0,0,0,1
1743177514693379,1743177514693379,1310988,1310988,-0.0012378324,0.0014221143,0.002896463,-0.0017238255,-0.000742202,-0.0373687,4000,4000,0,0,0,1
1743177515193379,1743177515193379,1310988,1310988,0.0010002858,-0.0005432846,0.0006285025,-0.0018243816,-0.00047883968,-0.040318362,4000,4000,0,0,0,1
1743177515693379,1743177515693379,1310988,1310988,-0.00015552547,-0.0008820436,-0.0018184046,-0.0012018895,-0.00063685694,-0.03947561,4000,4000,0,0,0,1
1743177516193379,1743177516193379,1310988,1310988,9.4808616e-05,-3.8349368e-05,9.587381e-05,-0.0010678141,-0.0011875236,-0.039082948,4000,4000,0,0,0,1
1743177516693379,1743177516693379,1310988,1310988,0.00086713186,0.00010650768,0.0026045702,-0.0014125791,-0.0010007756,-0.040145975,4000,4000,0,0,0,1
1743177517193379,1743177517193379,1310988,1310988,0.0007254642,-0.0016362501,0.0053998227,-0.0026910831,-0.00016759345,-0.039877824,4000,4000,0,0,0,1
1743177517693379,1743177517693379,1310988,1310988,-0.0002173174,0.000109726294,0.0016852479,-0.0038211464,0.00031124696,-0.041673478,4000,4000,0,0,0,1
1743177518193379,1743177518193379,1310988,1310988,0.0001235727,-0.0003195801,-0.0033641055,-0.005904102,5.267312e-05,-0.03890099,4000,4000,0,0,0,1
1743177518693379,1743177518693379,1310988,1310988,-0.00039520932,0.0010471549,-0.00046872016,-0.0073262574,-0.000114921015,-0.03849398,4000,4000,0,0,0,1
1743177519193379,1743177519193379,1310988,1310988,-1.1716092e-05,0.00013848806,0.001342233,-0.0063446355,-0.0001053442,-0.038891412,4000,4000,0,0,0,1
1743177519693379,1743177519693379,1310988,1310988,9.0547175e-05,-1.4913571e-05,-0.0001416804,-0.0058705835,0.00018196004,-0.038991973,4000,4000,0,0,0,1
1743177520193379,1743177520193379,1310988,1310988,5.219929e-05,-0.00059867726,-0.0005454169,-0.010845734,-0.0008044512,-0.03846525,4000,4000,0,0,0,1
1743177520693379,1743177520693379,1310988,1310988,0.0010237178,-0.0014168025,0.0002428818,-0.01854549,-0.005942409,-0.03525701,4000,4000,0,0,0,1
1743177521193379,1743177521193379,1310988,1310988,0.0002833595,-0.00020453199,0.00043356267,-0.015969329,-0.0032944214,-0.03452439,4000,4000,0,0,0,1
1743177521693379,1743177521693379,1310988,1310988,-0.00024075154,0.0006924213,5.219861e-05,-0.012583924,-0.0013168106,-0.037129287,4000,4000,0,0,0,1
1743177522193379,1743177522193379,1310988,1310988,-0.00046978256,0.0008639288,-0.00019707509,-0.009696517,-0.00041180212,-0.038086966,4000,4000,0,0,0,1
1743177522693379,1743177522693379,1310988,1310988,-0.00038136475,0.00036218954,-0.00013955058,-0.008643068,-0.0003782832,-0.038757343,4000,4000,0,0,0,1
1743177523193379,1743177523193379,1310988,1310988,-7.030713e-05,0.0016426378,-5.326239e-05,-0.0085425135,-0.00037349484,-0.0380726,4000,4000,0,0,0,1
1743177523693379,1743177523693379,1310988,1310988,-5.7523994e-05,0.00014913689,-0.000106526786,-0.00851857,-0.0001053442,-0.03898239,4000,4000,0,0,0,1
1743177524193379,1743177524193379,1310988,1310988,4.5806326e-05,-7.882953e-05,-0.00010439597,-0.008327034,6.799533e-10,-0.038958456,4000,4000,0,0,0,1
1743177524693379,1743177524693379,1310988,1310988,5.8589587e-05,-4.900219e-05,-2.023987e-05,-0.007867347,-0.00013407464,-0.039106894,4000,4000,0,0,0,1
1743177525193379,1743177525193379,1310988,1310988,7.137282e-05,-6.178532e-05,-5.113257e-05,-0.0076710233,-4.3094962e-05,-0.038637627,4000,4000,0,0,0,1
1743177525693379,1743177525693379,1310988,1310988,1.0652886e-05,3.1960392e-06,-9.906957e-05,-0.006761226,0.00012928758,-0.03879565,4000,4000,0,0,0,1
1743177526193379,1743177526193379,1310988,1310988,-1.0651974e-06,-1.491411e-05,-0.00013209278,-0.00623929,0.00020590205,-0.038905777,4000,4000,0,0,0,1
1743177526693379,1743177526693379,1310988,1310988,-5.645933e-05,5.3262807e-05,-0.00019707395,-0.0056982003,6.703834e-05,-0.038833957,4000,4000,0,0,0,1
1743177527193379,1743177527193379,1310988,1310988,1.0651453e-06,2.4500694e-05,-0.00023435825,-0.0052768216,0.00012449917,-0.03893451,4000,4000,0,0,0,1
1743177527693379,1743177527693379,1310988,1310988,-0.0019409108,-1.918459e-05,-0.0011547486,-0.0049224794,0.00024899768,-0.04033751,4000,4000,0,0,0,1
1743177528193379,1743177528193379,1310988,1310988,0.00057631044,-0.001578714,-0.005452026,-0.0045729256,-0.00039743682,-0.03845089,4000,4000,0,0,0,1
1743177528693379,1743177528693379,1310988,1310988,-0.0007328911,0.0024202836,-0.0008671276,-0.0032656917,-0.0025282763,-0.03959053,4000,4000,0,0,0,1
1743177529193379,1743177529193379,1310988,1310988,-0.0011217274,0.0012229242,0.0022817946,-0.004209007,-0.00140779,-0.039681505,4000,4000,0,0,0,1
1743177529693379,1743177529693379,1310988,1310988,-0.0002663218,-0.001007734,-0.0022956473,-0.003160346,-0.0011731583,-0.038690306,4000,4000,0,0,0,1
1743177530193379,1743177530193379,1310988,1310988,0.00053476496,0.0002695085,-0.0007233143,-0.0019728222,-0.0017238247,-0.039978385,4000,4000,0,0,0,1
1743177530693379,1743177530693379,1310988,1310988,-0.00013423811,-0.0024074926,0.005596902,-0.0029113498,-0.00072783674,-0.037823603,4000,4000,0,0,0,1
1743177531193379,1743177531193379,1310988,1310988,-0.0003771169,0.00095235405,0.0051601394,-0.0042568916,0.00015322962,-0.03935589,4000,4000,0,0,0,1
1743177531693379,1743177531693379,1310988,1310988,0.0011611305,0.001336917,-0.0013592745,-0.004525041,0.00064643513,-0.03829765,4000,4000,0,0,0,1
1743177532193379,1743177532193379,1310988,1310988,-0.00016404755,0.0017236028,-0.0029028433,-0.004012682,-3.8306523e-05,-0.040552992,4000,4000,0,0,0,1
1743177532693379,1743177532693379,1310988,1310988,0.00025778805,-0.0007254486,0.0014349106,-0.0028921962,-1.915293e-05,-0.039308008,4000,4000,0,0,0,1
1743177533193379,1743177533193379,1310988,1310988,-0.00023116116,-0.0001981406,0.0009928265,-0.0022553382,4.3096334e-05,-0.039858676,4000,4000,0,0,0,1
1743177533693379,1743177533693379,1310988,1310988,0.00033660803,-0.0013518425,-0.0045294994,-0.002054225,-9.0979e-05,-0.03859932,4000,4000,0,0,0,1
1743177534193379,1743177534193379,1310988,1310988,-7.987983e-05,0.0027228298,-0.0035281463,-0.0010582373,-0.0007469903,-0.042133164,4000,4000,0,0,0,1
1743177534693379,1743177534693379,1310988,1310988,-0.0012847026,-0.0008830913,0.0034812903,-0.0012641385,-0.00072783674,-0.036162023,4000,4000,0,0,0,1
1743177535193379,1743177535193379,1310988,1310988,0.0019526299,-0.00025565378,0.0019707407,-0.0013886371,-0.00016759343,-0.039806,4000,4000,0,0,0,1
1743177535693379,1743177535693379,1310988,1310988,-4.2622833e-05,-0.00045167626,0.0034844796,-0.0015610196,6.82544e-10,-0.039106894,4000,4000,0,0,0,1
1743177536193379,1743177536193379,1310988,1310988,0.0009736459,0.0015595491,-0.001348627,-0.0020446482,-1.9152949e-05,-0.03824977,4000,4000,0,0,0,1
1743177536693379,1743177536693379,1310988,1310988,0.00019388052,-0.00079788413,-0.0018152101,-0.001838747,0.00021069046,-0.040150765,4000,4000,0,0,0,1
1743177537193379,1743177537193379,1310988,1310988,-0.0012197285,-0.00048682903,0.0005315627,-0.0012880805,-0.00012928621,-0.03920266,4000,4000,0,0,0,1
1743177537693379,1743177537693379,1310988,1310988,0.0007179798,-0.0016767333,-0.004578505,-0.0010869676,-8.61906e-05,-0.038623262,4000,4000,0,0,0,1
1743177538193379,1743177538193379,1310988,1310988,-0.00055393286,0.0011249242,-0.0018631462,-0.0010965444,-0.0007326251,-0.04160165,4000,4000,0,0,0,1
1743177538693379,1743177538693379,1310988,1310988,-0.0006242466,0.0018343885,0.0032778173,-0.0016950949,-0.00076135556,-0.037948098,4000,4000,0,0,0,1
1743177539193379,1743177539193379,1310988,1310988,0.00056672044,-0.000116112526,-9.694246e-05,-0.0014030023,-7.182535e-05,-0.039978385,4000,4000,0,0,0,1
1743177539693379,1743177539693379,1310988,1310988,-0.0002833608,-0.00095447665,-0.0018663434,-0.00066079973,-0.00034955278,-0.039585732,4000,4000,0,0,0,1
1743177540193379,1743177540193379,1310988,1310988,8.3090585e-05,9.5871965e-06,8.202545e-05,-9.097968e-05,-0.00045010928,-0.039260127,4000,4000,0,0,0,1
1743177540693379,1743177540693379,1310988,1310988,0.001936648,0.00020985145,0.0013763268,-0.00030166947,-0.00021547747,-0.03979164,4000,4000,0,0,0,1
1743177541193379,1743177541193379,1310988,1310988,0.00044634406,-0.0018258519,0.0050962297,-0.0007565678,-0.0003351876,-0.03916914,4000,4000,0,0,0,1
1743177541693379,1743177541693379,1310988,1310988,-0.0005443584,-0.00026950974,0.0031904662,-0.0013072344,0.00015322966,-0.041989516,4000,4000,0,0,0,1
1743177542193379,1743177542193379,1310988,1310988,0.0005049253,0.001390176,-0.0030072408,-0.0024325093,-0.00012449783,-0.037483625,4000,4000,0,0,0,1
1743177542693379,1743177542693379,1310988,1310988,-0.00031638177,0.0017374468,-0.0012815135,-0.0020446482,-0.00033518756,-0.04015555,4000,4000,0,0,0,1
1743177543193379,1743177543193379,1310988,1310988,-0.00014487372,0.001742776,0.0014476908,-0.001115698,-0.0007565671,-0.04044286,4000,4000,0,0,0,1
1743177543693379,1743177543693379,1310988,1310988,0.00011505044,-0.0009033442,0.00038775615,-0.0009624692,-0.0013886363,-0.040045418,4000,4000,0,0,0,1
1743177544193379,1743177544193379,1310988,1310988,0.00017044021,-0.0007701868,0.00013848455,-0.00077093294,-0.0020877435,-0.03947561,4000,4000,0,0,0,1
1743177544693379,1743177544693379,1310988,1310988,9.800385e-05,-0.00024287977,0.00078190444,-0.0008523358,-0.0031747113,-0.03953306,4000,4000,0,0,0,1
1743177545193379,1743177545193379,1310988,1310988,-0.0014466307,-9.0565656e-05,-0.002349972,-0.0010390837,-0.004185065,-0.040265687,4000,4000,0,0,0,1
1743177545693379,1743177545693379,1310988,1310988,0.0016863259,0.0015052102,-0.004785167,2.8730421e-05,-0.006842628,-0.03987304,4000,4000,0,0,0,1
1743177546193379,1743177546193379,1310988,1310988,0.00018217198,0.0006700264,0.0047233864,-4.788403e-06,-0.009346965,-0.033399116,4000,4000,0,0,0,1
1743177546693379,1743177546693379,1310988,1310988,0.00020026961,-0.00021516996,0.0032234916,-0.0046782712,-0.0074699097,-0.04021302,4000,4000,0,0,0,1
1743177547193379,1743177547193379,1310988,1310988,-0.0013177291,-0.00051451876,-0.0017726036,-0.005659893,-0.008087614,-0.037469264,4000,4000,0,0,0,1
1743177547693379,1743177547693379,1310988,1310988,0.00029720992,-0.00025033584,-0.0007115967,-0.0038355116,-0.011286267,-0.038235407,4000,4000,0,0,0,1
1743177548193379,1743177548193379,1310988,1310988,0.0001320896,-0.0007488805,0.0012634044,-0.0061530983,-0.011152192,-0.037713468,4000,4000,0,0,0,1
1743177548693379,1743177548693379,1310988,1310988,-0.0003387525,-0.00039308445,0.00046338968,-0.011147403,-0.008207322,-0.03723942,4000,4000,0,0,0,1
1743177549193379,1743177549193379,1310988,1310988,-4.260208e-06,0.0002631187,-0.0003760396,-0.014087484,-0.0075656776,-0.03575022,4000,4000,0,0,0,1
1743177549693379,1743177549693379,1310988,1310988,7.2438204e-05,0.00027909942,-7.030679e-05,-0.016716316,-0.008796298,-0.03425145,4000,4000,0,0,0,1
1743177550193379,1743177550193379,1310988,1310988,0.00013422246,0.00044847673,0.00017683367,-0.017176006,-0.008010999,-0.034112588,4000,4000,0,0,0,1
1743177550693379,1743177550693379,1310988,1310988,0.00012463315,0.00059974456,-1.3849217e-05,-0.016673222,-0.008082824,-0.03485958,4000,4000,0,0,0,1
1743177551193379,1743177551193379,1310988,1310988,-5.8589994e-05,-0.00019068201,-0.00014913728,-0.015255855,-0.008145073,-0.0356353,4000,4000,0,0,0,1
1743177551693379,1743177551693379,1310988,1310988,-6.498085e-05,-0.00021731394,8.628668e-05,-0.013551182,-0.0081881685,-0.036090195,4000,4000,0,0,0,1
1743177552193379,1743177552193379,1310988,1310988,-7.350356e-05,3.5153877e-05,0.00015552845,-0.013086706,-0.007934385,-0.036042314,4000,4000,0,0,0,1
1743177552693379,1743177552693379,1310988,1310988,-7.45687e-06,9.800439e-05,-2.1305033e-05,-0.013148957,-0.0076949648,-0.036358345,4000,4000,0,0,0,1
1743177553193379,1743177553193379,1310988,1310988,2.8762537e-05,9.5873685e-05,1.1717935e-05,-0.012727578,-0.0076039853,-0.036415815,4000,4000,0,0,0,1
1743177553693379,1743177553693379,1310988,1310988,2.8762386e-05,9.054782e-05,0.00015126733,-0.012674905,-0.007422026,-0.036607347,4000,4000,0,0,0,1
1743177554193379,1743177554193379,1310988,1310988,-2.8762155e-05,4.0480052e-05,0.00023116241,-0.012957421,-0.0067277066,-0.03665523,4000,4000,0,0,0,1
1743177554693379,1743177554693379,1310988,1310988,-4.2611136e-05,-1.0652785e-05,0.00024288023,-0.012674905,-0.006244078,-0.036525946,4000,4000,0,0,0,1
1743177555193379,1743177555193379,1310988,1310988,-5.006678e-05,-6.711134e-05,0.00032810168,-0.012785039,-0.0057412954,-0.036731843,4000,4000,0,0,0,1
1743177555693379,1743177555693379,1310988,1310988,0.0013635389,-0.00013848227,0.00017683317,-0.012856863,-0.005444415,-0.037263356,4000,4000,0,0,0,1
1743177556193379,1743177556193379,1310988,1310988,1.2331157e-08,-0.0019462274,0.004622188,-0.015801731,-0.0014796163,-0.03710534,4000,4000,0,0,0,1
1743177556693379,1743177556693379,1310988,1310988,-0.00072863715,-0.00057843997,0.0013028203,-0.015140934,0.00036391936,-0.037287302,4000,4000,0,0,0,1
1743177557193379,1743177557193379,1310988,1310988,0.0004889531,-0.00020985924,-0.003012569,-0.01719516,-0.00011970947,-0.036382288,4000,4000,0,0,0,1
1743177557693379,1743177557693379,1310988,1310988,-0.0002673788,0.000781905,5.1133065e-05,-0.020063413,-0.00052672386,-0.033782195,4000,4000,0,0,0,1
1743177558193379,1743177558193379,1310988,1310988,-0.00013209587,0.00054541696,0.0011419626,-0.023683444,-0.00024420806,-0.031603463,4000,4000,0,0,0,1
1743177558693379,1743177558693379,1310988,1310988,-1.2782082e-05,-0.00046445514,-0.00033555867,-0.022242134,-0.00020590081,-0.031459812,4000,4000,0,0,0,1
1743177559193379,1743177559193379,1310988,1310988,-0.00015233275,-4.260909e-06,-0.00033662363,-0.021705834,-0.0005267238,-0.032570727,4000,4000,0,0,0,1
1743177559693379,1743177559693379,1310988,1310988,-0.00010013508,3.834967e-05,0.00020240013,-0.022443248,-0.00023463124,-0.032168496,4000,4000,0,0,0,1
1743177560193379,1743177560193379,1310988,1310988,3.3023272e-05,-5.965479e-05,4.9002156e-05,-0.02265394,-0.00016759358,-0.032091882,4000,4000,0,0,0,1
1743177560693379,1743177560693379,1310988,1310988,1.0650973e-06,-4.9002243e-05,-0.00010972222,-0.02274492,-0.00022984283,-0.03206315,4000,4000,0,0,0,1
1743177561193379,1743177561193379,1310988,1310988,-2.3436032e-05,-5.4328393e-05,2.5566362e-05,-0.02319024,-0.00013886315,-0.03176627,4000,4000,0,0,0,1
1743177561693379,1743177561693379,1310988,1310988,-1.7044442e-05,3.195798e-05,6.817686e-05,-0.023214184,-9.5767515e-05,-0.03140235,4000,4000,0,0,0,1
1743177562193379,1743177562193379,1310988,1310988,5.11327e-05,-1.810943e-05,7.457033e-06,-0.023290798,-9.097913e-05,-0.03148376,4000,4000,0,0,0,1
1743177562693379,1743177562693379,1310988,1310988,-1.3848379e-05,-6.604642e-05,3.195787e-06,-0.023822311,-0.0001675936,-0.03133053,4000,4000,0,0,0,1
1743177563193379,1743177563193379,1310988,1310988,-9.587432e-06,-4.367595e-05,3.621886e-05,-0.023501487,6.70382e-05,-0.031196453,4000,4000,0,0,0,1
1743177563693379,1743177563693379,1310988,1310988,-1.9174788e-05,-5.326292e-06,1.4913681e-05,-0.023793578,2.8730967e-05,-0.031138992,4000,4000,0,0,0,1
1743177564193379,1743177564193379,1310988,1310988,4.9002214e-05,-3.40884e-05,1.9174773e-05,-0.023846252,8.14034e-05,-0.03129701,4000,4000,0,0,0,1
1743177564693379,1743177564693379,1310988,1310988,1.2783144e-05,-3.195759e-06,-2.0240052e-05,-0.023760058,-0.00012928637,-0.031081531,4000,4000,0,0,0,1
1743177565193379,1743177565193379,1310988,1310988,2.6631615e-05,-2.024002e-05,-1.0652905e-06,-0.024224536,-1.4364667e-05,-0.031196453,4000,4000,0,0,0,1
1743177565693379,1743177565693379,1310988,1310988,2.1305179e-05,-3.834952e-05,3.5153793e-05,-0.02394202,8.14034e-05,-0.030703247,4000,4000,0,0,0,1
1743177566193379,1743177566193379,1310988,1310988,2.4501098e-05,-6.3915795e-05,-2.2370768e-05,-0.024358612,-4.78835e-05,-0.030870842,4000,4000,0,0,0,1
1743177566693379,1743177566693379,1310988,1310988,3.1957873e-06,-6.178547e-05,5.113254e-05,-0.024128769,3.8307764e-05,-0.030765494,4000,4000,0,0,0,1
1743177567193379,1743177567193379,1310988,1310988,4.2610074e-05,0.0011483552,1.7044862e-05,-0.025766402,4.788456e-05,-0.029956255,4000,4000,0,0,0,1
1743177567693379,1743177567693379,1310988,1310988,-5.3261633e-06,-3.621901e-05,4.2611396e-06,-0.025479099,6.224977e-05,-0.029889217,4000,4000,0,0,0,1
1743177568193379,1743177568193379,1310988,1310988,3.72838e-05,0.0001310277,4.6871533e-05,-0.024114402,-6.703712e-05,-0.030813381,4000,4000,0,0,0,1
1743177568693379,1743177568693379,1310988,1310988,4.4741024e-05,0.00016298557,4.474088e-05,-0.023467967,0.00018674831,-0.031579528,4000,4000,0,0,0,1
1743177569193379,1743177569193379,1310988,1310988,1.9174937e-05,0.00018002972,1.3848207e-05,-0.022706613,-4.7883477e-05,-0.032058362,4000,4000,0,0,0,1
1743177569693379,1743177569693379,1310988,1310988,4.793705e-05,0.00019068249,7.776392e-05,-0.021825543,0.00011492226,-0.03269522,4000,4000,0,0,0,1
1743177570193379,1743177570193379,1310988,1310988,0.00010652642,0.0001075921,9.906923e-05,-0.021289242,0.00014844112,-0.033308133,4000,4000,0,0,0,1
1743177570693379,1743177570693379,1310988,1310988,7.882989e-05,3.408817e-05,0.00020666127,-0.020542255,0.0003639193,-0.03361938,4000,4000,0,0,0,1
1743177571193379,1743177571193379,1310988,1310988,8.7351356e-05,0.00011930972,0.00045380273,-0.019752163,5.267303e-05,-0.033940207,4000,4000,0,0,0,1
1743177571693379,1743177571693379,1310988,1310988,0.00017576854,0.00016724665,6.4981155e-05,-0.019033905,0.00039264967,-0.034021612,4000,4000,0,0,0,1
1743177572193379,1743177572193379,1310988,1310988,0.00036005946,-0.0005464805,-0.00030573132,-0.018148052,0.00035434234,-0.025072081,4000,4000,0,0,0,1
1743177572693379,1743177572693379,1310988,1310988,0.00020239971,0.00029401336,-2.3436034e-05,-0.018253393,0.00020111355,-0.033341654,4000,4000,0,0,0,1
1743177573193379,1743177573193379,1310988,1310988,-8.735179e-05,-2.9827188e-05,0.00016085495,-0.018693931,9.0980284e-05,-0.03442383,4000,4000,0,0,0,1
1743177573693379,1743177573693379,1310988,1310988,-1.0652884e-05,7.563371e-05,-7.243805e-05,-0.018636467,0.00017717152,-0.033815704,4000,4000,0,0,0,1
1743177574193379,1743177574193379,1310988,1310988,-8.522102e-05,6.285042e-05,-7.2438335e-05,-0.018617311,0.0002585744,-0.034050345,4000,4000,0,0,0,1
1743177574693379,1743177574693379,1310988,1310988,-2.0240053e-05,3.7284226e-05,4.4741126e-05,-0.018727448,2.394262e-05,-0.03445256,4000,4000,0,0,0,1
1743177575193379,1743177575193379,1310988,1310988,1.1717893e-05,-2.0240032e-05,6.3915936e-06,-0.018588584,0.00034955406,-0.034687195,4000,4000,0,0,0,1
1743177575693379,1743177575693379,1310988,1310988,5.113266e-05,-2.450115e-05,-2.9827419e-05,-0.018531123,0.00017238314,-0.034457352,4000,4000,0,0,0,1
1743177576193379,1743177576193379,1310988,1310988,2.8762093e-05,-2.2370565e-05,-1.2783268e-05,-0.018655624,0.00019632513,-0.034471724,4000,4000,0,0,0,1
1743177576693379,1743177576693379,1310988,1310988,-9.587366e-06,-1.9174837e-05,2.5566298e-05,-0.018526336,0.00018195996,-0.0345196,4000,4000,0,0,0,1
1743177577193379,1743177577193379,1310988,1310988,-1.1717935e-05,-7.456923e-06,-3.1957912e-05,-0.018133683,0.00020111357,-0.034471724,4000,4000,0,0,0,1
1743177577693379,1743177577693379,1310988,1310988,1.0652326e-06,-3.5153706e-05,-1.4913758e-05,-0.018406622,0.00018674837,-0.034754235,4000,4000,0,0,0,1
1743177578193379,1743177578193379,1310988,1310988,-5.326175e-06,4.3675922e-05,-5.0067385e-05,-0.018646045,0.00038307288,-0.034620162,4000,4000,0,0,0,1
1743177578693379,1743177578693379,1310988,1310988,-9.587367e-06,-8.522126e-06,3.1958068e-06,-0.01844493,0.00022984398,-0.034797326,4000,4000,0,0,0,1
1743177579193379,1743177579193379,1310988,1310988,2.130528e-05,-2.8762153e-05,6.391573e-06,-0.018650832,0.00015801792,-0.03477339,4000,4000,0,0,0,1
1743177579693379,1743177579693379,1310988,1310988,-1.38484465e-05,5.4328557e-05,-2.0239848e-05,-0.0183348,0.00013407592,-0.03469199,4000,4000,0,0,0,1
1743177580193379,1743177580193379,1310988,1310988,7.456881e-06,1.1717999e-05,-2.9827364e-05,-0.018344373,-5.2671836e-05,-0.034629736,4000,4000,0,0,0,1
1743177580693379,1743177580693379,1310988,1310988,-1.8345749e-11,3.089267e-05,-3.1957934e-06,-0.018492816,0.00011492229,-0.03475423,4000,4000,0,0,0,1
1743177581193379,1743177581193379,1310988,1310988,1.8109513e-05,1.5978947e-05,-1.0653594e-06,-0.018555064,0.00041659176,-0.034648888,4000,4000,0,0,0,1
1743177581693379,1743177581693379,1310988,1310988,2.3435598e-05,6.072014e-05,-9.587509e-06,-0.0183348,0.00019632516,-0.03461058,4000,4000,0,0,0,1
1743177582193379,1743177582193379,1310988,1310988,-3.7284277e-05,2.982743e-05,1.704415e-05,-0.018229451,0.0003447657,-0.034524392,4000,4000,0,0,0,1
1743177582693379,1743177582693379,1310988,1310988,2.5566529e-05,7.4568496e-05,7.030741e-05,-0.018349161,0.0002920933,-0.03623385,4000,4000,0,0,0,1
1743177583193379,1743177583193379,1310988,1310988,3.408839e-05,0.00010226542,4.261248e-06,-0.01824382,0.0003878613,-0.035386305,4000,4000,0,0,0,1
1743177583693379,1743177583693379,1310988,1310988,6.498108e-05,8.9482266e-05,1.0649254e-06,-0.017970879,0.00011971072,-0.035357572,4000,4000,0,0,0,1
1743177584193379,1743177584193379,1310988,1310988,-5.219758e-05,0.0001225056,3.834943e-05,-0.017717093,0.00013407595,-0.035707124,4000,4000,0,0,0,1
1743177584693379,1743177584693379,1310988,1310988,-3.408861e-05,0.00015233281,-2.1303574e-06,-0.016883912,0.00032561208,-0.035869937,4000,4000,0,0,0,1
1743177585193379,1743177585193379,1310988,1310988,-4.367591e-05,0.00025672885,-2.0239157e-05,-0.01595496,0.00022984401,-0.036439758,4000,4000,0,0,0,1
1743177585693379,1743177585693379,1310988,1310988,2.3436753e-05,0.00036005935,4.9002414e-05,-0.014144945,0.00024899762,-0.037062246,4000,4000,0,0,0,1
1743177586193379,1743177586193379,1310988,1310988,2.0239848e-05,0.000547546,2.237035e-05,-0.012009317,0.00018196001,-0.037938524,4000,4000,0,0,0,1
1743177586693379,1743177586693379,1310988,1310988,-5.9654856e-05,0.0006072009,2.2369168e-05,-0.009677364,0.00018674842,-0.0387334,4000,4000,0,0,0,1
1743177587193379,1743177587193379,1310988,1310988,-4.260526e-06,0.0007009441,4.793698e-05,-0.0068905135,7.182674e-05,-0.039240967,4000,4000,0,0,0,1
1743177587693379,1743177587693379,1310988,1310988,7.4573336e-06,0.0006029397,1.6050448e-10,-0.004548983,2.39427e-05,-0.039164353,4000,4000,0,0,0,1
1743177588193379,1743177588193379,1310988,1310988,-2.130588e-05,0.00038882156,-2.3435643e-05,-0.0023175874,1.9154308e-05,-0.039542638,4000,4000,0,0,0,1
1743177588693379,1743177588693379,1310988,1310988,1.0652288e-06,0.0002045308,7.456874e-06,-0.0013311764,-5.7460154e-05,-0.039221816,4000,4000,0,0,0,1
1743177589193379,1743177589193379,1310988,1310988,2.3435821e-05,7.882955e-05,-6.3918346e-06,-0.00062728085,0.0001436528,-0.03938941,4000,4000,0,0,0,1
1743177589693379,1743177589693379,1310988,1310988,8.522344e-06,-2.6631575e-05,-5.539374e-05,-0.00017238254,-1.4364529e-05,-0.039106894,4000,4000,0,0,0,1
1743177590193379,1743177590193379,1310988,1310988,1.0654182e-06,-0.00011930962,-1.3848535e-05,-0.0001628057,5.7461526e-05,-0.039135627,4000,4000,0,0,0,1
1743177590693379,1743177590693379,1310988,1310988,1.38484465e-05,-6.1785475e-05,-4.2610394e-05,-4.3095635e-05,0.00019153682,-0.03910211,4000,4000,0,0,0,1
1743177591193379,1743177591193379,1310988,1310988,-2.6631576e-05,-4.3675842e-05,-1.8109562e-05,0.00014844054,4.309632e-05,-0.039269697,4000,4000,0,0,0,1
1743177591693379,1743177591693379,1310988,1310988,3.834956e-05,-3.408844e-05,-8.5220745e-06,-1.4365211e-05,-0.00019632386,-0.03942293,4000,4000,0,0,0,1
1743177592193379,1743177592193379,1310988,1310988,-6.3916486e-06,1.2783262e-05,-2.2370488e-05,6.2249244e-05,0.00013407599,-0.03928406,4000,4000,0,0,0,1
1743177592693379,1743177592693379,1310988,1310988,-2.2370572e-05,-2.5566338e-05,-5.3262966e-06,-0.00012449849,0.00017238322,-0.03925055,4000,4000,0,0,0,1
1743177593193379,1743177593193379,1310988,1310988,3.195796e-06,1.2940118e-11,1.1717911e-05,2.3942017e-05,-7.661378e-05,-0.03909732,4000,4000,0,0,0,1
1743177593693379,1743177593693379,1310988,1310988,-4.4741137e-05,1.3848318e-05,-5.3264157e-06,-4.788403e-06,0.00029688174,-0.039126046,4000,4000,0,0,0,1
1743177594193379,1743177594193379,1310988,1310988,-1.7044267e-05,-5.006742e-05,-1.704424e-05,0.00012928691,9.0980364e-05,-0.03919787,4000,4000,0,0,0,1
1743177594693379,1743177594693379,1310988,1310988,-4.154531e-05,0.0013667346,-3.1954278e-05,0.0003926491,5.9863625e-10,-0.034299333,4000,4000,0,0,0,1
1743177595193379,1743177595193379,1310988,1310988,2.6631813e-05,9.587376e-05,-2.130657e-06,0.0011683707,0.00016759483,-0.03911647,4000,4000,0,0,0,1
1743177595693379,1743177595693379,1310988,1310988,1.1717939e-05,7.2437884e-05,4.793705e-05,1.43652105e-05,-3.3518143e-05,-0.03920266,4000,4000,0,0,0,1
1743177596193379,1743177596193379,1310988,1310988,-1.9174822e-05,-3.9414754e-05,-3.195815e-06,-0.0001388637,-7.661378e-05,-0.039193086,4000,4000,0,0,0,1
