timestamp,timestamp_sample,time_last_fuse,observation[0],observation[1],device_id,observation_variance[0],observation_variance[1],innovation[0],innovation[1],innovation_filtered[0],innovation_filtered[1],innovation_variance[0],innovation_variance[1],test_ratio[0],test_ratio[1],test_ratio_filtered[0],test_ratio_filtered[1],estimator_instance,innovation_rejected,fused
1743177449789379,1743177449635217,1743177449277379,52.5148588,13.325424199999999,0,0.25,0.25,-0.0014365936,-0.0022059781,-0.00031527394,-0.00070812955,0.7502635,0.7502635,1.10030726e-07,2.5944695e-07,-1.641368e-08,-6.525279e-08,0,0,0
1743177449845379,1743177449687226,1743177449277379,52.5148588,13.325424199999999,0,0.25,0.25,-0.0014786954,-0.0022619718,-0.0004248888,-0.000854529,100.25009,100.25009,8.724342e-10,2.0415012e-09,-1.494942e-08,-5.929717e-08,0,0,0
1743177449893379,1743177449739237,1743177449277379,52.5148588,13.325424199999999,0,0.25,0.25,-0.0015028293,-0.0022717828,-0.00052645337,-0.000988064,100.25037,100.25037,9.0114205e-10,2.0592432e-09,-1.3625778e-08,-5.390416e-08,0,0,0
1743177449949379,1743177449791245,1743177449277379,52.5148588,13.325424199999999,0,0.25,0.25,-0.0015465346,-0.0023141392,-0.0006225614,-0.0011130015,100.250916,100.250916,9.543131e-10,2.1367346e-09,-1.2431923e-08,-4.9026838e-08,0,0,0
1743177449997379,1743177449843254,1743177449277379,52.5148588,13.325424199999999,0,0.25,0.25,-0.0015137129,-0.0024521654,-0.0007065236,-0.0012391744,100.25159,100.25159,9.142307e-10,2.3992102e-09,-1.1346753e-08,-4.463369e-08,0,0,0
1743177450053379,1743177449895261,1743177449901379,52.5148588,13.325424199999999,0,0.25,0.25,0.0,0.0,0.0,0.0,0.25,0.25,0.0,0.0,0.0,0.0,0,0,1
1743177450101379,1743177449947269,1743177449949379,52.5148588,13.325424199999999,0,0.25,0.25,1.075291e-05,-2.7419062e-05,1.0130965e-06,-2.583315e-06,0.7502075,0.7502075,6.1649652e-12,4.0085175e-11,5.8083855e-13,-3.776666e-12,0,0,1
1743177450157379,1743177449999276,1743177450005379,52.5148588,13.325424199999999,0,0.25,0.25,-1.6269756e-05,-2.3707626e-05,-6.1519677e-07,-4.5735287e-06,0.41690052,0.41690052,2.5397422e-11,5.392668e-11,-1.8666871e-12,-8.501519e-12,0,0,1
1743177450205379,1743177450051283,1743177450053379,52.5148588,13.325424199999999,0,0.25,0.25,-1.516724e-05,1.3477904e-05,-1.9862086e-06,-2.872824e-06,0.35025072,0.35025072,2.627206e-11,2.0745584e-11,-4.1660243e-12,-5.746021e-12,0,0,1
1743177450261379,1743177450103289,1743177450109379,52.5148588,13.325424199999999,0,0.25,0.25,-4.356183e-05,-0.00039583712,-5.9031618e-06,-3.989507e-05,0.3217622,0.3217622,2.3590505e-10,1.947861e-08,-2.5998793e-11,-1.840338e-09,0,0,1
1743177450309379,1743177450155295,1743177450157379,52.5148588,13.325424199999999,0,0.25,0.25,-7.024756e-05,-0.0003579517,-1.1965224e-05,-6.9860056e-05,0.30592522,0.30592522,6.452191e-10,1.675304e-08,-8.433723e-11,-3.2453045e-09,0,0,1
1743177450365379,1743177450207300,1743177450213379,52.5148588,13.325424199999999,0,0.25,0.25,-9.689775e-05,-0.00038585713,-1.996681e-05,-9.963049e-05,0.29591164,0.2959116,1.2691862e-09,2.01257e-08,-1.9596316e-10,-4.8356252e-09,0,0,1
1743177450413379,1743177450259305,1743177450261379,52.5148588,13.325424199999999,0,0.25,0.25,-9.752684e-05,-0.00039866567,-2.7273827e-05,-0.00012780292,0.28896096,0.2889609,1.3166463e-09,2.2000807e-08,-3.0154396e-10,-6.452776e-09,0,0,1
1743177450469379,1743177450311309,1743177450317379,52.5148588,13.325424199999999,0,0.25,0.25,-0.00016146213,-0.00042304868,-3.9915634e-05,-0.00015561786,0.2839257,0.28392562,3.6727945e-09,2.5213671e-08,-6.191477e-10,-8.22023e-09,0,0,1
1743177450517379,1743177450363314,1743177450365379,52.5148588,13.325424199999999,0,0.25,0.25,-0.0001878038,-0.00041522237,-5.3848344e-05,-0.00018007548,0.28005144,0.28005132,5.037684e-09,2.462543e-08,-1.0354229e-09,-9.765782e-09,0,0,1
1743177450573379,1743177450415318,1743177450421379,52.5148588,13.325424199999999,0,0.25,0.25,-0.000589446,-0.00043632794,-0.00010430672,-0.00020421689,0.27705503,0.27705482,5.016283e-08,2.7486557e-08,-5.663689e-09,-1.14352465e-08,0,0,1
1743177450621379,1743177450467322,1743177450469379,52.5148588,13.325424199999999,0,0.25,0.25,-0.0005767923,-0.00046014602,-0.00014881932,-0.00022832784,0.27460033,0.2746001,4.8461608e-08,3.084258e-08,-9.695658e-09,-1.3263601e-08,0,0,1
1743177450677379,1743177450519326,1743177450525379,52.5148588,13.325424199999999,0,0.25,0.25,-0.0006172378,-0.0004511397,-0.00019294878,-0.00024931884,0.27263665,0.27263632,5.5896013e-08,2.9860587e-08,-1.4048169e-08,-1.4827194e-08,0,0,1
1743177450725379,1743177450571329,1743177450573379,52.5148588,13.325424199999999,0,0.25,0.25,-0.00062712707,-0.0008238535,-0.00023385177,-0.00030344448,0.27095217,0.2709518,5.806019e-08,1.0020005e-07,-1.8194445e-08,-2.2869983e-08,0,0,1
1743177450781379,1743177450623332,1743177450629379,52.5148588,13.325424199999999,0,0.25,0.25,-0.0006140248,-0.00079025264,-0.00026966704,-0.00034930563,0.269583,0.26958254,5.594218e-08,9.266168e-08,-2.1750576e-08,-2.9444907e-08,0,0,1
1743177450829379,1743177450675335,1743177450677379,52.5148588,13.325424199999999,0,0.25,0.25,-0.0006053177,-0.00075989915,-0.00030128795,-0.00038798674,0.2683619,0.2683614,5.461424e-08,8.607001e-08,-2.484659e-08,-3.4779433e-08,0,0,1
1743177450885379,1743177450727338,1743177450733379,52.5148588,13.325424199999999,0,0.25,0.25,-0.00063076016,-0.00071229896,-0.0003323268,-0.00041853948,0.26736638,0.2673658,5.9522574e-08,7.5906456e-08,-2.811334e-08,-3.865392e-08,0,0,1
1743177450933379,1743177450779341,1743177450781379,52.5148588,13.325424199999999,0,0.25,0.25,-0.00059002964,-0.00065150287,-0.00035660443,-0.00044048644,0.26644462,0.26644403,5.226376e-08,6.372159e-08,-3.03885e-08,-4.101549e-08,0,0,1
1743177450989379,1743177450831343,1743177450837379,52.5148588,13.325424199999999,0,0.25,0.25,-0.00056989,-0.0006122853,-0.00037669725,-0.00045667097,0.26569754,0.26569688,4.8893888e-08,5.643924e-08,-3.2131823e-08,-4.2468503e-08,0,0,1
1743177451037379,1743177450883346,1743177450885379,52.5148588,13.325424199999999,0,0.25,0.25,-0.0005358009,-0.0005498705,-0.00039168604,-0.0004654511,0.26497948,0.26497883,4.3336573e-08,4.5642523e-08,-3.3187398e-08,-4.276752e-08,0,0,1
1743177451093379,1743177450935348,1743177450941379,52.5148588,13.325424199999999,0,0.25,0.25,-0.00051197555,-0.0005031403,-0.00040301806,-0.00046900165,0.26440632,0.26440564,3.9653962e-08,3.8297244e-08,-3.379659e-08,-4.2346393e-08,0,0,1
1743177451141379,1743177450987350,1743177450989379,52.5148588,13.325424199999999,0,0.25,0.25,-0.00049157016,-0.0004772843,-0.0004113602,-0.00046978192,0.26383263,0.26383197,3.6635534e-08,3.453718e-08,-3.4064033e-08,-4.161072e-08,0,0,1
1743177451197379,1743177451039351,1743177451045379,52.5148588,13.325424199999999,0,0.25,0.25,-0.00041749896,-0.00046257954,-0.0004119385,-0.00046910343,0.2633844,0.26338372,2.6471634e-08,3.249705e-08,-3.3348794e-08,-4.075217e-08,0,0,1
1743177451245379,1743177451091353,1743177451093379,52.5148588,13.325424199999999,0,0.25,0.25,-0.0004063494,-0.00043718613,-0.00041141198,-0.00046609662,0.26291648,0.26291582,2.5121262e-08,2.9078768e-08,-3.257371e-08,-3.9652463e-08,0,0,1
1743177451301379,1743177451143355,1743177451149379,52.5148588,13.325424199999999,0,0.25,0.25,-0.00041213425,-0.0003775712,-0.00041148002,-0.00045775698,0.2625618,0.2625611,2.587652e-08,2.1718375e-08,-3.1942793e-08,-3.796296e-08,0,0,1
1743177451349379,1743177451195357,1743177451197379,52.5148588,13.325424199999999,0,0.25,0.25,-0.00041397533,-0.000348384,-0.0004117151,-0.00044745338,0.26217347,0.26217282,2.6146896e-08,1.8517772e-08,-3.1396784e-08,-3.61311e-08,0,0,1
1743177451405379,1743177451247358,1743177451253379,52.5148588,13.325424199999999,0,0.25,0.25,-0.00035657908,-0.00027449982,-0.00040652102,-0.00043116036,0.26188937,0.2618887,1.9420206e-08,1.1508728e-08,-3.0268534e-08,-3.3811563e-08,0,0,1
1743177451453379,1743177451299359,1743177451301379,52.5148588,13.325424199999999,0,0.25,0.25,-0.00035807042,-0.00027495454,-0.00040195676,-0.00041644505,0.26156235,0.26156172,1.9607475e-08,1.1561324e-08,-2.9264214e-08,-3.171549e-08,0,0,1
1743177451509379,1743177451351361,1743177451357379,52.5148588,13.325424199999999,0,0.25,0.25,-0.0003201406,-0.00024998843,-0.00039424916,-0.00040076382,0.26133367,0.26133305,1.5687224e-08,9.5654515e-09,-2.7985177e-08,-2.962882e-08,0,0,1
1743177451557379,1743177451403362,1743177451405379,52.5148588,13.325424199999999,0,0.25,0.25,-0.0003265659,-0.0002520291,-0.0003878731,-0.00038675233,0.2610548,0.26105425,1.6340673e-08,9.732639e-09,-2.6888213e-08,-2.775451e-08,0,0,1
1743177451613379,1743177451455363,1743177451461379,52.5148588,13.325424199999999,0,0.25,0.25,-0.00030058247,-0.00022860864,-0.00037964992,-0.0003718545,0.26086935,0.26086882,1.3853651e-08,8.013516e-09,-2.5660297e-08,-2.5894819e-08,0,0,1
1743177451661379,1743177451507364,1743177451509379,52.5148588,13.325424199999999,0,0.25,0.25,-0.00027136685,-0.00020135519,-0.00036944918,-0.0003557927,0.26062897,0.26062846,1.1301886e-08,6.2224834e-09,-2.4307669e-08,-2.4041595e-08,0,0,1
1743177451717379,1743177451559365,1743177451565379,52.5148588,13.325424199999999,0,0.25,0.25,0.00025146754,-0.00016491955,-0.000310956,-0.0003378116,0.2604787,0.26047823,9.710725e-09,4.1766954e-09,-2.1102982e-08,-2.2170232e-08,0,0,1
1743177451765379,1743177451611366,1743177451613379,52.5148588,13.325424199999999,0,0.25,0.25,0.00029205024,-0.00015787043,-0.00025415007,-0.00032086033,0.26026922,0.26026878,1.310848e-08,3.830359e-09,-1.7880108e-08,-2.0442533e-08,0,0,1
1743177451821379,1743177451663367,1743177451669379,52.5148588,13.325424199999999,0,0.25,0.25,0.0002791634,-0.00013575035,-0.00020390953,-0.00030342213,0.26014727,0.26014683,1.1982782e-08,2.833501e-09,-1.5066888e-08,-1.8783682e-08,0,0,1
1743177451869379,1743177451715368,1743177451717379,52.5148588,13.325424199999999,0,0.25,0.25,0.00027079036,-0.00015240972,-0.00015919065,-0.0002891961,0.25996357,0.25996315,1.1282722e-08,3.574156e-09,-1.25846356e-08,-1.7350876e-08,0,0,1
1743177451925379,1743177451767368,1743177451773379,52.5148588,13.325424199999999,0,0.25,0.25,0.000315631,-0.00010372875,-0.00011446107,-0.00027172454,0.25986484,0.25986442,1.5334576e-08,1.656195e-09,-9.954565e-09,-1.5872391e-08,0,0,1
1743177451973379,1743177451819369,1743177451821379,52.5148588,13.325424199999999,0,0.25,0.25,0.00035193728,-0.0005178336,-7.052423e-05,-0.00029490914,0.25970203,0.25970164,1.9077225e-08,4.1301497e-08,-7.219639e-09,-1.826793e-08,0,0,1
1743177452029379,1743177451871370,1743177451877379,52.5148588,13.325424199999999,0,0.25,0.25,0.00033263364,-0.0004727801,-3.2544925e-05,-0.00031166538,0.25962245,0.2596221,1.7047082e-08,3.4437907e-08,-4.9336037e-09,-1.9791214e-08,0,0,1
1743177452077379,1743177451923370,1743177451925379,52.5148588,13.325424199999999,0,0.25,0.25,0.0003207462,-0.0004618237,7.361268e-07,-0.00032581075,0.25947753,0.2594772,1.5859275e-08,3.2878596e-08,-2.9748541e-09,-2.1024084e-08,0,0,1
1743177452133379,1743177451975371,1743177451981379,52.5148588,13.325424199999999,0,0.25,0.25,0.00030937346,-0.00039970144,2.9811164e-05,-0.0003327716,0.25941396,0.25941363,1.4758179e-08,2.463421e-08,-1.304322e-09,-2.1364174e-08,0,0,1
1743177452181379,1743177452027371,1743177452029379,52.5148588,13.325424199999999,0,0.25,0.25,0.00028490982,-0.00032316113,5.38422e-05,-0.00033186626,0.25928366,0.25928333,1.252275e-08,1.6111043e-08,-1.7715829e-12,-2.0869313e-08,0,0,1
1743177452237379,1743177452079372,1743177452085379,52.5148588,13.325424199999999,0,0.25,0.25,0.00023508405,-0.00028409064,7.0916e-05,-0.0003273656,0.25923347,0.25923315,8.527373e-09,1.2453268e-08,8.0171253e-10,-2.0076484e-08,0,0,1
1743177452285379,1743177452131372,1743177452133379,52.5148588,13.325424199999999,0,0.25,0.25,0.00024148874,-0.00028254336,8.698445e-05,-0.0003231432,0.25911596,0.25911567,9.002426e-09,1.232357e-08,1.5742436e-09,-1.9346137e-08,0,0,1
1743177452341379,1743177452183373,1743177452189379,52.5148588,13.325424199999999,0,0.25,0.25,0.00021169378,-0.0002507798,9.8732635e-05,-0.00031632624,0.25907707,0.25907677,6.9190618e-09,9.709941e-09,2.0777498e-09,-1.8438364e-08,0,0,1
1743177452389379,1743177452235373,1743177452237379,52.5148588,13.325424199999999,0,0.25,0.25,0.00019614695,-0.00027388628,0.00010790935,-0.00031232828,0.25897005,0.25896978,5.9425598e-09,1.1586478e-08,2.441826e-09,-1.7792896e-08,0,0,1
1743177452445379,1743177452287374,1743177452293379,52.5148588,13.325424199999999,0,0.25,0.25,0.00018475288,-0.0002777139,0.00011514836,-0.00030906746,0.25894067,0.2589404,5.27281e-09,1.191394e-08,2.7085176e-09,-1.7239072e-08,0,0,1
1743177452493379,1743177452339374,1743177452341379,52.5148588,13.325424199999999,0,0.25,0.25,0.00017621138,-0.00025275222,0.00012090067,-0.0003037624,0.25884306,0.25884283,4.798344e-09,9.872196e-09,2.9053853e-09,-1.654509e-08,0,0,1
1743177452549379,1743177452391374,1743177452397379,52.5148588,13.325424199999999,0,0.25,0.25,0.00014634393,-0.00020598472,0.0001232975,-0.00029455146,0.2588218,0.25882155,3.309852e-09,6.5573684e-09,2.9434872e-09,-1.5604218e-08,0,0,1
1743177452597379,1743177452443375,1743177452445379,52.5148588,13.325424199999999,0,0.25,0.25,0.00010826838,-0.00020214621,0.00012188169,-0.00028584647,0.2587318,0.25873157,1.8122306e-09,6.3174497e-09,2.8369178e-09,-1.4729363e-08,0,0,1
1743177452653379,1743177452495375,1743177452501379,52.5148588,13.325424199999999,0,0.25,0.25,8.867757e-05,-0.00011695554,0.000118753764,-0.00026993646,0.25871745,0.2587172,1.215799e-09,2.1148339e-09,2.6842037e-09,-1.3541038e-08,0,0,1
1743177452701379,1743177452547375,1743177452549379,52.5148588,13.325424199999999,0,0.25,0.25,8.428741e-05,-0.00012544193,0.00011550693,-0.00025632465,0.2586345,0.2586343,1.09875e-09,2.433657e-09,2.5348494e-09,-1.249469e-08,0,0,1
1743177452757379,1743177452599376,1743177452605379,52.5148588,13.325424199999999,0,0.25,0.25,3.830089e-05,-0.00011716401,0.00010823378,-0.0002432151,0.25862604,0.25862586,2.268848e-10,2.1231295e-09,2.3174287e-09,-1.1517642e-08,0,0,1
1743177452805379,1743177452651376,1743177452653379,52.5148588,13.325424199999999,0,0.25,0.25,4.0127043e-06,0.0003418508,9.841585e-05,-0.00018810018,0.2585487,0.25854853,2.4911045e-12,1.8079696e-08,2.099355e-09,-8.7294865e-09,0,0,1
1743177452861379,1743177452703376,1743177452709379,52.5148588,13.325424199999999,0,0.25,0.25,-1.07479345e-05,-0.00016858996,8.81323e-05,-0.00018626226,0.25854528,0.25854513,1.787201e-11,4.3973096e-09,1.899906e-09,-8.321383e-09,0,0,1
1743177452909379,1743177452755376,1743177452757379,52.5148588,13.325424199999999,0,0.25,0.25,-3.189549e-05,-0.00020389268,7.682533e-05,-0.0001879231,0.25847334,0.2584732,1.5743555e-10,6.4335066e-09,1.7060985e-09,-8.143539e-09,0,0,1
1743177452965379,1743177452807376,1743177452813379,52.5148588,13.325424199999999,0,0.25,0.25,-3.0424047e-07,-0.00024910696,6.95595e-05,-0.00019368679,0.258474,0.25847387,1.4324422e-14,9.60318e-09,1.5453777e-09,-8.281042e-09,0,0,1
1743177453013379,1743177452859377,1743177452861379,52.5148588,13.325424199999999,0,0.25,0.25,-9.024853e-06,-0.00027273825,6.21565e-05,-0.0002011338,0.2584065,0.25840637,1.2607729e-11,1.1514601e-08,1.3986085e-09,-8.5856575e-09,0,0,1
1743177453069379,1743177452911377,1743177452917379,52.5148588,13.325424199999999,0,0.25,0.25,-6.665567e-05,-0.00030388797,5.0022016e-05,-0.00021081354,0.25841117,0.25841105,6.8773787e-10,1.4294729e-08,1.2020686e-09,-9.123468e-09,0,0,1
1743177453117379,1743177452963377,1743177452965379,52.5148588,13.325424199999999,0,0.25,0.25,-4.176909e-05,-0.00027800916,4.1375028e-05,-0.00021714356,0.25834754,0.25834745,2.7012556e-10,1.196669e-08,1.0633836e-09,-9.391308e-09,0,0,1
1743177453173379,1743177453015377,1743177453021379,52.5148588,13.325424199999999,0,0.25,0.25,-6.499799e-05,-0.00029596427,3.135438e-05,-0.0002245687,0.2583551,0.25835502,6.54098e-10,1.3561935e-08,9.0159186e-10,-9.784193e-09,0,0,1
1743177453221379,1743177453067377,1743177453069379,52.5148588,13.325424199999999,0,0.25,0.25,-9.363498e-05,-0.00027795887,1.9580017e-05,-0.00022959821,0.2582949,0.25829482,1.3577519e-09,1.1964798e-08,6.887551e-10,-9.989613e-09,0,0,1
1743177453277379,1743177453119377,1743177453125379,52.5148588,13.325424199999999,0,0.25,0.25,-0.00013386439,-0.0002840004,5.1251063e-06,-0.00023472306,0.25830558,0.25830552,2.7749576e-09,1.2490051e-08,3.624633e-10,-1.0225161e-08,0,0,1
1743177453325379,1743177453171378,1743177453173379,52.5148588,13.325424199999999,0,0.25,0.25,-0.00013751526,-0.00024356203,-8.312264e-06,-0.00023555574,0.25824836,0.25824833,2.9290328e-09,9.188437e-09,5.2389426e-11,-1.0127497e-08,0,0,1
1743177453381379,1743177453223378,1743177453229379,52.5148588,13.325424199999999,0,0.25,0.25,-7.5203556e-05,-0.00016411762,-1.4613618e-05,-0.00022882606,0.25826105,0.25826102,8.75947e-10,4.171685e-09,-3.5062564e-11,-9.566442e-09,0,0,1
1743177453429379,1743177453275378,1743177453277379,52.5148588,13.325424199999999,0,0.25,0.25,-8.3711624e-05,-0.00019069029,-2.112285e-05,-0.00022523355,0.25820646,0.25820643,1.0855864e-09,5.6331344e-09,-1.3402496e-10,-9.1959125e-09,0,0,1
1743177453485379,1743177453327378,1743177453333379,52.5148588,13.325424199999999,0,0.25,0.25,-0.00010038443,-0.0001818105,-2.8589522e-05,-0.00022114298,0.25822163,0.25822163,1.5609899e-09,5.120416e-09,-2.684492e-10,-8.8119885e-09,0,0,1
1743177453533379,1743177453379378,1743177453381379,52.5148588,13.325424199999999,0,0.25,0.25,-0.0001030643,-0.00017012084,-3.5605262e-05,-0.00021633654,0.25816938,0.25816938,1.6457801e-09,4.4840482e-09,-3.9819778e-10,-8.4042835e-09,0,0,1
1743177453589379,1743177453431378,1743177453437379,52.5148588,13.325424199999999,0,0.25,0.25,-9.670368e-05,-0.0001234476,-4.1360912e-05,-0.00020758613,0.25818586,0.25818586,1.4488171e-09,2.3609825e-09,-4.971692e-10,-7.834987e-09,0,0,1
1743177453637379,1743177453483378,1743177453485379,52.5148588,13.325424199999999,0,0.25,0.25,-0.00013105941,-0.000109736815,-4.9810773e-05,-0.00019836843,0.2581357,0.2581357,2.661634e-09,1.8660213e-09,-7.010681e-10,-7.272693e-09,0,0,1
1743177453693379,1743177453535378,1743177453541379,52.5148588,13.325424199999999,0,0.25,0.25,-0.0001884201,-7.860243e-05,-6.2868174e-05,-0.00018708613,0.25815427,0.25815433,5.500918e-09,9.573099e-10,-1.153228e-09,-6.677766e-09,0,0,1
1743177453741379,1743177453587378,1743177453589379,52.5148588,13.325424199999999,0,0.25,0.25,-0.00020256445,-4.6094254e-05,-7.6027965e-05,-0.00017380429,0.2581059,0.25810593,6.3589956e-09,3.292726e-10,-1.6436263e-09,-6.0797194e-09,0,0,1
1743177453797379,1743177453639378,1743177453645379,52.5148588,13.325424199999999,0,0.25,0.25,-0.00032863516,-2.1435397e-05,-9.98243e-05,-0.0001594507,0.25812525,0.2581253,1.6736227e-08,7.1202044e-11,-3.0653933e-09,-5.5136997e-09,0,0,1
1743177453845379,1743177453691379,1743177453693379,52.5148588,13.325424199999999,0,0.25,0.25,-0.0003629532,-1.303894e-05,-0.00012461224,-0.00014565805,0.25807855,0.2580786,2.0417819e-08,2.6350722e-11,-4.7000706e-09,-4.9967666e-09,0,0,1
1743177453901379,1743177453743379,1743177453749379,52.5148588,13.325424199999999,0,0.25,0.25,-0.00039767215,1.7134715e-05,-0.00015033528,-0.0001303225,0.25809976,0.25809985,2.450884e-08,4.550153e-11,-6.5661143e-09,-4.5217705e-09,0,0,1
1743177453949379,1743177453795379,1743177453797379,52.5148588,13.325424199999999,0,0.25,0.25,-0.00037608104,1.7243754e-05,-0.00017160119,-0.00011642133,0.25805444,0.25805452,2.1923583e-08,4.609058e-11,-8.012832e-09,-4.091465e-09,0,0,1
1743177454005379,1743177453847379,1743177453853379,52.5148588,13.325424199999999,0,0.25,0.25,-0.00086816226,1.9775625e-05,-0.00023721927,-0.000103591185,0.25807598,0.2580761,1.16819194e-07,6.0613965e-11,-1.8262707e-08,-3.700327e-09,0,0,1
1743177454053379,1743177453899379,1743177453901379,52.5148588,13.325424199999999,0,0.25,0.25,-0.00086269306,-6.246008e-06,-0.00029614073,-9.442099e-05,0.25803202,0.25803214,1.1537163e-07,6.047714e-12,-2.741065e-08,-3.352315e-09,0,0,1
1743177454109379,1743177453951379,1743177453957379,52.5148588,13.325424199999999,0,0.25,0.25,-0.00091017445,-3.2880744e-05,-0.00035398448,-8.862372e-05,0.25805524,0.2580554,1.2840933e-07,1.6758314e-10,-3.692502e-08,-3.0523042e-09,0,0,1
1743177454157379,1743177454003379,1743177454005379,52.5148588,13.325424199999999,0,0.25,0.25,-0.0009301761,-2.1986423e-05,-0.0004082634,-8.234629e-05,0.25801235,0.25801253,1.341374e-07,7.494253e-11,-4.6082707e-08,-2.771828e-09,0,0,1
1743177454213379,1743177454055379,1743177454061379,52.5148588,13.325424199999999,0,0.25,0.25,-0.0010442933,-9.278812e-05,-0.00046817926,-8.332994e-05,0.2580356,0.25803578,1.6905396e-07,1.3346421e-09,-5.766696e-08,-2.636441e-09,0,0,1
1743177454261379,1743177454107379,1743177454109379,52.5148588,13.325424199999999,0,0.25,0.25,-0.0010080454,-7.090372e-05,-0.0005190362,-8.215936e-05,0.25799385,0.25799406,1.5754723e-07,7.7945006e-10,-6.707597e-08,-2.4615072e-09,0,0,1
1743177454317379,1743177454159379,1743177454165379,52.5148588,13.325424199999999,0,0.25,0.25,-0.0011110805,0.00040186505,-0.0005748085,-3.656285e-05,0.2580187,0.25801894,1.9138146e-07,2.5036227e-08,-7.878591e-08,1.2885915e-10,0,0,1
1743177454365379,1743177454211379,1743177454213379,52.5148588,13.325424199999999,0,0.25,0.25,-0.0011599751,0.00044518724,-0.0006299329,8.8194065e-06,0.25797686,0.2579771,2.086299e-07,3.0730117e-08,-9.101759e-08,3.0115865e-09,0,0,1
1743177454421379,1743177454263379,1743177454269379,52.5148588,13.325424199999999,0,0.25,0.25,-0.0012991545,0.00041233975,-0.00069297553,4.6832196e-05,0.2580023,0.2580026,2.6167243e-07,2.6360054e-08,-1.0709377e-07,5.21108e-09,0,0,1
1743177454469379,1743177454315379,1743177454317379,52.5148588,13.325424199999999,0,0.25,0.25,-0.0012736743,0.00037763827,-0.00074767903,7.799509e-05,0.25796238,0.25796267,2.5154773e-07,2.211338e-08,-1.2070176e-07,6.803326e-09,0,0,1
1743177454525379,1743177454367379,1743177454373379,52.5148588,13.325424199999999,0,0.25,0.25,-0.0013570696,0.0003621102,-0.0008050854,0.000104759565,0.2579885,0.25798887,2.8553796e-07,2.0330148e-08,-1.362298e-07,8.077592e-09,0,0,1
1743177454573379,1743177454419379,1743177454421379,52.5148588,13.325424199999999,0,0.25,0.25,-0.0014773327,0.00053934404,-0.0008684131,0.0001456987,0.25794816,0.2579485,3.3844194e-07,4.510854e-08,-1.5527877e-07,1.1566015e-08,0,0,1
1743177454629379,1743177454471379,1743177454477379,52.5148588,13.325424199999999,0,0.25,0.25,-0.0015021972,0.00055066915,-0.00092811737,0.00018384808,0.25797477,0.2579752,3.4989415e-07,4.701793e-08,-1.7361211e-07,1.4905687e-08,0,0,1
1743177454677379,1743177454523379,1743177454525379,52.5148588,13.325424199999999,0,0.25,0.25,-0.0015100926,0.0005566514,-0.0009829411,0.00021896724,0.25793615,0.2579366,3.5363476e-07,4.8052236e-08,-1.9057076e-07,1.8028189e-08,0,0,1
1743177454733379,1743177454575379,1743177454581379,52.5148588,13.325424199999999,0,0.25,0.25,-0.0015165748,0.0005489813,-0.001033211,0.0002500555,0.2579635,0.257964,3.5663945e-07,4.673218e-08,-2.062149e-07,2.0732188e-08,0,0,1
1743177454781379,1743177454627379,1743177454629379,52.5148588,13.325424199999999,0,0.25,0.25,-0.0015751745,0.0005969089,-0.0010842655,0.00028273012,0.25792435,0.25792482,3.847911e-07,5.5256447e-08,-2.230373e-07,2.3984473e-08,0,0,1
1743177454837379,1743177454679379,1743177454685379,52.5148588,13.325424199999999,0,0.25,0.25,-0.0016428672,0.00056005956,-0.0011368875,0.00030885535,0.25795192,0.25795248,4.185296e-07,4.8639457e-08,-2.4145325e-07,2.6307044e-08,0,0,1
1743177454885379,1743177454731379,1743177454733379,52.5148588,13.325424199999999,0,0.25,0.25,-0.0015932611,0.0005750461,-0.0011798792,0.0003339313,0.2579145,0.25791508,3.9369343e-07,5.1284793e-08,-2.557947e-07,2.866002e-08,0,0,1
1743177454941379,1743177454783379,1743177454789379,52.5148588,13.325424199999999,0,0.25,0.25,-0.0016386199,0.0010429781,-0.001223094,0.00040072558,0.25794274,0.25794336,4.1638316e-07,1.6868873e-07,-2.709226e-07,4.185113e-08,0,0,1
1743177454989379,1743177454835379,1743177454837379,52.5148588,13.325424199999999,0,0.25,0.25,-0.0020241695,0.0010458304,-0.0012985576,0.00046149633,0.25790456,0.25790516,6.354695e-07,1.6963776e-07,-3.05264e-07,5.3889003e-08,0,0,1
1743177455045379,1743177454887379,1743177454893379,52.5148588,13.325424199999999,0,0.25,0.25,-0.0019995174,0.0010714694,-0.00136459,0.00051895756,0.25793293,0.25793362,6.20017e-07,1.7803754e-07,-3.3491463e-07,6.558415e-08,0,0,1
1743177455093379,1743177454939379,1743177454941379,52.5148588,13.325424199999999,0,0.25,0.25,-0.001949575,0.0010169712,-0.0014196973,0.0005658719,0.25789648,0.25789723,5.8951446e-07,1.604097e-07,-3.5889866e-07,7.4517e-08,0,0,1
1743177455149379,1743177454991379,1743177454997379,52.5148588,13.325424199999999,0,0.25,0.25,-0.0018975621,0.00097273896,-0.0014647136,0.00060419994,0.25792548,0.2579263,5.584159e-07,1.4674286e-07,-3.7769377e-07,8.1320884e-08,0,0,1
1743177455197379,1743177455043379,1743177455045379,52.5148588,13.325424199999999,0,0.25,0.25,-0.0019801597,0.0009407097,-0.0015132701,0.0006359001,0.25788808,0.25788888,6.081758e-07,1.372583e-07,-3.9940585e-07,8.659035e-08,0,0,1
1743177455253379,1743177455095379,1743177455101379,52.5148588,13.325424199999999,0,0.25,0.25,-0.001894224,0.00046229517,-0.0015491571,0.00061954604,0.2579171,0.257918,5.56471e-07,3.3144925e-08,-4.1420185e-07,8.155563e-08,0,0,1
1743177455301379,1743177455147379,1743177455149379,52.5148588,13.325424199999999,0,0.25,0.25,-0.0018449313,1.4587082e-05,-0.0015770199,0.00056255714,0.25788146,0.25788242,5.2795906e-07,3.3004648e-11,-4.249181e-07,7.387597e-08,0,0,1
1743177455357379,1743177455199379,1743177455205379,52.5148588,13.325424199999999,0,0.25,0.25,-0.0017797535,-0.00011289129,-0.001596118,0.0004989279,0.25791082,0.25791186,4.9125856e-07,1.976558e-09,-4.3116756e-07,6.6730436e-08,0,0,1
1743177455405379,1743177455251379,1743177455253379,52.5148588,13.325424199999999,0,0.25,0.25,-0.0017371235,9.853589e-06,-0.0016094011,0.00045285566,0.25787434,0.25787535,4.680726e-07,1.506049e-11,-4.3464414e-07,6.044566e-08,0,0,1
1743177455461379,1743177455303379,1743177455309379,52.5148588,13.325424199999999,0,0.25,0.25,-0.001647465,-4.7534762e-05,-0.0016129868,0.00040571744,0.2579039,0.25790504,4.2095388e-07,3.5044737e-10,-4.3335447e-07,5.4718488e-08,0,0,1
1743177455509379,1743177455355379,1743177455357379,52.5148588,13.325424199999999,0,0.25,0.25,-0.00163685,-8.4469066e-05,-0.0016152348,0.00035954046,0.25786895,0.2578701,4.15603e-07,1.1067623e-09,-4.3168222e-07,4.9459587e-08,0,0,1
1743177455565379,1743177455407379,1743177455413379,52.5148588,13.325424199999999,0,0.25,0.25,-0.001591066,-0.0003318304,-0.001612958,0.00029441132,0.25789723,0.25789845,3.9263563e-07,1.707826e-08,-4.2800391e-07,4.3191527e-08,0,0,1
1743177455613379,1743177455459379,1743177455461379,52.5148588,13.325424199999999,0,0.25,0.25,-0.0014932321,-0.00034191267,-0.0016016795,0.00023446775,0.25786287,0.2578641,3.4588027e-07,1.8134246e-08,-4.2026764e-07,3.741446e-08,0,0,1
1743177455669379,1743177455511379,1743177455517379,52.5148588,13.325424199999999,0,0.25,0.25,-0.0013599002,-0.00042474992,-0.0015789032,0.00017236752,0.25789285,0.25789425,2.8683675e-07,2.7982397e-08,-4.0769805e-07,3.1253887e-08,0,0,1
1743177455717379,1743177455563379,1743177455565379,52.5148588,13.325424199999999,0,0.25,0.25,-0.0012324142,-0.00044688728,-0.0015462629,0.00011403192,0.25785843,0.25785986,2.3560908e-07,3.0979344e-08,-3.9148676e-07,2.5391335e-08,0,0,1
1743177455773379,1743177455615379,1743177455621379,52.5148588,13.325424199999999,0,0.25,0.25,-0.001133465,-0.0004881011,-0.0015073761,5.7309244e-05,0.25788707,0.2578886,1.9927218e-07,3.6952805e-08,-3.7337958e-07,1.9518335e-08,0,0,1
1743177455821379,1743177455667379,1743177455669379,52.5148588,13.325424199999999,0,0.25,0.25,-0.0010558467,-0.0005097862,-0.0014648407,3.8872095e-06,0.25785324,0.25785473,1.7293748e-07,4.0314475e-08,-3.5449736e-07,1.3881911e-08,0,0,1
1743177455877379,1743177455719379,1743177455725379,52.5148588,13.325424199999999,0,0.25,0.25,-0.00089541025,-0.00054310064,-0.0014111988,-4.764064e-05,0.25788355,0.25788525,1.2435994e-07,4.575032e-08,-3.3281773e-07,8.264381e-09,0,0,1
1743177455925379,1743177455771379,1743177455773379,52.5148588,13.325424199999999,0,0.25,0.25,-0.0008634899,-0.0005717691,-0.001359603,-9.701506e-05,0.25784957,0.2578513,1.1566664e-07,5.0714483e-08,-3.1236146e-07,2.708401e-09,0,0,1
1743177455981379,1743177455823379,1743177455829379,52.5148588,13.325424199999999,0,0.25,0.25,-0.00023328634,-0.0009791432,-0.0012535007,-0.00018011409,0.25787848,0.2578803,8.441575e-09,1.4870797e-07,-2.8373134e-07,-1.1555461e-08,0,0,1
1743177456029379,1743177455875379,1743177455877379,52.5148588,13.325424199999999,0,0.25,0.25,-0.00014641928,-0.0009549406,-0.0011492104,-0.000253105,0.25784507,0.2578469,3.3258116e-09,1.4146559e-07,-2.5731632e-07,-2.3793373e-08,0,0,1
1743177456085379,1743177455927379,1743177455933379,52.5148588,13.325424199999999,0,0.25,0.25,-2.3929082e-05,-0.001416783,-0.0010432056,-0.00036272686,0.25787568,0.25787765,8.881815e-11,3.113529e-07,-2.3308473e-07,-5.0882313e-08,0,0,1
1743177456133379,1743177455979379,1743177455981379,52.5148588,13.325424199999999,0,0.25,0.25,2.615615e-05,-0.0009233193,-0.00094246864,-0.00041553628,0.25784203,0.2578441,1.0613386e-10,1.3225335e-07,-2.1111748e-07,-5.8547702e-08,0,0,1
1743177456189379,1743177456031379,1743177456037379,52.5148588,13.325424199999999,0,0.25,0.25,0.0011765164,-0.0014735713,-0.0007428541,-0.00051520625,0.25787118,0.25787333,2.1471044e-07,3.3681843e-07,-1.7100325e-07,-8.476161e-08,0,0,1
1743177456237379,1743177456083379,1743177456085379,52.5148588,13.325424199999999,0,0.25,0.25,0.00123638,-0.0014617264,-0.00055640447,-0.0006043712,0.25783813,0.25784025,2.3714651e-07,3.3146787e-07,-1.3255436e-07,-1.08002055e-07,0,0,1
1743177456293379,1743177456135379,1743177456141379,52.5148588,13.325424199999999,0,0.25,0.25,0.0014227094,-0.0014962365,-0.00036996618,-0.0006883875,0.25786892,0.2578712,3.139738e-07,3.472623e-07,-9.049011e-08,-1.3054107e-07,0,0,1
1743177456341379,1743177456187379,1743177456189379,52.5148588,13.325424199999999,0,0.25,0.25,0.001518686,-0.0015294694,-0.00019204966,-0.0007676199,0.2578356,0.25783795,3.5781048e-07,3.629065e-07,-4.8258894e-08,-1.5243057e-07,0,0,1
1743177456397379,1743177456239379,1743177456245379,52.5148588,13.325424199999999,0,0.25,0.25,0.0026547548,-0.0018552972,7.612759e-05,-0.00087008224,0.25786483,0.25786737,1.093243e-06,5.339377e-07,5.9273905e-08,-1.8836965e-07,0,0,1
1743177456445379,1743177456291379,1743177456293379,52.5148588,13.325424199999999,0,0.25,0.25,0.00268538,-0.0019018599,0.00032192675,-0.00096727867,0.25783166,0.25783423,1.1187556e-06,5.611468e-07,1.5908016e-07,-2.2348635e-07,0,0,1
1743177456501379,1743177456343379,1743177456349379,52.5148588,13.325424199999999,0,0.25,0.25,0.0029221487,-0.0020058018,0.0005668752,-0.0010651106,0.25786301,0.2578657,1.3245719e-06,6.2408316e-07,2.6887287e-07,-2.6122373e-07,0,0,1
1743177456549379,1743177456395379,1743177456397379,52.5148588,13.325424199999999,0,0.25,0.25,0.0029692277,-0.0019997426,0.0007931838,-0.0011531556,0.25782993,0.25783265,1.3677719e-06,6.203978e-07,3.7239235e-07,-2.9505898e-07,0,0,1
1743177456605379,1743177456447379,1743177456453379,52.5148588,13.325424199999999,0,0.25,0.25,0.0032553575,-0.0020515132,0.0010251277,-0.0012377835,0.2578609,0.25786385,1.6438865e-06,6.528571e-07,4.921708e-07,-3.287646e-07,0,0,1
1743177456653379,1743177456499379,1743177456501379,52.5148588,13.325424199999999,0,0.25,0.25,0.0032859705,-0.002001663,0.0012381057,-0.0013097432,0.2578279,0.2578309,1.6751642e-06,6.215942e-07,6.036122e-07,-3.5635e-07,0,0,1
1743177456709379,1743177456551379,1743177456557379,52.5148588,13.325424199999999,0,0.25,0.25,0.003503698,-0.0020256282,0.0014515311,-0.0013771816,0.25785938,0.25786248,1.9042781e-06,6.3648963e-07,7.261387e-07,-3.8273996e-07,0,0,1
1743177456757379,1743177456603379,1743177456605379,52.5148588,13.325424199999999,0,0.25,0.25,0.0035234615,-0.0019618662,0.001646713,-0.0014322606,0.25782642,0.25782958,1.926068e-06,5.971261e-07,8.391755e-07,-4.0293574e-07,0,0,1
1743177456813379,1743177456655379,1743177456661379,52.5148588,13.325424199999999,0,0.25,0.25,0.003722026,-0.0024138396,0.0018422136,-0.0015247283,0.25785744,0.2578608,2.1490134e-06,9.0383975e-07,9.625661e-07,-4.5012234e-07,0,0,1
1743177456861379,1743177456707379,1743177456709379,52.5148588,13.325424199999999,0,0.25,0.25,0.003663152,-0.0023204298,0.0020137513,-0.0015996856,0.25782457,0.25782797,2.0818313e-06,8.353468e-07,1.0680042e-06,-4.864116e-07,0,0,1
1743177456917379,1743177456759379,1743177456765379,52.5148588,13.325424199999999,0,0.25,0.25,0.0038792514,-0.0024001454,0.0021894868,-0.0016750912,0.2578561,0.25785962,2.3344169e-06,8.936177e-07,1.187304e-06,-5.2477156e-07,0,0,1
1743177456965379,1743177456811379,1743177456813379,52.5148588,13.325424199999999,0,0.25,0.25,0.0038885863,-0.0023809946,0.0023495469,-0.0017415894,0.2578233,0.2578268,2.3459638e-06,8.795261e-07,1.2964531e-06,-5.581905e-07,0,0,1
1743177457021379,1743177456863379,1743177456869379,52.5148588,13.325424199999999,0,0.25,0.25,0.0040978817,-0.0024526557,0.002514245,-0.001808574,0.2578543,0.25785807,2.6049804e-06,9.331521e-07,1.4197202e-06,-5.9351294e-07,0,0,1
1743177457069379,1743177456915379,1743177456917379,52.5148588,13.325424199999999,0,0.25,0.25,0.0040646014,-0.0024034248,0.0026602931,-0.0018646106,0.2578215,0.2578253,2.5631662e-06,8.961807e-07,1.5274361e-06,-6.2202514e-07,0,0,1
1743177457125379,1743177456967379,1743177456973379,52.5148588,13.325424199999999,0,0.25,0.25,0.0042599295,-0.002444663,0.0028109835,-0.0019192533,0.2578525,0.2578565,2.8150978e-06,9.2708586e-07,1.6487376e-06,-6.5076273e-07,0,0,1
1743177457173379,1743177457019379,1743177457021379,52.5148588,13.325424199999999,0,0.25,0.25,0.004236435,-0.0024054202,0.002945265,-0.0019650515,0.25782025,0.25782415,2.7844799e-06,8.9767326e-07,1.7557278e-06,-6.7402243e-07,0,0,1
1743177457229379,1743177457071379,1743177457077379,52.5148588,13.325424199999999,0,0.25,0.25,0.0044264216,-0.0023964671,0.0030847944,-0.002005692,0.2578512,0.25785533,3.0394594e-06,8.908957e-07,1.8766591e-06,-6.944525e-07,0,0,1
1743177457277379,1743177457123379,1743177457125379,52.5148588,13.325424199999999,0,0.25,0.25,0.004361624,-0.002359242,0.0032050754,-0.0020389976,0.2578185,0.25782263,2.951497e-06,8.635429e-07,1.977912e-06,-7.103813e-07,0,0,1
1743177457333379,1743177457175379,1743177457181379,52.5148588,13.325424199999999,0,0.25,0.25,0.0044952803,-0.002361282,0.0033266165,-0.0020693578,0.2578494,0.25785375,3.1347827e-06,8.6493264e-07,2.0868927e-06,-7.249405e-07,0,0,1
1743177457381379,1743177457227379,1743177457229379,52.5148588,13.325424199999999,0,0.25,0.25,0.0044612954,-0.0023277523,0.0034335065,-0.0020936993,0.25781727,0.25782147,3.0879478e-06,8.406485e-07,2.181195e-06,-7.358405e-07,0,0,1
1743177457437379,1743177457279379,1743177457285379,52.5148588,13.325424199999999,0,0.25,0.25,0.004651573,-0.0022966177,0.003548252,-0.0021128147,0.25784814,0.25785252,3.3565696e-06,8.182124e-07,2.2919187e-06,-7.436002e-07,0,0,1
1743177457485379,1743177457331379,1743177457333379,52.5148588,13.325424199999999,0,0.25,0.25,0.0046416246,-0.0022482567,0.0036512509,-0.0021255738,0.25781545,0.25781986,3.3426513e-06,7.842155e-07,2.3909008e-06,-7.4742627e-07,0,0,1
1743177457541379,1743177457383379,1743177457389379,52.5148588,13.325424199999999,0,0.25,0.25,0.0048102587,-0.0021301298,0.0037604328,-0.002126003,0.25784627,0.25785086,3.589517e-06,7.03888e-07,2.503814e-06,-7.4332485e-07,0,0,1
1743177457589379,1743177457435379,1743177457437379,52.5148588,13.325424199999999,0,0.25,0.25,0.004765358,-0.0021128932,0.0038550997,-0.002124768,0.25781417,0.2578186,3.523256e-06,6.926292e-07,2.5998484e-06,-7.3854915e-07,0,0,1
1743177457645379,1743177457487379,1743177457493379,52.5148588,13.325424199999999,0,0.25,0.25,0.004884436,-0.0020939219,0.003952066,-0.0021218623,0.25784492,0.25784954,3.7010948e-06,6.801655e-07,2.703589e-06,-7.3304926e-07,0,0,1
1743177457693379,1743177457539379,1743177457541379,52.5148588,13.325424199999999,0,0.25,0.25,0.004824833,-0.0020142873,0.004034283,-0.0021117283,0.25781232,0.25781688,3.6117767e-06,6.294938e-07,2.7891429e-06,-7.23294e-07,0,0,1
1743177457749379,1743177457591379,1743177457597379,52.5148588,13.325424199999999,0,0.25,0.25,0.0049410267,-0.0024626919,0.0041197008,-0.00214479,0.257843,0.25784773,3.7873817e-06,9.408423e-07,2.8831798e-06,-7.437877e-07,0,0,1
1743177457797379,1743177457643379,1743177457645379,52.5148588,13.325424199999999,0,0.25,0.25,0.0048979586,-0.0024289992,0.004193015,-0.0021715635,0.25781098,0.25781554,3.7221066e-06,9.1538897e-07,2.9622092e-06,-7.599531e-07,0,0,1
1743177457853379,1743177457695379,1743177457701379,52.5148588,13.325424199999999,0,0.25,0.25,0.004920492,-0.002398217,0.0042615454,-0.002192915,0.2578416,0.2578463,3.755987e-06,8.922285e-07,3.0369854e-06,-7.724138e-07,0,0,1
1743177457901379,1743177457747379,1743177457749379,52.5148588,13.325424199999999,0,0.25,0.25,0.0048598535,-0.002336747,0.0043179076,-0.0022064643,0.257809,0.2578137,3.6644456e-06,8.4718334e-07,3.096094e-06,-7.794573e-07,0,0,1
1743177457957379,1743177457799379,1743177457805379,52.5148588,13.325424199999999,0,0.25,0.25,0.0049690283,-0.002319916,0.004379245,-0.0022171517,0.25783956,0.25784436,3.8304815e-06,8.3492387e-07,3.1652753e-06,-7.846824e-07,0,0,1
1743177458005379,1743177457851379,1743177457853379,52.5148588,13.325424199999999,0,0.25,0.25,0.004903522,-0.0022687356,0.0044286335,-0.002222011,0.25780755,0.25781217,3.730616e-06,7.9859086e-07,3.2185321e-06,-7.8599265e-07,0,0,1
1743177458061379,1743177457903379,1743177457909379,52.5148587,13.3254243,0,0.25,0.25,0.013101051,-0.0077696606,0.0052456004,-0.0027446158,0.25783804,0.25784275,2.6627185e-05,9.36503e-06,5.4236953e-06,-1.5941629e-06,0,0,1
1743177458109379,1743177457955379,1743177457957379,52.5148586,13.3254243,0,0.25,0.25,0.015965946,-0.0041542905,0.006255488,-0.0028774112,0.25780544,0.25780967,3.9550978e-05,2.6776543e-06,8.638584e-06,-1.6962309e-06,0,0,1
1743177458165379,1743177458007379,1743177458013379,52.514858499999995,13.3254244,0,0.25,0.25,0.01642758,-0.006781715,0.0072137285,-0.003245208,0.25783604,0.25783974,4.1866202e-05,7.134922e-06,1.1768722e-05,-2.2085715e-06,0,0,1
1743177458213379,1743177458059379,1743177458061379,52.514858499999995,13.3254244,0,0.25,0.25,0.0073748045,-0.0032193067,0.0072289025,-0.0032427679,0.25780383,0.2578074,8.438624e-06,1.6080121e-06,1.1455018e-05,-2.151997e-06,0,0,1
1743177458269379,1743177458111379,1743177458117379,52.514858399999994,13.325424499999999,0,0.25,0.25,0.009463312,-0.006572933,0.0074393903,-0.0035564792,0.25783536,0.25783896,1.389325e-05,6.702392e-06,1.1684706e-05,-2.5806573e-06,0,0,1
1743177458317379,1743177458163379,1743177458165379,52.5148583,13.325424499999999,0,0.25,0.25,0.013948189,-0.0036803344,0.008052538,-0.0035681468,0.25780323,0.25780687,3.018612e-05,2.1015517e-06,1.3427592e-05,-2.5355241e-06,0,0,1
1743177458373379,1743177458215379,1743177458221379,52.5148583,13.3254246,0,0.25,0.25,0.0071394974,-0.0072734565,0.007966527,-0.0039171977,0.25783426,0.25783816,7.907781e-06,8.20719e-06,1.290761e-05,-3.0698116e-06,0,0,1
1743177458421379,1743177458267379,1743177458269379,52.5148582,13.3254246,0,0.25,0.25,0.01366328,-0.0052367467,0.008503177,-0.004041503,0.25780216,0.25780606,2.8965655e-05,4.254907e-06,1.4420324e-05,-3.181451e-06,0,0,1
1743177458477379,1743177458319379,1743177458325379,52.5148582,13.3254246,0,0.25,0.25,0.008608378,-0.002519417,0.008513087,-0.0038981182,0.2578338,0.25783777,1.1496423e-05,9.84722e-07,1.41448845e-05,-2.9745127e-06,0,0,1
1743177458525379,1743177458371379,1743177458373379,52.5148582,13.3254247,0,0.25,0.25,0.0052352385,-0.0074793715,0.008204305,-0.004235483,0.2578017,0.25780565,4.2525276e-06,8.679561e-06,1.3212995e-05,-3.5119447e-06,0,0,1
1743177458581379,1743177458423379,1743177458429379,52.5148582,13.3254247,0,0.25,0.25,0.0015716046,-0.005634627,0.007579485,-0.0043672863,0.25783277,0.25783682,3.83185e-07,4.925444e-06,1.200439e-05,-3.6451004e-06,0,0,1
1743177458629379,1743177458475379,1743177458477379,52.5148581,13.3254247,0,0.25,0.25,0.010589997,-0.0042453683,0.007863084,-0.0043558013,0.2578007,0.25780472,1.7400736e-05,2.7964038e-06,1.2512741e-05,-3.5651508e-06,0,0,1
1743177458685379,1743177458527379,1743177458533379,52.5148581,13.3254247,0,0.25,0.25,0.008305933,-0.0030894375,0.0079048015,-0.0042365063,0.25783232,0.25783628,1.0702852e-05,1.4807263e-06,1.2342244e-05,-3.368792e-06,0,0,1
1743177458733379,1743177458579379,1743177458581379,52.5148581,13.3254247,0,0.25,0.25,0.0072845505,-0.0021346514,0.007846372,-0.0040385053,0.25780022,0.2578042,8.233457e-06,7.070074e-07,1.1955184e-05,-3.118044e-06,0,0,1
1743177458789379,1743177458631379,1743177458637379,52.5148581,13.3254247,0,0.25,0.25,0.0062739947,-0.0011563817,0.0076982495,-0.003767001,0.25783136,0.25783542,6.106784e-06,2.0745304e-07,1.1404248e-05,-2.843858e-06,0,0,1
1743177458837379,1743177458683379,1743177458685379,52.5148581,13.3254247,0,0.25,0.25,0.005404579,-0.0007360841,0.007482179,-0.0034814798,0.25779963,0.25780368,4.5321203e-06,8.406704e-08,1.0756873e-05,-2.5838776e-06,0,0,1
1743177458893379,1743177458735379,1743177458741379,52.5148581,13.3254247,0,0.25,0.25,0.0050926516,-0.00031269965,0.007257079,-0.0031829716,0.25783134,0.25783554,4.023576e-06,1.5169526e-08,1.0122577e-05,-2.341898e-06,0,0,1
1743177458941379,1743177458787379,1743177458789379,52.5148581,13.3254247,0,0.25,0.25,0.0051520965,8.513594e-06,0.0070587834,-0.0028823244,0.25780046,0.25780454,4.1185494e-06,1.12459295e-11,9.55698e-06,-2.1212834e-06,0,0,1
1743177458997379,1743177458839379,1743177458845379,52.5148581,13.3254247,0,0.25,0.25,0.005477824,-0.00014046313,0.0069098524,-0.002624033,0.25783268,0.25783703,4.6551977e-06,3.0608316e-09,9.095218e-06,-1.9217407e-06,0,0,1
1743177459045379,1743177458891379,1743177458893379,52.5148581,13.3254247,0,0.25,0.25,0.005985483,-0.00016567971,0.006822774,-0.002392449,0.25780135,0.25780576,5.5586997e-06,4.2589843e-09,8.762067e-06,-1.7411083e-06,0,0,1
1743177459101379,1743177458943379,1743177458949379,52.5148581,13.3254247,0,0.25,0.25,0.006793443,-0.00034187784,0.006820011,-0.0021992791,0.257834,0.25783873,7.15978e-06,1.8132335e-08,8.611128e-06,-1.578799e-06,0,0,1
1743177459149379,1743177458995379,1743177458997379,52.5148582,13.3254247,0,0.25,0.25,-0.0034549886,-0.000400639,0.005852076,-0.002029842,0.25780335,0.25780803,1.852101e-06,2.490405e-08,7.625461e-06,-1.4324175e-06,0,0,1
1743177459205379,1743177459047379,1743177459053379,52.5148582,13.3254247,0,0.25,0.25,-0.0023041286,-0.00061151583,0.005083738,-0.0018962316,0.2578364,0.25784147,8.2362436e-07,5.8012642e-08,6.8295326e-06,-1.3029446e-06,0,0,1
1743177459253379,1743177459099379,1743177459101379,52.5148582,13.3254247,0,0.25,0.25,-0.0006184222,-0.0006834588,0.004546578,-0.0017819848,0.2578053,0.25781047,5.9338735e-08,7.2474315e-08,6.180581e-06,-1.1870308e-06,0,0,1
1743177459309379,1743177459151379,1743177459157379,52.5148582,13.3254247,0,0.25,0.25,0.0014317068,-0.0013459504,0.004253148,-0.0017409091,0.2578387,0.25784436,3.1799485e-07,2.8103506e-07,5.6283084e-06,-1.1016833e-06,0,0,1
1743177459357379,1743177459203379,1743177459205379,52.5148582,13.3254247,0,0.25,0.25,0.003403533,-0.001366551,0.004173112,-0.0017056435,0.25780827,0.25781384,1.7973103e-06,2.89738e-07,5.2674172e-06,-1.0251957e-06,0,0,1
1743177459413379,1743177459255379,1743177459261379,52.5148582,13.3254247,0,0.25,0.25,0.0057700183,-0.0020230974,0.0043235454,-0.0017355486,0.25784203,0.25784808,5.1648854e-06,6.349356e-07,5.2577584e-06,-9.884321e-07,0,0,1
1743177459461379,1743177459307379,1743177459309379,52.5148583,13.3254247,0,0.25,0.25,-0.0040539107,-0.0024534746,0.0035343647,-0.0018031793,0.25781092,0.25781703,2.5498055e-06,9.339239e-07,4.522263e-06,-9.832974e-07,0,0,1
1743177459517379,1743177459359379,1743177459365379,52.5148583,13.3254247,0,0.25,0.25,-0.0019167296,-0.0025541845,0.0030208558,-0.0018739261,0.25784445,0.257851,5.6993315e-07,1.0120353e-06,4.0425634e-06,-9.860046e-07,0,0,1
1743177459565379,1743177459411379,1743177459413379,52.5148583,13.3254247,0,0.25,0.25,-0.00075049745,-0.0025502054,0.0026655835,-0.0019376336,0.25781345,0.25781986,8.7388216e-08,1.0090065e-06,3.65351e-06,-9.881715e-07,0,0,1
1743177459621379,1743177459463379,1743177459469379,52.5148583,13.3254247,0,0.25,0.25,0.0016782037,-0.003162323,0.0025725695,-0.0020530028,0.25784695,0.25785357,4.3690534e-07,1.5513126e-06,3.3504966e-06,-1.041221e-06,0,0,1
1743177459669379,1743177459515379,1743177459517379,52.5148583,13.3254247,0,0.25,0.25,0.0036178154,-0.0031578771,0.0026710348,-0.002157085,0.2578151,0.25782153,2.0306938e-06,1.547146e-06,3.2261673e-06,-1.0888806e-06,0,0,1
1743177459725379,1743177459567379,1743177459573379,52.5148583,13.3254247,0,0.25,0.25,0.0054464163,-0.003233053,0.0029324838,-0.0022584444,0.25784773,0.25785434,4.6017008e-06,1.6214784e-06,3.3557467e-06,-1.1390529e-06,0,0,1
1743177459773379,1743177459619379,1743177459621379,52.514858399999994,13.3254247,0,0.25,0.25,-0.0043638176,-0.00365746,0.002245151,-0.0023902357,0.2578159,0.2578223,2.9544965e-06,2.075385e-06,2.7613034e-06,-1.227258e-06,0,0,1
1743177459829379,1743177459671379,1743177459677379,52.514858399999994,13.3254247,0,0.25,0.25,-0.002350948,-0.0042097596,0.001812185,-0.00256164,0.25784785,0.25785437,8.5739816e-07,2.7491603e-06,2.4204112e-06,-1.3706257e-06,0,0,1
1743177459877379,1743177459723379,1743177459725379,52.514858399999994,13.3254247,0,0.25,0.25,-0.0007599987,-0.004174111,0.0015698778,-0.0027135394,0.2578157,0.25782198,8.9614105e-08,2.703137e-06,2.1839596e-06,-1.4961521e-06,0,0,1
1743177459933379,1743177459775379,1743177459781379,52.514858399999994,13.3254247,0,0.25,0.25,0.0011317793,-0.004304629,0.0015286077,-0.0028634246,0.25784692,0.25785327,1.9871082e-07,2.8744764e-06,1.9969434e-06,-1.6259943e-06,0,0,1
1743177459981379,1743177459827379,1743177459829379,52.514858399999994,13.3254247,0,0.25,0.25,0.0026071656,-0.0042552934,0.001630211,-0.0029945427,0.25781444,0.25782058,1.0546054e-06,2.8093214e-06,1.9081724e-06,-1.7374672e-06,0,0,1
1743177460037379,1743177459879379,1743177459885379,52.514858399999994,13.3254246,0,0.25,0.25,0.004395925,0.002484223,0.0018907493,-0.002478427,0.25784495,0.25785106,2.9977946e-06,9.573533e-07,2.010818e-06,-1.4836073e-06,0,0,1
1743177460085379,1743177459931379,1743177459933379,52.514858399999994,13.3254246,0,0.25,0.25,0.0057399576,0.0019063054,0.002253356,-0.0020653724,0.2578122,0.25781807,5.1118004e-06,5.638085e-07,2.3029395e-06,-1.2907348e-06,0,0,1
1743177460141379,1743177459983379,1743177459989379,52.514858399999994,13.3254246,0,0.25,0.25,0.0069319876,0.0016374859,0.0026940966,-0.0017165524,0.2578419,0.25784773,7.45456e-06,4.1596027e-07,2.7882372e-06,-1.1299592e-06,0,0,1
1743177460189379,1743177460035379,1743177460037379,52.514858499999995,13.3254246,0,0.25,0.25,-0.003863077,0.0010986938,0.0020763918,-0.0014513481,0.25780892,0.2578145,2.3154146e-06,1.872863e-07,2.3074583e-06,-1.0058708e-06,0,0,1
1743177460245379,1743177460087379,1743177460093379,52.514858499999995,13.3254246,0,0.25,0.25,-0.0029109558,0.0004301356,0.0016065692,-0.0012741068,0.25783804,0.2578435,1.3145716e-06,2.8702162e-08,1.9662525e-06,-9.08411e-07,0,0,1
1743177460293379,1743177460139379,1743177460141379,52.514858499999995,13.3254246,0,0.25,0.25,-0.0018510405,0.00032433064,0.0012808524,-0.0011235294,0.25780505,0.25781024,5.316189e-07,1.632059e-08,1.7309458e-06,-8.2129856e-07,0,0,1
1743177460349379,1743177460191379,1743177460197379,52.514858499999995,13.3254246,0,0.25,0.25,-0.001008304,0.00013844446,0.0010652072,-0.0010046478,0.2578338,0.25783885,1.5772592e-07,2.973465e-09,1.5530275e-06,-7.436497e-07,0,0,1
1743177460397379,1743177460243379,1743177460245379,52.514858499999995,13.3254246,0,0.25,0.25,9.238822e-06,6.779603e-05,0.0009657319,-0.0009036205,0.25780082,0.2578056,1.3243686e-11,7.1314216e-10,1.406729e-06,-6.735286e-07,0,0,1
1743177460453379,1743177460295379,1743177460301379,52.514858499999995,13.3254246,0,0.25,0.25,0.00074641395,-3.987256e-05,0.0009450715,-0.00082225294,0.2578293,0.25783393,8.643452e-08,2.4664265e-10,1.2823534e-06,-6.101035e-07,0,0,1
1743177460501379,1743177460347379,1743177460349379,52.514858499999995,13.3254246,0,0.25,0.25,0.0012502457,-0.0005110665,0.0009738198,-0.0007929383,0.25779632,0.25780067,2.4253478e-07,4.0525727e-08,1.1843995e-06,-5.564476e-07,0,0,1
1743177460557379,1743177460399379,1743177460405379,52.514858499999995,13.3254246,0,0.25,0.25,0.0018982877,-0.0010432529,0.0010609074,-0.0008165187,0.2578245,0.25782865,5.5906185e-07,1.6885271e-07,1.1254908e-06,-5.1993504e-07,0,0,1
1743177460605379,1743177460451379,1743177460453379,52.514858499999995,13.3254246,0,0.25,0.25,0.0018976316,-0.0010205667,0.0011397293,-0.0008357406,0.25779152,0.25779542,5.5874693e-07,1.6160973e-07,1.0721019e-06,-4.861798e-07,0,0,1
1743177460661379,1743177460503379,1743177460509379,52.514858499999995,13.3254246,0,0.25,0.25,0.0019497861,-0.0009503062,0.001216039,-0.000846533,0.25781938,0.25782308,5.8981846e-07,1.4010877e-07,1.0266695e-06,-4.5357888e-07,0,0,1
1743177460709379,1743177460555379,1743177460557379,52.514858499999995,13.3254246,0,0.25,0.25,0.0014316877,-0.00083387265,0.0012363537,-0.0008453404,0.25778642,0.25778988,3.1805084e-07,1.0789308e-07,9.599155e-07,-4.2101428e-07,0,0,1
1743177460765379,1743177460607379,1743177460613379,52.514858499999995,13.3254246,0,0.25,0.25,0.00043749527,-0.00020573766,0.0011610988,-0.00078508793,0.25781408,0.2578173,2.9696144e-08,6.567128e-09,8.7228614e-07,-3.8197214e-07,0,0,1
1743177460813379,1743177460659379,1743177460661379,52.514858399999994,13.3254246,0,0.25,0.25,0.011025815,0.00043193423,0.0020903838,-0.0006704409,0.25778115,0.25778416,1.8863846e-05,2.8949364e-08,2.5671434e-06,-3.4326214e-07,0,0,1
1743177460869379,1743177460711379,1743177460717379,52.514858399999994,13.3254247,0,0.25,0.25,0.009057244,-0.0051212404,0.0027466821,-0.0010897191,0.2578086,0.25781137,1.2727842e-05,4.0691925e-06,3.5243106e-06,-6.942556e-07,0,0,1
1743177460917379,1743177460763379,1743177460765379,52.514858399999994,13.3254247,0,0.25,0.25,0.006390491,-0.0033964592,0.0030899395,-0.0013070208,0.25777578,0.25777832,6.337038e-06,1.790055e-06,3.7892778e-06,-7.974831e-07,0,0,1
1743177460973379,1743177460815379,1743177460821379,52.5148583,13.3254247,0,0.25,0.25,0.014568629,-0.0009344676,0.0041712653,-0.0012719252,0.2578031,0.25780544,3.2931322e-05,1.3548662e-07,6.534543e-06,-7.351211e-07,0,0,1
1743177461021379,1743177460867379,1743177460869379,52.5148583,13.325424799999999,0,0.25,0.25,0.010674678,-0.005552814,0.0047839056,-0.0016751973,0.25777042,0.25777254,1.7682207e-05,4.784643e-06,7.5846856e-06,-1.1165978e-06,0,0,1
1743177461077379,1743177460919379,1743177460925379,52.5148583,13.325424799999999,0,0.25,0.25,0.006275603,-0.0018170591,0.0049244277,-0.001688561,0.25779775,0.25779966,6.1107116e-06,5.1228983e-07,7.445833e-06,-1.0596702e-06,0,0,1
1743177461125379,1743177460971379,1743177460973379,52.5148582,13.3254249,0,0.25,0.25,0.0123296585,-0.00489683,0.005622022,-0.0019907893,0.2577653,0.25776705,2.3590528e-05,3.7210252e-06,8.96671e-06,-1.3103776e-06,0,0,1
1743177461181379,1743177461023379,1743177461029379,52.5148581,13.325425,0,0.25,0.25,0.016489843,-0.0066477237,0.0066458024,-0.002429486,0.25779283,0.25779438,4.2191226e-05,6.8569734e-06,1.2096556e-05,-1.8328831e-06,0,0,1
1743177461229379,1743177461075379,1743177461077379,52.5148581,13.325425099999999,0,0.25,0.25,0.009599855,-0.008132862,0.0069240825,-0.0029667607,0.25776064,0.25776207,1.4301209e-05,1.0264263e-05,1.2304241e-05,-2.6271437e-06,0,0,1
1743177461285379,1743177461127379,1743177461133379,52.514858,13.3254252,0,0.25,0.25,0.012889416,-0.008072251,0.007486034,-0.0034477126,0.2577885,0.2577898,2.5778814e-05,1.0110756e-05,1.35735845e-05,-3.3321217e-06,0,0,1
1743177461333379,1743177461179379,1743177461181379,52.514857899999996,13.3254253,0,0.25,0.25,0.016205078,-0.008073485,0.008307394,-0.0038834738,0.2577567,0.2577579,4.0752315e-05,1.0115098e-05,1.61339e-05,-3.9710976e-06,0,0,1
1743177461389379,1743177461231379,1743177461237379,52.514857799999994,13.3254255,0,0.25,0.25,0.017178712,-0.012666042,0.009143097,-0.0047108172,0.2577851,0.25778615,4.579134e-05,2.4893287e-05,1.8927716e-05,-5.9420286e-06,0,0,1
1743177461437379,1743177461283379,1743177461285379,52.5148577,13.325425599999999,0,0.25,0.25,0.018511541,-0.011066317,0.010025632,-0.005309524,0.2577537,0.2577546,5.3179006e-05,1.9004645e-05,2.2154287e-05,-7.172565e-06,0,0,1
1743177461493379,1743177461335379,1743177461341379,52.5148576,13.3254258,0,0.25,0.25,0.017730184,-0.014290199,0.0107514225,-0.0061555295,0.25778267,0.25778338,4.8778984e-05,3.1687036e-05,2.4662411e-05,-9.481899e-06,0,0,1
1743177461541379,1743177461387379,1743177461389379,52.5148575,13.325425899999999,0,0.25,0.25,0.017630871,-0.0112169655,0.011399487,-0.0066323313,0.25775164,0.25775218,4.823987e-05,1.952578e-05,2.6883476e-05,-1.0428062e-05,0,0,1
1743177461597379,1743177461439379,1743177461445379,52.5148574,13.3254261,0,0.25,0.25,0.014826847,-0.01328113,0.011722354,-0.0072586676,0.25778115,0.25778142,3.4111945e-05,2.7370232e-05,2.7564418e-05,-1.2024063e-05,0,0,1
1743177461645379,1743177461491379,1743177461493379,52.514857199999994,13.325426199999999,0,0.25,0.25,0.025011146,-0.009719107,0.012974197,-0.007490448,0.25775033,0.25775036,9.707959e-05,1.4659307e-05,3.411295e-05,-1.227231e-05,0,0,1
1743177461701379,1743177461543379,1743177461549379,52.5148571,13.3254264,0,0.25,0.25,0.021277962,-0.010732463,0.013756435,-0.0077958554,0.25778013,0.25777984,7.0253926e-05,1.7873508e-05,3.7517533e-05,-1.2799959e-05,0,0,1
1743177461749379,1743177461595379,1743177461597379,52.514857,13.3254266,0,0.25,0.25,0.01922882,-0.012705319,0.01427195,-0.008258341,0.2577494,0.25774878,5.738093e-05,2.5051544e-05,3.9388724e-05,-1.3954094e-05,0,0,1
1743177461805379,1743177461647379,1743177461653379,52.5148569,13.325426799999999,0,0.25,0.25,0.015090648,-0.012991847,0.014349074,-0.008704251,0.25777942,0.2577783,3.5336827e-05,2.6191201e-05,3.9007024e-05,-1.5106865e-05,0,0,1
1743177461853379,1743177461699379,1743177461701379,52.514856699999996,13.325427,0,0.25,0.25,0.024381308,-0.014491586,0.015294139,-0.009249435,0.25774854,0.25774717,9.225242e-05,3.259102e-05,4.4022894e-05,-1.6753924e-05,0,0,1
1743177461909379,1743177461751379,1743177461757379,52.514856599999995,13.3254272,0,0.25,0.25,0.020084554,-0.013892835,0.01574541,-0.0096868565,0.25777817,0.2577763,6.25948e-05,2.9950135e-05,4.5772424e-05,-1.7997045e-05,0,0,1
1743177461957379,1743177461803379,1743177461805379,52.5148565,13.325427399999999,0,0.25,0.25,0.017228492,-0.01540182,0.015885122,-0.010225222,0.25774714,0.25774497,4.6063895e-05,3.6814075e-05,4.579988e-05,-1.9769665e-05,0,0,1
1743177462013379,1743177461855379,1743177461861379,52.5148564,13.3254275,0,0.25,0.25,0.012753476,-0.008018145,0.015590112,-0.010017309,0.2577764,0.2577737,2.5239107e-05,9.976294e-06,4.3862994e-05,-1.88471e-05,0,0,1
1743177462061379,1743177461907379,1743177461909379,52.5148562,13.325427699999999,0,0.25,0.25,0.022184202,-0.010542358,0.016211294,-0.01006677,0.25774512,0.25774217,7.637605e-05,1.7248449e-05,4.692582e-05,-1.8696503e-05,0,0,1
1743177462117379,1743177461959379,1743177461965379,52.514856099999996,13.3254279,0,0.25,0.25,0.018084144,-0.011016994,0.016387722,-0.010156284,0.25777373,0.25777012,5.0747807e-05,1.8834478e-05,4.7285863e-05,-1.8709501e-05,0,0,1
1743177462165379,1743177462011379,1743177462013379,52.514855999999995,13.325427999999999,0,0.25,0.25,0.015884753,-0.0067330273,0.01634034,-0.009833803,0.25774223,0.25773826,3.915934e-05,7.0356114e-06,4.652032e-05,-1.7609787e-05,0,0,1
1743177462221379,1743177462063379,1743177462069379,52.5148559,13.3254282,0,0.25,0.25,0.012621884,-0.0074787624,0.01599005,-0.009611952,0.25777018,0.25776556,2.4721552e-05,8.679497e-06,4.446681e-05,-1.6768528e-05,0,0,1
1743177462269379,1743177462115379,1743177462117379,52.5148558,13.3254284,0,0.25,0.25,0.01153667,-0.010623573,0.015570529,-0.00970725,0.25773838,0.25773343,2.065579e-05,1.751582e-05,4.2223743e-05,-1.6838925e-05,0,0,1
1743177462325379,1743177462167379,1743177462173379,52.5148557,13.3254285,0,0.25,0.25,0.009093802,-0.0059762807,0.014960403,-0.009355782,0.2577654,0.25775978,1.2832946e-05,5.542514e-06,3.9455044e-05,-1.577477e-05,0,0,1
1743177462373379,1743177462219379,1743177462221379,52.5148556,13.325428599999999,0,0.25,0.25,0.009510218,-0.003753967,0.014446979,-0.008828075,0.25773326,0.25772744,1.40368775e-05,2.187158e-06,3.7060578e-05,-1.4494778e-05,0,0,1
1743177462429379,1743177462271379,1743177462277379,52.514855499999996,13.3254288,0,0.25,0.25,0.00871814,-0.0063802134,0.013907306,-0.008597479,0.2577594,0.25775304,1.1794871e-05,6.317229e-06,3.4680474e-05,-1.372443e-05,0,0,1
1743177462477379,1743177462323379,1743177462325379,52.514855399999995,13.325428899999999,0,0.25,0.25,0.009720034,-0.0047210343,0.013512853,-0.008232307,0.25772703,0.2577207,1.466343e-05,3.459274e-06,3.279481e-05,-1.2757422e-05,0,0,1
1743177462533379,1743177462375379,1743177462381379,52.5148553,13.325429000000002,0,0.25,0.25,0.009226556,-0.002145877,0.013109071,-0.0076589473,0.25775236,0.2577458,1.3211027e-05,7.146248e-07,3.0949963e-05,-1.1622956e-05,0,0,1
1743177462581379,1743177462427379,1743177462429379,52.5148552,13.325429100000001,0,0.25,0.25,0.010826331,-0.0019722192,0.012894031,-0.0071232407,0.2577198,0.25771332,1.819176e-05,6.037171e-07,2.9748104e-05,-1.0584911e-05,0,0,1
1743177462637379,1743177462479379,1743177462485379,52.5148551,13.325429199999999,0,0.25,0.25,0.011875702,-0.001042047,0.012798101,-0.0065503744,0.25774458,0.25773808,2.1887141e-05,1.685218e-07,2.9007579e-05,-9.603657e-06,0,0,1
1743177462685379,1743177462531379,1743177462533379,52.5148551,13.325429300000001,0,0.25,0.25,0.004002108,-0.001928518,0.011969493,-0.006114982,0.25771198,0.25770578,2.4860105e-06,5.772756e-07,2.650917e-05,-8.753346e-06,0,0,1
1743177462741379,1743177462583379,1743177462589379,52.514855,13.325429300000001,0,0.25,0.25,0.006820166,0.0046211695,0.011484412,-0.0051036053,0.2577364,0.2577305,7.2189514e-06,3.3143467e-06,2.4691975e-05,-7.6165343e-06,0,0,1
1743177462789379,1743177462635379,1743177462637379,52.514854899999996,13.3254294,0,0.25,0.25,0.010856878,0.002594956,0.011425296,-0.0043783784,0.25770393,0.2576984,1.8295694e-05,1.0452213e-06,2.4089428e-05,-6.8005716e-06,0,0,1
1743177462845379,1743177462687379,1743177462693379,52.514854899999996,13.3254295,0,0.25,0.25,0.0030541045,0.0006439097,0.010636705,-0.0039052642,0.25772828,0.2577233,1.447657e-06,6.4351134e-08,2.1956508e-05,-6.153876e-06,0,0,1
1743177462893379,1743177462739379,1743177462741379,52.514854799999995,13.3254295,0,0.25,0.25,0.008559813,0.0045382404,0.0104410555,-0.0031098616,0.2576961,0.25769168,1.1373148e-05,3.1969407e-06,2.0959526e-05,-5.2730015e-06,0,0,1
1743177462949379,1743177462791379,1743177462797379,52.514854799999995,13.325429600000001,0,0.25,0.25,0.0019436188,0.0017767024,0.009640573,-0.002649533,0.25772065,0.25771704,5.863176e-07,4.899438e-07,1.904031e-05,-4.7301155e-06,0,0,1
1743177462997379,1743177462843379,1743177462845379,52.5148547,13.325429600000001,0,0.25,0.25,0.008065615,0.004266338,0.009492207,-0.001998038,0.25768882,0.25768584,1.0098092e-05,2.8254e-06,1.8197927e-05,-4.018364e-06,0,0,1
1743177463053379,1743177462895379,1743177462901379,52.5148547,13.325429600000001,0,0.25,0.25,0.003011787,0.007119449,0.008881733,-0.0011391443,0.2577138,0.25771186,1.407897e-06,7.8671665e-06,1.6616257e-05,-2.8987124e-06,0,0,1
1743177463101379,1743177462947379,1743177462949379,52.5148547,13.325429600000001,0,0.25,0.25,-0.0003474397,0.008510777,0.008012318,-0.00023009366,0.2576825,0.25768122,1.8738463e-08,1.1243866e-05,1.5049192e-05,-1.5664405e-06,0,0,1
1743177463157379,1743177462999379,1743177463005379,52.5148546,13.3254297,0,0.25,0.25,0.007063552,0.0033857264,0.007922942,0.00011052709,0.25770807,0.25770795,7.74423e-06,1.7792455e-06,1.4361043e-05,-1.2512671e-06,0,0,1
1743177463205379,1743177463051379,1743177463053379,52.5148546,13.3254297,0,0.25,0.25,0.0045790053,0.0043221903,0.007607933,0.000507278,0.2576773,0.25767782,3.2548137e-06,2.8999514e-06,1.3314804e-05,-8.6021026e-07,0,0,1
1743177463261379,1743177463103379,1743177463109379,52.5148546,13.3254297,0,0.25,0.25,0.001905623,0.005043713,0.007070759,0.0009346234,0.25770354,0.2577054,5.6365525e-07,3.9485462e-06,1.2113609e-05,-4.0721145e-07,0,0,1
