timestamp,timestamp_sample,device_id,pressure,temperature,error_count
1743177450725379,1743177450725379,6620428,101331.125,0.1540046,0
1743177451725379,1743177451725379,6620428,101324.23,-0.58056647,0
1743177452725379,1743177452725379,6620428,101328.72,-0.59592783,0
1743177453725379,1743177453725379,6620428,101314.414,0.6721046,0
1743177454725379,1743177454725379,6620428,101318.59,-0.7151433,0
1743177455725379,1743177455725379,6620428,101329.15,0.31014398,0
1743177456725379,1743177456725379,6620428,101328.586,0.14859739,0
1743177457721379,1743177457721379,6620428,101316.88,0.35162055,0
1743177458725379,1743177458725379,6620428,101312.93,0.2852902,0
1743177459725379,1743177459725379,6620428,101295.62,0.8878162,0
1743177460725379,1743177460725379,6620428,101266.11,-0.22017735,0
1743177461725379,1743177461725379,6620428,101227.37,0.24040027,0
1743177462725379,1743177462725379,6620428,101209.42,-0.8072624,0
1743177463725379,1743177463725379,6620428,101184.74,-0.24238524,0
1743177464721379,1743177464721379,6620428,101133.164,0.068693735,0
1743177465725379,1743177465725379,6620428,101059.39,-0.61027867,0
1743177466725379,1743177466725379,6620428,101072.58,0.9443233,0
1743177467725379,1743177467725379,6620428,101043.95,-0.99176794,0
1743177468725379,1743177468725379,6620428,101048.91,-0.3512978,0
1743177469725379,1743177469725379,6620428,101051.984,0.05983323,0
1743177470725379,1743177470725379,6620428,101026.6,-0.24068908,0
1743177471725379,1743177471725379,6620428,101018.42,0.047305875,0
1743177472725379,1743177472725379,6620428,101026.164,0.81806254,0
1743177473725379,1743177473725379,6620428,101024.26,-0.9301115,0
1743177474725379,1743177474725379,6620428,101031.06,0.009379515,0
1743177475725379,1743177475725379,6620428,101034.44,-0.63163763,0
1743177476721379,1743177476721379,6620428,101018.805,0.644282,0
1743177477725379,1743177477725379,6620428,101030.24,-0.56740874,0
1743177478725379,1743177478725379,6620428,100998.48,-0.32863876,0
1743177479725379,1743177479725379,6620428,101024.07,-0.7420484,0
1743177480725379,1743177480725379,6620428,101023.26,-0.5745039,0
1743177481725379,1743177481725379,6620428,101017.42,0.6911549,0
1743177482725379,1743177482725379,6620428,101055.445,-0.8500611,0
1743177483725379,1743177483725379,6620428,101032.695,0.05411835,0
1743177484725379,1743177484725379,6620428,101022.39,-0.447759,0
1743177485725379,1743177485725379,6620428,101022.086,-0.011519369,0
1743177486725379,1743177486725379,6620428,101028.37,-0.15801913,0
1743177487721379,1743177487721379,6620428,101043.13,-0.73318845,0
1743177488725379,1743177488725379,6620428,100989.34,-0.43652534,0
1743177489725379,1743177489725379,6620428,101005.35,-0.9157683,0
1743177490725379,1743177490725379,6620428,101017.93,0.815915,0
1743177491725379,1743177491725379,6620428,101009.27,-0.18372089,0
1743177492725379,1743177492725379,6620428,101058.484,0.31542516,0
1743177493725379,1743177493725379,6620428,101020.34,0.5055537,0
1743177494721379,1743177494721379,6620428,101033.19,0.8575829,0
1743177495725379,1743177495725379,6620428,101034.0,-0.53133553,0
1743177496725379,1743177496725379,6620428,101020.125,-0.24852829,0
1743177497725379,1743177497725379,6620428,101019.56,-0.6491617,0
1743177498725379,1743177498725379,6620428,101011.86,-0.10782252,0
1743177499725379,1743177499725379,6620428,101029.67,0.670332,0
1743177500725379,1743177500725379,6620428,101040.375,0.07462819,0
1743177501725379,1743177501725379,6620428,101016.07,0.17177884,0
1743177502721379,1743177502721379,6620428,101015.02,0.20478591,0
1743177503725379,1743177503725379,6620428,101024.21,0.80759054,0
1743177504725379,1743177504725379,6620428,101048.89,-0.09330041,0
1743177505725379,1743177505725379,6620428,101026.99,-0.3866634,0
1743177506725379,1743177506725379,6620428,101044.945,0.7078095,0
1743177507721379,1743177507721379,6620428,101027.664,0.6935226,0
1743177508725379,1743177508725379,6620428,101020.836,0.59504056,0
1743177509725379,1743177509725379,6620428,101018.84,0.7922879,0
1743177510725379,1743177510725379,6620428,101031.91,0.8426239,0
1743177511725379,1743177511725379,6620428,101029.19,0.75449514,0
1743177512725379,1743177512725379,6620428,101035.336,0.48201218,0
1743177513725379,1743177513725379,6620428,101043.695,-0.7911611,0
1743177514725379,1743177514725379,6620428,101057.13,0.64994407,0
1743177515721379,1743177515721379,6620428,101003.47,0.84335935,0
1743177516725379,1743177516725379,6620428,101036.48,0.83872575,0
1743177517721379,1743177517721379,6620428,101029.78,-0.15384887,0
1743177518725379,1743177518725379,6620428,101015.89,0.13175866,0
1743177519725379,1743177519725379,6620428,101013.36,0.19913499,0
1743177520721379,1743177520721379,6620428,101037.09,0.43841553,0
1743177521725379,1743177521725379,6620428,101034.62,-0.4909206,0
1743177522725379,1743177522725379,6620428,101039.44,-0.7735408,0
1743177523725379,1743177523725379,6620428,101042.36,-0.29463428,0
1743177524725379,1743177524725379,6620428,101007.44,0.08628919,0
1743177525725379,1743177525725379,6620428,101020.914,-0.17816468,0
1743177526725379,1743177526725379,6620428,101025.45,0.39025202,0
1743177527721379,1743177527721379,6620428,101006.09,0.12899639,0
1743177528725379,1743177528725379,6620428,101014.94,-0.04974786,0
1743177529721379,1743177529721379,6620428,101004.78,-0.16161725,0
1743177530725379,1743177530725379,6620428,101024.05,-0.48851413,0
1743177531725379,1743177531725379,6620428,101024.8,-0.13726054,0
1743177532725379,1743177532725379,6620428,101029.31,-0.35245278,0
1743177533725379,1743177533725379,6620428,101028.5,-0.12063662,0
1743177534725379,1743177534725379,6620428,101018.57,0.06882519,0
1743177535721379,1743177535721379,6620428,101007.33,-0.65960115,0
1743177536725379,1743177536725379,6620428,101012.11,-0.54295605,0
1743177537721379,1743177537721379,6620428,101020.1,-0.8222359,0
1743177538725379,1743177538725379,6620428,101021.31,0.3300423,0
1743177539721379,1743177539721379,6620428,101015.555,0.2468227,0
1743177540725379,1743177540725379,6620428,101003.68,-0.21979378,0
1743177541721379,1743177541721379,6620428,101032.55,0.083065435,0
1743177542725379,1743177542725379,6620428,101010.9,-0.71914417,0
1743177543725379,1743177543725379,6620428,101018.39,0.8379456,0
1743177544725379,1743177544725379,6620428,101013.875,0.5163838,0
1743177545725379,1743177545725379,6620428,101031.6,-0.28182444,0
1743177546725379,1743177546725379,6620428,101004.164,-0.36011022,0
1743177547725379,1743177547725379,6620428,101030.13,0.070798665,0
1743177548725379,1743177548725379,6620428,101021.47,-0.8405336,0
1743177549725379,1743177549725379,6620428,101023.27,0.9967585,0
1743177550725379,1743177550725379,6620428,101022.055,-0.18431203,0
1743177551725379,1743177551725379,6620428,101008.65,0.354205,0
1743177552721379,1743177552721379,6620428,101035.12,-0.35224283,0
1743177553725379,1743177553725379,6620428,100999.055,-0.91630346,0
1743177554725379,1743177554725379,6620428,101008.28,0.038950145,0
1743177555725379,1743177555725379,6620428,101020.586,0.094295196,0
1743177556721379,1743177556721379,6620428,101043.04,0.15148449,0
1743177557725379,1743177557725379,6620428,101031.34,-0.9768651,0
1743177558725379,1743177558725379,6620428,101007.9,-0.090550505,0
1743177559725379,1743177559725379,6620428,101044.63,0.5172071,0
1743177560725379,1743177560725379,6620428,101044.4,-0.06498373,0
1743177561725379,1743177561725379,6620428,101030.49,0.6523393,0
1743177562725379,1743177562725379,6620428,101052.2,0.032384217,0
1743177563725379,1743177563725379,6620428,101022.11,-0.7200059,0
1743177564725379,1743177564725379,6620428,101017.24,-0.888716,0
1743177565721379,1743177565721379,6620428,101023.31,-0.83955216,0
1743177566725379,1743177566725379,6620428,101040.89,-0.1387281,0
1743177567725379,1743177567725379,6620428,101054.664,-0.6394621,0
1743177568725379,1743177568725379,6620428,101020.41,0.23831406,0
1743177569725379,1743177569725379,6620428,101045.27,-0.66587114,0
1743177570725379,1743177570725379,6620428,101020.8,-0.4180147,0
1743177571721379,1743177571721379,6620428,101038.09,0.44870654,0
1743177572725379,1743177572725379,6620428,101032.61,0.67626345,0
1743177573725379,1743177573725379,6620428,101043.555,-0.09436688,0
1743177574725379,1743177574725379,6620428,101086.84,-0.028759385,0
1743177575725379,1743177575725379,6620428,101093.984,0.9060454,0
1743177576725379,1743177576725379,6620428,101120.33,0.36491972,0
1743177577725379,1743177577725379,6620428,101127.38,-0.07790218,0
1743177578725379,1743177578725379,6620428,101135.31,-0.6386398,0
1743177579725379,1743177579725379,6620428,101152.9,-0.32170445,0
1743177580721379,1743177580721379,6620428,101201.336,-0.23993586,0
1743177581725379,1743177581725379,6620428,101168.57,0.079531096,0
1743177582725379,1743177582725379,6620428,101204.71,0.8560489,0
1743177583725379,1743177583725379,6620428,101230.03,-0.49891865,0
1743177584725379,1743177584725379,6620428,101234.414,-0.6709093,0
1743177585721379,1743177585721379,6620428,101247.766,-0.16067086,0
1743177586725379,1743177586725379,6620428,101276.266,-0.48288897,0
1743177587725379,1743177587725379,6620428,101271.94,0.2974791,0
1743177588725379,1743177588725379,6620428,101281.13,-0.17015909,0
1743177589725379,1743177589725379,6620428,101285.3,0.6836062,0
1743177590725379,1743177590725379,6620428,101307.37,0.89302635,0
1743177591725379,1743177591725379,6620428,101315.53,-0.74225885,0
1743177592725379,1743177592725379,6620428,101303.22,-0.49186602,0
1743177593725379,1743177593725379,6620428,101293.18,-0.9653376,0
1743177594725379,1743177594725379,6620428,101333.37,-0.7862364,0
1743177595725379,1743177595725379,6620428,101307.88,0.4322982,0
