timestamp,timestamp_sample,q[0],q[1],q[2],q[3],delta_q_reset[0],delta_q_reset[1],delta_q_reset[2],delta_q_reset[3],quat_reset_counter
1743177449813379,1743177449813379,0.99999994,-0.00030577424,-0.00023132876,-0.00018935419,1.0,0.0,0.0,0.0,0
1743177449817379,1743177449817379,0.99999994,-0.0002789451,-0.0002011322,-0.00018943532,1.0,0.0,0.0,0.0,0
1743177449825379,1743177449825379,1.0,-0.00025741107,-0.00016799815,-0.00015241186,1.0,0.0,0.0,0.0,0
1743177449833379,1743177449833379,1.0,-0.00029210214,-0.00017022694,-0.00012091355,1.0,0.0,0.0,0.0,0
1743177449845379,1743177449845379,1.0,-0.00026768137,-0.00018117717,-0.0001171313,1.0,0.0,0.0,0.0,0
1743177449853379,1743177449853379,1.0,-0.0002487758,-0.0001978276,-9.461305e-05,1.0,0.0,0.0,0.0,0
1743177449865379,1743177449865379,1.0,-0.0002664338,-0.00019423656,-5.1085797e-05,1.0,0.0,0.0,0.0,0
1743177449873379,1743177449873379,1.0,-0.00023533936,-0.00019070272,-4.019158e-05,1.0,0.0,0.0,0.0,0
1743177449885379,1743177449885379,1.0,-0.00025120817,-0.00017620773,-6.809436e-05,1.0,0.0,0.0,0.0,0
1743177449893379,1743177449893379,1.0,-0.0002675879,-0.00017270684,-9.595886e-05,1.0,0.0,0.0,0.0,0
1743177449905379,1743177449905379,1.0,-0.00027840765,-0.00015268341,-0.00011807035,1.0,0.0,0.0,0.0,0
1743177449913379,1743177449913379,1.0,-0.00028992197,-0.00013423596,-0.00010314439,1.0,0.0,0.0,0.0,0
1743177449925379,1743177449925379,1.0,-0.0002903022,-0.000114568385,-6.768461e-05,1.0,0.0,0.0,0.0,0
1743177449933379,1743177449933379,1.0,-0.00028967872,-0.000114561,-0.000105309155,1.0,0.0,0.0,0.0,0
1743177449945379,1743177449945379,1.0,-0.00024432724,-8.832998e-05,-0.00014657225,1.0,0.0,0.0,0.0,0
1743177449953379,1743177449953379,1.0,-0.00024709172,-9.503192e-05,-0.00015043796,1.0,0.0,0.0,0.0,0
1743177449965379,1743177449965379,1.0,-0.00024410298,-8.05434e-05,-0.00011730835,1.0,0.0,0.0,0.0,0
1743177449973379,1743177449973379,1.0,-0.0002463499,-3.372277e-05,-0.0001105264,1.0,0.0,0.0,0.0,0
1743177449985379,1743177449985379,1.0,-0.00024625688,3.8178696e-05,-0.00010102086,1.0,0.0,0.0,0.0,0
1743177449993379,1743177449993379,1.0,-0.00025024122,8.569702e-05,-8.108442e-05,1.0,0.0,0.0,0.0,0
1743177450005379,1743177450005379,1.0,-0.00026975226,0.00010201635,-5.7385554e-05,1.0,0.0,0.0,0.0,0
1743177450013379,1743177450013379,1.0,-0.00026267694,9.326864e-05,-0.00010734021,1.0,0.0,0.0,0.0,0
1743177450025379,1743177450025379,1.0,-0.00022715962,7.151217e-05,-0.00014667009,1.0,0.0,0.0,0.0,0
1743177450033379,1743177450033379,1.0,-0.00022959948,9.126201e-05,-0.00014879336,1.0,0.0,0.0,0.0,0
1743177450045379,1743177450045379,1.0,-0.00020549327,9.985606e-05,-0.00013019431,1.0,0.0,0.0,0.0,0
1743177450053379,1743177450053379,1.0,-0.00022774548,9.1710805e-05,-8.764226e-05,1.0,0.0,0.0,0.0,0
1743177450065379,1743177450065379,0.7084431,-0.00015791746,0.00022949163,-0.705768,0.7085141,7.020872e-11,-7.730704e-12,-0.7056967,1
1743177450073379,1743177450073379,0.7084565,-0.00018186124,0.00022645957,-0.70575446,0.7085141,7.020872e-11,-7.730704e-12,-0.7056967,1
1743177450085379,1743177450085379,0.70848644,-0.00022481849,0.00022706566,-0.70572436,0.7085141,7.020872e-11,-7.730704e-12,-0.7056967,1
1743177450093379,1743177450093379,0.7085134,-0.00020556324,0.00021756563,-0.7056973,0.7085141,7.020872e-11,-7.730704e-12,-0.7056967,1
1743177450105379,1743177450105379,0.7085475,-0.00024497116,0.00021907258,-0.70566314,0.7085141,7.020872e-11,-7.730704e-12,-0.7056967,1
1743177450113379,1743177450113379,0.70855975,-0.0002408049,0.00019961316,-0.7056508,0.7085141,7.020872e-11,-7.730704e-12,-0.7056967,1
1743177450125379,1743177450125379,0.70857376,-0.00013910787,0.00025194063,-0.7056368,0.7085141,7.020872e-11,-7.730704e-12,-0.7056967,1
1743177450133379,1743177450133379,0.7085942,-0.00012344024,0.00026040673,-0.70561624,0.7085141,7.020872e-11,-7.730704e-12,-0.7056967,1
1743177450145379,1743177450145379,0.7085792,-0.00011579093,0.00030360767,-0.70563126,0.7085141,7.020872e-11,-7.730704e-12,-0.7056967,1
1743177450153379,1743177450153379,0.70858043,-0.0001116725,0.00028488218,-0.70563006,0.7085141,7.020872e-11,-7.730704e-12,-0.7056967,1
1743177450165379,1743177450165379,0.7085388,-0.0001372482,0.00033796497,-0.70567185,0.7085141,7.020872e-11,-7.730704e-12,-0.7056967,1
1743177450173379,1743177450173379,0.70851165,-0.00012875938,0.00035194473,-0.7056991,0.7085141,7.020872e-11,-7.730704e-12,-0.7056967,1
1743177450185379,1743177450185379,0.7084693,-0.000111665264,0.00033639587,-0.70574164,0.7085141,7.020872e-11,-7.730704e-12,-0.7056967,1
1743177450193379,1743177450193379,0.70846295,-8.716956e-05,0.0003733224,-0.705748,0.7085141,7.020872e-11,-7.730704e-12,-0.7056967,1
1743177450205379,1743177450205379,0.7084283,-9.8692166e-05,0.00036354936,-0.7057827,0.7085141,7.020872e-11,-7.730704e-12,-0.7056967,1
1743177450213379,1743177450213379,0.7084023,-0.000116972034,0.0003362003,-0.7058089,0.7085141,7.020872e-11,-7.730704e-12,-0.7056967,1
1743177450225379,1743177450225379,0.7083572,-0.00013537526,0.00033797047,-0.70585406,0.7085141,7.020872e-11,-7.730704e-12,-0.7056967,1
1743177450233379,1743177450233379,0.7083368,-0.00013981087,0.00033130829,-0.7058746,0.7085141,7.020872e-11,-7.730704e-12,-0.7056967,1
1743177450245379,1743177450245379,0.70828545,-0.00013962032,0.00031744718,-0.70592606,0.7085141,7.020872e-11,-7.730704e-12,-0.7056967,1
1743177450253379,1743177450253379,0.70827323,-0.00014932218,0.0003099735,-0.70593834,0.7085141,7.020872e-11,-7.730704e-12,-0.7056967,1
1743177450265379,1743177450265379,0.708241,-7.566498e-05,0.00032827098,-0.7059707,0.7085141,7.020872e-11,-7.730704e-12,-0.7056967,1
1743177450273379,1743177450273379,0.7081989,-5.6431723e-05,0.00036739258,-0.70601296,0.7085141,7.020872e-11,-7.730704e-12,-0.7056967,1
1743177450285379,1743177450285379,0.70819443,-1.7572445e-05,0.0003951002,-0.7060173,0.7085141,7.020872e-11,-7.730704e-12,-0.7056967,1
1743177450293379,1743177450293379,0.7081742,-1.1331813e-05,0.00037503464,-0.7060377,0.7085141,7.020872e-11,-7.730704e-12,-0.7056967,1
1743177450305379,1743177450305379,0.7081057,-3.9123806e-05,0.00036472364,-0.70610636,0.7085141,7.020872e-11,-7.730704e-12,-0.7056967,1
1743177450313379,1743177450313379,0.7080742,-8.009606e-05,0.00034375468,-0.70613796,0.7085141,7.020872e-11,-7.730704e-12,-0.7056967,1
1743177450325379,1743177450325379,0.7080422,-7.970134e-05,0.00033579464,-0.7061701,0.7085141,7.020872e-11,-7.730704e-12,-0.7056967,1
1743177450333379,1743177450333379,0.70802003,-4.4106237e-05,0.00030936222,-0.7061924,0.7085141,7.020872e-11,-7.730704e-12,-0.7056967,1
1743177450345379,1743177450345379,0.70797133,-1.2816205e-05,0.0003128339,-0.7062412,0.7085141,7.020872e-11,-7.730704e-12,-0.7056967,1
1743177450353379,1743177450353379,0.70793515,-2.5252764e-05,0.00032079263,-0.70627743,0.7085141,7.020872e-11,-7.730704e-12,-0.7056967,1
1743177450365379,1743177450365379,0.70786583,-1.67592e-05,0.00029537213,-0.7063469,0.7085141,7.020872e-11,-7.730704e-12,-0.7056967,1
1743177450373379,1743177450373379,0.7078138,-1.6683101e-05,0.0002583382,-0.7063991,0.7085141,7.020872e-11,-7.730704e-12,-0.7056967,1
1743177450385379,1743177450385379,0.7077612,-2.688711e-05,0.00032150495,-0.7064517,0.7085141,7.020872e-11,-7.730704e-12,-0.7056967,1
1743177450393379,1743177450393379,0.70772374,-4.4015076e-05,0.00034610557,-0.70648926,0.7085141,7.020872e-11,-7.730704e-12,-0.7056967,1
1743177450405379,1743177450405379,0.70767695,-5.2843465e-05,0.00039066264,-0.7065361,0.7085141,7.020872e-11,-7.730704e-12,-0.7056967,1
1743177450413379,1743177450413379,0.70764834,-6.112897e-05,0.00038014347,-0.7065647,0.7085141,7.020872e-11,-7.730704e-12,-0.7056967,1
1743177450425379,1743177450425379,0.7076171,-5.3210417e-05,0.00041387568,-0.70659596,0.7085141,7.020872e-11,-7.730704e-12,-0.7056967,1
1743177450433379,1743177450433379,0.7076115,-7.22027e-05,0.0003994124,-0.70660156,0.7085141,7.020872e-11,-7.730704e-12,-0.7056967,1
1743177450445379,1743177450445379,0.7075928,-5.8468224e-05,0.00039956297,-0.7066204,0.7085141,7.020872e-11,-7.730704e-12,-0.7056967,1
1743177450453379,1743177450453379,0.7075572,-3.4875236e-05,0.00043518623,-0.706656,0.7085141,7.020872e-11,-7.730704e-12,-0.7056967,1
1743177450465379,1743177450465379,0.7075324,9.4434945e-06,0.00043945978,-0.7066808,0.7085141,7.020872e-11,-7.730704e-12,-0.7056967,1
1743177450473379,1743177450473379,0.7075359,3.857706e-05,0.00046581813,-0.7066773,0.7085141,7.020872e-11,-7.730704e-12,-0.7056967,1
1743177450485379,1743177450485379,0.7075379,2.8578219e-05,0.00047696976,-0.7066753,0.7085141,7.020872e-11,-7.730704e-12,-0.7056967,1
1743177450493379,1743177450493379,0.70752245,4.8128504e-06,0.000504997,-0.7066907,0.7085141,7.020872e-11,-7.730704e-12,-0.7056967,1
1743177450505379,1743177450505379,0.70750105,9.8405e-06,0.00053127017,-0.70671207,0.7085141,7.020872e-11,-7.730704e-12,-0.7056967,1
1743177450513379,1743177450513379,0.7075074,4.5221903e-05,0.0005311196,-0.7067058,0.7085141,7.020872e-11,-7.730704e-12,-0.7056967,1
1743177450525379,1743177450525379,0.70751745,3.141977e-05,0.00048753107,-0.70669574,0.7085141,7.020872e-11,-7.730704e-12,-0.7056967,1
1743177450533379,1743177450533379,0.7075435,-2.1165233e-06,0.00047667063,-0.7066696,0.7085141,7.020872e-11,-7.730704e-12,-0.7056967,1
1743177450545379,1743177450545379,0.7075577,-1.6777336e-05,0.00045548065,-0.70665544,0.7085141,7.020872e-11,-7.730704e-12,-0.7056967,1
1743177450553379,1743177450553379,0.7075778,-3.518644e-05,0.00045613453,-0.7066353,0.7085141,7.020872e-11,-7.730704e-12,-0.7056967,1
1743177450565379,1743177450565379,0.70760435,-4.9649505e-05,0.00045512055,-0.70660883,0.7085141,7.020872e-11,-7.730704e-12,-0.7056967,1
1743177450573379,1743177450573379,0.70762354,-6.259599e-05,0.00042012686,-0.7065895,0.7085141,7.020872e-11,-7.730704e-12,-0.7056967,1
1743177450585379,1743177450585379,0.70760953,-6.998455e-05,0.00040663473,-0.7066036,0.7085141,7.020872e-11,-7.730704e-12,-0.7056967,1
1743177450593379,1743177450593379,0.70762676,-5.343919e-05,0.00041144225,-0.70658636,0.7085141,7.020872e-11,-7.730704e-12,-0.7056967,1
1743177450605379,1743177450605379,0.7076324,-2.8895563e-05,0.00047547743,-0.7065806,0.7085141,7.020872e-11,-7.730704e-12,-0.7056967,1
1743177450613379,1743177450613379,0.7076484,-4.4018663e-05,0.00047143194,-0.7065646,0.7085141,7.020872e-11,-7.730704e-12,-0.7056967,1
1743177450625379,1743177450625379,0.7076515,-9.3707655e-05,0.00049549766,-0.70656157,0.7085141,7.020872e-11,-7.730704e-12,-0.7056967,1
1743177450633379,1743177450633379,0.7076795,-9.496473e-05,0.0004974149,-0.70653343,0.7085141,7.020872e-11,-7.730704e-12,-0.7056967,1
1743177450645379,1743177450645379,0.70771027,-0.00012098799,0.0004936623,-0.7065026,0.7085141,7.020872e-11,-7.730704e-12,-0.7056967,1
1743177450653379,1743177450653379,0.70773745,-6.9944865e-05,0.00050226954,-0.7064754,0.7085141,7.020872e-11,-7.730704e-12,-0.7056967,1
1743177450665379,1743177450665379,0.7077498,-5.201531e-05,0.00053094956,-0.7064631,0.7085141,7.020872e-11,-7.730704e-12,-0.7056967,1
1743177450673379,1743177450673379,0.7077599,-9.554309e-05,0.000522763,-0.70645285,0.7085141,7.020872e-11,-7.730704e-12,-0.7056967,1
1743177450685379,1743177450685379,0.70777553,-9.326996e-05,0.00050041935,-0.70643723,0.7085141,7.020872e-11,-7.730704e-12,-0.7056967,1
1743177450693379,1743177450693379,0.7077874,-8.0562386e-05,0.00049198495,-0.70642537,0.7085141,7.020872e-11,-7.730704e-12,-0.7056967,1
1743177450705379,1743177450705379,0.7078249,-8.0142054e-05,0.00043592992,-0.7063879,0.7085141,7.020872e-11,-7.730704e-12,-0.7056967,1
1743177450713379,1743177450713379,0.7078338,-3.7741924e-05,0.000418248,-0.70637894,0.7085141,7.020872e-11,-7.730704e-12,-0.7056967,1
1743177450725379,1743177450725379,0.707862,1.2579e-05,0.00045172728,-0.7063506,0.7085141,7.020872e-11,-7.730704e-12,-0.7056967,1
1743177450733379,1743177450733379,0.707871,5.382061e-05,0.00041884356,-0.7063416,0.7085141,7.020872e-11,-7.730704e-12,-0.7056967,1
1743177450745379,1743177450745379,0.70791626,4.2771648e-05,0.00037246608,-0.7062964,0.7085141,7.020872e-11,-7.730704e-12,-0.7056967,1
1743177450753379,1743177450753379,0.7079465,3.1539912e-05,0.0003928878,-0.706266,0.7085141,7.020872e-11,-7.730704e-12,-0.7056967,1
1743177450765379,1743177450765379,0.707989,3.7011894e-05,0.00038388383,-0.70622337,0.7085141,7.020872e-11,-7.730704e-12,-0.7056967,1
1743177450773379,1743177450773379,0.7080203,7.1820345e-05,0.00035119438,-0.706192,0.7085141,7.020872e-11,-7.730704e-12,-0.7056967,1
1743177450785379,1743177450785379,0.7080665,8.035469e-05,0.00034316615,-0.7061457,0.7085141,7.020872e-11,-7.730704e-12,-0.7056967,1
1743177450793379,1743177450793379,0.70808375,5.9159633e-05,0.00035362924,-0.7061284,0.7085141,7.020872e-11,-7.730704e-12,-0.7056967,1
1743177450805379,1743177450805379,0.70812386,2.8660208e-05,0.00032447252,-0.7060882,0.7085141,7.020872e-11,-7.730704e-12,-0.7056967,1
1743177450813379,1743177450813379,0.70814437,-2.0593116e-06,0.00031819535,-0.7060677,0.7085141,7.020872e-11,-7.730704e-12,-0.7056967,1
1743177450825379,1743177450825379,0.708177,7.1454388e-06,0.0002917031,-0.70603496,0.7085141,7.020872e-11,-7.730704e-12,-0.7056967,1
1743177450833379,1743177450833379,0.70818454,1.3485082e-05,0.00027482834,-0.7060274,0.7085141,7.020872e-11,-7.730704e-12,-0.7056967,1
1743177450845379,1743177450845379,0.7081964,4.6734727e-05,0.00022514118,-0.7060155,0.7085141,7.020872e-11,-7.730704e-12,-0.7056967,1
1743177450853379,1743177450853379,0.70822644,4.9938975e-05,0.00018671762,-0.70598537,0.7085141,7.020872e-11,-7.730704e-12,-0.7056967,1
1743177450865379,1743177450865379,0.7082299,4.3110776e-05,0.0001991224,-0.7059819,0.7085141,7.020872e-11,-7.730704e-12,-0.7056967,1
1743177450873379,1743177450873379,0.70822597,3.520512e-05,0.00025317623,-0.70598584,0.7085141,7.020872e-11,-7.730704e-12,-0.7056967,1
1743177450885379,1743177450885379,0.70824796,6.192172e-05,0.00022485066,-0.70596373,0.7085141,7.020872e-11,-7.730704e-12,-0.7056967,1
1743177450893379,1743177450893379,0.7082686,7.783457e-05,0.0001783327,-0.7059431,0.7085141,7.020872e-11,-7.730704e-12,-0.7056967,1
1743177450905379,1743177450905379,0.7082719,0.00013656342,0.00016983302,-0.7059397,0.7085141,7.020872e-11,-7.730704e-12,-0.7056967,1
1743177450913379,1743177450913379,0.70831007,0.00013122919,0.00017474678,-0.7059014,0.7085141,7.020872e-11,-7.730704e-12,-0.7056967,1
1743177450925379,1743177450925379,0.7083689,0.00018414008,0.00018281442,-0.7058423,0.7085141,7.020872e-11,-7.730704e-12,-0.7056967,1
1743177450933379,1743177450933379,0.7083792,0.0001801371,0.00018430056,-0.705832,0.7085141,7.020872e-11,-7.730704e-12,-0.7056967,1
1743177450945379,1743177450945379,0.70838016,0.00019061526,0.00019980504,-0.7058311,0.7085141,7.020872e-11,-7.730704e-12,-0.7056967,1
1743177450953379,1743177450953379,0.70840204,0.00023842162,0.00020812947,-0.70580906,0.7085141,7.020872e-11,-7.730704e-12,-0.7056967,1
1743177450965379,1743177450965379,0.70845586,0.00021893223,0.0002051827,-0.70575505,0.7085141,7.020872e-11,-7.730704e-12,-0.7056967,1
1743177450973379,1743177450973379,0.7084701,0.00020637459,0.00018318713,-0.7057408,0.7085141,7.020872e-11,-7.730704e-12,-0.7056967,1
1743177450985379,1743177450985379,0.70848864,0.00022756938,0.00019538759,-0.70572215,0.7085141,7.020872e-11,-7.730704e-12,-0.7056967,1
1743177450993379,1743177450993379,0.70850307,0.00025351954,0.00018691286,-0.7057077,0.7085141,7.020872e-11,-7.730704e-12,-0.7056967,1
1743177451005379,1743177451005379,0.7085288,0.00023015813,0.00023124741,-0.70568186,0.7085141,7.020872e-11,-7.730704e-12,-0.7056967,1
1743177451013379,1743177451013379,0.70854175,0.00019976454,0.00020221976,-0.70566887,0.7085141,7.020872e-11,-7.730704e-12,-0.7056967,1
1743177451025379,1743177451025379,0.70855343,0.00020879736,0.00023705802,-0.70565706,0.7085141,7.020872e-11,-7.730704e-12,-0.7056967,1
1743177451033379,1743177451033379,0.70858365,0.00019951643,0.00026079733,-0.7056267,0.7085141,7.020872e-11,-7.730704e-12,-0.7056967,1
1743177451045379,1743177451045379,0.7086273,0.00019647452,0.0002910313,-0.7055829,0.7085141,7.020872e-11,-7.730704e-12,-0.7056967,1
1743177451053379,1743177451053379,0.708642,0.00017561826,0.00028932467,-0.7055682,0.7085141,7.020872e-11,-7.730704e-12,-0.7056967,1
1743177451065379,1743177451065379,0.708637,0.00017665728,0.00029977507,-0.7055732,0.7085141,7.020872e-11,-7.730704e-12,-0.7056967,1
1743177451073379,1743177451073379,0.70865226,0.0001849321,0.0002879774,-0.7055579,0.7085141,7.020872e-11,-7.730704e-12,-0.7056967,1
1743177451085379,1743177451085379,0.70864487,0.00022814253,0.00030094208,-0.7055652,0.7085141,7.020872e-11,-7.730704e-12,-0.7056967,1
1743177451093379,1743177451093379,0.70865935,0.00021610229,0.00032751344,-0.7055507,0.7085141,7.020872e-11,-7.730704e-12,-0.7056967,1
1743177451105379,1743177451105379,0.70869493,0.00022138268,0.0003146869,-0.705515,0.7085141,7.020872e-11,-7.730704e-12,-0.7056967,1
1743177451113379,1743177451113379,0.70873237,0.0001995454,0.00031239743,-0.70547736,0.7085141,7.020872e-11,-7.730704e-12,-0.7056967,1
1743177451125379,1743177451125379,0.7087679,0.00020105399,0.00032529587,-0.70544165,0.7085141,7.020872e-11,-7.730704e-12,-0.7056967,1
1743177451133379,1743177451133379,0.70877606,0.00023844361,0.00035211028,-0.7054335,0.7085141,7.020872e-11,-7.730704e-12,-0.7056967,1
1743177451145379,1743177451145379,0.70882714,0.00021738316,0.00034462815,-0.70538217,0.7085141,7.020872e-11,-7.730704e-12,-0.7056967,1
1743177451153379,1743177451153379,0.70884025,0.00020978868,0.00027462657,-0.70536906,0.7085141,7.020872e-11,-7.730704e-12,-0.7056967,1
1743177451165379,1743177451165379,0.70888174,0.00019247268,0.00029181346,-0.7053273,0.7085141,7.020872e-11,-7.730704e-12,-0.7056967,1
1743177451173379,1743177451173379,0.7088769,0.00015988311,0.0002611852,-0.7053322,0.7085141,7.020872e-11,-7.730704e-12,-0.7056967,1
1743177451185379,1743177451185379,0.7088517,0.00015064837,0.0002679078,-0.7053576,0.7085141,7.020872e-11,-7.730704e-12,-0.7056967,1
1743177451193379,1743177451193379,0.70888716,0.00015364263,0.00025531795,-0.7053219,0.7085141,7.020872e-11,-7.730704e-12,-0.7056967,1
1743177451205379,1743177451205379,0.70888686,0.00018755367,0.00028124815,-0.70532215,0.7085141,7.020872e-11,-7.730704e-12,-0.7056967,1
1743177451213379,1743177451213379,0.7088898,0.0001799303,0.0002714442,-0.7053193,0.7085141,7.020872e-11,-7.730704e-12,-0.7056967,1
1743177451225379,1743177451225379,0.7089347,0.00018045567,0.0002569285,-0.70527405,0.7085141,7.020872e-11,-7.730704e-12,-0.7056967,1
1743177451233379,1743177451233379,0.70898503,0.00017196259,0.00024958389,-0.70522356,0.7085141,7.020872e-11,-7.730704e-12,-0.7056967,1
1743177451245379,1743177451245379,0.7089899,0.0001930652,0.00021998338,-0.7052186,0.7085141,7.020872e-11,-7.730704e-12,-0.7056967,1
1743177451253379,1743177451253379,0.7090065,0.00022760652,0.00019886423,-0.70520186,0.7085141,7.020872e-11,-7.730704e-12,-0.7056967,1
1743177451265379,1743177451265379,0.709009,0.00022306555,0.00015834057,-0.7051995,0.7085141,7.020872e-11,-7.730704e-12,-0.7056967,1
1743177451273379,1743177451273379,0.709009,0.0002637878,0.0001890236,-0.70519936,0.7085141,7.020872e-11,-7.730704e-12,-0.7056967,1
1743177451285379,1743177451285379,0.70901763,0.0002895959,0.00018158418,-0.7051907,0.7085141,7.020872e-11,-7.730704e-12,-0.7056967,1
1743177451293379,1743177451293379,0.70901877,0.00026823804,0.00017572613,-0.7051895,0.7085141,7.020872e-11,-7.730704e-12,-0.7056967,1
1743177451305379,1743177451305379,0.7090333,0.00027282344,0.00016006049,-0.7051749,0.7085141,7.020872e-11,-7.730704e-12,-0.7056967,1
1743177451313379,1743177451313379,0.7090533,0.00022522984,0.00017172808,-0.7051549,0.7085141,7.020872e-11,-7.730704e-12,-0.7056967,1
1743177451325379,1743177451325379,0.7090689,0.00022626303,0.00014663514,-0.70513916,0.7085141,7.020872e-11,-7.730704e-12,-0.7056967,1
1743177451333379,1743177451333379,0.7090857,0.00022655143,0.00014245503,-0.7051223,0.7085141,7.020872e-11,-7.730704e-12,-0.7056967,1
1743177451345379,1743177451345379,0.70911896,0.00021321345,0.00015232647,-0.7050888,0.7085141,7.020872e-11,-7.730704e-12,-0.7056967,1
1743177451353379,1743177451353379,0.7091304,0.0002062678,0.00016589121,-0.7050773,0.7085141,7.020872e-11,-7.730704e-12,-0.7056967,1
1743177451365379,1743177451365379,0.7091292,0.00015995391,0.00016508704,-0.7050786,0.7085141,7.020872e-11,-7.730704e-12,-0.7056967,1
1743177451373379,1743177451373379,0.709133,0.00012730746,0.00016782084,-0.7050748,0.7085141,7.020872e-11,-7.730704e-12,-0.7056967,1
1743177451385379,1743177451385379,0.7091488,9.213193e-05,0.00017717906,-0.7050589,0.7085141,7.020872e-11,-7.730704e-12,-0.7056967,1
1743177451393379,1743177451393379,0.70913935,0.00010424979,0.00022427432,-0.70506835,0.7085141,7.020872e-11,-7.730704e-12,-0.7056967,1
1743177451405379,1743177451405379,0.70913273,6.999602e-05,0.00021276825,-0.705075,0.7085141,7.020872e-11,-7.730704e-12,-0.7056967,1
1743177451413379,1743177451413379,0.70913804,0.000103990096,0.00023732746,-0.7050697,0.7085141,7.020872e-11,-7.730704e-12,-0.7056967,1
1743177451425379,1743177451425379,0.70918953,0.00011401156,0.0002538801,-0.70501786,0.7085141,7.020872e-11,-7.730704e-12,-0.7056967,1
1743177451433379,1743177451433379,0.7092154,0.0001348731,0.0002819759,-0.7049918,0.7085141,7.020872e-11,-7.730704e-12,-0.7056967,1
1743177451445379,1743177451445379,0.70922285,0.00014114575,0.00033488567,-0.70498437,0.7085141,7.020872e-11,-7.730704e-12,-0.7056967,1
1743177451453379,1743177451453379,0.70922524,0.00013468265,0.00033781133,-0.7049819,0.7085141,7.020872e-11,-7.730704e-12,-0.7056967,1
1743177451465379,1743177451465379,0.7092356,9.482335e-05,0.00032088644,-0.7049715,0.7085141,7.020872e-11,-7.730704e-12,-0.7056967,1
1743177451473379,1743177451473379,0.70923656,0.00010533921,0.0003091557,-0.70497054,0.7085141,7.020872e-11,-7.730704e-12,-0.7056967,1
1743177451485379,1743177451485379,0.7092058,0.00013730077,0.00025423575,-0.7050015,0.7085141,7.020872e-11,-7.730704e-12,-0.7056967,1
1743177451493379,1743177451493379,0.7091907,0.00013926298,0.00024073965,-0.7050167,0.7085141,7.020872e-11,-7.730704e-12,-0.7056967,1
1743177451505379,1743177451505379,0.7091913,0.00013232853,0.00028345725,-0.70501614,0.7085141,7.020872e-11,-7.730704e-12,-0.7056967,1
1743177451513379,1743177451513379,0.70918804,0.00013003318,0.0003171365,-0.7050193,0.7085141,7.020872e-11,-7.730704e-12,-0.7056967,1
1743177451525379,1743177451525379,0.70918465,0.00014601195,0.00032354798,-0.70502275,0.7085141,7.020872e-11,-7.730704e-12,-0.7056967,1
1743177451533379,1743177451533379,0.70917946,0.00017643614,0.0003495634,-0.70502794,0.7085141,7.020872e-11,-7.730704e-12,-0.7056967,1
1743177451545379,1743177451545379,0.7091257,0.00020798732,0.0003031899,-0.705082,0.7085141,7.020872e-11,-7.730704e-12,-0.7056967,1
1743177451553379,1743177451553379,0.7091026,0.00019366672,0.00030401582,-0.70510525,0.7085141,7.020872e-11,-7.730704e-12,-0.7056967,1
1743177451565379,1743177451565379,0.7090922,0.00018461098,0.00033718423,-0.7051157,0.7085141,7.020872e-11,-7.730704e-12,-0.7056967,1
1743177451573379,1743177451573379,0.7090899,0.00021454957,0.00036762294,-0.705118,0.7085141,7.020872e-11,-7.730704e-12,-0.7056967,1
1743177451585379,1743177451585379,0.70910037,0.00022704627,0.00036076488,-0.7051074,0.7085141,7.020872e-11,-7.730704e-12,-0.7056967,1
1743177451593379,1743177451593379,0.7090977,0.00016896558,0.0003564524,-0.7051102,0.7085141,7.020872e-11,-7.730704e-12,-0.7056967,1
1743177451605379,1743177451605379,0.70906055,0.00016724708,0.00031285506,-0.7051475,0.7085141,7.020872e-11,-7.730704e-12,-0.7056967,1
1743177451613379,1743177451613379,0.7090515,0.00015134118,0.00031332194,-0.7051567,0.7085141,7.020872e-11,-7.730704e-12,-0.7056967,1
1743177451625379,1743177451625379,0.7090596,0.00015068661,0.0002898682,-0.7051486,0.7085141,7.020872e-11,-7.730704e-12,-0.7056967,1
1743177451633379,1743177451633379,0.7090448,0.00015252332,0.00027128728,-0.7051635,0.7085141,7.020872e-11,-7.730704e-12,-0.7056967,1
1743177451645379,1743177451645379,0.70901936,0.00015507216,0.00031845673,-0.70518893,0.7085141,7.020872e-11,-7.730704e-12,-0.7056967,1
1743177451653379,1743177451653379,0.7090215,0.00015380661,0.0003353958,-0.70518684,0.7085141,7.020872e-11,-7.730704e-12,-0.7056967,1
1743177451665379,1743177451665379,0.7090158,0.000129418,0.0003310279,-0.70519257,0.7085141,7.020872e-11,-7.730704e-12,-0.7056967,1
1743177451673379,1743177451673379,0.7090024,0.0001006251,0.0003814131,-0.70520604,0.7085141,7.020872e-11,-7.730704e-12,-0.7056967,1
1743177451685379,1743177451685379,0.7089857,5.9213227e-05,0.0004278856,-0.7052228,0.7085141,7.020872e-11,-7.730704e-12,-0.7056967,1
1743177451693379,1743177451693379,0.70896816,7.0836235e-05,0.0004351421,-0.7052404,0.7085141,7.020872e-11,-7.730704e-12,-0.7056967,1
1743177451705379,1743177451705379,0.7089354,2.0927453e-05,0.00041730635,-0.70527345,0.7085141,7.020872e-11,-7.730704e-12,-0.7056967,1
1743177451713379,1743177451713379,0.70893294,5.921049e-06,0.00038654983,-0.70527583,0.7085141,7.020872e-11,-7.730704e-12,-0.7056967,1
1743177451725379,1743177451725379,0.7089482,-9.9417675e-06,0.00041685195,-0.70526046,0.7085141,7.020872e-11,-7.730704e-12,-0.7056967,1
1743177451733379,1743177451733379,0.7089631,-2.1059308e-05,0.00043032874,-0.70524544,0.7085141,7.020872e-11,-7.730704e-12,-0.7056967,1
1743177451745379,1743177451745379,0.70893663,-3.707153e-05,0.00046073835,-0.70527214,0.7085141,7.020872e-11,-7.730704e-12,-0.7056967,1
1743177451753379,1743177451753379,0.7089245,-4.5945428e-05,0.00045843303,-0.70528424,0.7085141,7.020872e-11,-7.730704e-12,-0.7056967,1
1743177451765379,1743177451765379,0.70888984,-4.7145673e-05,0.00047583095,-0.7053191,0.7085141,7.020872e-11,-7.730704e-12,-0.7056967,1
1743177451773379,1743177451773379,0.70885813,-6.069807e-05,0.0004940843,-0.705351,0.7085141,7.020872e-11,-7.730704e-12,-0.7056967,1
1743177451785379,1743177451785379,0.70886725,-4.3429696e-05,0.0005460371,-0.70534176,0.7085141,7.020872e-11,-7.730704e-12,-0.7056967,1
1743177451793379,1743177451793379,0.7088908,-6.141996e-05,0.00052510435,-0.7053181,0.7085141,7.020872e-11,-7.730704e-12,-0.7056967,1
1743177451805379,1743177451805379,0.70889044,-9.9377525e-05,0.0004876367,-0.7053185,0.7085141,7.020872e-11,-7.730704e-12,-0.7056967,1
1743177451813379,1743177451813379,0.70888966,-0.00012277394,0.0004900214,-0.7053193,0.7085141,7.020872e-11,-7.730704e-12,-0.7056967,1
1743177451825379,1743177451825379,0.70887595,-8.5722335e-05,0.00050322793,-0.705333,0.7085141,7.020872e-11,-7.730704e-12,-0.7056967,1
1743177451833379,1743177451833379,0.7088484,-8.980115e-05,0.000511777,-0.70536065,0.7085141,7.020872e-11,-7.730704e-12,-0.7056967,1
1743177451845379,1743177451845379,0.7088345,-0.00011138468,0.00052458525,-0.70537466,0.7085141,7.020872e-11,-7.730704e-12,-0.7056967,1
1743177451853379,1743177451853379,0.7088487,-0.0001335949,0.00054216123,-0.70536035,0.7085141,7.020872e-11,-7.730704e-12,-0.7056967,1
1743177451865379,1743177451865379,0.7088586,-0.00017175353,0.00052333414,-0.70535046,0.7085141,7.020872e-11,-7.730704e-12,-0.7056967,1
1743177451873379,1743177451873379,0.7088802,-0.00016690667,0.0005199467,-0.7053287,0.7085141,7.020872e-11,-7.730704e-12,-0.7056967,1
1743177451885379,1743177451885379,0.7089141,-0.00019248905,0.0005012892,-0.70529467,0.7085141,7.020872e-11,-7.730704e-12,-0.7056967,1
1743177451893379,1743177451893379,0.7089085,-0.00021548533,0.00043685816,-0.7053003,0.7085141,7.020872e-11,-7.730704e-12,-0.7056967,1
1743177451905379,1743177451905379,0.7088979,-0.00017648115,0.00045223127,-0.70531094,0.7085141,7.020872e-11,-7.730704e-12,-0.7056967,1
1743177451913379,1743177451913379,0.70889336,-0.0001965621,0.0004081315,-0.7053156,0.7085141,7.020872e-11,-7.730704e-12,-0.7056967,1
1743177451925379,1743177451925379,0.7088876,-0.00019569704,0.000435901,-0.7053214,0.7085141,7.020872e-11,-7.730704e-12,-0.7056967,1
1743177451933379,1743177451933379,0.70889837,-0.0002093131,0.0004325573,-0.7053105,0.7085141,7.020872e-11,-7.730704e-12,-0.7056967,1
1743177451945379,1743177451945379,0.70888484,-0.00027984256,0.00041207374,-0.7053241,0.7085141,7.020872e-11,-7.730704e-12,-0.7056967,1
1743177451953379,1743177451953379,0.70889014,-0.00032625048,0.00040012327,-0.70531875,0.7085141,7.020872e-11,-7.730704e-12,-0.7056967,1
1743177451965379,1743177451965379,0.70889825,-0.00035294038,0.00037303145,-0.70531064,0.7085141,7.020872e-11,-7.730704e-12,-0.7056967,1
1743177451973379,1743177451973379,0.7088834,-0.0003315204,0.00040566796,-0.70532554,0.7085141,7.020872e-11,-7.730704e-12,-0.7056967,1
1743177451985379,1743177451985379,0.70884246,-0.00027903586,0.00038938163,-0.7053667,0.7085141,7.020872e-11,-7.730704e-12,-0.7056967,1
1743177451993379,1743177451993379,0.7088293,-0.00030773145,0.00040064286,-0.7053799,0.7085141,7.020872e-11,-7.730704e-12,-0.7056967,1
1743177452005379,1743177452005379,0.70884955,-0.00028920124,0.00043641677,-0.70535964,0.7085141,7.020872e-11,-7.730704e-12,-0.7056967,1
1743177452013379,1743177452013379,0.7088448,-0.00029335014,0.00043315496,-0.7053644,0.7085141,7.020872e-11,-7.730704e-12,-0.7056967,1
1743177452025379,1743177452025379,0.70887154,-0.00034201896,0.0004000053,-0.70533746,0.7085141,7.020872e-11,-7.730704e-12,-0.7056967,1
1743177452033379,1743177452033379,0.70887786,-0.00035259337,0.00039948197,-0.705331,0.7085141,7.020872e-11,-7.730704e-12,-0.7056967,1
1743177452045379,1743177452045379,0.70886743,-0.00035967445,0.00040086752,-0.7053415,0.7085141,7.020872e-11,-7.730704e-12,-0.7056967,1
1743177452053379,1743177452053379,0.7088578,-0.00036718085,0.00036956827,-0.70535123,0.7085141,7.020872e-11,-7.730704e-12,-0.7056967,1
1743177452065379,1743177452065379,0.70884115,-0.00032330886,0.00035428008,-0.705368,0.7085141,7.020872e-11,-7.730704e-12,-0.7056967,1
1743177452073379,1743177452073379,0.7088639,-0.00029692546,0.00035029242,-0.7053452,0.7085141,7.020872e-11,-7.730704e-12,-0.7056967,1
1743177452085379,1743177452085379,0.70886374,-0.00026822832,0.00036599083,-0.70534533,0.7085141,7.020872e-11,-7.730704e-12,-0.7056967,1
1743177452093379,1743177452093379,0.70885634,-0.000285934,0.00035180364,-0.7053528,0.7085141,7.020872e-11,-7.730704e-12,-0.7056967,1
1743177452105379,1743177452105379,0.7088313,-0.00026088642,0.00035024752,-0.705378,0.7085141,7.020872e-11,-7.730704e-12,-0.7056967,1
1743177452113379,1743177452113379,0.70885545,-0.000276219,0.00033462083,-0.70535374,0.7085141,7.020872e-11,-7.730704e-12,-0.7056967,1
1743177452125379,1743177452125379,0.7089025,-0.0002635607,0.00034860696,-0.70530635,0.7085141,7.020872e-11,-7.730704e-12,-0.7056967,1
1743177452133379,1743177452133379,0.70890445,-0.00022790562,0.00037609768,-0.70530444,0.7085141,7.020872e-11,-7.730704e-12,-0.7056967,1
1743177452145379,1743177452145379,0.7089212,-0.00021523828,0.0003422622,-0.7052876,0.7085141,7.020872e-11,-7.730704e-12,-0.7056967,1
1743177452153379,1743177452153379,0.7089654,-0.00024914672,0.00036205977,-0.7052432,0.7085141,7.020872e-11,-7.730704e-12,-0.7056967,1
1743177452165379,1743177452165379,0.70900595,-0.0002153802,0.00035476705,-0.7052024,0.7085141,7.020872e-11,-7.730704e-12,-0.7056967,1
1743177452173379,1743177452173379,0.7090395,-0.00022529495,0.00032313212,-0.70516866,0.7085141,7.020872e-11,-7.730704e-12,-0.7056967,1
1743177452185379,1743177452185379,0.70907694,-0.00022901953,0.0003282633,-0.705131,0.7085141,7.020872e-11,-7.730704e-12,-0.7056967,1
1743177452193379,1743177452193379,0.7090653,-0.00024908694,0.00031392177,-0.70514274,0.7085141,7.020872e-11,-7.730704e-12,-0.7056967,1
1743177452205379,1743177452205379,0.7090815,-0.00023555534,0.00035112753,-0.7051264,0.7085141,7.020872e-11,-7.730704e-12,-0.7056967,1
1743177452213379,1743177452213379,0.7091017,-0.00024749068,0.00034814343,-0.7051062,0.7085141,7.020872e-11,-7.730704e-12,-0.7056967,1
1743177452225379,1743177452225379,0.70912296,-0.00024528225,0.0003153032,-0.70508474,0.7085141,7.020872e-11,-7.730704e-12,-0.7056967,1
1743177452233379,1743177452233379,0.7091385,-0.00024191098,0.00030297288,-0.70506907,0.7085141,7.020872e-11,-7.730704e-12,-0.7056967,1
1743177452245379,1743177452245379,0.7091428,-0.00027258703,0.00030541501,-0.70506483,0.7085141,7.020872e-11,-7.730704e-12,-0.7056967,1
1743177452253379,1743177452253379,0.7091638,-0.00026576192,0.00029983144,-0.7050437,0.7085141,7.020872e-11,-7.730704e-12,-0.7056967,1
1743177452265379,1743177452265379,0.7091301,-0.00025871632,0.0003034846,-0.7050776,0.7085141,7.020872e-11,-7.730704e-12,-0.7056967,1
1743177452273379,1743177452273379,0.7091309,-0.0002562036,0.00030278743,-0.70507675,0.7085141,7.020872e-11,-7.730704e-12,-0.7056967,1
1743177452285379,1743177452285379,0.70913285,-0.000269638,0.00028908032,-0.70507485,0.7085141,7.020872e-11,-7.730704e-12,-0.7056967,1
1743177452293379,1743177452293379,0.7091359,-0.00027910175,0.00029772334,-0.7050718,0.7085141,7.020872e-11,-7.730704e-12,-0.7056967,1
1743177452305379,1743177452305379,0.7091246,-0.00024959038,0.00026862192,-0.70508313,0.7085141,7.020872e-11,-7.730704e-12,-0.7056967,1
1743177452313379,1743177452313379,0.7091134,-0.00023690402,0.00026036444,-0.7050944,0.7085141,7.020872e-11,-7.730704e-12,-0.7056967,1
1743177452325379,1743177452325379,0.7090817,-0.00022015534,0.00027447936,-0.7051262,0.7085141,7.020872e-11,-7.730704e-12,-0.7056967,1
1743177452333379,1743177452333379,0.7090732,-0.00021260495,0.00027780235,-0.7051348,0.7085141,7.020872e-11,-7.730704e-12,-0.7056967,1
1743177452345379,1743177452345379,0.70907956,-0.0002433658,0.00029872006,-0.70512843,0.7085141,7.020872e-11,-7.730704e-12,-0.7056967,1
1743177452353379,1743177452353379,0.7091152,-0.00025871428,0.00029120763,-0.70509255,0.7085141,7.020872e-11,-7.730704e-12,-0.7056967,1
1743177452365379,1743177452365379,0.70913434,-0.00026866543,0.00032186505,-0.7050733,0.7085141,7.020872e-11,-7.730704e-12,-0.7056967,1
1743177452373379,1743177452373379,0.70914614,-0.00028719087,0.00032869406,-0.7050615,0.7085141,7.020872e-11,-7.730704e-12,-0.7056967,1
1743177452385379,1743177452385379,0.70913094,-0.0002466087,0.00033942176,-0.7050767,0.7085141,7.020872e-11,-7.730704e-12,-0.7056967,1
1743177452393379,1743177452393379,0.7091344,-0.00024317064,0.000352571,-0.70507324,0.7085141,7.020872e-11,-7.730704e-12,-0.7056967,1
1743177452405379,1743177452405379,0.7091427,-0.0001595621,0.00033415775,-0.7050649,0.7085141,7.020872e-11,-7.730704e-12,-0.7056967,1
1743177452413379,1743177452413379,0.7091544,-0.00013299676,0.00035024685,-0.70505315,0.7085141,7.020872e-11,-7.730704e-12,-0.7056967,1
1743177452425379,1743177452425379,0.7091711,-0.00010815704,0.00037256684,-0.70503634,0.7085141,7.020872e-11,-7.730704e-12,-0.7056967,1
1743177452433379,1743177452433379,0.7091956,-7.798659e-05,0.00038857362,-0.70501167,0.7085141,7.020872e-11,-7.730704e-12,-0.7056967,1
1743177452445379,1743177452445379,0.709188,-3.37138e-05,0.00037995682,-0.70501935,0.7085141,7.020872e-11,-7.730704e-12,-0.7056967,1
1743177452453379,1743177452453379,0.70919603,-2.3633975e-05,0.00036299333,-0.70501125,0.7085141,7.020872e-11,-7.730704e-12,-0.7056967,1
1743177452465379,1743177452465379,0.709198,-7.566583e-06,0.00035856935,-0.70500934,0.7085141,7.020872e-11,-7.730704e-12,-0.7056967,1
1743177452473379,1743177452473379,0.7091851,2.0116937e-05,0.00032311276,-0.7050223,0.7085141,7.020872e-11,-7.730704e-12,-0.7056967,1
1743177452485379,1743177452485379,0.70917463,2.3294735e-05,0.00027935664,-0.7050328,0.7085141,7.020872e-11,-7.730704e-12,-0.7056967,1
1743177452493379,1743177452493379,0.709166,3.0486577e-05,0.00025203815,-0.7050416,0.7085141,7.020872e-11,-7.730704e-12,-0.7056967,1
1743177452505379,1743177452505379,0.70914495,8.9060355e-05,0.0002284554,-0.70506275,0.7085141,7.020872e-11,-7.730704e-12,-0.7056967,1
1743177452513379,1743177452513379,0.70913744,7.7936216e-05,0.0002219276,-0.70507026,0.7085141,7.020872e-11,-7.730704e-12,-0.7056967,1
1743177452525379,1743177452525379,0.7091312,2.3656747e-05,0.00023511564,-0.7050766,0.7085141,7.020872e-11,-7.730704e-12,-0.7056967,1
1743177452533379,1743177452533379,0.7091043,-3.3053275e-05,0.00020913115,-0.70510364,0.7085141,7.020872e-11,-7.730704e-12,-0.7056967,1
1743177452545379,1743177452545379,0.70911545,-4.5535573e-05,0.00020152538,-0.70509243,0.7085141,7.020872e-11,-7.730704e-12,-0.7056967,1
1743177452553379,1743177452553379,0.70912904,-8.3876235e-05,0.00018103771,-0.7050787,0.7085141,7.020872e-11,-7.730704e-12,-0.7056967,1
1743177452565379,1743177452565379,0.70914984,-0.000111587186,0.00019742915,-0.70505774,0.7085141,7.020872e-11,-7.730704e-12,-0.7056967,1
1743177452573379,1743177452573379,0.70918584,-0.00013341059,0.00020125703,-0.7050216,0.7085141,7.020872e-11,-7.730704e-12,-0.7056967,1
1743177452585379,1743177452585379,0.7092421,-0.00012009769,0.0002449272,-0.70496505,0.7085141,7.020872e-11,-7.730704e-12,-0.7056967,1
1743177452593379,1743177452593379,0.7092662,-0.00012869055,0.0002355248,-0.7049408,0.7085141,7.020872e-11,-7.730704e-12,-0.7056967,1
1743177452605379,1743177452605379,0.7092866,-0.00016483958,0.00028059402,-0.70492023,0.7085141,7.020872e-11,-7.730704e-12,-0.7056967,1
1743177452613379,1743177452613379,0.70928925,-0.00016680775,0.000288247,-0.70491755,0.7085141,7.020872e-11,-7.730704e-12,-0.7056967,1
1743177452625379,1743177452625379,0.70927954,-0.00018413068,0.00031957397,-0.70492727,0.7085141,7.020872e-11,-7.730704e-12,-0.7056967,1
1743177452633379,1743177452633379,0.7092748,-0.00019588158,0.00032711338,-0.704932,0.7085141,7.020872e-11,-7.730704e-12,-0.7056967,1
1743177452645379,1743177452645379,0.70927393,-0.00015690192,0.00031448595,-0.7049329,0.7085141,7.020872e-11,-7.730704e-12,-0.7056967,1
1743177452653379,1743177452653379,0.709283,-0.00017359991,0.00035475177,-0.7049238,0.7085141,7.020872e-11,-7.730704e-12,-0.7056967,1
1743177452665379,1743177452665379,0.70927083,-0.0001991932,0.00034643547,-0.704936,0.7085141,7.020872e-11,-7.730704e-12,-0.7056967,1
1743177452673379,1743177452673379,0.70927715,-0.00020344237,0.0003461814,-0.70492965,0.7085141,7.020872e-11,-7.730704e-12,-0.7056967,1
1743177452685379,1743177452685379,0.70924073,-0.00020000056,0.00033975436,-0.7049663,0.7085141,7.020872e-11,-7.730704e-12,-0.7056967,1
1743177452693379,1743177452693379,0.7092421,-0.00018168142,0.00036136078,-0.7049649,0.7085141,7.020872e-11,-7.730704e-12,-0.7056967,1
1743177452705379,1743177452705379,0.7092489,-0.00015264815,0.00036992878,-0.7049581,0.7085141,7.020872e-11,-7.730704e-12,-0.7056967,1
1743177452713379,1743177452713379,0.7092475,-0.00015020197,0.00038449556,-0.70495945,0.7085141,7.020872e-11,-7.730704e-12,-0.7056967,1
1743177452725379,1743177452725379,0.7092365,-0.00012207031,0.00042898423,-0.70497054,0.7085141,7.020872e-11,-7.730704e-12,-0.7056967,1
1743177452733379,1743177452733379,0.7091988,-0.00012069046,0.0004438725,-0.7050085,0.7085141,7.020872e-11,-7.730704e-12,-0.7056967,1
1743177452745379,1743177452745379,0.709171,-0.00014207061,0.0004678003,-0.70503634,0.7085141,7.020872e-11,-7.730704e-12,-0.7056967,1
1743177452753379,1743177452753379,0.70916384,-0.00018049739,0.0004817811,-0.7050436,0.7085141,7.020872e-11,-7.730704e-12,-0.7056967,1
1743177452765379,1743177452765379,0.70913893,-0.00020986394,0.0004999821,-0.7050686,0.7085141,7.020872e-11,-7.730704e-12,-0.7056967,1
1743177452773379,1743177452773379,0.709126,-0.0002065662,0.00049560185,-0.7050816,0.7085141,7.020872e-11,-7.730704e-12,-0.7056967,1
1743177452785379,1743177452785379,0.7091542,-0.00018917107,0.00050678523,-0.7050533,0.7085141,7.020872e-11,-7.730704e-12,-0.7056967,1
1743177452793379,1743177452793379,0.70917237,-0.00020872727,0.00049293035,-0.7050349,0.7085141,7.020872e-11,-7.730704e-12,-0.7056967,1
1743177452805379,1743177452805379,0.7091473,-0.0001872069,0.00054364785,-0.7050601,0.7085141,7.020872e-11,-7.730704e-12,-0.7056967,1
1743177452813379,1743177452813379,0.7091461,-0.00018191892,0.00053887046,-0.7050614,0.7085141,7.020872e-11,-7.730704e-12,-0.7056967,1
1743177452825379,1743177452825379,0.7091499,-0.00023270014,0.0005469844,-0.70505756,0.7085141,7.020872e-11,-7.730704e-12,-0.7056967,1
1743177452833379,1743177452833379,0.7091483,-0.00023832014,0.0005719382,-0.7050592,0.7085141,7.020872e-11,-7.730704e-12,-0.7056967,1
1743177452845379,1743177452845379,0.7091048,-0.00025523215,0.00062459207,-0.7051028,0.7085141,7.020872e-11,-7.730704e-12,-0.7056967,1
1743177452853379,1743177452853379,0.70908767,-0.00027399627,0.0006679778,-0.70511997,0.7085141,7.020872e-11,-7.730704e-12,-0.7056967,1
1743177452865379,1743177452865379,0.7090676,-0.00028040243,0.0006758212,-0.7051402,0.7085141,7.020872e-11,-7.730704e-12,-0.7056967,1
1743177452873379,1743177452873379,0.7090566,-0.00030870436,0.00068593066,-0.7051512,0.7085141,7.020872e-11,-7.730704e-12,-0.7056967,1
1743177452885379,1743177452885379,0.70904523,-0.00032888033,0.0007083345,-0.70516264,0.7085141,7.020872e-11,-7.730704e-12,-0.7056967,1
1743177452893379,1743177452893379,0.70903283,-0.00029948415,0.00072729343,-0.705175,0.7085141,7.020872e-11,-7.730704e-12,-0.7056967,1
1743177452905379,1743177452905379,0.7090439,-0.00026108217,0.0007412542,-0.70516396,0.7085141,7.020872e-11,-7.730704e-12,-0.7056967,1
1743177452913379,1743177452913379,0.70904726,-0.00028497627,0.0007359724,-0.70516056,0.7085141,7.020872e-11,-7.730704e-12,-0.7056967,1
1743177452925379,1743177452925379,0.70906913,-0.0003061898,0.0007207147,-0.7051385,0.7085141,7.020872e-11,-7.730704e-12,-0.7056967,1
1743177452933379,1743177452933379,0.70906425,-0.0002817999,0.00072532316,-0.70514345,0.7085141,7.020872e-11,-7.730704e-12,-0.7056967,1
1743177452945379,1743177452945379,0.709076,-0.00025616743,0.00070941704,-0.7051317,0.7085141,7.020872e-11,-7.730704e-12,-0.7056967,1
1743177452953379,1743177452953379,0.7090603,-0.00022714854,0.0007042306,-0.70514745,0.7085141,7.020872e-11,-7.730704e-12,-0.7056967,1
1743177452965379,1743177452965379,0.7090671,-0.00022740186,0.000718011,-0.7051407,0.7085141,7.020872e-11,-7.730704e-12,-0.7056967,1
1743177452973379,1743177452973379,0.7090724,-0.00019656218,0.00070669584,-0.7051354,0.7085141,7.020872e-11,-7.730704e-12,-0.7056967,1
1743177452985379,1743177452985379,0.7090484,-0.00023331105,0.0006975562,-0.7051594,0.7085141,7.020872e-11,-7.730704e-12,-0.7056967,1
1743177452993379,1743177452993379,0.7090432,-0.00019025255,0.00066438847,-0.70516473,0.7085141,7.020872e-11,-7.730704e-12,-0.7056967,1
1743177453005379,1743177453005379,0.70903856,-0.00016832341,0.0006098004,-0.70516944,0.7085141,7.020872e-11,-7.730704e-12,-0.7056967,1
1743177453013379,1743177453013379,0.7090343,-0.00014184834,0.00061875203,-0.7051738,0.7085141,7.020872e-11,-7.730704e-12,-0.7056967,1
1743177453025379,1743177453025379,0.7090304,-0.0001743314,0.00063954695,-0.70517766,0.7085141,7.020872e-11,-7.730704e-12,-0.7056967,1
1743177453033379,1743177453033379,0.7090492,-0.00017541248,0.0006355134,-0.70515865,0.7085141,7.020872e-11,-7.730704e-12,-0.7056967,1
1743177453045379,1743177453045379,0.7090553,-0.00022061278,0.0006728295,-0.7051525,0.7085141,7.020872e-11,-7.730704e-12,-0.7056967,1
1743177453053379,1743177453053379,0.70906126,-0.0002464049,0.0006280062,-0.70514655,0.7085141,7.020872e-11,-7.730704e-12,-0.7056967,1
1743177453065379,1743177453065379,0.70908177,-0.0002473612,0.0006296026,-0.7051259,0.7085141,7.020872e-11,-7.730704e-12,-0.7056967,1
1743177453073379,1743177453073379,0.7090774,-0.0002493983,0.0006348674,-0.7051303,0.7085141,7.020872e-11,-7.730704e-12,-0.7056967,1
1743177453085379,1743177453085379,0.7090837,-0.00029874418,0.00057061855,-0.7051241,0.7085141,7.020872e-11,-7.730704e-12,-0.7056967,1
1743177453093379,1743177453093379,0.70908964,-0.00031213555,0.0005249465,-0.70511806,0.7085141,7.020872e-11,-7.730704e-12,-0.7056967,1
1743177453105379,1743177453105379,0.70911825,-0.00038197535,0.00056081417,-0.7050893,0.7085141,7.020872e-11,-7.730704e-12,-0.7056967,1
1743177453113379,1743177453113379,0.7091353,-0.00042595627,0.0005704127,-0.70507216,0.7085141,7.020872e-11,-7.730704e-12,-0.7056967,1
1743177453125379,1743177453125379,0.7091337,-0.00040731474,0.00055676815,-0.70507383,0.7085141,7.020872e-11,-7.730704e-12,-0.7056967,1
1743177453133379,1743177453133379,0.7091334,-0.00042593438,0.0005736414,-0.705074,0.7085141,7.020872e-11,-7.730704e-12,-0.7056967,1
1743177453145379,1743177453145379,0.70913917,-0.0004510371,0.0005842405,-0.7050682,0.7085141,7.020872e-11,-7.730704e-12,-0.7056967,1
1743177453153379,1743177453153379,0.70914674,-0.00046034204,0.00061828806,-0.7050606,0.7085141,7.020872e-11,-7.730704e-12,-0.7056967,1
1743177453165379,1743177453165379,0.70916057,-0.00041572016,0.0006067659,-0.7050467,0.7085141,7.020872e-11,-7.730704e-12,-0.7056967,1
1743177453173379,1743177453173379,0.7091728,-0.00039792762,0.00064748555,-0.7050344,0.7085141,7.020872e-11,-7.730704e-12,-0.7056967,1
1743177453185379,1743177453185379,0.7092256,-0.00038253717,0.0006482823,-0.70498127,0.7085141,7.020872e-11,-7.730704e-12,-0.7056967,1
1743177453193379,1743177453193379,0.70924544,-0.00038189255,0.0006559092,-0.7049613,0.7085141,7.020872e-11,-7.730704e-12,-0.7056967,1
1743177453205379,1743177453205379,0.7092648,-0.0004158563,0.00061125733,-0.70494175,0.7085141,7.020872e-11,-7.730704e-12,-0.7056967,1
1743177453213379,1743177453213379,0.70927364,-0.00042888205,0.0006220459,-0.7049329,0.7085141,7.020872e-11,-7.730704e-12,-0.7056967,1
1743177453225379,1743177453225379,0.70927083,-0.0004747494,0.00062392966,-0.7049357,0.7085141,7.020872e-11,-7.730704e-12,-0.7056967,1
1743177453233379,1743177453233379,0.7092786,-0.000501089,0.0005752581,-0.70492786,0.7085141,7.020872e-11,-7.730704e-12,-0.7056967,1
1743177453245379,1743177453245379,0.70929,-0.0005088989,0.0005793245,-0.70491636,0.7085141,7.020872e-11,-7.730704e-12,-0.7056967,1
1743177453253379,1743177453253379,0.7092986,-0.0005084036,0.0005866832,-0.7049078,0.7085141,7.020872e-11,-7.730704e-12,-0.7056967,1
1743177453265379,1743177453265379,0.70929074,-0.00048735357,0.0005779773,-0.7049157,0.7085141,7.020872e-11,-7.730704e-12,-0.7056967,1
1743177453273379,1743177453273379,0.7093116,-0.00052340305,0.0005587,-0.7048947,0.7085141,7.020872e-11,-7.730704e-12,-0.7056967,1
1743177453285379,1743177453285379,0.7092958,-0.00049956393,0.00050384854,-0.70491064,0.7085141,7.020872e-11,-7.730704e-12,-0.7056967,1
1743177453293379,1743177453293379,0.70930177,-0.00047046176,0.00050029665,-0.7049047,0.7085141,7.020872e-11,-7.730704e-12,-0.7056967,1
1743177453305379,1743177453305379,0.709284,-0.00046018814,0.0005326679,-0.7049225,0.7085141,7.020872e-11,-7.730704e-12,-0.7056967,1
1743177453313379,1743177453313379,0.7092811,-0.0004583038,0.0005194274,-0.7049255,0.7085141,7.020872e-11,-7.730704e-12,-0.7056967,1
1743177453325379,1743177453325379,0.70926636,-0.0004098492,0.0004637352,-0.7049404,0.7085141,7.020872e-11,-7.730704e-12,-0.7056967,1
1743177453333379,1743177453333379,0.70926726,-0.0004387582,0.00044226897,-0.7049394,0.7085141,7.020872e-11,-7.730704e-12,-0.7056967,1
1743177453345379,1743177453345379,0.7092646,-0.00047018446,0.00041369617,-0.7049421,0.7085141,7.020872e-11,-7.730704e-12,-0.7056967,1
1743177453353379,1743177453353379,0.70927,-0.00047824605,0.00043171755,-0.7049366,0.7085141,7.020872e-11,-7.730704e-12,-0.7056967,1
1743177453365379,1743177453365379,0.7092854,-0.00044316225,0.0004414146,-0.7049212,0.7085141,7.020872e-11,-7.730704e-12,-0.7056967,1
1743177453373379,1743177453373379,0.7092733,-0.0004196103,0.00046846745,-0.70493335,0.7085141,7.020872e-11,-7.730704e-12,-0.7056967,1
1743177453385379,1743177453385379,0.7092649,-0.0004214849,0.0005405044,-0.70494175,0.7085141,7.020872e-11,-7.730704e-12,-0.7056967,1
1743177453393379,1743177453393379,0.70927083,-0.00045887064,0.000554676,-0.7049357,0.7085141,7.020872e-11,-7.730704e-12,-0.7056967,1
1743177453405379,1743177453405379,0.7092584,-0.00043383794,0.00056859653,-0.70494837,0.7085141,7.020872e-11,-7.730704e-12,-0.7056967,1
1743177453413379,1743177453413379,0.7092658,-0.00038559886,0.0005128118,-0.70494086,0.7085141,7.020872e-11,-7.730704e-12,-0.7056967,1
1743177453425379,1743177453425379,0.70924056,-0.0003880833,0.0004866701,-0.70496625,0.7085141,7.020872e-11,-7.730704e-12,-0.7056967,1
1743177453433379,1743177453433379,0.70923996,-0.0003956464,0.0004496908,-0.70496696,0.7085141,7.020872e-11,-7.730704e-12,-0.7056967,1
1743177453445379,1743177453445379,0.70925474,-0.00038059134,0.00040943743,-0.7049521,0.7085141,7.020872e-11,-7.730704e-12,-0.7056967,1
1743177453453379,1743177453453379,0.7092611,-0.00036568218,0.0004163603,-0.7049457,0.7085141,7.020872e-11,-7.730704e-12,-0.7056967,1
1743177453465379,1743177453465379,0.70928407,-0.000296042,0.0004533982,-0.7049226,0.7085141,7.020872e-11,-7.730704e-12,-0.7056967,1
1743177453473379,1743177453473379,0.709282,-0.0002483495,0.0004187847,-0.7049247,0.7085141,7.020872e-11,-7.730704e-12,-0.7056967,1
1743177453485379,1743177453485379,0.709286,-0.00019951891,0.00044807745,-0.7049207,0.7085141,7.020872e-11,-7.730704e-12,-0.7056967,1
1743177453493379,1743177453493379,0.70926964,-0.00018801981,0.00044130793,-0.7049371,0.7085141,7.020872e-11,-7.730704e-12,-0.7056967,1
1743177453505379,1743177453505379,0.7092975,-0.00018761378,0.00044913028,-0.70490915,0.7085141,7.020872e-11,-7.730704e-12,-0.7056967,1
1743177453513379,1743177453513379,0.7093026,-0.00018758861,0.00047939146,-0.7049039,0.7085141,7.020872e-11,-7.730704e-12,-0.7056967,1
1743177453525379,1743177453525379,0.7093077,-0.00021666908,0.00045641023,-0.70489895,0.7085141,7.020872e-11,-7.730704e-12,-0.7056967,1
1743177453533379,1743177453533379,0.7093136,-0.00022272987,0.00043023986,-0.70489293,0.7085141,7.020872e-11,-7.730704e-12,-0.7056967,1
1743177453545379,1743177453545379,0.70929277,-0.00023141353,0.00041593434,-0.70491385,0.7085141,7.020872e-11,-7.730704e-12,-0.7056967,1
1743177453553379,1743177453553379,0.70927817,-0.00022563002,0.00039504122,-0.7049285,0.7085141,7.020872e-11,-7.730704e-12,-0.7056967,1
1743177453565379,1743177453565379,0.7092158,-0.0002220805,0.00043978848,-0.7049913,0.7085141,7.020872e-11,-7.730704e-12,-0.7056967,1
1743177453573379,1743177453573379,0.70919234,-0.00018283051,0.0004779857,-0.7050149,0.7085141,7.020872e-11,-7.730704e-12,-0.7056967,1
1743177453585379,1743177453585379,0.7091938,-0.00017128096,0.00048717027,-0.7050134,0.7085141,7.020872e-11,-7.730704e-12,-0.7056967,1
1743177453593379,1743177453593379,0.7092045,-0.00017086769,0.0004706289,-0.70500267,0.7085141,7.020872e-11,-7.730704e-12,-0.7056967,1
1743177453605379,1743177453605379,0.70920646,-0.00021382961,0.000493066,-0.70500064,0.7085141,7.020872e-11,-7.730704e-12,-0.7056967,1
1743177453613379,1743177453613379,0.70918745,-0.00024347105,0.0004933452,-0.7050198,0.7085141,7.020872e-11,-7.730704e-12,-0.7056967,1
1743177453625379,1743177453625379,0.709166,-0.0002345211,0.00050731556,-0.7050414,0.7085141,7.020872e-11,-7.730704e-12,-0.7056967,1
1743177453633379,1743177453633379,0.70915717,-0.00022161994,0.0005499313,-0.70505023,0.7085141,7.020872e-11,-7.730704e-12,-0.7056967,1
1743177453645379,1743177453645379,0.70916665,-0.00022800795,0.0005720108,-0.7050407,0.7085141,7.020872e-11,-7.730704e-12,-0.7056967,1
1743177453653379,1743177453653379,0.7091839,-0.00023741066,0.0005937008,-0.70502335,0.7085141,7.020872e-11,-7.730704e-12,-0.7056967,1
1743177453665379,1743177453665379,0.7092146,-0.0002256972,0.00061088346,-0.7049924,0.7085141,7.020872e-11,-7.730704e-12,-0.7056967,1
1743177453673379,1743177453673379,0.7092438,-0.00022483015,0.00063789653,-0.70496297,0.7085141,7.020872e-11,-7.730704e-12,-0.7056967,1
1743177453685379,1743177453685379,0.70925397,-0.00023449298,0.00061962055,-0.70495284,0.7085141,7.020872e-11,-7.730704e-12,-0.7056967,1
1743177453693379,1743177453693379,0.7092558,-0.00025761419,0.00063713844,-0.70495087,0.7085141,7.020872e-11,-7.730704e-12,-0.7056967,1
1743177453705379,1743177453705379,0.70926493,-0.0002343371,0.00059609185,-0.7049417,0.7085141,7.020872e-11,-7.730704e-12,-0.7056967,1
1743177453713379,1743177453713379,0.7092707,-0.00021235974,0.00059473526,-0.70493597,0.7085141,7.020872e-11,-7.730704e-12,-0.7056967,1
1743177453725379,1743177453725379,0.7092833,-0.00021924888,0.000572049,-0.7049234,0.7085141,7.020872e-11,-7.730704e-12,-0.7056967,1
1743177453733379,1743177453733379,0.70926416,-0.00018853263,0.00057824893,-0.7049425,0.7085141,7.020872e-11,-7.730704e-12,-0.7056967,1
1743177453745379,1743177453745379,0.7092975,-0.0001966712,0.0006021579,-0.70490897,0.7085141,7.020872e-11,-7.730704e-12,-0.7056967,1
1743177453753379,1743177453753379,0.7093047,-0.00022565386,0.000618501,-0.7049017,0.7085141,7.020872e-11,-7.730704e-12,-0.7056967,1
1743177453765379,1743177453765379,0.7093358,-0.00027164674,0.00058635214,-0.7048704,0.7085141,7.020872e-11,-7.730704e-12,-0.7056967,1
1743177453773379,1743177453773379,0.70934534,-0.0002647701,0.0005885165,-0.7048608,0.7085141,7.020872e-11,-7.730704e-12,-0.7056967,1
1743177453785379,1743177453785379,0.709356,-0.0002515917,0.0006345139,-0.70485014,0.7085141,7.020872e-11,-7.730704e-12,-0.7056967,1
1743177453793379,1743177453793379,0.70934784,-0.00026406135,0.0005985645,-0.70485836,0.7085141,7.020872e-11,-7.730704e-12,-0.7056967,1
1743177453805379,1743177453805379,0.7093454,-0.0002615825,0.0006156231,-0.7048608,0.7085141,7.020872e-11,-7.730704e-12,-0.7056967,1
1743177453813379,1743177453813379,0.70935374,-0.00022938359,0.0005889678,-0.7048524,0.7085141,7.020872e-11,-7.730704e-12,-0.7056967,1
1743177453825379,1743177453825379,0.7093419,-0.00017834447,0.0006324096,-0.7048643,0.7085141,7.020872e-11,-7.730704e-12,-0.7056967,1
1743177453833379,1743177453833379,0.7093484,-0.00016090529,0.0006787728,-0.70485777,0.7085141,7.020872e-11,-7.730704e-12,-0.7056967,1
1743177453845379,1743177453845379,0.70938796,-0.00010835529,0.000644645,-0.70481795,0.7085141,7.020872e-11,-7.730704e-12,-0.7056967,1
1743177453853379,1743177453853379,0.709393,-0.00011709458,0.00061605725,-0.70481294,0.7085141,7.020872e-11,-7.730704e-12,-0.7056967,1
1743177453865379,1743177453865379,0.70937324,-0.00013771886,0.00057746324,-0.7048328,0.7085141,7.020872e-11,-7.730704e-12,-0.7056967,1
1743177453873379,1743177453873379,0.7093414,-0.00017867863,0.0005566396,-0.70486486,0.7085141,7.020872e-11,-7.730704e-12,-0.7056967,1
1743177453885379,1743177453885379,0.7093422,-0.00019741256,0.000572258,-0.7048641,0.7085141,7.020872e-11,-7.730704e-12,-0.7056967,1
1743177453893379,1743177453893379,0.7093584,-0.00019790449,0.00057643943,-0.70484775,0.7085141,7.020872e-11,-7.730704e-12,-0.7056967,1
1743177453905379,1743177453905379,0.70937884,-0.00024310619,0.0005760133,-0.70482713,0.7085141,7.020872e-11,-7.730704e-12,-0.7056967,1
1743177453913379,1743177453913379,0.7093778,-0.00023568326,0.0005787772,-0.70482814,0.7085141,7.020872e-11,-7.730704e-12,-0.7056967,1
1743177453925379,1743177453925379,0.70938784,-0.00026221387,0.0006270741,-0.704818,0.7085141,7.020872e-11,-7.730704e-12,-0.7056967,1
1743177453933379,1743177453933379,0.7094031,-0.00029402447,0.0006372697,-0.70480263,0.7085141,7.020872e-11,-7.730704e-12,-0.7056967,1
1743177453945379,1743177453945379,0.70942384,-0.0003079425,0.00061973126,-0.70478183,0.7085141,7.020872e-11,-7.730704e-12,-0.7056967,1
1743177453953379,1743177453953379,0.70940423,-0.00029735256,0.00062668894,-0.7048015,0.7085141,7.020872e-11,-7.730704e-12,-0.7056967,1
1743177453965379,1743177453965379,0.70941037,-0.0002572197,0.00059582427,-0.7047954,0.7085141,7.020872e-11,-7.730704e-12,-0.7056967,1
1743177453973379,1743177453973379,0.7094115,-0.00022506194,0.0005904717,-0.7047943,0.7085141,7.020872e-11,-7.730704e-12,-0.7056967,1
1743177453985379,1743177453985379,0.7093989,-0.00018525014,0.00056642573,-0.7048069,0.7085141,7.020872e-11,-7.730704e-12,-0.7056967,1
1743177453993379,1743177453993379,0.7093919,-0.00014905845,0.00059689075,-0.7048141,0.7085141,7.020872e-11,-7.730704e-12,-0.7056967,1
1743177454005379,1743177454005379,0.709444,-0.00010088475,0.00057369896,-0.70476156,0.7085141,7.020872e-11,-7.730704e-12,-0.7056967,1
1743177454013379,1743177454013379,0.709457,-6.465662e-05,0.00056285027,-0.7047485,0.7085141,7.020872e-11,-7.730704e-12,-0.7056967,1
1743177454025379,1743177454025379,0.70945,-8.510379e-05,0.0005552146,-0.7047556,0.7085141,7.020872e-11,-7.730704e-12,-0.7056967,1
1743177454033379,1743177454033379,0.7094656,-6.5396736e-05,0.0005383337,-0.70473987,0.7085141,7.020872e-11,-7.730704e-12,-0.7056967,1
1743177454045379,1743177454045379,0.70947486,-8.6448694e-05,0.0005044017,-0.7047306,0.7085141,7.020872e-11,-7.730704e-12,-0.7056967,1
1743177454053379,1743177454053379,0.7094954,-7.419979e-05,0.000477754,-0.70470995,0.7085141,7.020872e-11,-7.730704e-12,-0.7056967,1
1743177454065379,1743177454065379,0.7094935,-7.6827455e-05,0.00048425412,-0.7047118,0.7085141,7.020872e-11,-7.730704e-12,-0.7056967,1
1743177454073379,1743177454073379,0.70949644,-9.4358584e-05,0.00044977735,-0.7047089,0.7085141,7.020872e-11,-7.730704e-12,-0.7056967,1
1743177454085379,1743177454085379,0.70950484,-0.00013686944,0.00047432858,-0.70470047,0.7085141,7.020872e-11,-7.730704e-12,-0.7056967,1
1743177454093379,1743177454093379,0.7095204,-0.00016918471,0.00048770758,-0.7046848,0.7085141,7.020872e-11,-7.730704e-12,-0.7056967,1
1743177454105379,1743177454105379,0.70953816,-0.00015634217,0.0004296982,-0.7046669,0.7085141,7.020872e-11,-7.730704e-12,-0.7056967,1
1743177454113379,1743177454113379,0.7095328,-0.00013309298,0.00043681855,-0.70467234,0.7085141,7.020872e-11,-7.730704e-12,-0.7056967,1
1743177454125379,1743177454125379,0.70948845,-0.00016105932,0.0004315491,-0.704717,0.7085141,7.020872e-11,-7.730704e-12,-0.7056967,1
1743177454133379,1743177454133379,0.7094844,-0.00015333781,0.000388141,-0.7047211,0.7085141,7.020872e-11,-7.730704e-12,-0.7056967,1
1743177454145379,1743177454145379,0.7095168,-0.00015094233,0.0004046303,-0.7046884,0.7085141,7.020872e-11,-7.730704e-12,-0.7056967,1
1743177454153379,1743177454153379,0.70954955,-0.0001777133,0.0004098038,-0.7046554,0.7085141,7.020872e-11,-7.730704e-12,-0.7056967,1
1743177454165379,1743177454165379,0.7095378,-0.00019193567,0.00044494538,-0.7046672,0.7085141,7.020872e-11,-7.730704e-12,-0.7056967,1
1743177454173379,1743177454173379,0.7095507,-0.00015946687,0.0004302091,-0.7046543,0.7085141,7.020872e-11,-7.730704e-12,-0.7056967,1
1743177454185379,1743177454185379,0.7095697,-0.00011857664,0.00041702794,-0.7046352,0.7085141,7.020872e-11,-7.730704e-12,-0.7056967,1
1743177454193379,1743177454193379,0.70958793,-0.000104325205,0.0004211841,-0.70461684,0.7085141,7.020872e-11,-7.730704e-12,-0.7056967,1
1743177454205379,1743177454205379,0.70957255,-9.6681004e-05,0.0004005202,-0.70463234,0.7085141,7.020872e-11,-7.730704e-12,-0.7056967,1
1743177454213379,1743177454213379,0.7095789,-9.862091e-05,0.00038025435,-0.70462596,0.7085141,7.020872e-11,-7.730704e-12,-0.7056967,1
1743177454225379,1743177454225379,0.7095743,-0.00010996079,0.00038833116,-0.70463055,0.7085141,7.020872e-11,-7.730704e-12,-0.7056967,1
1743177454233379,1743177454233379,0.7095771,-0.00011094054,0.00036643245,-0.70462775,0.7085141,7.020872e-11,-7.730704e-12,-0.7056967,1
1743177454245379,1743177454245379,0.7095461,-0.00010192152,0.0003242903,-0.704659,0.7085141,7.020872e-11,-7.730704e-12,-0.7056967,1
1743177454253379,1743177454253379,0.7095464,-0.00010718976,0.00031417998,-0.7046587,0.7085141,7.020872e-11,-7.730704e-12,-0.7056967,1
1743177454265379,1743177454265379,0.7095308,-9.884905e-05,0.00028436322,-0.7046745,0.7085141,7.020872e-11,-7.730704e-12,-0.7056967,1
1743177454273379,1743177454273379,0.7095117,-0.00014239042,0.00024691902,-0.7046936,0.7085141,7.020872e-11,-7.730704e-12,-0.7056967,1
1743177454285379,1743177454285379,0.70954853,-0.00017847259,0.0002109559,-0.70465654,0.7085141,7.020872e-11,-7.730704e-12,-0.7056967,1
1743177454293379,1743177454293379,0.70955056,-0.00015890473,0.00018518844,-0.7046545,0.7085141,7.020872e-11,-7.730704e-12,-0.7056967,1
1743177454305379,1743177454305379,0.7095355,-0.00013425342,0.00016997133,-0.7046697,0.7085141,7.020872e-11,-7.730704e-12,-0.7056967,1
1743177454313379,1743177454313379,0.7095421,-0.00013282796,0.00012845069,-0.70466304,0.7085141,7.020872e-11,-7.730704e-12,-0.7056967,1
1743177454325379,1743177454325379,0.709533,-0.00012494324,0.00010969307,-0.7046723,0.7085141,7.020872e-11,-7.730704e-12,-0.7056967,1
