timestamp,timestamp_sample,device_id,pressure,temperature,error_count
1743177450729379,1743177450729379,6620172,101330.58,0.77645665,0
1743177451729379,1743177451729379,6620172,101339.13,0.11219145,0
1743177452729379,1743177452729379,6620172,101343.29,-0.862156,0
1743177453729379,1743177453729379,6620172,101340.016,-0.18913975,0
1743177454729379,1743177454729379,6620172,101319.58,0.30369735,0
1743177455729379,1743177455729379,6620172,101314.66,-0.98446625,0
1743177456729379,1743177456729379,6620172,101349.39,0.8778292,0
1743177457729379,1743177457729379,6620172,101306.54,-0.8229482,0
1743177458729379,1743177458729379,6620172,101325.45,0.36836383,0
1743177459729379,1743177459729379,6620172,101293.01,-0.05682039,0
1743177460729379,1743177460729379,6620172,101261.51,0.9210508,0
1743177461729379,1743177461729379,6620172,101223.49,-0.746849,0
1743177462729379,1743177462729379,6620172,101184.64,-0.9679547,0
1743177463729379,1743177463729379,6620172,101172.125,-0.3522206,0
1743177464729379,1743177464729379,6620172,101132.164,-0.2990599,0
1743177465729379,1743177465729379,6620172,101082.375,-0.8083917,0
1743177466729379,1743177466729379,6620172,101071.02,-0.6080277,0
1743177467729379,1743177467729379,6620172,101056.27,0.88083273,0
1743177468729379,1743177468729379,6620172,101036.79,0.006676797,0
1743177469729379,1743177469729379,6620172,101032.13,-0.19518542,0
1743177470729379,1743177470729379,6620172,101047.5,0.7088278,0
1743177471729379,1743177471729379,6620172,101016.984,0.7568052,0
1743177472729379,1743177472729379,6620172,101034.06,-0.25137237,0
1743177473729379,1743177473729379,6620172,101016.445,-0.6774094,0
1743177474729379,1743177474729379,6620172,101022.8,0.9468404,0
1743177475729379,1743177475729379,6620172,100995.945,0.94970804,0
1743177476729379,1743177476729379,6620172,101024.93,0.986187,0
1743177477729379,1743177477729379,6620172,101039.14,-0.3749369,0
1743177478729379,1743177478729379,6620172,101015.82,-0.42049906,0
1743177479729379,1743177479729379,6620172,101028.42,0.56482273,0
1743177480729379,1743177480729379,6620172,101040.836,-0.93250537,0
1743177481729379,1743177481729379,6620172,101023.56,0.97959673,0
1743177482729379,1743177482729379,6620172,101026.96,-0.20592077,0
1743177483729379,1743177483729379,6620172,101039.89,-0.16589989,0
1743177484729379,1743177484729379,6620172,101020.92,-0.5061501,0
1743177485725379,1743177485725379,6620172,101022.086,-0.011519369,0
1743177486729379,1743177486729379,6620172,101017.0,0.97116417,0
1743177487729379,1743177487729379,6620172,101002.49,-0.21210758,0
1743177488729379,1743177488729379,6620172,101015.58,-0.5780314,0
1743177489729379,1743177489729379,6620172,101019.016,-0.95314837,0
1743177490729379,1743177490729379,6620172,101016.73,-0.3047542,0
1743177491729379,1743177491729379,6620172,101036.62,-0.06382211,0
1743177492729379,1743177492729379,6620172,101015.01,-0.9542679,0
1743177493729379,1743177493729379,6620172,101023.7,-0.12544994,0
1743177494729379,1743177494729379,6620172,101010.39,-0.6203791,0
1743177495729379,1743177495729379,6620172,101032.68,0.221752,0
1743177496729379,1743177496729379,6620172,101018.71,-0.2647217,0
1743177497729379,1743177497729379,6620172,101016.23,0.7424511,0
1743177498729379,1743177498729379,6620172,101009.78,-0.43355507,0
1743177499729379,1743177499729379,6620172,101014.88,0.81610274,0
1743177500729379,1743177500729379,6620172,101019.12,0.12634097,0
1743177501729379,1743177501729379,6620172,101005.33,0.6585778,0
1743177502725379,1743177502725379,6620172,101011.34,0.155173,0
1743177503729379,1743177503729379,6620172,101017.18,0.22189151,0
1743177504729379,1743177504729379,6620172,101028.055,-0.27179086,0
1743177505729379,1743177505729379,6620172,101017.305,0.31414172,0
1743177506729379,1743177506729379,6620172,101023.984,0.42299,0
1743177507729379,1743177507729379,6620172,101028.75,0.026191719,0
1743177508729379,1743177508729379,6620172,101030.12,-0.68252414,0
1743177509729379,1743177509729379,6620172,101046.46,-0.25747308,0
1743177510729379,1743177510729379,6620172,101045.38,0.51102006,0
1743177511729379,1743177511729379,6620172,101035.53,-0.3003844,0
1743177512729379,1743177512729379,6620172,101017.2,0.5113876,0
1743177513729379,1743177513729379,6620172,101032.56,-0.6509463,0
1743177514729379,1743177514729379,6620172,101010.5,0.16865729,0
1743177515729379,1743177515729379,6620172,101029.45,-0.39989772,0
1743177516729379,1743177516729379,6620172,100995.7,-0.29169965,0
1743177517729379,1743177517729379,6620172,101034.41,0.93760026,0
1743177518729379,1743177518729379,6620172,101030.45,-0.20324199,0
1743177519729379,1743177519729379,6620172,101020.72,-0.69624734,0
1743177520729379,1743177520729379,6620172,101014.79,0.6703794,0
1743177521729379,1743177521729379,6620172,101025.6,-0.67912483,0
1743177522729379,1743177522729379,6620172,101010.39,0.30041867,0
1743177523729379,1743177523729379,6620172,101015.36,0.23445062,0
1743177524729379,1743177524729379,6620172,101033.484,0.29378667,0
1743177525729379,1743177525729379,6620172,101027.66,-0.72453934,0
1743177526729379,1743177526729379,6620172,101030.664,0.66078866,0
1743177527729379,1743177527729379,6620172,101018.555,0.6655897,0
1743177528729379,1743177528729379,6620172,101020.11,-0.77796334,0
1743177529729379,1743177529729379,6620172,101018.84,0.24981424,0
1743177530729379,1743177530729379,6620172,101019.82,0.88768166,0
1743177531729379,1743177531729379,6620172,101002.5,-0.34337428,0
1743177532729379,1743177532729379,6620172,101008.44,0.2620173,0
1743177533729379,1743177533729379,6620172,101020.83,-0.2624839,0
1743177534729379,1743177534729379,6620172,101040.78,-0.5135514,0
1743177535729379,1743177535729379,6620172,101024.42,-0.16615532,0
1743177536729379,1743177536729379,6620172,101031.57,0.1819383,0
1743177537729379,1743177537729379,6620172,101019.61,-0.8954991,0
1743177538729379,1743177538729379,6620172,101032.41,0.24611808,0
1743177539729379,1743177539729379,6620172,101019.71,-0.26443037,0
1743177540729379,1743177540729379,6620172,101012.99,0.43612486,0
1743177541729379,1743177541729379,6620172,101035.77,-0.64029187,0
1743177542729379,1743177542729379,6620172,101020.13,0.82316935,0
1743177543729379,1743177543729379,6620172,101030.82,-0.7030085,0
1743177544729379,1743177544729379,6620172,101024.38,-0.7253582,0
1743177545729379,1743177545729379,6620172,101010.95,-0.88371426,0
1743177546729379,1743177546729379,6620172,101032.42,-0.26501676,0
1743177547729379,1743177547729379,6620172,101018.12,-0.02368468,0
1743177548729379,1743177548729379,6620172,101014.2,0.42143977,0
1743177549729379,1743177549729379,6620172,101003.36,-0.4934761,0
1743177550729379,1743177550729379,6620172,101005.4,0.6937788,0
1743177551729379,1743177551729379,6620172,101008.02,0.08985447,0
1743177552729379,1743177552729379,6620172,101025.48,-0.8506111,0
1743177553729379,1743177553729379,6620172,101035.23,0.24056472,0
1743177554729379,1743177554729379,6620172,101029.98,-0.14982577,0
1743177555729379,1743177555729379,6620172,101015.27,-0.5168144,0
1743177556729379,1743177556729379,6620172,101022.37,-0.4269004,0
1743177557729379,1743177557729379,6620172,101032.21,-0.103343464,0
1743177558729379,1743177558729379,6620172,101039.4,-0.75829446,0
1743177559729379,1743177559729379,6620172,101006.66,0.5998905,0
1743177560729379,1743177560729379,6620172,101037.234,0.04522427,0
1743177561729379,1743177561729379,6620172,101028.16,-0.20369788,0
1743177562729379,1743177562729379,6620172,101022.055,-0.3199682,0
1743177563729379,1743177563729379,6620172,101035.3,0.5480945,0
1743177564729379,1743177564729379,6620172,101031.92,0.8678357,0
1743177565729379,1743177565729379,6620172,101001.016,-0.3331047,0
1743177566729379,1743177566729379,6620172,101018.4,0.30270147,0
1743177567729379,1743177567729379,6620172,101044.41,0.30230093,0
1743177568729379,1743177568729379,6620172,101036.59,-0.24720122,0
1743177569729379,1743177569729379,6620172,101046.38,0.3451743,0
1743177570729379,1743177570729379,6620172,101031.016,-0.9341888,0
1743177571729379,1743177571729379,6620172,101021.33,0.071252406,0
1743177572729379,1743177572729379,6620172,101031.016,-0.06837037,0
1743177573729379,1743177573729379,6620172,101058.33,0.6062532,0
1743177574729379,1743177574729379,6620172,101090.63,0.34610617,0
1743177575729379,1743177575729379,6620172,101088.445,-0.22892013,0
1743177576729379,1743177576729379,6620172,101127.29,-0.49558896,0
1743177577729379,1743177577729379,6620172,101121.945,0.002709936,0
1743177578729379,1743177578729379,6620172,101169.8,-0.13056673,0
1743177579729379,1743177579729379,6620172,101158.83,-0.43316755,0
1743177580729379,1743177580729379,6620172,101198.78,0.42052668,0
1743177581729379,1743177581729379,6620172,101194.72,0.02173498,0
1743177582729379,1743177582729379,6620172,101213.88,0.44588202,0
1743177583729379,1743177583729379,6620172,101208.836,0.35943744,0
1743177584729379,1743177584729379,6620172,101228.19,0.908414,0
1743177585729379,1743177585729379,6620172,101238.36,0.9484886,0
1743177586729379,1743177586729379,6620172,101238.72,-0.3827396,0
1743177587729379,1743177587729379,6620172,101266.24,0.14595819,0
1743177588729379,1743177588729379,6620172,101274.78,-0.85870856,0
1743177589725379,1743177589725379,6620172,101285.3,0.6836062,0
1743177590729379,1743177590729379,6620172,101298.1,0.29676387,0
1743177591729379,1743177591729379,6620172,101312.64,-0.17543893,0
1743177592729379,1743177592729379,6620172,101314.57,-0.118429966,0
1743177593729379,1743177593729379,6620172,101331.99,-0.11664476,0
1743177594729379,1743177594729379,6620172,101336.01,-0.3224445,0
1743177595729379,1743177595729379,6620172,101338.19,-0.8724941,0
