timestamp,timestamp_sample,device_id,x,y,z,temperature,error_count,clip_counter[0],clip_counter[1],clip_counter[2],samples
1743177450697379,1743177450697379,1310988,0.00479369,-0.0026631611,-0.0063915867,0.8473224,0,0,0,0,1
1743177451697379,1743177451697379,1310988,-0.014913702,-0.008522116,-0.007989483,0.30991974,0,0,0,0,1
1743177452697379,1743177452697379,1310988,0.0,0.0053263223,-0.0005326322,0.9365223,0,0,0,0,1
1743177453697379,1743177453697379,1310988,0.007456851,-0.011717909,0.0015978967,-0.08893303,0,0,0,0,1
1743177454697379,1743177454697379,1310988,0.0031957934,0.0026631611,-0.0053263223,0.44113052,0,0,0,0,1
1743177455697379,1743177455697379,1310988,-0.0127831735,0.0053263223,-0.012250541,-0.015658574,0,0,0,0,1
1743177456697379,1743177456697379,1310988,0.0031957934,0.0063915867,0.00479369,0.680323,0,0,0,0,1
1743177457697379,1743177457697379,1310988,0.00958738,0.002130529,0.00958738,0.2251173,0,0,0,0,1
1743177458697379,1743177458697379,1310988,-0.023435818,-0.002130529,0.004261058,-0.20063128,0,0,0,0,1
1743177459697379,1743177459697379,1310988,-0.0005326322,0.0058589545,-0.0005326322,-0.99745184,0,0,0,0,1
1743177460697379,1743177460697379,1310988,0.029827405,-0.027164243,0.0015978967,-0.6897003,0,0,0,0,1
1743177461697379,1743177461697379,1310988,0.0974717,-0.07243799,-0.0015978967,0.096643254,0,0,0,0,1
1743177462697379,1743177462697379,1310988,0.007989483,0.013848438,-0.029827405,0.19741137,0,0,0,0,1
1743177463697379,1743177463697379,1310988,-0.007989483,-0.004261058,0.027696876,0.48928645,0,0,0,0,1
1743177464697379,1743177464697379,1310988,0.00479369,0.0005326322,0.015446335,0.59370786,0,0,0,0,1
1743177465697379,1743177465697379,1310988,-0.0031957934,0.004261058,0.008522116,0.48448378,0,0,0,0,1
1743177466697379,1743177466697379,1310988,0.0031957934,-0.015978966,-0.010652645,-0.75787425,0,0,0,0,1
1743177467697379,1743177467697379,1310988,0.0037284256,0.0,0.004261058,-0.86059636,0,0,0,0,1
1743177468697379,1743177468697379,1310988,0.0005326322,-0.0005326322,0.00958738,0.0006435549,0,0,0,0,1
1743177469697379,1743177469697379,1310988,0.14114754,-0.027164243,0.0026631611,0.54964125,0,0,0,0,1
1743177470697379,1743177470697379,1310988,-0.042077947,-0.3392867,0.15233281,0.39931765,0,0,0,0,1
1743177471697379,1743177471697379,1310988,0.035153728,0.32597092,-0.072970614,-0.25903365,0,0,0,0,1
1743177472697379,1743177472697379,1310988,-0.029827405,-0.14221281,0.11558119,0.44676656,0,0,0,0,1
1743177473697379,1743177473697379,1310988,-0.42077947,0.07137272,-0.3749731,-0.5627611,0,0,0,0,1
1743177474697379,1743177474697379,1310988,0.45806372,-0.18961707,-0.8005462,0.13567679,0,0,0,0,1
1743177475697379,1743177475697379,1310988,0.0974717,0.48735848,0.30360037,0.09919493,0,0,0,0,1
1743177476697379,1743177476697379,1310988,-0.013315806,0.37017938,-0.044208474,0.14138621,0,0,0,0,1
1743177477697379,1743177477697379,1310988,-0.09427591,-0.00479369,-0.046871636,-0.77830327,0,0,0,0,1
1743177478697379,1743177478697379,1310988,-0.039947417,-0.0015978967,-0.092145376,0.34626427,0,0,0,0,1
1743177479697379,1743177479697379,1310988,-0.021837922,-0.04580637,-0.21891184,-0.9761848,0,0,0,0,1
1743177480697379,1743177480697379,1310988,0.0005326322,-0.027164243,-0.34621096,0.99713856,0,0,0,0,1
1743177481697379,1743177481697379,1310988,0.2231729,0.1603223,0.69987875,-0.8050768,0,0,0,0,1
1743177482697379,1743177482697379,1310988,-0.056459017,-0.008522116,0.8586032,-0.08706664,0,0,0,0,1
1743177483697379,1743177483697379,1310988,0.098004326,0.32756883,-0.5422196,-0.06305664,0,0,0,0,1
1743177484697379,1743177484697379,1310988,-0.020772656,-0.002130529,0.23755397,0.13067158,0,0,0,0,1
1743177485697379,1743177485697379,1310988,-0.013315806,0.012250541,-0.12836437,0.9027779,0,0,0,0,1
1743177486697379,1743177486697379,1310988,-0.0037284256,0.008522116,-0.010652645,-0.28465867,0,0,0,0,1
1743177487697379,1743177487697379,1310988,0.0031957934,-0.017576864,-0.11717909,-0.15632883,0,0,0,0,1
1743177488697379,1743177488697379,1310988,0.0015978967,-0.032490566,-0.13315806,-0.84114194,0,0,0,0,1
1743177489697379,1743177489697379,1310988,0.2977414,-0.44528055,-1.2197278,-0.28172973,0,0,0,0,1
1743177490697379,1743177490697379,1310988,-0.2647182,0.36645097,0.700944,-0.22527215,0,0,0,0,1
1743177491697379,1743177491697379,1310988,0.00958738,-0.04580637,-0.32969934,0.13597059,0,0,0,0,1
1743177492697379,1743177492697379,1310988,0.23915187,-0.39574575,1.4588797,0.40767008,0,0,0,0,1
1743177493697379,1743177493697379,1310988,0.011717909,-0.07243799,-0.8069378,-0.06981317,0,0,0,0,1
1743177494697379,1743177494697379,1310988,0.0053263223,-0.0777643,0.3637878,0.38893175,0,0,0,0,1
1743177495697379,1743177495697379,1310988,0.00479369,-0.015446335,-0.15978967,0.5880125,0,0,0,0,1
1743177496697379,1743177496697379,1310988,-0.007989483,-0.004261058,0.06391586,0.82214385,0,0,0,0,1
1743177497697379,1743177497697379,1310988,-0.0058589545,-0.01438107,-0.010120012,0.7777802,0,0,0,0,1
1743177498697379,1743177498697379,1310988,0.011185277,0.0010652645,0.016511599,0.5147815,0,0,0,0,1
1743177499697379,1743177499697379,1310988,0.00958738,0.029827405,0.008522116,0.724951,0,0,0,0,1
1743177500697379,1743177500697379,1310988,0.011717909,0.04474111,0.0,0.73918754,0,0,0,0,1
1743177501697379,1743177501697379,1310988,0.007989483,0.011717909,0.020240024,0.82639945,0,0,0,0,1
1743177502697379,1743177502697379,1310988,-0.43196473,0.019707393,-0.23382555,0.9457852,0,0,0,0,1
1743177503697379,1743177503697379,1310988,0.41278997,-0.15499598,-0.7669904,-0.9693161,0,0,0,0,1
1743177504697379,1743177504697379,1310988,0.12783173,0.4213121,0.2625877,-0.636696,0,0,0,0,1
1743177505697379,1743177505697379,1310988,0.03355583,-0.07456851,-0.036751624,-0.6317515,0,0,0,0,1
1743177506697379,1743177506697379,1310988,0.010120012,-0.013315806,-0.03888215,0.50115126,0,0,0,0,1
1743177507697379,1743177507697379,1310988,-0.017576864,0.011717909,0.007989483,0.9247475,0,0,0,0,1
1743177508697379,1743177508697379,1310988,-0.017044231,0.025566347,-0.1107875,-0.21677732,0,0,0,0,1
1743177509697379,1743177509697379,1310988,-0.20080236,-0.5022722,0.94968325,-0.9813064,0,0,0,0,1
1743177510697379,1743177510697379,1310988,0.17310548,0.39894155,-0.055926383,-0.9177996,0,0,0,0,1
1743177511697379,1743177511697379,1310988,-0.06178534,0.32011196,0.2263687,-0.22966571,0,0,0,0,1
1743177512697379,1743177512697379,1310988,-0.0314253,-0.11504856,0.030360037,0.3334418,0,0,0,0,1
1743177513697379,1743177513697379,1310988,0.1272991,-0.41172472,-1.3688648,-0.45032796,0,0,0,0,1
1743177514697379,1743177514697379,1310988,-0.32277513,0.33822146,0.7142598,0.4359986,0,0,0,0,1
1743177515697379,1743177515697379,1310988,-0.01917476,-0.22370553,-0.45540056,0.47128978,0,0,0,0,1
1743177516697379,1743177516697379,1310988,0.18588865,0.0031957934,0.6673882,0.56259227,0,0,0,0,1
1743177517697379,1743177517697379,1310988,-0.05486112,0.046871636,0.3920173,-0.33950785,0,0,0,0,1
1743177518697379,1743177518697379,1310988,-0.111852765,0.2647182,-0.09534117,0.7702834,0,0,0,0,1
1743177519697379,1743177519697379,1310988,0.020772656,0.0053263223,-0.034088463,0.90082484,0,0,0,0,1
1743177520697379,1743177520697379,1310988,0.25726137,-0.36591834,0.053795855,0.19935021,0,0,0,0,1
1743177521697379,1743177521697379,1310988,-0.066046394,0.17257284,0.0063915867,-0.26736864,0,0,0,0,1
1743177522697379,1743177522697379,1310988,-0.099069595,0.084155895,-0.039414786,0.100865886,0,0,0,0,1
1743177523697379,1743177523697379,1310988,0.0037284256,0.044208474,-0.013315806,0.6834988,0,0,0,0,1
1743177524697379,1743177524697379,1310988,0.016511599,-0.00479369,-0.012250541,-0.7512615,0,0,0,0,1
1743177525697379,1743177525697379,1310988,-0.020240024,-0.004261058,-0.013315806,-0.8123812,0,0,0,0,1
1743177526697379,1743177526697379,1310988,-0.0037284256,0.018109497,-0.056991648,-0.5467735,0,0,0,0,1
1743177527697379,1743177527697379,1310988,-0.47191215,0.004261058,-0.29827404,0.86897045,0,0,0,0,1
1743177528697379,1743177528697379,1310988,-0.20133498,0.6061355,-0.17576863,-0.4216786,0,0,0,0,1
1743177529697379,1743177529697379,1310988,-0.06870956,-0.2514024,-0.57790595,-0.29326528,0,0,0,0,1
1743177530697379,1743177530697379,1310988,-0.039414786,-0.5885586,1.4189322,0.46509734,0,0,0,0,1
1743177531697379,1743177531697379,1310988,0.28229508,0.33822146,-0.35739622,0.9813653,0,0,0,0,1
1743177532697379,1743177532697379,1310988,0.054328486,-0.19121496,0.37444046,0.58252406,0,0,0,0,1
1743177533697379,1743177533697379,1310988,0.09534117,-0.35579833,-1.1467572,0.012803386,0,0,0,0,1
1743177534697379,1743177534697379,1310988,-0.304133,-0.23009712,0.8809737,0.5193439,0,0,0,0,1
1743177535697379,1743177535697379,1310988,-0.016511599,-0.07669904,0.8591358,0.2927186,0,0,0,0,1
1743177536697379,1743177536697379,1310988,0.02876214,-0.20080236,-0.43729106,-0.8555381,0,0,0,0,1
1743177537697379,1743177537697379,1310988,0.18961707,-0.42024684,-1.1536814,0.7047618,0,0,0,0,1
1743177538697379,1743177538697379,1310988,-0.17150758,0.45593318,0.8048073,0.113763124,0,0,0,0,1
1743177539697379,1743177539697379,1310988,-0.060720075,-0.23276028,-0.45327002,0.5280756,0,0,0,0,1
1743177540697379,1743177540697379,1310988,0.4958806,0.053263225,0.35100463,-0.42587763,0,0,0,0,1
1743177541697379,1743177541697379,1310988,-0.14327806,-0.049534798,0.76965356,-0.39501178,0,0,0,0,1
1743177542697379,1743177542697379,1310988,-0.06657903,0.42983422,-0.29454562,-0.9447574,0,0,0,0,1
1743177543697379,1743177543697379,1310988,0.025566347,-0.21837921,0.08362326,0.14968538,0,0,0,0,1
1743177544697379,1743177544697379,1310988,0.02609898,-0.042077947,0.18269286,0.085646056,0,0,0,0,1
1743177545697379,1743177545697379,1310988,0.43249738,0.40266997,-1.1888351,0.15686977,0,0,0,0,1
1743177546697379,1743177546697379,1310988,0.06178534,-0.05752428,0.79255676,0.12279072,0,0,0,0,1
1743177547697379,1743177547697379,1310988,0.07190535,-0.056459017,-0.16192019,0.624547,0,0,0,0,1
1743177548697379,1743177548697379,1310988,-0.080960095,-0.10705908,0.108124346,0.24168941,0,0,0,0,1
1743177549697379,1743177549697379,1310988,0.018642128,0.09161274,-0.008522116,-0.3081319,0,0,0,0,1
1743177550697379,1743177550697379,1310988,0.018109497,0.13688648,0.0,0.5158067,0,0,0,0,1
1743177551697379,1743177551697379,1310988,-0.014913702,-0.04527374,0.040480047,0.05902272,0,0,0,0,1
1743177552697379,1743177552697379,1310988,0.0,0.03195793,-0.0037284256,0.3553576,0,0,0,0,1
1743177553697379,1743177553697379,1310988,0.011185277,0.021837922,0.047404267,0.4193347,0,0,0,0,1
1743177554697379,1743177554697379,1310988,-0.020240024,0.0015978967,0.07137272,-0.45059374,0,0,0,0,1
1743177555697379,1743177555697379,1310988,0.34141725,-0.029827405,0.056991648,0.048140183,0,0,0,0,1
1743177556697379,1743177556697379,1310988,-0.17257284,-0.13209279,0.30306774,-0.52458286,0,0,0,0,1
1743177557697379,1743177557697379,1310988,-0.07669904,0.19441076,0.0058589545,-0.8115006,0,0,0,0,1
1743177558697379,1743177558697379,1310988,0.0053263223,-0.10439592,-0.096939065,0.095120125,0,0,0,0,1
1743177559697379,1743177559697379,1310988,-0.036751624,0.0058589545,0.05539375,-0.7912989,0,0,0,0,1
1743177560697379,1743177560697379,1310988,-0.011185277,-0.012250541,-0.02130529,0.96095896,0,0,0,0,1
1743177561697379,1743177561697379,1310988,-0.002130529,-0.0058589545,0.01917476,-0.6261037,0,0,0,0,1
1743177562697379,1743177562697379,1310988,0.0031957934,-0.011185277,-0.0031957934,0.67505074,0,0,0,0,1
1743177563697379,1743177563697379,1310988,0.004261058,-0.013315806,0.0031957934,-0.29612416,0,0,0,0,1
1743177564697379,1743177564697379,1310988,0.0058589545,-0.0058589545,-0.004261058,-0.75328046,0,0,0,0,1
1743177565697379,1743177565697379,1310988,0.0015978967,-0.011717909,0.0026631611,0.28534117,0,0,0,0,1
1743177566697379,1743177566697379,1310988,-0.006924219,-0.021837922,0.01438107,0.63159865,0,0,0,0,1
1743177567697379,1743177567697379,1310988,0.015446335,-0.0005326322,0.00958738,0.019074276,0,0,0,0,1
1743177568697379,1743177568697379,1310988,0.024501082,0.037284255,-0.00479369,0.4237053,0,0,0,0,1
1743177569697379,1743177569697379,1310988,0.012250541,0.036751624,0.01917476,-0.8003727,0,0,0,0,1
1743177570697379,1743177570697379,1310988,0.013315806,0.010652645,0.03568636,0.31872767,0,0,0,0,1
1743177571697379,1743177571697379,1310988,0.048469532,0.055926383,0.010120012,-0.7471766,0,0,0,0,1
1743177572697379,1743177572697379,1310988,0.05752428,0.06338324,0.004261058,0.088766426,0,0,0,0,1
1743177573697379,1743177573697379,1310988,-0.012250541,0.024501082,-0.002130529,-0.124107555,0,0,0,0,1
1743177574697379,1743177574697379,1310988,0.004261058,-0.00479369,-0.0010652645,0.7821168,0,0,0,0,1
1743177575697379,1743177575697379,1310988,-0.0015978967,-0.007456851,-0.004261058,0.71479017,0,0,0,0,1
1743177576697379,1743177576697379,1310988,-0.013848438,-0.0031957934,0.010120012,0.6617896,0,0,0,0,1
1743177577697379,1743177577697379,1310988,-0.017044231,-0.0010652645,0.002130529,-0.27682412,0,0,0,0,1
1743177578697379,1743177578697379,1310988,0.004261058,-0.01917476,0.007456851,-0.24833906,0,0,0,0,1
1743177579697379,1743177579697379,1310988,-0.015446335,0.0010652645,0.004261058,0.2899696,0,0,0,0,1
1743177580697379,1743177580697379,1310988,-0.0037284256,0.017044231,0.0063915867,-0.6043608,0,0,0,0,1
1743177581697379,1743177581697379,1310988,0.0010652645,0.0037284256,-0.0063915867,0.16755283,0,0,0,0,1
1743177582697379,1743177582697379,1310988,-0.0031957934,0.010120012,0.0,-0.92471635,0,0,0,0,1
1743177583697379,1743177583697379,1310988,0.011185277,0.0127831735,-0.0037284256,0.43145448,0,0,0,0,1
1743177584697379,1743177584697379,1310988,-0.0037284256,0.026631612,0.0031957934,0.8880234,0,0,0,0,1
1743177585697379,1743177585697379,1310988,0.0053263223,0.08948222,0.0,-0.62910295,0,0,0,0,1
1743177586697379,1743177586697379,1310988,-0.0053263223,0.16458336,0.0053263223,0.020666977,0,0,0,0,1
1743177587697379,1743177587697379,1310988,0.0015978967,0.14274544,-0.007456851,0.5623198,0,0,0,0,1
1743177588697379,1743177588697379,1310988,-0.0053263223,0.04261058,0.0031957934,-0.55559105,0,0,0,0,1
1743177589697379,1743177589697379,1310988,0.008522116,-0.0026631611,-0.006924219,-0.1006518,0,0,0,0,1
1743177590697379,1743177590697379,1310988,0.013848438,0.0010652645,-0.0015978967,0.8864737,0,0,0,0,1
1743177591697379,1743177591697379,1310988,0.010652645,-0.010120012,-0.0010652645,-0.35637268,0,0,0,0,1
1743177592697379,1743177592697379,1310988,-0.002130529,0.0015978967,-0.0037284256,0.69235873,0,0,0,0,1
1743177593697379,1743177593697379,1310988,-0.013315806,0.002130529,-0.008522116,0.9688739,0,0,0,0,1
1743177594697379,1743177594697379,1310988,-0.0010652645,0.34248254,0.008522116,0.9922437,0,0,0,0,1
1743177595697379,1743177595697379,1310988,0.0005326322,0.020240024,0.0037284256,0.06030425,0,0,0,0,1
