timestamp,timestamp_sample,output_tracking_error[0],output_tracking_error[1],output_tracking_error[2],control_mode_flags,filter_fault_flags,pos_horiz_accuracy,pos_vert_accuracy,mag_test_ratio,vel_test_ratio,pos_test_ratio,hgt_test_ratio,tas_test_ratio,hagl_test_ratio,beta_test_ratio,time_slip,accel_device_id,gyro_device_id,baro_device_id,mag_device_id,gps_check_fail_flags,innovation_check_flags,solution_status_flags,reset_count_vel_ne,reset_count_vel_d,reset_count_pos_ne,reset_count_pod_d,reset_count_quat,pre_flt_fail_innov_heading,pre_flt_fail_innov_vel_horiz,pre_flt_fail_innov_vel_vert,pre_flt_fail_innov_height,pre_flt_fail_mag_field_disturbed,health_flags,timeout_flags
21726356000,21726276000,0.00022324492,0.005021448,0.0016470534,67109399,0,0.049090203,0.05540938,0.008959105,0.007967806,0.00040547224,0.00021533991,0.0,0.0,0.0,0.0,1310988,1310988,6620172,197644,0,0,895,2,1,2,0,47,0,0,0,0,0,0,0
21726364000,21726284000,0.00021869039,0.0048064417,0.0016238044,67109399,0,0.04909128,0.055409886,0.018059937,0.007967806,0.00040547224,0.00021533991,0.0,0.0,0.0,0.0,1310988,1310988,6620172,197644,0,0,895,2,1,2,0,47,0,0,0,0,0,0,0
21726556000,21726476000,0.00024060042,0.004713255,0.0014091998,67109399,0,0.049105152,0.055388216,0.014099777,0.007967806,0.00040547224,7.846395e-05,0.0,0.0,0.0,0.0,1310988,1310988,6620172,197644,0,0,895,2,1,2,0,47,0,0,0,0,0,0,0
21726756000,21726676000,0.00020159513,0.0041990895,0.0011318299,67109399,0,0.04909069,0.05537411,0.00973716,0.0020801842,0.00033275093,0.00022405817,0.0,0.0,0.0,0.0,1310988,1310988,6620172,197644,0,0,895,2,1,2,0,47,0,0,0,0,0,0,0
21726956000,21726876000,0.00017967775,0.0044775046,0.0015415194,67109399,0,0.049076423,0.055360086,0.007657456,0.007819785,0.0020839053,0.002343457,0.0,0.0,0.0,0.0,1310988,1310988,6620172,197644,0,0,895,2,1,2,0,47,0,0,0,0,0,0,0
21727156000,21727076000,0.000116331015,0.0012097923,0.0013031749,67109399,0,0.04906231,0.05533923,0.023327066,0.0001098263,0.0020634981,0.0017392846,0.0,0.0,0.0,0.0,1310988,1310988,6620172,197644,0,0,895,2,1,2,0,47,0,0,0,0,0,0,0
21727356000,21727276000,0.00016576947,0.0023671715,0.0010813458,67109399,0,0.049048357,0.055325367,0.0033891248,0.0012211731,0.0020753646,0.006275374,0.0,0.0,0.0,0.0,1310988,1310988,6620172,197644,0,0,895,2,1,2,0,47,0,0,0,0,0,0,0
21727556000,21727476000,0.00023239595,0.0026641877,0.0010806054,67109399,0,0.049034514,0.05531157,0.06241855,0.0040513147,0.0020597584,0.008223024,0.0,0.0,0.0,0.0,1310988,1310988,6620172,197644,0,0,895,2,1,2,0,47,0,0,0,0,0,0,0
21727756000,21727676000,0.00015094425,0.0034120728,0.0011714587,67109399,0,0.04905025,0.055290923,0.0059797545,0.0040513147,0.0020597584,0.0031254815,0.0,0.0,0.0,0.0,1310988,1310988,6620172,197644,0,0,895,2,1,2,0,47,0,0,0,0,0,0,0
21727956000,21727876000,0.00018703257,0.002124769,0.00089345756,67109399,0,0.049036548,0.05527722,0.014963877,0.0141696185,0.0020639286,0.0009624915,0.0,0.0,0.0,0.0,1310988,1310988,6620172,197644,0,0,895,2,1,2,0,47,0,0,0,0,0,0,0
21728156000,21728076000,9.6158896e-05,0.0010412437,0.000499671,67109399,0,0.04902289,0.055256665,0.004894289,0.005403533,0.00035943842,0.0016189736,0.0,0.0,0.0,0.0,1310988,1310988,6620172,197644,0,0,895,2,1,2,0,47,0,0,0,0,0,0,0
21728356000,21728276000,0.00017826182,0.0025470122,0.0004929561,67109399,0,0.04900928,0.05524303,0.018907413,0.012799515,0.0013167101,0.0011089577,0.0,0.0,0.0,0.0,1310988,1310988,6620172,197644,0,0,895,2,1,2,0,47,0,0,0,0,0,0,0
21728556000,21728476000,6.663772e-05,0.0012336574,0.0006167497,67109399,0,0.04903395,0.055241115,0.023704823,0.00016263478,0.001996904,0.0014053774,0.0,0.0,0.0,0.0,1310988,1310988,6620172,197644,0,0,895,2,1,2,0,47,0,0,0,0,0,0,0
21728756000,21728676000,8.693035e-05,0.0020731026,0.00092027884,67109399,0,0.04901398,0.05522449,0.0020601754,0.006547746,0.0019877427,0.00020226277,0.0,0.0,0.0,0.0,1310988,1310988,6620172,197644,0,0,895,2,1,2,0,47,0,0,0,0,0,0,0
21728956000,21728876000,0.000105569176,0.0014090455,0.0008230433,67109399,0,0.048994597,0.05520127,0.022546437,0.009076374,0.0012826142,0.009168084,0.0,0.0,0.0,0.0,1310988,1310988,6620172,197644,0,0,895,2,1,2,0,47,0,0,0,0,0,0,0
21729156000,21729076000,3.968983e-05,0.0012470044,0.0006878982,67109399,0,0.049005106,0.05518519,0.005851913,0.009076374,0.0012826142,0.0013940441,0.0,0.0,0.0,0.0,1310988,1310988,6620172,197644,0,0,895,2,1,2,0,47,0,0,0,0,0,0,0
21729356000,21729276000,3.8006026e-05,0.0023973796,0.000941466,67109399,0,0.048986726,0.055169366,0.014754889,0.007151329,0.0012968631,0.004327727,0.0,0.0,0.0,0.0,1310988,1310988,6620172,197644,0,0,895,2,1,2,0,47,0,0,0,0,0,0,0
21729556000,21729476000,9.252914e-05,0.0018572713,0.0008499739,67109399,0,0.048968848,0.055146933,0.005599579,0.013246167,0.0013200954,0.00035831908,0.0,0.0,0.0,0.0,1310988,1310988,6620172,197644,0,0,895,2,1,2,0,47,0,0,0,0,0,0,0
21729756000,21729676000,8.528527e-05,0.0014319279,0.00067627337,67109399,0,0.048951454,0.05513158,0.011619156,0.00040723576,0.0003567466,0.000801205,0.0,0.0,0.0,0.0,1310988,1310988,6620172,197644,0,0,895,2,1,2,0,47,0,0,0,0,0,0,0
21729956000,21729876000,0.00010612283,0.0024601275,0.00089454884,67109399,0,0.048934452,0.055116445,0.013323405,0.0066158185,0.00035331552,0.004006897,0.0,0.0,0.0,0.0,1310988,1310988,6620172,197644,0,0,895,2,1,2,0,47,0,0,0,0,0,0,0
21730156000,21730076000,6.6752145e-05,0.004432428,0.0013565514,67109399,0,0.048917927,0.05509469,0.009020901,0.017657652,0.00035071844,0.006713907,0.0,0.0,0.0,0.0,1310988,1310988,6620172,197644,0,0,895,2,1,2,0,47,0,0,0,0,0,0,0
21730356000,21730276000,7.5834374e-05,0.002900145,0.0013044901,67109399,0,0.048931014,0.055079956,0.0049991035,0.017657652,0.00035071844,0.00037575566,0.0,0.0,0.0,0.0,1310988,1310988,6620172,197644,0,0,895,2,1,2,0,47,0,0,0,0,0,0,0
21730556000,21730476000,0.00016337086,0.0041856067,0.0012424996,67109399,0,0.04891517,0.0550654,0.008365808,0.015076789,0.00034197353,0.0047662556,0.0,0.0,0.0,0.0,1310988,1310988,6620172,197644,0,0,895,2,1,2,0,47,0,0,0,0,0,0,0
21730756000,21730676000,9.561459e-05,0.0036408785,0.0014148881,67109399,0,0.048899688,0.055044215,0.0035171316,0.008422386,0.001956579,0.0008055644,0.0,0.0,0.0,0.0,1310988,1310988,6620172,197644,0,0,895,2,1,2,0,47,0,0,0,0,0,0,0
21730956000,21730876000,0.000109846864,0.0028776904,0.0013180908,67109399,0,0.048884526,0.055023197,0.021695789,0.013704122,0.0019127369,0.0019153954,0.0,0.0,0.0,0.0,1310988,1310988,6620172,197644,0,0,895,2,1,2,0,47,0,0,0,0,0,0,0
21731156000,21731076000,5.4945544e-05,0.0030873532,0.0012282603,67109399,0,0.048869662,0.05500913,0.0050177188,0.006698134,0.0002957602,0.0016154882,0.0,0.0,0.0,0.0,1310988,1310988,6620172,197644,0,0,895,2,1,2,0,47,0,0,0,0,0,0,0
21731356000,21731276000,9.5001786e-05,0.0036289021,0.0012553518,67109399,0,0.048855092,0.054995198,0.00977715,0.012805566,0.00029934637,0.002918864,0.0,0.0,0.0,0.0,1310988,1310988,6620172,197644,0,0,895,2,1,2,0,47,0,0,0,0,0,0,0
21731556000,21731476000,0.00019877475,0.005293675,0.0015724791,67109399,0,0.048840757,0.05497461,0.01869234,0.018359672,0.00033693455,0.00035047292,0.0,0.0,0.0,0.0,1310988,1310988,6620172,197644,0,0,895,2,1,2,0,47,0,0,0,0,0,0,0
21731756000,21731676000,0.0001193988,0.0019234914,0.0010868923,67109399,0,0.04885578,0.054960925,0.0033711344,0.018359672,0.00033693455,0.008801928,0.0,0.0,0.0,0.0,1310988,1310988,6620172,197644,0,0,895,2,1,2,0,47,0,0,0,0,0,0,0
21731956000,21731876000,0.00018631577,0.0024999864,0.00057183695,67109399,0,0.048841845,0.054940574,0.03716152,0.0035096884,0.00036587336,0.0038185865,0.0,0.0,0.0,0.0,1310988,1310988,6620172,197644,0,0,895,2,1,2,0,47,0,0,0,0,0,0,0
21732156000,21732076000,0.00020001517,0.004162982,0.00074237067,67109399,0,0.048828114,0.054927085,0.0025305254,0.022251027,0.00039072576,0.0013120943,0.0,0.0,0.0,0.0,1310988,1310988,6620172,197644,0,0,895,2,1,2,0,47,0,0,0,0,0,0,0
21732356000,21732276000,0.00015429096,0.0062310845,0.0014110686,67109399,0,0.048814535,0.054913685,0.005438336,0.0077441726,0.00038205262,0.0012876831,0.0,0.0,0.0,0.0,1310988,1310988,6620172,197644,0,0,895,2,1,2,0,47,0,0,0,0,0,0,0
21732556000,21732476000,0.00020413469,0.008848646,0.0021659073,67109399,0,0.048801087,0.0548936,0.008491229,0.016075555,0.0020152123,0.0017663145,0.0,0.0,0.0,0.0,1310988,1310988,6620172,197644,0,0,895,2,1,2,0,47,0,0,0,0,0,0,0
21732756000,21732676000,0.00025574243,0.008929511,0.0026655118,67109399,0,0.048787758,0.05488034,0.00039742104,0.007564036,0.0012669172,0.000400167,0.0,0.0,0.0,0.0,1310988,1310988,6620172,197644,0,0,895,2,1,2,0,47,0,0,0,0,0,0,0
21732956000,21732876000,0.00015834156,0.0077462746,0.0026512307,67109399,0,0.048803557,0.054860383,0.02107402,0.007564036,0.0012669172,0.0010226492,0.0,0.0,0.0,0.0,1310988,1310988,6620172,197644,0,0,895,2,1,2,0,47,0,0,0,0,0,0,0
21733156000,21733076000,0.00016820904,0.0027313672,0.0018428031,1049239,0,0.048851695,0.054876834,0.0073110284,0.0069090654,0.0019622804,1.1754944e-38,0.0,0.0,0.0,0.0,1310988,1310988,6620172,197644,0,0,895,2,1,2,0,47,0,0,0,0,0,0,0
21733356000,21733276000,0.0001221693,0.0007034185,0.0008167843,1049239,0,0.049314592,0.055090517,0.050120696,0.013209754,0.0019739254,0.0020775537,0.0,0.0,0.0,0.0,1310988,1310988,6620172,197644,0,0,895,2,1,2,0,47,0,0,0,0,0,0,0
21733556000,21733476000,0.00013088308,0.0011152879,0.0002077676,1049239,0,0.05063679,0.05575784,0.03140726,0.009871199,0.0019964445,1.1754944e-38,0.0,0.0,0.0,0.0,1310988,1310988,6620172,197644,0,0,895,2,1,2,0,47,0,0,0,0,0,0,0
21733756000,21733676000,5.015228e-05,0.0016252206,0.00057500944,1049239,0,0.05326688,0.057153963,0.007900365,0.013141874,0.0008662939,0.004071381,0.0,0.0,0.0,0.0,1310988,1310988,6620172,197644,0,0,895,2,1,2,0,47,0,0,0,0,0,0,0
21733956000,21733876000,2.114524e-05,0.001358187,0.000605128,1049239,0,0.057558347,0.059552927,0.0043479833,0.029664846,0.0012347035,1.1754944e-38,0.0,0.0,0.0,0.0,1310988,1310988,6620172,197644,0,0,895,2,1,2,0,47,0,0,0,0,0,0,0
21734156000,21734076000,3.078948e-05,0.0012561326,0.00066425564,1049239,0,0.06369203,0.063205086,0.006364378,0.008126819,0.0016606672,9.240992e-05,0.0,0.0,0.0,0.0,1310988,1310988,6620172,197644,0,0,895,2,1,2,0,47,0,0,0,0,0,0,0
21734356000,21734276000,1.8645098e-05,0.0013909913,0.00073072896,1049239,0,0.07221401,0.06837373,0.0070743947,0.008126819,0.0016606672,0.00016040466,0.0,0.0,0.0,0.0,1310988,1310988,6620172,197644,0,0,895,2,1,2,0,47,0,0,0,0,0,0,0
21734556000,21734476000,2.7379476e-05,0.0016032907,0.00095055025,1049239,0,0.082250565,0.07491533,0.00091856805,0.016866801,0.0016342049,0.001012957,0.0,0.0,0.0,0.0,1310988,1310988,6620172,197644,0,0,895,2,1,2,0,47,0,0,0,0,0,0,0
21734756000,21734676000,3.6757898e-05,0.0022793051,0.0017910975,1049239,0,0.093892895,0.08284298,0.007920492,0.044511076,0.00348039,0.0030962673,0.0,0.0,0.0,0.0,1310988,1310988,6620172,197644,0,0,895,2,1,2,0,47,0,0,0,0,0,0,0
21734956000,21734876000,4.81937e-05,0.0023898496,0.0021102016,663,0,0.106832795,0.09200343,0.013166897,0.03401812,0.003792162,0.005675215,0.0,0.0,0.0,0.0,1310988,1310988,6620172,197644,0,0,895,2,1,2,0,47,0,0,0,0,0,0,0
21735156000,21735076000,0.000121977515,0.0010932371,0.0010816826,663,0,0.12064154,0.10229262,0.0038973126,0.013507681,0.0036779926,0.0032692659,0.0,0.0,0.0,0.0,1310988,1310988,6620172,197644,0,0,895,2,1,2,0,47,0,0,0,0,0,0,0
21735356000,21735276000,2.7741395e-05,0.00093396707,0.0018429734,663,0,0.13486102,0.11345133,0.004303123,0.038490005,0.0050813733,0.002021826,0.0,0.0,0.0,0.0,1310988,1310988,6620172,197644,0,0,895,2,1,2,0,47,0,0,0,0,0,0,0
21735556000,21735476000,2.6012294e-05,0.00037726338,0.00086331175,663,0,0.1536246,0.12687814,0.00419099,0.038490005,0.0050813733,0.00096286717,0.0,0.0,0.0,0.0,1310988,1310988,6620172,197644,0,0,895,2,1,2,0,47,0,0,0,0,0,0,0
21735756000,21735676000,0.01382826,0.0012910923,0.0028548348,8389271,0,0.16797002,0.1396376,0.07176104,0.024463467,0.00566893,0.004200403,0.0,0.0,0.0,0.0,1310988,1310988,6620172,197644,0,0,895,2,1,2,0,48,0,0,0,0,0,0,0
21735956000,21735876000,0.010917687,0.0015571647,0.0035184813,8389271,0,0.1815105,0.15265334,0.06496785,0.030260062,0.0046233344,0.004224874,0.0,0.0,0.0,0.0,1310988,1310988,6620172,197644,0,0,895,2,1,2,0,48,0,0,0,0,0,0,0
21736156000,21736076000,0.004535814,0.0033122797,0.0066264723,8389271,0,0.19426383,0.16602194,0.05053113,0.047841202,0.005857749,0.00050691084,0.0,0.0,0.0,0.0,1310988,1310988,6620172,197644,0,0,895,2,1,2,0,48,0,0,0,0,0,0,0
21736356000,21736276000,0.0049188053,0.001565962,0.0035988786,8389271,0,0.20628057,0.179258,0.050270867,0.017792001,0.0063190567,0.0044662636,0.0,0.0,0.0,0.0,1310988,1310988,6620172,197644,0,0,895,2,1,2,0,48,0,0,0,0,0,0,0
21736556000,21736476000,0.0036918898,0.0027684832,0.005846077,8389271,0,0.21760775,0.19264933,0.06302172,0.03667368,0.006254861,0.004347049,0.0,0.0,0.0,0.0,1310988,1310988,6620172,197644,0,0,895,2,1,2,0,48,0,0,0,0,0,0,0
21736756000,21736676000,0.0025082775,0.0021005517,0.004433873,8389271,0,0.22827934,0.2058957,0.032051794,0.01867305,0.006113537,0.0013213804,0.0,0.0,0.0,0.0,1310988,1310988,6620172,197644,0,0,895,2,1,2,0,48,0,0,0,0,0,0,0
21736956000,21736876000,0.0016156851,0.0006845682,0.0014460146,8389271,0,0.24821332,0.22332622,0.0028699317,0.01867305,0.006113537,0.004644882,0.0,0.0,0.0,0.0,1310988,1310988,6620172,197644,0,0,895,2,1,2,0,48,0,0,0,0,0,0,0
21737156000,21737076000,0.001917845,0.0018778642,0.0036594304,8389271,0,0.2576815,0.23612227,0.03516741,0.023731155,0.005892045,0.0016947546,0.0,0.0,0.0,0.0,1310988,1310988,6620172,197644,0,0,895,2,1,2,0,48,0,0,0,0,0,0,0
21737356000,21737276000,0.0016418326,0.001133078,0.0021484229,8389271,0,0.2664252,0.24786831,0.025957925,0.0181013,0.005724831,0.0014411617,0.0,0.0,0.0,0.0,1310988,1310988,6620172,197644,0,0,895,2,1,2,0,48,0,0,0,0,0,0,0
21737556000,21737476000,0.0010269756,0.0011734981,0.0016869523,8389271,0,0.27443916,0.25969538,0.027814932,0.005172957,0.006774712,0.00388003,0.0,0.0,0.0,0.0,1310988,1310988,6620172,197644,0,0,895,2,1,2,0,48,0,0,0,0,0,0,0
21737756000,21737676000,0.00082428934,0.0020905042,0.0026449466,8389271,0,0.28169915,0.27100128,0.03275018,0.01561569,0.006560063,0.0049131005,0.0,0.0,0.0,0.0,1310988,1310988,6620172,197644,0,0,895,2,1,2,0,48,0,0,0,0,0,0,0
21737956000,21737876000,0.0010478039,0.0018717208,0.002732865,8389271,0,0.28828016,0.28089184,0.022824997,0.008044993,0.006660682,0.0021355036,0.0,0.0,0.0,0.0,1310988,1310988,6620172,197644,0,0,895,2,1,2,0,48,0,0,0,0,0,0,0
21738156000,21738076000,0.0011041479,0.0012078742,0.0017236735,8389271,0,0.31069034,0.2986331,0.023381144,0.008044993,0.006660682,0.0037081344,0.0,0.0,0.0,0.0,1310988,1310988,6620172,197644,0,0,831,2,1,2,0,48,0,0,0,0,0,0,0
21738356000,21738276000,0.0008955056,0.00037856697,0.00089115085,8389271,0,0.315069,0.30813295,0.02241791,0.005476918,0.006725771,0.004068864,0.0,0.0,0.0,0.0,1310988,1310988,6620172,197644,0,0,831,2,1,2,0,48,0,0,0,0,0,0,0
21738556000,21738476000,0.0007636675,0.002315768,0.004183076,8389271,0,0.31890315,0.31578985,0.023269467,0.020469764,0.0064120055,0.0038079866,0.0,0.0,0.0,0.0,1310988,1310988,6620172,197644,0,0,831,2,1,2,0,48,0,0,0,0,0,0,0
21738756000,21738676000,0.00040379824,0.00075177336,0.0013831082,8389271,0,0.3222488,0.3240974,0.0038285102,0.006381753,0.0069169146,0.0046877395,0.0,0.0,0.0,0.0,1310988,1310988,6620172,197644,0,0,831,2,1,2,0,48,0,0,0,0,0,0,0
21738956000,21738876000,0.0007725733,0.003797762,0.007533177,8389271,0,0.32515654,0.33041552,0.00882272,0.02398633,0.0065515065,0.014849834,0.0,0.0,0.0,0.0,1310988,1310988,6620172,197644,0,0,831,2,1,2,0,48,0,0,0,0,0,0,0
21739156000,21739076000,0.00037646425,0.0034042557,0.0058347154,8389271,0,0.32767057,0.33766165,0.019956004,0.017382875,0.0070629423,0.004149535,0.0,0.0,0.0,0.0,1310988,1310988,6620172,197644,0,0,831,2,1,2,0,48,0,0,0,0,0,0,0
21739356000,21739276000,0.0007238431,0.006496703,0.0063832495,8389351,0,0.32984036,0.34281763,0.0252945,0.021204606,0.006747217,0.006131438,0.0,0.0,0.0,0.0,1310988,1310988,6620172,197644,0,0,831,2,1,2,0,48,0,0,0,0,0,0,0
21739556000,21739476000,5.6773635e-05,0.0032473,0.0023093354,8389351,0,0.3524348,0.35775977,0.002287499,0.021204606,0.006747217,0.0024053159,0.0,0.0,0.0,0.0,1310988,1310988,6620172,197644,0,0,831,2,1,2,0,48,0,0,0,0,0,0,0
21739756000,21739676000,0.0013678204,0.013255426,0.019036165,8389351,0,0.35213172,0.3632552,0.03346765,0.08202862,0.010445498,0.007092994,0.0,0.0,0.0,0.0,1310988,1310988,6620172,197644,0,0,831,2,1,2,0,48,0,0,0,0,0,0,0
21739956000,21739876000,0.0015610781,0.01633217,0.023771139,8389351,0,0.35174096,0.36632812,0.011238605,0.066620216,0.009382993,0.005208053,0.0,0.0,0.0,0.0,1310988,1310988,6620172,197644,0,0,831,2,1,2,0,48,0,0,0,0,0,0,0
21740156000,21740076000,0.0012857042,0.014843859,0.02334444,8389351,0,0.35135567,0.37101826,0.009664941,0.045639616,0.010077147,0.013570348,0.0,0.0,0.0,0.0,1310988,1310988,6620172,197644,0,0,831,2,1,2,0,48,0,0,0,0,0,0,0
21740356000,21740276000,0.0011986566,0.0129962005,0.020788284,8389351,0,0.35095954,0.37540996,0.023725718,0.041996077,0.005535408,0.004126166,0.0,0.0,0.0,0.0,1310988,1310988,6620172,197644,0,0,831,2,1,2,0,48,0,0,0,0,0,0,0
21740556000,21740476000,0.00094378187,0.010223597,0.01632578,8389351,0,0.3505419,0.3773391,0.0050949054,0.036792256,0.004263205,0.007979036,0.0,0.0,0.0,0.0,1310988,1310988,6620172,197644,0,0,831,2,1,2,0,48,0,0,0,0,0,0,0
21740756000,21740676000,9.279445e-05,0.003884643,0.0062034586,8389351,0,0.37241253,0.3896079,0.008250371,0.036792256,0.004263205,0.0006785628,0.0,0.0,0.0,0.0,1310988,1310988,6620172,197644,0,0,831,2,1,2,0,48,0,0,0,0,0,0,0
21740956000,21740876000,0.0007779852,0.007940584,0.013843374,8389351,0,0.3696851,0.3902855,0.0100137945,0.054967184,0.0040229876,0.004381854,0.0,0.0,0.0,0.0,1310988,1310988,6620172,197644,0,0,831,2,1,2,0,48,0,0,0,0,0,0,0
21741156000,21741076000,0.00045483524,0.007015222,0.013083976,8389351,0,0.36730146,0.3931716,0.027181044,0.03577662,0.007851759,0.0033523906,0.0,0.0,0.0,0.0,1310988,1310988,6620172,197644,0,0,831,2,1,2,0,48,0,0,0,0,0,0,0
21741356000,21741276000,0.00028144335,0.006717553,0.012509329,8389351,0,0.36517334,0.395861,0.014829743,0.038578555,0.0028115558,0.014849902,0.0,0.0,0.0,0.0,1310988,1310988,6620172,197644,0,0,831,2,1,2,0,48,0,0,0,0,0,0,0
21741556000,21741476000,0.0003869041,0.0066400594,0.012710161,8389351,0,0.36323953,0.3958211,0.004514008,0.038479,0.0080670975,0.0060860175,0.0,0.0,0.0,0.0,1310988,1310988,6620172,197644,0,0,831,2,1,2,0,48,0,0,0,0,0,0,0
21741756000,21741676000,0.00029862343,0.0049472633,0.0089462865,8389351,0,0.3614577,0.3981764,0.010549032,0.034044974,0.0032122466,0.011477411,0.0,0.0,0.0,0.0,1310988,1310988,6620172,197644,0,0,831,2,1,2,0,48,0,0,0,0,0,0,0
21741956000,21741876000,0.0001202261,0.0061784624,0.010958495,8389351,0,0.35979852,0.39781463,0.010558313,0.019609567,0.0032586649,0.0043063774,0.0,0.0,0.0,0.0,1310988,1310988,6620172,197644,0,0,831,2,1,2,0,48,0,0,0,0,0,0,0
21742156000,21742076000,1.7418764e-05,0.0069711325,0.013656337,8389351,0,0.3797485,0.40742415,0.03152275,0.019609567,0.0032586649,0.016689949,0.0,0.0,0.0,0.0,1310988,1310988,6620172,197644,0,0,831,2,1,2,0,48,0,0,0,0,0,0,0
21742356000,21742276000,0.00021336794,0.006797865,0.012598357,8389351,0,0.37617183,0.40898445,0.0056483075,0.047852144,0.007225958,0.010190299,0.0,0.0,0.0,0.0,1310988,1310988,6620172,197644,0,0,831,2,1,2,0,48,0,0,0,0,0,0,0
21742556000,21742476000,4.7608228e-05,0.0061676037,0.011473432,8389351,0,0.37305602,0.40771142,0.0069608004,0.011515171,0.011341193,0.010153393,0.0,0.0,0.0,0.0,1310988,1310988,6620172,197644,0,0,831,2,1,2,0,48,0,0,0,0,0,0,0
21742756000,21742676000,0.00014165611,0.0041629355,0.009650031,8389351,0,0.37023854,0.40913594,0.049926404,0.03686545,0.0053252596,0.008510693,0.0,0.0,0.0,0.0,1310988,1310988,6620172,197644,0,0,831,2,1,2,0,48,0,0,0,0,0,0,0
21742956000,21742876000,2.3535647e-05,0.0048426623,0.01028997,8389351,0,0.3676006,0.40771055,0.0121032065,0.009231741,0.0046599074,0.011273772,0.0,0.0,0.0,0.0,1310988,1310988,6620172,197644,0,0,831,2,1,2,0,48,0,0,0,0,0,0,0
21743156000,21743076000,5.5720328e-05,0.003551377,0.0067815967,8389351,0,0.36524132,0.4089986,0.040138606,0.02487032,0.00952036,0.007814223,0.0,0.0,0.0,0.0,1310988,1310988,6620172,197644,0,0,831,2,1,2,0,48,0,0,0,0,0,0,0
21743356000,21743276000,3.0455858e-05,0.0053006215,0.011596636,8389351,0,0.38423458,0.4142712,0.0017561126,0.02487032,0.00952036,0.0081151575,0.0,0.0,0.0,0.0,1310988,1310988,6620172,197644,0,0,831,2,1,2,0,48,0,0,0,0,0,0,0
21743556000,21743476000,5.6077908e-05,0.0037773764,0.007261635,8389351,0,0.38019347,0.41515335,0.035092454,0.03046426,0.0115084285,0.0058335233,0.0,0.0,0.0,0.0,1310988,1310988,6620172,197644,0,0,831,2,1,2,0,48,0,0,0,0,0,0,0
21743756000,21743676000,0.00010635671,0.0020644246,0.0032472678,8389351,0,0.37657323,0.41312647,0.019001286,0.032779254,0.006295812,0.005832398,0.0,0.0,0.0,0.0,1310988,1310988,6620172,197644,0,0,831,2,1,2,0,48,0,0,0,0,0,0,0
21743956000,21743876000,3.624685e-05,0.003546429,0.0054419953,8389351,0,0.37330115,0.41398084,0.0060301325,0.014500375,0.007185179,0.002105882,0.0,0.0,0.0,0.0,1310988,1310988,6620172,197644,0,0,831,2,1,2,0,48,0,0,0,0,0,0,0
21744156000,21744076000,0.00012796218,0.0061726784,0.012634038,8389351,0,0.3703219,0.41198656,0.029829085,0.022947364,0.007279119,0.007876982,0.0,0.0,0.0,0.0,1310988,1310988,6620172,197644,0,0,831,2,1,2,0,48,0,0,0,0,0,0,0
21744356000,21744276000,9.7713244e-05,0.0046887016,0.009575134,8389351,0,0.36759266,0.4128317,0.020193452,0.03257595,0.008291874,0.005654447,0.0,0.0,0.0,0.0,1310988,1310988,6620172,197644,0,0,831,2,1,2,0,48,0,0,0,0,0,0,0
21744556000,21744476000,5.824288e-05,0.0037905064,0.007891903,8389351,0,0.3650805,0.4108191,0.0662338,0.01956746,0.011666088,0.009775185,0.0,0.0,0.0,0.0,1310988,1310988,6620172,197644,0,0,831,2,1,2,0,48,0,0,0,0,0,0,0
21744756000,21744676000,1.650471e-05,0.0041788793,0.0077181635,8389351,0,0.38317266,0.41791922,0.008031205,0.01956746,0.011666088,0.0059598265,0.0,0.0,0.0,0.0,1310988,1310988,6620172,197644,0,0,831,2,1,2,0,48,0,0,0,0,0,0,0
21744956000,21744876000,8.912878e-05,0.0043805926,0.007936226,8389351,0,0.3792531,0.41844392,0.014414055,0.022443334,0.013586386,0.0076892553,0.0,0.0,0.0,0.0,1310988,1310988,6620172,197644,0,0,831,2,1,2,0,48,0,0,0,0,0,0,0
21745156000,21745076000,3.2198408e-05,0.0036592924,0.0064544254,8389351,0,0.37565038,0.41601694,0.032575596,0.016857754,0.0053676637,0.008901156,0.0,0.0,0.0,0.0,1310988,1310988,6620172,197644,0,0,831,2,1,2,0,48,0,0,0,0,0,0,0
21745356000,21745276000,7.639826e-05,0.0036154457,0.0070253443,8389271,0,0.372448,0.41659486,0.0012848502,0.015522609,0.012795561,0.009150228,0.0,0.0,0.0,0.0,1310988,1310988,6620172,197644,0,0,831,2,1,2,0,48,0,0,0,0,0,0,0
21745556000,21745476000,0.000112866524,0.0051930305,0.009380608,8389271,0,0.36946326,0.4142229,0.020139033,0.023481159,0.005472238,0.008035686,0.0,0.0,0.0,0.0,1310988,1310988,6620172,197644,0,0,831,2,1,2,0,48,0,0,0,0,0,0,0
21745756000,21745676000,0.00014417512,0.003992865,0.00876972,8389271,0,0.36672863,0.41477284,8.498422e-05,0.03738683,0.007315617,0.0024174273,0.0,0.0,0.0,0.0,1310988,1310988,6620172,197644,0,0,831,2,1,2,0,48,0,0,0,0,0,0,0
21745956000,21745876000,2.0420403e-05,0.0029616875,0.005790738,8389271,0,0.3847808,0.41846496,0.0058366857,0.03738683,0.007315617,0.01080364,0.0,0.0,0.0,0.0,1310988,1310988,6620172,197644,0,0,831,2,1,2,0,48,0,0,0,0,0,0,0
21746156000,21746076000,0.000107817876,0.0030372723,0.0066585043,8389271,0,0.38066515,0.41879454,0.0054063397,0.02069456,0.016613808,0.0034835928,0.0,0.0,0.0,0.0,1310988,1310988,6620172,197644,0,0,831,2,1,2,0,48,0,0,0,0,0,0,0
21746356000,21746276000,7.597302e-05,0.0027507574,0.005614914,8389271,0,0.37696174,0.419135,0.004777964,0.016567526,0.0152831925,0.00508714,0.0,0.0,0.0,0.0,1310988,1310988,6620172,197644,0,0,831,2,1,2,0,48,0,0,0,0,0,0,0
21746556000,21746476000,8.920249e-05,0.0030348252,0.006046233,8389271,0,0.37360638,0.41652232,0.006035629,0.01713377,0.016506257,0.004759908,0.0,0.0,0.0,0.0,1310988,1310988,6620172,197644,0,0,831,2,1,2,0,48,0,0,0,0,0,0,0
21746756000,21746676000,0.0001439516,0.0017134203,0.0037269797,8389271,0,0.37055132,0.41692558,0.0049648113,0.018051049,0.013660029,0.0072813327,0.0,0.0,0.0,0.0,1310988,1310988,6620172,197644,0,0,831,2,1,2,0,48,0,0,0,0,0,0,0
21746956000,21746876000,9.20812e-05,0.0031342504,0.0061567253,8389271,0,0.3677564,0.41439235,0.00039016872,0.025339294,0.018008713,0.0023376541,0.0,0.0,0.0,0.0,1310988,1310988,6620172,197644,0,0,831,2,1,2,0,48,0,0,0,0,0,0,0
21747156000,21747076000,0.00017052985,0.0033990385,0.007611781,8389271,0,0.36519048,0.41485137,0.0020020884,0.037903994,0.01365736,0.005792451,0.0,0.0,0.0,0.0,1310988,1310988,6620172,197644,0,0,831,2,1,2,0,48,0,0,0,0,0,0,0
21747356000,21747276000,7.126187e-05,0.0025025755,0.006078513,8389271,0,0.38308755,0.4212141,0.0097462535,0.037903994,0.01365736,0.011982229,0.0,0.0,0.0,0.0,1310988,1310988,6620172,197644,0,0,831,2,1,2,0,48,0,0,0,0,0,0,0
21747556000,21747476000,0.0001334568,0.0016883299,0.003086366,8389271,0,0.3791763,0.41848513,0.0057499907,0.02850571,0.016746048,0.003968426,0.0,0.0,0.0,0.0,1310988,1310988,6620172,197644,0,0,831,2,1,2,0,48,0,0,0,0,0,0,0
21747756000,21747676000,0.00022103844,0.0035885107,0.008541598,8389271,0,0.37557867,0.41880587,0.013233472,0.034538366,0.011161678,0.008554722,0.0,0.0,0.0,0.0,1310988,1310988,6620172,197644,0,0,831,2,1,2,0,48,0,0,0,0,0,0,0
21747956000,21747876000,0.00013046847,0.0028249105,0.005240881,8389271,0,0.37231687,0.41619214,0.01595293,0.020016322,0.010075185,0.00038700373,0.0,0.0,0.0,0.0,1310988,1310988,6620172,197644,0,0,831,2,1,2,0,48,0,0,0,0,0,0,0
21748156000,21748076000,0.00011380745,0.0035998283,0.006471009,8389271,0,0.36940697,0.4165984,0.010891087,0.028620783,0.018595515,0.006123086,0.0,0.0,0.0,0.0,1310988,1310988,6620172,197644,0,0,831,2,1,2,0,48,0,0,0,0,0,0,0
21748356000,21748276000,0.00013058184,0.004502538,0.010073269,8389271,0,0.3666806,0.41411728,0.004450387,0.03275754,0.0113478135,0.000765388,0.0,0.0,0.0,0.0,1310988,1310988,6620172,197644,0,0,831,2,1,2,0,48,0,0,0,0,0,0,0
21748556000,21748476000,0.00015027018,0.003416321,0.0077256802,8389271,0,0.3848012,0.4203719,0.014264007,0.03275754,0.0113478135,0.0071757305,0.0,0.0,0.0,0.0,1310988,1310988,6620172,197644,0,0,831,2,1,2,0,48,0,0,0,0,0,0,0
21748756000,21748676000,9.307258e-05,0.0037158155,0.009294809,8389271,0,0.38068804,0.42060697,0.0007837555,0.030783249,0.020295234,0.0002363421,0.0,0.0,0.0,0.0,1310988,1310988,6620172,197644,0,0,831,2,1,2,0,48,0,0,0,0,0,0,0
21748956000,21748876000,0.000119322045,0.0029599185,0.008572942,8389271,0,0.37698838,0.41786033,0.006554919,0.025422908,0.020235965,0.00083627837,0.0,0.0,0.0,0.0,1310988,1310988,6620172,197644,0,0,831,2,1,2,0,48,0,0,0,0,0,0,0
21749156000,21749076000,0.00010393866,0.002896114,0.0066334745,8389271,0,0.37363943,0.41814518,0.011798968,0.030066833,0.015777487,0.0013930042,0.0,0.0,0.0,0.0,1310988,1310988,6620172,197644,0,0,831,2,1,2,0,48,0,0,0,0,0,0,0
21749356000,21749276000,0.00012839992,0.0029953655,0.008130188,8389271,0,0.37059352,0.41549653,0.00083631906,0.03050645,0.020009814,0.0008086245,0.0,0.0,0.0,0.0,1310988,1310988,6620172,197644,0,0,831,2,1,2,0,48,0,0,0,0,0,0,0
21749556000,21749476000,0.00026729406,0.0030770283,0.008067983,8389271,0,0.36780798,0.41585666,0.023045383,0.037594903,0.016132584,0.0066156313,0.0,0.0,0.0,0.0,1310988,1310988,6620172,197644,0,0,831,2,1,2,0,48,0,0,0,0,0,0,0
21749756000,21749676000,9.4043906e-05,0.0021813682,0.005490382,8389271,0,0.36525103,0.41626224,0.003870563,0.01936289,0.018158257,0.006582296,0.0,0.0,0.0,0.0,1310988,1310988,6620172,197644,0,0,831,2,1,2,0,48,0,0,0,0,0,0,0
21749956000,21749876000,2.701553e-05,0.003970595,0.008821173,8389271,0,0.38327235,0.41943586,0.0014483534,0.01936289,0.018158257,6.059914e-05,0.0,0.0,0.0,0.0,1310988,1310988,6620172,197644,0,0,831,2,1,2,0,48,0,0,0,0,0,0,0
21750156000,21750076000,0.00011699332,0.001285119,0.0029355972,8389271,0,0.3792748,0.41968748,0.009722622,0.031294905,0.017286958,0.0030933178,0.0,0.0,0.0,0.0,1310988,1310988,6620172,197644,0,0,831,2,1,2,0,48,0,0,0,0,0,0,0
21750356000,21750276000,0.000116982024,0.0025662829,0.0072958358,8389271,0,0.37567535,0.4169669,0.016954632,0.034102738,0.012978278,0.0015739136,0.0,0.0,0.0,0.0,1310988,1310988,6620172,197644,0,0,831,2,1,2,0,48,0,0,0,0,0,0,0
21750556000,21750476000,9.840872e-05,0.0017741321,0.005707825,8389271,0,0.3724119,0.41725734,0.011817551,0.02206954,0.011368493,0.0045790346,0.0,0.0,0.0,0.0,1310988,1310988,6620172,197644,0,0,831,2,1,2,0,48,0,0,0,0,0,0,0
21750756000,21750676000,0.00017459129,0.0022296181,0.0059095523,8389271,0,0.36943883,0.41465613,0.029945709,0.02203856,0.011409329,0.0015237904,0.0,0.0,0.0,0.0,1310988,1310988,6620172,197644,0,0,831,2,1,2,0,48,0,0,0,0,0,0,0
21750956000,21750876000,0.000119168166,0.0014584117,0.00237947,8389271,0,0.36671823,0.41501877,0.011016886,0.013987727,0.015833313,0.0032701795,0.0,0.0,0.0,0.0,1310988,1310988,6620172,197644,0,0,831,2,1,2,0,48,0,0,0,0,0,0,0
21751156000,21751076000,9.295613e-05,0.004447096,0.010322493,8389271,0,0.3849028,0.42106548,0.0055961423,0.013987727,0.015833313,0.0003644553,0.0,0.0,0.0,0.0,1310988,1310988,6620172,197644,0,0,831,2,1,2,0,48,0,0,0,0,0,0,0
21751356000,21751276000,8.8766355e-05,0.0033251878,0.007086576,8389271,0,0.38078249,0.41821778,0.008894699,0.02754222,0.014665088,0.004460868,0.0,0.0,0.0,0.0,1310988,1310988,6620172,197644,0,0,831,2,1,2,0,48,0,0,0,0,0,0,0
21751556000,21751476000,0.00010661357,0.0030556212,0.005765352,8389271,0,0.37707803,0.4184244,0.018685173,0.011436569,0.018654399,0.0035805905,0.0,0.0,0.0,0.0,1310988,1310988,6620172,197644,0,0,831,2,1,2,0,48,0,0,0,0,0,0,0
21751756000,21751676000,5.6543948e-05,0.0032793533,0.0060283155,8389271,0,0.37372538,0.4186526,0.0037522959,0.014601801,0.014474416,0.00087095384,0.0,0.0,0.0,0.0,1310988,1310988,6620172,197644,0,0,831,2,1,2,0,48,0,0,0,0,0,0,0
21751956000,21751876000,0.00017182599,0.0033700888,0.006431204,8389271,0,0.3706744,0.41592452,0.02174377,0.011823046,0.01563411,0.0001904655,0.0,0.0,0.0,0.0,1310988,1310988,6620172,197644,0,0,831,2,1,2,0,48,0,0,0,0,0,0,0
21752156000,21752076000,0.00017860216,0.002574018,0.0053616394,8389271,0,0.3678854,0.4162036,0.017663173,0.011346405,0.014359367,0.00015237706,0.0,0.0,0.0,0.0,1310988,1310988,6620172,197644,0,0,831,2,1,2,0,48,0,0,0,0,0,0,0
21752356000,21752276000,6.7609835e-05,0.0028453544,0.005424265,8389271,0,0.3653262,0.4164927,0.0034243024,0.009859333,0.018435596,0.0045386357,0.0,0.0,0.0,0.0,1310988,1310988,6620172,197644,0,0,831,2,1,2,0,48,0,0,0,0,0,0,0
21752556000,21752476000,0.00023782114,0.0042058686,0.009998254,8389271,0,0.38336286,0.41935554,0.03581758,0.009859333,0.018435596,0.0005418966,0.0,0.0,0.0,0.0,1310988,1310988,6620172,197644,0,0,831,2,1,2,0,48,0,0,0,0,0,0,0
21752756000,21752676000,0.000145892,0.00395629,0.008250041,8389271,0,0.3793573,0.41947284,0.007745406,0.01085967,0.014197469,0.002008382,0.0,0.0,0.0,0.0,1310988,1310988,6620172,197644,0,0,831,2,1,2,0,48,0,0,0,0,0,0,0
21752956000,21752876000,7.13963e-05,0.00460181,0.009033444,8389271,0,0.3757492,0.41963398,0.012598093,0.010741483,0.012900591,0.0014440666,0.0,0.0,0.0,0.0,1310988,1310988,6620172,197644,0,0,831,2,1,2,0,48,0,0,0,0,0,0,0
21753156000,21753076000,0.00010638182,0.0051472606,0.011676366,8389271,0,0.37248006,0.4168558,0.011325315,0.017016692,0.009241971,0.0038127278,0.0,0.0,0.0,0.0,1310988,1310988,6620172,197644,0,0,831,2,1,2,0,48,0,0,0,0,0,0,0
21753356000,21753276000,0.00014184324,0.006863622,0.014004668,8389271,0,0.36950186,0.41709143,0.013100574,0.025480384,0.012737482,0.0017384999,0.0,0.0,0.0,0.0,1310988,1310988,6620172,197644,0,0,831,2,1,2,0,48,0,0,0,0,0,0,0
21753556000,21753476000,0.00016918429,0.0052784537,0.011637978,8389271,0,0.36677545,0.41733924,0.027083376,0.010240986,0.010411802,0.00023376955,0.0,0.0,0.0,0.0,1310988,1310988,6620172,197644,0,0,831,2,1,2,0,48,0,0,0,0,0,0,0
21753756000,21753676000,0.00013917315,0.004168989,0.01137101,8389271,0,0.38494214,0.42018625,0.01803105,0.010240986,0.010411802,0.0028151867,0.0,0.0,0.0,0.0,1310988,1310988,6620172,197644,0,0,831,2,1,2,0,48,0,0,0,0,0,0,0
21753956000,21753876000,0.00012214525,0.0032256905,0.0068337233,8389271,0,0.38081828,0.4203152,0.008816627,0.013620266,0.018587446,0.0020673152,0.0,0.0,0.0,0.0,1310988,1310988,6620172,197644,0,0,831,2,1,2,0,48,0,0,0,0,0,0,0
21754156000,21754076000,0.00010333597,0.0051152636,0.010386327,8389271,0,0.37710977,0.4174684,0.01640156,0.025896883,0.017506339,0.0065533957,0.0,0.0,0.0,0.0,1310988,1310988,6620172,197644,0,0,831,2,1,2,0,48,0,0,0,0,0,0,0
21754356000,21754276000,0.00012981915,0.0042392146,0.00798884,8389271,0,0.37375256,0.41766077,0.023322625,0.012830931,0.0131780105,0.0016743658,0.0,0.0,0.0,0.0,1310988,1310988,6620172,197644,0,0,831,2,1,2,0,48,0,0,0,0,0,0,0
21754556000,21754476000,9.2903516e-05,0.0054498906,0.009681038,8389271,0,0.37069818,0.41786775,0.002804219,0.025700377,0.016824042,0.0017800451,0.0,0.0,0.0,0.0,1310988,1310988,6620172,197644,0,0,831,2,1,2,0,48,0,0,0,0,0,0,0
21754756000,21754676000,0.00012327173,0.004649168,0.008571839,8389271,0,0.36790508,0.41514522,0.010257104,0.022278713,0.010890093,0.001885659,0.0,0.0,0.0,0.0,1310988,1310988,6620172,197644,0,0,831,2,1,2,0,48,0,0,0,0,0,0,0
21754956000,21754876000,0.00011991125,0.0052216994,0.011172019,8389271,0,0.36534116,0.41540623,0.017178437,0.027730461,0.015095073,0.0034217152,0.0,0.0,0.0,0.0,1310988,1310988,6620172,197644,0,0,831,2,1,2,0,48,0,0,0,0,0,0,0
21755156000,21755076000,0.00016095856,0.0026417135,0.0075572813,8389271,0,0.38333833,0.42108497,0.01904478,0.027730461,0.015095073,0.0001497638,0.0,0.0,0.0,0.0,1310988,1310988,6620172,197644,0,0,831,2,1,2,0,48,0,0,0,0,0,0,0
21755356000,21755276000,0.00012153197,0.0049634525,0.012702839,8389271,0,0.37933552,0.418178,0.0024605887,0.034027815,0.0082367975,0.00405157,0.0,0.0,0.0,0.0,1310988,1310988,6620172,197644,0,0,831,2,1,2,0,48,0,0,0,0,0,0,0
21755556000,21755476000,9.325047e-05,0.0035638856,0.0092347,8389271,0,0.37572953,0.41834548,0.0066483757,0.014291747,0.009366117,0.0020933824,0.0,0.0,0.0,0.0,1310988,1310988,6620172,197644,0,0,831,2,1,2,0,48,0,0,0,0,0,0,0
21755756000,21755676000,0.00014661088,0.0058522196,0.013759166,8389271,0,0.37246016,0.4185368,0.0034872675,0.03461096,0.0048843673,0.009722009,0.0,0.0,0.0,0.0,1310988,1310988,6620172,197644,0,0,831,2,1,2,0,48,0,0,0,0,0,0,0
21755956000,21755876000,0.00016947025,0.005577768,0.011639401,8389271,0,0.36948174,0.41579401,0.015630169,0.028295739,0.0110891685,0.002880484,0.0,0.0,0.0,0.0,1310988,1310988,6620172,197644,0,0,831,2,1,2,0,48,0,0,0,0,0,0,0
21756156000,21756076000,0.00016978288,0.005577656,0.011800207,8389271,0,0.36675474,0.41603342,0.007107315,0.033968784,0.015221118,0.0018407265,0.0,0.0,0.0,0.0,1310988,1310988,6620172,197644,0,0,831,2,1,2,0,48,0,0,0,0,0,0,0
21756356000,21756276000,0.0001473223,0.0016280294,0.0061776014,8389271,0,0.38487944,0.41871932,0.0013086344,0.033968784,0.015221118,0.00028481663,0.0,0.0,0.0,0.0,1310988,1310988,6620172,197644,0,0,831,2,1,2,0,48,0,0,0,0,0,0,0
21756556000,21756476000,0.00016848624,0.00230444,0.004508948,8389271,0,0.38076246,0.41889486,0.019829012,0.027914012,0.017642934,0.0043443376,0.0,0.0,0.0,0.0,1310988,1310988,6620172,197644,0,0,831,2,1,2,0,48,0,0,0,0,0,0,0
21756756000,21756676000,0.00010827229,0.0035515968,0.008102589,8389271,0,0.37705874,0.41611278,0.007682584,0.034627955,0.014600444,0.0008570892,0.0,0.0,0.0,0.0,1310988,1310988,6620172,197644,0,0,831,2,1,2,0,48,0,0,0,0,0,0,0
21756956000,21756876000,0.00010212753,0.0023511706,0.0056828135,8389271,0,0.37370518,0.41635352,0.010232371,0.023033183,0.017787557,0.0057160635,0.0,0.0,0.0,0.0,1310988,1310988,6620172,197644,0,0,831,2,1,2,0,48,0,0,0,0,0,0,0
21757156000,21757076000,0.00022487839,0.0035310627,0.008620453,8389271,0,0.37065303,0.4166295,0.011736148,0.03646422,0.012233288,0.00047967152,0.0,0.0,0.0,0.0,1310988,1310988,6620172,197644,0,0,831,2,1,2,0,48,0,0,0,0,0,0,0
21757356000,21757276000,0.00015570098,0.004357389,0.010490615,8389271,0,0.36786264,0.41400447,0.011129005,0.03787428,0.016703507,0.000752403,0.0,0.0,0.0,0.0,1310988,1310988,6620172,197644,0,0,831,2,1,2,0,48,0,0,0,0,0,0,0
21757556000,21757476000,0.00018365208,0.004274417,0.011857722,8389271,0,0.3653002,0.4143252,0.006190056,0.0398073,0.01165287,0.008738326,0.0,0.0,0.0,0.0,1310988,1310988,6620172,197644,0,0,831,2,1,2,0,48,0,0,0,0,0,0,0
21757756000,21757676000,5.7334804e-05,0.0015324929,0.005009376,8389271,0,0.38326058,0.41696587,0.007973056,0.0398073,0.01165287,0.008195782,0.0,0.0,0.0,0.0,1310988,1310988,6620172,197644,0,0,831,2,1,2,0,48,0,0,0,0,0,0,0
21757956000,21757876000,0.0001109728,0.000762907,0.0019035492,8389271,0,0.37933737,0.41719368,0.004765658,0.030030059,0.01520813,0.005419697,0.0,0.0,0.0,0.0,1310988,1310988,6620172,197644,0,0,831,2,1,2,0,48,0,0,0,0,0,0,0
21758156000,21758076000,0.00014747755,0.0020142153,0.0065643215,8389271,0,0.37572944,0.41743392,0.016180813,0.03442856,0.011411222,0.009478888,0.0,0.0,0.0,0.0,1310988,1310988,6620172,197644,0,0,831,2,1,2,0,48,0,0,0,0,0,0,0
21758356000,21758276000,0.00010635658,0.0019141481,0.0049772486,8389271,0,0.37252396,0.414758,0.0063291574,0.03489574,0.01652551,0.0007896286,0.0,0.0,0.0,0.0,1310988,1310988,6620172,197644,0,0,831,2,1,2,0,48,0,0,0,0,0,0,0
21758556000,21758476000,6.0648657e-05,0.003357421,0.007847611,8389271,0,0.36959973,0.41506916,0.008449503,0.04480278,0.017315852,0.0014537538,0.0,0.0,0.0,0.0,1310988,1310988,6620172,197644,0,0,831,2,1,2,0,48,0,0,0,0,0,0,0
21758756000,21758676000,0.00014676513,0.0035259693,0.00827436,8389271,0,0.3668595,0.41252542,0.0254655,0.03759114,0.008221592,0.0016823851,0.0,0.0,0.0,0.0,1310988,1310988,6620172,197644,0,0,831,2,1,2,0,48,0,0,0,0,0,0,0
21758956000,21758876000,0.00010348037,0.0026272289,0.0030613486,8389271,0,0.3849717,0.41808888,0.025391255,0.03759114,0.008221592,0.0005532079,0.0,0.0,0.0,0.0,1310988,1310988,6620172,197644,0,0,831,2,1,2,0,48,0,0,0,0,0,0,0
21759156000,21759076000,3.591647e-05,0.0035353485,0.0053530154,8389271,0,0.38084334,0.41534844,0.009017633,0.013662898,0.011281362,0.011255003,0.0,0.0,0.0,0.0,1310988,1310988,6620172,197644,0,0,831,2,1,2,0,48,0,0,0,0,0,0,0
21759356000,21759276000,9.839688e-05,0.0016783272,0.004117041,8389271,0,0.3771285,0.41562685,0.006975775,0.037040144,0.011038242,0.0051843827,0.0,0.0,0.0,0.0,1310988,1310988,6620172,197644,0,0,831,2,1,2,0,48,0,0,0,0,0,0,0
21759556000,21759476000,0.00015483814,0.0016473172,0.005322639,8389271,0,0.37376493,0.41594607,0.02513062,0.033590376,0.011216072,0.008701824,0.0,0.0,0.0,0.0,1310988,1310988,6620172,197644,0,0,831,2,1,2,0,48,0,0,0,0,0,0,0
21759756000,21759676000,0.00020250457,0.0023053014,0.0072326176,8389271,0,0.37070352,0.41340572,0.032410037,0.038378328,0.012157876,0.007450874,0.0,0.0,0.0,0.0,1310988,1310988,6620172,197644,0,0,831,2,1,2,0,48,0,0,0,0,0,0,0
21759956000,21759876000,6.982821e-05,0.0041082404,0.009825772,8389271,0,0.36790425,0.41379964,0.0019015301,0.043551575,0.012258457,0.009639181,0.0,0.0,0.0,0.0,1310988,1310988,6620172,197644,0,0,831,2,1,2,0,48,0,0,0,0,0,0,0
21760156000,21760076000,0.000109800174,0.0043074987,0.011449878,8389271,0,0.3653347,0.41133466,0.015201046,0.04858768,0.013919519,0.0038428125,0.0,0.0,0.0,0.0,1310988,1310988,6620172,197644,0,0,831,2,1,2,0,48,0,0,0,0,0,0,0
21760356000,21760276000,8.43748e-05,0.002568049,0.004173699,8389271,0,0.38326707,0.41685823,0.02324979,0.04858768,0.013919519,0.0051496373,0.0,0.0,0.0,0.0,1310988,1310988,6620172,197644,0,0,831,2,1,2,0,48,0,0,0,0,0,0,0
21760556000,21760476000,9.752354e-05,0.00297918,0.0050763474,8389271,0,0.37927106,0.41712293,0.0062128417,0.054600704,0.0094099175,0.0059273983,0.0,0.0,0.0,0.0,1310988,1310988,6620172,197644,0,0,831,2,1,2,0,48,0,0,0,0,0,0,0
21760756000,21760676000,0.00013500004,0.0040610936,0.011282395,8389271,0,0.3757366,0.41451418,0.010764143,0.06217034,0.012993514,0.014631629,0.0,0.0,0.0,0.0,1310988,1310988,6620172,197644,0,0,831,2,1,2,0,48,0,0,0,0,0,0,0
21760956000,21760876000,0.00010679473,0.0034408234,0.009235117,8389271,0,0.37252748,0.41485092,0.018705348,0.040572755,0.013770952,0.005936278,0.0,0.0,0.0,0.0,1310988,1310988,6620172,197644,0,0,831,2,1,2,0,48,0,0,0,0,0,0,0
21761156000,21761076000,0.0001146741,0.0036052528,0.008499395,8389271,0,0.36953667,0.41231176,0.004367344,0.034703203,0.004694447,0.0040436415,0.0,0.0,0.0,0.0,1310988,1310988,6620172,197644,0,0,831,2,1,2,0,48,0,0,0,0,0,0,0
21761356000,21761276000,0.0001321874,0.0036695541,0.008348294,8389271,0,0.36679932,0.4127079,0.0072456086,0.047544368,0.0072398973,1.0390769e-05,0.0,0.0,0.0,0.0,1310988,1310988,6620172,197644,0,0,831,2,1,2,0,48,0,0,0,0,0,0,0
21761556000,21761476000,9.711706e-05,0.002280316,0.0049067223,8389271,0,0.38487437,0.41827157,0.014322307,0.047544368,0.0072398973,0.009173868,0.0,0.0,0.0,0.0,1310988,1310988,6620172,197644,0,0,831,2,1,2,0,48,0,0,0,0,0,0,0
21761756000,21761676000,7.755936e-05,0.0018862727,0.0045393873,8389271,0,0.38075596,0.41556364,0.012954814,0.029699082,0.012821342,0.0010545203,0.0,0.0,0.0,0.0,1310988,1310988,6620172,197644,0,0,831,2,1,2,0,48,0,0,0,0,0,0,0
21761956000,21761876000,0.00014121404,0.0033277296,0.0059139435,8389271,0,0.37705013,0.4158368,0.012015054,0.03571063,0.012863578,0.010574954,0.0,0.0,0.0,0.0,1310988,1310988,6620172,197644,0,0,831,2,1,2,0,48,0,0,0,0,0,0,0
21762156000,21762076000,9.987303e-05,0.002111718,0.004480027,8389271,0,0.37369347,0.4161272,0.024740715,0.038302507,0.008845793,0.01150538,0.0,0.0,0.0,0.0,1310988,1310988,6620172,197644,0,0,831,2,1,2,0,48,0,0,0,0,0,0,0
21762356000,21762276000,0.00010439127,0.002784919,0.0065323035,8389271,0,0.3706372,0.4135178,0.022858692,0.040452246,0.012723162,0.012931328,0.0,0.0,0.0,0.0,1310988,1310988,6620172,197644,0,0,831,2,1,2,0,48,0,0,0,0,0,0,0
21762556000,21762476000,0.00017515791,0.004523908,0.010297722,8389271,0,0.36784235,0.4138584,0.0025053618,0.060540188,0.011557353,0.009061606,0.0,0.0,0.0,0.0,1310988,1310988,6620172,197644,0,0,831,2,1,2,0,48,0,0,0,0,0,0,0
21762756000,21762676000,0.00015368844,0.0033839634,0.0075301244,8389271,0,0.36527604,0.41136554,0.0011825904,0.036404155,0.0045926212,0.000927383,0.0,0.0,0.0,0.0,1310988,1310988,6620172,197644,0,0,831,2,1,2,0,48,0,0,0,0,0,0,0
21762956000,21762876000,2.7864096e-05,0.0023279898,0.0051953094,8389271,0,0.38318136,0.41685322,0.0042298506,0.036404155,0.0045926212,0.011437996,0.0,0.0,0.0,0.0,1310988,1310988,6620172,197644,0,0,831,2,1,2,0,48,0,0,0,0,0,0,0
21763156000,21763076000,0.00018668613,0.003558497,0.008119023,8389271,0,0.37926495,0.41712582,0.0513956,0.010361642,0.013414401,0.014741429,0.0,0.0,0.0,0.0,1310988,1310988,6620172,197644,0,0,831,2,1,2,0,48,0,0,0,0,0,0,0
21763356000,21763276000,0.00011649481,0.0023668364,0.0037785533,8389271,0,0.3756628,0.41447917,0.018028822,0.03497784,0.005553004,0.004824305,0.0,0.0,0.0,0.0,1310988,1310988,6620172,197644,0,0,831,2,1,2,0,48,0,0,0,0,0,0,0
21763556000,21763476000,0.00016023383,0.002384672,0.003207886,8389271,0,0.3723951,0.41479585,0.04348376,0.036636207,0.0058712796,0.0065345913,0.0,0.0,0.0,0.0,1310988,1310988,6620172,197644,0,0,831,2,1,2,0,48,0,0,0,0,0,0,0
21763756000,21763676000,0.00010644531,0.0018395274,0.0033690927,8389271,0,0.36941612,0.41512027,0.0006123623,0.02719314,0.007430652,0.007108976,0.0,0.0,0.0,0.0,1310988,1310988,6620172,197644,0,0,831,2,1,2,0,48,0,0,0,0,0,0,0
21763956000,21763876000,0.000119828925,0.00074720796,0.0030677756,8389271,0,0.36668858,0.41257912,0.00061114365,0.02861434,0.005366517,0.017767085,0.0,0.0,0.0,0.0,1310988,1310988,6620172,197644,0,0,831,2,1,2,0,48,0,0,0,0,0,0,0
21764156000,21764076000,4.239927e-05,0.003025493,0.0060535725,8389271,0,0.38472977,0.4180497,0.008531638,0.02861434,0.005366517,0.0066498867,0.0,0.0,0.0,0.0,1310988,1310988,6620172,197644,0,0,831,2,1,2,0,48,0,0,0,0,0,0,0
21764356000,21764276000,9.469767e-05,0.0023570624,0.0038269153,8389271,0,0.38062763,0.41533843,0.012003593,0.034646496,0.008751547,0.008722973,0.0,0.0,0.0,0.0,1310988,1310988,6620172,197644,0,0,831,2,1,2,0,48,0,0,0,0,0,0,0
21764556000,21764476000,6.980263e-05,0.0014907526,0.004034038,8389271,0,0.3769346,0.41563538,0.0010717269,0.037133187,0.012593996,0.0024104665,0.0,0.0,0.0,0.0,1310988,1310988,6620172,197644,0,0,831,2,1,2,0,48,0,0,0,0,0,0,0
21764756000,21764676000,9.891271e-05,0.0021300388,0.004893696,8389271,0,0.37358913,0.41306522,0.0029215151,0.014013244,0.010127736,0.006457539,0.0,0.0,0.0,0.0,1310988,1310988,6620172,197644,0,0,831,2,1,2,0,48,0,0,0,0,0,0,0
21764956000,21764876000,7.6242e-05,0.0024085434,0.008672488,8389271,0,0.37054256,0.4134322,0.0008825589,0.027497096,0.012214207,0.011190583,0.0,0.0,0.0,0.0,1310988,1310988,6620172,197644,0,0,831,2,1,2,0,48,0,0,0,0,0,0,0
21765156000,21765076000,8.395305e-05,0.0031172293,0.0073533193,8389271,0,0.36775577,0.41381228,0.017237492,0.019820044,0.010217056,0.011672518,0.0,0.0,0.0,0.0,1310988,1310988,6620172,197644,0,0,831,2,1,2,0,48,0,0,0,0,0,0,0
21765356000,21765276000,0.00013781669,0.002022709,0.0036509184,8389271,0,0.36519626,0.41133493,0.0036541377,0.02780333,0.01142408,0.010551915,0.0,0.0,0.0,0.0,1310988,1310988,6620172,197644,0,0,831,2,1,2,0,48,0,0,0,0,0,0,0
21765556000,21765476000,9.990474e-05,0.0034367316,0.0077326274,8389271,0,0.38307744,0.4167701,0.023955328,0.02780333,0.01142408,0.011631735,0.0,0.0,0.0,0.0,1310988,1310988,6620172,197644,0,0,831,2,1,2,0,48,0,0,0,0,0,0,0
21765756000,21765676000,0.00012613623,0.0019850647,0.005594906,8389271,0,0.37910154,0.41702268,0.0021013853,0.026023736,0.010384304,0.007994129,0.0,0.0,0.0,0.0,1310988,1310988,6620172,197644,0,0,831,2,1,2,0,48,0,0,0,0,0,0,0
21765956000,21765876000,4.8293805e-05,0.0019197762,0.0035643973,8389271,0,0.37558332,0.4143662,0.0010110283,0.02866783,0.015136549,0.009310114,0.0,0.0,0.0,0.0,1310988,1310988,6620172,197644,0,0,831,2,1,2,0,48,0,0,0,0,0,0,0
21766156000,21766076000,6.4294756e-05,0.002211766,0.0052673165,8389271,0,0.37232295,0.41465718,0.0035084768,0.016654307,0.011775126,0.009629874,0.0,0.0,0.0,0.0,1310988,1310988,6620172,197644,0,0,831,2,1,2,0,48,0,0,0,0,0,0,0
21766356000,21766276000,6.147924e-05,0.0018099395,0.0045714593,8389271,0,0.36941314,0.41210112,0.0005823319,0.02076167,0.015149522,0.0072715404,0.0,0.0,0.0,0.0,1310988,1310988,6620172,197644,0,0,831,2,1,2,0,48,0,0,0,0,0,0,0
21766556000,21766476000,6.7908906e-05,0.0019907632,0.004535513,8389271,0,0.3666847,0.41246384,0.003329231,0.023599265,0.008178965,0.0016702977,0.0,0.0,0.0,0.0,1310988,1310988,6620172,197644,0,0,831,2,1,2,0,48,0,0,0,0,0,0,0
21766756000,21766676000,9.7008255e-05,0.003008976,0.006635205,8389271,0,0.3847149,0.41793218,0.009789082,0.023599265,0.008178965,0.007873388,0.0,0.0,0.0,0.0,1310988,1310988,6620172,197644,0,0,831,2,1,2,0,48,0,0,0,0,0,0,0
21766956000,21766876000,5.4773092e-05,0.0027545132,0.0053318334,8389271,0,0.38061365,0.415239,0.0072370092,0.032160103,0.008514322,0.011625824,0.0,0.0,0.0,0.0,1310988,1310988,6620172,197644,0,0,831,2,1,2,0,48,0,0,0,0,0,0,0
21767156000,21767076000,9.467997e-05,0.0024670686,0.0061616986,8389271,0,0.37692103,0.41552758,0.030576251,0.020882152,0.008405333,0.007217572,0.0,0.0,0.0,0.0,1310988,1310988,6620172,197644,0,0,831,2,1,2,0,48,0,0,0,0,0,0,0
21767356000,21767276000,2.7612572e-05,0.0029077907,0.008074726,8389271,0,0.37357602,0.41582525,6.682311e-05,0.013833291,0.00994485,0.007182273,0.0,0.0,0.0,0.0,1310988,1310988,6620172,197644,0,0,831,2,1,2,0,48,0,0,0,0,0,0,0
21767556000,21767476000,8.100388e-05,0.0011077131,0.002737624,8389271,0,0.37052885,0.41324443,0.00014020679,0.04186407,0.009078405,0.0046452773,0.0,0.0,0.0,0.0,1310988,1310988,6620172,197644,0,0,831,2,1,2,0,48,0,0,0,0,0,0,0
21767756000,21767676000,0.00012400595,0.0016946809,0.002667769,8389271,0,0.36768064,0.41357693,0.009414774,0.034101296,0.007801067,0.0059469184,0.0,0.0,0.0,0.0,1310988,1310988,6620172,197644,0,0,831,2,1,2,0,48,0,0,0,0,0,0,0
21767956000,21767876000,8.33889e-05,0.002183539,0.005024366,8389271,0,0.38577282,0.41610956,0.026345858,0.034101296,0.007801067,0.0036750948,0.0,0.0,0.0,0.0,1310988,1310988,6620172,197644,0,0,831,2,1,2,0,48,0,0,0,0,0,0,0
21768156000,21768076000,1.033953e-05,0.0030018447,0.0074323346,8389271,0,0.38154197,0.41634876,0.0037657695,0.007661578,0.015855825,0.00728563,0.0,0.0,0.0,0.0,1310988,1310988,6620172,197644,0,0,831,2,1,2,0,48,0,0,0,0,0,0,0
21768356000,21768276000,6.227154e-05,0.0011420968,0.0036765528,8389271,0,0.3777386,0.41662326,0.0030601583,0.029528223,0.009808871,0.0056332173,0.0,0.0,0.0,0.0,1310988,1310988,6620172,197644,0,0,831,2,1,2,0,48,0,0,0,0,0,0,0
21768556000,21768476000,6.2143e-05,0.0007569189,0.0018617755,8389271,0,0.37429813,0.41401166,0.0010542284,0.021735504,0.016164428,0.008502575,0.0,0.0,0.0,0.0,1310988,1310988,6620172,197644,0,0,831,2,1,2,0,48,0,0,0,0,0,0,0
21768756000,21768676000,1.8662618e-05,0.0021021704,0.004134569,8389271,0,0.37116903,0.4143674,0.0035346427,0.03823021,0.012875246,0.005565126,0.0,0.0,0.0,0.0,1310988,1310988,6620172,197644,0,0,831,2,1,2,0,48,0,0,0,0,0,0,0
21768956000,21768876000,8.269912e-05,0.0041562426,0.008692181,8389271,0,0.36830893,0.41186327,0.0057302206,0.026564835,0.016375672,0.0012823819,0.0,0.0,0.0,0.0,1310988,1310988,6620172,197644,0,0,831,2,1,2,0,48,0,0,0,0,0,0,0
21769156000,21769076000,7.4322765e-05,0.0044713714,0.009735182,8389271,0,0.36568612,0.41225368,0.009114134,0.016966194,0.013118149,0.0069567226,0.0,0.0,0.0,0.0,1310988,1310988,6620172,197644,0,0,831,2,1,2,0,48,0,0,0,0,0,0,0
21769356000,21769276000,4.0946863e-05,0.0029882109,0.0059585525,8389271,0,0.3835545,0.4147906,0.010145797,0.016966194,0.013118149,0.011005006,0.0,0.0,0.0,0.0,1310988,1310988,6620172,197644,0,0,831,2,1,2,0,48,0,0,0,0,0,0,0
21769556000,21769476000,2.2181246e-05,0.0020595207,0.0054176655,8389271,0,0.37951842,0.41508186,0.0065067927,0.019135099,0.006329394,0.0035195227,0.0,0.0,0.0,0.0,1310988,1310988,6620172,197644,0,0,831,2,1,2,0,48,0,0,0,0,0,0,0
21769756000,21769676000,3.251414e-05,0.0025036896,0.0065015336,8389271,0,0.37594777,0.41541192,0.0024875917,0.022720573,0.01648322,0.0053346134,0.0,0.0,0.0,0.0,1310988,1310988,6620172,197644,0,0,831,2,1,2,0,48,0,0,0,0,0,0,0
21769956000,21769876000,9.473958e-05,0.0047456864,0.0113106975,8389271,0,0.3727069,0.41290778,0.004301455,0.021158846,0.019739311,0.0012226389,0.0,0.0,0.0,0.0,1310988,1310988,6620172,197644,0,0,831,2,1,2,0,48,0,0,0,0,0,0,0
21770156000,21770076000,3.544414e-05,0.0019877597,0.0058828965,8389271,0,0.36968818,0.4133269,0.006607038,0.021068485,0.01060156,0.0012045286,0.0,0.0,0.0,0.0,1310988,1310988,6620172,197644,0,0,831,2,1,2,0,48,0,0,0,0,0,0,0
21770356000,21770276000,8.655219e-05,0.0026704343,0.006425907,8389271,0,0.36698574,0.41093144,0.017505156,0.009110493,0.01996147,0.0046362043,0.0,0.0,0.0,0.0,1310988,1310988,6620172,197644,0,0,831,2,1,2,0,48,0,0,0,0,0,0,0
21770556000,21770476000,2.8755248e-05,0.0023961952,0.0067991433,8389271,0,0.38500226,0.41642538,0.0055306857,0.009110493,0.01996147,0.0027861635,0.0,0.0,0.0,0.0,1310988,1310988,6620172,197644,0,0,831,2,1,2,0,48,0,0,0,0,0,0,0
21770756000,21770676000,6.985337e-05,0.0025296153,0.004843482,8389271,0,0.38086522,0.41382274,0.012692305,0.019052502,0.011449074,0.0062530367,0.0,0.0,0.0,0.0,1310988,1310988,6620172,197644,0,0,831,2,1,2,0,48,0,0,0,0,0,0,0
21770956000,21770876000,5.2224266e-05,0.0034170095,0.006469857,8389271,0,0.3771413,0.41418946,0.00439361,0.022137519,0.016276186,0.007151956,0.0,0.0,0.0,0.0,1310988,1310988,6620172,197644,0,0,831,2,1,2,0,48,0,0,0,0,0,0,0
21771156000,21771076000,6.064872e-05,0.0035187313,0.008169785,8389271,0,0.37376824,0.4145682,0.01480276,0.013608714,0.011021195,0.0032947212,0.0,0.0,0.0,0.0,1310988,1310988,6620172,197644,0,0,831,2,1,2,0,48,0,0,0,0,0,0,0
21771356000,21771276000,4.0876876e-05,0.002336415,0.004813199,8389271,0,0.37069753,0.41209593,0.0037746483,0.010955728,0.0146500645,0.008478017,0.0,0.0,0.0,0.0,1310988,1310988,6620172,197644,0,0,831,2,1,2,0,48,0,0,0,0,0,0,0
21771556000,21771476000,4.779943e-05,0.002911072,0.007391214,8389271,0,0.36788917,0.41253477,0.00022183162,0.013989268,0.011992625,0.007931963,0.0,0.0,0.0,0.0,1310988,1310988,6620172,197644,0,0,831,2,1,2,0,48,0,0,0,0,0,0,0
21771756000,21771676000,9.135831e-05,0.0034506526,0.0071408036,8389271,0,0.3653106,0.41015297,0.00039041735,0.025248596,0.01559401,0.005700479,0.0,0.0,0.0,0.0,1310988,1310988,6620172,197644,0,0,831,2,1,2,0,48,0,0,0,0,0,0,0
21771956000,21771876000,7.141229e-05,0.0020109306,0.006517718,8389271,0,0.38316274,0.4156583,0.018016718,0.025248596,0.01559401,0.0004303251,0.0,0.0,0.0,0.0,1310988,1310988,6620172,197644,0,0,831,2,1,2,0,48,0,0,0,0,0,0,0
21772156000,21772076000,7.216409e-05,0.0028406032,0.00683357,8389271,0,0.37924442,0.41314492,0.016852943,0.017811641,0.01965642,0.0042756586,0.0,0.0,0.0,0.0,1310988,1310988,6620172,197644,0,0,831,2,1,2,0,48,0,0,0,0,0,0,0
21772356000,21772276000,6.301411e-05,0.0023471476,0.0051691555,8389271,0,0.37570766,0.41357318,0.0013142059,0.016795414,0.011086653,0.0022279322,0.0,0.0,0.0,0.0,1310988,1310988,6620172,197644,0,0,831,2,1,2,0,48,0,0,0,0,0,0,0
21772556000,21772476000,5.952672e-05,0.0025104608,0.00719479,8389271,0,0.37243035,0.41400304,0.0121709695,0.01762433,0.012940227,0.0027458493,0.0,0.0,0.0,0.0,1310988,1310988,6620172,197644,0,0,831,2,1,2,0,48,0,0,0,0,0,0,0
21772756000,21772676000,0.000104049584,0.0032589794,0.009039699,8389271,0,0.36944294,0.41157427,0.014143354,0.029366545,0.008834056,0.0006425083,0.0,0.0,0.0,0.0,1310988,1310988,6620172,197644,0,0,831,2,1,2,0,48,0,0,0,0,0,0,0
21772956000,21772876000,6.658126e-05,0.001832622,0.0043099867,8389271,0,0.36670783,0.41205823,0.0026444313,0.016113091,0.011916974,0.0033001918,0.0,0.0,0.0,0.0,1310988,1310988,6620172,197644,0,0,831,2,1,2,0,48,0,0,0,0,0,0,0
21773156000,21773076000,3.2723507e-05,0.001902022,0.0065556746,8389271,0,0.38470885,0.41470557,0.022761645,0.016113091,0.011916974,0.0007558632,0.0,0.0,0.0,0.0,1310988,1310988,6620172,197644,0,0,831,2,1,2,0,48,0,0,0,0,0,0,0
21773356000,21773276000,4.2107495e-05,0.001973269,0.005962405,8389271,0,0.3806067,0.41508684,9.8557684e-05,0.011471009,0.0092893755,0.0048791314,0.0,0.0,0.0,0.0,1310988,1310988,6620172,197644,0,0,831,2,1,2,0,48,0,0,0,0,0,0,0
21773556000,21773476000,6.8762485e-05,0.0034667763,0.008507131,8389271,0,0.3769123,0.4125738,0.0044897124,0.021906666,0.013360604,4.7621845e-05,0.0,0.0,0.0,0.0,1310988,1310988,6620172,197644,0,0,831,2,1,2,0,48,0,0,0,0,0,0,0
21773756000,21773676000,0.00010467909,0.004070325,0.009363279,8389271,0,0.37356588,0.41297564,0.008793443,0.02446967,0.0188748,0.001113513,0.0,0.0,0.0,0.0,1310988,1310988,6620172,197644,0,0,831,2,1,2,0,48,0,0,0,0,0,0,0
21773956000,21773876000,5.613755e-05,0.00337419,0.008795038,8389271,0,0.37051797,0.41338772,0.0067583616,0.017877877,0.018378118,0.00012469108,0.0,0.0,0.0,0.0,1310988,1310988,6620172,197644,0,0,831,2,1,2,0,48,0,0,0,0,0,0,0
21774156000,21774076000,3.9308343e-05,0.0014674369,0.003871555,8389271,0,0.3677296,0.4109477,0.017720958,0.0068442114,0.015181659,0.0025855766,0.0,0.0,0.0,0.0,1310988,1310988,6620172,197644,0,0,831,2,1,2,0,48,0,0,0,0,0,0,0
21774356000,21774276000,5.766667e-05,0.0011529081,0.00259943,8389271,0,0.36516893,0.41137895,0.0017061406,0.01716746,0.017842023,0.0021916428,0.0,0.0,0.0,0.0,1310988,1310988,6620172,197644,0,0,831,2,1,2,0,48,0,0,0,0,0,0,0
21774556000,21774476000,4.7532747e-05,0.001997002,0.0055539897,8389271,0,0.38301793,0.41685787,0.007734301,0.01716746,0.017842023,0.00018701497,0.0,0.0,0.0,0.0,1310988,1310988,6620172,197644,0,0,831,2,1,2,0,48,0,0,0,0,0,0,0
21774756000,21774676000,7.699685e-05,0.0022746364,0.006840466,8389271,0,0.3790469,0.41420633,0.0065511474,0.01054956,0.01065258,0.0002562778,0.0,0.0,0.0,0.0,1310988,1310988,6620172,197644,0,0,831,2,1,2,0,48,0,0,0,0,0,0,0
21774956000,21774876000,8.7127024e-05,0.0037068648,0.012001491,8389271,0,0.37546417,0.41451225,0.00893909,0.025794221,0.017125472,0.007485083,0.0,0.0,0.0,0.0,1310988,1310988,6620172,197644,0,0,831,2,1,2,0,48,0,0,0,0,0,0,0
21775156000,21775076000,0.00011937837,0.004443676,0.012311772,8389271,0,0.3722139,0.41483384,0.0073171654,0.037615266,0.0128758205,0.0016200392,0.0,0.0,0.0,0.0,1310988,1310988,6620172,197644,0,0,831,2,1,2,0,48,0,0,0,0,0,0,0
21775356000,21775276000,8.5685366e-05,0.0030576233,0.00850594,8389271,0,0.36931235,0.4122792,0.014601365,0.020178022,0.024171056,0.006043706,0.0,0.0,0.0,0.0,1310988,1310988,6620172,197644,0,0,831,2,1,2,0,48,0,0,0,0,0,0,0
21775556000,21775476000,9.019207e-05,0.0020173069,0.0066240416,8389271,0,0.36659113,0.4126315,0.024113607,0.014140715,0.011202668,0.003217621,0.0,0.0,0.0,0.0,1310988,1310988,6620172,197644,0,0,831,2,1,2,0,48,0,0,0,0,0,0,0
21775756000,21775676000,2.0041285e-05,0.0023305162,0.007441128,8389271,0,0.38458616,0.41808826,0.007382139,0.014140715,0.011202668,0.002154911,0.0,0.0,0.0,0.0,1310988,1310988,6620172,197644,0,0,831,2,1,2,0,48,0,0,0,0,0,0,0
21775956000,21775876000,8.2658284e-05,0.0038224347,0.01213217,8389271,0,0.3804988,0.41538146,0.009833994,0.037200294,0.017960213,0.00015670717,0.0,0.0,0.0,0.0,1310988,1310988,6620172,197644,0,0,831,2,1,2,0,48,0,0,0,0,0,0,0
21776156000,21776076000,0.000109793684,0.0032650903,0.010987176,8389271,0,0.3768177,0.41566026,0.0014447822,0.023065109,0.021534806,0.0012822908,0.0,0.0,0.0,0.0,1310988,1310988,6620172,197644,0,0,831,2,1,2,0,48,0,0,0,0,0,0,0
21776356000,21776276000,0.00013367485,0.0037693768,0.013104111,8389271,0,0.37348157,0.41305742,0.0034413852,0.029821502,0.017169906,0.006413258,0.0,0.0,0.0,0.0,1310988,1310988,6620172,197644,0,0,831,2,1,2,0,48,0,0,0,0,0,0,0
21776556000,21776476000,0.00020171017,0.00293524,0.009432551,8389271,0,0.37044364,0.41344023,0.053482115,0.023950012,0.020559456,0.0043277293,0.0,0.0,0.0,0.0,1310988,1310988,6620172,197644,0,0,831,2,1,2,0,48,0,0,0,0,0,0,0
21776756000,21776676000,5.170217e-05,0.0026073377,0.007816779,8389271,0,0.3676634,0.41383553,0.0063596065,0.025692314,0.014411235,0.0040655374,0.0,0.0,0.0,0.0,1310988,1310988,6620172,197644,0,0,831,2,1,2,0,48,0,0,0,0,0,0,0
21776956000,21776876000,5.3266278e-05,0.0018263111,0.0039272415,8389271,0,0.3651097,0.41137943,0.0048913276,0.011988503,0.019150626,0.0009126793,0.0,0.0,0.0,0.0,1310988,1310988,6620172,197644,0,0,831,2,1,2,0,48,0,0,0,0,0,0,0
21777156000,21777076000,3.590649e-05,0.0030360052,0.0075226333,8389271,0,0.38295522,0.41681507,0.011073472,0.011988503,0.019150626,0.0026346114,0.0,0.0,0.0,0.0,1310988,1310988,6620172,197644,0,0,831,2,1,2,0,48,0,0,0,0,0,0,0
21777356000,21777276000,7.5007774e-05,0.0028558695,0.0075007463,8389271,0,0.37899172,0.41708273,0.008483096,0.034006845,0.012951829,0.0010017726,0.0,0.0,0.0,0.0,1310988,1310988,6620172,197644,0,0,831,2,1,2,0,48,0,0,0,0,0,0,0
21777556000,21777476000,7.921416e-05,0.0021268437,0.006275227,8389271,0,0.37541625,0.41444004,0.0008049199,0.02053525,0.013218019,0.00017230018,0.0,0.0,0.0,0.0,1310988,1310988,6620172,197644,0,0,831,2,1,2,0,48,0,0,0,0,0,0,0
21777756000,21777676000,0.000100570905,0.0028635964,0.009177461,8389271,0,0.37217078,0.41474444,0.009809906,0.038432207,0.01957057,0.0030599283,0.0,0.0,0.0,0.0,1310988,1310988,6620172,197644,0,0,831,2,1,2,0,48,0,0,0,0,0,0,0
21777956000,21777876000,5.3367243e-05,0.0034306566,0.010035157,8389271,0,0.3692115,0.4150654,0.01963457,0.040555388,0.01870784,0.0013707095,0.0,0.0,0.0,0.0,1310988,1310988,6620172,197644,0,0,831,2,1,2,0,48,0,0,0,0,0,0,0
21778156000,21778076000,0.00013722506,0.0027458577,0.0077569634,8389271,0,0.3665002,0.41251504,0.0068640597,0.025692968,0.019027708,0.0021508615,0.0,0.0,0.0,0.0,1310988,1310988,6620172,197644,0,0,831,2,1,2,0,48,0,0,0,0,0,0,0
21778356000,21778276000,0.000116190415,0.0023291353,0.0061488566,8389271,0,0.38447997,0.41793853,0.013611698,0.025692968,0.019027708,0.0060949572,0.0,0.0,0.0,0.0,1310988,1310988,6620172,197644,0,0,831,2,1,2,0,48,0,0,0,0,0,0,0
21778556000,21778476000,0.00014354991,0.0015859371,0.0036478161,8389271,0,0.38040465,0.4152161,0.031724993,0.02289339,0.024238132,0.005218984,0.0,0.0,0.0,0.0,1310988,1310988,6620172,197644,0,0,831,2,1,2,0,48,0,0,0,0,0,0,0
21778756000,21778676000,0.00011441318,0.0014194605,0.0035343454,8389271,0,0.3767338,0.41548514,0.009077234,0.022160234,0.013644116,0.0044277827,0.0,0.0,0.0,0.0,1310988,1310988,6620172,197644,0,0,831,2,1,2,0,48,0,0,0,0,0,0,0
21778956000,21778876000,9.183129e-05,0.0013526868,0.0029211317,8389271,0,0.3734067,0.41290027,0.007967342,0.028883567,0.019875452,0.0032001524,0.0,0.0,0.0,0.0,1310988,1310988,6620172,197644,0,0,831,2,1,2,0,48,0,0,0,0,0,0,0
