timestamp,timestamp_sample,states[0],states[1],states[2],states[3],states[4],states[5],states[6],states[7],states[8],states[9],states[10],states[11],states[12],states[13],states[14],states[15],states[16],states[17],states[18],states[19],states[20],states[21],states[22],states[23],covariances[0],covariances[1],covariances[2],covariances[3],covariances[4],covariances[5],covariances[6],covariances[7],covariances[8],covariances[9],covariances[10],covariances[11],covariances[12],covariances[13],covariances[14],covariances[15],covariances[16],covariances[17],covariances[18],covariances[19],covariances[20],covariances[21],covariances[22],covariances[23],n_states
21727136000,21727056000,0.86128014,0.00049448624,-0.003106946,-0.50812083,-0.00017487098,-4.2443608e-05,0.00038020263,-0.6658399,-1.1535233,0.1374434,8.472393e-06,7.775051e-07,-2.0023037e-06,-0.00012325292,-1.27902e-05,-0.00024349193,0.19245979,-0.016763553,0.4897688,0.012141713,-0.0051024673,-0.0013442534,0.0,0.0,2.1676826e-05,4.781067e-06,4.814673e-06,5.9885657e-05,3.2876e-05,3.2875992e-05,3.3203847e-05,0.0012035188,0.0012034874,0.0030631642,8.837901e-12,8.838049e-12,2.2992956e-11,8.710095e-08,8.7549765e-08,5.0000146e-08,0.0,0.0,0.0,0.0,0.0,0.0,0.0,0.0,24
21728136000,21728056000,0.8612235,0.0005101686,-0.0033048154,-0.50821555,-9.581784e-05,0.00032102148,0.0020260583,-0.6655359,-1.1535575,0.13798538,8.252364e-06,8.486463e-07,-2.0039208e-06,-0.00012329464,-1.2776053e-05,-0.00025827598,0.19245979,-0.016763553,0.4897688,0.012141713,-0.0051024673,-0.0013442534,0.0,0.0,2.1690978e-05,4.8818165e-06,4.9152814e-06,5.988767e-05,0.00021667252,0.00021667239,0.00022847895,0.0012034808,0.0012034499,0.0030561031,8.923773e-12,8.923994e-12,2.2996846e-11,8.7105384e-08,8.755425e-08,5.000055e-08,0.0,0.0,0.0,0.0,0.0,0.0,0.0,0.0,24
21729136000,21729056000,0.86133003,0.0006354277,-0.0034744516,-0.5080337,-0.001233869,-0.0010174889,0.0017345657,-0.6657952,-1.1536965,0.13848883,7.952747e-06,8.570083e-07,-2.0175341e-06,-0.00012332489,-1.2795492e-05,-0.00026145217,0.19245979,-0.016763553,0.4897688,0.012141713,-0.0051024673,-0.0013442534,0.0,0.0,2.1612086e-05,4.858428e-06,4.8918923e-06,5.969887e-05,0.00017038705,0.00017038648,0.00017801684,0.0012002825,0.0012002521,0.0030449133,8.903418e-12,8.903785e-12,2.2964665e-11,8.710989e-08,8.7558696e-08,5.0000736e-08,0.0,0.0,0.0,0.0,0.0,0.0,0.0,0.0,24
21730136000,21730056000,0.861239,0.0010993155,-0.0033428357,-0.5081881,-2.0359097e-05,-0.0025259126,0.00010152856,-0.66546035,-1.1538092,0.13805752,7.704288e-06,7.2675573e-07,-2.0376249e-06,-0.00012329221,-1.27791e-05,-0.00027483128,0.19245979,-0.016763553,0.4897688,0.012141713,-0.0051024673,-0.0013442534,0.0,0.0,2.1635322e-05,4.83313e-06,4.866925e-06,5.969521e-05,0.00012566453,0.00012566303,0.00013000974,0.0011962138,0.0011961837,0.0030358986,8.882505e-12,8.8830115e-12,2.2968896e-11,8.711396e-08,8.756276e-08,5.0000445e-08,0.0,0.0,0.0,0.0,0.0,0.0,0.0,0.0,24
21731136000,21731056000,0.86123586,0.0013200389,-0.003239756,-0.50819355,0.0003731491,-0.0010980525,-0.0011248525,-0.6654929,-1.1539935,0.1380723,7.764415e-06,6.9864757e-07,-2.0325751e-06,-0.00012329793,-1.2785491e-05,-0.00026445024,0.19245979,-0.016763553,0.4897688,0.012141713,-0.0051024673,-0.0013442534,0.0,0.0,2.1641054e-05,4.8108004e-06,4.8447737e-06,5.9707876e-05,8.2556326e-05,8.255611e-05,8.450926e-05,0.0011939964,0.0011939665,0.003025876,8.862446e-12,8.862735e-12,2.2973037e-11,8.711831e-08,8.756715e-08,5.000037e-08,0.0,0.0,0.0,0.0,0.0,0.0,0.0,0.0,24
21732136000,21732056000,0.8611386,0.0012875769,-0.003217182,-0.50835836,0.000784419,0.00039814244,0.0033109034,-0.6656075,-1.1536186,0.13815112,7.793053e-06,6.5729375e-07,-1.9818758e-06,-0.00012330545,-1.278751e-05,-0.0002549233,0.19245979,-0.016763553,0.4897688,0.012141713,-0.0051024673,-0.0013442534,0.0,0.0,2.1651133e-05,4.7879694e-06,4.8219335e-06,5.971768e-05,4.0987168e-05,4.0987317e-05,4.15048e-05,0.0011920504,0.001192021,0.003016945,8.8421215e-12,8.8423e-12,2.2977299e-11,8.71226e-08,8.7571564e-08,5.0000185e-08,0.0,0.0,0.0,0.0,0.0,0.0,0.0,0.0,24
21733136000,21733056000,0.86130786,0.0012388192,-0.0033221699,-0.5080712,-8.7429304e-05,0.0038041887,0.0022037695,-0.6657165,-1.1534393,0.13863117,7.812544e-06,9.0204924e-07,-2.000293e-06,-0.00012335094,-1.2832501e-05,-0.00015816,0.19245979,-0.016763553,0.4897688,0.012141713,-0.0051024673,-0.0013442534,0.0,0.0,2.1639298e-05,4.8960605e-06,4.929866e-06,5.9753653e-05,0.00022618206,0.00022617728,0.00023887902,0.0011924572,0.001192428,0.0030106273,8.929433e-12,8.929401e-12,2.2982123e-11,8.712662e-08,8.757563e-08,5.000059e-08,0.0,0.0,0.0,0.0,0.0,0.0,0.0,0.0,24
21734136000,21734056000,0.86119187,0.0014467466,0.0023829609,-0.5082723,-0.018986117,0.014173664,-0.020804264,-0.6681231,-1.1454462,0.14851518,7.816652e-06,9.08051e-07,-2.032842e-06,-0.00012335545,-1.283077e-05,-0.00015618662,0.19245979,-0.016763553,0.4897688,0.012141713,-0.0051024673,-0.0013442534,0.0,0.0,2.1671194e-05,5.5094756e-06,5.5441287e-06,5.9753773e-05,0.0019514578,0.0019514675,0.002274903,0.00199076,0.0019907113,0.0039504245,9.417798e-12,9.4177565e-12,2.2987598e-11,8.7131156e-08,8.758017e-08,5.000004e-08,0.0,0.0,0.0,0.0,0.0,0.0,0.0,0.0,24
21735136000,21735056000,0.8615169,0.0015254011,-0.0045003877,-0.50770676,-0.0080943415,-0.0063202786,-1.45529,-0.69145286,-1.1367075,-0.78195786,7.801371e-06,9.417036e-07,-2.0364519e-06,-0.00012272211,-1.2463681e-05,-0.00016428245,0.19245979,-0.016763553,0.4897688,0.012141713,-0.0051024673,-0.0013442534,0.0,0.0,2.1634889e-05,5.970673e-06,6.0030757e-06,5.9815568e-05,0.0049679065,0.0049675093,0.005449769,0.007109495,0.007109468,0.010269334,9.776357e-12,9.776311e-12,2.2992075e-11,8.706946e-08,8.7517854e-08,5.0000075e-08,0.0,0.0,0.0,0.0,0.0,0.0,0.0,0.0,24
21736136000,21736056000,0.87088025,0.003735966,-0.0016667221,-0.49147826,0.0024324798,-0.009060598,-0.53587747,-0.68198156,-1.1551152,-1.7228664,7.764165e-06,1.0319156e-06,-2.0404673e-06,-0.00012466978,-1.35273385e-05,-0.00013821629,0.19266163,-0.016605172,0.48922646,0.012141713,-0.0051024673,-0.0013442534,0.0,0.0,0.00028902918,6.4011056e-06,6.449771e-06,0.0009823194,0.006448867,0.0064383014,0.008909666,0.018478239,0.018478049,0.027091358,1.0024746e-11,1.0024728e-11,2.3322564e-11,8.677953e-08,8.722501e-08,5.0000036e-08,0.0,0.0,0.0,0.0,0.0,0.0,0.0,0.0,24
21737136000,21737056000,0.86697024,0.0038952988,0.00032029877,-0.4983446,-0.01229522,0.0013967262,-0.19338714,-0.67327505,-1.1581517,-2.0757797,7.714877e-06,1.0569981e-06,-2.0320276e-06,-0.00012592746,-1.8934948e-05,-0.00012264615,0.19266163,-0.016605172,0.48922646,0.012141713,-0.0051024673,-0.0013442534,0.0,0.0,0.00016151383,6.3853663e-06,6.4246055e-06,0.00054978085,0.0105856545,0.010536206,0.011723263,0.032628603,0.032619525,0.054919735,1.0341351e-11,1.03412435e-11,2.3833763e-11,8.312309e-08,8.353272e-08,5.0000036e-08,0.0,0.0,0.0,0.0,0.0,0.0,0.0,0.0,24
21738136000,21738056000,0.8653236,0.011354279,0.0048157433,-0.50106204,-0.012959235,0.02627518,-0.006575138,-0.6710261,-1.1524768,-2.1075704,7.676209e-06,1.0734229e-06,-2.0216128e-06,-0.00012608766,-2.8503666e-05,-0.000115600036,0.19266163,-0.016605172,0.48922646,0.012141713,-0.0051024673,-0.0013442534,0.0,0.0,0.00011236341,5.8964006e-06,5.9680287e-06,0.0003819699,0.01417494,0.01411302,0.013367003,0.047597498,0.04757063,0.088019475,1.07300835e-11,1.0729742e-11,2.4343454e-11,7.6035214e-08,7.6383486e-08,5.0000075e-08,0.0,0.0,0.0,0.0,0.0,0.0,0.0,0.0,24
21739136000,21739056000,0.85384095,0.11452297,0.06743283,-0.5032823,-0.0077424594,0.9526077,-0.56156266,-0.65943664,-0.80018306,-2.4304225,7.646522e-06,1.0965649e-06,-2.010084e-06,-0.00013104556,-3.643622e-05,-0.00010856374,0.19266163,-0.016605172,0.48922646,0.012141713,-0.0051024673,-0.0013442534,0.0,0.0,8.462693e-05,6.7386304e-06,9.40151e-06,0.00027911883,0.013556981,0.012778253,0.01303985,0.053018026,0.052999668,0.112719655,1.1149418e-11,1.1148523e-11,2.4850375e-11,6.849737e-08,6.881373e-08,5.0000036e-08,0.0,0.0,0.0,0.0,0.0,0.0,0.0,0.0,24
21740136000,21740056000,0.8483846,0.09642578,0.16472976,-0.493771,-1.3217713,2.6622312,-2.0392804,-1.1972449,1.0953513,-3.6590676,7.543746e-06,1.1393269e-06,-1.992028e-06,-0.0001408828,-6.3858046e-05,-0.00011973831,0.1919156,-0.016545724,0.49151066,0.011426719,-0.00623321,0.0018021534,0.0,0.0,6.940151e-05,1.1915004e-05,6.627727e-06,0.00023804248,0.0152437845,0.014233526,0.013032498,0.061047334,0.060996898,0.13626888,1.1606998e-11,1.1600317e-11,2.5360401e-11,6.556042e-08,6.620407e-08,5e-08,0.0012865879,2.4009603e-05,0.0012958697,0.0006953641,0.000955116,0.0011901495,0.0,0.0,24
21741136000,21741056000,0.8480001,0.10090595,0.16602767,-0.4931012,-1.8381381,3.4301214,-3.3262973,-2.7806382,4.2307544,-6.368845,7.465246e-06,1.0825524e-06,-1.9898725e-06,-0.00013041745,-7.482323e-05,-0.00012815153,0.19152986,-0.016521003,0.49152836,0.012363377,-0.00734802,0.0022269827,0.0,0.0,6.0813698e-05,9.832584e-06,6.25228e-06,0.00021197714,0.0132543305,0.013134395,0.012998286,0.066754244,0.06667081,0.15315469,1.2058463e-11,1.2032127e-11,2.586851e-11,6.426119e-08,6.539478e-08,5e-08,0.0012565203,2.3478697e-05,0.0012655563,0.00061439216,0.00090173364,0.0011535187,0.0,0.0,24
21742136000,21742056000,0.847724,0.104355566,0.17234775,-0.49068338,-2.145766,3.9299526,-4.1535473,-4.773916,7.959701,-10.138119,7.4227482e-06,1.0202674e-06,-1.996166e-06,-0.00012322904,-7.7590106e-05,-0.0001350283,0.19146426,-0.016517155,0.49171194,0.012393721,-0.0075544794,0.0023839776,0.0,0.0,5.762987e-05,9.488478e-06,6.3240204e-06,0.00020407779,0.012165031,0.012239457,0.013166968,0.07131215,0.07124774,0.16454004,1.24828325e-11,1.2429949e-11,2.6362277e-11,6.350122e-08,6.505053e-08,5.0000036e-08,0.0012474033,2.3097275e-05,0.0012557396,0.0005930792,0.00088405045,0.0011388225,0.0,0.0,24
21743136000,21743056000,0.8469221,0.10620509,0.17849593,-0.48947182,-2.3782957,4.2925954,-4.6895266,-7.0425186,12.12553,-14.59332,7.371855e-06,9.2833994e-07,-2.0221714e-06,-0.000118159965,-7.941626e-05,-0.00013403306,0.19151117,-0.016524587,0.4918604,0.012485462,-0.007846459,0.0026755892,0.0,0.0,5.7069275e-05,9.604766e-06,6.4510796e-06,0.00020326633,0.010182959,0.010134619,0.012627905,0.06603281,0.06600064,0.16591547,1.2780863e-11,1.2696567e-11,2.6791758e-11,6.2573804e-08,6.481415e-08,5.0000036e-08,0.0012426409,2.2780829e-05,0.0012490941,0.0005854177,0.00087518257,0.0011285564,0.0,0.0,24
21744136000,21744056000,0.84599125,0.10890599,0.18213965,-0.4891455,-2.5280066,4.5448666,-5.0278788,-9.50452,16.580944,-19.485825,7.3388437e-06,8.4586713e-07,-2.0470818e-06,-0.00011623784,-8.014691e-05,-0.00012979038,0.19166832,-0.016540505,0.49180943,0.01255674,-0.0079822885,0.002969199,0.0,0.0,5.693799e-05,1.0139787e-05,6.898185e-06,0.00020239808,0.0103279045,0.010070637,0.012943272,0.06789382,0.067884915,0.17076087,1.29935646e-11,1.2892272e-11,2.714682e-11,6.169636e-08,6.46803e-08,5.0000157e-08,0.001238773,2.2481017e-05,0.0012422972,0.00058130175,0.0008692954,0.001118995,0.0,0.0,24
21745136000,21745056000,0.8452307,0.11014808,0.18599646,-0.48873106,-2.638124,4.7439294,-5.2433662,-12.09881,21.257135,-24.652794,7.3293027e-06,7.6535946e-07,-2.0526286e-06,-0.00011465299,-8.030888e-05,-0.00012707434,0.19200103,-0.016573114,0.49191457,0.012380815,-0.008140303,0.0032534937,0.0,0.0,5.611884e-05,1.0897363e-05,7.343323e-06,0.00019878817,0.010838816,0.01042427,0.013226907,0.06987154,0.06985437,0.17174143,1.31107365e-11,1.2985821e-11,2.7415615e-11,6.075013e-08,6.45801e-08,5e-08,0.0012352024,2.2193604e-05,0.0012350052,0.0005782823,0.00086481293,0.0011095495,0.0,0.0,24
21746136000,21746056000,0.844875,0.11103549,0.18857332,-0.48815727,-2.7261345,4.879947,-5.385834,-14.802177,26.0924,-29.979504,7.359663e-06,6.941912e-07,-2.0372577e-06,-0.00011085542,-8.033836e-05,-0.00013117793,0.19200204,-0.016573317,0.4918588,0.012411322,-0.008152398,0.0033059618,0.0,0.0,4.83241e-05,1.1012878e-05,7.5409457e-06,0.00017007667,0.011328811,0.010891906,0.013535009,0.071793884,0.07173113,0.17406881,1.3173775e-11,1.2988985e-11,2.7569795e-11,5.978614e-08,6.436515e-08,5e-08,0.0,0.0,0.0,0.0,0.0,0.0,0.0,0.0,24
21747136000,21747056000,0.84454054,0.11259345,0.19039716,-0.487671,-2.7924092,4.986259,-5.492068,-17.586912,31.04913,-35.440746,7.379429e-06,6.11822e-07,-2.0376842e-06,-0.00011134197,-8.083423e-05,-0.00012652804,0.19200204,-0.016573317,0.4918588,0.012411322,-0.008152398,0.0033059618,0.0,0.0,4.1308136e-05,1.10533465e-05,7.6071183e-06,0.00014404269,0.010242591,0.009954061,0.012902942,0.06605333,0.06600355,0.17083816,1.3076945e-11,1.2756509e-11,2.7609649e-11,5.866054e-08,6.42007e-08,5e-08,0.0,0.0,0.0,0.0,0.0,0.0,0.0,0.0,24
21748136000,21748056000,0.8443698,0.11261618,0.19196065,-0.48734832,-2.8403997,5.0615926,-5.569089,-20.433878,36.097393,-40.979477,7.4621053e-06,5.0394056e-07,-1.992258e-06,-0.00011009159,-8.147659e-05,-0.00012682931,0.19200204,-0.016573317,0.4918588,0.012411322,-0.008152398,0.0033059618,0.0,0.0,3.641063e-05,1.1214178e-05,7.721554e-06,0.00012587855,0.010501692,0.010296674,0.013034096,0.06759948,0.06752473,0.17227823,1.3054321e-11,1.2578848e-11,2.7704901e-11,5.7837706e-08,6.409214e-08,5.0000075e-08,0.0,0.0,0.0,0.0,0.0,0.0,0.0,0.0,24
21749136000,21749056000,0.84411377,0.113254644,0.1930028,-0.4872322,-2.8780694,5.112582,-5.6130786,-23.325123,41.203495,-46.55237,7.5718476e-06,3.9870892e-07,-1.9111287e-06,-0.000104829676,-8.1794344e-05,-0.00013878297,0.19200204,-0.016573317,0.4918588,0.012411322,-0.008152398,0.0033059618,0.0,0.0,3.2753775e-05,1.1365825e-05,7.83398e-06,0.00011230853,0.010705217,0.010574531,0.013096554,0.069137335,0.06905209,0.17355178,1.3017869e-11,1.2364372e-11,2.778963e-11,5.7124556e-08,6.4007e-08,5.000004e-08,0.0,0.0,0.0,0.0,0.0,0.0,0.0,0.0,24
21750136000,21750056000,0.84412754,0.11323154,0.19392231,-0.48684853,-2.906805,5.1534805,-5.6503825,-26.242651,46.373016,-52.170353,7.5987473e-06,2.412205e-07,-1.9030566e-06,-0.00010096048,-8.208062e-05,-0.00014846788,0.19200204,-0.016573317,0.4918588,0.012411322,-0.008152398,0.0033059618,0.0,0.0,2.9992942e-05,1.1508743e-05,7.9237325e-06,0.0001021071,0.0110800015,0.01099691,0.0131681,0.07121641,0.07112865,0.1748168,1.29986456e-11,1.216904e-11,2.7883905e-11,5.653702e-08,6.393199e-08,5.000011e-08,0.0,0.0,0.0,0.0,0.0,0.0,0.0,0.0,24
21751136000,21751056000,0.8438393,0.11375976,0.1947575,-0.4868917,-2.921984,5.2014284,-5.6600657,-29.18489,51.579678,-57.806847,7.637531e-06,1.3097447e-07,-1.877941e-06,-9.792671e-05,-8.226977e-05,-0.00015724219,0.19200204,-0.016573317,0.4918588,0.012411322,-0.008152398,0.0033059618,0.0,0.0,2.774512e-05,1.158498e-05,7.99622e-06,9.359469e-05,0.011437879,0.011396963,0.013206526,0.07339335,0.07331525,0.1759888,1.2980136e-11,1.1981919e-11,2.797011e-11,5.6058663e-08,6.385663e-08,5e-08,0.0,0.0,0.0,0.0,0.0,0.0,0.0,0.0,24
21752136000,21752056000,0.8436866,0.1138669,0.19520687,-0.4869514,-2.9452865,5.2203403,-5.6572313,-32.13657,56.80296,-63.45788,7.6676015e-06,1.1621244e-07,-1.877015e-06,-9.5923664e-05,-8.267056e-05,-0.00016379276,0.19200204,-0.016573317,0.4918588,0.012411322,-0.008152398,0.0033059618,0.0,0.0,2.6207083e-05,1.1461944e-05,7.830054e-06,8.7657114e-05,0.010117583,0.01009607,0.01237648,0.06701815,0.06697508,0.17198406,1.2840778e-11,1.1621564e-11,2.7946164e-11,5.5608968e-08,6.378367e-08,5e-08,0.0,0.0,0.0,0.0,0.0,0.0,0.0,0.0,24
21753136000,21753056000,0.8437133,0.11383748,0.19541684,-0.4868278,-2.968396,5.2386665,-5.6590075,-35.094364,62.053356,-69.12106,7.6138517e-06,1.3256435e-07,-1.9651336e-06,-9.577947e-05,-8.272057e-05,-0.00016299507,0.19200204,-0.016573317,0.4918588,0.012411322,-0.008152398,0.0033059618,0.0,0.0,2.4892712e-05,1.1408694e-05,7.836043e-06,8.2577026e-05,0.010382465,0.010364859,0.012442565,0.068726055,0.06868941,0.17500152,1.2836921e-11,1.1465407e-11,2.8018273e-11,5.5333224e-08,6.371221e-08,5.000022e-08,0.0,0.0,0.0,0.0,0.0,0.0,0.0,0.0,24
21754136000,21754056000,0.8435627,0.11441271,0.1954135,-0.48695517,-2.9789464,5.2496905,-5.6522636,-38.057804,67.304955,-74.79617,7.53428e-06,2.5946292e-07,-2.0837435e-06,-9.6095675e-05,-8.26032e-05,-0.00015812517,0.19200204,-0.016573317,0.4918588,0.012411322,-0.008152398,0.0033059618,0.0,0.0,2.3839055e-05,1.13043525e-05,7.844523e-06,7.832057e-05,0.010633139,0.010618561,0.012435934,0.07043291,0.07040115,0.17553177,1.28444165e-11,1.1329864e-11,2.8086889e-11,5.5120587e-08,6.364244e-08,5.0000185e-08,0.0,0.0,0.0,0.0,0.0,0.0,0.0,0.0,24
21755136000,21755056000,0.8434237,0.11420438,0.19606201,-0.48698422,-2.9896314,5.2624826,-5.6250653,-41.024776,72.56033,-80.4544,7.4724394e-06,4.2540077e-07,-2.1684866e-06,-9.5988864e-05,-8.241103e-05,-0.00015340491,0.19200204,-0.016573317,0.4918588,0.012411322,-0.008152398,0.0033059618,0.0,0.0,2.2950817e-05,1.1235889e-05,7.855038e-06,7.474986e-05,0.011077885,0.011064838,0.012479417,0.07271361,0.0726841,0.17603624,1.2885436e-11,1.1243639e-11,2.8171698e-11,5.4962936e-08,6.357719e-08,5.000011e-08,0.0,0.0,0.0,0.0,0.0,0.0,0.0,0.0,24
21756136000,21756056000,0.8433057,0.114161074,0.19611767,-0.4871762,-3.0109265,5.2686114,-5.629814,-44.00069,77.823586,-86.13115,7.3672713e-06,6.954537e-07,-2.3090936e-06,-9.6360745e-05,-8.205525e-05,-0.00013941545,0.19200204,-0.016573317,0.4918588,0.012411322,-0.008152398,0.0033059618,0.0,0.0,2.2126545e-05,1.0849907e-05,7.6222254e-06,7.139659e-05,0.009917767,0.009909638,0.011785828,0.06665809,0.06663985,0.17189333,1.2816359e-11,1.1006855e-11,2.8150001e-11,5.4825698e-08,6.3503734e-08,5.000007e-08,0.0,0.0,0.0,0.0,0.0,0.0,0.0,0.0,24
21757136000,21757056000,0.84319127,0.11516165,0.19558303,-0.48735374,-3.0060592,5.278448,-5.6166024,-46.98602,83.09719,-91.79742,7.2686985e-06,9.0296606e-07,-2.4650128e-06,-9.651981e-05,-8.180877e-05,-0.00012628715,0.19200204,-0.016573317,0.4918588,0.012411322,-0.008152398,0.0033059618,0.0,0.0,2.1541111e-05,1.0644744e-05,7.605025e-06,6.882221e-05,0.010096583,0.010091004,0.011808075,0.06802962,0.06801234,0.17237273,1.285926e-11,1.09218355e-11,2.8216042e-11,5.474064e-08,6.344483e-08,5.000007e-08,0.0,0.0,0.0,0.0,0.0,0.0,0.0,0.0,24
21758136000,21758056000,0.8433094,0.11479887,0.19574755,-0.48716864,-3.0024786,5.271336,-5.609198,-49.970097,88.37605,-97.47396,7.1624536e-06,1.0941112e-06,-2.6148705e-06,-9.703947e-05,-8.139902e-05,-0.00010738187,0.19200204,-0.016573317,0.4918588,0.012411322,-0.008152398,0.0033059618,0.0,0.0,2.1021782e-05,1.0501695e-05,7.5781145e-06,6.6664565e-05,0.010423237,0.010422859,0.011883588,0.069881506,0.06986395,0.17302214,1.2927883e-11,1.0868307e-11,2.8289869e-11,5.4676615e-08,6.339237e-08,5.0000075e-08,0.0,0.0,0.0,0.0,0.0,0.0,0.0,0.0,24
21759136000,21759056000,0.8431098,0.11478135,0.19592461,-0.48744708,-3.0013666,5.2758975,-5.59442,-52.965317,93.672935,-103.13584,7.069235e-06,1.1205746e-06,-2.7296173e-06,-9.832983e-05,-8.087414e-05,-8.61978e-05,0.19200204,-0.016573317,0.4918588,0.012411322,-0.008152398,0.0033059618,0.0,0.0,2.0626563e-05,1.0366633e-05,7.558189e-06,6.478938e-05,0.01074316,0.010748486,0.011967219,0.07177427,0.071756795,0.17373535,1.30065125e-11,1.0824666e-11,2.8359523e-11,5.4626913e-08,6.334547e-08,5.0000114e-08,0.0,0.0,0.0,0.0,0.0,0.0,0.0,0.0,24
21760136000,21760056000,0.8431527,0.114667,0.19609836,-0.4873301,-2.9971933,5.296377,-5.592685,-55.961956,98.96673,-108.82469,7.0484894e-06,1.2371002e-06,-2.7907397e-06,-9.9397716e-05,-8.110054e-05,-5.3202304e-05,0.19200204,-0.016573317,0.4918588,0.012411322,-0.008152398,0.0033059618,0.0,0.0,2.0270872e-05,1.0051459e-05,7.351627e-06,6.321345e-05,0.009713116,0.009721067,0.01141402,0.06604873,0.066037335,0.17036822,1.30083696e-11,1.0667902e-11,2.8362814e-11,5.4580763e-08,6.329818e-08,5.000015e-08,0.0,0.0,0.0,0.0,0.0,0.0,0.0,0.0,24
21761136000,21761056000,0.8430998,0.114753395,0.19619991,-0.4873603,-2.9886744,5.3046,-5.600986,-58.965096,104.26916,-114.5077,7.0991046e-06,1.3679381e-06,-2.774264e-06,-9.981012e-05,-8.181187e-05,-2.2286451e-05,0.19200204,-0.016573317,0.4918588,0.012411322,-0.008152398,0.0033059618,0.0,0.0,2.0002939e-05,9.933406e-06,7.32565e-06,6.186974e-05,0.009965426,0.009977871,0.011506742,0.067590505,0.06757982,0.17118075,1.309321e-11,1.0634428e-11,2.8428036e-11,5.4549012e-08,6.3260735e-08,5.000015e-08,0.0,0.0,0.0,0.0,0.0,0.0,0.0,0.0,24
21762136000,21762056000,0.8430329,0.11481496,0.19573617,-0.487648,-2.9884312,5.3136597,-5.6049676,-61.964466,109.57275,-120.19286,7.1653853e-06,1.5156204e-06,-2.7414296e-06,-9.96903e-05,-8.258314e-05,3.0263063e-06,0.19200204,-0.016573317,0.4918588,0.012411322,-0.008152398,0.0033059618,0.0,0.0,1.9746078e-05,9.794534e-06,7.2946264e-06,6.0512626e-05,0.010202831,0.010220282,0.011598412,0.069129914,0.06912045,0.17195596,1.3174884e-11,1.0605344e-11,2.847455e-11,5.4521824e-08,6.322585e-08,5.000007e-08,0.0,0.0,0.0,0.0,0.0,0.0,0.0,0.0,24
21763136000,21763056000,0.84302497,0.114878386,0.19612552,-0.48749018,-2.9754658,5.3204813,-5.6136794,-64.956,114.87756,-125.888306,7.2454636e-06,1.6742815e-06,-2.722213e-06,-9.930586e-05,-8.349771e-05,2.6886397e-05,0.19200204,-0.016573317,0.4918588,0.012411322,-0.008152398,0.0033059618,0.0,0.0,1.9586068e-05,9.742364e-06,7.2955627e-06,5.9576156e-05,0.01060106,0.01062464,0.011733692,0.07118362,0.07117571,0.17278408,1.3274588e-11,1.0600628e-11,2.853842e-11,5.4498987e-08,6.319633e-08,5.000015e-08,0.0,0.0,0.0,0.0,0.0,0.0,0.0,0.0,24
21764136000,21764056000,0.84293735,0.11494075,0.19607997,-0.48764554,-2.9750638,5.3289514,-5.630797,-67.94813,120.20158,-131.59114,7.3116594e-06,1.745724e-06,-2.6669811e-06,-9.932998e-05,-8.4086816e-05,4.9638318e-05,0.19200204,-0.016573317,0.4918588,0.012411322,-0.008152398,0.0033059618,0.0,0.0,1.9486473e-05,9.687146e-06,7.2985217e-06,5.880331e-05,0.011001983,0.011032372,0.011867987,0.07330199,0.073296644,0.17355157,1.3373735e-11,1.0599695e-11,2.8593948e-11,5.4478917e-08,6.3170106e-08,5.0000075e-08,0.0,0.0,0.0,0.0,0.0,0.0,0.0,0.0,24
21765136000,21765056000,0.84298515,0.11445404,0.19651191,-0.48750317,-2.9789398,5.3331656,-5.64028,-70.94685,125.53512,-137.29686,7.391141e-06,1.7952779e-06,-2.6265402e-06,-9.9257006e-05,-8.477591e-05,7.1730945e-05,0.19200204,-0.016573317,0.4918588,0.012411322,-0.008152398,0.0033059618,0.0,0.0,1.939739e-05,9.431424e-06,7.07003e-06,5.8179638e-05,0.0098070325,0.009835912,0.0113224285,0.06695815,0.066955045,0.17006952,1.3370575e-11,1.0458548e-11,2.8581958e-11,5.4455228e-08,6.31426e-08,5.000011e-08,0.0,0.0,0.0,0.0,0.0,0.0,0.0,0.0,24
21766136000,21766056000,0.8429204,0.11489259,0.19584942,-0.48777846,-2.982622,5.3162136,-5.6449137,-73.94074,130.86374,-143.00294,7.427272e-06,1.8594473e-06,-2.6528962e-06,-9.904394e-05,-8.521062e-05,8.829723e-05,0.19200204,-0.016573317,0.4918588,0.012411322,-0.008152398,0.0033059618,0.0,0.0,1.938545e-05,9.365607e-06,7.0792084e-06,5.766621e-05,0.010094826,0.010128998,0.011445471,0.06863412,0.0686333,0.17076536,1.3459351e-11,1.0455398e-11,2.861544e-11,5.4439706e-08,6.3122386e-08,5.0000036e-08,0.0,0.0,0.0,0.0,0.0,0.0,0.0,0.0,24
21767136000,21767056000,0.8428927,0.11498421,0.19589932,-0.48778483,-2.9896626,5.313768,-5.6520123,-76.938354,136.18677,-148.70787,7.4459654e-06,1.9063244e-06,-2.657574e-06,-9.8884026e-05,-8.5414336e-05,0.000102963946,0.19200204,-0.016573317,0.4918588,0.012411322,-0.008152398,0.0033059618,0.0,0.0,1.9376823e-05,9.329051e-06,7.0827828e-06,5.7276608e-05,0.010372568,0.010411251,0.011570695,0.07031488,0.07031688,0.17147142,1.3543859e-11,1.045357e-11,2.8637254e-11,5.4426366e-08,6.310491e-08,5.0000036e-08,0.0,0.0,0.0,0.0,0.0,0.0,0.0,0.0,24
21768136000,21768056000,0.84295934,0.11500807,0.19603014,-0.48761135,-2.984795,5.3163357,-5.6543446,-79.93066,141.51698,-154.41681,7.433313e-06,1.9232473e-06,-2.6682233e-06,-9.880586e-05,-8.538584e-05,0.000120099954,0.19200204,-0.016573317,0.4918588,0.012411322,-0.008152398,0.0033059618,0.0,0.0,1.938049e-05,9.3082135e-06,7.091414e-06,5.7001205e-05,0.010661654,0.010704696,0.011693708,0.07202936,0.07203467,0.17213878,1.3626662e-11,1.0457235e-11,2.864916e-11,5.4415136e-08,6.308995e-08,5.0000036e-08,0.0,0.0,0.0,0.0,0.0,0.0,0.0,0.0,24
21769136000,21769056000,0.8429247,0.11510583,0.19618906,-0.4875842,-2.9829926,5.320372,-5.658064,-82.93363,146.86171,-160.13051,7.4380537e-06,1.8886005e-06,-2.6611774e-06,-9.895223e-05,-8.543137e-05,0.00014063712,0.19200204,-0.016573317,0.4918588,0.012411322,-0.008152398,0.0033059618,0.0,0.0,1.9408062e-05,9.127334e-06,6.935292e-06,5.6791105e-05,0.009647497,0.009685741,0.011201,0.06620508,0.06620867,0.1688016,1.362806e-11,1.0353833e-11,2.8610102e-11,5.44031e-08,6.307557e-08,5.0000036e-08,0.0,0.0,0.0,0.0,0.0,0.0,0.0,0.0,24
21770136000,21770056000,0.84283197,0.11543245,0.19573614,-0.48784935,-2.9781966,5.3136897,-5.667563,-85.93611,152.20801,-165.83029,7.4321756e-06,1.8122391e-06,-2.648107e-06,-9.9318015e-05,-8.537723e-05,0.00015388847,0.19200204,-0.016573317,0.4918588,0.012411322,-0.008152398,0.0033059618,0.0,0.0,1.9484556e-05,9.099855e-06,6.9523417e-06,5.6659188e-05,0.00989716,0.009938443,0.011332069,0.06766627,0.067672126,0.16966863,1.37001e-11,1.0357872e-11,2.8596058e-11,5.4395795e-08,6.3064974e-08,5.0000146e-08,0.0,0.0,0.0,0.0,0.0,0.0,0.0,0.0,24
21771136000,21771056000,0.84287727,0.115560874,0.19587474,-0.48768517,-2.9759967,5.303158,-5.681441,-88.93549,157.55452,-171.54153,7.4082545e-06,1.662076e-06,-2.6496155e-06,-0.00010002085,-8.525102e-05,0.00016365734,0.19200204,-0.016573317,0.4918588,0.012411322,-0.008152398,0.0033059618,0.0,0.0,1.9547353e-05,9.093354e-06,6.96313e-06,5.6609693e-05,0.010132593,0.010176169,0.011463674,0.06912669,0.06913485,0.17067227,1.3767274e-11,1.0360939e-11,2.8565875e-11,5.4389567e-08,6.305581e-08,5.000011e-08,0.0,0.0,0.0,0.0,0.0,0.0,0.0,0.0,24
21772136000,21772056000,0.8428294,0.11511575,0.19609018,-0.4877865,-2.9690888,5.307141,-5.6997824,-91.933685,162.90306,-177.257,7.3986644e-06,1.4893792e-06,-2.6140547e-06,-0.00010079829,-8.5142245e-05,0.00016972094,0.19200204,-0.016573317,0.4918588,0.012411322,-0.008152398,0.0033059618,0.0,0.0,1.9580086e-05,9.112434e-06,6.988845e-06,5.6417153e-05,0.010539729,0.010587724,0.011642205,0.07114491,0.07115647,0.1718648,1.38377235e-11,1.0384833e-11,2.8500799e-11,5.438479e-08,6.304769e-08,5.0000178e-08,0.0,0.0,0.0,0.0,0.0,0.0,0.0,0.0,24
21773136000,21773056000,0.8427997,0.11488567,0.19647063,-0.48773876,-2.9686565,5.296762,-5.711395,-94.92075,168.24846,-182.98514,7.336911e-06,1.3399476e-06,-2.586491e-06,-0.0001014309,-8.4806314e-05,0.00017658516,0.19200204,-0.016573317,0.4918588,0.012411322,-0.008152398,0.0033059618,0.0,0.0,1.9675012e-05,9.154497e-06,7.0223787e-06,5.6474004e-05,0.01094317,0.0109949885,0.011749628,0.073245205,0.073260546,0.17077768,1.3909641e-11,1.0409291e-11,2.844946e-11,5.4381093e-08,6.304133e-08,5e-08,0.0,0.0,0.0,0.0,0.0,0.0,0.0,0.0,24
21774136000,21774056000,0.8428267,0.115027435,0.19622472,-0.48775783,-2.962708,5.2919536,-5.720298,-97.893814,173.59808,-188.70573,7.232163e-06,1.2002602e-06,-2.6401874e-06,-0.0001019879,-8.442603e-05,0.0001764565,0.19200204,-0.016573317,0.4918588,0.012411322,-0.008152398,0.0033059618,0.0,0.0,1.9779807e-05,8.978237e-06,6.859161e-06,5.6558045e-05,0.009781789,0.0098247295,0.0113070505,0.06696083,0.06696993,0.17007308,1.3877336e-11,1.0298132e-11,2.8343963e-11,5.4376606e-08,6.3035024e-08,5.000018e-08,0.0,0.0,0.0,0.0,0.0,0.0,0.0,0.0,24
21775136000,21775056000,0.84267896,0.11536353,0.19633217,-0.48789042,-2.9749165,5.282618,-5.7376533,-100.88396,178.93419,-194.4296,7.1938284e-06,9.933426e-07,-2.6801679e-06,-0.00010274253,-8.434338e-05,0.00017165457,0.19200204,-0.016573317,0.4918588,0.012411322,-0.008152398,0.0033059618,0.0,0.0,1.9917687e-05,8.997268e-06,6.8929094e-06,5.6672852e-05,0.010074622,0.010120289,0.011439318,0.06862596,0.06863711,0.1709162,1.3930045e-11,1.0313084e-11,2.8267185e-11,5.4374762e-08,6.303081e-08,5.0000075e-08,0.0,0.0,0.0,0.0,0.0,0.0,0.0,0.0,24
21776136000,21776056000,0.8426258,0.11532171,0.1963943,-0.4879673,-2.9738295,5.2749715,-5.744441,-103.86404,184.26477,-200.14418,7.069748e-06,8.2377295e-07,-2.6886885e-06,-0.00010331164,-8.3908526e-05,0.00016091138,0.19200204,-0.016573317,0.4918588,0.012411322,-0.008152398,0.0033059618,0.0,0.0,2.0047497e-05,9.018062e-06,6.9178836e-06,5.6843495e-05,0.010352722,0.010401245,0.011561331,0.07029995,0.07031342,0.17158765,1.3976211e-11,1.03276224e-11,2.8179806e-11,5.4373743e-08,6.302755e-08,5.000004e-08,0.0,0.0,0.0,0.0,0.0,0.0,0.0,0.0,24
21777136000,21777056000,0.842851,0.11524857,0.1960663,-0.48772743,-2.973126,5.267903,-5.7563615,-106.84705,189.58676,-205.86574,6.999651e-06,6.5651653e-07,-2.7823967e-06,-0.00010383654,-8.380092e-05,0.00015045382,0.19200204,-0.016573317,0.4918588,0.012411322,-0.008152398,0.0033059618,0.0,0.0,2.017666e-05,9.058955e-06,6.9777348e-06,5.7062105e-05,0.010821076,0.01087469,0.011739323,0.07254664,0.072563946,0.17252783,1.4033318e-11,1.03656615e-11,2.8088726e-11,5.4373587e-08,6.3025254e-08,5.0000075e-08,0.0,0.0,0.0,0.0,0.0,0.0,0.0,0.0,24
21778136000,21778056000,0.8428701,0.11474574,0.19643113,-0.4876663,-2.9754243,5.265064,-5.7520323,-109.8381,194.9208,-211.56355,6.911742e-06,4.280216e-07,-2.8756685e-06,-0.00010447825,-8.3687715e-05,0.00012837646,0.19200204,-0.016573317,0.4918588,0.012411322,-0.008152398,0.0033059618,0.0,0.0,2.0308602e-05,8.9152945e-06,6.8204304e-06,5.7263685e-05,0.009725418,0.009770496,0.01129651,0.06655249,0.06656299,0.17140062,1.3982927e-11,1.02654265e-11,2.7947308e-11,5.437296e-08,6.3023045e-08,5.000026e-08,0.0,0.0,0.0,0.0,0.0,0.0,0.0,0.0,24
21779136000,21779056000,0.8428107,0.11563116,0.19599934,-0.4877334,-2.9764397,5.262301,-5.7546616,-112.82158,200.24757,-217.29527,6.818464e-06,1.956184e-07,-3.0226024e-06,-0.00010508098,-8.3602805e-05,0.0001215683,0.19200204,-0.016573317,0.4918588,0.012411322,-0.008152398,0.0033059618,0.0,0.0,2.0404523e-05,8.905207e-06,6.854725e-06,5.7271027e-05,0.009936523,0.009983522,0.011341341,0.06796041,0.06797266,0.169633,1.4000908e-11,1.0276941e-11,2.7792988e-11,5.437408e-08,6.302216e-08,5.0000036e-08,0.0,0.0,0.0,0.0,0.0,0.0,0.0,0.0,24
21780136000,21780056000,0.8426994,0.1152051,0.19649826,-0.48782578,-2.978975,5.2607346,-5.755452,-115.79645,205.55672,-223.0072,6.750594e-06,3.8927052e-08,-3.1445893e-06,-0.00010543203,-8.359155e-05,0.0001059584,0.19200204,-0.016573317,0.4918588,0.012411322,-0.008152398,0.0033059618,0.0,0.0,2.0571291e-05,8.956479e-06,6.8867744e-06,5.749019e-05,0.010272303,0.010323097,0.011508897,0.06979112,0.06980619,0.17068298,1.403138e-11,1.0301762e-11,2.7669532e-11,5.4375832e-08,6.302228e-08,5.0000075e-08,0.0,0.0,0.0,0.0,0.0,0.0,0.0,0.0,24
21781136000,21781056000,0.8428454,0.11427803,0.19700493,-0.4875874,-2.9745872,5.252725,-5.7497497,-118.76414,210.86343,-228.7171,6.6460866e-06,-1.1014037e-07,-3.2949595e-06,-0.00010573056,-8.351925e-05,9.093429e-05,0.19200204,-0.016573317,0.4918588,0.012411322,-0.008152398,0.0033059618,0.0,0.0,2.0713702e-05,9.008945e-06,6.9087646e-06,5.7750254e-05,0.010604109,0.010658145,0.011727509,0.07166726,0.07168548,0.17396648,1.405636e-11,1.0326444e-11,2.7538014e-11,5.4377995e-08,6.3022966e-08,5.0000256e-08,0.0,0.0,0.0,0.0,0.0,0.0,0.0,0.0,24
21782136000,21782056000,0.8426899,0.11528838,0.19645892,-0.48783842,-2.9635181,5.2639666,-5.7337623,-121.731255,216.17804,-234.42828,6.5517875e-06,-2.770456e-07,-3.4597124e-06,-0.0001060411,-8.348145e-05,8.1399485e-05,0.19200204,-0.016573317,0.4918588,0.012411322,-0.008152398,0.0033059618,0.0,0.0,2.088436e-05,8.865713e-06,6.802483e-06,5.7957943e-05,0.009609464,0.009655922,0.011234316,0.06599411,0.06600564,0.17050327,1.3993624e-11,1.0242396e-11,2.7370974e-11,5.4380237e-08,6.302402e-08,5.000022e-08,0.0,0.0,0.0,0.0,0.0,0.0,0.0,0.0,24
21783136000,21783056000,0.84276587,0.115353145,0.19650072,-0.48767504,-2.9572644,5.261296,-5.70951,-124.691,221.48285,-240.12639,6.5033187e-06,-3.9332e-07,-3.647782e-06,-0.00010623129,-8.3570005e-05,7.462059e-05,0.19200204,-0.016573317,0.4918588,0.012411322,-0.008152398,0.0033059618,0.0,0.0,2.1108675e-05,8.908925e-06,6.8383824e-06,5.840883e-05,0.009857589,0.00990657,0.011360798,0.06752464,0.06753823,0.17118774,1.401259e-11,1.0260982e-11,2.7262127e-11,5.4383367e-08,6.302606e-08,5.0000185e-08,0.0,0.0,0.0,0.0,0.0,0.0,0.0,0.0,24
21784136000,21784056000,0.8426036,0.115309656,0.19647422,-0.48797616,-2.9664,5.25899,-5.680737,-127.652275,226.77359,-245.8149,6.480358e-06,-4.4726468e-07,-3.7993505e-06,-0.00010631572,-8.366565e-05,7.564886e-05,0.19200204,-0.016573317,0.4918588,0.012411322,-0.008152398,0.0033059618,0.0,0.0,2.1290241e-05,8.935935e-06,6.8681215e-06,5.8621434e-05,0.010091814,0.010143128,0.011475218,0.06905058,0.06906634,0.17171358,1.4015671e-11,1.027826e-11,2.7110108e-11,5.4386845e-08,6.302843e-08,5.000007e-08,0.0,0.0,0.0,0.0,0.0,0.0,0.0,0.0,24
21785136000,21785056000,0.8426543,0.11518302,0.19648258,-0.48791543,-2.9513607,5.257016,-5.645546,-130.6044,232.06366,-251.47545,6.4399196e-06,-4.851784e-07,-4.011527e-06,-0.00010635136,-8.379671e-05,7.873193e-05,0.19200204,-0.016573317,0.4918588,0.012411322,-0.008152398,0.0033059618,0.0,0.0,2.1448994e-05,8.99053e-06,6.921236e-06,5.8852413e-05,0.010481261,0.010536826,0.011620937,0.07106649,0.07108595,0.1722054,1.402843e-11,1.0313405e-11,2.6957155e-11,5.439065e-08,6.303124e-08,5e-08,0.0,0.0,0.0,0.0,0.0,0.0,0.0,0.0,24
21786136000,21786056000,0.84262836,0.11560501,0.19644259,-0.48787615,-2.948895,5.254957,-5.6252885,-133.5613,237.33896,-257.1537,6.4651617e-06,-4.3452062e-07,-4.1140224e-06,-0.00010630373,-8.390852e-05,9.633248e-05,0.19200204,-0.016573317,0.4918588,0.012411322,-0.008152398,0.0033059618,0.0,0.0,2.1591231e-05,9.045405e-06,6.986156e-06,5.9074286e-05,0.010885071,0.010945101,0.011843227,0.073177785,0.07320155,0.17514978,1.4037337e-11,1.0348807e-11,2.6798903e-11,5.4394615e-08,6.303435e-08,5.0000224e-08,0.0,0.0,0.0,0.0,0.0,0.0,0.0,0.0,24
21787136000,21787056000,0.84286785,0.114945784,0.19657023,-0.48756698,-2.947363,5.2558546,-5.619525,-136.51305,242.62231,-262.8422,6.482445e-06,-4.191733e-07,-4.2629317e-06,-0.00010626182,-8.403234e-05,0.00012276365,0.19200204,-0.016573317,0.4918588,0.012411322,-0.008152398,0.0033059618,0.0,0.0,2.1702635e-05,8.900812e-06,6.822853e-06,5.9307105e-05,0.009728941,0.009778122,0.011308435,0.06688366,0.06689786,0.17133343,1.3935147e-11,1.0247356e-11,2.6606646e-11,5.4398477e-08,6.303758e-08,5.0000185e-08,0.0,0.0,0.0,0.0,0.0,0.0,0.0,0.0,24
21788136000,21788056000,0.842619,0.115882635,0.19612432,-0.48795483,-2.9423609,5.259059,-5.614029,-139.47655,247.89662,-268.52667,6.573212e-06,-3.9427e-07,-4.3293053e-06,-0.00010622248,-8.41885e-05,0.00014800363,0.19200204,-0.016573317,0.4918588,0.012411322,-0.008152398,0.0033059618,0.0,0.0,2.1866414e-05,8.921114e-06,6.877438e-06,5.9480935e-05,0.010027208,0.0100792665,0.011440336,0.0685606,0.06857736,0.17177188,1.3927516e-11,1.0270598e-11,2.6439602e-11,5.4402474e-08,6.3041014e-08,5.000011e-08,0.0,0.0,0.0,0.0,0.0,0.0,0.0,0.0,24
21789136000,21789056000,0.84260523,0.115779944,0.19605486,-0.48803064,-2.9264455,5.2668467,-5.6180344,-142.42012,253.1778,-274.208,6.6293983e-06,-3.6511923e-07,-4.460745e-06,-0.0001061554,-8.4349536e-05,0.00017105226,0.19200204,-0.016573317,0.4918588,0.012411322,-0.008152398,0.0033059618,0.0,0.0,2.2008086e-05,8.950855e-06,6.9047283e-06,5.9667283e-05,0.010315156,0.010369751,0.01156186,0.070245296,0.07026467,0.1721074,1.3915673e-11,1.02914005e-11,2.6269481e-11,5.440641e-08,6.3044524e-08,5e-08,0.0,0.0,0.0,0.0,0.0,0.0,0.0,0.0,24
21790136000,21790056000,0.84253824,0.11564725,0.19629152,-0.4880827,-2.9277005,5.2742224,-5.6198425,-145.3669,258.46686,-279.88956,6.7125343e-06,-3.6964133e-07,-4.5103898e-06,-0.00010613597,-8.4509324e-05,0.00019297586,0.19200204,-0.016573317,0.4918588,0.012411322,-0.008152398,0.0033059618,0.0,0.0,2.2133965e-05,9.018475e-06,6.9600314e-06,5.9850874e-05,0.010785908,0.010845075,0.011795881,0.072499074,0.07252297,0.17495656,1.3919711e-11,1.0334343e-11,2.610281e-11,5.4410325e-08,6.30481e-08,5.0000185e-08,0.0,0.0,0.0,0.0,0.0,0.0,0.0,0.0,24
21791136000,21791056000,0.84257513,0.11532755,0.19645971,-0.4880268,-2.9400933,5.2655525,-5.62444,-148.32399,263.7564,-285.57697,6.8117397e-06,-3.6394695e-07,-4.5914408e-06,-0.000106097556,-8.469653e-05,0.0002168627,0.19200204,-0.016573317,0.4918588,0.012411322,-0.008152398,0.0033059618,0.0,0.0,2.215961e-05,8.865343e-06,6.80295e-06,5.9799302e-05,0.009702527,0.009751559,0.011286769,0.06652464,0.06653936,0.1712143,1.3803968e-11,1.02394065e-11,2.5863582e-11,5.441405e-08,6.305163e-08,5.0000217e-08,0.0,0.0,0.0,0.0,0.0,0.0,0.0,0.0,24
21792136000,21792056000,0.8426551,0.11532953,0.19608088,-0.48804095,-2.9510062,5.2706265,-5.627248,-151.26631,269.0538,-291.26147,6.76784e-06,-3.6290723e-07,-4.682416e-06,-0.000106051266,-8.4689804e-05,0.00023670674,0.19200204,-0.016573317,0.4918588,0.012411322,-0.008152398,0.0033059618,0.0,0.0,2.2259801e-05,8.870611e-06,6.821765e-06,5.9984177e-05,0.009917208,0.009967985,0.011346051,0.067936346,0.067952625,0.16950174,1.378344e-11,1.025404e-11,2.5689721e-11,5.4417907e-08,6.3055346e-08,5e-08,0.0,0.0,0.0,0.0,0.0,0.0,0.0,0.0,24
21793136000,21793056000,0.84251875,0.11566009,0.1961977,-0.48815098,-2.940209,5.2695355,-5.6222825,-154.19856,274.3517,-296.9475,6.675124e-06,-3.589574e-07,-4.8239303e-06,-0.000106000705,-8.461725e-05,0.0002541696,0.19200204,-0.016573317,0.4918588,0.012411322,-0.008152398,0.0033059618,0.0,0.0,2.2366065e-05,8.910787e-06,6.8661966e-06,6.012204e-05,0.01025508,0.010309417,0.011569517,0.06979124,0.06981026,0.17263575,1.3773822e-11,1.028236e-11,2.5517073e-11,5.4421815e-08,6.305919e-08,5.000018e-08,0.0,0.0,0.0,0.0,0.0,0.0,0.0,0.0,24
21794136000,21794056000,0.8425233,0.1159803,0.1960403,-0.48813048,-2.93149,5.2631326,-5.6237574,-157.13567,279.64493,-302.64432,6.6335674e-06,-3.779421e-07,-4.9521936e-06,-0.00010598218,-8.460038e-05,0.00027865282,0.19200204,-0.016573317,0.4918588,0.012411322,-0.008152398,0.0033059618,0.0,0.0,2.2452223e-05,8.941637e-06,6.9121706e-06,6.026109e-05,0.010584193,0.010641988,0.011714343,0.07166311,0.07168522,0.17335185,1.3764659e-11,1.0309422e-11,2.534163e-11,5.442583e-08,6.306317e-08,5.0000217e-08,0.0,0.0,0.0,0.0,0.0,0.0,0.0,0.0,24
21795136000,21795056000,0.842637,0.115237355,0.19632114,-0.48799735,-2.9353342,5.2532563,-5.638177,-160.06503,284.93716,-308.3374,6.544239e-06,-4.3004084e-07,-5.024504e-06,-0.00010601856,-8.4517094e-05,0.0003014744,0.19200204,-0.016573317,0.4918588,0.012411322,-0.008152398,0.0033059618,0.0,0.0,2.2499225e-05,8.82622e-06,6.773458e-06,6.0402806e-05,0.009599814,0.0096485885,0.0112294685,0.06597494,0.06598891,0.17001663,1.3671562e-11,1.0227448e-11,2.5141264e-11,5.4429805e-08,6.306717e-08,5.0000178e-08,0.0,0.0,0.0,0.0,0.0,0.0,0.0,0.0,24
21796136000,21796056000,0.84255314,0.11527807,0.1962978,-0.48814183,-2.942807,5.248517,-5.6578627,-162.99643,290.24625,-314.035,6.3689126e-06,-5.634665e-07,-5.139551e-06,-0.00010615167,-8.431499e-05,0.00031645675,0.19200204,-0.016573317,0.4918588,0.012411322,-0.008152398,0.0033059618,0.0,0.0,2.2570948e-05,8.850139e-06,6.802915e-06,6.0514853e-05,0.009863714,0.009914688,0.011358344,0.067510225,0.06752612,0.17072624,1.3658318e-11,1.02469274e-11,2.4964206e-11,5.4433833e-08,6.307123e-08,5.0000146e-08,0.0,0.0,0.0,0.0,0.0,0.0,0.0,0.0,24
21797136000,21797056000,0.8427083,0.1145281,0.19656104,-0.48794448,-2.9562652,5.2480206,-5.671341,-165.92116,295.5438,-319.7369,6.162264e-06,-6.360842e-07,-5.338209e-06,-0.00010622072,-8.407023e-05,0.00032539165,0.19200204,-0.016573317,0.4918588,0.012411322,-0.008152398,0.0033059618,0.0,0.0,2.261607e-05,8.877772e-06,6.81481e-06,6.063606e-05,0.010102642,0.010156045,0.011493724,0.069022395,0.069040135,0.17164055,1.3641554e-11,1.0263609e-11,2.4789346e-11,5.4437844e-08,6.307528e-08,5.000022e-08,0.0,0.0,0.0,0.0,0.0,0.0,0.0,0.0,24
21798136000,21798056000,0.8425596,0.11531654,0.19616334,-0.4881757,-2.9620287,5.2426667,-5.676943,-168.85234,300.837,-325.44135,5.9275767e-06,-6.818358e-07,-5.4734237e-06,-0.00010626507,-8.3817475e-05,0.00033260701,0.19200204,-0.016573317,0.4918588,0.012411322,-0.008152398,0.0033059618,0.0,0.0,2.267728e-05,8.908551e-06,6.883789e-06,6.071623e-05,0.01049956,0.0105575025,0.011656715,0.071051806,0.071073115,0.1725248,1.3638362e-11,1.0299015e-11,2.4621933e-11,5.4441948e-08,6.3079376e-08,5.000011e-08,0.0,0.0,0.0,0.0,0.0,0.0,0.0,0.0,24
21799136000,21799056000,0.842602,0.11537756,0.19613858,-0.48809788,-2.9534905,5.232474,-5.6841974,-171.78067,306.13562,-331.16275,5.6973554e-06,-7.655429e-07,-5.6227263e-06,-0.000106340805,-8.358477e-05,0.00034296155,0.19200204,-0.016573317,0.4918588,0.012411322,-0.008152398,0.0033059618,0.0,0.0,2.2710627e-05,8.952595e-06,6.938804e-06,6.0808256e-05,0.01090516,0.010967209,0.011825904,0.07317511,0.07320066,0.1735498,1.3635829e-11,1.033474e-11,2.445697e-11,5.4446147e-08,6.308365e-08,5.000018e-08,0.0,0.0,0.0,0.0,0.0,0.0,0.0,0.0,24
21800136000,21800056000,0.8425112,0.11568719,0.19636397,-0.48809093,-2.93383,5.243785,-5.6966586,-174.68977,311.45126,-336.87506,5.3886315e-06,-9.4118224e-07,-5.816435e-06,-0.00010649313,-8.3334155e-05,0.00034625817,0.19200204,-0.016573317,0.4918588,0.012411322,-0.008152398,0.0033059618,0.0,0.0,2.2734026e-05,8.806226e-06,6.7946426e-06,6.085217e-05,0.009748871,0.009799912,0.0113026155,0.066900775,0.06691596,0.17018801,1.3528837e-11,1.023441e-11,2.4262705e-11,5.445031e-08,6.3087924e-08,5.000015e-08,0.0,0.0,0.0,0.0,0.0,0.0,0.0,0.0,24
21801136000,21801056000,0.84261423,0.115477785,0.19625872,-0.48800492,-2.9341633,5.223837,-5.7004523,-177.61311,316.7404,-342.58978,5.2212517e-06,-1.0741695e-06,-5.9337713e-06,-0.00010660439,-8.320462e-05,0.00035226883,0.19200204,-0.016573317,0.4918588,0.012411322,-0.008152398,0.0033059618,0.0,0.0,2.2751352e-05,8.837577e-06,6.8301556e-06,6.0918814e-05,0.010041759,0.010095366,0.011437423,0.06857708,0.06859475,0.17096543,1.3521419e-11,1.0258656e-11,2.409684e-11,5.445465e-08,6.309234e-08,5.0000114e-08,0.0,0.0,0.0,0.0,0.0,0.0,0.0,0.0,24
21802136000,21802056000,0.84260464,0.11584566,0.19609438,-0.48800033,-2.9207823,5.216378,-5.708366,-180.53815,322.03256,-348.28986,5.042046e-06,-1.3022312e-06,-6.0834177e-06,-0.000106761196,-8.310208e-05,0.0003512343,0.19200204,-0.016573317,0.4918588,0.012411322,-0.008152398,0.0033059618,0.0,0.0,2.2775084e-05,8.866539e-06,6.874215e-06,6.0951552e-05,0.010333774,0.01038993,0.011577865,0.07028337,0.07030359,0.17187096,1.3515303e-11,1.0281601e-11,2.3932243e-11,5.4459004e-08,6.309676e-08,5.000015e-08,0.0,0.0,0.0,0.0,0.0,0.0,0.0,0.0,24
21803136000,21803056000,0.84252864,0.115676545,0.19638203,-0.48805597,-2.9137409,5.206218,-5.7201734,-183.4588,327.31934,-354.01123,4.9017017e-06,-1.5581036e-06,-6.1996725e-06,-0.000106941196,-8.301381e-05,0.0003550292,0.19200204,-0.016573317,0.4918588,0.012411322,-0.008152398,0.0033059618,0.0,0.0,2.280049e-05,8.942435e-06,6.936855e-06,6.0967646e-05,0.010814337,0.010875132,0.011758569,0.072578125,0.07260288,0.17286715,1.3527708e-11,1.0326586e-11,2.377629e-11,5.446338e-08,6.310123e-08,5.000015e-08,0.0,0.0,0.0,0.0,0.0,0.0,0.0,0.0,24
21804136000,21804056000,0.8426824,0.11493257,0.1966159,-0.48787212,-2.9270566,5.2083144,-5.7232122,-186.38762,332.63098,-359.71622,4.752927e-06,-1.9137844e-06,-6.3761145e-06,-0.00010714265,-8.294177e-05,0.00035229858,0.19200204,-0.016573317,0.4918588,0.012411322,-0.008152398,0.0033059618,0.0,0.0,2.2797894e-05,8.811251e-06,6.7817787e-06,6.098474e-05,0.0097158775,0.009765405,0.01125387,0.06656817,0.06658313,0.16954526,1.3430511e-11,1.0231514e-11,2.3594045e-11,5.4467712e-08,6.310569e-08,5.000011e-08,0.0,0.0,0.0,0.0,0.0,0.0,0.0,0.0,24
21805136000,21805056000,0.8425773,0.115831025,0.19630423,-0.4879665,-2.9268382,5.203059,-5.7207823,-189.30992,337.90582,-365.41946,4.647837e-06,-2.1559026e-06,-6.541409e-06,-0.00010723659,-8.290231e-05,0.00034530598,0.19200204,-0.016573317,0.4918588,0.012411322,-0.008152398,0.0033059618,0.0,0.0,2.2743165e-05,8.812552e-06,6.8192608e-06,6.0735107e-05,0.009916597,0.0099676065,0.011367875,0.06794333,0.06795966,0.17033483,1.34084185e-11,1.0245961e-11,2.340277e-11,5.4472135e-08,6.3110214e-08,5.0000075e-08,0.0,0.0,0.0,0.0,0.0,0.0,0.0,0.0,24
21806136000,21806056000,0.842462,0.11580517,0.19641148,-0.4881286,-2.9171865,5.219816,-5.738932,-192.23422,343.189,-371.14868,4.5254956e-06,-2.3730374e-06,-6.6860466e-06,-0.00010734266,-8.284271e-05,0.00034641105,0.19200204,-0.016573317,0.4918588,0.012411322,-0.008152398,0.0033059618,0.0,0.0,2.277143e-05,8.858111e-06,6.8607683e-06,6.0716677e-05,0.010264636,0.010319341,0.011511215,0.069792815,0.0698119,0.17104347,1.3404616e-11,1.0275321e-11,2.3263492e-11,5.447659e-08,6.3114776e-08,5e-08,0.0,0.0,0.0,0.0,0.0,0.0,0.0,0.0,24
21807136000,21807056000,0.8447233,-0.08789758,0.0098198205,-0.52784497,-1.0459268,2.8074267,-1.6992779,-194.68845,347.89404,-375.2923,4.575225e-06,-2.8511915e-06,-6.932938e-06,-0.00010623369,-8.2793464e-05,0.00036080962,0.19059214,-0.016471732,0.48719412,0.012229476,-0.009256235,0.001346366,0.0,0.0,2.5637384e-05,5.933905e-06,6.875582e-06,6.0355072e-05,0.010643934,0.010008139,0.010257578,0.07137153,0.07138334,0.17145601,1.3521309e-11,1.0350705e-11,2.289998e-11,5.4469005e-08,6.310602e-08,5.0000516e-08,0.0006399277,1.7450491e-05,0.000682025,0.0003598394,0.0004932615,0.00066265144,0.0,0.0,24
21808136000,21808056000,0.86317474,0.008583125,0.0400866,-0.50323826,-0.2584802,0.27246633,-1.0244566,-195.49725,349.05792,-376.54935,4.5241572e-06,-3.3192298e-06,-6.516079e-06,-0.000102826605,-7.426372e-05,0.00035789798,0.19247997,-0.01668132,0.48500478,0.014337648,-0.008396351,0.0016662445,0.0,0.0,1.979233e-05,6.4377455e-06,6.093087e-06,5.2884625e-05,0.011998348,0.010381566,0.008780508,0.06578057,0.06571092,0.16699384,1.3956783e-11,1.038565e-11,2.075651e-11,5.4096468e-08,6.2668924e-08,5.0000388e-08,0.000459861,1.5702108e-05,0.00052453927,0.00021748903,0.00035377112,0.0005141587,0.0,0.0,24
21809136000,21809056000,0.84883016,-0.09424808,-0.1460931,-0.4992609,0.515696,-0.9656391,0.10568643,-195.49046,348.8527,-376.93176,4.5571046e-06,-3.3773888e-06,-6.1891647e-06,-9.882483e-05,-5.765703e-05,0.00035743281,0.19391069,-0.016845483,0.48489547,0.015310588,-0.009153226,0.0010127665,0.0,0.0,1.9349394e-05,5.2052374e-06,5.433875e-06,5.1339237e-05,0.012600973,0.011797243,0.009206535,0.0674699,0.06725689,0.16534105,1.4442821e-11,1.0492676e-11,2.023053e-11,5.2189513e-08,6.0492106e-08,5.000007e-08,0.0004312462,1.5193813e-05,0.00048420817,0.00018815734,0.0003255426,0.000475923,0.0,0.0,24
21810136000,21810056000,0.85662323,-0.06354519,-0.112041794,-0.4996054,0.8944457,-1.660253,0.7666605,-194.73305,347.36884,-376.4179,4.628797e-06,-3.19678e-06,-6.0354587e-06,-0.000113465365,-4.178779e-05,0.00036919065,0.1945658,-0.01692746,0.48514616,0.015249766,-0.009737603,-0.00012135195,0.0,0.0,1.927874e-05,4.867222e-06,4.9581545e-06,5.216086e-05,0.012683541,0.0124215325,0.010330852,0.069309495,0.06905014,0.16414614,1.4876298e-11,1.0661478e-11,2.0337817e-11,5.0000143e-08,5.7503033e-08,5.000011e-08,0.0004162396,1.4805658e-05,0.00045294513,0.00017653628,0.00031118133,0.0004429519,0.0,0.0,24
21811136000,21811056000,0.8649753,-0.013330801,-0.0506567,-0.49907318,0.718719,-1.0463558,1.0075157,-193.8536,345.8953,-375.53558,4.5822107e-06,-2.9013154e-06,-6.0115967e-06,-0.00013656897,-4.5010234e-05,0.00039358425,0.19447544,-0.016924907,0.48525333,0.015041192,-0.009879927,-9.3313836e-05,0.0,0.0,1.9461067e-05,5.4187703e-06,5.154381e-06,5.3221404e-05,0.013690071,0.012945843,0.011738861,0.07159577,0.07146157,0.16415183,1.500728e-11,1.088949e-11,2.0732034e-11,5.000004e-08,5.4490453e-08,5.000004e-08,0.00041046285,1.4550366e-05,0.00044315317,0.00016970182,0.0003034754,0.00043503326,0.0,0.0,24
21812136000,21812056000,0.8648749,0.008346434,-0.006508481,-0.5018759,0.33606595,-0.5151425,1.0689625,-193.27422,345.08148,-374.571,4.328049e-06,-2.6974783e-06,-5.8343585e-06,-0.00014563739,-5.871463e-05,0.00043747263,0.19465026,-0.016958192,0.48555472,0.014883164,-0.010269744,0.00025928012,0.0,0.0,1.9178344e-05,5.9865083e-06,5.322054e-06,5.1536772e-05,0.0146884015,0.013346865,0.013066788,0.07400153,0.07392368,0.16547029,1.4703433e-11,1.1137065e-11,2.0772885e-11,5.000004e-08,5.204284e-08,5.000004e-08,0.00040319268,1.4265285e-05,0.0004252074,0.00016178747,0.00029656247,0.00041912086,0.0,0.0,24
21813136000,21813056000,0.8646291,0.011664078,0.014939075,-0.5020531,0.033569444,-0.08495464,1.0550241,-193.02322,344.79453,-373.61603,3.9153783e-06,-2.5050147e-06,-5.4937764e-06,-0.00014872971,-7.301765e-05,0.00050302997,0.19492295,-0.01699846,0.4856889,0.01472996,-0.010683752,0.00054637744,0.0,0.0,1.7364746e-05,5.775761e-06,5.119283e-06,4.6181303e-05,0.012322551,0.011291826,0.013150013,0.06739032,0.06734825,0.16412991,1.3940402e-11,1.13091845e-11,2.0142015e-11,5.000011e-08,5.0368865e-08,5.000011e-08,0.0,0.0,0.0,0.0,0.0,0.0,0.0,0.0,24
21814136000,21814056000,0.8652434,0.0063172425,0.010038978,-0.5012118,-0.07173413,0.009273369,1.0765197,-193.02483,344.78833,-372.62082,3.6989777e-06,-2.462373e-06,-5.340619e-06,-0.00014687805,-7.7784636e-05,0.0005472387,0.19492295,-0.01699846,0.4856889,0.01472996,-0.010683752,0.00054637744,0.0,0.0,1.6162354e-05,5.6459376e-06,5.2084038e-06,4.2925818e-05,0.011826158,0.011082977,0.013734722,0.069212556,0.069131225,0.16516425,1.35459985e-11,1.1521106e-11,1.9776984e-11,5.0000075e-08,5.0000505e-08,5.0000075e-08,0.0,0.0,0.0,0.0,0.0,0.0,0.0,0.0,24
21815136000,21815056000,0.8656097,0.0047073234,0.0026964964,-0.50068986,-0.055919714,-0.009191476,1.0619825,-193.10025,344.80228,-371.6151,3.7488246e-06,-2.5221339e-06,-5.421801e-06,-0.00014391766,-7.7145785e-05,0.00058512716,0.19492295,-0.01699846,0.4856889,0.01472996,-0.010683752,0.00054637744,0.0,0.0,1.5518584e-05,5.667194e-06,5.3961876e-06,4.1135067e-05,0.011458375,0.010936568,0.014147557,0.070947476,0.07082095,0.16845831,1.3267767e-11,1.1683082e-11,1.9656667e-11,5e-08,5.000052e-08,5e-08,0.0,0.0,0.0,0.0,0.0,0.0,0.0,0.0,24
21816136000,21816056000,0.86557,0.005468261,-0.0010767771,-0.500757,0.0073106256,-0.03520016,1.0713359,-193.13141,344.7925,-370.6189,3.7899172e-06,-2.5945892e-06,-5.492936e-06,-0.00014232515,-7.69174e-05,0.00062024366,0.19492295,-0.01699846,0.4856889,0.01472996,-0.010683752,0.00054637744,0.0,0.0,1.5250186e-05,5.8348405e-06,5.6434983e-06,4.0382634e-05,0.011523421,0.011137207,0.0145539725,0.07318207,0.07301074,0.17393284,1.307637e-11,1.18092515e-11,1.9706533e-11,5.000031e-08,5.0001187e-08,5.000022e-08,0.0,0.0,0.0,0.0,0.0,0.0,0.0,0.0,24
21817136000,21817056000,0.8655099,0.0063019153,-0.0020850764,-0.5008478,0.025431251,-0.035720572,1.0559074,-193.12958,344.76938,-369.6358,3.891491e-06,-2.6975147e-06,-5.601826e-06,-0.00014200149,-7.702292e-05,0.00065960584,0.19492295,-0.01699846,0.4856889,0.01472996,-0.010683752,0.00054637744,0.0,0.0,1.5115265e-05,5.778978e-06,5.645667e-06,4.0066072e-05,0.01010189,0.009884211,0.01376042,0.066910155,0.066806905,0.1713608,1.2693435e-11,1.1737783e-11,1.9814107e-11,5.0000267e-08,5.0000402e-08,5.0000185e-08,0.0,0.0,0.0,0.0,0.0,0.0,0.0,0.0,24
21818136000,21818056000,0.86554784,0.008659413,0.0011850912,-0.50075,0.02443499,-0.019314948,1.0382254,-193.10359,344.71866,-368.60992,3.9959136e-06,-2.610054e-06,-5.6917306e-06,-0.0001420885,-7.7670105e-05,0.0006674893,0.19492295,-0.01699846,0.4856889,0.01472996,-0.010683752,0.00054637744,0.0,0.0,1.5179925e-05,5.8850173e-06,5.7812363e-06,4.034525e-05,0.010236395,0.01007336,0.013874019,0.06820423,0.068097755,0.17319447,1.2459972e-11,1.1707591e-11,2.000797e-11,5.000038e-08,5.0000462e-08,5.0000146e-08,0.0,0.0,0.0,0.0,0.0,0.0,0.0,0.0,24
21819136000,21819056000,0.86534965,0.010533706,0.0018732019,-0.50105435,0.005075916,0.014270214,1.035288,-193.07693,344.6982,-367.62158,4.0186883e-06,-2.4773547e-06,-5.7439297e-06,-0.00014193146,-7.784233e-05,0.00068498513,0.19492295,-0.01699846,0.4856889,0.01472996,-0.010683752,0.00054637744,0.0,0.0,1.5342051e-05,5.9674e-06,5.896938e-06,4.081738e-05,0.010553153,0.010426117,0.014058144,0.06998897,0.06988101,0.17494111,1.224454e-11,1.1653229e-11,2.0223382e-11,5.0000512e-08,5.0000544e-08,5.000011e-08,0.0,0.0,0.0,0.0,0.0,0.0,0.0,0.0,24
21820136000,21820056000,0.8653664,0.00918512,0.0032210653,-0.5010451,-0.0118005,0.02480852,1.0473355,-193.04552,344.7026,-366.63452,3.897069e-06,-2.289559e-06,-5.7588736e-06,-0.00014090966,-7.6314616e-05,0.0007034313,0.19492295,-0.01699846,0.4856889,0.01472996,-0.010683752,0.00054637744,0.0,0.0,1.5493526e-05,6.01669e-06,5.9697495e-06,4.1341103e-05,0.010879821,0.010785512,0.014260614,0.07185822,0.071756214,0.17656685,1.20345366e-11,1.1572306e-11,2.042971e-11,5.0000622e-08,5.000061e-08,5.0000185e-08,0.0,0.0,0.0,0.0,0.0,0.0,0.0,0.0,24
21821136000,21821056000,0.86551625,0.0088117765,0.0029262018,-0.50079495,-0.028616961,0.01592012,1.045385,-193.04138,344.70984,-365.62314,3.7877367e-06,-2.1341943e-06,-5.7708576e-06,-0.00013977206,-7.4786425e-05,0.00071791705,0.19492295,-0.01699846,0.4856889,0.01472996,-0.010683752,0.00054637744,0.0,0.0,1.5691978e-05,5.8136816e-06,5.7999164e-06,4.2038017e-05,0.009828111,0.009773566,0.013529623,0.06608893,0.066029005,0.17290163,1.1677615e-11,1.1335584e-11,2.065129e-11,5.0000406e-08,5.00004e-08,5.000011e-08,0.0,0.0,0.0,0.0,0.0,0.0,0.0,0.0,24
21822136000,21822056000,0.86548144,0.008664229,0.0020464468,-0.5008621,-0.025615957,0.014335784,1.0382528,-193.03937,344.71112,-364.62292,3.6557956e-06,-1.9698023e-06,-5.809003e-06,-0.0001382754,-7.287306e-05,0.00073299644,0.19492295,-0.01699846,0.4856889,0.01472996,-0.010683752,0.00054637744,0.0,0.0,1.5943346e-05,5.796997e-06,5.8040027e-06,4.2780477e-05,0.010079283,0.010037287,0.0137053775,0.06761589,0.06756366,0.17390665,1.149239e-11,1.1223237e-11,2.0875388e-11,5.0000462e-08,5.000048e-08,5.000007e-08,0.0,0.0,0.0,0.0,0.0,0.0,0.0,0.0,24
21823136000,21823056000,0.8654302,0.009992378,0.0034571183,-0.50091803,-0.032739304,0.010205396,1.0301095,-193.03374,344.71,-363.6123,3.5102537e-06,-1.810079e-06,-5.8706023e-06,-0.00013652506,-7.079332e-05,0.00074339245,0.19492295,-0.01699846,0.4856889,0.01472996,-0.010683752,0.00054637744,0.0,0.0,1.6206135e-05,5.77107e-06,5.793737e-06,4.3534965e-05,0.010315224,0.010283755,0.013890534,0.06914957,0.069104746,0.17495927,1.1328633e-11,1.1113859e-11,2.1091332e-11,5.000049e-08,5.0000516e-08,5.0000146e-08,0.0,0.0,0.0,0.0,0.0,0.0,0.0,0.0,24
21824136000,21824056000,0.8655276,0.00872939,0.0050632167,-0.5007596,-0.032774914,0.014503704,1.0269003,-193.03844,344.71545,-362.5932,3.389259e-06,-1.700704e-06,-5.9151816e-06,-0.00013508242,-6.9141126e-05,0.0007446049,0.19492295,-0.01699846,0.4856889,0.01472996,-0.010683752,0.00054637744,0.0,0.0,1.6456364e-05,5.775418e-06,5.8052933e-06,4.4311197e-05,0.010709885,0.010685704,0.014139156,0.071211,0.07117099,0.17609495,1.1211256e-11,1.1035657e-11,2.1296322e-11,5.0000544e-08,5.000059e-08,5.0000036e-08,0.0,0.0,0.0,0.0,0.0,0.0,0.0,0.0,24
21825136000,21825056000,0.8655919,0.0073730424,0.0025743977,-0.50068945,-0.032303687,0.018624345,1.0025841,-193.06116,344.7265,-361.57928,3.3440135e-06,-1.6437137e-06,-5.985756e-06,-0.00013416374,-6.8504196e-05,0.0007401567,0.19492295,-0.01699846,0.4856889,0.01472996,-0.010683752,0.00054637744,0.0,0.0,1.6713748e-05,5.7755847e-06,5.8125147e-06,4.5077235e-05,0.011107993,0.011090372,0.014374585,0.07334174,0.073306136,0.17706244,1.1113186e-11,1.0966781e-11,2.1489525e-11,5.000123e-08,5.0001365e-08,5e-08,0.0,0.0,0.0,0.0,0.0,0.0,0.0,0.0,24
21826136000,21826056000,0.86553633,0.007463918,0.0009046451,-0.5007898,-0.013864751,0.002809928,1.0061243,-193.08145,344.71902,-360.5746,3.3841864e-06,-1.5412486e-06,-6.05464e-06,-0.00013279126,-6.890413e-05,0.0007376855,0.19492295,-0.01699846,0.4856889,0.01472996,-0.010683752,0.00054637744,0.0,0.0,1.6977534e-05,5.5280443e-06,5.5688674e-06,4.5821118e-05,0.009872777,0.009864187,0.0136737535,0.06698309,0.06696309,0.17525779,1.0870226e-11,1.0750034e-11,2.1669997e-11,5.0000416e-08,5.000044e-08,5.000026e-08,0.0,0.0,0.0,0.0,0.0,0.0,0.0,0.0,24
21827136000,21827056000,0.8655501,0.008234028,0.00083908753,-0.5007539,0.0013647556,0.008107337,0.9902413,-193.09093,344.7016,-359.5534,3.4783966e-06,-1.4353463e-06,-6.1516434e-06,-0.00013125516,-6.982179e-05,0.0007238238,0.19492295,-0.01699846,0.4856889,0.01472996,-0.010683752,0.00054637744,0.0,0.0,1.7234086e-05,5.5252603e-06,5.567034e-06,4.655791e-05,0.010158565,0.010152898,0.0138788605,0.06866567,0.0686485,0.17608373,1.08015975e-11,1.0696661e-11,2.1838621e-11,5.0000466e-08,5.0000512e-08,5.0000224e-08,0.0,0.0,0.0,0.0,0.0,0.0,0.0,0.0,24
21828136000,21828056000,0.8654243,0.009728897,0.00033981598,-0.5009452,0.007622768,0.027186576,0.9716175,-193.09021,344.68298,-358.56638,3.5965597e-06,-1.2672823e-06,-6.2302884e-06,-0.00012926292,-7.0952556e-05,0.0007183094,0.19492295,-0.01699846,0.4856889,0.01472996,-0.010683752,0.00054637744,0.0,0.0,1.7496264e-05,5.523675e-06,5.5660676e-06,4.7266734e-05,0.010425869,0.010421156,0.01407987,0.07035276,0.07033822,0.17696953,1.0744075e-11,1.0651656e-11,2.1994295e-11,5.000051e-08,5.0000548e-08,5.0000185e-08,0.0,0.0,0.0,0.0,0.0,0.0,0.0,0.0,24
21829136000,21829056000,0.8654776,0.009874581,0.0020072723,-0.50084615,0.0010898225,0.040431093,0.9822134,-193.07893,344.68317,-357.56058,3.651944e-06,-1.1056003e-06,-6.300762e-06,-0.00012743718,-7.1412294e-05,0.0007053513,0.19492295,-0.01699846,0.4856889,0.01472996,-0.010683752,0.00054637744,0.0,0.0,1.773275e-05,5.567466e-06,5.6068006e-06,4.797914e-05,0.010874812,0.010870522,0.014347433,0.0726081,0.072595164,0.17802177,1.0724326e-11,1.0642309e-11,2.2137259e-11,5.0001226e-08,5.0001297e-08,5.0000185e-08,0.0,0.0,0.0,0.0,0.0,0.0,0.0,0.0,24
21830136000,21830056000,0.86545867,0.010402228,0.0014566075,-0.50087017,-0.004677066,0.04220284,0.97694576,-193.08282,344.67413,-356.559,3.7693126e-06,-9.074689e-07,-6.3701136e-06,-0.00012545493,-7.2383664e-05,0.00069435366,0.19492295,-0.01699846,0.4856889,0.01472996,-0.010683752,0.00054637744,0.0,0.0,1.7968667e-05,5.375748e-06,5.412862e-06,4.8664344e-05,0.00976135,0.009758504,0.0136126885,0.06659089,0.06658352,0.17400372,1.0560661e-11,1.049048e-11,2.226773e-11,5.0000434e-08,5.0000434e-08,5.000015e-08,0.0,0.0,0.0,0.0,0.0,0.0,0.0,0.0,24
21831136000,21831056000,0.865453,0.010661713,0.0022496746,-0.5008716,0.0010998722,0.037869085,0.96958804,-193.08026,344.68506,-355.56235,3.8240933e-06,-7.7500556e-07,-6.435397e-06,-0.00012423543,-7.278272e-05,0.00068396656,0.19492295,-0.01699846,0.4856889,0.01472996,-0.010683752,0.00054637744,0.0,0.0,1.8196499e-05,5.3795593e-06,5.4143493e-06,4.933356e-05,0.009953626,0.009951438,0.01377985,0.06795433,0.06794828,0.17491384,1.0526306e-11,1.0464753e-11,2.2387054e-11,5.0000466e-08,5.000047e-08,5.0000185e-08,0.0,0.0,0.0,0.0,0.0,0.0,0.0,0.0,24
21832136000,21832056000,0.86535484,0.010363099,0.0001693245,-0.5010525,-0.009994407,0.030395111,0.98742795,-193.07614,344.6978,-354.5785,3.847976e-06,-6.4733365e-07,-6.4291908e-06,-0.0001231759,-7.299603e-05,0.0006814446,0.19492295,-0.01699846,0.4856889,0.01472996,-0.010683752,0.00054637744,0.0,0.0,1.8366512e-05,5.412327e-06,5.4464667e-06,4.9837417e-05,0.010282118,0.010280579,0.014022628,0.06981377,0.069808595,0.17615269,1.0516108e-11,1.04621355e-11,2.2466749e-11,5.000054e-08,5.0000533e-08,5.000026e-08,0.0,0.0,0.0,0.0,0.0,0.0,0.0,0.0,24
21833136000,21833056000,0.86532176,0.011646526,0.00029936704,-0.5010815,-0.00947331,0.028041428,1.0045465,-193.06723,344.70642,-353.58426,3.7980867e-06,-5.28351e-07,-6.4216842e-06,-0.00012226158,-7.27129e-05,0.0006803471,0.19492295,-0.01699846,0.4856889,0.01472996,-0.010683752,0.00054637744,0.0,0.0,1.8570956e-05,5.447807e-06,5.482546e-06,5.0474155e-05,0.010612583,0.0106112035,0.014260556,0.071714945,0.071710676,0.17748137,1.05105325e-11,1.0463368e-11,2.2565215e-11,5.000062e-08,5.0000597e-08,5.000022e-08,0.0,0.0,0.0,0.0,0.0,0.0,0.0,0.0,24
21834136000,21834056000,0.8653904,0.010460909,0.0019703475,-0.5009853,-0.011762701,0.01829492,0.99586666,-193.04843,344.7159,-352.59732,3.6900917e-06,-3.9105097e-07,-6.4302e-06,-0.00012127466,-7.2045026e-05,0.00068595435,0.19492295,-0.01699846,0.4856889,0.01472996,-0.010683752,0.00054637744,0.0,0.0,1.8761146e-05,5.299406e-06,5.330526e-06,5.109914e-05,0.009633536,0.009632904,0.01355709,0.066065066,0.06606258,0.17366941,1.039314e-11,1.0353417e-11,2.2653724e-11,5.0000438e-08,5.0000427e-08,5.0000185e-08,0.0,0.0,0.0,0.0,0.0,0.0,0.0,0.0,24
