timestamp,roll_body,pitch_body,yaw_body,yaw_sp_move_rate,q_d[0],q_d[1],q_d[2],q_d[3],thrust_body[0],thrust_body[1],thrust_body[2],roll_reset_integral,pitch_reset_integral,yaw_reset_integral,fw_control_yaw,apply_flaps
21726356000,-0.0,-0.0,-1.0712705,0.0,0.8599446,-0.0,0.0,-0.5103875,0.0,0.0,-0.001,0,0,0,0,0
21726364000,-0.0,-0.0,-1.0712653,0.0,0.8599459,-0.0,0.0,-0.5103853,0.0,0.0,-0.001,0,0,0,0,0
21726412000,-0.0,-0.0,-1.0712674,0.0,0.85994536,-0.0,0.0,-0.51038605,0.0,0.0,-0.001,0,0,0,0,0
21726452000,-0.0,-0.0,-1.0713533,0.0,0.8599234,-0.0,0.0,-0.51042306,0.0,0.0,-0.001,0,0,0,0,0
21726508000,-0.0,-0.0,-1.0713632,0.0,0.8599209,-0.0,0.0,-0.5104273,0.0,0.0,-0.001,0,0,0,0,0
21726556000,-0.0,-0.0,-1.0712874,0.0,0.8599403,-0.0,0.0,-0.51039475,0.0,0.0,-0.001,0,0,0,0,0
21726604000,-0.0,-0.0,-1.0713049,0.0,0.85993576,-0.0,0.0,-0.51040226,0.0,0.0,-0.001,0,0,0,0,0
21726660000,-0.0,-0.0,-1.0712669,0.0,0.8599455,-0.0,0.0,-0.51038593,0.0,0.0,-0.001,0,0,0,0,0
21726708000,-0.0,-0.0,-1.0713458,0.0,0.8599253,-0.0,0.0,-0.5104198,0.0,0.0,-0.001,0,0,0,0,0
21726756000,-0.0,-0.0,-1.0712483,0.0,0.85995024,-0.0,0.0,-0.5103779,0.0,0.0,-0.001,0,0,0,0,0
21726804000,-0.0,-0.0,-1.0712713,0.0,0.8599444,-0.0,0.0,-0.5103878,0.0,0.0,-0.001,0,0,0,0,0
21726852000,-0.0,-0.0,-1.0712899,0.0,0.8599397,-0.0,0.0,-0.51039577,0.0,0.0,-0.001,0,0,0,0,0
21726908000,-0.0,-0.0,-1.071182,0.0,0.8599672,-0.0,0.0,-0.51034945,0.0,0.0,-0.001,0,0,0,0,0
21726956000,-0.0,-0.0,-1.0712237,0.0,0.8599565,-0.0,0.0,-0.51036733,0.0,0.0,-0.001,0,0,0,0,0
21727012000,-0.0,-0.0,-1.0711964,0.0,0.85996354,-0.0,0.0,-0.5103556,0.0,0.0,-0.001,0,0,0,0,0
21727052000,-0.0,-0.0,-1.0710964,0.0,0.859989,-0.0,0.0,-0.5103126,0.0,0.0,-0.001,0,0,0,0,0
21727108000,-0.0,-0.0,-1.071079,0.0,0.85999346,-0.0,0.0,-0.5103051,0.0,0.0,-0.001,0,0,0,0,0
21727156000,-0.0,-0.0,-1.0710156,0.0,0.8600096,-0.0,0.0,-0.5102778,0.0,0.0,-0.001,0,0,0,0,0
21727204000,-0.0,-0.0,-1.0710117,0.0,0.8600106,-0.0,0.0,-0.51027614,0.0,0.0,-0.001,0,0,0,0,0
21727252000,-0.0,-0.0,-1.0710717,0.0,0.8599953,-0.0,0.0,-0.510302,0.0,0.0,-0.001,0,0,0,0,0
21727308000,-0.0,-0.0,-1.0711205,0.0,0.85998285,-0.0,0.0,-0.5103229,0.0,0.0,-0.001,0,0,0,0,0
21727356000,-0.0,-0.0,-1.0711823,0.0,0.8599671,-0.0,0.0,-0.51034945,0.0,0.0,-0.001,0,0,0,0,0
21727412000,-0.0,-0.0,-1.071182,0.0,0.8599672,-0.0,0.0,-0.51034945,0.0,0.0,-0.001,0,0,0,0,0
21727460000,-0.0,-0.0,-1.0712423,0.0,0.85995173,-0.0,0.0,-0.5103753,0.0,0.0,-0.001,0,0,0,0,0
21727508000,-0.0,-0.0,-1.0712895,0.0,0.85993975,-0.0,0.0,-0.51039565,0.0,0.0,-0.001,0,0,0,0,0
21727556000,-0.0,-0.0,-1.0710864,0.0,0.85999155,-0.0,0.0,-0.51030827,0.0,0.0,-0.001,0,0,0,0,0
21727604000,-0.0,-0.0,-1.0710602,0.0,0.8599982,-0.0,0.0,-0.510297,0.0,0.0,-0.001,0,0,0,0,0
21727660000,-0.0,-0.0,-1.0710895,0.0,0.8599908,-0.0,0.0,-0.5103096,0.0,0.0,-0.001,0,0,0,0,0
21727708000,-0.0,-0.0,-1.0710549,0.0,0.8599996,-0.0,0.0,-0.51029474,0.0,0.0,-0.001,0,0,0,0,0
21727756000,-0.0,-0.0,-1.0710676,0.0,0.8599964,-0.0,0.0,-0.51030016,0.0,0.0,-0.001,0,0,0,0,0
21727804000,-0.0,-0.0,-1.0710655,0.0,0.85999686,-0.0,0.0,-0.5102993,0.0,0.0,-0.001,0,0,0,0,0
21727860000,-0.0,-0.0,-1.0712126,0.0,0.85995936,-0.0,0.0,-0.5103625,0.0,0.0,-0.001,0,0,0,0,0
21727908000,-0.0,-0.0,-1.0711384,0.0,0.85997826,-0.0,0.0,-0.5103307,0.0,0.0,-0.001,0,0,0,0,0
21727956000,-0.0,-0.0,-1.0711188,0.0,0.8599833,-0.0,0.0,-0.5103222,0.0,0.0,-0.001,0,0,0,0,0
21728012000,-0.0,-0.0,-1.0712444,0.0,0.85995126,-0.0,0.0,-0.51037616,0.0,0.0,-0.001,0,0,0,0,0
21728052000,-0.0,-0.0,-1.0712988,0.0,0.85993737,-0.0,0.0,-0.5103996,0.0,0.0,-0.001,0,0,0,0,0
21728108000,-0.0,-0.0,-1.0712826,0.0,0.8599415,-0.0,0.0,-0.5103926,0.0,0.0,-0.001,0,0,0,0,0
21728156000,-0.0,-0.0,-1.0712444,0.0,0.85995126,-0.0,0.0,-0.51037616,0.0,0.0,-0.001,0,0,0,0,0
21728204000,-0.0,-0.0,-1.0711695,0.0,0.8599704,-0.0,0.0,-0.51034397,0.0,0.0,-0.001,0,0,0,0,0
21728252000,-0.0,-0.0,-1.0710456,0.0,0.860002,-0.0,0.0,-0.51029074,0.0,0.0,-0.001,0,0,0,0,0
21728308000,-0.0,-0.0,-1.0709717,0.0,0.8600208,-0.0,0.0,-0.510259,0.0,0.0,-0.001,0,0,0,0,0
21728356000,-0.0,-0.0,-1.0710065,0.0,0.86001194,-0.0,0.0,-0.51027393,0.0,0.0,-0.001,0,0,0,0,0
21728404000,-0.0,-0.0,-1.0710933,0.0,0.85998976,-0.0,0.0,-0.51031125,0.0,0.0,-0.001,0,0,0,0,0
21728452000,-0.0,-0.0,-1.071054,0.0,0.85999984,-0.0,0.0,-0.5102943,0.0,0.0,-0.001,0,0,0,0,0
21728508000,-0.0,-0.0,-1.07095,0.0,0.86002636,-0.0,0.0,-0.5102497,0.0,0.0,-0.001,0,0,0,0,0
21728556000,-0.0,-0.0,-1.0709611,0.0,0.86002356,-0.0,0.0,-0.5102543,0.0,0.0,-0.001,0,0,0,0,0
21728604000,-0.0,-0.0,-1.071048,0.0,0.8600013,-0.0,0.0,-0.51029176,0.0,0.0,-0.001,0,0,0,0,0
21728660000,-0.0,-0.0,-1.0710214,0.0,0.8600081,-0.0,0.0,-0.5102804,0.0,0.0,-0.001,0,0,0,0,0
21728708000,-0.0,-0.0,-1.0709525,0.0,0.86002576,-0.0,0.0,-0.5102507,0.0,0.0,-0.001,0,0,0,0,0
21728756000,-0.0,-0.0,-1.071007,0.0,0.8600118,-0.0,0.0,-0.5102741,0.0,0.0,-0.001,0,0,0,0,0
21728804000,-0.0,-0.0,-1.0709355,0.0,0.86003006,-0.0,0.0,-0.5102434,0.0,0.0,-0.001,0,0,0,0,0
21728852000,-0.0,-0.0,-1.0709519,0.0,0.8600259,-0.0,0.0,-0.51025045,0.0,0.0,-0.001,0,0,0,0,0
21728908000,-0.0,-0.0,-1.0709162,0.0,0.86003494,-0.0,0.0,-0.5102351,0.0,0.0,-0.001,0,0,0,0,0
21728956000,-0.0,-0.0,-1.0708694,0.0,0.8600469,-0.0,0.0,-0.510215,0.0,0.0,-0.001,0,0,0,0,0
21729004000,-0.0,-0.0,-1.070873,0.0,0.86004597,-0.0,0.0,-0.51021653,0.0,0.0,-0.001,0,0,0,0,0
21729052000,-0.0,-0.0,-1.0708327,0.0,0.8600563,-0.0,0.0,-0.5101992,0.0,0.0,-0.001,0,0,0,0,0
21729108000,-0.0,-0.0,-1.0707341,0.0,0.86008143,-0.0,0.0,-0.5101568,0.0,0.0,-0.001,0,0,0,0,0
21729156000,-0.0,-0.0,-1.070879,0.0,0.8600445,-0.0,0.0,-0.5102191,0.0,0.0,-0.001,0,0,0,0,0
21729204000,-0.0,-0.0,-1.0710839,0.0,0.8599922,-0.0,0.0,-0.5103072,0.0,0.0,-0.001,0,0,0,0,0
21729252000,-0.0,-0.0,-1.0711844,0.0,0.8599666,-0.0,0.0,-0.5103504,0.0,0.0,-0.001,0,0,0,0,0
21729308000,-0.0,-0.0,-1.0712479,0.0,0.85995036,-0.0,0.0,-0.5103777,0.0,0.0,-0.001,0,0,0,0,0
21729356000,-0.0,-0.0,-1.0713255,0.0,0.8599305,-0.0,0.0,-0.51041114,0.0,0.0,-0.001,0,0,0,0,0
21729404000,-0.0,-0.0,-1.0713012,0.0,0.8599368,-0.0,0.0,-0.5104007,0.0,0.0,-0.001,0,0,0,0,0
21729452000,-0.0,-0.0,-1.0712874,0.0,0.8599403,-0.0,0.0,-0.51039475,0.0,0.0,-0.001,0,0,0,0,0
21729508000,-0.0,-0.0,-1.0713232,0.0,0.8599312,-0.0,0.0,-0.5104101,0.0,0.0,-0.001,0,0,0,0,0
21729556000,-0.0,-0.0,-1.0712715,0.0,0.8599443,-0.0,0.0,-0.5103879,0.0,0.0,-0.001,0,0,0,0,0
21729604000,-0.0,-0.0,-1.071283,0.0,0.8599414,-0.0,0.0,-0.5103928,0.0,0.0,-0.001,0,0,0,0,0
21729652000,-0.0,-0.0,-1.0713503,0.0,0.8599242,-0.0,0.0,-0.51042175,0.0,0.0,-0.001,0,0,0,0,0
21729708000,-0.0,-0.0,-1.0713677,0.0,0.8599198,-0.0,0.0,-0.5104292,0.0,0.0,-0.001,0,0,0,0,0
21729756000,-0.0,-0.0,-1.0713038,0.0,0.8599361,-0.0,0.0,-0.5104018,0.0,0.0,-0.001,0,0,0,0,0
21729812000,-0.0,-0.0,-1.071287,0.0,0.85994035,-0.0,0.0,-0.5103946,0.0,0.0,-0.001,0,0,0,0,0
21729860000,-0.0,-0.0,-1.0713378,0.0,0.8599274,-0.0,0.0,-0.51041645,0.0,0.0,-0.001,0,0,0,0,0
21729908000,-0.0,-0.0,-1.071257,0.0,0.85994804,-0.0,0.0,-0.51038164,0.0,0.0,-0.001,0,0,0,0,0
21729956000,-0.0,-0.0,-1.0711555,0.0,0.8599739,-0.0,0.0,-0.510338,0.0,0.0,-0.001,0,0,0,0,0
21730004000,-0.0,-0.0,-1.0712118,0.0,0.85995954,-0.0,0.0,-0.5103622,0.0,0.0,-0.001,0,0,0,0,0
21730052000,-0.0,-0.0,-1.0712277,0.0,0.8599555,-0.0,0.0,-0.510369,0.0,0.0,-0.001,0,0,0,0,0
21730108000,-0.0,-0.0,-1.0712535,0.0,0.8599489,-0.0,0.0,-0.51038015,0.0,0.0,-0.001,0,0,0,0,0
21730156000,-0.0,-0.0,-1.0713539,0.0,0.8599233,-0.0,0.0,-0.51042324,0.0,0.0,-0.001,0,0,0,0,0
21730212000,-0.0,-0.0,-1.0713228,0.0,0.85993123,-0.0,0.0,-0.5104099,0.0,0.0,-0.001,0,0,0,0,0
21730252000,-0.0,-0.0,-1.0712684,0.0,0.8599451,-0.0,0.0,-0.5103865,0.0,0.0,-0.001,0,0,0,0,0
21730308000,-0.0,-0.0,-1.0714151,0.0,0.8599077,-0.0,0.0,-0.5104495,0.0,0.0,-0.001,0,0,0,0,0
21730356000,-0.0,-0.0,-1.0711685,0.0,0.85997057,-0.0,0.0,-0.5103436,0.0,0.0,-0.001,0,0,0,0,0
21730404000,-0.0,-0.0,-1.0711219,0.0,0.8599825,-0.0,0.0,-0.5103236,0.0,0.0,-0.001,0,0,0,0,0
21730452000,-0.0,-0.0,-1.0710515,0.0,0.86000043,-0.0,0.0,-0.51029325,0.0,0.0,-0.001,0,0,0,0,0
21730508000,-0.0,-0.0,-1.0710083,0.0,0.86001146,-0.0,0.0,-0.5102747,0.0,0.0,-0.001,0,0,0,0,0
21730556000,-0.0,-0.0,-1.0709938,0.0,0.86001515,-0.0,0.0,-0.51026845,0.0,0.0,-0.001,0,0,0,0,0
21730604000,-0.0,-0.0,-1.0710436,0.0,0.86000246,-0.0,0.0,-0.51028985,0.0,0.0,-0.001,0,0,0,0,0
21730652000,-0.0,-0.0,-1.0710332,0.0,0.86000514,-0.0,0.0,-0.5102854,0.0,0.0,-0.001,0,0,0,0,0
21730708000,-0.0,-0.0,-1.0709537,0.0,0.8600254,-0.0,0.0,-0.5102512,0.0,0.0,-0.001,0,0,0,0,0
21730756000,-0.0,-0.0,-1.0709138,0.0,0.8600356,-0.0,0.0,-0.51023406,0.0,0.0,-0.001,0,0,0,0,0
21730804000,-0.0,-0.0,-1.0709426,0.0,0.86002827,-0.0,0.0,-0.51024646,0.0,0.0,-0.001,0,0,0,0,0
21730852000,-0.0,-0.0,-1.0710218,0.0,0.86000806,-0.0,0.0,-0.51028055,0.0,0.0,-0.001,0,0,0,0,0
21730908000,-0.0,-0.0,-1.0710123,0.0,0.86001045,-0.0,0.0,-0.51027644,0.0,0.0,-0.001,0,0,0,0,0
21730956000,-0.0,-0.0,-1.0710096,0.0,0.8600111,-0.0,0.0,-0.51027524,0.0,0.0,-0.001,0,0,0,0,0
21731012000,-0.0,-0.0,-1.0710493,0.0,0.860001,-0.0,0.0,-0.51029235,0.0,0.0,-0.001,0,0,0,0,0
21731052000,-0.0,-0.0,-1.0710672,0.0,0.85999644,-0.0,0.0,-0.51030004,0.0,0.0,-0.001,0,0,0,0,0
21731108000,-0.0,-0.0,-1.0710167,0.0,0.8600094,-0.0,0.0,-0.5102783,0.0,0.0,-0.001,0,0,0,0,0
21731156000,-0.0,-0.0,-1.0708586,0.0,0.86004966,-0.0,0.0,-0.51021034,0.0,0.0,-0.001,0,0,0,0,0
21731212000,-0.0,-0.0,-1.0709398,0.0,0.860029,-0.0,0.0,-0.5102452,0.0,0.0,-0.001,0,0,0,0,0
21731260000,-0.0,-0.0,-1.0709368,0.0,0.86002976,-0.0,0.0,-0.51024395,0.0,0.0,-0.001,0,0,0,0,0
21731308000,-0.0,-0.0,-1.0709766,0.0,0.86001956,-0.0,0.0,-0.51026106,0.0,0.0,-0.001,0,0,0,0,0
21731356000,-0.0,-0.0,-1.0710155,0.0,0.8600097,-0.0,0.0,-0.5102778,0.0,0.0,-0.001,0,0,0,0,0
21731412000,-0.0,-0.0,-1.0709972,0.0,0.8600143,-0.0,0.0,-0.51026994,0.0,0.0,-0.001,0,0,0,0,0
21731452000,-0.0,-0.0,-1.0709891,0.0,0.8600164,-0.0,0.0,-0.5102664,0.0,0.0,-0.001,0,0,0,0,0
21731508000,-0.0,-0.0,-1.0710994,0.0,0.8599883,-0.0,0.0,-0.5103138,0.0,0.0,-0.001,0,0,0,0,0
21731556000,-0.0,-0.0,-1.0710825,0.0,0.85999256,-0.0,0.0,-0.5103066,0.0,0.0,-0.001,0,0,0,0,0
21731604000,-0.0,-0.0,-1.0710483,0.0,0.86000127,-0.0,0.0,-0.51029193,0.0,0.0,-0.001,0,0,0,0,0
21731660000,-0.0,-0.0,-1.071042,0.0,0.86000293,-0.0,0.0,-0.51028913,0.0,0.0,-0.001,0,0,0,0,0
21731708000,-0.0,-0.0,-1.0711087,0.0,0.8599859,-0.0,0.0,-0.51031786,0.0,0.0,-0.001,0,0,0,0,0
21731756000,-0.0,-0.0,-1.0711554,0.0,0.85997397,-0.0,0.0,-0.51033795,0.0,0.0,-0.001,0,0,0,0,0
21731804000,-0.0,-0.0,-1.0711467,0.0,0.8599762,-0.0,0.0,-0.51033425,0.0,0.0,-0.001,0,0,0,0,0
21731852000,-0.0,-0.0,-1.071133,0.0,0.8599797,-0.0,0.0,-0.5103283,0.0,0.0,-0.001,0,0,0,0,0
21731908000,-0.0,-0.0,-1.0711704,0.0,0.85997015,-0.0,0.0,-0.51034445,0.0,0.0,-0.001,0,0,0,0,0
21731956000,-0.0,-0.0,-1.0712577,0.0,0.85994786,-0.0,0.0,-0.51038194,0.0,0.0,-0.001,0,0,0,0,0
21732004000,-0.0,-0.0,-1.0712502,0.0,0.85994977,-0.0,0.0,-0.5103787,0.0,0.0,-0.001,0,0,0,0,0
21732060000,-0.0,-0.0,-1.0713732,0.0,0.85991836,-0.0,0.0,-0.5104316,0.0,0.0,-0.001,0,0,0,0,0
21732108000,-0.0,-0.0,-1.0714223,0.0,0.85990584,-0.0,0.0,-0.5104527,0.0,0.0,-0.001,0,0,0,0,0
21732156000,-0.0,-0.0,-1.07152,0.0,0.85988086,-0.0,0.0,-0.5104947,0.0,0.0,-0.001,0,0,0,0,0
21732204000,-0.0,-0.0,-1.071599,0.0,0.8598607,-0.0,0.0,-0.5105287,0.0,0.0,-0.001,0,0,0,0,0
21732252000,-0.0,-0.0,-1.0716425,0.0,0.85984963,-0.0,0.0,-0.51054734,0.0,0.0,-0.001,0,0,0,0,0
21732308000,-0.0,-0.0,-1.0715775,0.0,0.8598662,-0.0,0.0,-0.5105195,0.0,0.0,-0.001,0,0,0,0,0
21732356000,-0.0030150816,0.0014947198,-1.0715431,0.0,0.85987437,-0.0009147655,0.0014122413,-0.51050293,0.0,0.0,-0.0076305405,0,0,0,0,0
21732404000,0.00034522233,5.5563e-06,-1.071466,0.0,0.8598947,0.00014984558,-8.572415e-05,-0.5104715,0.0,0.0,-0.013717135,0,0,0,0,0
21732452000,0.0004115668,-0.0005544817,-1.0713085,0.0,0.85993487,3.5455567e-05,-0.00034344167,-0.5104037,0.0,0.0,-0.020791862,0,0,0,0,0
21732508000,-0.002262761,0.00035372894,-1.0712999,0.0,0.8599366,-0.0008826443,0.0007295488,-0.51039964,0.0,0.0,-0.028967645,0,0,0,0,0
21732556000,0.0016401769,-0.00094132917,-1.0712239,0.0,0.8599563,0.00046502845,-0.0008232972,-0.5103668,0.0,0.0,-0.036812462,0,0,0,0,0
21732612000,-0.0021287473,0.0009126096,-1.0711118,0.0,0.85998476,-0.0006824842,0.0009355852,-0.5103184,0.0,0.0,-0.04610454,0,0,0,0,0
21732660000,-0.0019092679,0.00022402198,-1.0711304,0.0,0.85998,-0.000763804,0.0005835027,-0.5103268,0.0,0.0,-0.054699123,0,0,0,0,0
21732708000,0.0007008831,-0.001085216,-1.0710832,0.0,0.8599923,2.4480465e-05,-0.0006454713,-0.5103066,0.0,0.0,-0.06343367,0,0,0,0,0
21732756000,-0.0014018703,0.00064726063,-1.071031,0.0,0.86000556,-0.00043766462,0.00063599995,-0.5102841,0.0,0.0,-0.073322095,0,0,0,0,0
21732804000,0.0009919696,-0.00096090906,-1.0709192,0.0,0.86003417,0.00018141857,-0.0006662766,-0.5102361,0.0,0.0,-0.083139054,0,0,0,0,0
21732860000,0.0008295344,-0.00078941457,-1.0708845,0.0,0.86004305,0.00015532952,-0.00055108825,-0.51022124,0.0,0.0,-0.094976805,0,0,0,0,0
21732908000,-0.0030319842,0.0012865192,-1.070874,0.0,0.8600451,-0.00097562023,0.0013267164,-0.5102154,0.0,0.0,-0.10560469,0,0,0,0,0
21732956000,-0.0,-0.0,-1.0708911,0.0,0.8600414,-0.0,0.0,-0.5102243,0.0,0.0,-0.11705606,0,0,0,0,0
21733004000,5.2719704e-05,-0.00034121826,-1.0707997,0.0,0.8600647,-6.437104e-05,-0.00016018329,-0.510185,0.0,0.0,-0.1278375,0,0,0,0,0
21733060000,-0.00024176046,-0.0008104368,-1.0708963,0.0,0.86003995,-0.00031071494,-0.00028682774,-0.51022655,0.0,0.0,-0.14211124,0,0,0,0,0
21733108000,-0.0,-0.0,-1.0709128,0.0,0.86003584,-0.0,0.0,-0.51023364,0.0,0.0,-0.15557432,0,0,0,0,0
21733156000,4.5240657e-05,-0.00034229024,-1.0708346,0.0,0.8600558,-6.786348e-05,-0.00015873522,-0.5102,0.0,0.0,-0.16818343,0,0,0,0,0
21733212000,-0.0028368905,0.0016373467,-1.0707378,0.0,0.8600799,-0.0008023236,0.0014277553,-0.5101567,0.0,0.0,-0.18381572,0,0,0,0,0
21733252000,-0.00031464585,0.00014215238,-1.070634,0.0,0.86010695,-9.90576e-05,0.00014138571,-0.5101137,0.0,0.0,-0.19502589,0,0,0,0,0
21733308000,-0.0,-0.0,-1.0705106,0.0,0.8601384,-0.0,0.0,-0.5100607,0.0,0.0,-0.2117052,0,0,0,0,0
21733356000,-0.0028117283,0.0010742905,-1.070449,0.0,0.86015356,-0.0009352971,0.0011790656,-0.510033,0.0,0.0,-0.22704084,0,0,0,0,0
21733404000,-0.002972618,0.0013756433,-1.0703894,0.0,0.8601687,-0.0009276822,0.0013496721,-0.51000696,0.0,0.0,-0.24261057,0,0,0,0,0
21733452000,-0.00086593884,-0.00074930117,-1.0700701,0.0,0.86025053,-0.0005634858,-0.00010153482,-0.5098713,0.0,0.0,-0.25759208,0,0,0,0,0
21733508000,-0.0037371167,0.00031729488,-1.070036,0.0,0.8602581,-0.0015265567,0.0010891737,-0.5098554,0.0,0.0,-0.27614117,0,0,0,0,0
21733556000,-0.00060051476,-0.0011947894,-1.0697807,0.0,0.8603242,-0.0005628387,-0.00036089812,-0.5097468,0.0,0.0,-0.29295585,0,0,0,0,0
21733604000,-0.0036039534,0.00084888533,-1.069719,0.0,0.8603392,-0.0013339655,0.0012836676,-0.5097186,0.0,0.0,-0.3104505,0,0,0,0,0
21733652000,-0.004206851,0.0006498071,-1.069777,0.0,0.86032385,-0.0016440115,0.0013517323,-0.5097434,0.0,0.0,-0.32844773,0,0,0,0,0
21733708000,-0.0027789003,-0.00016224296,-1.0697176,0.0,0.8603397,-0.0012367491,0.00063843775,-0.5097192,0.0,0.0,-0.34946325,0,0,0,0,0
21733756000,-0.0050126393,0.00016326967,-1.0698116,0.0,0.8603141,-0.0021146121,0.0013478516,-0.50975823,0.0,0.0,-0.36806345,0,0,0,0,0
21733804000,-0.004754328,-0.00072319503,-1.0694605,0.0,0.8604032,-0.0022295972,0.0009003031,-0.50960827,0.0,0.0,-0.38652554,0,0,0,0,0
21733852000,-0.004129963,-0.00201085,-1.0695038,0.0,0.8603918,-0.0022890887,0.00018730937,-0.50962806,0.0,0.0,-0.4058176,0,0,0,0,0
21733908000,-0.0050442126,-0.0012714209,-1.0695059,0.0,0.8603908,-0.002493979,0.0007383756,-0.5096282,0.0,0.0,-0.42910907,0,0,0,0,0
21733956000,0.00222794,-0.006994226,-1.0695982,0.0,0.86036724,-0.00082394126,-0.0035765583,-0.5096615,0.0,0.0,-0.44684544,0,0,0,0,0
21734004000,0.0011335087,-0.0072770645,-1.0689936,0.0,0.8605203,-0.0013657903,-0.003419748,-0.5094029,0.0,0.0,-0.46758938,0,0,0,0,0
21734052000,0.0011861725,-0.006451955,-1.0705912,0.0,0.8601143,-0.0011354312,-0.0030772444,-0.5100909,0.0,0.0,-0.48379815,0,0,0,0,0
21734108000,-8.979373e-05,-0.007233605,-1.0715705,0.0,0.8598623,-0.0018850379,-0.0030870452,-0.51051325,0.0,0.0,-0.49348786,0,0,0,0,0
21734156000,0.0018376336,-0.009671668,-1.0711727,0.0,0.8599614,-0.0016777893,-0.00462756,-0.5103354,0.0,0.0,-0.49787968,0,0,0,0,0
21734204000,0.0030797727,-0.011629154,-1.0710417,0.0,0.85999197,-0.0016428106,-0.0057862927,-0.5102721,0.0,0.0,-0.50073147,0,0,0,0,0
21734260000,0.0042313044,-0.012982423,-1.0711294,0.0,0.8599676,-0.0014932285,-0.006661914,-0.5103031,0.0,0.0,-0.50222105,0,0,0,0,0
21734308000,0.0054770974,-0.014727226,-1.0711612,0.0,0.8599562,-0.0014028912,-0.0077299755,-0.5103073,0.0,0.0,-0.50248134,0,0,0,0,0
21734356000,0.0059325807,-0.016322214,-1.0710325,0.0,0.85998523,-0.0016134899,-0.008532088,-0.5102451,0.0,0.0,-0.50346863,0,0,0,0,0
21734404000,0.006295267,-0.01726566,-1.0712059,0.0,0.8599387,-0.0016990341,-0.009030132,-0.51031476,0.0,0.0,-0.5038845,0,0,0,0,0
21734452000,0.008273956,-0.016786754,-1.0712408,0.0,0.85993224,-0.0007262116,-0.009329085,-0.51032245,0.0,0.0,-0.50522196,0,0,0,0,0
21734508000,0.007739023,-0.017634777,-1.070964,0.0,0.8600004,-0.0011712996,-0.009557358,-0.51020265,0.0,0.0,-0.50628054,0,0,0,0,0
21734556000,0.008351977,-0.016963799,-1.0708872,0.0,0.860022,-0.00073617924,-0.009425242,-0.5101694,0.0,0.0,-0.5078544,0,0,0,0,0
21734604000,0.008794366,-0.017630236,-1.0710031,0.0,0.8599909,-0.00071653526,-0.00982461,-0.5102144,0.0,0.0,-0.50928915,0,0,0,0,0
21734660000,0.009223594,-0.016789006,-1.0710523,0.0,0.8599806,-0.00031757247,-0.009572393,-0.5102369,0.0,0.0,-0.510344,0,0,0,0,0
21734708000,0.009256834,-0.017707774,-1.0708646,0.0,0.8600262,-0.00053676794,-0.009975964,-0.51015216,0.0,0.0,-0.51188296,0,0,0,0,0
21734756000,0.008452786,-0.01659358,-1.0708416,0.0,0.86003464,-0.0005981698,-0.009291778,-0.5101507,0.0,0.0,-0.51280355,0,0,0,0,0
21734804000,0.010270546,-0.01650186,-1.070863,0.0,0.8600296,0.00020679226,-0.009716005,-0.5101516,0.0,0.0,-0.48601705,0,0,0,0,0
21734852000,0.008732902,-0.017146992,-1.070942,0.0,0.8600077,-0.0006193765,-0.009601166,-0.5101904,0.0,0.0,-0.46041197,0,0,0,0,0
21734908000,0.009435664,-0.015660387,-1.0708874,0.0,0.8600252,6.233912e-05,-0.009141215,-0.5101697,0.0,0.0,-0.4425441,0,0,0,0,0
21734956000,0.009604241,-0.015149924,-1.0708218,0.0,0.86004305,0.00026535057,-0.008964713,-0.5101427,0.0,0.0,-0.43287122,0,0,0,0,0
21735012000,0.010112873,-0.015161261,-1.0706959,0.0,0.86007506,0.00048175387,-0.009099294,-0.5100862,0.0,0.0,-0.42664433,0,0,0,0,0
21735052000,0.010669368,-0.014390709,-1.0706948,0.0,0.86007655,0.00091762247,-0.008909873,-0.5100864,0.0,0.0,-0.42517138,0,0,0,0,0
21735108000,0.01030937,-0.012944219,-1.0705943,0.0,0.8601047,0.0011321858,-0.0081959795,-0.5100505,0.0,0.0,-0.4240208,0,0,0,0,0
21735156000,0.01069045,-0.01268313,-1.0706986,0.0,0.8600782,0.0013622347,-0.008180958,-0.51009476,0.0,0.0,-0.42438447,0,0,0,0,0
21735212000,0.010872909,-0.012145335,-1.0707117,0.0,0.8600754,0.0015778262,-0.00799624,-0.5101018,0.0,0.0,-0.42464313,0,0,0,0,0
21735252000,0.01056632,-0.010783767,-1.0706878,0.0,0.8600833,0.0017933765,-0.0073325187,-0.5100978,0.0,0.0,-0.42505074,0,0,0,0,0
21735308000,0.009586889,-0.009747696,-1.0705063,0.0,0.8601314,0.0016370553,-0.0066370233,-0.5100268,0.0,0.0,-0.4263139,0,0,0,0,0
21735356000,0.009914942,-0.010969577,-1.0704452,0.0,0.8601455,0.0014667402,-0.0072461106,-0.5099952,0.0,0.0,-0.42670736,0,0,0,0,0
21735412000,0.010172729,-0.009722586,-1.0703645,0.0,0.860167,0.0018958899,-0.006775488,-0.50996387,0.0,0.0,-0.42749017,0,0,0,0,0
21735460000,0.00987427,-0.009083511,-1.0704827,0.0,0.86013764,0.0019301136,-0.006424652,-0.51001793,0.0,0.0,-0.4279435,0,0,0,0,0
21735508000,0.010413193,-0.009401403,-1.0707071,0.0,0.86007965,0.0020800645,-0.006699027,-0.5101116,0.0,0.0,-0.42972332,0,0,0,0,0
21735556000,0.010589629,-0.009895144,-1.0706649,0.0,0.8600899,0.0020301435,-0.0069563077,-0.5100911,0.0,0.0,-0.4303057,0,0,0,0,0
21735604000,0.008820876,-0.009545498,-0.99097955,0.0,0.87972736,0.0016107314,-0.0062956684,-0.47543398,0.0,0.0,-0.43152544,0,0,0,0,0
21735652000,0.0086445585,-0.00843726,-0.991809,0.0,0.8795313,0.0017942509,-0.005767037,-0.47580272,0.0,0.0,-0.43238774,0,0,0,0,0
21735708000,0.010107775,-0.008400713,-0.9979478,0.0,0.8780652,0.0024276862,-0.006106545,-0.4784958,0.0,0.0,-0.4321582,0,0,0,0,0
21735756000,0.009577856,-0.006944029,-0.999967,0.0,0.8775831,0.0025381765,-0.005342808,-0.4793881,0.0,0.0,-0.4330438,0,0,0,0,0
21735804000,0.010217659,-0.006625644,-1.0031152,0.0,0.87682664,0.0028868013,-0.0053610136,-0.4807681,0.0,0.0,-0.43319896,0,0,0,0,0
21735860000,0.010754671,-0.006096452,-1.0071924,0.0,0.87584394,0.003238725,-0.0052647158,-0.48255482,0.0,0.0,-0.4342634,0,0,0,0,0
21735908000,0.009793495,-0.0052526616,-1.0099744,0.0,0.8751734,0.0030149142,-0.004667494,-0.48377752,0.0,0.0,-0.43466008,0,0,0,0,0
21735956000,0.009997607,-0.0050337855,-1.0127057,0.0,0.8745116,0.0031508638,-0.0046253973,-0.48497242,0.0,0.0,-0.43532684,0,0,0,0,0
21736004000,0.010893611,-0.0051621883,-1.0147842,0.0,0.8740056,0.003506416,-0.004902457,-0.48587847,0.0,0.0,-0.43628582,0,0,0,0,0
21736052000,0.009978908,-0.0048175757,-1.0165137,0.0,0.8735866,0.0031864939,-0.0045324014,-0.48663723,0.0,0.0,-0.43571767,0,0,0,0,0
21736108000,0.009773427,-0.0045770584,-1.0194563,0.0,0.87286997,0.0031488214,-0.004381986,-0.48792315,0.0,0.0,-0.4362028,0,0,0,0,0
21736156000,0.010678598,-0.00367742,-1.0206215,0.0,0.8725837,0.0037609015,-0.004212376,-0.48843208,0.0,0.0,-0.43575898,0,0,0,0,0
21736212000,0.009967807,-0.0026864654,-1.021576,0.0,0.87235117,0.003691083,-0.00360821,-0.4888525,0.0,0.0,-0.43705887,0,0,0,0,0
21736252000,0.009592424,-0.002075433,-1.0226403,0.0,0.87209123,0.0036749756,-0.0032518962,-0.48931876,0.0,0.0,-0.43757495,0,0,0,0,0
21736308000,0.009335514,-0.0008403101,-1.0246195,0.0,0.87160605,0.003862515,-0.002654296,-0.4901846,0.0,0.0,-0.43865418,0,0,0,0,0
21736356000,0.009433262,-0.0010086143,-1.0254232,0.0,0.87140894,0.0038627577,-0.0027531534,-0.4905344,0.0,0.0,-0.44002485,0,0,0,0,0
21736404000,0.009134599,-0.0010388125,-1.0269154,0.0,0.87104326,0.0037232123,-0.0026958375,-0.49118486,0.0,0.0,-0.43964186,0,0,0,0,0
21736452000,0.0083037,-0.001528466,-1.0273756,0.0,0.8709321,0.0032404584,-0.002705775,-0.49138528,0.0,0.0,-0.43987897,0,0,0,0,0
21736508000,0.009614295,0.00026920612,-1.0296627,0.0,0.8703654,0.0042502848,-0.002249819,-0.49238297,0.0,0.0,-0.43929678,0,0,0,0,0
21736556000,0.009617455,0.00010823121,-1.0299108,0.0,0.8703045,0.004211741,-0.002321173,-0.49249062,0.0,0.0,-0.44037977,0,0,0,0,0
21736604000,0.008738582,-0.00041239866,-1.0304834,0.0,0.87016577,0.0037004265,-0.002332367,-0.49273968,0.0,0.0,-0.43989855,0,0,0,0,0
21736652000,0.008404403,0.0015240106,-1.0311773,0.0,0.86999315,0.0040316153,-0.0014089354,-0.4930454,0.0,0.0,-0.440128,0,0,0,0,0
21736708000,0.0077496027,0.0012550777,-1.0334923,0.0,0.86942345,0.0036789002,-0.0013687571,-0.49405214,0.0,0.0,-0.4413753,0,0,0,0,0
21736756000,0.0072828294,0.0017288958,-1.0343803,0.0,0.8692043,0.003592567,-0.0010490719,-0.49443904,0.0,0.0,-0.44052723,0,0,0,0,0
21736804000,0.0064842734,0.0019315295,-1.0352281,0.0,0.8689957,0.003295283,-0.0007649847,-0.49480808,0.0,0.0,-0.44052628,0,0,0,0,0
21736860000,0.007645674,0.0016785739,-1.036463,0.0,0.8686883,0.0037366094,-0.0011645361,-0.49534366,0.0,0.0,-0.440221,0,0,0,0,0
21736908000,0.008720616,0.0019241908,-1.0369992,0.0,0.868553,0.00426398,-0.0013252296,-0.49557626,0.0,0.0,-0.4416876,0,0,0,0,0
21736956000,0.007844249,0.0017548819,-1.0376682,0.0,0.8683891,0.0038410458,-0.0011828884,-0.495867,0.0,0.0,-0.44147998,0,0,0,0,0
21737004000,0.0078046853,0.002561221,-1.0383501,0.0,0.86821896,0.0040235026,-0.00082434155,-0.4961642,0.0,0.0,-0.4423189,0,0,0,0,0
21737052000,0.009079782,0.0018730125,-1.0390058,0.0,0.8680546,0.0044058324,-0.001440873,-0.49644703,0.0,0.0,-0.4433164,0,0,0,0,0
21737108000,0.008898842,0.0020921312,-1.0394816,0.0,0.86793655,0.0043813796,-0.0013018983,-0.49665403,0.0,0.0,-0.44203824,0,0,0,0,0
21737156000,0.008416853,0.002092425,-1.0396527,0.0,0.86789507,0.004172183,-0.0011824367,-0.49672857,0.0,0.0,-0.44210985,0,0,0,0,0
21737204000,0.009444293,0.002904959,-1.0399063,0.0,0.8678285,0.0048197005,-0.0010856288,-0.4968394,0.0,0.0,-0.44292426,0,0,0,0,0
21737252000,0.00964678,0.0031334413,-1.0399063,0.0,0.8678276,0.0049643205,-0.0010367879,-0.49683967,0.0,0.0,-0.4429589,0,0,0,0,0
21737308000,0.009493664,-0.0014625732,-1.0413203,0.0,0.8674827,0.0037540407,-0.0029956934,-0.49744418,0.0,0.0,-0.3979802,0,0,0,0,0
21737356000,0.009071807,-0.0016788233,-1.0421399,0.0,0.8672797,0.0035160535,-0.002986005,-0.4977998,0.0,0.0,-0.4010295,0,0,0,0,0
21737412000,0.010078122,0.0014231445,-1.0428649,0.0,0.86709356,0.0047238283,-0.001893058,-0.49811944,0.0,0.0,-0.41600907,0,0,0,0,0
21737452000,0.009758739,-0.0001264377,-1.0431215,0.0,0.86703247,0.004199107,-0.0024858706,-0.49822775,0.0,0.0,-0.425142,0,0,0,0,0
21737508000,0.008293143,0.004722382,-1.0431665,0.0,0.8670167,0.0047716475,-1.8824681e-05,-0.49825636,0.0,0.0,-0.4344209,0,0,0,0,0
21737556000,0.009428999,0.005505028,-1.0432129,0.0,0.8670005,0.005459022,3.7361777e-05,-0.49827743,0.0,0.0,-0.43982482,0,0,0,0,0
21737612000,0.008998066,0.0070407237,-1.0433398,0.0,0.8669662,0.005654847,0.0008100996,-0.49833426,0.0,0.0,-0.44416085,0,0,0,0,0
21737652000,0.009211492,0.0070441044,-1.0435869,0.0,0.866904,0.0057482994,0.00075767626,-0.49844137,0.0,0.0,-0.44627383,0,0,0,0,0
21737708000,0.010224557,0.009219931,-1.044598,0.0,0.8666423,0.0067303684,0.0014449294,-0.4988825,0.0,0.0,-0.44947147,0,0,0,0,0
21737756000,0.009619668,0.009126929,-1.0453674,0.0,0.8664526,0.006445659,0.0015530329,-0.49921542,0.0,0.0,-0.4510678,0,0,0,0,0
21737804000,0.012038258,0.009713023,-1.0462627,0.0,0.8662185,0.007640267,0.0011998303,-0.49960557,0.0,0.0,-0.45184863,0,0,0,0,0
21737852000,0.011904288,0.0117864255,-1.0472394,0.0,0.86596704,0.008101169,0.0021273796,-0.500031,0.0,0.0,-0.4528057,0,0,0,0,0
21737908000,0.0146055315,0.016952844,-1.0493089,0.0,0.86541194,0.010566033,0.0036781419,-0.50093627,0.0,0.0,-0.45623657,0,0,0,0,0
21737956000,0.017336704,0.020124638,-1.0503021,0.0,0.86512816,0.012544208,0.0043603806,-0.50137496,0.0,0.0,-0.45733675,0,0,0,0,0
21738012000,0.01955209,0.026166812,-1.0512198,0.0,0.86483854,0.015019572,0.0064119776,-0.50178444,0.0,0.0,-0.45700738,0,0,0,0,0
21738060000,0.025723115,0.037277557,-1.0526867,0.0,0.86430776,0.020480845,0.0096537275,-0.5024534,0.0,0.0,-0.46213633,0,0,0,0,0
21738108000,0.03106741,0.044505786,-1.0531193,0.0,0.86404914,0.024606852,0.011430232,-0.5026758,0.0,0.0,-0.46279514,0,0,0,0,0
21738156000,0.035132717,0.051651433,-1.0534041,0.0,0.86381996,0.028158495,0.013492674,-0.5028321,0.0,0.0,-0.4623681,0,0,0,0,0
21738204000,0.03939814,0.05972808,-1.0535512,0.0,0.8635838,0.03202879,0.015907979,-0.50293547,0.0,0.0,-0.461844,0,0,0,0,0
21738252000,0.043752577,0.06720554,-1.0536095,0.0,0.8633538,0.035785448,0.018042682,-0.5030051,0.0,0.0,-0.46128017,0,0,0,0,0
21738308000,0.055559885,0.09001379,-1.0536213,0.0,0.8625782,0.046598148,0.024925264,-0.5031563,0.0,0.0,-0.4655041,0,0,0,0,0
21738356000,0.060502768,0.09787464,-1.0517156,0.0,0.8627203,0.050672222,0.027124988,-0.5024045,0.0,0.0,-0.46373618,0,0,0,0,0
21738412000,0.06596255,0.109071895,-1.0517666,0.0,0.8622231,0.055824656,0.030589849,-0.5025129,0.0,0.0,-0.46183267,0,0,0,0,0
21738460000,0.08229785,0.13669439,-1.0518208,0.0,0.8607073,0.069749855,0.038412508,-0.5028344,0.0,0.0,-0.46829385,0,0,0,0,0
21738508000,0.08925509,0.14691693,-1.051949,0.0,0.86000013,0.075289026,0.041071463,-0.5030352,0.0,0.0,-0.46621853,0,0,0,0,0
21738556000,0.094381206,0.15641508,-1.0521852,0.0,0.85932195,0.0798583,0.043871906,-0.5032531,0.0,0.0,-0.4650094,0,0,0,0,0
21738604000,0.09982298,0.16767228,-1.0524956,0.0,0.85848933,0.0849975,0.047346134,-0.5035174,0.0,0.0,-0.464119,0,0,0,0,0
21738660000,0.11696232,0.19682151,-1.0531715,0.0,0.85598814,0.099580824,0.05556353,-0.50426245,0.0,0.0,-0.468492,0,0,0,0,0
21738708000,0.121768124,0.20640811,-1.0534664,0.0,0.85510993,0.10401299,0.058466364,-0.5045295,0.0,0.0,-0.466305,0,0,0,0,0
21738756000,0.12595917,0.21565561,-1.053673,0.0,0.8542723,0.10809143,0.061380126,-0.504745,0.0,0.0,-0.46480417,0,0,0,0,0
21738804000,0.13057534,0.22358401,-1.0537748,0.0,0.8534909,0.11201857,0.06362229,-0.504933,0.0,0.0,-0.46356344,0,0,0,0,0
21738852000,0.13103512,0.22913761,-1.0538071,0.0,0.8530956,0.11358251,0.065894425,-0.50496024,0.0,0.0,-0.4604243,0,0,0,0,0
21738908000,0.14722896,0.25588652,-1.0502588,0.0,0.85115796,0.12691097,0.0735332,-0.50400054,0.0,0.0,-0.46531057,0,0,0,0,0
21738956000,0.14910296,0.26159468,-1.0503047,0.0,0.85060376,0.1291014,0.075513795,-0.5040871,0.0,0.0,-0.46247333,0,0,0,0,0
21739004000,0.1524682,0.26757976,-1.0503901,0.0,0.84990996,0.13199261,0.077234134,-0.50424784,0.0,0.0,-0.4614302,0,0,0,0,0
21739060000,0.16495624,0.29194453,-1.050433,0.0,0.8470955,0.14320537,0.08455322,-0.50474966,0.0,0.0,-0.46648398,0,0,0,0,0
21739108000,0.16551383,0.29541296,-1.0505471,0.0,0.8467368,0.14428553,0.08589402,-0.5048174,0.0,0.0,-0.46385875,0,0,0,0,0
21739156000,0.16755871,0.2993121,-1.0507793,0.0,0.84620035,0.14610381,0.087035276,-0.50499856,0.0,0.0,-0.46216005,0,0,0,0,0
21739208000,0.0032889966,0.45936984,-1.049609,0.0,0.8425057,0.11545866,0.19622865,-0.48820883,0.0,0.0,-0.51000005,0,0,0,0,0
21739256000,0.0032889966,0.45936984,-1.049609,0.0,0.8425057,0.11545866,0.19622865,-0.48820883,0.0,0.0,-0.51000005,0,0,0,0,0
21739312000,0.0032889966,0.45936984,-1.049609,0.0,0.8425057,0.11545866,0.19622865,-0.48820883,0.0,0.0,-0.51000005,0,0,0,0,0
21739356000,0.0032889966,0.45936984,-1.049609,0.0,0.8425057,0.11545866,0.19622865,-0.48820883,0.0,0.0,-0.51000005,0,0,0,0,0
21739412000,0.0032889966,0.45936984,-1.049609,0.0,0.8425057,0.11545866,0.19622865,-0.48820883,0.0,0.0,-0.51000005,0,0,0,0,0
21739460000,0.0032889966,0.45936984,-1.049609,0.0,0.8425057,0.11545866,0.19622865,-0.48820883,0.0,0.0,-0.51000005,0,0,0,0,0
21739508000,0.0032889966,0.45936984,-1.049609,0.0,0.8425057,0.11545866,0.19622865,-0.48820883,0.0,0.0,-0.51000005,0,0,0,0,0
21739556000,0.0032889966,0.45936984,-1.049609,0.0,0.8425057,0.11545866,0.19622865,-0.48820883,0.0,0.0,-0.51000005,0,0,0,0,0
21739608000,0.0032889966,0.45936984,-1.049609,0.0,0.8425057,0.11545866,0.19622865,-0.48820883,0.0,0.0,-0.51000005,0,0,0,0,0
21739660000,0.0032889966,0.45936984,-1.049609,0.0,0.8425057,0.11545866,0.19622865,-0.48820883,0.0,0.0,-0.51000005,0,0,0,0,0
21739708000,0.0032889966,0.45936984,-1.049609,0.0,0.8425057,0.11545866,0.19622865,-0.48820883,0.0,0.0,-0.51000005,0,0,0,0,0
21739756000,0.0032889966,0.45936984,-1.049609,0.0,0.8425057,0.11545866,0.19622865,-0.48820883,0.0,0.0,-0.51000005,0,0,0,0,0
21739808000,0.001973398,0.45937034,-1.0499165,0.0,0.8425063,0.114934795,0.19653231,-0.48820922,0.0,0.0,-0.51000005,0,0,0,0,0
21739860000,0.0032889966,0.45936984,-1.049609,0.0,0.8425057,0.11545866,0.19622865,-0.48820883,0.0,0.0,-0.51000005,0,0,0,0,0
21739912000,0.0032889966,0.45936984,-1.049609,0.0,0.8425057,0.11545866,0.19622865,-0.48820883,0.0,0.0,-0.51000005,0,0,0,0,0
21739956000,0.001973398,0.45937034,-1.0499165,0.0,0.8425063,0.114934795,0.19653231,-0.48820922,0.0,0.0,-0.51000005,0,0,0,0,0
21740008000,0.0032889966,0.45936984,-1.049609,0.0,0.8425057,0.11545866,0.19622865,-0.48820883,0.0,0.0,-0.51000005,0,0,0,0,0
21740056000,0.0032889966,0.45936984,-1.049609,0.0,0.8425057,0.11545866,0.19622865,-0.48820883,0.0,0.0,-0.51000005,0,0,0,0,0
21740112000,0.0032889966,0.45936984,-1.049609,0.0,0.8425057,0.11545866,0.19622865,-0.48820883,0.0,0.0,-0.51000005,0,0,0,0,0
21740156000,0.0032889966,0.45936984,-1.049609,0.0,0.8425057,0.11545866,0.19622865,-0.48820883,0.0,0.0,-0.51000005,0,0,0,0,0
21740208000,0.0032889966,0.45936984,-1.049609,0.0,0.8425057,0.11545866,0.19622865,-0.48820883,0.0,0.0,-0.51000005,0,0,0,0,0
21740256000,0.0032889966,0.45936984,-1.049609,0.0,0.8425057,0.11545866,0.19622865,-0.48820883,0.0,0.0,-0.51000005,0,0,0,0,0
21740308000,0.0032889966,0.45936984,-1.049609,0.0,0.8425057,0.11545866,0.19622865,-0.48820883,0.0,0.0,-0.51000005,0,0,0,0,0
21740356000,0.0032889966,0.45936984,-1.049609,0.0,0.8425057,0.11545866,0.19622865,-0.48820883,0.0,0.0,-0.51000005,0,0,0,0,0
21740408000,0.0032889966,0.45936984,-1.049609,0.0,0.8425057,0.11545866,0.19622865,-0.48820883,0.0,0.0,-0.51000005,0,0,0,0,0
21740460000,0.0032889966,0.45936984,-1.049609,0.0,0.8425057,0.11545866,0.19622865,-0.48820883,0.0,0.0,-0.51000005,0,0,0,0,0
21740508000,0.0032889966,0.45936984,-1.049609,0.0,0.8425057,0.11545866,0.19622865,-0.48820883,0.0,0.0,-0.51000005,0,0,0,0,0
21740556000,0.0032889966,0.45936984,-1.049609,0.0,0.8425057,0.11545866,0.19622865,-0.48820883,0.0,0.0,-0.51000005,0,0,0,0,0
21740608000,0.0032889966,0.45936984,-1.049609,0.0,0.8425057,0.11545866,0.19622865,-0.48820883,0.0,0.0,-0.51000005,0,0,0,0,0
21740656000,0.0032889966,0.45936984,-1.049609,0.0,0.8425057,0.11545866,0.19622865,-0.48820883,0.0,0.0,-0.51000005,0,0,0,0,0
21740708000,0.0032889966,0.45936984,-1.049609,0.0,0.8425057,0.11545866,0.19622865,-0.48820883,0.0,0.0,-0.51000005,0,0,0,0,0
21740760000,0.0032889966,0.45936984,-1.049609,0.0,0.8425057,0.11545866,0.19622865,-0.48820883,0.0,0.0,-0.51000005,0,0,0,0,0
21740812000,0.0032889966,0.45936984,-1.049609,0.0,0.8425057,0.11545866,0.19622865,-0.48820883,0.0,0.0,-0.51000005,0,0,0,0,0
21740856000,0.0032889966,0.45936984,-1.049609,0.0,0.8425057,0.11545866,0.19622865,-0.48820883,0.0,0.0,-0.51000005,0,0,0,0,0
21740908000,0.0032889966,0.45936984,-1.049609,0.0,0.8425057,0.11545866,0.19622865,-0.48820883,0.0,0.0,-0.51000005,0,0,0,0,0
21740960000,0.0032889966,0.45936984,-1.049609,0.0,0.8425057,0.11545866,0.19622865,-0.48820883,0.0,0.0,-0.51000005,0,0,0,0,0
21741012000,0.0032889966,0.45936984,-1.049609,0.0,0.8425057,0.11545866,0.19622865,-0.48820883,0.0,0.0,-0.51000005,0,0,0,0,0
21741056000,0.0032889966,0.45936984,-1.049609,0.0,0.8425057,0.11545866,0.19622865,-0.48820883,0.0,0.0,-0.51000005,0,0,0,0,0
21741108000,0.0032889966,0.45936984,-1.049609,0.0,0.8425057,0.11545866,0.19622865,-0.48820883,0.0,0.0,-0.51000005,0,0,0,0,0
21741156000,0.0032889966,0.45936984,-1.049609,0.0,0.8425057,0.11545866,0.19622865,-0.48820883,0.0,0.0,-0.51000005,0,0,0,0,0
21741212000,0.0032889966,0.45936984,-1.049609,0.0,0.8425057,0.11545866,0.19622865,-0.48820883,0.0,0.0,-0.51000005,0,0,0,0,0
21741256000,0.001973398,0.45937034,-1.0499165,0.0,0.8425063,0.114934795,0.19653231,-0.48820922,0.0,0.0,-0.51000005,0,0,0,0,0
21741308000,0.0032889966,0.45936984,-1.049609,0.0,0.8425057,0.11545866,0.19622865,-0.48820883,0.0,0.0,-0.51000005,0,0,0,0,0
21741360000,0.0032889966,0.45936984,-1.049609,0.0,0.8425057,0.11545866,0.19622865,-0.48820883,0.0,0.0,-0.51000005,0,0,0,0,0
21741408000,0.0032889966,0.45936984,-1.049609,0.0,0.8425057,0.11545866,0.19622865,-0.48820883,0.0,0.0,-0.51000005,0,0,0,0,0
21741456000,0.001973398,0.45937034,-1.0499165,0.0,0.8425063,0.114934795,0.19653231,-0.48820922,0.0,0.0,-0.51000005,0,0,0,0,0
21741508000,0.0032889966,0.45936984,-1.049609,0.0,0.8425057,0.11545866,0.19622865,-0.48820883,0.0,0.0,-0.51000005,0,0,0,0,0
21741556000,0.0032889966,0.45936984,-1.049609,0.0,0.8425057,0.11545866,0.19622865,-0.48820883,0.0,0.0,-0.51000005,0,0,0,0,0
21741608000,0.0032889966,0.45936984,-1.049609,0.0,0.8425057,0.11545866,0.19622865,-0.48820883,0.0,0.0,-0.51000005,0,0,0,0,0
21741656000,0.0032889966,0.45936984,-1.049609,0.0,0.8425057,0.11545866,0.19622865,-0.48820883,0.0,0.0,-0.51000005,0,0,0,0,0
21741708000,0.0032889966,0.45936984,-1.049609,0.0,0.8425057,0.11545866,0.19622865,-0.48820883,0.0,0.0,-0.51000005,0,0,0,0,0
21741760000,0.0032889966,0.45936984,-1.049609,0.0,0.8425057,0.11545866,0.19622865,-0.48820883,0.0,0.0,-0.51000005,0,0,0,0,0
21741808000,0.0032889966,0.45936984,-1.049609,0.0,0.8425057,0.11545866,0.19622865,-0.48820883,0.0,0.0,-0.51000005,0,0,0,0,0
21741860000,0.0032889966,0.45936984,-1.049609,0.0,0.8425057,0.11545866,0.19622865,-0.48820883,0.0,0.0,-0.51000005,0,0,0,0,0
21741908000,0.0032889966,0.45936984,-1.049609,0.0,0.8425057,0.11545866,0.19622865,-0.48820883,0.0,0.0,-0.51000005,0,0,0,0,0
21741960000,0.0032889966,0.45936984,-1.049609,0.0,0.8425057,0.11545866,0.19622865,-0.48820883,0.0,0.0,-0.51000005,0,0,0,0,0
21742012000,0.0032889966,0.45936984,-1.049609,0.0,0.8425057,0.11545866,0.19622865,-0.48820883,0.0,0.0,-0.51000005,0,0,0,0,0
21742060000,0.0032889966,0.45936984,-1.049609,0.0,0.8425057,0.11545866,0.19622865,-0.48820883,0.0,0.0,-0.51000005,0,0,0,0,0
21742112000,0.0032889966,0.45936984,-1.049609,0.0,0.8425057,0.11545866,0.19622865,-0.48820883,0.0,0.0,-0.51000005,0,0,0,0,0
21742160000,0.0032889966,0.45936984,-1.049609,0.0,0.8425057,0.11545866,0.19622865,-0.48820883,0.0,0.0,-0.51000005,0,0,0,0,0
21742212000,0.001973398,0.45937034,-1.0499165,0.0,0.8425063,0.114934795,0.19653231,-0.48820922,0.0,0.0,-0.51000005,0,0,0,0,0
21742260000,0.001973398,0.45937034,-1.0499165,0.0,0.8425063,0.114934795,0.19653231,-0.48820922,0.0,0.0,-0.51000005,0,0,0,0,0
21742312000,0.0032889966,0.45936984,-1.049609,0.0,0.8425057,0.11545866,0.19622865,-0.48820883,0.0,0.0,-0.51000005,0,0,0,0,0
21742360000,0.0032889966,0.45936984,-1.049609,0.0,0.8425057,0.11545866,0.19622865,-0.48820883,0.0,0.0,-0.51000005,0,0,0,0,0
21742412000,0.0032889966,0.45936984,-1.049609,0.0,0.8425057,0.11545866,0.19622865,-0.48820883,0.0,0.0,-0.51000005,0,0,0,0,0
21742456000,0.0032889966,0.45936984,-1.049609,0.0,0.8425057,0.11545866,0.19622865,-0.48820883,0.0,0.0,-0.51000005,0,0,0,0,0
21742508000,0.0032889966,0.45936984,-1.049609,0.0,0.8425057,0.11545866,0.19622865,-0.48820883,0.0,0.0,-0.51000005,0,0,0,0,0
21742556000,0.0032889966,0.45936984,-1.049609,0.0,0.8425057,0.11545866,0.19622865,-0.48820883,0.0,0.0,-0.51000005,0,0,0,0,0
21742612000,0.001973398,0.45937034,-1.0499165,0.0,0.8425063,0.114934795,0.19653231,-0.48820922,0.0,0.0,-0.51000005,0,0,0,0,0
21742656000,0.001973398,0.45937034,-1.0499165,0.0,0.8425063,0.114934795,0.19653231,-0.48820922,0.0,0.0,-0.51000005,0,0,0,0,0
21742708000,0.0032889966,0.45936984,-1.049609,0.0,0.8425057,0.11545866,0.19622865,-0.48820883,0.0,0.0,-0.51000005,0,0,0,0,0
21742756000,0.0032889966,0.45936984,-1.049609,0.0,0.8425057,0.11545866,0.19622865,-0.48820883,0.0,0.0,-0.51000005,0,0,0,0,0
21742812000,0.0032889966,0.45936984,-1.049609,0.0,0.8425057,0.11545866,0.19622865,-0.48820883,0.0,0.0,-0.51000005,0,0,0,0,0
21742860000,0.0032889966,0.45936984,-1.049609,0.0,0.8425057,0.11545866,0.19622865,-0.48820883,0.0,0.0,-0.51000005,0,0,0,0,0
21742912000,0.0032889966,0.45936984,-1.049609,0.0,0.8425057,0.11545866,0.19622865,-0.48820883,0.0,0.0,-0.51000005,0,0,0,0,0
21742956000,0.0032889966,0.45936984,-1.049609,0.0,0.8425057,0.11545866,0.19622865,-0.48820883,0.0,0.0,-0.51000005,0,0,0,0,0
21743012000,0.0032889966,0.45936984,-1.049609,0.0,0.8425057,0.11545866,0.19622865,-0.48820883,0.0,0.0,-0.51000005,0,0,0,0,0
21743056000,0.0032889966,0.45936984,-1.049609,0.0,0.8425057,0.11545866,0.19622865,-0.48820883,0.0,0.0,-0.51000005,0,0,0,0,0
21743108000,0.0032889966,0.45936984,-1.049609,0.0,0.8425057,0.11545866,0.19622865,-0.48820883,0.0,0.0,-0.51000005,0,0,0,0,0
21743156000,0.0032889966,0.45936984,-1.049609,0.0,0.8425057,0.11545866,0.19622865,-0.48820883,0.0,0.0,-0.51000005,0,0,0,0,0
21743208000,0.0032889966,0.45936984,-1.049609,0.0,0.8425057,0.11545866,0.19622865,-0.48820883,0.0,0.0,-0.51000005,0,0,0,0,0
21743256000,0.0032889966,0.45936984,-1.049609,0.0,0.8425057,0.11545866,0.19622865,-0.48820883,0.0,0.0,-0.51000005,0,0,0,0,0
21743308000,0.0032889966,0.45936984,-1.049609,0.0,0.8425057,0.11545866,0.19622865,-0.48820883,0.0,0.0,-0.51000005,0,0,0,0,0
21743356000,0.0032889966,0.45936984,-1.049609,0.0,0.8425057,0.11545866,0.19622865,-0.48820883,0.0,0.0,-0.51000005,0,0,0,0,0
21743408000,0.001973398,0.45937034,-1.0499165,0.0,0.8425063,0.114934795,0.19653231,-0.48820922,0.0,0.0,-0.51000005,0,0,0,0,0
21743456000,0.0032889966,0.45936984,-1.049609,0.0,0.8425057,0.11545866,0.19622865,-0.48820883,0.0,0.0,-0.51000005,0,0,0,0,0
21743508000,0.0032889966,0.45936984,-1.049609,0.0,0.8425057,0.11545866,0.19622865,-0.48820883,0.0,0.0,-0.51000005,0,0,0,0,0
21743560000,0.0032889966,0.45936984,-1.049609,0.0,0.8425057,0.11545866,0.19622865,-0.48820883,0.0,0.0,-0.51000005,0,0,0,0,0
21743612000,0.001973398,0.45937034,-1.0499165,0.0,0.8425063,0.114934795,0.19653231,-0.48820922,0.0,0.0,-0.51000005,0,0,0,0,0
21743656000,0.001973398,0.45937034,-1.0499165,0.0,0.8425063,0.114934795,0.19653231,-0.48820922,0.0,0.0,-0.51000005,0,0,0,0,0
21743712000,0.0032889966,0.45936984,-1.049609,0.0,0.8425057,0.11545866,0.19622865,-0.48820883,0.0,0.0,-0.51000005,0,0,0,0,0
21743760000,0.0032889966,0.45936984,-1.049609,0.0,0.8425057,0.11545866,0.19622865,-0.48820883,0.0,0.0,-0.51000005,0,0,0,0,0
21743808000,0.001973398,0.45937034,-1.0499165,0.0,0.8425063,0.114934795,0.19653231,-0.48820922,0.0,0.0,-0.51000005,0,0,0,0,0
21743856000,0.0032889966,0.45936984,-1.049609,0.0,0.8425057,0.11545866,0.19622865,-0.48820883,0.0,0.0,-0.51000005,0,0,0,0,0
21743908000,0.0032889966,0.45936984,-1.049609,0.0,0.8425057,0.11545866,0.19622865,-0.48820883,0.0,0.0,-0.51000005,0,0,0,0,0
21743960000,0.0032889966,0.45936984,-1.049609,0.0,0.8425057,0.11545866,0.19622865,-0.48820883,0.0,0.0,-0.51000005,0,0,0,0,0
21744008000,0.0032889966,0.45936984,-1.049609,0.0,0.8425057,0.11545866,0.19622865,-0.48820883,0.0,0.0,-0.51000005,0,0,0,0,0
21744056000,0.0032889966,0.45936984,-1.049609,0.0,0.8425057,0.11545866,0.19622865,-0.48820883,0.0,0.0,-0.51000005,0,0,0,0,0
21744108000,0.0032889966,0.45936984,-1.049609,0.0,0.8425057,0.11545866,0.19622865,-0.48820883,0.0,0.0,-0.51000005,0,0,0,0,0
21744156000,0.0032889966,0.45936984,-1.049609,0.0,0.8425057,0.11545866,0.19622865,-0.48820883,0.0,0.0,-0.51000005,0,0,0,0,0
21744208000,0.0032889966,0.45936984,-1.049609,0.0,0.8425057,0.11545866,0.19622865,-0.48820883,0.0,0.0,-0.51000005,0,0,0,0,0
21744256000,0.0032889966,0.45936984,-1.049609,0.0,0.8425057,0.11545866,0.19622865,-0.48820883,0.0,0.0,-0.51000005,0,0,0,0,0
21744308000,0.0032889966,0.45936984,-1.049609,0.0,0.8425057,0.11545866,0.19622865,-0.48820883,0.0,0.0,-0.51000005,0,0,0,0,0
21744356000,0.0032889966,0.45936984,-1.049609,0.0,0.8425057,0.11545866,0.19622865,-0.48820883,0.0,0.0,-0.51000005,0,0,0,0,0
21744412000,0.0032889966,0.45936984,-1.049609,0.0,0.8425057,0.11545866,0.19622865,-0.48820883,0.0,0.0,-0.51000005,0,0,0,0,0
21744456000,0.0032889966,0.45936984,-1.049609,0.0,0.8425057,0.11545866,0.19622865,-0.48820883,0.0,0.0,-0.51000005,0,0,0,0,0
21744508000,0.0032889966,0.45936984,-1.049609,0.0,0.8425057,0.11545866,0.19622865,-0.48820883,0.0,0.0,-0.51000005,0,0,0,0,0
21744556000,0.0032889966,0.45936984,-1.049609,0.0,0.8425057,0.11545866,0.19622865,-0.48820883,0.0,0.0,-0.51000005,0,0,0,0,0
21744612000,0.0032889966,0.45936984,-1.049609,0.0,0.8425057,0.11545866,0.19622865,-0.48820883,0.0,0.0,-0.51000005,0,0,0,0,0
21744660000,0.0032889966,0.45936984,-1.049609,0.0,0.8425057,0.11545866,0.19622865,-0.48820883,0.0,0.0,-0.51000005,0,0,0,0,0
21744708000,0.0032889966,0.45936984,-1.049609,0.0,0.8425057,0.11545866,0.19622865,-0.48820883,0.0,0.0,-0.51000005,0,0,0,0,0
21744756000,0.0032889966,0.45936984,-1.049609,0.0,0.8425057,0.11545866,0.19622865,-0.48820883,0.0,0.0,-0.51000005,0,0,0,0,0
21744812000,0.0032889966,0.45936984,-1.049609,0.0,0.8425057,0.11545866,0.19622865,-0.48820883,0.0,0.0,-0.51000005,0,0,0,0,0
21744856000,0.0032889966,0.45936984,-1.049609,0.0,0.8425057,0.11545866,0.19622865,-0.48820883,0.0,0.0,-0.51000005,0,0,0,0,0
21744908000,0.0032889966,0.45936984,-1.049609,0.0,0.8425057,0.11545866,0.19622865,-0.48820883,0.0,0.0,-0.51000005,0,0,0,0,0
21744960000,0.0032889966,0.45936984,-1.049609,0.0,0.8425057,0.11545866,0.19622865,-0.48820883,0.0,0.0,-0.51000005,0,0,0,0,0
21745012000,0.0032889966,0.45936984,-1.049609,0.0,0.8425057,0.11545866,0.19622865,-0.48820883,0.0,0.0,-0.51000005,0,0,0,0,0
21745060000,0.0032889966,0.45936984,-1.049609,0.0,0.8425057,0.11545866,0.19622865,-0.48820883,0.0,0.0,-0.51000005,0,0,0,0,0
21745108000,0.0032889966,0.45936984,-1.049609,0.0,0.8425057,0.11545866,0.19622865,-0.48820883,0.0,0.0,-0.51000005,0,0,0,0,0
21745160000,0.0032889966,0.45936984,-1.049609,0.0,0.8425057,0.11545866,0.19622865,-0.48820883,0.0,0.0,-0.51000005,0,0,0,0,0
21745212000,0.0032889966,0.45936984,-1.049609,0.0,0.8425057,0.11545866,0.19622865,-0.48820883,0.0,0.0,-0.51000005,0,0,0,0,0
21745256000,0.0032889966,0.45936984,-1.049609,0.0,0.8425057,0.11545866,0.19622865,-0.48820883,0.0,0.0,-0.51000005,0,0,0,0,0
21745312000,0.0032889966,0.45936984,-1.049609,0.0,0.8425057,0.11545866,0.19622865,-0.48820883,0.0,0.0,-0.51000005,0,0,0,0,0
21745360000,0.001973398,0.45937034,-1.0499165,0.0,0.8425063,0.114934795,0.19653231,-0.48820922,0.0,0.0,-0.51000005,0,0,0,0,0
21745408000,0.0032889966,0.45936984,-1.049609,0.0,0.8425057,0.11545866,0.19622865,-0.48820883,0.0,0.0,-0.51000005,0,0,0,0,0
21745456000,0.0032889966,0.45936984,-1.049609,0.0,0.8425057,0.11545866,0.19622865,-0.48820883,0.0,0.0,-0.51000005,0,0,0,0,0
21745512000,0.0032889966,0.45936984,-1.049609,0.0,0.8425057,0.11545866,0.19622865,-0.48820883,0.0,0.0,-0.51000005,0,0,0,0,0
21745556000,0.0032889966,0.45936984,-1.049609,0.0,0.8425057,0.11545866,0.19622865,-0.48820883,0.0,0.0,-0.51000005,0,0,0,0,0
21745612000,0.0032889966,0.45936984,-1.049609,0.0,0.8425057,0.11545866,0.19622865,-0.48820883,0.0,0.0,-0.51000005,0,0,0,0,0
21745660000,0.0032889966,0.45936984,-1.049609,0.0,0.8425057,0.11545866,0.19622865,-0.48820883,0.0,0.0,-0.51000005,0,0,0,0,0
21745712000,0.0032889966,0.45936984,-1.049609,0.0,0.8425057,0.11545866,0.19622865,-0.48820883,0.0,0.0,-0.51000005,0,0,0,0,0
21745760000,0.0032889966,0.45936984,-1.049609,0.0,0.8425057,0.11545866,0.19622865,-0.48820883,0.0,0.0,-0.51000005,0,0,0,0,0
21745812000,0.0032889966,0.45936984,-1.049609,0.0,0.8425057,0.11545866,0.19622865,-0.48820883,0.0,0.0,-0.51000005,0,0,0,0,0
21745860000,0.0032889966,0.45936984,-1.049609,0.0,0.8425057,0.11545866,0.19622865,-0.48820883,0.0,0.0,-0.51000005,0,0,0,0,0
21745908000,0.0032889966,0.45936984,-1.049609,0.0,0.8425057,0.11545866,0.19622865,-0.48820883,0.0,0.0,-0.51000005,0,0,0,0,0
21745960000,0.0032889966,0.45936984,-1.049609,0.0,0.8425057,0.11545866,0.19622865,-0.48820883,0.0,0.0,-0.51000005,0,0,0,0,0
21746008000,0.0032889966,0.45936984,-1.049609,0.0,0.8425057,0.11545866,0.19622865,-0.48820883,0.0,0.0,-0.51000005,0,0,0,0,0
21746060000,0.0032889966,0.45936984,-1.049609,0.0,0.8425057,0.11545866,0.19622865,-0.48820883,0.0,0.0,-0.51000005,0,0,0,0,0
21746112000,0.0032889966,0.45936984,-1.049609,0.0,0.8425057,0.11545866,0.19622865,-0.48820883,0.0,0.0,-0.51000005,0,0,0,0,0
21746156000,0.0032889966,0.45936984,-1.049609,0.0,0.8425057,0.11545866,0.19622865,-0.48820883,0.0,0.0,-0.51000005,0,0,0,0,0
21746212000,0.0032889966,0.45936984,-1.049609,0.0,0.8425057,0.11545866,0.19622865,-0.48820883,0.0,0.0,-0.51000005,0,0,0,0,0
21746260000,0.0032889966,0.45936984,-1.049609,0.0,0.8425057,0.11545866,0.19622865,-0.48820883,0.0,0.0,-0.51000005,0,0,0,0,0
21746308000,0.0032889966,0.45936984,-1.049609,0.0,0.8425057,0.11545866,0.19622865,-0.48820883,0.0,0.0,-0.51000005,0,0,0,0,0
21746356000,0.0032889966,0.45936984,-1.049609,0.0,0.8425057,0.11545866,0.19622865,-0.48820883,0.0,0.0,-0.51000005,0,0,0,0,0
21746412000,0.0032889966,0.45936984,-1.049609,0.0,0.8425057,0.11545866,0.19622865,-0.48820883,0.0,0.0,-0.51000005,0,0,0,0,0
21746456000,0.0032889966,0.45936984,-1.049609,0.0,0.8425057,0.11545866,0.19622865,-0.48820883,0.0,0.0,-0.51000005,0,0,0,0,0
21746508000,0.0032889966,0.45936984,-1.049609,0.0,0.8425057,0.11545866,0.19622865,-0.48820883,0.0,0.0,-0.51000005,0,0,0,0,0
21746556000,0.0032889966,0.45936984,-1.049609,0.0,0.8425057,0.11545866,0.19622865,-0.48820883,0.0,0.0,-0.51000005,0,0,0,0,0
21746608000,0.0032889966,0.45936984,-1.049609,0.0,0.8425057,0.11545866,0.19622865,-0.48820883,0.0,0.0,-0.51000005,0,0,0,0,0
21746656000,0.0032889966,0.45936984,-1.049609,0.0,0.8425057,0.11545866,0.19622865,-0.48820883,0.0,0.0,-0.51000005,0,0,0,0,0
21746708000,0.0032889966,0.45936984,-1.049609,0.0,0.8425057,0.11545866,0.19622865,-0.48820883,0.0,0.0,-0.51000005,0,0,0,0,0
21746756000,0.0032889966,0.45936984,-1.049609,0.0,0.8425057,0.11545866,0.19622865,-0.48820883,0.0,0.0,-0.51000005,0,0,0,0,0
21746808000,0.0032889966,0.45936984,-1.049609,0.0,0.8425057,0.11545866,0.19622865,-0.48820883,0.0,0.0,-0.51000005,0,0,0,0,0
21746856000,0.0032889966,0.45936984,-1.049609,0.0,0.8425057,0.11545866,0.19622865,-0.48820883,0.0,0.0,-0.51000005,0,0,0,0,0
21746912000,0.0032889966,0.45936984,-1.049609,0.0,0.8425057,0.11545866,0.19622865,-0.48820883,0.0,0.0,-0.51000005,0,0,0,0,0
21746956000,0.0032889966,0.45936984,-1.049609,0.0,0.8425057,0.11545866,0.19622865,-0.48820883,0.0,0.0,-0.51000005,0,0,0,0,0
21747012000,0.0032889966,0.45936984,-1.049609,0.0,0.8425057,0.11545866,0.19622865,-0.48820883,0.0,0.0,-0.51000005,0,0,0,0,0
21747060000,0.0032889966,0.45936984,-1.049609,0.0,0.8425057,0.11545866,0.19622865,-0.48820883,0.0,0.0,-0.51000005,0,0,0,0,0
21747112000,0.0032889966,0.45936984,-1.049609,0.0,0.8425057,0.11545866,0.19622865,-0.48820883,0.0,0.0,-0.51000005,0,0,0,0,0
21747156000,0.0032889966,0.45936984,-1.049609,0.0,0.8425057,0.11545866,0.19622865,-0.48820883,0.0,0.0,-0.51000005,0,0,0,0,0
21747212000,0.0032889966,0.45936984,-1.049609,0.0,0.8425057,0.11545866,0.19622865,-0.48820883,0.0,0.0,-0.51000005,0,0,0,0,0
21747260000,0.0032889966,0.45936984,-1.049609,0.0,0.8425057,0.11545866,0.19622865,-0.48820883,0.0,0.0,-0.51000005,0,0,0,0,0
21747308000,0.0032889966,0.45936984,-1.049609,0.0,0.8425057,0.11545866,0.19622865,-0.48820883,0.0,0.0,-0.51000005,0,0,0,0,0
21747356000,0.0032889966,0.45936984,-1.049609,0.0,0.8425057,0.11545866,0.19622865,-0.48820883,0.0,0.0,-0.51000005,0,0,0,0,0
21747412000,0.0032889966,0.45936984,-1.049609,0.0,0.8425057,0.11545866,0.19622865,-0.48820883,0.0,0.0,-0.51000005,0,0,0,0,0
21747456000,0.0032889966,0.45936984,-1.049609,0.0,0.8425057,0.11545866,0.19622865,-0.48820883,0.0,0.0,-0.51000005,0,0,0,0,0
21747512000,0.0032889966,0.45936984,-1.049609,0.0,0.8425057,0.11545866,0.19622865,-0.48820883,0.0,0.0,-0.51000005,0,0,0,0,0
21747556000,0.0032889966,0.45936984,-1.049609,0.0,0.8425057,0.11545866,0.19622865,-0.48820883,0.0,0.0,-0.51000005,0,0,0,0,0
21747608000,0.0032889966,0.45936984,-1.049609,0.0,0.8425057,0.11545866,0.19622865,-0.48820883,0.0,0.0,-0.51000005,0,0,0,0,0
21747660000,0.0032889966,0.45936984,-1.049609,0.0,0.8425057,0.11545866,0.19622865,-0.48820883,0.0,0.0,-0.51000005,0,0,0,0,0
21747708000,0.0032889966,0.45936984,-1.049609,0.0,0.8425057,0.11545866,0.19622865,-0.48820883,0.0,0.0,-0.51000005,0,0,0,0,0
21747756000,0.0032889966,0.45936984,-1.049609,0.0,0.8425057,0.11545866,0.19622865,-0.48820883,0.0,0.0,-0.51000005,0,0,0,0,0
21747808000,0.0032889966,0.45936984,-1.049609,0.0,0.8425057,0.11545866,0.19622865,-0.48820883,0.0,0.0,-0.51000005,0,0,0,0,0
21747860000,0.0032889966,0.45936984,-1.049609,0.0,0.8425057,0.11545866,0.19622865,-0.48820883,0.0,0.0,-0.51000005,0,0,0,0,0
21747912000,0.0032889966,0.45936984,-1.049609,0.0,0.8425057,0.11545866,0.19622865,-0.48820883,0.0,0.0,-0.51000005,0,0,0,0,0
21747956000,0.0032889966,0.45936984,-1.049609,0.0,0.8425057,0.11545866,0.19622865,-0.48820883,0.0,0.0,-0.51000005,0,0,0,0,0
21748008000,0.0032889966,0.45936984,-1.049609,0.0,0.8425057,0.11545866,0.19622865,-0.48820883,0.0,0.0,-0.51000005,0,0,0,0,0
21748056000,0.0032889966,0.45936984,-1.049609,0.0,0.8425057,0.11545866,0.19622865,-0.48820883,0.0,0.0,-0.51000005,0,0,0,0,0
21748108000,0.0032889966,0.45936984,-1.049609,0.0,0.8425057,0.11545866,0.19622865,-0.48820883,0.0,0.0,-0.51000005,0,0,0,0,0
21748156000,0.0032889966,0.45936984,-1.049609,0.0,0.8425057,0.11545866,0.19622865,-0.48820883,0.0,0.0,-0.51000005,0,0,0,0,0
21748212000,0.001973398,0.45937034,-1.0499165,0.0,0.8425063,0.114934795,0.19653231,-0.48820922,0.0,0.0,-0.51000005,0,0,0,0,0
21748256000,0.0032889966,0.45936984,-1.049609,0.0,0.8425057,0.11545866,0.19622865,-0.48820883,0.0,0.0,-0.51000005,0,0,0,0,0
21748308000,0.0032889966,0.45936984,-1.049609,0.0,0.8425057,0.11545866,0.19622865,-0.48820883,0.0,0.0,-0.51000005,0,0,0,0,0
21748356000,0.0032889966,0.45936984,-1.049609,0.0,0.8425057,0.11545866,0.19622865,-0.48820883,0.0,0.0,-0.51000005,0,0,0,0,0
21748408000,0.0032889966,0.45936984,-1.049609,0.0,0.8425057,0.11545866,0.19622865,-0.48820883,0.0,0.0,-0.51000005,0,0,0,0,0
21748456000,0.0032889966,0.45936984,-1.049609,0.0,0.8425057,0.11545866,0.19622865,-0.48820883,0.0,0.0,-0.51000005,0,0,0,0,0
21748512000,0.0032889966,0.45936984,-1.049609,0.0,0.8425057,0.11545866,0.19622865,-0.48820883,0.0,0.0,-0.51000005,0,0,0,0,0
21748556000,0.0032889966,0.45936984,-1.049609,0.0,0.8425057,0.11545866,0.19622865,-0.48820883,0.0,0.0,-0.51000005,0,0,0,0,0
21748612000,0.0032889966,0.45936984,-1.049609,0.0,0.8425057,0.11545866,0.19622865,-0.48820883,0.0,0.0,-0.51000005,0,0,0,0,0
21748660000,0.0032889966,0.45936984,-1.049609,0.0,0.8425057,0.11545866,0.19622865,-0.48820883,0.0,0.0,-0.51000005,0,0,0,0,0
21748708000,0.0032889966,0.45936984,-1.049609,0.0,0.8425057,0.11545866,0.19622865,-0.48820883,0.0,0.0,-0.51000005,0,0,0,0,0
21748756000,0.0032889966,0.45936984,-1.049609,0.0,0.8425057,0.11545866,0.19622865,-0.48820883,0.0,0.0,-0.51000005,0,0,0,0,0
21748808000,0.0032889966,0.45936984,-1.049609,0.0,0.8425057,0.11545866,0.19622865,-0.48820883,0.0,0.0,-0.51000005,0,0,0,0,0
21748860000,0.0032889966,0.45936984,-1.049609,0.0,0.8425057,0.11545866,0.19622865,-0.48820883,0.0,0.0,-0.51000005,0,0,0,0,0
21748912000,0.0032889966,0.45936984,-1.049609,0.0,0.8425057,0.11545866,0.19622865,-0.48820883,0.0,0.0,-0.51000005,0,0,0,0,0
21748956000,0.0032889966,0.45936984,-1.049609,0.0,0.8425057,0.11545866,0.19622865,-0.48820883,0.0,0.0,-0.51000005,0,0,0,0,0
21749008000,0.0032889966,0.45936984,-1.049609,0.0,0.8425057,0.11545866,0.19622865,-0.48820883,0.0,0.0,-0.51000005,0,0,0,0,0
21749056000,0.0032889966,0.45936984,-1.049609,0.0,0.8425057,0.11545866,0.19622865,-0.48820883,0.0,0.0,-0.51000005,0,0,0,0,0
21749108000,0.0032889966,0.45936984,-1.049609,0.0,0.8425057,0.11545866,0.19622865,-0.48820883,0.0,0.0,-0.51000005,0,0,0,0,0
21749156000,0.0032889966,0.45936984,-1.049609,0.0,0.8425057,0.11545866,0.19622865,-0.48820883,0.0,0.0,-0.51000005,0,0,0,0,0
21749208000,0.0032889966,0.45936984,-1.049609,0.0,0.8425057,0.11545866,0.19622865,-0.48820883,0.0,0.0,-0.51000005,0,0,0,0,0
21749256000,0.0032889966,0.45936984,-1.049609,0.0,0.8425057,0.11545866,0.19622865,-0.48820883,0.0,0.0,-0.51000005,0,0,0,0,0
21749308000,0.0032889966,0.45936984,-1.049609,0.0,0.8425057,0.11545866,0.19622865,-0.48820883,0.0,0.0,-0.51000005,0,0,0,0,0
21749360000,0.0032889966,0.45936984,-1.049609,0.0,0.8425057,0.11545866,0.19622865,-0.48820883,0.0,0.0,-0.51000005,0,0,0,0,0
21749408000,0.0032889966,0.45936984,-1.049609,0.0,0.8425057,0.11545866,0.19622865,-0.48820883,0.0,0.0,-0.51000005,0,0,0,0,0
21749456000,0.0032889966,0.45936984,-1.049609,0.0,0.8425057,0.11545866,0.19622865,-0.48820883,0.0,0.0,-0.51000005,0,0,0,0,0
21749508000,0.0032889966,0.45936984,-1.049609,0.0,0.8425057,0.11545866,0.19622865,-0.48820883,0.0,0.0,-0.51000005,0,0,0,0,0
21749556000,0.0032889966,0.45936984,-1.049609,0.0,0.8425057,0.11545866,0.19622865,-0.48820883,0.0,0.0,-0.51000005,0,0,0,0,0
21749612000,0.0032889966,0.45936984,-1.049609,0.0,0.8425057,0.11545866,0.19622865,-0.48820883,0.0,0.0,-0.51000005,0,0,0,0,0
21749656000,0.0032889966,0.45936984,-1.049609,0.0,0.8425057,0.11545866,0.19622865,-0.48820883,0.0,0.0,-0.51000005,0,0,0,0,0
21749708000,0.001973398,0.45937034,-1.0499165,0.0,0.8425063,0.114934795,0.19653231,-0.48820922,0.0,0.0,-0.51000005,0,0,0,0,0
21749760000,0.0032889966,0.45936984,-1.049609,0.0,0.8425057,0.11545866,0.19622865,-0.48820883,0.0,0.0,-0.51000005,0,0,0,0,0
21749812000,0.0032889966,0.45936984,-1.049609,0.0,0.8425057,0.11545866,0.19622865,-0.48820883,0.0,0.0,-0.51000005,0,0,0,0,0
21749856000,0.0032889966,0.45936984,-1.049609,0.0,0.8425057,0.11545866,0.19622865,-0.48820883,0.0,0.0,-0.51000005,0,0,0,0,0
21749912000,0.0032889966,0.45936984,-1.049609,0.0,0.8425057,0.11545866,0.19622865,-0.48820883,0.0,0.0,-0.51000005,0,0,0,0,0
21749956000,0.0032889966,0.45936984,-1.049609,0.0,0.8425057,0.11545866,0.19622865,-0.48820883,0.0,0.0,-0.51000005,0,0,0,0,0
21750012000,0.0032889966,0.45936984,-1.049609,0.0,0.8425057,0.11545866,0.19622865,-0.48820883,0.0,0.0,-0.51000005,0,0,0,0,0
21750060000,0.0032889966,0.45936984,-1.049609,0.0,0.8425057,0.11545866,0.19622865,-0.48820883,0.0,0.0,-0.51000005,0,0,0,0,0
21750112000,0.0032889966,0.45936984,-1.049609,0.0,0.8425057,0.11545866,0.19622865,-0.48820883,0.0,0.0,-0.51000005,0,0,0,0,0
21750156000,0.0032889966,0.45936984,-1.049609,0.0,0.8425057,0.11545866,0.19622865,-0.48820883,0.0,0.0,-0.51000005,0,0,0,0,0
21750212000,0.0032889966,0.45936984,-1.049609,0.0,0.8425057,0.11545866,0.19622865,-0.48820883,0.0,0.0,-0.51000005,0,0,0,0,0
21750260000,0.0032889966,0.45936984,-1.049609,0.0,0.8425057,0.11545866,0.19622865,-0.48820883,0.0,0.0,-0.51000005,0,0,0,0,0
21750312000,0.0032889966,0.45936984,-1.049609,0.0,0.8425057,0.11545866,0.19622865,-0.48820883,0.0,0.0,-0.51000005,0,0,0,0,0
21750356000,0.0032889966,0.45936984,-1.049609,0.0,0.8425057,0.11545866,0.19622865,-0.48820883,0.0,0.0,-0.51000005,0,0,0,0,0
21750408000,0.0032889966,0.45936984,-1.049609,0.0,0.8425057,0.11545866,0.19622865,-0.48820883,0.0,0.0,-0.51000005,0,0,0,0,0
21750456000,0.0032889966,0.45936984,-1.049609,0.0,0.8425057,0.11545866,0.19622865,-0.48820883,0.0,0.0,-0.51000005,0,0,0,0,0
21750508000,0.0032889966,0.45936984,-1.049609,0.0,0.8425057,0.11545866,0.19622865,-0.48820883,0.0,0.0,-0.51000005,0,0,0,0,0
21750560000,0.0032889966,0.45936984,-1.049609,0.0,0.8425057,0.11545866,0.19622865,-0.48820883,0.0,0.0,-0.51000005,0,0,0,0,0
21750612000,0.0032889966,0.45936984,-1.049609,0.0,0.8425057,0.11545866,0.19622865,-0.48820883,0.0,0.0,-0.51000005,0,0,0,0,0
21750660000,0.0032889966,0.45936984,-1.049609,0.0,0.8425057,0.11545866,0.19622865,-0.48820883,0.0,0.0,-0.51000005,0,0,0,0,0
21750712000,0.0032889966,0.45936984,-1.049609,0.0,0.8425057,0.11545866,0.19622865,-0.48820883,0.0,0.0,-0.51000005,0,0,0,0,0
21750756000,0.0032889966,0.45936984,-1.049609,0.0,0.8425057,0.11545866,0.19622865,-0.48820883,0.0,0.0,-0.51000005,0,0,0,0,0
21750808000,0.0032889966,0.45936984,-1.049609,0.0,0.8425057,0.11545866,0.19622865,-0.48820883,0.0,0.0,-0.51000005,0,0,0,0,0
21750856000,0.0032889966,0.45936984,-1.049609,0.0,0.8425057,0.11545866,0.19622865,-0.48820883,0.0,0.0,-0.51000005,0,0,0,0,0
21750912000,0.0032889966,0.45936984,-1.049609,0.0,0.8425057,0.11545866,0.19622865,-0.48820883,0.0,0.0,-0.51000005,0,0,0,0,0
21750960000,0.0032889966,0.45936984,-1.049609,0.0,0.8425057,0.11545866,0.19622865,-0.48820883,0.0,0.0,-0.51000005,0,0,0,0,0
21751008000,0.0032889966,0.45936984,-1.049609,0.0,0.8425057,0.11545866,0.19622865,-0.48820883,0.0,0.0,-0.51000005,0,0,0,0,0
21751056000,0.001973398,0.45937034,-1.0499165,0.0,0.8425063,0.114934795,0.19653231,-0.48820922,0.0,0.0,-0.51000005,0,0,0,0,0
21751108000,0.0032889966,0.45936984,-1.049609,0.0,0.8425057,0.11545866,0.19622865,-0.48820883,0.0,0.0,-0.51000005,0,0,0,0,0
21751156000,0.0032889966,0.45936984,-1.049609,0.0,0.8425057,0.11545866,0.19622865,-0.48820883,0.0,0.0,-0.51000005,0,0,0,0,0
21751212000,0.0032889966,0.45936984,-1.049609,0.0,0.8425057,0.11545866,0.19622865,-0.48820883,0.0,0.0,-0.51000005,0,0,0,0,0
21751256000,0.0032889966,0.45936984,-1.049609,0.0,0.8425057,0.11545866,0.19622865,-0.48820883,0.0,0.0,-0.51000005,0,0,0,0,0
21751312000,0.0032889966,0.45936984,-1.049609,0.0,0.8425057,0.11545866,0.19622865,-0.48820883,0.0,0.0,-0.51000005,0,0,0,0,0
21751356000,0.0032889966,0.45936984,-1.049609,0.0,0.8425057,0.11545866,0.19622865,-0.48820883,0.0,0.0,-0.51000005,0,0,0,0,0
21751408000,0.0032889966,0.45936984,-1.049609,0.0,0.8425057,0.11545866,0.19622865,-0.48820883,0.0,0.0,-0.51000005,0,0,0,0,0
21751456000,0.0032889966,0.45936984,-1.049609,0.0,0.8425057,0.11545866,0.19622865,-0.48820883,0.0,0.0,-0.51000005,0,0,0,0,0
21751512000,0.0032889966,0.45936984,-1.049609,0.0,0.8425057,0.11545866,0.19622865,-0.48820883,0.0,0.0,-0.51000005,0,0,0,0,0
21751556000,0.0032889966,0.45936984,-1.049609,0.0,0.8425057,0.11545866,0.19622865,-0.48820883,0.0,0.0,-0.51000005,0,0,0,0,0
21751608000,0.0032889966,0.45936984,-1.049609,0.0,0.8425057,0.11545866,0.19622865,-0.48820883,0.0,0.0,-0.51000005,0,0,0,0,0
