timestamp,timestamp_sample,q[0],q[1],q[2],q[3],delta_q_reset[0],delta_q_reset[1],delta_q_reset[2],delta_q_reset[3],quat_reset_counter
21726804000,21726804000,0.8612394,0.000489276,-0.0031069817,-0.50818986,0.9995021,3.9380826e-10,6.2660854e-10,0.031552434,47
21727304000,21727304000,0.86128247,0.00051242404,-0.0030581886,-0.50811696,0.9995021,3.9380826e-10,6.2660854e-10,0.031552434,47
21727804000,21727804000,0.8612866,0.0005481383,-0.0031923654,-0.50810933,0.9995021,3.9380826e-10,6.2660854e-10,0.031552434,47
21728308000,21728308000,0.8613143,0.0005560688,-0.003230172,-0.5080621,0.9995021,3.9380826e-10,6.2660854e-10,0.031552434,47
21728804000,21728804000,0.8613222,0.0006189619,-0.0033960033,-0.5080475,0.9995021,3.9380826e-10,6.2660854e-10,0.031552434,47
21729308000,21729308000,0.86121726,0.0008010329,-0.0035447988,-0.50822395,0.9995021,3.9380826e-10,6.2660854e-10,0.031552434,47
21729804000,21729804000,0.8612116,0.0009454423,-0.0034449077,-0.50823396,0.9995021,3.9380826e-10,6.2660854e-10,0.031552434,47
21730308000,21730308000,0.8611807,0.0011611809,-0.0032972856,-0.5082871,0.9995021,3.9380826e-10,6.2660854e-10,0.031552434,47
21730804000,21730804000,0.8612705,0.0012043179,-0.003276656,-0.5081348,0.9995021,3.9380826e-10,6.2660854e-10,0.031552434,47
21731308000,21731308000,0.8612601,0.0011934304,-0.0033778737,-0.5081519,0.9995021,3.9380826e-10,6.2660854e-10,0.031552434,47
21731804000,21731804000,0.86120564,0.0013532514,-0.0031591957,-0.5082453,0.9995021,3.9380826e-10,6.2660854e-10,0.031552434,47
21732308000,21732308000,0.86109996,0.0011483672,-0.0030738348,-0.5084252,0.9995021,3.9380826e-10,6.2660854e-10,0.031552434,47
21732808000,21732808000,0.86128753,0.0012821159,-0.0031839819,-0.50810635,0.9995021,3.9380826e-10,6.2660854e-10,0.031552434,47
21733308000,21733308000,0.861405,0.0011045347,-0.003110005,-0.507908,0.9995021,3.9380826e-10,6.2660854e-10,0.031552434,47
21733808000,21733808000,0.861786,0.0015091738,-0.0026568058,-0.507263,0.9995021,3.9380826e-10,6.2660854e-10,0.031552434,47
21734308000,21734308000,0.86136943,0.0008561999,0.002064378,-0.50797415,0.9995021,3.9380826e-10,6.2660854e-10,0.031552434,47
21734808000,21734808000,0.86140984,0.0020797062,-0.0038558955,-0.50789183,0.9995021,3.9380826e-10,6.2660854e-10,0.031552434,47
21735304000,21735304000,0.86151505,0.0027756304,-0.003964229,-0.507709,0.9995021,3.9380826e-10,6.2660854e-10,0.031552434,47
21735804000,21735804000,0.87462026,0.0021429926,-0.0019040226,-0.4848003,0.99935496,2.1403634e-10,-2.44476e-10,0.035913043,48
21736304000,21736304000,0.8704135,0.003857973,-0.0008948953,-0.4923056,0.99935496,2.1403634e-10,-2.44476e-10,0.035913043,48
21736808000,21736808000,0.8678117,0.0037908014,0.00055353757,-0.49687856,0.99935496,2.1403634e-10,-2.44476e-10,0.035913043,48
21737304000,21737304000,0.8668037,0.0044807736,0.00015098957,-0.4986296,0.99935496,2.1403634e-10,-2.44476e-10,0.035913043,48
21737808000,21737808000,0.8660556,0.0060765874,0.0019518345,-0.49990696,0.99935496,2.1403634e-10,-2.44476e-10,0.035913043,48
21738304000,21738304000,0.86409986,0.030269736,0.015449621,-0.5021718,0.99935496,2.1403634e-10,-2.44476e-10,0.035913043,48
21738804000,21738804000,0.8581237,0.09129732,0.05147706,-0.5026317,0.99935496,2.1403634e-10,-2.44476e-10,0.035913043,48
21739304000,21739304000,0.8494886,0.10708217,0.15545934,-0.49268138,0.99935496,2.1403634e-10,-2.44476e-10,0.035913043,48
21739808000,21739808000,0.8487873,0.09614253,0.1697363,-0.491433,0.99935496,2.1403634e-10,-2.44476e-10,0.035913043,48
21740308000,21740308000,0.84862465,0.09730699,0.16278993,-0.49382892,0.99935496,2.1403634e-10,-2.44476e-10,0.035913043,48
21740808000,21740808000,0.84857506,0.099687465,0.16429506,-0.49294028,0.99935496,2.1403634e-10,-2.44476e-10,0.035913043,48
21741308000,21741308000,0.8480659,0.10161225,0.1677471,-0.4922602,0.99935496,2.1403634e-10,-2.44476e-10,0.035913043,48
21741808000,21741808000,0.84779763,0.10329696,0.1709039,-0.49128488,0.99935496,2.1403634e-10,-2.44476e-10,0.035913043,48
21742304000,21742304000,0.8474545,0.1045345,0.17432164,-0.4904136,0.99935496,2.1403634e-10,-2.44476e-10,0.035913043,48
21742808000,21742808000,0.8470211,0.10573905,0.17728731,-0.48984054,0.99935496,2.1403634e-10,-2.44476e-10,0.035913043,48
21743308000,21743308000,0.8465907,0.10735437,0.17908962,-0.48957747,0.99935496,2.1403634e-10,-2.44476e-10,0.035913043,48
21743808000,21743808000,0.8462821,0.10778535,0.18178065,-0.48902422,0.99935496,2.1403634e-10,-2.44476e-10,0.035913043,48
21744308000,21744308000,0.8457699,0.10950986,0.18309584,-0.4890367,0.99935496,2.1403634e-10,-2.44476e-10,0.035913043,48
21744804000,21744804000,0.8454606,0.10969223,0.18507983,-0.48878375,0.99935496,2.1403634e-10,-2.44476e-10,0.035913043,48
21745308000,21745308000,0.84507596,0.11055453,0.18653888,-0.48869985,0.99935496,2.1403634e-10,-2.44476e-10,0.035913043,48
21745808000,21745808000,0.84484404,0.110815845,0.18797648,-0.488491,0.99935496,2.1403634e-10,-2.44476e-10,0.035913043,48
21746304000,21746304000,0.8446656,0.11140689,0.18916419,-0.4882064,0.99935496,2.1403634e-10,-2.44476e-10,0.035913043,48
21746808000,21746808000,0.8445918,0.11191899,0.18988608,-0.4879366,0.99935496,2.1403634e-10,-2.44476e-10,0.035913043,48
21747308000,21747308000,0.8444127,0.11258157,0.19075355,-0.48775578,0.99935496,2.1403634e-10,-2.44476e-10,0.035913043,48
21747804000,21747804000,0.84455436,0.11205296,0.19182424,-0.48721212,0.99935496,2.1403634e-10,-2.44476e-10,0.035913043,48
21748308000,21748308000,0.8442285,0.11284101,0.19247603,-0.48733792,0.99935496,2.1403634e-10,-2.44476e-10,0.035913043,48
21748808000,21748808000,0.8441612,0.11303973,0.19279717,-0.48728138,0.99935496,2.1403634e-10,-2.44476e-10,0.035913043,48
21749308000,21749308000,0.8441485,0.113554955,0.19326912,-0.4869967,0.99935496,2.1403634e-10,-2.44476e-10,0.035913043,48
21749808000,21749808000,0.84416324,0.112698,0.19420242,-0.48679873,0.99935496,2.1403634e-10,-2.44476e-10,0.035913043,48
21750304000,21750304000,0.8439799,0.11406375,0.19388515,-0.48692518,0.99935496,2.1403634e-10,-2.44476e-10,0.035913043,48
21750808000,21750808000,0.84391373,0.11402907,0.19426353,-0.48689714,0.99935496,2.1403634e-10,-2.44476e-10,0.035913043,48
21751304000,21751304000,0.84385866,0.11314143,0.19517621,-0.4868344,0.99935496,2.1403634e-10,-2.44476e-10,0.035913043,48
21751804000,21751804000,0.8436285,0.114040405,0.19512315,-0.48704487,0.99935496,2.1403634e-10,-2.44476e-10,0.035913043,48
21752304000,21752304000,0.8437458,0.11374749,0.19536683,-0.4868124,0.99935496,2.1403634e-10,-2.44476e-10,0.035913043,48
21752808000,21752808000,0.84371525,0.11394913,0.19554408,-0.48674703,0.99935496,2.1403634e-10,-2.44476e-10,0.035913043,48
21753308000,21753308000,0.8436602,0.114235826,0.1953388,-0.48685783,0.99935496,2.1403634e-10,-2.44476e-10,0.035913043,48
21753804000,21753804000,0.8435733,0.11430327,0.19567534,-0.4868574,0.99935496,2.1403634e-10,-2.44476e-10,0.035913043,48
21754308000,21754308000,0.8434628,0.11453067,0.19562739,-0.48701474,0.99935496,2.1403634e-10,-2.44476e-10,0.035913043,48
21754808000,21754808000,0.84344196,0.11394198,0.19610457,-0.48699695,0.99935496,2.1403634e-10,-2.44476e-10,0.035913043,48
21755304000,21755304000,0.8434607,0.1142864,0.19554111,-0.48711044,0.99935496,2.1403634e-10,-2.44476e-10,0.035913043,48
21755808000,21755808000,0.84340805,0.113797955,0.19622315,-0.48704156,0.99935496,2.1403634e-10,-2.44476e-10,0.035913043,48
21756304000,21756304000,0.8432514,0.114380404,0.1960414,-0.48724958,0.99935496,2.1403634e-10,-2.44476e-10,0.035913043,48
21756804000,21756804000,0.8432645,0.114804626,0.1956545,-0.48728257,0.99935496,2.1403634e-10,-2.44476e-10,0.035913043,48
21757304000,21757304000,0.84325993,0.1144538,0.19607009,-0.48720595,0.99935496,2.1403634e-10,-2.44476e-10,0.035913043,48
21757804000,21757804000,0.8431762,0.11478252,0.19577874,-0.48739076,0.99935496,2.1403634e-10,-2.44476e-10,0.035913043,48
21758308000,21758308000,0.8432697,0.11455389,0.19579129,-0.48727778,0.99935496,2.1403634e-10,-2.44476e-10,0.035913043,48
21758808000,21758808000,0.84317493,0.11449592,0.19597833,-0.48738003,0.99935496,2.1403634e-10,-2.44476e-10,0.035913043,48
21759308000,21759308000,0.8431078,0.11464128,0.19589347,-0.48749605,0.99935496,2.1403634e-10,-2.44476e-10,0.035913043,48
21759804000,21759804000,0.8431156,0.115018815,0.19588174,-0.48739833,0.99935496,2.1403634e-10,-2.44476e-10,0.035913043,48
21760308000,21760308000,0.8431442,0.11455716,0.19590989,-0.48744628,0.99935496,2.1403634e-10,-2.44476e-10,0.035913043,48
21760808000,21760808000,0.84313667,0.114522696,0.1960368,-0.48741657,0.99935496,2.1403634e-10,-2.44476e-10,0.035913043,48
21761308000,21761308000,0.8430739,0.114832915,0.19612782,-0.48741528,0.99935496,2.1403634e-10,-2.44476e-10,0.035913043,48
21761804000,21761804000,0.84300727,0.11491788,0.19604935,-0.4875422,0.99935496,2.1403634e-10,-2.44476e-10,0.035913043,48
21762308000,21762308000,0.8430161,0.115177244,0.19583194,-0.48755306,0.99935496,2.1403634e-10,-2.44476e-10,0.035913043,48
21762808000,21762808000,0.84303206,0.114703715,0.19628069,-0.4874567,0.99935496,2.1403634e-10,-2.44476e-10,0.035913043,48
21763304000,21763304000,0.8430263,0.11511035,0.19583675,-0.48754945,0.99935496,2.1403634e-10,-2.44476e-10,0.035913043,48
21763808000,21763808000,0.8429615,0.11480933,0.1961247,-0.48761648,0.99935496,2.1403634e-10,-2.44476e-10,0.035913043,48
21764304000,21764304000,0.84289306,0.11502619,0.19617361,-0.48766416,0.99935496,2.1403634e-10,-2.44476e-10,0.035913043,48
21764808000,21764808000,0.84292686,0.11475028,0.19593439,-0.48776668,0.99935496,2.1403634e-10,-2.44476e-10,0.035913043,48
21765304000,21765304000,0.8429845,0.11472114,0.19590768,-0.48768485,0.99935496,2.1403634e-10,-2.44476e-10,0.035913043,48
21765808000,21765808000,0.8430488,0.11461476,0.19600728,-0.4875587,0.99935496,2.1403634e-10,-2.44476e-10,0.035913043,48
21766308000,21766308000,0.84274256,0.11553043,0.19602548,-0.48786438,0.99935496,2.1403634e-10,-2.44476e-10,0.035913043,48
21766808000,21766808000,0.84298635,0.11473996,0.19606234,-0.4876151,0.99935496,2.1403634e-10,-2.44476e-10,0.035913043,48
21767308000,21767308000,0.8427589,0.11550689,0.19587572,-0.48790196,0.99935496,2.1403634e-10,-2.44476e-10,0.035913043,48
21767808000,21767808000,0.84288126,0.11478586,0.19654857,-0.48759013,0.99935496,2.1403634e-10,-2.44476e-10,0.035913043,48
21768308000,21768308000,0.84277874,0.11533979,0.19612995,-0.48780495,0.99935496,2.1403634e-10,-2.44476e-10,0.035913043,48
21768808000,21768808000,0.8428741,0.11525086,0.1962538,-0.48761162,0.99935496,2.1403634e-10,-2.44476e-10,0.035913043,48
21769304000,21769304000,0.84292763,0.115230426,0.19597982,-0.48763415,0.99935496,2.1403634e-10,-2.44476e-10,0.035913043,48
21769808000,21769808000,0.8430486,0.11421768,0.19651876,-0.48744622,0.99935496,2.1403634e-10,-2.44476e-10,0.035913043,48
21770308000,21770308000,0.8428897,0.11492424,0.19637592,-0.48761255,0.99935496,2.1403634e-10,-2.44476e-10,0.035913043,48
21770808000,21770808000,0.8429807,0.11481292,0.19608153,-0.48759994,0.99935496,2.1403634e-10,-2.44476e-10,0.035913043,48
21771308000,21771308000,0.8429284,0.11505599,0.19613749,-0.48761037,0.99935496,2.1403634e-10,-2.44476e-10,0.035913043,48
21771808000,21771808000,0.8428776,0.11502768,0.19626433,-0.48765382,0.99935496,2.1403634e-10,-2.44476e-10,0.035913043,48
21772308000,21772308000,0.8428211,0.115201935,0.19629054,-0.48769996,0.99935496,2.1403634e-10,-2.44476e-10,0.035913043,48
21772808000,21772808000,0.84280074,0.11528727,0.19610351,-0.48779017,0.99935496,2.1403634e-10,-2.44476e-10,0.035913043,48
21773304000,21773304000,0.84271014,0.11548957,0.1961558,-0.48787785,0.99935496,2.1403634e-10,-2.44476e-10,0.035913043,48
21773808000,21773808000,0.84276915,0.114776894,0.1964349,-0.48783183,0.99935496,2.1403634e-10,-2.44476e-10,0.035913043,48
21774308000,21774308000,0.8427947,0.11503382,0.19625333,-0.4878002,0.99935496,2.1403634e-10,-2.44476e-10,0.035913043,48
21774808000,21774808000,0.8428978,0.114670716,0.19642071,-0.48764023,0.99935496,2.1403634e-10,-2.44476e-10,0.035913043,48
21775308000,21775308000,0.8427229,0.11545737,0.19608086,-0.48789358,0.99935496,2.1403634e-10,-2.44476e-10,0.035913043,48
21775804000,21775804000,0.8427631,0.114843324,0.1965435,-0.4877828,0.99935496,2.1403634e-10,-2.44476e-10,0.035913043,48
21776304000,21776304000,0.8428057,0.114917435,0.19642612,-0.4877392,0.99935496,2.1403634e-10,-2.44476e-10,0.035913043,48
21776804000,21776804000,0.84285337,0.11536903,0.19619204,-0.48764414,0.99935496,2.1403634e-10,-2.44476e-10,0.035913043,48
21777308000,21777308000,0.8426978,0.11547826,0.19653593,-0.48774883,0.99935496,2.1403634e-10,-2.44476e-10,0.035913043,48
21777808000,21777808000,0.84275025,0.11572962,0.19607581,-0.48778385,0.99935496,2.1403634e-10,-2.44476e-10,0.035913043,48
21778308000,21778308000,0.8428164,0.11525761,0.19619979,-0.48773128,0.99935496,2.1403634e-10,-2.44476e-10,0.035913043,48
21778804000,21778804000,0.8429766,0.11478732,0.19650811,-0.48744136,0.99935496,2.1403634e-10,-2.44476e-10,0.035913043,48
21779308000,21779308000,0.842751,0.1153389,0.19642203,-0.48773587,0.99935496,2.1403634e-10,-2.44476e-10,0.035913043,48
21779808000,21779808000,0.842732,0.11497985,0.19667716,-0.48775062,0.99935496,2.1403634e-10,-2.44476e-10,0.035913043,48
21780308000,21780308000,0.84269524,0.11541223,0.19622327,-0.4878946,0.99935496,2.1403634e-10,-2.44476e-10,0.035913043,48
21780808000,21780808000,0.8427136,0.11499632,0.19660652,-0.48780686,0.99935496,2.1403634e-10,-2.44476e-10,0.035913043,48
21781308000,21781308000,0.84262145,0.11589973,0.19603267,-0.48798317,0.99935496,2.1403634e-10,-2.44476e-10,0.035913043,48
21781808000,21781808000,0.84266865,0.11546425,0.19616912,-0.48795,0.99935496,2.1403634e-10,-2.44476e-10,0.035913043,48
21782308000,21782308000,0.8427924,0.11470056,0.19659044,-0.4877471,0.99935496,2.1403634e-10,-2.44476e-10,0.035913043,48
21782808000,21782808000,0.84261906,0.11553772,0.19627914,-0.48797417,0.99935496,2.1403634e-10,-2.44476e-10,0.035913043,48
21783308000,21783308000,0.84267163,0.115249135,0.19654581,-0.48784423,0.99935496,2.1403634e-10,-2.44476e-10,0.035913043,48
21783804000,21783804000,0.8426247,0.11530564,0.19648144,-0.4879379,0.99935496,2.1403634e-10,-2.44476e-10,0.035913043,48
21784308000,21784308000,0.8425553,0.11585988,0.19606331,-0.48809457,0.99935496,2.1403634e-10,-2.44476e-10,0.035913043,48
21784804000,21784804000,0.8426713,0.115407825,0.19634822,-0.4878869,0.99935496,2.1403634e-10,-2.44476e-10,0.035913043,48
21785308000,21785308000,0.84257436,0.115852654,0.19608289,-0.48805544,0.99935496,2.1403634e-10,-2.44476e-10,0.035913043,48
21785804000,21785804000,0.8425615,0.11604775,0.19612266,-0.4880155,0.99935496,2.1403634e-10,-2.44476e-10,0.035913043,48
21786304000,21786304000,0.8425919,0.11598742,0.19587933,-0.48807517,0.99935496,2.1403634e-10,-2.44476e-10,0.035913043,48
21786808000,21786808000,0.8427413,0.11539904,0.19639081,-0.48775068,0.99935496,2.1403634e-10,-2.44476e-10,0.035913043,48
21787304000,21787304000,0.84268457,0.11551903,0.19622174,-0.48788863,0.99935496,2.1403634e-10,-2.44476e-10,0.035913043,48
21787808000,21787808000,0.842615,0.1156404,0.1962642,-0.48796272,0.99935496,2.1403634e-10,-2.44476e-10,0.035913043,48
21788304000,21788304000,0.84264016,0.1156583,0.19608372,-0.48798773,0.99935496,2.1403634e-10,-2.44476e-10,0.035913043,48
21788804000,21788804000,0.84269804,0.11527292,0.19610605,-0.48797005,0.99935496,2.1403634e-10,-2.44476e-10,0.035913043,48
21789308000,21789308000,0.84266615,0.115241975,0.19638771,-0.487919,0.99935496,2.1403634e-10,-2.44476e-10,0.035913043,48
21789804000,21789804000,0.8426696,0.1148588,0.19630532,-0.48803642,0.99935496,2.1403634e-10,-2.44476e-10,0.035913043,48
21790304000,21790304000,0.84263545,0.11510511,0.19617827,-0.4880886,0.99935496,2.1403634e-10,-2.44476e-10,0.035913043,48
21790808000,21790808000,0.8427286,0.11518952,0.19613338,-0.48792583,0.99935496,2.1403634e-10,-2.44476e-10,0.035913043,48
21791308000,21791308000,0.8425504,0.11538529,0.19624028,-0.4881442,0.99935496,2.1403634e-10,-2.44476e-10,0.035913043,48
21791808000,21791808000,0.8427736,0.11457467,0.19689447,-0.48768649,0.99935496,2.1403634e-10,-2.44476e-10,0.035913043,48
21792308000,21792308000,0.8427099,0.11474728,0.19645567,-0.48793268,0.99935496,2.1403634e-10,-2.44476e-10,0.035913043,48
21792808000,21792808000,0.8425076,0.11529914,0.19620797,-0.48825154,0.99935496,2.1403634e-10,-2.44476e-10,0.035913043,48
21793308000,21793308000,0.8426715,0.115139395,0.19630307,-0.48796812,0.99935496,2.1403634e-10,-2.44476e-10,0.035913043,48
21793808000,21793808000,0.84264773,0.11558362,0.19621244,-0.4879404,0.99935496,2.1403634e-10,-2.44476e-10,0.035913043,48
21794304000,21794304000,0.8426539,0.115198955,0.1961626,-0.48804078,0.99935496,2.1403634e-10,-2.44476e-10,0.035913043,48
21794804000,21794804000,0.84261686,0.11535116,0.19645241,-0.48795238,0.99935496,2.1403634e-10,-2.44476e-10,0.035913043,48
21795308000,21795308000,0.8426303,0.11531858,0.19612515,-0.48806846,0.99935496,2.1403634e-10,-2.44476e-10,0.035913043,48
21795808000,21795808000,0.8425604,0.115222946,0.19612482,-0.48821193,0.99935496,2.1403634e-10,-2.44476e-10,0.035913043,48
21796308000,21796308000,0.84253365,0.11485996,0.19654904,-0.4881731,0.99935496,2.1403634e-10,-2.44476e-10,0.035913043,48
21796808000,21796808000,0.8426013,0.11542955,0.19609031,-0.48810622,0.99935496,2.1403634e-10,-2.44476e-10,0.035913043,48
21797308000,21797308000,0.84255207,0.11553723,0.19636981,-0.4880535,0.99935496,2.1403634e-10,-2.44476e-10,0.035913043,48
21797804000,21797804000,0.84256446,0.11534892,0.19610704,-0.4881822,0.99935496,2.1403634e-10,-2.44476e-10,0.035913043,48
21798308000,21798308000,0.8425608,0.11531947,0.19607013,-0.4882101,0.99935496,2.1403634e-10,-2.44476e-10,0.035913043,48
21798808000,21798808000,0.8426472,0.11498913,0.19641873,-0.4879989,0.99935496,2.1403634e-10,-2.44476e-10,0.035913043,48
21799308000,21799308000,0.842567,0.114746556,0.19644773,-0.4881829,0.99935496,2.1403634e-10,-2.44476e-10,0.035913043,48
21799808000,21799808000,0.8425197,0.115775675,0.19587661,-0.488251,0.99935496,2.1403634e-10,-2.44476e-10,0.035913043,48
21800308000,21800308000,0.8425992,0.11520687,0.19642013,-0.48802984,0.99935496,2.1403634e-10,-2.44476e-10,0.035913043,48
21800808000,21800808000,0.84252864,0.11587475,0.1960003,-0.48816255,0.99935496,2.1403634e-10,-2.44476e-10,0.035913043,48
21801308000,21801308000,0.84271026,0.1146374,0.19667666,-0.48786893,0.99935496,2.1403634e-10,-2.44476e-10,0.035913043,48
21801808000,21801808000,0.842526,0.11623943,0.19569682,-0.4882019,0.99935496,2.1403634e-10,-2.44476e-10,0.035913043,48
21802308000,21802308000,0.84257025,0.11541765,0.1964881,-0.48800287,0.99935496,2.1403634e-10,-2.44476e-10,0.035913043,48
21802808000,21802808000,0.8425521,0.11529069,0.19633423,-0.48812583,0.99935496,2.1403634e-10,-2.44476e-10,0.035913043,48
21803304000,21803304000,0.8424671,0.11584233,0.19638759,-0.48812062,0.99935496,2.1403634e-10,-2.44476e-10,0.035913043,48
21803808000,21803808000,0.8427712,0.114493504,0.196516,-0.48786214,0.99935496,2.1403634e-10,-2.44476e-10,0.035913043,48
21804308000,21804308000,0.842552,0.11588457,0.19604366,-0.4881022,0.99935496,2.1403634e-10,-2.44476e-10,0.035913043,48
21804804000,21804804000,0.84261376,0.11482002,0.1969734,-0.48787284,0.99935496,2.1403634e-10,-2.44476e-10,0.035913043,48
21805308000,21805308000,0.8424584,0.11595427,0.19654486,-0.48804557,0.99935496,2.1403634e-10,-2.44476e-10,0.035913043,48
21805804000,21805804000,0.8425365,0.11574149,0.1961427,-0.48812303,0.99935496,2.1403634e-10,-2.44476e-10,0.035913043,48
21806308000,21806308000,0.84252685,0.11541088,0.19642818,-0.4881033,0.99935496,2.1403634e-10,-2.44476e-10,0.035913043,48
21806808000,21806808000,0.8462206,0.011188542,-0.30452633,-0.4370917,0.99935496,2.1403634e-10,-2.44476e-10,0.035913043,48
21807308000,21807308000,0.85567623,-0.09793557,-0.00050323043,-0.5081599,0.99935496,2.1403634e-10,-2.44476e-10,0.035913043,48
21807804000,21807804000,0.8616218,0.012753368,-0.056508493,-0.50423414,0.99935496,2.1403634e-10,-2.44476e-10,0.035913043,48
21808308000,21808308000,0.86165524,-0.021886816,-0.04472567,-0.50504535,0.99935496,2.1403634e-10,-2.44476e-10,0.035913043,48
21808804000,21808804000,0.854094,-0.06704928,-0.12723644,-0.49983862,0.99935496,2.1403634e-10,-2.44476e-10,0.035913043,48
21809308000,21809308000,0.8503369,-0.079969384,-0.14816833,-0.4985762,0.99935496,2.1403634e-10,-2.44476e-10,0.035913043,48
21809804000,21809804000,0.8558219,-0.069806546,-0.12694408,-0.49656928,0.99935496,2.1403634e-10,-2.44476e-10,0.035913043,48
21810308000,21810308000,0.85986084,-0.040463313,-0.10298157,-0.49839434,0.99935496,2.1403634e-10,-2.44476e-10,0.035913043,48
21810808000,21810808000,0.8657388,-0.0024744307,-0.06155103,-0.49669087,0.99935496,2.1403634e-10,-2.44476e-10,0.035913043,48
21811308000,21811308000,0.86457425,-0.015327304,-0.035571743,-0.50101006,0.99935496,2.1403634e-10,-2.44476e-10,0.035913043,48
21811804000,21811804000,0.86499363,0.0022783366,-0.019172432,-0.5014114,0.99935496,2.1403634e-10,-2.44476e-10,0.035913043,48
21812308000,21812308000,0.8647942,0.0108101005,0.0036460254,-0.5019968,0.99935496,2.1403634e-10,-2.44476e-10,0.035913043,48
21812808000,21812808000,0.86464757,0.012202059,0.014826897,-0.502012,0.99935496,2.1403634e-10,-2.44476e-10,0.035913043,48
21813304000,21813304000,0.8647934,0.010177163,0.014637422,-0.50181144,0.99935496,2.1403634e-10,-2.44476e-10,0.035913043,48
21813808000,21813808000,0.865136,0.0064916126,0.011442188,-0.50136477,0.99935496,2.1403634e-10,-2.44476e-10,0.035913043,48
21814308000,21814308000,0.86543685,0.0048809634,0.009627236,-0.50090176,0.99935496,2.1403634e-10,-2.44476e-10,0.035913043,48
21814804000,21814804000,0.8655549,0.0046421383,0.004737258,-0.50077003,0.99935496,2.1403634e-10,-2.44476e-10,0.035913043,48
21815304000,21815304000,0.8655455,0.0064472295,0.0004953032,-0.5007887,0.99935496,2.1403634e-10,-2.44476e-10,0.035913043,48
21815804000,21815804000,0.8656557,0.0054944986,-0.0013504862,-0.5006078,0.99935496,2.1403634e-10,-2.44476e-10,0.035913043,48
21816308000,21816308000,0.8655289,0.006256757,-0.000861418,-0.5008194,0.99935496,2.1403634e-10,-2.44476e-10,0.035913043,48
21816808000,21816808000,0.8654672,0.006499989,-0.002785171,-0.5009157,0.99935496,2.1403634e-10,-2.44476e-10,0.035913043,48
21817308000,21817308000,0.86543846,0.007709852,-0.0019645724,-0.50095206,0.99935496,2.1403634e-10,-2.44476e-10,0.035913043,48
21817808000,21817808000,0.86552954,0.008169528,1.2980897e-06,-0.50079125,0.99935496,2.1403634e-10,-2.44476e-10,0.035913043,48
21818308000,21818308000,0.86547685,0.010050985,0.0011315278,-0.50084686,0.99935496,2.1403634e-10,-2.44476e-10,0.035913043,48
21818804000,21818804000,0.8653456,0.010431694,0.0015165522,-0.5010648,0.99935496,2.1403634e-10,-2.44476e-10,0.035913043,48
21819304000,21819304000,0.86530775,0.010393575,0.0018115444,-0.50113004,0.99935496,2.1403634e-10,-2.44476e-10,0.035913043,48
21819808000,21819808000,0.86540985,0.009246096,0.0033384191,-0.5009683,0.99935496,2.1403634e-10,-2.44476e-10,0.035913043,48
21820308000,21820308000,0.8654125,0.009301926,0.0026959279,-0.50096667,0.99935496,2.1403634e-10,-2.44476e-10,0.035913043,48
21820808000,21820808000,0.86545974,0.0082216095,0.0022194467,-0.50090617,0.99935496,2.1403634e-10,-2.44476e-10,0.035913043,48
21821308000,21821308000,0.86542743,0.009410092,0.0024853167,-0.50093985,0.99935496,2.1403634e-10,-2.44476e-10,0.035913043,48
21821808000,21821808000,0.86546546,0.0091117835,0.0012114851,-0.5008843,0.99935496,2.1403634e-10,-2.44476e-10,0.035913043,48
21822304000,21822304000,0.8654635,0.009618157,0.002709491,-0.5008725,0.99935496,2.1403634e-10,-2.44476e-10,0.035913043,48
21822808000,21822808000,0.8654725,0.009635872,0.0027992548,-0.5008562,0.99935496,2.1403634e-10,-2.44476e-10,0.035913043,48
21823304000,21823304000,0.8654791,0.009511303,0.004265967,-0.5008367,0.99935496,2.1403634e-10,-2.44476e-10,0.035913043,48
21823804000,21823804000,0.8654463,0.009230137,0.004837928,-0.5008933,0.99935496,2.1403634e-10,-2.44476e-10,0.035913043,48
21824308000,21824308000,0.865493,0.009227897,0.0044716923,-0.5008161,0.99935496,2.1403634e-10,-2.44476e-10,0.035913043,48
21824804000,21824804000,0.86552787,0.008493127,0.0034421238,-0.5007768,0.99935496,2.1403634e-10,-2.44476e-10,0.035913043,48
21825308000,21825308000,0.8655169,0.0062960233,0.0016744515,-0.50083745,0.99935496,2.1403634e-10,-2.44476e-10,0.035913043,48
21825804000,21825804000,0.86556464,0.007141629,0.000922019,-0.5007455,0.99935496,2.1403634e-10,-2.44476e-10,0.035913043,48
21826308000,21826308000,0.86554575,0.008162618,0.00040551295,-0.5007632,0.99935496,2.1403634e-10,-2.44476e-10,0.035913043,48
21826808000,21826808000,0.86546904,0.0077720447,0.00024260838,-0.50090206,0.99935496,2.1403634e-10,-2.44476e-10,0.035913043,48
21827308000,21827308000,0.86548185,0.008993361,0.00044956684,-0.50085956,0.99935496,2.1403634e-10,-2.44476e-10,0.035913043,48
21827808000,21827808000,0.86546975,0.010324228,-8.586735e-05,-0.5008549,0.99935496,2.1403634e-10,-2.44476e-10,0.035913043,48
21828308000,21828308000,0.8654512,0.009894118,0.0013527684,-0.5008938,0.99935496,2.1403634e-10,-2.44476e-10,0.035913043,48
21828804000,21828804000,0.8655225,0.010282603,0.0011715402,-0.5007633,0.99935496,2.1403634e-10,-2.44476e-10,0.035913043,48
21829308000,21829308000,0.8654315,0.009139118,0.002002653,-0.50093997,0.99935496,2.1403634e-10,-2.44476e-10,0.035913043,48
21829808000,21829808000,0.8654298,0.010796713,0.0016379758,-0.5009112,0.99935496,2.1403634e-10,-2.44476e-10,0.035913043,48
21830308000,21830308000,0.8654407,0.011644308,0.0012406195,-0.5008746,0.99935496,2.1403634e-10,-2.44476e-10,0.035913043,48
21830808000,21830808000,0.8654183,0.010558738,0.0014554118,-0.5009368,0.99935496,2.1403634e-10,-2.44476e-10,0.035913043,48
21831304000,21831304000,0.86542577,0.010902364,0.0018996325,-0.500915,0.99935496,2.1403634e-10,-2.44476e-10,0.035913043,48
21831804000,21831804000,0.86534846,0.010550925,0.001052148,-0.50105846,0.99935496,2.1403634e-10,-2.44476e-10,0.035913043,48
21832308000,21832308000,0.86533403,0.011746036,0.0007634552,-0.5010573,0.99935496,2.1403634e-10,-2.44476e-10,0.035913043,48
21832808000,21832808000,0.8653258,0.01195842,0.00087207527,-0.50106627,0.99935496,2.1403634e-10,-2.44476e-10,0.035913043,48
21833308000,21833308000,0.8653779,0.011196557,0.0013418635,-0.500993,0.99935496,2.1403634e-10,-2.44476e-10,0.035913043,48
21833804000,21833804000,0.8654081,0.010463441,0.0010128351,-0.5009575,0.99935496,2.1403634e-10,-2.44476e-10,0.035913043,48
21834308000,21834308000,0.8653801,0.010365493,0.0024990665,-0.5010028,0.99935496,2.1403634e-10,-2.44476e-10,0.035913043,48
21834808000,21834808000,0.8655339,0.009232471,0.0011955487,-0.5007639,0.99935496,2.1403634e-10,-2.44476e-10,0.035913043,48
21835304000,21835304000,0.86549556,0.009862146,0.00058399345,-0.5008192,0.99935496,2.1403634e-10,-2.44476e-10,0.035913043,48
21835808000,21835808000,0.8653775,0.0107943285,0.00017066757,-0.50100446,0.99935496,2.1403634e-10,-2.44476e-10,0.035913043,48
21836308000,21836308000,0.8653906,0.009612012,0.00021987154,-0.5010057,0.99935496,2.1403634e-10,-2.44476e-10,0.035913043,48
21836804000,21836804000,0.86538744,0.008818939,-0.00013003963,-0.50102574,0.99935496,2.1403634e-10,-2.44476e-10,0.035913043,48
21837308000,21837308000,0.8653907,0.0087128915,-0.0019417708,-0.50101835,0.99935496,2.1403634e-10,-2.44476e-10,0.035913043,48
21837808000,21837808000,0.86538094,0.008563551,-0.000717027,-0.5010409,0.99935496,2.1403634e-10,-2.44476e-10,0.035913043,48
21838308000,21838308000,0.8653933,0.008853314,-0.0012257241,-0.50101364,0.99935496,2.1403634e-10,-2.44476e-10,0.035913043,48
21838808000,21838808000,0.8654117,0.009385393,0.0006601772,-0.5009731,0.99935496,2.1403634e-10,-2.44476e-10,0.035913043,48
21839304000,21839304000,0.86538106,0.00964309,0.0007781003,-0.50102115,0.99935496,2.1403634e-10,-2.44476e-10,0.035913043,48
21839808000,21839808000,0.86539954,0.009841637,0.00059946073,-0.5009854,0.99935496,2.1403634e-10,-2.44476e-10,0.035913043,48
21840304000,21840304000,0.8653774,0.010562897,0.0015713298,-0.501007,0.99935496,2.1403634e-10,-2.44476e-10,0.035913043,48
21840804000,21840804000,0.8653574,0.012636016,0.0014325955,-0.50099397,0.99935496,2.1403634e-10,-2.44476e-10,0.035913043,48
21841308000,21841308000,0.86532676,0.012903127,-0.0006920358,-0.50104177,0.99935496,2.1403634e-10,-2.44476e-10,0.035913043,48
21841808000,21841808000,0.8652431,0.013784456,-0.0008580753,-0.50116235,0.99935496,2.1403634e-10,-2.44476e-10,0.035913043,48
21842308000,21842308000,0.8652727,0.013596733,-0.0026970822,-0.5011098,0.99935496,2.1403634e-10,-2.44476e-10,0.035913043,48
21842808000,21842808000,0.8652494,0.012737974,-0.0017884744,-0.5011767,0.99935496,2.1403634e-10,-2.44476e-10,0.035913043,48
21843308000,21843308000,0.8652253,0.010914108,-0.00036984548,-0.50126433,0.99935496,2.1403634e-10,-2.44476e-10,0.035913043,48
21843808000,21843808000,0.8653307,0.010584683,0.00018839845,-0.5010897,0.99935496,2.1403634e-10,-2.44476e-10,0.035913043,48
21844308000,21844308000,0.8653165,0.010856554,0.0017113059,-0.50110525,0.99935496,2.1403634e-10,-2.44476e-10,0.035913043,48
21844808000,21844808000,0.86539537,0.011111672,0.0011519127,-0.5009651,0.99935496,2.1403634e-10,-2.44476e-10,0.035913043,48
21845308000,21845308000,0.8654261,0.01180467,0.0001986329,-0.5008976,0.99935496,2.1403634e-10,-2.44476e-10,0.035913043,48
21845804000,21845804000,0.86545724,0.011499086,0.0001736533,-0.5008509,0.99935496,2.1403634e-10,-2.44476e-10,0.035913043,48
21846308000,21846308000,0.86552054,0.0111116655,-0.00046388982,-0.50075,0.99935496,2.1403634e-10,-2.44476e-10,0.035913043,48
21846808000,21846808000,0.8655442,0.009630924,-0.0018144439,-0.5007367,0.99935496,2.1403634e-10,-2.44476e-10,0.035913043,48
21847308000,21847308000,0.8655572,0.0101740705,-0.0020350625,-0.5007027,0.99935496,2.1403634e-10,-2.44476e-10,0.035913043,48
21847808000,21847808000,0.8655493,0.009982263,-0.0026980229,-0.5007171,0.99935496,2.1403634e-10,-2.44476e-10,0.035913043,48
21848308000,21848308000,0.86544085,0.009625115,-0.0026232938,-0.50091183,0.99935496,2.1403634e-10,-2.44476e-10,0.035913043,48
21848808000,21848808000,0.8655068,0.009466234,-0.0029868342,-0.5007989,0.99935496,2.1403634e-10,-2.44476e-10,0.035913043,48
21849308000,21849308000,0.8654998,0.009894018,-0.0021304935,-0.50080717,0.99935496,2.1403634e-10,-2.44476e-10,0.035913043,48
21849808000,21849808000,0.8654952,0.011557779,-0.0020645354,-0.5007796,0.99935496,2.1403634e-10,-2.44476e-10,0.035913043,48
21850308000,21850308000,0.86544096,0.010260524,-0.0026996855,-0.50089866,0.99935496,2.1403634e-10,-2.44476e-10,0.035913043,48
21850808000,21850808000,0.8654736,0.010643092,-0.003282554,-0.5008308,0.99935496,2.1403634e-10,-2.44476e-10,0.035913043,48
