timestamp,timestamp_sample,gps_hvel[0],gps_hvel[1],gps_vvel,gps_hpos[0],gps_hpos[1],gps_vpos,ev_hvel[0],ev_hvel[1],ev_vvel,ev_hpos[0],ev_hpos[1],ev_vpos,rng_vpos,baro_vpos,aux_hvel[0],aux_hvel[1],aux_vvel,flow[0],flow[1],heading,mag_field[0],mag_field[1],mag_field[2],drag[0],drag[1],airspeed,beta,hagl,hagl_rate
21726656000,21726576000,-0.00030540355,-0.003229545,-0.0016016071,0.001218915,0.0019899607,0.0,0.0,0.0,0.0,0.0,0.0,0.0,0.0,-0.040527344,0.0,0.0,nan,0.0,0.0,-0.018345118,0.0008936599,0.0027282685,-0.003101468,0.0,0.0,0.0,0.0,0.0,0.0
21727152000,21727072000,-0.00019434241,-0.00035291436,-0.00039197554,-0.009836674,0.0022518635,0.0,0.0,0.0,0.0,0.0,0.0,0.0,0.0,0.030883789,0.0,0.0,nan,0.0,0.0,0.01868403,0.0008936599,0.0027282685,-0.003101468,0.0,0.0,0.0,0.0,0.0,0.0
21727656000,21727576000,-0.0019623195,0.0008202779,0.009249532,-0.009785175,0.0020594597,0.0,0.0,0.0,0.0,0.0,0.0,0.0,0.0,0.054977417,0.0,0.0,nan,0.0,0.0,0.029149532,0.0008936599,0.0027282685,-0.003101468,0.0,0.0,0.0,0.0,0.0,0.0
21728152000,21728072000,-0.008040471,0.00032975164,-0.0017687161,0.0014483929,0.002110839,0.0,0.0,0.0,0.0,0.0,0.0,0.0,0.0,0.028778076,0.0,0.0,nan,0.0,0.0,0.004290104,0.0008936599,0.0027282685,-0.003101468,0.0,0.0,0.0,0.0,0.0,0.0
21728656000,21728576000,-0.001986863,0.009950103,-0.009494717,-0.009423912,-0.0060554743,0.0,0.0,0.0,0.0,0.0,0.0,0.0,0.0,0.010238647,0.0,0.0,nan,0.0,0.0,-0.021361709,0.0008936599,0.0027282685,-0.003101468,0.0,0.0,0.0,0.0,0.0,0.0
21729160000,21729080000,-0.0028855018,-0.0008963333,-0.020380404,0.0015955567,-0.006096244,0.0,0.0,0.0,0.0,0.0,0.0,0.0,0.0,-0.02355957,0.0,0.0,nan,0.0,0.0,0.005261779,0.0008936599,0.0027282685,-0.003101468,0.0,0.0,0.0,0.0,0.0,0.0
21729656000,21729576000,-0.00039938986,-0.00018302898,0.0011353786,0.0015272498,0.002064705,0.0,0.0,0.0,0.0,0.0,0.0,0.0,0.0,-0.10321045,0.0,0.0,nan,0.0,0.0,-0.024814844,0.0008936599,0.0027282685,-0.003101468,0.0,0.0,0.0,0.0,0.0,0.0
21730160000,21730080000,0.019838817,-0.00044566303,0.039586715,0.0016745925,0.0020409822,0.0,0.0,0.0,0.0,0.0,0.0,0.0,0.0,-0.11647034,0.0,0.0,nan,0.0,0.0,-0.0065897703,0.0008936599,0.0027282685,-0.003101468,0.0,0.0,0.0,0.0,0.0,0.0
21730656000,21730576000,0.0002980509,0.0124603845,-0.010298881,-0.009513378,0.0017807484,0.0,0.0,0.0,0.0,0.0,0.0,0.0,0.0,0.0181427,0.0,0.0,nan,0.0,0.0,0.0015848875,0.0008936599,0.0027282685,-0.003101468,0.0,0.0,0.0,0.0,0.0,0.0
21731160000,21731080000,-0.008934305,-0.010148066,0.011217969,0.0017441511,0.001684308,0.0,0.0,0.0,0.0,0.0,0.0,0.0,0.0,-0.026626587,0.0,0.0,nan,0.0,0.0,0.0043292046,0.0008936599,0.0027282685,-0.003101468,0.0,0.0,0.0,0.0,0.0,0.0
21731656000,21731576000,0.0039133728,0.008724941,-0.0409718,0.0020105243,0.0017570257,0.0,0.0,0.0,0.0,0.0,0.0,0.0,0.0,-0.018630981,0.0,0.0,nan,0.0,0.0,0.004801035,0.0008936599,0.0027282685,-0.003101468,0.0,0.0,0.0,0.0,0.0,0.0
21732160000,21732080000,-0.010741556,0.0022454595,0.05101186,0.0014364719,0.0022079945,0.0,0.0,0.0,0.0,0.0,0.0,0.0,0.0,-0.021240234,0.0,0.0,nan,0.0,0.0,0.002349019,0.0008936599,0.0027282685,-0.003101468,0.0,0.0,0.0,0.0,0.0,0.0
21732656000,21732576000,-0.0023980732,0.011093412,0.00049094803,0.0013161302,-0.0061411858,0.0,0.0,0.0,0.0,0.0,0.0,0.0,0.0,-0.015731812,0.0,0.0,nan,0.0,0.0,0.0022296906,0.0008936599,0.0027282685,-0.003101468,0.0,0.0,0.0,0.0,0.0,0.0
21733160000,21733080000,0.01017862,0.0009860933,-0.0059082904,-0.009665549,0.0020097494,0.0,0.0,0.0,0.0,0.0,0.0,0.0,0.0,0.0,0.0,0.0,nan,0.0,0.0,-0.005595684,0.0008936599,0.0027282685,-0.003101468,0.0,0.0,0.0,0.0,0.0,0.0
21733656000,21733576000,0.01924323,-0.01167976,-0.02190081,0.0011641979,0.004702449,0.0,0.0,0.0,0.0,0.0,0.0,0.0,0.0,0.0,0.0,0.0,nan,0.0,0.0,-0.023741126,0.0008936599,0.0027282685,-0.003101468,0.0,0.0,0.0,0.0,0.0,0.0
21734152000,21734072000,-0.013394146,0.005269288,0.009461365,0.0001333952,0.008971453,0.0,0.0,0.0,0.0,0.0,0.0,0.0,0.0,0.005142212,0.0,0.0,nan,0.0,0.0,0.004594803,0.0008936599,0.0027282685,-0.003101468,0.0,0.0,0.0,0.0,0.0,0.0
21734656000,21734576000,-0.014117114,0.0042984476,-0.0954029,-0.004468322,0.018370032,0.0,0.0,0.0,0.0,0.0,0.0,0.0,0.0,0.09236145,0.0,0.0,nan,0.0,0.0,0.0046340227,0.0008936599,0.0027282685,-0.003101468,0.0,0.0,0.0,0.0,0.0,0.0
21735152000,21735072000,-0.020708896,-0.0034633558,0.022697091,-0.013304412,0.019423962,0.0,0.0,0.0,0.0,0.0,0.0,0.0,0.0,0.06512451,0.0,0.0,nan,0.0,0.0,-0.029535055,0.0008936599,0.0027282685,-0.003101468,0.0,0.0,0.0,0.0,0.0,0.0
21735656000,21735576000,-0.038577996,0.028256342,0.052083254,-0.01364398,0.029446363,0.0,0.0,0.0,0.0,0.0,0.0,0.0,0.0,-0.08644104,0.0,0.0,nan,0.0,0.0,0.07168567,0.0008936599,0.0027282685,-0.003101468,0.0,0.0,0.0,0.0,0.0,0.0
21736160000,21736080000,-0.038235176,0.018974418,0.11499852,-0.030379355,0.029000401,0.0,0.0,0.0,0.0,0.0,0.0,0.0,0.0,-0.007217407,0.0,0.0,nan,0.0,0.0,0.03712499,0.0008936599,0.0027282685,-0.003101468,0.0,0.0,0.0,0.0,0.0,0.0
21736656000,21736576000,-0.03224609,-0.0024893263,0.023308545,-0.029964149,0.032273293,0.0,0.0,0.0,0.0,0.0,0.0,0.0,0.0,0.0395813,0.0,0.0,nan,0.0,0.0,0.04020357,0.0008936599,0.0027282685,-0.003101468,0.0,0.0,0.0,0.0,0.0,0.0
21737160000,21737080000,0.01259483,0.00045389342,0.05688508,-0.026173174,0.031652927,0.0,0.0,0.0,0.0,0.0,0.0,0.0,0.0,0.03363037,0.0,0.0,nan,0.0,0.0,0.02690792,0.0008936599,0.0027282685,-0.003101468,0.0,0.0,0.0,0.0,0.0,0.0
21737656000,21737576000,-0.0015631989,-0.023217123,0.019556962,-0.036147594,0.0214355,0.0,0.0,0.0,0.0,0.0,0.0,0.0,0.0,0.11160278,0.0,0.0,nan,0.0,0.0,0.00238204,0.0008936599,0.0027282685,-0.003101468,0.0,0.0,0.0,0.0,0.0,0.0
21738152000,21738072000,-0.011151493,-0.011403446,0.01162076,-0.036799908,0.015522718,0.0,0.0,0.0,0.0,0.0,0.0,0.0,0.0,0.069381714,0.0,0.0,nan,0.0,0.0,0.01802814,0.0008936599,0.0027282685,-0.003101468,0.0,0.0,0.0,0.0,0.0,0.0
21738656000,21738576000,-0.0155057665,-0.0012851357,0.009034008,-0.038856268,0.009203672,0.0,0.0,0.0,0.0,0.0,0.0,0.0,0.0,0.07234192,0.0,0.0,nan,0.0,0.0,0.0066361427,0.0008936599,0.0027282685,-0.003101468,0.0,0.0,0.0,0.0,0.0,0.0
21739160000,21739080000,-0.0064639915,0.024964988,0.02631092,-0.039224923,0.012328863,0.0,0.0,0.0,0.0,0.0,0.0,0.0,0.0,0.078811646,0.0,0.0,nan,0.0,0.0,0.011494994,0.0008936599,0.0027282685,-0.003101468,0.0,0.0,0.0,0.0,0.0,0.0
21739656000,21739576000,-0.15387738,0.023581862,-0.07560611,-0.061139643,0.007696256,0.0,0.0,0.0,0.0,0.0,0.0,0.0,0.0,0.17831421,0.0,0.0,nan,0.0,0.0,0.015656233,0.0007804334,-0.0018687099,-0.0014059544,0.0,0.0,0.0,0.0,0.0,0.0
21740152000,21740072000,-0.07675183,-0.047459126,-0.08498514,-0.050257564,0.0043544173,0.0,0.0,0.0,0.0,0.0,0.0,0.0,0.0,0.24812317,0.0,0.0,nan,0.0,0.0,0.015656233,0.00040659308,0.0013686419,0.0014589727,0.0,0.0,0.0,0.0,0.0,0.0
21740656000,21740576000,-0.038177013,-0.056941986,-0.035115957,-0.020552635,-0.015241623,0.0,0.0,0.0,0.0,0.0,0.0,0.0,0.0,0.12553406,0.0,0.0,nan,0.0,0.0,0.015656233,0.00030111521,0.00018897653,-0.0023240447,0.0,0.0,0.0,0.0,0.0,0.0
21741160000,21741080000,-0.026379228,-0.050420284,-0.037983894,-0.023433685,-0.021336079,0.0,0.0,0.0,0.0,0.0,0.0,0.0,0.0,0.046340942,0.0,0.0,nan,0.0,0.0,0.015656233,0.0041290745,0.00017014146,0.0010524392,0.0,0.0,0.0,0.0,0.0,0.0
21741656000,21741576000,-0.022277117,-0.03624177,-0.08066273,-0.020821095,-0.0009303093,0.0,0.0,0.0,0.0,0.0,0.0,0.0,0.0,0.08151245,0.0,0.0,nan,0.0,0.0,0.015656233,-0.0005242899,0.00042316318,-0.0012172759,0.0,0.0,0.0,0.0,0.0,0.0
21742160000,21742080000,0.010580301,-0.024915934,-0.0206244,-0.006149292,-0.0020928383,0.0,0.0,0.0,0.0,0.0,0.0,0.0,0.0,0.3143158,0.0,0.0,nan,0.0,0.0,0.015656233,0.0014706776,-0.0003592372,-0.004758239,0.0,0.0,0.0,0.0,0.0,0.0
21742656000,21742576000,-0.022758245,-0.050469875,0.009733677,-0.008346558,-0.011756897,0.0,0.0,0.0,0.0,0.0,0.0,0.0,0.0,0.15740967,0.0,0.0,nan,0.0,0.0,0.015656233,0.00094323605,-0.0012888312,6.684661e-05,0.0,0.0,0.0,0.0,0.0,0.0
21743152000,21743072000,-0.011715412,-0.028417587,-0.038083553,-0.0010137558,-0.0321064,0.0,0.0,0.0,0.0,0.0,0.0,0.0,0.0,0.12289429,0.0,0.0,nan,0.0,0.0,0.015656233,-0.00642965,-0.0018391162,-0.00021287799,0.0,0.0,0.0,0.0,0.0,0.0
21743656000,21743576000,-0.02360034,-0.040097713,-0.057673454,0.022812843,-0.050783157,0.0,0.0,0.0,0.0,0.0,0.0,0.0,0.0,0.08001709,0.0,0.0,nan,0.0,0.0,0.015656233,0.0015751421,0.00017151237,-6.964803e-05,0.0,0.0,0.0,0.0,0.0,0.0
21744160000,21744080000,0.028770924,-0.021104336,0.037624836,0.015189171,-0.016834259,0.0,0.0,0.0,0.0,0.0,0.0,0.0,0.0,0.16339111,0.0,0.0,nan,0.0,0.0,0.015656233,0.001837641,-0.0046830326,-0.0020765364,0.0,0.0,0.0,0.0,0.0,0.0
21744656000,21744576000,0.002001524,-0.014739037,-0.007050991,0.040643692,-0.07799721,0.0,0.0,0.0,0.0,0.0,0.0,0.0,0.0,0.122543335,0.0,0.0,nan,0.0,0.0,0.015656233,0.0010284856,-0.0013831109,-0.0013012886,0.0,0.0,0.0,0.0,0.0,0.0
21745152000,21745072000,0.0045030117,-0.006974697,-0.034334183,0.028704643,-0.04260826,0.0,0.0,0.0,0.0,0.0,0.0,0.0,0.0,0.18379211,0.0,0.0,nan,0.0,0.0,0.015656233,-0.0005456656,-0.005186066,-0.004182905,0.0,0.0,0.0,0.0,0.0,0.0
21745656000,21745576000,0.005694866,-0.038499832,-0.07497406,0.038217545,-0.051433563,0.0,0.0,0.0,0.0,0.0,0.0,0.0,0.0,0.07312012,0.0,0.0,nan,0.0,0.0,0.014976025,-0.0018031374,0.00014601648,0.0002541244,0.0,0.0,0.0,0.0,0.0,0.0
21746160000,21746080000,0.012754679,-0.009534836,-0.041904926,0.06336117,-0.0947361,0.0,0.0,0.0,0.0,0.0,0.0,0.0,0.0,0.09013367,0.0,0.0,nan,0.0,0.0,0.0033267736,-0.0018031374,0.00014601648,0.0002541244,0.0,0.0,0.0,0.0,0.0,0.0
21746656000,21746576000,-0.006041527,-0.005712509,-0.011053085,0.03798294,-0.042676926,0.0,0.0,0.0,0.0,0.0,0.0,0.0,0.0,0.04937744,0.0,0.0,nan,0.0,0.0,-0.008944392,-0.0018031374,0.00014601648,0.0002541244,0.0,0.0,0.0,0.0,0.0,0.0
21747160000,21747080000,0.0005738735,-0.03798437,0.038698196,0.04115486,-0.045013428,0.0,0.0,0.0,0.0,0.0,0.0,0.0,0.0,0.08782959,0.0,0.0,nan,0.0,0.0,0.0013113022,-0.0018031374,0.00014601648,0.0002541244,0.0,0.0,0.0,0.0,0.0,0.0
21747656000,21747576000,0.026956081,-0.024745941,-0.07446289,0.06381607,-0.06265259,0.0,0.0,0.0,0.0,0.0,0.0,0.0,0.0,0.021240234,0.0,0.0,nan,0.0,0.0,-0.0016998053,-0.0018031374,0.00014601648,0.0002541244,0.0,0.0,0.0,0.0,0.0,0.0
21748160000,21748080000,0.026427507,0.0054736137,-5.6266785e-05,0.06293297,-0.067108154,0.0,0.0,0.0,0.0,0.0,0.0,0.0,0.0,0.09463501,0.0,0.0,nan,0.0,0.0,-0.0077301264,-0.0018031374,0.00014601648,0.0002541244,0.0,0.0,0.0,0.0,0.0,0.0
21748656000,21748576000,0.028235912,0.0061602592,-0.063819885,0.06339836,-0.07260132,0.0,0.0,0.0,0.0,0.0,0.0,0.0,0.0,0.019683838,0.0,0.0,nan,0.0,0.0,-0.00680387,-0.0018031374,0.00014601648,0.0002541244,0.0,0.0,0.0,0.0,0.0,0.0
21749160000,21749080000,0.028610706,0.0074882507,-0.02313137,0.056432724,-0.052913666,0.0,0.0,0.0,0.0,0.0,0.0,0.0,0.0,0.012069702,0.0,0.0,nan,0.0,0.0,-0.0077590942,-0.0018031374,0.00014601648,0.0002541244,0.0,0.0,0.0,0.0,0.0,0.0
21749656000,21749576000,-0.0107905865,-0.0077781677,-0.040222168,0.07076645,-0.06951141,0.0,0.0,0.0,0.0,0.0,0.0,0.0,0.0,0.007095337,0.0,0.0,nan,0.0,0.0,0.0035709143,-0.0018031374,0.00014601648,0.0002541244,0.0,0.0,0.0,0.0,0.0,0.0
21750160000,21750080000,0.03126502,-0.010309219,-0.031045914,0.09406853,-0.098335266,0.0,0.0,0.0,0.0,0.0,0.0,0.0,0.0,-0.065338135,0.0,0.0,nan,0.0,0.0,-0.0055042505,-0.0018031374,0.00014601648,0.0002541244,0.0,0.0,0.0,0.0,0.0,0.0
21750656000,21750576000,0.0048971176,0.001405716,-0.04505205,0.062152863,-0.07033157,0.0,0.0,0.0,0.0,0.0,0.0,0.0,0.0,0.06930542,0.0,0.0,nan,0.0,0.0,-0.0035834312,-0.0018031374,0.00014601648,0.0002541244,0.0,0.0,0.0,0.0,0.0,0.0
21751160000,21751080000,0.0012722015,-0.01069212,0.0027637482,0.08445549,-0.093315125,0.0,0.0,0.0,0.0,0.0,0.0,0.0,0.0,-0.017684937,0.0,0.0,nan,0.0,0.0,-0.0018355846,-0.0018031374,0.00014601648,0.0002541244,0.0,0.0,0.0,0.0,0.0,0.0
21751656000,21751576000,-0.01630354,-0.0016446114,-0.028986454,0.05377388,-0.044315338,0.0,0.0,0.0,0.0,0.0,0.0,0.0,0.0,0.07601929,0.0,0.0,nan,0.0,0.0,-0.004425049,-0.0018031374,0.00014601648,0.0002541244,0.0,0.0,0.0,0.0,0.0,0.0
21752160000,21752080000,-0.0036435127,-0.013072491,-0.0002412796,0.05036354,-0.04971695,0.0,0.0,0.0,0.0,0.0,0.0,0.0,0.0,0.030654907,0.0,0.0,nan,0.0,0.0,-0.010782957,-0.0018031374,0.00014601648,0.0002541244,0.0,0.0,0.0,0.0,0.0,0.0
21752656000,21752576000,-0.027410746,-0.0150818825,-0.014100552,0.06888962,-0.09347153,0.0,0.0,0.0,0.0,0.0,0.0,0.0,0.0,-0.08755493,0.0,0.0,nan,0.0,0.0,-0.009569049,-0.0018031374,0.00014601648,0.0002541244,0.0,0.0,0.0,0.0,0.0,0.0
21753160000,21753080000,-0.025259256,-0.0054736137,0.04439354,0.051605225,-0.06439209,0.0,0.0,0.0,0.0,0.0,0.0,0.0,0.0,0.100479126,0.0,0.0,nan,0.0,0.0,-0.0055998564,-0.0018031374,0.00014601648,0.0002541244,0.0,0.0,0.0,0.0,0.0,0.0
21753656000,21753576000,-0.022140503,-0.0011081696,0.028252125,0.05664444,-0.065093994,0.0,0.0,0.0,0.0,0.0,0.0,0.0,0.0,0.018249512,0.0,0.0,nan,0.0,0.0,0.0038753748,-0.0018031374,0.00014601648,0.0002541244,0.0,0.0,0.0,0.0,0.0,0.0
21754160000,21754080000,-0.05277896,0.017019272,0.04969406,0.04322052,-0.06502533,0.0,0.0,0.0,0.0,0.0,0.0,0.0,0.0,0.14834595,0.0,0.0,nan,0.0,0.0,-0.009186983,-0.0018031374,0.00014601648,0.0002541244,0.0,0.0,0.0,0.0,0.0,0.0
21754656000,21754576000,-0.017246723,0.030320168,-0.01994276,0.034820557,-0.03604126,0.0,0.0,0.0,0.0,0.0,0.0,0.0,0.0,-0.007873535,0.0,0.0,nan,0.0,0.0,-0.003749609,-0.0018031374,0.00014601648,0.0002541244,0.0,0.0,0.0,0.0,0.0,0.0
21755152000,21755072000,-0.0420928,0.020070076,0.06857538,0.049915314,-0.0593338,0.0,0.0,0.0,0.0,0.0,0.0,0.0,0.0,0.034957886,0.0,0.0,nan,0.0,0.0,-0.011036277,-0.0018031374,0.00014601648,0.0002541244,0.0,0.0,0.0,0.0,0.0,0.0
21755656000,21755576000,-0.06213069,0.03413534,0.041757107,0.028549194,-0.048072815,0.0,0.0,0.0,0.0,0.0,0.0,0.0,0.0,0.07748413,0.0,0.0,nan,0.0,0.0,-0.000936985,-0.0018031374,0.00014601648,0.0002541244,0.0,0.0,0.0,0.0,0.0,0.0
21756160000,21756080000,-0.05556059,0.02545023,0.081644535,0.059711456,-0.098724365,0.0,0.0,0.0,0.0,0.0,0.0,0.0,0.0,0.06329346,0.0,0.0,nan,0.0,0.0,-0.0019481182,-0.0018031374,0.00014601648,0.0002541244,0.0,0.0,0.0,0.0,0.0,0.0
21756656000,21756576000,-0.057180643,0.02296877,0.08329821,0.0260849,-0.05545807,0.0,0.0,0.0,0.0,0.0,0.0,0.0,0.0,0.02909851,0.0,0.0,nan,0.0,0.0,0.0048069954,-0.0018031374,0.00014601648,0.0002541244,0.0,0.0,0.0,0.0,0.0,0.0
21757152000,21757072000,-0.051425457,0.016408443,0.08702898,0.03227997,-0.046310425,0.0,0.0,0.0,0.0,0.0,0.0,0.0,0.0,0.021652222,0.0,0.0,nan,0.0,0.0,-0.0058751106,-0.0018031374,0.00014601648,0.0002541244,0.0,0.0,0.0,0.0,0.0,0.0
21757656000,21757576000,-0.039418936,0.013994217,0.09404898,0.029670715,-0.046089172,0.0,0.0,0.0,0.0,0.0,0.0,0.0,0.0,0.09477234,0.0,0.0,nan,0.0,0.0,-0.0036683083,-0.0018031374,0.00014601648,0.0002541244,0.0,0.0,0.0,0.0,0.0,0.0
21758152000,21758072000,-0.046885014,0.020679474,0.08155298,0.055625916,-0.09139252,0.0,0.0,0.0,0.0,0.0,0.0,0.0,0.0,0.15184021,0.0,0.0,nan,0.0,0.0,-0.009555817,-0.0018031374,0.00014601648,0.0002541244,0.0,0.0,0.0,0.0,0.0,0.0
21758656000,21758576000,-0.03327298,-0.014942169,0.08874369,0.045448303,-0.07476807,0.0,0.0,0.0,0.0,0.0,0.0,0.0,0.0,0.01335144,0.0,0.0,nan,0.0,0.0,0.010372639,-0.0018031374,0.00014601648,0.0002541244,0.0,0.0,0.0,0.0,0.0,0.0
21759152000,21759072000,-0.022403479,-0.029955387,0.032993793,0.021831512,-0.048667908,0.0,0.0,0.0,0.0,0.0,0.0,0.0,0.0,-0.05961609,0.0,0.0,nan,0.0,0.0,-0.0041507483,-0.0018031374,0.00014601648,0.0002541244,0.0,0.0,0.0,0.0,0.0,0.0
21759656000,21759576000,-0.028243065,-0.008636475,0.090060234,0.03685379,-0.05554962,0.0,0.0,0.0,0.0,0.0,0.0,0.0,0.0,0.11477661,0.0,0.0,nan,0.0,0.0,-0.015529513,-0.0018031374,0.00014601648,0.0002541244,0.0,0.0,0.0,0.0,0.0,0.0
21760152000,21760072000,-0.00695467,0.02278471,0.11536169,0.04486847,-0.066078186,0.0,0.0,0.0,0.0,0.0,0.0,0.0,0.0,0.09529114,0.0,0.0,nan,0.0,0.0,-0.009110212,-0.0018031374,0.00014601648,0.0002541244,0.0,0.0,0.0,0.0,0.0,0.0
21760656000,21760576000,-0.013091803,0.035652637,0.14403105,0.037651062,-0.061027527,0.0,0.0,0.0,0.0,0.0,0.0,0.0,0.0,0.05809021,0.0,0.0,nan,0.0,0.0,0.0029553175,-0.0018031374,0.00014601648,0.0002541244,0.0,0.0,0.0,0.0,0.0,0.0
21761160000,21761080000,0.011441469,0.023999214,0.0804162,0.03829956,-0.061904907,0.0,0.0,0.0,0.0,0.0,0.0,0.0,0.0,0.053466797,0.0,0.0,nan,0.0,0.0,0.0005246401,-0.0018031374,0.00014601648,0.0002541244,0.0,0.0,0.0,0.0,0.0,0.0
21761656000,21761576000,-0.007502556,0.018816948,0.06962061,0.03453827,-0.058746338,0.0,0.0,0.0,0.0,0.0,0.0,0.0,0.0,-0.0018615723,0.0,0.0,nan,0.0,0.0,0.005478382,-0.0018031374,0.00014601648,0.0002541244,0.0,0.0,0.0,0.0,0.0,0.0
21762152000,21762072000,-0.01168704,0.032569885,0.08859062,0.040683746,-0.08204651,0.0,0.0,0.0,0.0,0.0,0.0,0.0,0.0,0.18341064,0.0,0.0,nan,0.0,0.0,0.021703005,-0.0018031374,0.00014601648,0.0002541244,0.0,0.0,0.0,0.0,0.0,0.0
21762656000,21762576000,-0.023589134,0.047472477,0.07401419,0.023002625,-0.059318542,0.0,0.0,0.0,0.0,0.0,0.0,0.0,0.0,0.17529297,0.0,0.0,nan,0.0,0.0,-0.018822908,-0.0018031374,0.00014601648,0.0002541244,0.0,0.0,0.0,0.0,0.0,0.0
21763160000,21763080000,-0.0075473785,0.0066809654,0.016719818,0.040885925,-0.06188202,0.0,0.0,0.0,0.0,0.0,0.0,0.0,0.0,0.28411865,0.0,0.0,nan,0.0,0.0,-0.038021564,-0.0018031374,0.00014601648,0.0002541244,0.0,0.0,0.0,0.0,0.0,0.0
21763656000,21763576000,0.008103371,0.034646988,0.057739258,0.050994873,-0.05165863,0.0,0.0,0.0,0.0,0.0,0.0,0.0,0.0,0.18457031,0.0,0.0,nan,0.0,0.0,0.004656315,-0.0018031374,0.00014601648,0.0002541244,0.0,0.0,0.0,0.0,0.0,0.0
21764152000,21764072000,-0.0024368763,0.024611473,0.065300465,0.03945923,-0.05303192,0.0,0.0,0.0,0.0,0.0,0.0,0.0,0.0,0.14160156,0.0,0.0,nan,0.0,0.0,-0.004791856,-0.0018031374,0.00014601648,0.0002541244,0.0,0.0,0.0,0.0,0.0,0.0
21764656000,21764576000,0.003697157,0.013189316,0.025259018,0.041252136,-0.024719238,0.0,0.0,0.0,0.0,0.0,0.0,0.0,0.0,0.054992676,0.0,0.0,nan,0.0,0.0,0.0030732155,-0.0018031374,0.00014601648,0.0002541244,0.0,0.0,0.0,0.0,0.0,0.0
21765160000,21765080000,0.028104305,0.0018978119,0.044336796,0.043159485,-0.026023865,0.0,0.0,0.0,0.0,0.0,0.0,0.0,0.0,0.1836853,0.0,0.0,nan,0.0,0.0,-0.011910439,-0.0018031374,0.00014601648,0.0002541244,0.0,0.0,0.0,0.0,0.0,0.0
21765656000,21765576000,-0.006686926,0.02375269,0.058931828,0.069633484,-0.065338135,0.0,0.0,0.0,0.0,0.0,0.0,0.0,0.0,0.11917114,0.0,0.0,nan,0.0,0.0,-0.006644726,-0.0018031374,0.00014601648,0.0002541244,0.0,0.0,0.0,0.0,0.0,0.0
21766160000,21766080000,0.008500814,0.020344257,0.010507584,0.076408386,-0.05949402,0.0,0.0,0.0,0.0,0.0,0.0,0.0,0.0,0.19270325,0.0,0.0,nan,0.0,0.0,0.0043371916,-0.0018031374,0.00014601648,0.0002541244,0.0,0.0,0.0,0.0,0.0,0.0
21766656000,21766576000,0.0039012432,-0.004152298,0.053362846,0.05758667,-0.066345215,0.0,0.0,0.0,0.0,0.0,0.0,0.0,0.0,0.12539673,0.0,0.0,nan,0.0,0.0,0.00172472,-0.0018031374,0.00014601648,0.0002541244,0.0,0.0,0.0,0.0,0.0,0.0
21767160000,21767080000,0.00048303604,0.026245117,-0.0030269623,0.03491974,-0.03036499,0.0,0.0,0.0,0.0,0.0,0.0,0.0,0.0,0.1040802,0.0,0.0,nan,0.0,0.0,-0.022512078,-0.0018031374,0.00014601648,0.0002541244,0.0,0.0,0.0,0.0,0.0,0.0
21767656000,21767576000,-0.0009379387,-0.0055508614,0.07780886,0.057388306,-0.063949585,0.0,0.0,0.0,0.0,0.0,0.0,0.0,0.0,0.060821533,0.0,0.0,nan,0.0,0.0,-0.010622144,-0.0018031374,0.00014601648,0.0002541244,0.0,0.0,0.0,0.0,0.0,0.0
21768160000,21768080000,-0.005530596,-0.004919052,0.016522408,0.057296753,-0.07284546,0.0,0.0,0.0,0.0,0.0,0.0,0.0,0.0,0.15074158,0.0,0.0,nan,0.0,0.0,0.0042852163,-0.0018031374,0.00014601648,0.0002541244,0.0,0.0,0.0,0.0,0.0,0.0
21768656000,21768576000,-0.0007812977,-0.016740322,0.08674383,0.04193878,-0.05355835,0.0,0.0,0.0,0.0,0.0,0.0,0.0,0.0,0.12387085,0.0,0.0,nan,0.0,0.0,-0.014759421,-0.0018031374,0.00014601648,0.0002541244,0.0,0.0,0.0,0.0,0.0,0.0
21769152000,21769072000,-0.015164852,-0.031354427,0.014680862,0.033859253,-0.05644226,0.0,0.0,0.0,0.0,0.0,0.0,0.0,0.0,0.14428711,0.0,0.0,nan,0.0,0.0,-0.0058169365,-0.0018031374,0.00014601648,0.0002541244,0.0,0.0,0.0,0.0,0.0,0.0
21769656000,21769576000,-0.01210618,-0.016078949,0.051188946,0.058509827,-0.07336426,0.0,0.0,0.0,0.0,0.0,0.0,0.0,0.0,-0.01739502,0.0,0.0,nan,0.0,0.0,-0.01009047,-0.0018031374,0.00014601648,0.0002541244,0.0,0.0,0.0,0.0,0.0,0.0
21770160000,21770080000,-0.0015494823,0.0020570755,0.047321796,0.06289673,-0.08718872,0.0,0.0,0.0,0.0,0.0,0.0,0.0,0.0,0.14297485,0.0,0.0,nan,0.0,0.0,0.011731267,-0.0018031374,0.00014601648,0.0002541244,0.0,0.0,0.0,0.0,0.0,0.0
21770656000,21770576000,-4.2915344e-05,-0.037210464,0.039019585,0.03842926,-0.048858643,0.0,0.0,0.0,0.0,0.0,0.0,0.0,0.0,0.063430786,0.0,0.0,nan,0.0,0.0,-0.0066803694,-0.0018031374,0.00014601648,0.0002541244,0.0,0.0,0.0,0.0,0.0,0.0
21771160000,21771080000,0.022096872,-0.026751518,-0.0054073334,0.036109924,-0.047958374,0.0,0.0,0.0,0.0,0.0,0.0,0.0,0.0,0.03416443,0.0,0.0,nan,0.0,0.0,0.013068557,-0.0018031374,0.00014601648,0.0002541244,0.0,0.0,0.0,0.0,0.0,0.0
21771656000,21771576000,0.018018961,-0.04446888,0.025697231,0.04233551,-0.07086182,0.0,0.0,0.0,0.0,0.0,0.0,0.0,0.0,0.079574585,0.0,0.0,nan,0.0,0.0,0.017842889,-0.0018031374,0.00014601648,0.0002541244,0.0,0.0,0.0,0.0,0.0,0.0
21772160000,21772080000,0.033237457,-0.03307581,-0.008760929,0.05695343,-0.09376526,0.0,0.0,0.0,0.0,0.0,0.0,0.0,0.0,0.05229187,0.0,0.0,nan,0.0,0.0,-0.011767387,-0.0018031374,0.00014601648,0.0002541244,0.0,0.0,0.0,0.0,0.0,0.0
21772656000,21772576000,0.009595156,-0.051727295,-0.0062913895,0.04334259,-0.07904053,0.0,0.0,0.0,0.0,0.0,0.0,0.0,0.0,0.015594482,0.0,0.0,nan,0.0,0.0,-0.0015559196,-0.0018031374,0.00014601648,0.0002541244,0.0,0.0,0.0,0.0,0.0,0.0
21773160000,21773080000,0.011156082,-0.03015709,0.033109188,0.054893494,-0.09283447,0.0,0.0,0.0,0.0,0.0,0.0,0.0,0.0,0.035247803,0.0,0.0,nan,0.0,0.0,0.019506693,-0.0018031374,0.00014601648,0.0002541244,0.0,0.0,0.0,0.0,0.0,0.0
21773656000,21773576000,-0.025568008,-0.043443203,-0.012390614,0.043289185,-0.08416748,0.0,0.0,0.0,0.0,0.0,0.0,0.0,0.0,0.09408569,0.0,0.0,nan,0.0,0.0,-0.0055458546,-0.0018031374,0.00014601648,0.0002541244,0.0,0.0,0.0,0.0,0.0,0.0
21774160000,21774080000,0.0072016716,-0.016516685,-0.009384632,0.0694046,-0.10948181,0.0,0.0,0.0,0.0,0.0,0.0,0.0,0.0,0.021453857,0.0,0.0,nan,0.0,0.0,0.014829516,-0.0018031374,0.00014601648,0.0002541244,0.0,0.0,0.0,0.0,0.0,0.0
21774656000,21774576000,0.0043649673,-0.018566608,-0.02584982,0.054504395,-0.086135864,0.0,0.0,0.0,0.0,0.0,0.0,0.0,0.0,-0.03945923,0.0,0.0,nan,0.0,0.0,-0.012827873,-0.0018031374,0.00014601648,0.0002541244,0.0,0.0,0.0,0.0,0.0,0.0
21775160000,21775080000,0.017347574,-0.06544876,-0.03859234,0.0515213,-0.09359741,0.0,0.0,0.0,0.0,0.0,0.0,0.0,0.0,0.0041503906,0.0,0.0,nan,0.0,0.0,0.0074573755,-0.0018031374,0.00014601648,0.0002541244,0.0,0.0,0.0,0.0,0.0,0.0
21775656000,21775576000,0.009296417,-0.028564453,-0.022605896,0.052001953,-0.08457947,0.0,0.0,0.0,0.0,0.0,0.0,0.0,0.0,-0.0068359375,0.0,0.0,nan,0.0,0.0,0.0020080805,-0.0018031374,0.00014601648,0.0002541244,0.0,0.0,0.0,0.0,0.0,0.0
21776152000,21776072000,-0.003941536,-0.038116932,-0.054759502,0.048851013,-0.09649658,0.0,0.0,0.0,0.0,0.0,0.0,0.0,0.0,-0.04699707,0.0,0.0,nan,0.0,0.0,0.00076401234,-0.0018031374,0.00014601648,0.0002541244,0.0,0.0,0.0,0.0,0.0,0.0
21776656000,21776576000,-0.019313812,-0.02284336,-0.06110525,0.038894653,-0.06298828,0.0,0.0,0.0,0.0,0.0,0.0,0.0,0.0,-0.052993774,0.0,0.0,nan,0.0,0.0,0.011109948,-0.0018031374,0.00014601648,0.0002541244,0.0,0.0,0.0,0.0,0.0,0.0
21777152000,21777072000,-0.016933441,-0.02740097,-0.022520542,0.05417633,-0.08856201,0.0,0.0,0.0,0.0,0.0,0.0,0.0,0.0,0.06840515,0.0,0.0,nan,0.0,0.0,0.0047342777,-0.0018031374,0.00014601648,0.0002541244,0.0,0.0,0.0,0.0,0.0,0.0
21777656000,21777576000,0.0002875328,-0.047896862,-0.08818579,0.06185913,-0.13104248,0.0,0.0,0.0,0.0,0.0,0.0,0.0,0.0,-0.12712097,0.0,0.0,nan,0.0,0.0,0.004352212,-0.0018031374,0.00014601648,0.0002541244,0.0,0.0,0.0,0.0,0.0,0.0
21778160000,21778080000,-0.025571108,-0.04769039,-0.054462433,0.048324585,-0.12445068,0.0,0.0,0.0,0.0,0.0,0.0,0.0,0.0,0.012863159,0.0,0.0,nan,0.0,0.0,-0.003839016,-0.0018031374,0.00014601648,0.0002541244,0.0,0.0,0.0,0.0,0.0,0.0
21778656000,21778576000,0.005063772,-0.042995453,-0.016166687,0.026023865,-0.05543518,0.0,0.0,0.0,0.0,0.0,0.0,0.0,0.0,0.082977295,0.0,0.0,nan,0.0,0.0,-0.018028855,-0.0018031374,0.00014601648,0.0002541244,0.0,0.0,0.0,0.0,0.0,0.0
21779160000,21779080000,-0.021428585,-0.07635355,-0.046583176,0.04902649,-0.12486267,0.0,0.0,0.0,0.0,0.0,0.0,0.0,0.0,-0.11399841,0.0,0.0,nan,0.0,0.0,0.0006287098,-0.0018031374,0.00014601648,0.0002541244,0.0,0.0,0.0,0.0,0.0,0.0
21779656000,21779576000,-0.010282278,-0.0062417984,-0.09405947,0.02619934,-0.06265259,0.0,0.0,0.0,0.0,0.0,0.0,0.0,0.0,-0.013000488,0.0,0.0,nan,0.0,0.0,-0.007873297,-0.0018031374,0.00014601648,0.0002541244,0.0,0.0,0.0,0.0,0.0,0.0
21780160000,21780080000,0.015886068,-0.0415287,-0.07997656,0.051208496,-0.11462402,0.0,0.0,0.0,0.0,0.0,0.0,0.0,0.0,-0.058639526,0.0,0.0,nan,0.0,0.0,-0.0068950653,-0.0018031374,0.00014601648,0.0002541244,0.0,0.0,0.0,0.0,0.0,0.0
21780656000,21780576000,-0.02261138,-0.026221752,-0.06361723,0.02153778,-0.06881714,0.0,0.0,0.0,0.0,0.0,0.0,0.0,0.0,-0.023956299,0.0,0.0,nan,0.0,0.0,-0.036809206,-0.0018031374,0.00014601648,0.0002541244,0.0,0.0,0.0,0.0,0.0,0.0
21781160000,21781080000,-0.035170794,-0.059502125,-0.06943083,0.019477844,-0.07167053,0.0,0.0,0.0,0.0,0.0,0.0,0.0,0.0,-0.053146362,0.0,0.0,nan,0.0,0.0,-0.010718465,-0.0018031374,0.00014601648,0.0002541244,0.0,0.0,0.0,0.0,0.0,0.0
21781656000,21781576000,-0.03521228,-0.011717796,-0.02703619,0.040924072,-0.09239197,0.0,0.0,0.0,0.0,0.0,0.0,0.0,0.0,0.032043457,0.0,0.0,nan,0.0,0.0,0.0035988092,-0.0018031374,0.00014601648,0.0002541244,0.0,0.0,0.0,0.0,0.0,0.0
21782160000,21782080000,0.020650387,-0.042267323,-0.00093364716,0.034606934,-0.06365967,0.0,0.0,0.0,0.0,0.0,0.0,0.0,0.0,-0.13180542,0.0,0.0,nan,0.0,0.0,-0.007968545,-0.0018031374,0.00014601648,0.0002541244,0.0,0.0,0.0,0.0,0.0,0.0
21782656000,21782576000,-0.02446723,-0.048291683,-0.03391552,0.03261566,-0.09005737,0.0,0.0,0.0,0.0,0.0,0.0,0.0,0.0,-0.03163147,0.0,0.0,nan,0.0,0.0,-0.019764066,-0.0018031374,0.00014601648,0.0002541244,0.0,0.0,0.0,0.0,0.0,0.0
21783160000,21783080000,-0.028161287,-0.019773006,-0.032432556,0.025848389,-0.07829285,0.0,0.0,0.0,0.0,0.0,0.0,0.0,0.0,-0.10713196,0.0,0.0,nan,0.0,0.0,-0.012356997,-0.0018031374,0.00014601648,0.0002541244,0.0,0.0,0.0,0.0,0.0,0.0
21783656000,21783576000,0.019108534,-0.0027108192,0.0022921562,0.051834106,-0.104263306,0.0,0.0,0.0,0.0,0.0,0.0,0.0,0.0,-0.007858276,0.0,0.0,nan,0.0,0.0,-0.0011073351,-0.0018031374,0.00014601648,0.0002541244,0.0,0.0,0.0,0.0,0.0,0.0
21784160000,21784080000,-0.028024197,-0.01101923,0.04544592,0.024627686,-0.056488037,0.0,0.0,0.0,0.0,0.0,0.0,0.0,0.0,-0.019226074,0.0,0.0,nan,0.0,0.0,-0.00341475,-0.0018031374,0.00014601648,0.0002541244,0.0,0.0,0.0,0.0,0.0,0.0
21784656000,21784576000,-0.017726898,-0.0022153854,0.011422157,0.035873413,-0.06903076,0.0,0.0,0.0,0.0,0.0,0.0,0.0,0.0,-0.059524536,0.0,0.0,nan,0.0,0.0,-0.0046168566,-0.0018031374,0.00014601648,0.0002541244,0.0,0.0,0.0,0.0,0.0,0.0
21785152000,21785072000,-0.04577422,-0.027420998,0.031792164,0.039855957,-0.07633972,0.0,0.0,0.0,0.0,0.0,0.0,0.0,0.0,-0.03173828,0.0,0.0,nan,0.0,0.0,-0.00816834,-0.0018031374,0.00014601648,0.0002541244,0.0,0.0,0.0,0.0,0.0,0.0
21785656000,21785576000,-0.01100111,-0.0033421516,0.09772444,0.060150146,-0.10154724,0.0,0.0,0.0,0.0,0.0,0.0,0.0,0.0,0.09979248,0.0,0.0,nan,0.0,0.0,-0.008828759,-0.0018031374,0.00014601648,0.0002541244,0.0,0.0,0.0,0.0,0.0,0.0
21786160000,21786080000,-0.0030515194,0.027826786,0.059016228,0.055618286,-0.09832764,0.0,0.0,0.0,0.0,0.0,0.0,0.0,0.0,0.032043457,0.0,0.0,nan,0.0,0.0,-0.0040084124,-0.0018031374,0.00014601648,0.0002541244,0.0,0.0,0.0,0.0,0.0,0.0
21786656000,21786576000,-0.005744219,-0.013249397,0.05348158,0.025283813,-0.061645508,0.0,0.0,0.0,0.0,0.0,0.0,0.0,0.0,0.04776001,0.0,0.0,nan,0.0,0.0,-0.011141658,-0.0018031374,0.00014601648,0.0002541244,0.0,0.0,0.0,0.0,0.0,0.0
21787160000,21787080000,-0.018166065,0.0062880516,0.072797775,0.022369385,-0.059432983,0.0,0.0,0.0,0.0,0.0,0.0,0.0,0.0,0.042938232,0.0,0.0,nan,0.0,0.0,0.0014414787,-0.0018031374,0.00014601648,0.0002541244,0.0,0.0,0.0,0.0,0.0,0.0
21787656000,21787576000,0.03937745,0.00472641,0.08782196,0.062805176,-0.10508728,0.0,0.0,0.0,0.0,0.0,0.0,0.0,0.0,0.110839844,0.0,0.0,nan,0.0,0.0,-0.004562378,-0.0018031374,0.00014601648,0.0002541244,0.0,0.0,0.0,0.0,0.0,0.0
21788152000,21788072000,-0.0149617195,0.031190872,0.05526066,0.04283142,-0.09751892,0.0,0.0,0.0,0.0,0.0,0.0,0.0,0.0,0.12033081,0.0,0.0,nan,0.0,0.0,-0.021764398,-0.0018031374,0.00014601648,0.0002541244,0.0,0.0,0.0,0.0,0.0,0.0
21788656000,21788576000,0.022238016,0.01422596,0.063631535,0.02835083,-0.07797241,0.0,0.0,0.0,0.0,0.0,0.0,0.0,0.0,-0.005584717,0.0,0.0,nan,0.0,0.0,-0.0016709566,-0.0018031374,0.00014601648,0.0002541244,0.0,0.0,0.0,0.0,0.0,0.0
21789152000,21789072000,-0.011425018,0.004298687,0.084582806,0.022277832,-0.058166504,0.0,0.0,0.0,0.0,0.0,0.0,0.0,0.0,0.098358154,0.0,0.0,nan,0.0,0.0,-0.013320804,-0.0018031374,0.00014601648,0.0002541244,0.0,0.0,0.0,0.0,0.0,0.0
21789656000,21789576000,0.026453972,-0.00032663345,0.12172747,0.036865234,-0.058761597,0.0,0.0,0.0,0.0,0.0,0.0,0.0,0.0,0.04434204,0.0,0.0,nan,0.0,0.0,-0.0099128485,-0.0018031374,0.00014601648,0.0002541244,0.0,0.0,0.0,0.0,0.0,0.0
21790160000,21790080000,0.023565054,0.0012040138,0.056956768,0.04359436,-0.08074951,0.0,0.0,0.0,0.0,0.0,0.0,0.0,0.0,0.114868164,0.0,0.0,nan,0.0,0.0,-0.010544062,-0.0018031374,0.00014601648,0.0002541244,0.0,0.0,0.0,0.0,0.0,0.0
21790656000,21790576000,0.007622957,0.0039029121,0.045714855,0.04397583,-0.07687378,0.0,0.0,0.0,0.0,0.0,0.0,0.0,0.0,0.16043091,0.0,0.0,nan,0.0,0.0,-0.011713862,-0.0018031374,0.00014601648,0.0002541244,0.0,0.0,0.0,0.0,0.0,0.0
21791152000,21791072000,0.023511648,0.015621662,0.070019245,0.038238525,-0.078125,0.0,0.0,0.0,0.0,0.0,0.0,0.0,0.0,0.10568237,0.0,0.0,nan,0.0,0.0,-0.011834979,-0.0018031374,0.00014601648,0.0002541244,0.0,0.0,0.0,0.0,0.0,0.0
21791656000,21791576000,-0.011621714,0.008139133,0.10750151,0.065704346,-0.1211853,0.0,0.0,0.0,0.0,0.0,0.0,0.0,0.0,0.018066406,0.0,0.0,nan,0.0,0.0,0.0023255348,-0.0018031374,0.00014601648,0.0002541244,0.0,0.0,0.0,0.0,0.0,0.0
21792152000,21792072000,-1.859665e-05,0.0011358261,0.01326561,0.030471802,-0.07284546,0.0,0.0,0.0,0.0,0.0,0.0,0.0,0.0,0.07406616,0.0,0.0,nan,0.0,0.0,-0.00082564354,-0.0018031374,0.00014601648,0.0002541244,0.0,0.0,0.0,0.0,0.0,0.0
21792656000,21792576000,-0.023457527,-0.01670599,0.0852046,0.03050232,-0.07687378,0.0,0.0,0.0,0.0,0.0,0.0,0.0,0.0,0.16525269,0.0,0.0,nan,0.0,0.0,-0.022356272,-0.0018031374,0.00014601648,0.0002541244,0.0,0.0,0.0,0.0,0.0,0.0
21793152000,21793072000,-0.013516188,-0.032431126,0.04294443,0.031555176,-0.06958008,0.0,0.0,0.0,0.0,0.0,0.0,0.0,0.0,0.13388062,0.0,0.0,nan,0.0,0.0,-0.0016641617,-0.0018031374,0.00014601648,0.0002541244,0.0,0.0,0.0,0.0,0.0,0.0
21793656000,21793576000,-0.0015463829,-0.007082939,0.087156296,0.01171875,-0.029846191,0.0,0.0,0.0,0.0,0.0,0.0,0.0,0.0,0.054840088,0.0,0.0,nan,0.0,0.0,0.013396621,-0.0018031374,0.00014601648,0.0002541244,0.0,0.0,0.0,0.0,0.0,0.0
21794152000,21794072000,-0.01574564,-0.018702984,0.08720827,0.029342651,-0.061401367,0.0,0.0,0.0,0.0,0.0,0.0,0.0,0.0,0.12585449,0.0,0.0,nan,0.0,0.0,-0.0021748543,-0.0018031374,0.00014601648,0.0002541244,0.0,0.0,0.0,0.0,0.0,0.0
21794656000,21794576000,-0.024166584,-0.016229153,0.042511463,0.022735596,-0.048431396,0.0,0.0,0.0,0.0,0.0,0.0,0.0,0.0,0.13378906,0.0,0.0,nan,0.0,0.0,-0.009121776,-0.0018031374,0.00014601648,0.0002541244,0.0,0.0,0.0,0.0,0.0,0.0
21795152000,21795072000,-0.015212059,-0.028821468,0.06939697,0.017807007,-0.054260254,0.0,0.0,0.0,0.0,0.0,0.0,0.0,0.0,0.1027832,0.0,0.0,nan,0.0,0.0,0.010433674,-0.0018031374,0.00014601648,0.0002541244,0.0,0.0,0.0,0.0,0.0,0.0
21795656000,21795576000,-0.029774904,-0.033750057,0.0747118,0.042907715,-0.098236084,0.0,0.0,0.0,0.0,0.0,0.0,0.0,0.0,0.0675354,0.0,0.0,nan,0.0,0.0,0.014583707,-0.0018031374,0.00014601648,0.0002541244,0.0,0.0,0.0,0.0,0.0,0.0
21796160000,21796080000,-0.044260025,-0.04400778,0.012441635,0.031799316,-0.07992554,0.0,0.0,0.0,0.0,0.0,0.0,0.0,0.0,0.05697632,0.0,0.0,nan,0.0,0.0,0.0043352842,-0.0018031374,0.00014601648,0.0002541244,0.0,0.0,0.0,0.0,0.0,0.0
21796656000,21796576000,-0.03667283,-0.038049698,0.022839546,0.011077881,-0.04751587,0.0,0.0,0.0,0.0,0.0,0.0,0.0,0.0,0.06011963,0.0,0.0,nan,0.0,0.0,-0.00944531,-0.0018031374,0.00014601648,0.0002541244,0.0,0.0,0.0,0.0,0.0,0.0
21797152000,21797072000,-0.05498171,-0.041884422,0.03097248,0.020019531,-0.061340332,0.0,0.0,0.0,0.0,0.0,0.0,0.0,0.0,0.11468506,0.0,0.0,nan,0.0,0.0,-0.018382907,-0.0018031374,0.00014601648,0.0002541244,0.0,0.0,0.0,0.0,0.0,0.0
21797656000,21797576000,-0.055529594,-0.023738861,0.016211987,0.018630981,-0.077178955,0.0,0.0,0.0,0.0,0.0,0.0,0.0,0.0,0.13412476,0.0,0.0,nan,0.0,0.0,-0.0063117743,-0.0018031374,0.00014601648,0.0002541244,0.0,0.0,0.0,0.0,0.0,0.0
21798152000,21798072000,-0.052722692,-0.039648056,0.034038544,0.028320312,-0.10922241,0.0,0.0,0.0,0.0,0.0,0.0,0.0,0.0,0.0921936,0.0,0.0,nan,0.0,0.0,-0.00413692,-0.0018031374,0.00014601648,0.0002541244,0.0,0.0,0.0,0.0,0.0,0.0
21798656000,21798576000,-0.015219927,-0.034737587,0.030107498,0.020141602,-0.075531006,0.0,0.0,0.0,0.0,0.0,0.0,0.0,0.0,0.08139038,0.0,0.0,nan,0.0,0.0,-0.010340929,-0.0018031374,0.00014601648,0.0002541244,0.0,0.0,0.0,0.0,0.0,0.0
21799160000,21799080000,-0.054120064,-0.048772812,0.005572796,0.018600464,-0.079437256,0.0,0.0,0.0,0.0,0.0,0.0,0.0,0.0,0.1270752,0.0,0.0,nan,0.0,0.0,0.002748847,-0.0018031374,0.00014601648,0.0002541244,0.0,0.0,0.0,0.0,0.0,0.0
21799656000,21799576000,-0.0466156,-0.038281918,0.007294178,0.01008606,-0.06616211,0.0,0.0,0.0,0.0,0.0,0.0,0.0,0.0,0.14797974,0.0,0.0,nan,0.0,0.0,-0.014775276,-0.0018031374,0.00014601648,0.0002541244,0.0,0.0,0.0,0.0,0.0,0.0
21800160000,21800080000,-0.014951944,-0.07434368,0.0030255318,0.015014648,-0.06362915,0.0,0.0,0.0,0.0,0.0,0.0,0.0,0.0,0.07623291,0.0,0.0,nan,0.0,0.0,-0.004209876,-0.0018031374,0.00014601648,0.0002541244,0.0,0.0,0.0,0.0,0.0,0.0
21800656000,21800576000,-0.040244818,-0.036462784,-0.0145635605,0.020004272,-0.10437012,0.0,0.0,0.0,0.0,0.0,0.0,0.0,0.0,0.16479492,0.0,0.0,nan,0.0,0.0,-0.0015372038,-0.0018031374,0.00014601648,0.0002541244,0.0,0.0,0.0,0.0,0.0,0.0
21801152000,21801072000,-0.0019598007,-0.0707922,0.023854256,0.044631958,-0.1232605,0.0,0.0,0.0,0.0,0.0,0.0,0.0,0.0,0.06311035,0.0,0.0,nan,0.0,0.0,-3.182888e-05,-0.0018031374,0.00014601648,0.0002541244,0.0,0.0,0.0,0.0,0.0,0.0
21801656000,21801576000,-0.025901794,-0.08076382,-0.033896446,0.044143677,-0.12738037,0.0,0.0,0.0,0.0,0.0,0.0,0.0,0.0,-0.07739258,0.0,0.0,nan,0.0,0.0,-0.0073845387,-0.0018031374,0.00014601648,0.0002541244,0.0,0.0,0.0,0.0,0.0,0.0
21802152000,21802072000,-0.0352571,-0.068701744,0.0124230385,0.013381958,-0.091674805,0.0,0.0,0.0,0.0,0.0,0.0,0.0,0.0,-0.030426025,0.0,0.0,nan,0.0,0.0,-0.009632826,-0.0018031374,0.00014601648,0.0002541244,0.0,0.0,0.0,0.0,0.0,0.0
21802656000,21802576000,-0.0070245266,-0.06098318,-0.035888672,0.030944824,-0.09283447,0.0,0.0,0.0,0.0,0.0,0.0,0.0,0.0,0.029083252,0.0,0.0,nan,0.0,0.0,0.009259701,-0.0018031374,0.00014601648,0.0002541244,0.0,0.0,0.0,0.0,0.0,0.0
21803160000,21803080000,-0.0042107105,-0.08405876,-0.0215168,0.047439575,-0.1315918,0.0,0.0,0.0,0.0,0.0,0.0,0.0,0.0,-0.028381348,0.0,0.0,nan,0.0,0.0,-0.0062874556,-0.0018031374,0.00014601648,0.0002541244,0.0,0.0,0.0,0.0,0.0,0.0
21803656000,21803576000,-0.014757872,-0.05007696,-0.053121567,0.030685425,-0.11251831,0.0,0.0,0.0,0.0,0.0,0.0,0.0,0.0,-0.0068969727,0.0,0.0,nan,0.0,0.0,-0.005089879,-0.0018031374,0.00014601648,0.0002541244,0.0,0.0,0.0,0.0,0.0,0.0
21804160000,21804080000,-0.038032055,-0.06468201,-0.014579296,0.03262329,-0.109069824,0.0,0.0,0.0,0.0,0.0,0.0,0.0,0.0,0.045806885,0.0,0.0,nan,0.0,0.0,0.005473137,-0.0018031374,0.00014601648,0.0002541244,0.0,0.0,0.0,0.0,0.0,0.0
21804656000,21804576000,-0.01244092,-0.047297478,-0.045981407,0.024154663,-0.08746338,0.0,0.0,0.0,0.0,0.0,0.0,0.0,0.0,0.019042969,0.0,0.0,nan,0.0,0.0,-0.019260645,-0.0018031374,0.00014601648,0.0002541244,0.0,0.0,0.0,0.0,0.0,0.0
21805160000,21805080000,-0.0043776035,-0.049325466,-0.053725243,0.030014038,-0.11154175,0.0,0.0,0.0,0.0,0.0,0.0,0.0,0.0,0.0061035156,0.0,0.0,nan,0.0,0.0,-0.019089222,-0.0018031374,0.00014601648,0.0002541244,0.0,0.0,0.0,0.0,0.0,0.0
21805656000,21805576000,-0.015637398,-0.055908203,-0.0077705383,0.03036499,-0.1027832,0.0,0.0,0.0,0.0,0.0,0.0,0.0,0.0,-0.0289917,0.0,0.0,nan,0.0,0.0,-0.011441946,-0.0018031374,0.00014601648,0.0002541244,0.0,0.0,0.0,0.0,0.0,0.0
21806160000,21806080000,-0.022242308,-0.035591602,-0.03758812,0.028060913,-0.098846436,0.0,0.0,0.0,0.0,0.0,0.0,0.0,0.0,0.1081543,0.0,0.0,nan,0.0,0.0,-0.0017131567,-0.0018031374,0.00014601648,0.0002541244,0.0,0.0,0.0,0.0,0.0,0.0
21806656000,21806576000,0.063031435,-0.114976406,0.28479624,0.03526306,-0.11651611,0.0,0.0,0.0,0.0,0.0,0.0,0.0,0.0,-0.100097656,0.0,0.0,nan,0.0,0.0,-0.03362131,-0.0018031374,0.00014601648,0.0002541244,0.0,0.0,0.0,0.0,0.0,0.0
21807152000,21807072000,0.16202462,-0.26827335,0.11940575,0.06150818,-0.15158081,0.0,0.0,0.0,0.0,0.0,0.0,0.0,0.0,-0.08874512,0.0,0.0,nan,0.0,0.0,-0.012172401,-0.007509902,-0.0033546686,0.004898101,0.0,0.0,0.0,0.0,0.0,0.0
21807656000,21807576000,0.10764927,-0.06625569,0.004022956,0.04710388,-0.11062622,0.0,0.0,0.0,0.0,0.0,0.0,0.0,0.0,-0.080596924,0.0,0.0,nan,0.0,0.0,-0.012172401,-0.003428623,0.0008595735,-0.0020412505,0.0,0.0,0.0,0.0,0.0,0.0
21808152000,21808072000,0.05063626,0.06408188,-0.07442349,0.05708313,-0.08041382,0.0,0.0,0.0,0.0,0.0,0.0,0.0,0.0,-0.095062256,0.0,0.0,nan,0.0,0.0,-0.012172401,-0.002849564,-0.0018415153,-0.004991144,0.0,0.0,0.0,0.0,0.0,0.0
21808656000,21808576000,0.060080256,0.013510816,0.013587207,0.052108765,-0.06585693,0.0,0.0,0.0,0.0,0.0,0.0,0.0,0.0,0.0,0.0,0.0,nan,0.0,0.0,-0.012172401,-0.00077450275,0.00069339573,0.00045520067,0.0,0.0,0.0,0.0,0.0,0.0
21809152000,21809072000,0.03900385,0.021053314,0.0054721795,0.041915894,-0.056793213,0.0,0.0,0.0,0.0,0.0,0.0,0.0,0.0,0.0,0.0,0.0,nan,0.0,0.0,-0.012172401,-0.0027583241,0.0028903335,0.0059898794,0.0,0.0,0.0,0.0,0.0,0.0
21809656000,21809576000,0.010079682,0.08843124,0.027443051,0.031158447,-0.032684326,0.0,0.0,0.0,0.0,0.0,0.0,0.0,0.0,0.0,0.0,0.0,nan,0.0,0.0,-0.012172401,-0.0009442866,0.00021195412,0.00095152855,0.0,0.0,0.0,0.0,0.0,0.0
21810160000,21810080000,0.001206994,0.07807386,0.03641832,0.017501831,-0.038208008,0.0,0.0,0.0,0.0,0.0,0.0,0.0,0.0,0.0,0.0,0.0,nan,0.0,0.0,-0.012172401,-0.0036500245,0.0018396676,9.086728e-05,0.0,0.0,0.0,0.0,0.0,0.0
21810656000,21810576000,-0.057354927,0.09315395,0.060422182,0.00044250488,-0.0138549805,0.0,0.0,0.0,0.0,0.0,0.0,0.0,0.0,0.0,0.0,0.0,nan,0.0,0.0,-0.012172401,0.0013196915,-0.0017538071,-0.0027576983,0.0,0.0,0.0,0.0,0.0,0.0
21811160000,21811080000,-0.09023142,0.06303716,0.07074112,-0.018722534,0.0061950684,0.0,0.0,0.0,0.0,0.0,0.0,0.0,0.0,0.0,0.0,0.0,nan,0.0,0.0,-0.012172401,0.0006387085,0.00015941262,-0.0045130253,0.0,0.0,0.0,0.0,0.0,0.0
21811656000,21811576000,-0.07213056,0.024107277,0.1353445,-0.015991211,-0.0027770996,0.0,0.0,0.0,0.0,0.0,0.0,0.0,0.0,0.0,0.0,0.0,nan,0.0,0.0,-0.012172401,0.0004567504,-0.00036221743,-0.0031720996,0.0,0.0,0.0,0.0,0.0,0.0
21812160000,21812080000,-0.074340254,0.025274098,0.106244504,-0.024429321,0.005065918,0.0,0.0,0.0,0.0,0.0,0.0,0.0,0.0,0.0,0.0,0.0,nan,0.0,0.0,-0.012172401,-0.0037437081,-0.001551196,-0.0028532147,0.0,0.0,0.0,0.0,0.0,0.0
21812656000,21812576000,-0.077190176,-0.010541052,0.1740923,-0.033203125,-0.0036010742,0.0,0.0,0.0,0.0,0.0,0.0,0.0,0.0,0.0,0.0,0.0,nan,0.0,0.0,-0.0043925047,0.00022044033,-0.0004582107,-0.004904926,0.0,0.0,0.0,0.0,0.0,0.0
21813160000,21813080000,-0.06036879,-0.010557793,0.16747177,-0.02508545,-0.0002746582,0.0,0.0,0.0,0.0,0.0,0.0,0.0,0.0,0.0,0.0,0.0,nan,0.0,0.0,-0.008736014,0.00022044033,-0.0004582107,-0.004904926,0.0,0.0,0.0,0.0,0.0,0.0
21813656000,21813576000,-0.059747256,-0.018451586,0.16203928,-0.028335571,-0.005554199,0.0,0.0,0.0,0.0,0.0,0.0,0.0,0.0,0.0,0.0,0.0,nan,0.0,0.0,-0.0021699667,0.00022044033,-0.0004582107,-0.004904926,0.0,0.0,0.0,0.0,0.0,0.0
21814160000,21814080000,-0.04362029,-0.01084011,0.09917611,-0.022537231,-0.009307861,0.0,0.0,0.0,0.0,0.0,0.0,0.0,0.0,0.0,0.0,0.0,nan,0.0,0.0,-0.015426397,0.00022044033,-0.0004582107,-0.004904926,0.0,0.0,0.0,0.0,0.0,0.0
21814656000,21814576000,0.0070662796,-0.025203798,0.098731935,-0.020935059,-0.018981934,0.0,0.0,0.0,0.0,0.0,0.0,0.0,0.0,0.0,0.0,0.0,nan,0.0,0.0,-0.0070528984,0.00022044033,-0.0004582107,-0.004904926,0.0,0.0,0.0,0.0,0.0,0.0
21815160000,21815080000,0.016112536,-0.005317361,0.11674219,-0.020751953,-0.017791748,0.0,0.0,0.0,0.0,0.0,0.0,0.0,0.0,0.055480957,0.0,0.0,nan,0.0,0.0,-0.0010957718,0.00022044033,-0.0004582107,-0.004904926,0.0,0.0,0.0,0.0,0.0,0.0
21815656000,21815576000,0.0051046032,-0.015843278,0.13355023,-0.0096588135,-0.015930176,0.0,0.0,0.0,0.0,0.0,0.0,0.0,0.0,0.2359314,0.0,0.0,nan,0.0,0.0,-0.012522578,0.00022044033,-0.0004582107,-0.004904926,0.0,0.0,0.0,0.0,0.0,0.0
21816160000,21816080000,0.021550514,0.0029776655,0.061650872,-0.013381958,-0.009063721,0.0,0.0,0.0,0.0,0.0,0.0,0.0,0.0,0.0501709,0.0,0.0,nan,0.0,0.0,-0.015725732,0.00022044033,-0.0004582107,-0.004904926,0.0,0.0,0.0,0.0,0.0,0.0
21816656000,21816576000,0.02803677,-0.001941165,0.061165094,-0.0066986084,0.0015563965,0.0,0.0,0.0,0.0,0.0,0.0,0.0,0.0,0.0,0.0,0.0,nan,0.0,0.0,0.00429976,0.00022044033,-0.0004582107,-0.004904926,0.0,0.0,0.0,0.0,0.0,0.0
21817160000,21817080000,0.016201176,0.0075836703,0.09709579,-0.014984131,0.005493164,0.0,0.0,0.0,0.0,0.0,0.0,0.0,0.0,0.0030822754,0.0,0.0,nan,0.0,0.0,0.002763033,0.00022044033,-0.0004582107,-0.004904926,0.0,0.0,0.0,0.0,0.0,0.0
21817656000,21817576000,0.010114981,0.02996693,-0.004828453,-0.015365601,0.011810303,0.0,0.0,0.0,0.0,0.0,0.0,0.0,0.0,0.087371826,0.0,0.0,nan,0.0,0.0,-0.012417674,0.00022044033,-0.0004582107,-0.004904926,0.0,0.0,0.0,0.0,0.0,0.0
21818160000,21818080000,-0.0035534166,0.018575424,0.020902753,-0.014923096,0.005554199,0.0,0.0,0.0,0.0,0.0,0.0,0.0,0.0,0.08798218,0.0,0.0,nan,0.0,0.0,-0.0026972294,0.00022044033,-0.0004582107,-0.004904926,0.0,0.0,0.0,0.0,0.0,0.0
21818656000,21818576000,0.00051141717,0.046518695,0.04646367,-0.012359619,0.009277344,0.0,0.0,0.0,0.0,0.0,0.0,0.0,0.0,0.046051025,0.0,0.0,nan,0.0,0.0,-0.02127111,0.00022044033,-0.0004582107,-0.004904926,0.0,0.0,0.0,0.0,0.0,0.0
21819152000,21819072000,-0.013265796,0.021753069,0.025384545,-0.01020813,0.007171631,0.0,0.0,0.0,0.0,0.0,0.0,0.0,0.0,0.09289551,0.0,0.0,nan,0.0,0.0,-0.007920146,0.00022044033,-0.0004582107,-0.004904926,0.0,0.0,0.0,0.0,0.0,0.0
21819656000,21819576000,-0.040995993,0.03409034,0.036805987,-0.011230469,0.006134033,0.0,0.0,0.0,0.0,0.0,0.0,0.0,0.0,0.014709473,0.0,0.0,nan,0.0,0.0,-0.008004785,0.00022044033,-0.0004582107,-0.004904926,0.0,0.0,0.0,0.0,0.0,0.0
21820152000,21820072000,-0.040173814,0.015984759,0.055936754,-0.015625,0.008514404,0.0,0.0,0.0,0.0,0.0,0.0,0.0,0.0,0.071258545,0.0,0.0,nan,0.0,0.0,-0.004627466,0.00022044033,-0.0004582107,-0.004904926,0.0,0.0,0.0,0.0,0.0,0.0
21820656000,21820576000,-0.048300773,0.030008355,0.058226645,-0.010116577,0.017364502,0.0,0.0,0.0,0.0,0.0,0.0,0.0,0.0,0.0,0.0,0.0,nan,0.0,0.0,-0.006267786,0.00022044033,-0.0004582107,-0.004904926,0.0,0.0,0.0,0.0,0.0,0.0
21821152000,21821072000,-0.018215643,0.018983029,0.0032705069,-0.016967773,0.018859863,0.0,0.0,0.0,0.0,0.0,0.0,0.0,0.0,0.023773193,0.0,0.0,nan,0.0,0.0,-0.005556822,0.00022044033,-0.0004582107,-0.004904926,0.0,0.0,0.0,0.0,0.0,0.0
21821656000,21821576000,-0.04643619,0.016709834,0.053643763,-0.023010254,0.018676758,0.0,0.0,0.0,0.0,0.0,0.0,0.0,0.0,0.10647583,0.0,0.0,nan,0.0,0.0,-0.0053762197,0.00022044033,-0.0004582107,-0.004904926,0.0,0.0,0.0,0.0,0.0,0.0
21822160000,21822080000,-0.038965784,0.017734539,0.0064766407,-0.018493652,0.010955811,0.0,0.0,0.0,0.0,0.0,0.0,0.0,0.0,0.06863403,0.0,0.0,nan,0.0,0.0,-0.014196277,0.00022044033,-0.0004582107,-0.004904926,0.0,0.0,0.0,0.0,0.0,0.0
21822656000,21822576000,-0.056065872,0.013744872,-0.019500494,-0.02973938,0.020355225,0.0,0.0,0.0,0.0,0.0,0.0,0.0,0.0,0.064697266,0.0,0.0,nan,0.0,0.0,-0.024920583,0.00022044033,-0.0004582107,-0.004904926,0.0,0.0,0.0,0.0,0.0,0.0
21823160000,21823080000,-0.03288105,0.011302011,0.030449271,-0.02268982,0.017852783,0.0,0.0,0.0,0.0,0.0,0.0,0.0,0.0,0.0,0.0,0.0,nan,0.0,0.0,-0.014258504,0.00022044033,-0.0004582107,-0.004904926,0.0,0.0,0.0,0.0,0.0,0.0
21823656000,21823576000,-0.034282304,0.003914986,0.02392745,-0.020339966,0.011352539,0.0,0.0,0.0,0.0,0.0,0.0,0.0,0.0,0.019134521,0.0,0.0,nan,0.0,0.0,-0.023640156,0.00022044033,-0.0004582107,-0.004904926,0.0,0.0,0.0,0.0,0.0,0.0
21824160000,21824080000,-0.024056504,0.016930973,-0.02256,-0.025482178,0.015350342,0.0,0.0,0.0,0.0,0.0,0.0,0.0,0.0,0.0,0.0,0.0,nan,0.0,0.0,-0.009822369,0.00022044033,-0.0004582107,-0.004904926,0.0,0.0,0.0,0.0,0.0,0.0
21824656000,21824576000,-0.017387353,-0.0054437025,0.004207492,-0.0021362305,0.0017089844,0.0,0.0,0.0,0.0,0.0,0.0,0.0,0.0,0.0,0.0,0.0,nan,0.0,0.0,-0.0133847,0.00022044033,-0.0004582107,-0.004904926,0.0,0.0,0.0,0.0,0.0,0.0
21825160000,21825080000,-0.016373567,0.016695403,-0.033608437,-0.006225586,0.005706787,0.0,0.0,0.0,0.0,0.0,0.0,0.0,0.0,0.042266846,0.0,0.0,nan,0.0,0.0,-0.004082322,0.00022044033,-0.0004582107,-0.004904926,0.0,0.0,0.0,0.0,0.0,0.0
21825656000,21825576000,-0.006602071,0.00944105,-0.0031957626,-0.0137786865,0.010284424,0.0,0.0,0.0,0.0,0.0,0.0,0.0,0.0,0.025177002,0.0,0.0,nan,0.0,0.0,-0.017855763,0.00022044033,-0.0004582107,-0.004904926,0.0,0.0,0.0,0.0,0.0,0.0
21826160000,21826080000,0.005068301,0.025471743,-0.03817129,0.002670288,0.013214111,0.0,0.0,0.0,0.0,0.0,0.0,0.0,0.0,0.0,0.0,0.0,nan,0.0,0.0,0.0024371147,0.00022044033,-0.0004582107,-0.004904926,0.0,0.0,0.0,0.0,0.0,0.0
21826656000,21826576000,-0.008089869,0.041466095,-0.024401724,-0.008026123,0.018676758,0.0,0.0,0.0,0.0,0.0,0.0,0.0,0.0,0.04473877,0.0,0.0,nan,0.0,0.0,-0.01535058,0.00022044033,-0.0004582107,-0.004904926,0.0,0.0,0.0,0.0,0.0,0.0
21827160000,21827080000,-0.001656382,0.027587228,-0.048321426,-0.010177612,0.012542725,0.0,0.0,0.0,0.0,0.0,0.0,0.0,0.0,0.01687622,0.0,0.0,nan,0.0,0.0,-0.0051817894,0.00022044033,-0.0004582107,-0.004904926,0.0,0.0,0.0,0.0,0.0,0.0
21827656000,21827576000,0.020135235,0.042925693,-0.018520534,0.0007324219,0.018371582,0.0,0.0,0.0,0.0,0.0,0.0,0.0,0.0,0.0,0.0,0.0,nan,0.0,0.0,-0.00877583,0.00022044033,-0.0004582107,-0.004904926,0.0,0.0,0.0,0.0,0.0,0.0
21828160000,21828080000,0.0060838773,0.050589427,0.015099704,-0.008834839,0.021331787,0.0,0.0,0.0,0.0,0.0,0.0,0.0,0.0,0.0046691895,0.0,0.0,nan,0.0,0.0,-0.0025886297,0.00022044033,-0.0004582107,-0.004904926,0.0,0.0,0.0,0.0,0.0,0.0
21828656000,21828576000,-0.018814215,0.03497758,0.01588887,-0.005432129,0.029571533,0.0,0.0,0.0,0.0,0.0,0.0,0.0,0.0,0.0,0.0,0.0,nan,0.0,0.0,-0.011859775,0.00022044033,-0.0004582107,-0.004904926,0.0,0.0,0.0,0.0,0.0,0.0
21829160000,21829080000,-0.017733207,0.037887786,-0.08016747,-0.0013122559,0.037109375,0.0,0.0,0.0,0.0,0.0,0.0,0.0,0.0,0.0,0.0,0.0,nan,0.0,0.0,-0.005984068,0.00022044033,-0.0004582107,-0.004904926,0.0,0.0,0.0,0.0,0.0,0.0
21829656000,21829576000,0.0045958534,0.038763408,-0.04428035,0.00016784668,0.042419434,0.0,0.0,0.0,0.0,0.0,0.0,0.0,0.0,0.0,0.0,0.0,nan,0.0,0.0,0.0027951002,0.00022044033,-0.0004582107,-0.004904926,0.0,0.0,0.0,0.0,0.0,0.0
21830152000,21830072000,-0.0059784614,0.045050792,-0.018811941,-0.0017700195,0.044830322,0.0,0.0,0.0,0.0,0.0,0.0,0.0,0.0,0.0,0.0,0.0,nan,0.0,0.0,-0.018617034,0.00022044033,-0.0004582107,-0.004904926,0.0,0.0,0.0,0.0,0.0,0.0
21830656000,21830576000,-0.014223471,0.018090101,-0.08191931,-0.0040130615,0.041381836,0.0,0.0,0.0,0.0,0.0,0.0,0.0,0.0,0.0,0.0,0.0,nan,0.0,0.0,-0.0031962395,0.00022044033,-0.0004582107,-0.004904926,0.0,0.0,0.0,0.0,0.0,0.0
21831160000,21831080000,0.0017180673,0.01905213,-0.0054087043,-0.010192871,0.03414917,0.0,0.0,0.0,0.0,0.0,0.0,0.0,0.0,0.0,0.0,0.0,nan,0.0,0.0,-0.004564762,0.00022044033,-0.0004582107,-0.004904926,0.0,0.0,0.0,0.0,0.0,0.0
21831656000,21831576000,-0.00037224716,0.010574745,-0.008570313,-0.009124756,0.02923584,0.0,0.0,0.0,0.0,0.0,0.0,0.0,0.0,0.0,0.0,0.0,nan,0.0,0.0,0.013041973,0.00022044033,-0.0004582107,-0.004904926,0.0,0.0,0.0,0.0,0.0,0.0
21832160000,21832080000,-0.008125266,0.039150685,0.007605076,0.0055236816,0.034057617,0.0,0.0,0.0,0.0,0.0,0.0,0.0,0.0,0.0,0.0,0.0,nan,0.0,0.0,0.005842209,0.00022044033,-0.0004582107,-0.004904926,0.0,0.0,0.0,0.0,0.0,0.0
21832656000,21832576000,-0.029606381,0.017452274,-0.0019523501,-0.016113281,0.025390625,0.0,0.0,0.0,0.0,0.0,0.0,0.0,0.0,0.0,0.0,0.0,nan,0.0,0.0,0.009532809,0.00022044033,-0.0004582107,-0.004904926,0.0,0.0,0.0,0.0,0.0,0.0
21833160000,21833080000,-0.03029105,0.019632649,-0.055832267,-0.013031006,0.022216797,0.0,0.0,0.0,0.0,0.0,0.0,0.0,0.0,0.0,0.0,0.0,nan,0.0,0.0,0.00038206577,0.00022044033,-0.0004582107,-0.004904926,0.0,0.0,0.0,0.0,0.0,0.0
21833656000,21833576000,-0.03073581,0.027080642,0.0009543896,-0.013092041,0.014038086,0.0,0.0,0.0,0.0,0.0,0.0,0.0,0.0,0.0,0.0,0.0,nan,0.0,0.0,0.0071475506,0.00022044033,-0.0004582107,-0.004904926,0.0,0.0,0.0,0.0,0.0,0.0
21834160000,21834080000,-0.033661887,0.00994271,0.030747354,-0.004928589,0.014343262,0.0,0.0,0.0,0.0,0.0,0.0,0.0,0.0,0.0,0.0,0.0,nan,0.0,0.0,-0.003592372,0.00022044033,-0.0004582107,-0.004904926,0.0,0.0,0.0,0.0,0.0,0.0
21834656000,21834576000,-0.026154738,-0.00020313077,0.04424125,-0.016342163,0.0121154785,0.0,0.0,0.0,0.0,0.0,0.0,0.0,0.0,0.0,0.0,0.0,nan,0.0,0.0,0.0054769516,0.00022044033,-0.0004582107,-0.004904926,0.0,0.0,0.0,0.0,0.0,0.0
21835160000,21835080000,-0.0079227835,0.016088475,0.015456021,-0.008712769,0.013885498,0.0,0.0,0.0,0.0,0.0,0.0,0.0,0.0,0.0,0.0,0.0,nan,0.0,0.0,-0.0026495457,0.00022044033,-0.0004582107,-0.004904926,0.0,0.0,0.0,0.0,0.0,0.0
21835656000,21835576000,-0.017142968,0.008505044,0.030859292,-0.01637268,0.0049438477,0.0,0.0,0.0,0.0,0.0,0.0,0.0,0.0,0.0,0.0,0.0,nan,0.0,0.0,0.0418396,0.00022044033,-0.0004582107,-0.004904926,0.0,0.0,0.0,0.0,0.0,0.0
21836160000,21836080000,-0.018346239,0.01479205,0.008738041,-0.015640259,0.013336182,0.0,0.0,0.0,0.0,0.0,0.0,0.0,0.0,0.0,0.0,0.0,nan,0.0,0.0,0.0017371178,0.00022044033,-0.0004582107,-0.004904926,0.0,0.0,0.0,0.0,0.0,0.0
21836656000,21836576000,-0.018924315,-0.006688636,0.02527529,-0.014038086,0.004119873,0.0,0.0,0.0,0.0,0.0,0.0,0.0,0.0,0.0,0.0,0.0,nan,0.0,0.0,-0.0008803606,0.00022044033,-0.0004582107,-0.004904926,0.0,0.0,0.0,0.0,0.0,0.0
21837160000,21837080000,-0.009727044,0.020539438,0.006646633,-0.027664185,0.011169434,0.0,0.0,0.0,0.0,0.0,0.0,0.0,0.0,0.0,0.0,0.0,nan,0.0,0.0,0.023916602,0.00022044033,-0.0004582107,-0.004904926,0.0,0.0,0.0,0.0,0.0,0.0
21837656000,21837576000,-0.020255687,0.039492268,-0.023745775,-0.0158844,0.020202637,0.0,0.0,0.0,0.0,0.0,0.0,0.0,0.0,0.018035889,0.0,0.0,nan,0.0,0.0,0.00027513504,0.00022044033,-0.0004582107,-0.004904926,0.0,0.0,0.0,0.0,0.0,0.0
21838160000,21838080000,-0.017509628,0.018231317,-0.033008456,-0.026062012,0.013519287,0.0,0.0,0.0,0.0,0.0,0.0,0.0,0.0,0.0,0.0,0.0,nan,0.0,0.0,-0.030234694,0.00022044033,-0.0004582107,-0.004904926,0.0,0.0,0.0,0.0,0.0,0.0
21838656000,21838576000,-0.037887968,0.01314756,-0.0009971857,-0.031661987,0.026611328,0.0,0.0,0.0,0.0,0.0,0.0,0.0,0.0,0.0,0.0,0.0,nan,0.0,0.0,-0.012277007,0.00022044033,-0.0004582107,-0.004904926,0.0,0.0,0.0,0.0,0.0,0.0
21839160000,21839080000,-0.021455323,0.032214295,0.02738434,-0.022964478,0.029327393,0.0,0.0,0.0,0.0,0.0,0.0,0.0,0.0,0.0,0.0,0.0,nan,0.0,0.0,-0.007542491,0.00022044033,-0.0004582107,-0.004904926,0.0,0.0,0.0,0.0,0.0,0.0
21839656000,21839576000,-0.030699462,0.03920382,-0.046382308,-0.026779175,0.037841797,0.0,0.0,0.0,0.0,0.0,0.0,0.0,0.0,0.0,0.0,0.0,nan,0.0,0.0,-0.00722301,0.00022044033,-0.0004582107,-0.004904926,0.0,0.0,0.0,0.0,0.0,0.0
21840160000,21840080000,-0.029190842,0.027316729,-0.0034940839,-0.013504028,0.027679443,0.0,0.0,0.0,0.0,0.0,0.0,0.0,0.0,0.0,0.0,0.0,nan,0.0,0.0,-0.008143425,0.00022044033,-0.0004582107,-0.004904926,0.0,0.0,0.0,0.0,0.0,0.0
21840656000,21840576000,-0.01986271,0.052175604,-0.030546665,-0.015045166,0.033111572,0.0,0.0,0.0,0.0,0.0,0.0,0.0,0.0,0.0,0.0,0.0,nan,0.0,0.0,-0.0041031837,0.00022044033,-0.0004582107,-0.004904926,0.0,0.0,0.0,0.0,0.0,0.0
21841160000,21841080000,-0.026942471,0.01703471,-0.06541622,-0.015335083,0.031158447,0.0,0.0,0.0,0.0,0.0,0.0,0.0,0.0,0.0,0.0,0.0,nan,0.0,0.0,0.00060510635,0.00022044033,-0.0004582107,-0.004904926,0.0,0.0,0.0,0.0,0.0,0.0
21841656000,21841576000,-0.018718712,0.0069953967,-0.00051653385,-0.019485474,0.02255249,0.0,0.0,0.0,0.0,0.0,0.0,0.0,0.0,0.0,0.0,0.0,nan,0.0,0.0,8.952618e-05,0.00022044033,-0.0004582107,-0.004904926,0.0,0.0,0.0,0.0,0.0,0.0
21842152000,21842072000,-0.028250309,0.019206256,0.024799526,-0.020599365,0.027832031,0.0,0.0,0.0,0.0,0.0,0.0,0.0,0.0,0.0,0.0,0.0,nan,0.0,0.0,0.0054314137,0.00022044033,-0.0004582107,-0.004904926,0.0,0.0,0.0,0.0,0.0,0.0
21842656000,21842576000,-0.048421916,0.0042309966,-0.009349763,-0.02357483,0.024963379,0.0,0.0,0.0,0.0,0.0,0.0,0.0,0.0,0.0,0.0,0.0,nan,0.0,0.0,0.008024812,0.00022044033,-0.0004582107,-0.004904926,0.0,0.0,0.0,0.0,0.0,0.0
21843160000,21843080000,-0.069606125,0.0019843671,0.025393665,-0.0320282,0.025756836,0.0,0.0,0.0,0.0,0.0,0.0,0.0,0.0,0.0,0.0,0.0,nan,0.0,0.0,0.040708184,0.00022044033,-0.0004582107,-0.004904926,0.0,0.0,0.0,0.0,0.0,0.0
21843656000,21843576000,-0.051156566,0.021861697,0.001516819,-0.029800415,0.01739502,0.0,0.0,0.0,0.0,0.0,0.0,0.0,0.0,0.0,0.0,0.0,nan,0.0,0.0,0.010255933,0.00022044033,-0.0004582107,-0.004904926,0.0,0.0,0.0,0.0,0.0,0.0
21844152000,21844072000,-0.057103846,0.0047244485,-0.036436558,-0.032577515,0.015167236,0.0,0.0,0.0,0.0,0.0,0.0,0.0,0.0,0.0,0.0,0.0,nan,0.0,0.0,-0.02450478,0.00022044033,-0.0004582107,-0.004904926,0.0,0.0,0.0,0.0,0.0,0.0
21844656000,21844576000,-0.047957066,0.01415879,-0.016668797,-0.027770996,0.009307861,0.0,0.0,0.0,0.0,0.0,0.0,0.0,0.0,0.0,0.0,0.0,nan,0.0,0.0,0.0014123917,0.00022044033,-0.0004582107,-0.004904926,0.0,0.0,0.0,0.0,0.0,0.0
21845160000,21845080000,-0.028099505,0.009699274,0.021160722,-0.018447876,0.009674072,0.0,0.0,0.0,0.0,0.0,0.0,0.0,0.0,0.0,0.0,0.0,nan,0.0,0.0,-0.002942562,0.00022044033,-0.0004582107,-0.004904926,0.0,0.0,0.0,0.0,0.0,0.0
21845656000,21845576000,-0.045215525,0.011077025,0.027980983,-0.016525269,-0.0067443848,0.0,0.0,0.0,0.0,0.0,0.0,0.0,0.0,0.0,0.0,0.0,nan,0.0,0.0,0.00070917606,0.00022044033,-0.0004582107,-0.004904926,0.0,0.0,0.0,0.0,0.0,0.0
21846160000,21846080000,-0.011428686,0.012305183,0.0582363,-0.022918701,-0.003967285,0.0,0.0,0.0,0.0,0.0,0.0,0.0,0.0,0.0,0.0,0.0,nan,0.0,0.0,-0.0025868416,0.00022044033,-0.0004582107,-0.004904926,0.0,0.0,0.0,0.0,0.0,0.0
21846656000,21846576000,-0.028398493,0.013881014,-0.0020741224,-0.022476196,-0.0005187988,0.0,0.0,0.0,0.0,0.0,0.0,0.0,0.0,0.0,0.0,0.0,nan,0.0,0.0,-0.009273887,0.00022044033,-0.0004582107,-0.004904926,0.0,0.0,0.0,0.0,0.0,0.0
21847160000,21847080000,-0.0110645145,0.0047992067,-0.046108723,-0.0134887695,0.0015563965,0.0,0.0,0.0,0.0,0.0,0.0,0.0,0.0,0.0,0.0,0.0,nan,0.0,0.0,0.0055195093,0.00022044033,-0.0004582107,-0.004904926,0.0,0.0,0.0,0.0,0.0,0.0
21847656000,21847576000,-0.02790962,-0.0025638714,0.055292487,-0.011260986,0.00076293945,0.0,0.0,0.0,0.0,0.0,0.0,0.0,0.0,0.0,0.0,0.0,nan,0.0,0.0,-0.012120843,0.00022044033,-0.0004582107,-0.004904926,0.0,0.0,0.0,0.0,0.0,0.0
21848160000,21848080000,0.0043506157,0.020369451,-0.013986111,-0.009216309,0.0008239746,0.0,0.0,0.0,0.0,0.0,0.0,0.0,0.0,0.0,0.0,0.0,nan,0.0,0.0,-0.003171444,0.00022044033,-0.0004582107,-0.004904926,0.0,0.0,0.0,0.0,0.0,0.0
21848656000,21848576000,-0.018327305,0.008993436,0.01743406,-0.01651001,0.013122559,0.0,0.0,0.0,0.0,0.0,0.0,0.0,0.0,0.0,0.0,0.0,nan,0.0,0.0,0.0015050173,0.00022044033,-0.0004582107,-0.004904926,0.0,0.0,0.0,0.0,0.0,0.0
21849152000,21849072000,-0.01470447,0.030869462,0.0073298216,-0.0058135986,0.009979248,0.0,0.0,0.0,0.0,0.0,0.0,0.0,0.0,0.0,0.0,0.0,nan,0.0,0.0,0.0059275627,0.00022044033,-0.0004582107,-0.004904926,0.0,0.0,0.0,0.0,0.0,0.0
21849656000,21849576000,0.0071476763,0.018497705,0.04607743,-0.009674072,0.0044555664,0.0,0.0,0.0,0.0,0.0,0.0,0.0,0.0,0.0,0.0,0.0,nan,0.0,0.0,0.007849455,0.00022044033,-0.0004582107,-0.004904926,0.0,0.0,0.0,0.0,0.0,0.0
21850160000,21850080000,-0.009690559,0.01293103,0.030981123,-0.0034637451,0.01260376,0.0,0.0,0.0,0.0,0.0,0.0,0.0,0.0,0.0,0.0,0.0,nan,0.0,0.0,0.005523443,0.00022044033,-0.0004582107,-0.004904926,0.0,0.0,0.0,0.0,0.0,0.0
21850656000,21850576000,0.0038679005,0.019097695,0.05994898,-0.014724731,0.023345947,0.0,0.0,0.0,0.0,0.0,0.0,0.0,0.0,0.0,0.0,0.0,nan,0.0,0.0,0.0004786253,0.00022044033,-0.0004582107,-0.004904926,0.0,0.0,0.0,0.0,0.0,0.0
21851152000,21851072000,0.010810991,0.03473436,0.056871474,-0.00491333,0.022644043,0.0,0.0,0.0,0.0,0.0,0.0,0.0,0.0,0.0,0.0,0.0,nan,0.0,0.0,0.0050594807,0.00022044033,-0.0004582107,-0.004904926,0.0,0.0,0.0,0.0,0.0,0.0
