timestamp,voltage_v,current_a,current_average_a,discharged_mah,remaining,scale,time_remaining_s,temperature,voltage_cell_v[0],voltage_cell_v[1],voltage_cell_v[2],voltage_cell_v[3],voltage_cell_v[4],voltage_cell_v[5],voltage_cell_v[6],voltage_cell_v[7],voltage_cell_v[8],voltage_cell_v[9],voltage_cell_v[10],voltage_cell_v[11],voltage_cell_v[12],voltage_cell_v[13],max_cell_voltage_delta,full_charge_capacity_wh,remaining_capacity_wh,nominal_voltage,internal_resistance_estimate,ocv_estimate,ocv_estimate_filtered,volt_based_soc_estimate,voltage_prediction,prediction_error,estimation_covariance_norm,capacity,cycle_count,average_time_to_empty,serial_number,manufacture_date,state_of_health,max_error,interface_error,faults,over_discharge_count,connected,cell_count,source,priority,id,is_powering_off,is_required,warning
1743177449809379,16.2,-1.0,15.0,0.0,0.9889984,1.0012238,nan,nan,0.0,0.0,0.0,0.0,0.0,0.0,0.0,0.0,0.0,0.0,0.0,0.0,0.0,0.0,0.0,0.0,0.0,0.0,0.005,16.18,16.18,0.98888874,0.0,0.0,6.0133185,0,0,0,0,0,0,0,0,0,0,1,4,0,0,1,0,0,0
1743177449821379,16.2,-1.0,15.0,0.0,0.9889984,1.0012238,nan,nan,0.0,0.0,0.0,0.0,0.0,0.0,0.0,0.0,0.0,0.0,0.0,0.0,0.0,0.0,0.0,0.0,0.0,0.0,0.005,16.18,16.18,0.98888874,0.0,0.0,6.0133185,0,0,0,0,0,0,0,0,0,0,1,4,0,0,1,0,0,0
1743177450009379,16.2,-1.0,15.0,0.0,0.9889984,1.0012238,nan,nan,0.0,0.0,0.0,0.0,0.0,0.0,0.0,0.0,0.0,0.0,0.0,0.0,0.0,0.0,0.0,0.0,0.0,0.0,0.005,16.18,16.18,0.98888874,0.0,0.0,6.0133185,0,0,0,0,0,0,0,0,0,0,1,4,0,0,1,0,0,0
1743177450209379,16.2,-1.0,15.0,0.0,0.9889984,1.0012238,nan,nan,0.0,0.0,0.0,0.0,0.0,0.0,0.0,0.0,0.0,0.0,0.0,0.0,0.0,0.0,0.0,0.0,0.0,0.0,0.005,16.18,16.18,0.98888874,0.0,0.0,6.0133185,0,0,0,0,0,0,0,0,0,0,1,4,0,0,1,0,0,0
1743177450409379,16.2,-1.0,15.0,0.0,0.9900427,1.0011076,nan,nan,0.0,0.0,0.0,0.0,0.0,0.0,0.0,0.0,0.0,0.0,0.0,0.0,0.0,0.0,0.0,0.0,0.0,0.0,0.005,16.18,16.18,0.98888874,0.0,0.0,6.0133185,0,0,0,0,0,0,0,0,0,0,1,4,0,0,1,0,0,0
1743177450609379,16.2,-1.0,15.0,0.0,0.9918394,1.0009075,nan,nan,0.0,0.0,0.0,0.0,0.0,0.0,0.0,0.0,0.0,0.0,0.0,0.0,0.0,0.0,0.0,0.0,0.0,0.0,0.005,16.18,16.18,0.98888874,0.0,0.0,6.0133185,0,0,0,0,0,0,0,0,0,0,1,4,0,0,1,0,0,0
1743177450809379,16.2,-1.0,15.0,0.0,0.9933109,1.0007437,nan,nan,0.0,0.0,0.0,0.0,0.0,0.0,0.0,0.0,0.0,0.0,0.0,0.0,0.0,0.0,0.0,0.0,0.0,0.0,0.005,16.18,16.18,0.98888874,0.0,0.0,6.0133185,0,0,0,0,0,0,0,0,0,0,1,4,0,0,1,0,0,0
1743177451009379,16.2,-1.0,15.0,0.0,0.9945173,1.0006095,nan,nan,0.0,0.0,0.0,0.0,0.0,0.0,0.0,0.0,0.0,0.0,0.0,0.0,0.0,0.0,0.0,0.0,0.0,0.0,0.005,16.18,16.18,0.98888874,0.0,0.0,6.0133185,0,0,0,0,0,0,0,0,0,0,1,4,0,0,1,0,0,0
1743177451209379,16.2,-1.0,15.0,0.0,0.9955063,1.0004996,nan,nan,0.0,0.0,0.0,0.0,0.0,0.0,0.0,0.0,0.0,0.0,0.0,0.0,0.0,0.0,0.0,0.0,0.0,0.0,0.005,16.18,16.18,0.98888874,0.0,0.0,6.0133185,0,0,0,0,0,0,0,0,0,0,1,4,0,0,1,0,0,0
1743177451409379,16.2,-1.0,15.0,0.0,0.99631786,1.0004094,nan,nan,0.0,0.0,0.0,0.0,0.0,0.0,0.0,0.0,0.0,0.0,0.0,0.0,0.0,0.0,0.0,0.0,0.0,0.0,0.005,16.18,16.18,0.98888874,0.0,0.0,6.0133185,0,0,0,0,0,0,0,0,0,0,1,4,0,0,1,0,0,0
1743177451609379,16.2,-1.0,15.0,0.0,0.99698067,1.0003356,nan,nan,0.0,0.0,0.0,0.0,0.0,0.0,0.0,0.0,0.0,0.0,0.0,0.0,0.0,0.0,0.0,0.0,0.0,0.0,0.005,16.18,16.18,0.98888874,0.0,0.0,6.0133185,0,0,0,0,0,0,0,0,0,0,1,4,0,0,1,0,0,0
1743177451809379,16.2,-1.0,15.0,0.0,0.99752617,1.0002749,nan,nan,0.0,0.0,0.0,0.0,0.0,0.0,0.0,0.0,0.0,0.0,0.0,0.0,0.0,0.0,0.0,0.0,0.0,0.0,0.005,16.18,16.18,0.98888874,0.0,0.0,6.0133185,0,0,0,0,0,0,0,0,0,0,1,4,0,0,1,0,0,0
1743177452009379,16.2,-1.0,15.0,0.0,0.99797344,1.0002252,nan,nan,0.0,0.0,0.0,0.0,0.0,0.0,0.0,0.0,0.0,0.0,0.0,0.0,0.0,0.0,0.0,0.0,0.0,0.0,0.005,16.18,16.18,0.98888874,0.0,0.0,6.0133185,0,0,0,0,0,0,0,0,0,0,1,4,0,0,1,0,0,0
1743177452209379,16.2,-1.0,15.0,0.0,0.99833965,1.0001845,nan,nan,0.0,0.0,0.0,0.0,0.0,0.0,0.0,0.0,0.0,0.0,0.0,0.0,0.0,0.0,0.0,0.0,0.0,0.0,0.005,16.18,16.18,0.98888874,0.0,0.0,6.0133185,0,0,0,0,0,0,0,0,0,0,1,4,0,0,1,0,0,0
1743177452409379,16.2,-1.0,15.0,0.0,0.99863815,1.0001513,nan,nan,0.0,0.0,0.0,0.0,0.0,0.0,0.0,0.0,0.0,0.0,0.0,0.0,0.0,0.0,0.0,0.0,0.0,0.0,0.005,16.18,16.18,0.98888874,0.0,0.0,6.0133185,0,0,0,0,0,0,0,0,0,0,1,4,0,0,1,0,0,0
1743177452609379,16.2,-1.0,15.0,0.0,0.99888515,1.0001239,nan,nan,0.0,0.0,0.0,0.0,0.0,0.0,0.0,0.0,0.0,0.0,0.0,0.0,0.0,0.0,0.0,0.0,0.0,0.0,0.005,16.18,16.18,0.98888874,0.0,0.0,6.0133185,0,0,0,0,0,0,0,0,0,0,1,4,0,0,1,0,0,0
1743177452809379,16.2,-1.0,15.0,0.0,0.9990864,1.0001014,nan,nan,0.0,0.0,0.0,0.0,0.0,0.0,0.0,0.0,0.0,0.0,0.0,0.0,0.0,0.0,0.0,0.0,0.0,0.0,0.005,16.18,16.18,0.98888874,0.0,0.0,6.0133185,0,0,0,0,0,0,0,0,0,0,1,4,0,0,1,0,0,0
1743177453009379,16.2,-1.0,15.0,0.0,0.99924946,1.0000833,nan,nan,0.0,0.0,0.0,0.0,0.0,0.0,0.0,0.0,0.0,0.0,0.0,0.0,0.0,0.0,0.0,0.0,0.0,0.0,0.005,16.18,16.18,0.98888874,0.0,0.0,6.0133185,0,0,0,0,0,0,0,0,0,0,1,4,0,0,1,0,0,0
1743177453209379,16.2,-1.0,15.0,0.0,0.9993849,1.0000683,nan,nan,0.0,0.0,0.0,0.0,0.0,0.0,0.0,0.0,0.0,0.0,0.0,0.0,0.0,0.0,0.0,0.0,0.0,0.0,0.005,16.18,16.18,0.98888874,0.0,0.0,6.0133185,0,0,0,0,0,0,0,0,0,0,1,4,0,0,1,0,0,0
1743177453409379,16.2,-1.0,15.0,0.0,0.99949646,1.0000559,nan,nan,0.0,0.0,0.0,0.0,0.0,0.0,0.0,0.0,0.0,0.0,0.0,0.0,0.0,0.0,0.0,0.0,0.0,0.0,0.005,16.18,16.18,0.98888874,0.0,0.0,6.0133185,0,0,0,0,0,0,0,0,0,0,1,4,0,0,1,0,0,0
1743177453609379,16.2,-1.0,15.0,0.0,0.9995861,1.0000459,nan,nan,0.0,0.0,0.0,0.0,0.0,0.0,0.0,0.0,0.0,0.0,0.0,0.0,0.0,0.0,0.0,0.0,0.0,0.0,0.005,16.18,16.18,0.98888874,0.0,0.0,6.0133185,0,0,0,0,0,0,0,0,0,0,1,4,0,0,1,0,0,0
1743177453809379,16.2,-1.0,15.0,0.0,0.9996605,1.0000377,nan,nan,0.0,0.0,0.0,0.0,0.0,0.0,0.0,0.0,0.0,0.0,0.0,0.0,0.0,0.0,0.0,0.0,0.0,0.0,0.005,16.18,16.18,0.98888874,0.0,0.0,6.0133185,0,0,0,0,0,0,0,0,0,0,1,4,0,0,1,0,0,0
1743177454009379,16.2,-1.0,15.0,0.0,0.9997244,1.0000306,nan,nan,0.0,0.0,0.0,0.0,0.0,0.0,0.0,0.0,0.0,0.0,0.0,0.0,0.0,0.0,0.0,0.0,0.0,0.0,0.005,16.18,16.18,0.98888874,0.0,0.0,6.0133185,0,0,0,0,0,0,0,0,0,0,1,4,0,0,1,0,0,0
1743177454209379,16.2,-1.0,15.0,0.0,0.99977016,1.0000255,nan,nan,0.0,0.0,0.0,0.0,0.0,0.0,0.0,0.0,0.0,0.0,0.0,0.0,0.0,0.0,0.0,0.0,0.0,0.0,0.005,16.18,16.18,0.98888874,0.0,0.0,6.0133185,0,0,0,0,0,0,0,0,0,0,1,4,0,0,1,0,0,0
1743177454409379,16.2,-1.0,15.0,0.0,0.9998121,1.0000209,nan,nan,0.0,0.0,0.0,0.0,0.0,0.0,0.0,0.0,0.0,0.0,0.0,0.0,0.0,0.0,0.0,0.0,0.0,0.0,0.005,16.18,16.18,0.98888874,0.0,0.0,6.0133185,0,0,0,0,0,0,0,0,0,0,1,4,0,0,1,0,0,0
1743177454609379,16.19796,-1.0,14.979017,0.0,0.9998045,1.0000217,nan,nan,0.0,0.0,0.0,0.0,0.0,0.0,0.0,0.0,0.0,0.0,0.0,0.0,0.0,0.0,0.0,0.0,0.0,0.0,0.005,16.17796,16.18,0.98888874,0.0,0.0,6.0133185,0,0,0,0,0,0,0,0,0,0,1,4,0,0,1,0,0,0
1743177454809379,16.191961,-1.0,14.919227,0.0,0.9993048,1.0000772,nan,nan,0.0,0.0,0.0,0.0,0.0,0.0,0.0,0.0,0.0,0.0,0.0,0.0,0.0,0.0,0.0,0.0,0.0,0.0,0.005,16.17196,16.18,0.98888874,0.0,0.0,6.0133185,0,0,0,0,0,0,0,0,0,0,1,4,0,0,1,0,0,0
1743177455009379,16.185963,-1.0,14.859674,0.0,0.99829483,1.0001894,nan,nan,0.0,0.0,0.0,0.0,0.0,0.0,0.0,0.0,0.0,0.0,0.0,0.0,0.0,0.0,0.0,0.0,0.0,0.0,0.005,16.165962,16.18,0.98888874,0.0,0.0,6.0133185,0,0,0,0,0,0,0,0,0,0,1,4,0,0,1,0,0,0
1743177455209379,16.179962,-1.0,14.800361,0.0,0.9968672,1.0003482,nan,nan,0.0,0.0,0.0,0.0,0.0,0.0,0.0,0.0,0.0,0.0,0.0,0.0,0.0,0.0,0.0,0.0,0.0,0.0,0.005,16.159962,16.18,0.98888874,0.0,0.0,6.0133185,0,0,0,0,0,0,0,0,0,0,1,4,0,0,1,0,0,0
1743177455409379,16.173962,-1.0,14.741283,0.0,0.99509335,1.0005454,nan,nan,0.0,0.0,0.0,0.0,0.0,0.0,0.0,0.0,0.0,0.0,0.0,0.0,0.0,0.0,0.0,0.0,0.0,0.0,0.005,16.153961,16.18,0.98888874,0.0,0.0,6.0133185,0,0,0,0,0,0,0,0,0,0,1,4,0,0,1,0,0,0
1743177455609379,16.167963,-1.0,14.682442,0.0,0.9930401,1.0007739,nan,nan,0.0,0.0,0.0,0.0,0.0,0.0,0.0,0.0,0.0,0.0,0.0,0.0,0.0,0.0,0.0,0.0,0.0,0.0,0.005,16.147963,16.18,0.98888874,0.0,0.0,6.0133185,0,0,0,0,0,0,0,0,0,0,1,4,0,0,1,0,0,0
1743177455809379,16.161964,-1.0,14.623835,0.0,0.99075985,1.0010277,nan,nan,0.0,0.0,0.0,0.0,0.0,0.0,0.0,0.0,0.0,0.0,0.0,0.0,0.0,0.0,0.0,0.0,0.0,0.0,0.005,16.141964,16.18,0.98888874,0.0,0.0,6.0133185,0,0,0,0,0,0,0,0,0,0,1,4,0,0,1,0,0,0
1743177456009379,16.155964,-1.0,14.565462,0.0,0.9882841,1.0013034,nan,nan,0.0,0.0,0.0,0.0,0.0,0.0,0.0,0.0,0.0,0.0,0.0,0.0,0.0,0.0,0.0,0.0,0.0,0.0,0.005,16.135963,16.18,0.98888874,0.0,0.0,6.0133185,0,0,0,0,0,0,0,0,0,0,1,4,0,0,1,0,0,0
1743177456209379,16.149963,-1.0,14.507323,0.0,0.98565674,1.0015962,nan,nan,0.0,0.0,0.0,0.0,0.0,0.0,0.0,0.0,0.0,0.0,0.0,0.0,0.0,0.0,0.0,0.0,0.0,0.0,0.005,16.129963,16.18,0.98888874,0.0,0.0,6.0133185,0,0,0,0,0,0,0,0,0,0,1,4,0,0,1,0,0,0
1743177456409379,16.143965,-1.0,14.449415,0.0,0.9829016,1.0019034,nan,nan,0.0,0.0,0.0,0.0,0.0,0.0,0.0,0.0,0.0,0.0,0.0,0.0,0.0,0.0,0.0,0.0,0.0,0.0,0.005,16.123964,16.18,0.98888874,0.0,0.0,6.0133185,0,0,0,0,0,0,0,0,0,0,1,4,0,0,1,0,0,0
1743177456609379,16.137966,-1.0,14.391739,0.0,0.9800415,1.0022225,nan,nan,0.0,0.0,0.0,0.0,0.0,0.0,0.0,0.0,0.0,0.0,0.0,0.0,0.0,0.0,0.0,0.0,0.0,0.0,0.005,16.117966,16.18,0.98888874,0.0,0.0,6.0133185,0,0,0,0,0,0,0,0,0,0,1,4,0,0,1,0,0,0
1743177456809379,16.131966,-1.0,14.334291,0.0,0.97709465,1.0025516,nan,nan,0.0,0.0,0.0,0.0,0.0,0.0,0.0,0.0,0.0,0.0,0.0,0.0,0.0,0.0,0.0,0.0,0.0,0.0,0.005,16.111965,16.18,0.98888874,0.0,0.0,6.0133185,0,0,0,0,0,0,0,0,0,0,1,4,0,0,1,0,0,0
1743177457009379,16.125965,-1.0,14.277073,0.0,0.9740782,1.0028886,nan,nan,0.0,0.0,0.0,0.0,0.0,0.0,0.0,0.0,0.0,0.0,0.0,0.0,0.0,0.0,0.0,0.0,0.0,0.0,0.005,16.105965,16.18,0.98888874,0.0,0.0,6.0133185,0,0,0,0,0,0,0,0,0,0,1,4,0,0,1,0,0,0
1743177457209379,16.119967,-1.0,14.220083,0.0,0.97100544,1.0032321,nan,nan,0.0,0.0,0.0,0.0,0.0,0.0,0.0,0.0,0.0,0.0,0.0,0.0,0.0,0.0,0.0,0.0,0.0,0.0,0.005,16.099966,16.18,0.98888874,0.0,0.0,6.0133185,0,0,0,0,0,0,0,0,0,0,1,4,0,0,1,0,0,0
1743177457409379,16.113968,-1.0,14.163322,0.0,0.967885,1.003581,nan,nan,0.0,0.0,0.0,0.0,0.0,0.0,0.0,0.0,0.0,0.0,0.0,0.0,0.0,0.0,0.0,0.0,0.0,0.0,0.005,16.093967,16.18,0.98888874,0.0,0.0,6.0133185,0,0,0,0,0,0,0,0,0,0,1,4,0,0,1,0,0,0
1743177457609379,16.107967,-1.0,14.106788,0.0,0.96472645,1.0039346,nan,nan,0.0,0.0,0.0,0.0,0.0,0.0,0.0,0.0,0.0,0.0,0.0,0.0,0.0,0.0,0.0,0.0,0.0,0.0,0.005,16.087967,16.18,0.98888874,0.0,0.0,6.0133185,0,0,0,0,0,0,0,0,0,0,1,4,0,0,1,0,0,0
1743177457809379,16.101967,-1.0,14.050479,0.0,0.96153736,1.004292,nan,nan,0.0,0.0,0.0,0.0,0.0,0.0,0.0,0.0,0.0,0.0,0.0,0.0,0.0,0.0,0.0,0.0,0.0,0.0,0.005,16.081966,16.18,0.98888874,0.0,0.0,6.0133185,0,0,0,0,0,0,0,0,0,0,1,4,0,0,1,0,0,0
1743177458009379,16.095968,-1.0,13.994395,0.0,0.9583225,1.0046524,nan,nan,0.0,0.0,0.0,0.0,0.0,0.0,0.0,0.0,0.0,0.0,0.0,0.0,0.0,0.0,0.0,0.0,0.0,0.0,0.005,16.075968,16.18,0.98888874,0.0,0.0,6.0133185,0,0,0,0,0,0,0,0,0,0,1,4,0,0,1,0,0,0
1743177458209379,16.08997,-1.0,13.938536,0.0,0.9550848,1.0050156,nan,nan,0.0,0.0,0.0,0.0,0.0,0.0,0.0,0.0,0.0,0.0,0.0,0.0,0.0,0.0,0.0,0.0,0.0,0.0,0.005,16.06997,16.18,0.98888874,0.0,0.0,6.0133185,0,0,0,0,0,0,0,0,0,0,1,4,0,0,1,0,0,0
1743177458409379,16.08397,-1.0,13.882898,0.0,0.9518299,1.005381,nan,nan,0.0,0.0,0.0,0.0,0.0,0.0,0.0,0.0,0.0,0.0,0.0,0.0,0.0,0.0,0.0,0.0,0.0,0.0,0.005,16.063969,16.18,0.98888874,0.0,0.0,6.0133185,0,0,0,0,0,0,0,0,0,0,1,4,0,0,1,0,0,0
1743177458609379,16.077969,-1.0,13.827483,0.0,0.9485626,1.005748,nan,nan,0.0,0.0,0.0,0.0,0.0,0.0,0.0,0.0,0.0,0.0,0.0,0.0,0.0,0.0,0.0,0.0,0.0,0.0,0.005,16.057968,16.18,0.98888874,0.0,0.0,6.0133185,0,0,0,0,0,0,0,0,0,0,1,4,0,0,1,0,0,0
1743177458809379,16.07197,-1.0,13.772289,0.0,0.9452801,1.0061171,nan,nan,0.0,0.0,0.0,0.0,0.0,0.0,0.0,0.0,0.0,0.0,0.0,0.0,0.0,0.0,0.0,0.0,0.0,0.0,0.005,16.05197,16.18,0.98888874,0.0,0.0,6.0133185,0,0,0,0,0,0,0,0,0,0,1,4,0,0,1,0,0,0
1743177459009379,16.065971,-1.0,13.717316,0.0,0.9419918,1.0064871,nan,nan,0.0,0.0,0.0,0.0,0.0,0.0,0.0,0.0,0.0,0.0,0.0,0.0,0.0,0.0,0.0,0.0,0.0,0.0,0.005,16.04597,16.18,0.98888874,0.0,0.0,6.0133185,0,0,0,0,0,0,0,0,0,0,1,4,0,0,1,0,0,0
1743177459209379,16.05997,-1.0,13.662561,0.0,0.9386921,1.0068587,nan,nan,0.0,0.0,0.0,0.0,0.0,0.0,0.0,0.0,0.0,0.0,0.0,0.0,0.0,0.0,0.0,0.0,0.0,0.0,0.005,16.03997,16.18,0.98888874,0.0,0.0,6.0133185,0,0,0,0,0,0,0,0,0,0,1,4,0,0,1,0,0,0
1743177459409379,16.05397,-1.0,13.608025,0.0,0.93538666,1.0072312,nan,nan,0.0,0.0,0.0,0.0,0.0,0.0,0.0,0.0,0.0,0.0,0.0,0.0,0.0,0.0,0.0,0.0,0.0,0.0,0.005,16.03397,16.18,0.98888874,0.0,0.0,6.0133185,0,0,0,0,0,0,0,0,0,0,1,4,0,0,1,0,0,0
1743177459609379,16.047972,-1.0,13.553706,0.0,0.93208027,1.007604,nan,nan,0.0,0.0,0.0,0.0,0.0,0.0,0.0,0.0,0.0,0.0,0.0,0.0,0.0,0.0,0.0,0.0,0.0,0.0,0.005,16.027971,16.18,0.98888874,0.0,0.0,6.0133185,0,0,0,0,0,0,0,0,0,0,1,4,0,0,1,0,0,0
1743177459809379,16.041971,-1.0,13.499605,0.0,0.92876816,1.0079778,nan,nan,0.0,0.0,0.0,0.0,0.0,0.0,0.0,0.0,0.0,0.0,0.0,0.0,0.0,0.0,0.0,0.0,0.0,0.0,0.005,16.02197,16.18,0.98888874,0.0,0.0,6.0133185,0,0,0,0,0,0,0,0,0,0,1,4,0,0,1,0,0,0
1743177460009379,16.035973,-1.0,13.44572,0.0,0.9254513,1.0083524,nan,nan,0.0,0.0,0.0,0.0,0.0,0.0,0.0,0.0,0.0,0.0,0.0,0.0,0.0,0.0,0.0,0.0,0.0,0.0,0.005,16.015972,16.18,0.98888874,0.0,0.0,6.0133185,0,0,0,0,0,0,0,0,0,0,1,4,0,0,1,0,0,0
1743177460209379,16.029972,-1.0,13.392049,0.0,0.92212677,1.008728,nan,nan,0.0,0.0,0.0,0.0,0.0,0.0,0.0,0.0,0.0,0.0,0.0,0.0,0.0,0.0,0.0,0.0,0.0,0.0,0.005,16.009972,16.18,0.98888874,0.0,0.0,6.0133185,0,0,0,0,0,0,0,0,0,0,1,4,0,0,1,0,0,0
1743177460409379,16.023973,-1.0,13.3385935,0.0,0.9187994,1.0091044,nan,nan,0.0,0.0,0.0,0.0,0.0,0.0,0.0,0.0,0.0,0.0,0.0,0.0,0.0,0.0,0.0,0.0,0.0,0.0,0.005,16.003973,16.18,0.98888874,0.0,0.0,6.0133185,0,0,0,0,0,0,0,0,0,0,1,4,0,0,1,0,0,0
1743177460609379,16.017973,-1.0,13.285351,0.0,0.915473,1.009481,nan,nan,0.0,0.0,0.0,0.0,0.0,0.0,0.0,0.0,0.0,0.0,0.0,0.0,0.0,0.0,0.0,0.0,0.0,0.0,0.005,15.9979725,16.18,0.98888874,0.0,0.0,6.0133185,0,0,0,0,0,0,0,0,0,0,1,4,0,0,1,0,0,0
1743177460809379,16.011974,-1.0,13.232321,0.0,0.9121456,1.0098579,nan,nan,0.0,0.0,0.0,0.0,0.0,0.0,0.0,0.0,0.0,0.0,0.0,0.0,0.0,0.0,0.0,0.0,0.0,0.0,0.005,15.991974,16.18,0.98888874,0.0,0.0,6.0133185,0,0,0,0,0,0,0,0,0,0,1,4,0,0,1,0,0,0
1743177461009379,16.005974,-1.0,13.179503,0.0,0.90881824,1.010235,nan,nan,0.0,0.0,0.0,0.0,0.0,0.0,0.0,0.0,0.0,0.0,0.0,0.0,0.0,0.0,0.0,0.0,0.0,0.0,0.005,15.985973,16.18,0.98888874,0.0,0.0,6.0133185,0,0,0,0,0,0,0,0,0,0,1,4,0,0,1,0,0,0
1743177461209379,15.999975,-1.0,13.126896,0.0,0.9054909,1.0106125,nan,nan,0.0,0.0,0.0,0.0,0.0,0.0,0.0,0.0,0.0,0.0,0.0,0.0,0.0,0.0,0.0,0.0,0.0,0.0,0.005,15.979975,16.18,0.98888874,0.0,0.0,6.0133185,0,0,0,0,0,0,0,0,0,0,1,4,0,0,1,0,0,0
1743177461409379,15.993976,-1.0,13.074498,0.0,0.9021635,1.0109901,nan,nan,0.0,0.0,0.0,0.0,0.0,0.0,0.0,0.0,0.0,0.0,0.0,0.0,0.0,0.0,0.0,0.0,0.0,0.0,0.005,15.973975,16.18,0.98888874,0.0,0.0,6.0133185,0,0,0,0,0,0,0,0,0,0,1,4,0,0,1,0,0,0
1743177461609379,15.987976,-1.0,13.022309,0.0,0.89883614,1.0113682,nan,nan,0.0,0.0,0.0,0.0,0.0,0.0,0.0,0.0,0.0,0.0,0.0,0.0,0.0,0.0,0.0,0.0,0.0,0.0,0.005,15.967976,16.18,0.98888874,0.0,0.0,6.0133185,0,0,0,0,0,0,0,0,0,0,1,4,0,0,1,0,0,0
1743177461809379,15.9819765,-1.0,12.970329,0.0,0.89550877,1.0117465,nan,nan,0.0,0.0,0.0,0.0,0.0,0.0,0.0,0.0,0.0,0.0,0.0,0.0,0.0,0.0,0.0,0.0,0.0,0.0,0.005,15.961976,16.18,0.98888874,0.0,0.0,6.0133185,0,0,0,0,0,0,0,0,0,0,1,4,0,0,1,0,0,0
1743177462009379,15.975977,-1.0,12.918557,0.0,0.8921814,1.012125,nan,nan,0.0,0.0,0.0,0.0,0.0,0.0,0.0,0.0,0.0,0.0,0.0,0.0,0.0,0.0,0.0,0.0,0.0,0.0,0.005,15.9559765,16.18,0.98888874,0.0,0.0,6.0133185,0,0,0,0,0,0,0,0,0,0,1,4,0,0,1,0,0,0
1743177462209379,15.969977,-1.0,12.866991,0.0,0.888854,1.0125039,nan,nan,0.0,0.0,0.0,0.0,0.0,0.0,0.0,0.0,0.0,0.0,0.0,0.0,0.0,0.0,0.0,0.0,0.0,0.0,0.005,15.949977,16.18,0.98888874,0.0,0.0,6.0133185,0,0,0,0,0,0,0,0,0,0,1,4,0,0,1,0,0,0
1743177462409379,15.963978,-1.0,12.815631,0.0,0.8855219,1.0128837,nan,nan,0.0,0.0,0.0,0.0,0.0,0.0,0.0,0.0,0.0,0.0,0.0,0.0,0.0,0.0,0.0,0.0,0.0,0.0,0.005,15.943977,16.18,0.98888874,0.0,0.0,6.0133185,0,0,0,0,0,0,0,0,0,0,1,4,0,0,1,0,0,0
1743177462609379,15.957978,-1.0,12.764476,0.0,0.88218975,1.0132637,nan,nan,0.0,0.0,0.0,0.0,0.0,0.0,0.0,0.0,0.0,0.0,0.0,0.0,0.0,0.0,0.0,0.0,0.0,0.0,0.005,15.937978,16.18,0.98888874,0.0,0.0,6.0133185,0,0,0,0,0,0,0,0,0,0,1,4,0,0,1,0,0,0
1743177462809379,15.951979,-1.0,12.713526,0.0,0.87885666,1.013644,nan,nan,0.0,0.0,0.0,0.0,0.0,0.0,0.0,0.0,0.0,0.0,0.0,0.0,0.0,0.0,0.0,0.0,0.0,0.0,0.005,15.931978,16.18,0.98888874,0.0,0.0,6.0133185,0,0,0,0,0,0,0,0,0,0,1,4,0,0,1,0,0,0
1743177463009379,15.945979,-1.0,12.662778,0.0,0.8755245,1.0140246,nan,nan,0.0,0.0,0.0,0.0,0.0,0.0,0.0,0.0,0.0,0.0,0.0,0.0,0.0,0.0,0.0,0.0,0.0,0.0,0.005,15.925979,16.18,0.98888874,0.0,0.0,6.0133185,0,0,0,0,0,0,0,0,0,0,1,4,0,0,1,0,0,0
1743177463209379,15.93998,-1.0,12.612232,0.0,0.8721914,1.0144055,nan,nan,0.0,0.0,0.0,0.0,0.0,0.0,0.0,0.0,0.0,0.0,0.0,0.0,0.0,0.0,0.0,0.0,0.0,0.0,0.005,15.919979,16.18,0.98888874,0.0,0.0,6.0133185,0,0,0,0,0,0,0,0,0,0,1,4,0,0,1,0,0,0
1743177463409379,15.93398,-1.0,12.56189,0.0,0.8688593,1.0147866,nan,nan,0.0,0.0,0.0,0.0,0.0,0.0,0.0,0.0,0.0,0.0,0.0,0.0,0.0,0.0,0.0,0.0,0.0,0.0,0.005,15.91398,16.18,0.98888874,0.0,0.0,6.0133185,0,0,0,0,0,0,0,0,0,0,1,4,0,0,1,0,0,0
1743177463609379,15.92798,-1.0,12.511747,0.0,0.8655262,1.0151681,nan,nan,0.0,0.0,0.0,0.0,0.0,0.0,0.0,0.0,0.0,0.0,0.0,0.0,0.0,0.0,0.0,0.0,0.0,0.0,0.005,15.90798,16.18,0.98888874,0.0,0.0,6.0133185,0,0,0,0,0,0,0,0,0,0,1,4,0,0,1,0,0,0
1743177463809379,15.921981,-1.0,12.461805,0.0,0.86219406,1.0155499,nan,nan,0.0,0.0,0.0,0.0,0.0,0.0,0.0,0.0,0.0,0.0,0.0,0.0,0.0,0.0,0.0,0.0,0.0,0.0,0.005,15.90198,16.18,0.98888874,0.0,0.0,6.0133185,0,0,0,0,0,0,0,0,0,0,1,4,0,0,1,0,0,0
1743177464009379,15.915981,-1.0,12.412062,0.0,0.85886097,1.0159318,nan,nan,0.0,0.0,0.0,0.0,0.0,0.0,0.0,0.0,0.0,0.0,0.0,0.0,0.0,0.0,0.0,0.0,0.0,0.0,0.005,15.895981,16.18,0.98888874,0.0,0.0,6.0133185,0,0,0,0,0,0,0,0,0,0,1,4,0,0,1,0,0,0
1743177464209379,15.909982,-1.0,12.362518,0.0,0.85552883,1.0163143,nan,nan,0.0,0.0,0.0,0.0,0.0,0.0,0.0,0.0,0.0,0.0,0.0,0.0,0.0,0.0,0.0,0.0,0.0,0.0,0.005,15.889981,16.18,0.98888874,0.0,0.0,6.0133185,0,0,0,0,0,0,0,0,0,0,1,4,0,0,1,0,0,0
1743177464409379,15.903982,-1.0,12.313173,0.0,0.8521967,1.0166968,nan,nan,0.0,0.0,0.0,0.0,0.0,0.0,0.0,0.0,0.0,0.0,0.0,0.0,0.0,0.0,0.0,0.0,0.0,0.0,0.005,15.883982,16.18,0.98888874,0.0,0.0,6.0133185,0,0,0,0,0,0,0,0,0,0,1,4,0,0,1,0,0,0
1743177464609379,15.897983,-1.0,12.264023,0.0,0.8488636,1.0170797,nan,nan,0.0,0.0,0.0,0.0,0.0,0.0,0.0,0.0,0.0,0.0,0.0,0.0,0.0,0.0,0.0,0.0,0.0,0.0,0.005,15.877982,16.18,0.98888874,0.0,0.0,6.0133185,0,0,0,0,0,0,0,0,0,0,1,4,0,0,1,0,0,0
1743177464809379,15.891983,-1.0,12.215071,0.0,0.84553146,1.017463,nan,nan,0.0,0.0,0.0,0.0,0.0,0.0,0.0,0.0,0.0,0.0,0.0,0.0,0.0,0.0,0.0,0.0,0.0,0.0,0.005,15.871983,16.18,0.98888874,0.0,0.0,6.0133185,0,0,0,0,0,0,0,0,0,0,1,4,0,0,1,0,0,0
1743177465009379,15.885983,-1.0,12.166311,0.0,0.8421984,1.0178463,nan,nan,0.0,0.0,0.0,0.0,0.0,0.0,0.0,0.0,0.0,0.0,0.0,0.0,0.0,0.0,0.0,0.0,0.0,0.0,0.005,15.865983,16.18,0.98888874,0.0,0.0,6.0133185,0,0,0,0,0,0,0,0,0,0,1,4,0,0,1,0,0,0
1743177465209379,15.879984,-1.0,12.11775,0.0,0.83886623,1.0182302,nan,nan,0.0,0.0,0.0,0.0,0.0,0.0,0.0,0.0,0.0,0.0,0.0,0.0,0.0,0.0,0.0,0.0,0.0,0.0,0.005,15.859983,16.18,0.98888874,0.0,0.0,6.0133185,0,0,0,0,0,0,0,0,0,0,1,4,0,0,1,0,0,0
1743177465409379,15.873984,-1.0,12.06938,0.0,0.83553314,1.0186142,nan,nan,0.0,0.0,0.0,0.0,0.0,0.0,0.0,0.0,0.0,0.0,0.0,0.0,0.0,0.0,0.0,0.0,0.0,0.0,0.005,15.853984,16.18,0.98888874,0.0,0.0,6.0133185,0,0,0,0,0,0,0,0,0,0,1,4,0,0,1,0,0,0
1743177465609379,15.867985,-1.0,12.0212,0.0,0.832201,1.0189985,nan,nan,0.0,0.0,0.0,0.0,0.0,0.0,0.0,0.0,0.0,0.0,0.0,0.0,0.0,0.0,0.0,0.0,0.0,0.0,0.005,15.847984,16.18,0.98888874,0.0,0.0,6.0133185,0,0,0,0,0,0,0,0,0,0,1,4,0,0,1,0,0,0
1743177465809379,15.861985,-1.0,11.973217,0.0,0.8288679,1.0193832,nan,nan,0.0,0.0,0.0,0.0,0.0,0.0,0.0,0.0,0.0,0.0,0.0,0.0,0.0,0.0,0.0,0.0,0.0,0.0,0.005,15.841985,16.18,0.98888874,0.0,0.0,6.0133185,0,0,0,0,0,0,0,0,0,0,1,4,0,0,1,0,0,0
1743177466009379,15.855986,-1.0,11.925428,0.0,0.8255358,1.0197681,nan,nan,0.0,0.0,0.0,0.0,0.0,0.0,0.0,0.0,0.0,0.0,0.0,0.0,0.0,0.0,0.0,0.0,0.0,0.0,0.005,15.835985,16.18,0.98888874,0.0,0.0,6.0133185,0,0,0,0,0,0,0,0,0,0,1,4,0,0,1,0,0,0
1743177466209379,15.849986,-1.0,11.8778305,0.0,0.82220364,1.0201533,nan,nan,0.0,0.0,0.0,0.0,0.0,0.0,0.0,0.0,0.0,0.0,0.0,0.0,0.0,0.0,0.0,0.0,0.0,0.0,0.005,15.829986,16.18,0.98888874,0.0,0.0,6.0133185,0,0,0,0,0,0,0,0,0,0,1,4,0,0,1,0,0,0
1743177466409379,15.8439865,-1.0,11.8304205,0.0,0.81887054,1.0205388,nan,nan,0.0,0.0,0.0,0.0,0.0,0.0,0.0,0.0,0.0,0.0,0.0,0.0,0.0,0.0,0.0,0.0,0.0,0.0,0.005,15.823986,16.18,0.98888874,0.0,0.0,6.0133185,0,0,0,0,0,0,0,0,0,0,1,4,0,0,1,0,0,0
1743177466609379,15.837987,-1.0,11.783195,0.0,0.8155384,1.0209246,nan,nan,0.0,0.0,0.0,0.0,0.0,0.0,0.0,0.0,0.0,0.0,0.0,0.0,0.0,0.0,0.0,0.0,0.0,0.0,0.005,15.8179865,16.18,0.98888874,0.0,0.0,6.0133185,0,0,0,0,0,0,0,0,0,0,1,4,0,0,1,0,0,0
1743177466809379,15.831987,-1.0,11.736159,0.0,0.8122053,1.0213107,nan,nan,0.0,0.0,0.0,0.0,0.0,0.0,0.0,0.0,0.0,0.0,0.0,0.0,0.0,0.0,0.0,0.0,0.0,0.0,0.005,15.811987,16.18,0.98888874,0.0,0.0,6.0133185,0,0,0,0,0,0,0,0,0,0,1,4,0,0,1,0,0,0
1743177467009379,15.825988,-1.0,11.689315,0.0,0.8088732,1.021697,nan,nan,0.0,0.0,0.0,0.0,0.0,0.0,0.0,0.0,0.0,0.0,0.0,0.0,0.0,0.0,0.0,0.0,0.0,0.0,0.005,15.805987,16.18,0.98888874,0.0,0.0,6.0133185,0,0,0,0,0,0,0,0,0,0,1,4,0,0,1,0,0,0
1743177467209379,15.819988,-1.0,11.642654,0.0,0.8055401,1.0220838,nan,nan,0.0,0.0,0.0,0.0,0.0,0.0,0.0,0.0,0.0,0.0,0.0,0.0,0.0,0.0,0.0,0.0,0.0,0.0,0.005,15.799988,16.18,0.98888874,0.0,0.0,6.0133185,0,0,0,0,0,0,0,0,0,0,1,4,0,0,1,0,0,0
1743177467409379,15.813989,-1.0,11.596182,0.0,0.80220795,1.0224707,nan,nan,0.0,0.0,0.0,0.0,0.0,0.0,0.0,0.0,0.0,0.0,0.0,0.0,0.0,0.0,0.0,0.0,0.0,0.0,0.005,15.793988,16.18,0.98888874,0.0,0.0,6.0133185,0,0,0,0,0,0,0,0,0,0,1,4,0,0,1,0,0,0
1743177467609379,15.807989,-1.0,11.549894,0.0,0.7988758,1.022858,nan,nan,0.0,0.0,0.0,0.0,0.0,0.0,0.0,0.0,0.0,0.0,0.0,0.0,0.0,0.0,0.0,0.0,0.0,0.0,0.005,15.787989,16.18,0.98888874,0.0,0.0,6.0133185,0,0,0,0,0,0,0,0,0,0,1,4,0,0,1,0,0,0
1743177467809379,15.80199,-1.0,11.503793,0.0,0.7955427,1.0232456,nan,nan,0.0,0.0,0.0,0.0,0.0,0.0,0.0,0.0,0.0,0.0,0.0,0.0,0.0,0.0,0.0,0.0,0.0,0.0,0.005,15.781989,16.18,0.98888874,0.0,0.0,6.0133185,0,0,0,0,0,0,0,0,0,0,1,4,0,0,1,0,0,0
1743177468009379,15.79599,-1.0,11.457873,0.0,0.7922106,1.0236334,nan,nan,0.0,0.0,0.0,0.0,0.0,0.0,0.0,0.0,0.0,0.0,0.0,0.0,0.0,0.0,0.0,0.0,0.0,0.0,0.005,15.77599,16.18,0.98888874,0.0,0.0,6.0133185,0,0,0,0,0,0,0,0,0,0,1,4,0,0,1,0,0,0
1743177468209379,15.78999,-1.0,11.412138,0.0,0.7888775,1.0240215,nan,nan,0.0,0.0,0.0,0.0,0.0,0.0,0.0,0.0,0.0,0.0,0.0,0.0,0.0,0.0,0.0,0.0,0.0,0.0,0.005,15.76999,16.18,0.98888874,0.0,0.0,6.0133185,0,0,0,0,0,0,0,0,0,0,1,4,0,0,1,0,0,0
1743177468409379,15.783991,-1.0,11.366585,0.0,0.78554535,1.02441,nan,nan,0.0,0.0,0.0,0.0,0.0,0.0,0.0,0.0,0.0,0.0,0.0,0.0,0.0,0.0,0.0,0.0,0.0,0.0,0.005,15.76399,16.18,0.98888874,0.0,0.0,6.0133185,0,0,0,0,0,0,0,0,0,0,1,4,0,0,1,0,0,0
1743177468609379,15.777991,-1.0,11.321214,0.0,0.78221226,1.0247988,nan,nan,0.0,0.0,0.0,0.0,0.0,0.0,0.0,0.0,0.0,0.0,0.0,0.0,0.0,0.0,0.0,0.0,0.0,0.0,0.005,15.757991,16.18,0.98888874,0.0,0.0,6.0133185,0,0,0,0,0,0,0,0,0,0,1,4,0,0,1,0,0,0
1743177468809379,15.771992,-1.0,11.276024,0.0,0.7788801,1.0251877,nan,nan,0.0,0.0,0.0,0.0,0.0,0.0,0.0,0.0,0.0,0.0,0.0,0.0,0.0,0.0,0.0,0.0,0.0,0.0,0.005,15.751991,16.18,0.98888874,0.0,0.0,6.0133185,0,0,0,0,0,0,0,0,0,0,1,4,0,0,1,0,0,0
1743177469009379,15.765992,-1.0,11.231014,0.0,0.775547,1.0255771,nan,nan,0.0,0.0,0.0,0.0,0.0,0.0,0.0,0.0,0.0,0.0,0.0,0.0,0.0,0.0,0.0,0.0,0.0,0.0,0.005,15.745992,16.18,0.98888874,0.0,0.0,6.0133185,0,0,0,0,0,0,0,0,0,0,1,4,0,0,1,0,0,0
1743177469209379,15.759993,-1.0,11.186185,0.0,0.77221394,1.0259668,nan,nan,0.0,0.0,0.0,0.0,0.0,0.0,0.0,0.0,0.0,0.0,0.0,0.0,0.0,0.0,0.0,0.0,0.0,0.0,0.005,15.739992,16.18,0.98888874,0.0,0.0,6.0133185,0,0,0,0,0,0,0,0,0,0,1,4,0,0,1,0,0,0
1743177469409379,15.753993,-1.0,11.141534,0.0,0.76888084,1.0263567,nan,nan,0.0,0.0,0.0,0.0,0.0,0.0,0.0,0.0,0.0,0.0,0.0,0.0,0.0,0.0,0.0,0.0,0.0,0.0,0.005,15.733993,16.18,0.98888874,0.0,0.0,6.0133185,0,0,0,0,0,0,0,0,0,0,1,4,0,0,1,0,0,0
1743177469609379,15.747993,-1.0,11.097061,0.0,0.76554775,1.026747,nan,nan,0.0,0.0,0.0,0.0,0.0,0.0,0.0,0.0,0.0,0.0,0.0,0.0,0.0,0.0,0.0,0.0,0.0,0.0,0.005,15.727993,16.18,0.98888874,0.0,0.0,6.0133185,0,0,0,0,0,0,0,0,0,0,1,4,0,0,1,0,0,0
1743177469809379,15.741994,-1.0,11.052766,0.0,0.76221466,1.0271376,nan,nan,0.0,0.0,0.0,0.0,0.0,0.0,0.0,0.0,0.0,0.0,0.0,0.0,0.0,0.0,0.0,0.0,0.0,0.0,0.005,15.721993,16.18,0.98888874,0.0,0.0,6.0133185,0,0,0,0,0,0,0,0,0,0,1,4,0,0,1,0,0,0
1743177470009379,15.735994,-1.0,11.008647,0.0,0.75888157,1.0275284,nan,nan,0.0,0.0,0.0,0.0,0.0,0.0,0.0,0.0,0.0,0.0,0.0,0.0,0.0,0.0,0.0,0.0,0.0,0.0,0.005,15.715994,16.18,0.98888874,0.0,0.0,6.0133185,0,0,0,0,0,0,0,0,0,0,1,4,0,0,1,0,0,0
1743177470209379,15.729995,-1.0,10.964705,0.0,0.7555485,1.0279197,nan,nan,0.0,0.0,0.0,0.0,0.0,0.0,0.0,0.0,0.0,0.0,0.0,0.0,0.0,0.0,0.0,0.0,0.0,0.0,0.005,15.709994,16.18,0.98888874,0.0,0.0,6.0133185,0,0,0,0,0,0,0,0,0,0,1,4,0,0,1,0,0,0
1743177470409379,15.723995,-1.0,10.9209385,0.0,0.7522154,1.0283111,nan,nan,0.0,0.0,0.0,0.0,0.0,0.0,0.0,0.0,0.0,0.0,0.0,0.0,0.0,0.0,0.0,0.0,0.0,0.0,0.005,15.703995,16.18,0.98888874,0.0,0.0,6.0133185,0,0,0,0,0,0,0,0,0,0,1,4,0,0,1,0,0,0
1743177470609379,15.717996,-1.0,10.877346,0.0,0.7488823,1.0287029,nan,nan,0.0,0.0,0.0,0.0,0.0,0.0,0.0,0.0,0.0,0.0,0.0,0.0,0.0,0.0,0.0,0.0,0.0,0.0,0.005,15.697995,16.18,0.98888874,0.0,0.0,6.0133185,0,0,0,0,0,0,0,0,0,0,1,4,0,0,1,0,0,0
1743177470809379,15.711996,-1.0,10.833929,0.0,0.7455492,1.0290949,nan,nan,0.0,0.0,0.0,0.0,0.0,0.0,0.0,0.0,0.0,0.0,0.0,0.0,0.0,0.0,0.0,0.0,0.0,0.0,0.005,15.691996,16.18,0.98888874,0.0,0.0,6.0133185,0,0,0,0,0,0,0,0,0,0,1,4,0,0,1,0,0,0
1743177471009379,15.7059965,-1.0,10.790684,0.0,0.7422161,1.0294873,nan,nan,0.0,0.0,0.0,0.0,0.0,0.0,0.0,0.0,0.0,0.0,0.0,0.0,0.0,0.0,0.0,0.0,0.0,0.0,0.005,15.685996,16.18,0.98888874,0.0,0.0,6.0133185,0,0,0,0,0,0,0,0,0,0,1,4,0,0,1,0,0,0
1743177471209379,15.699997,-1.0,10.747611,0.0,0.738883,1.0298799,nan,nan,0.0,0.0,0.0,0.0,0.0,0.0,0.0,0.0,0.0,0.0,0.0,0.0,0.0,0.0,0.0,0.0,0.0,0.0,0.005,15.6799965,16.18,0.98888874,0.0,0.0,6.0133185,0,0,0,0,0,0,0,0,0,0,1,4,0,0,1,0,0,0
1743177471409379,15.693997,-1.0,10.704711,0.0,0.7355499,1.0302728,nan,nan,0.0,0.0,0.0,0.0,0.0,0.0,0.0,0.0,0.0,0.0,0.0,0.0,0.0,0.0,0.0,0.0,0.0,0.0,0.005,15.673997,16.18,0.98888874,0.0,0.0,6.0133185,0,0,0,0,0,0,0,0,0,0,1,4,0,0,1,0,0,0
1743177471609379,15.687998,-1.0,10.661983,0.0,0.73221684,1.0306661,nan,nan,0.0,0.0,0.0,0.0,0.0,0.0,0.0,0.0,0.0,0.0,0.0,0.0,0.0,0.0,0.0,0.0,0.0,0.0,0.005,15.667997,16.18,0.98888874,0.0,0.0,6.0133185,0,0,0,0,0,0,0,0,0,0,1,4,0,0,1,0,0,0
1743177471809379,15.681998,-1.0,10.619424,0.0,0.72888374,1.0310596,nan,nan,0.0,0.0,0.0,0.0,0.0,0.0,0.0,0.0,0.0,0.0,0.0,0.0,0.0,0.0,0.0,0.0,0.0,0.0,0.005,15.661998,16.18,0.98888874,0.0,0.0,6.0133185,0,0,0,0,0,0,0,0,0,0,1,4,0,0,1,0,0,0
1743177472009379,15.675999,-1.0,10.577036,0.0,0.72555065,1.0314535,nan,nan,0.0,0.0,0.0,0.0,0.0,0.0,0.0,0.0,0.0,0.0,0.0,0.0,0.0,0.0,0.0,0.0,0.0,0.0,0.005,15.655998,16.18,0.98888874,0.0,0.0,6.0133185,0,0,0,0,0,0,0,0,0,0,1,4,0,0,1,0,0,0
1743177472209379,15.669999,-1.0,10.534816,0.0,0.72221756,1.0318477,nan,nan,0.0,0.0,0.0,0.0,0.0,0.0,0.0,0.0,0.0,0.0,0.0,0.0,0.0,0.0,0.0,0.0,0.0,0.0,0.005,15.649999,16.18,0.98888874,0.0,0.0,6.0133185,0,0,0,0,0,0,0,0,0,0,1,4,0,0,1,0,0,0
1743177472409379,15.664,-1.0,10.492765,0.0,0.71888447,1.0322422,nan,nan,0.0,0.0,0.0,0.0,0.0,0.0,0.0,0.0,0.0,0.0,0.0,0.0,0.0,0.0,0.0,0.0,0.0,0.0,0.005,15.643999,16.18,0.98888874,0.0,0.0,6.0133185,0,0,0,0,0,0,0,0,0,0,1,4,0,0,1,0,0,0
1743177472609379,15.658,-1.0,10.450882,0.0,0.7155514,1.0326369,nan,nan,0.0,0.0,0.0,0.0,0.0,0.0,0.0,0.0,0.0,0.0,0.0,0.0,0.0,0.0,0.0,0.0,0.0,0.0,0.005,15.638,16.18,0.98888874,0.0,0.0,6.0133185,0,0,0,0,0,0,0,0,0,0,1,4,0,0,1,0,0,0
1743177472809379,15.652,-1.0,10.409166,0.0,0.7122183,1.033032,nan,nan,0.0,0.0,0.0,0.0,0.0,0.0,0.0,0.0,0.0,0.0,0.0,0.0,0.0,0.0,0.0,0.0,0.0,0.0,0.005,15.632,16.18,0.98888874,0.0,0.0,6.0133185,0,0,0,0,0,0,0,0,0,0,1,4,0,0,1,0,0,0
1743177473009379,15.646001,-1.0,10.367617,0.0,0.7088852,1.0334274,nan,nan,0.0,0.0,0.0,0.0,0.0,0.0,0.0,0.0,0.0,0.0,0.0,0.0,0.0,0.0,0.0,0.0,0.0,0.0,0.005,15.626,16.18,0.98888874,0.0,0.0,6.0133185,0,0,0,0,0,0,0,0,0,0,1,4,0,0,1,0,0,0
1743177473209379,15.640001,-1.0,10.326233,0.0,0.7055521,1.033823,nan,nan,0.0,0.0,0.0,0.0,0.0,0.0,0.0,0.0,0.0,0.0,0.0,0.0,0.0,0.0,0.0,0.0,0.0,0.0,0.005,15.620001,16.18,0.98888874,0.0,0.0,6.0133185,0,0,0,0,0,0,0,0,0,0,1,4,0,0,1,0,0,0
1743177473409379,15.634002,-1.0,10.285014,0.0,0.702219,1.034219,nan,nan,0.0,0.0,0.0,0.0,0.0,0.0,0.0,0.0,0.0,0.0,0.0,0.0,0.0,0.0,0.0,0.0,0.0,0.0,0.005,15.614001,16.18,0.98888874,0.0,0.0,6.0133185,0,0,0,0,0,0,0,0,0,0,1,4,0,0,1,0,0,0
1743177473609379,15.628002,-1.0,10.243961,0.0,0.6988859,1.0346153,nan,nan,0.0,0.0,0.0,0.0,0.0,0.0,0.0,0.0,0.0,0.0,0.0,0.0,0.0,0.0,0.0,0.0,0.0,0.0,0.005,15.608002,16.18,0.98888874,0.0,0.0,6.0133185,0,0,0,0,0,0,0,0,0,0,1,4,0,0,1,0,0,0
1743177473809379,15.622003,-1.0,10.203072,0.0,0.6955528,1.0350119,nan,nan,0.0,0.0,0.0,0.0,0.0,0.0,0.0,0.0,0.0,0.0,0.0,0.0,0.0,0.0,0.0,0.0,0.0,0.0,0.005,15.602002,16.18,0.98888874,0.0,0.0,6.0133185,0,0,0,0,0,0,0,0,0,0,1,4,0,0,1,0,0,0
1743177474009379,15.616003,-1.0,10.162346,0.0,0.69221973,1.0354087,nan,nan,0.0,0.0,0.0,0.0,0.0,0.0,0.0,0.0,0.0,0.0,0.0,0.0,0.0,0.0,0.0,0.0,0.0,0.0,0.005,15.596003,16.18,0.98888874,0.0,0.0,6.0133185,0,0,0,0,0,0,0,0,0,0,1,4,0,0,1,0,0,0
1743177474209379,15.610003,-1.0,10.121781,0.0,0.68888664,1.035806,nan,nan,0.0,0.0,0.0,0.0,0.0,0.0,0.0,0.0,0.0,0.0,0.0,0.0,0.0,0.0,0.0,0.0,0.0,0.0,0.005,15.590003,16.18,0.98888874,0.0,0.0,6.0133185,0,0,0,0,0,0,0,0,0,0,1,4,0,0,1,0,0,0
1743177474409379,15.604004,-1.0,10.08138,0.0,0.68555355,1.0362034,nan,nan,0.0,0.0,0.0,0.0,0.0,0.0,0.0,0.0,0.0,0.0,0.0,0.0,0.0,0.0,0.0,0.0,0.0,0.0,0.005,15.584003,16.18,0.98888874,0.0,0.0,6.0133185,0,0,0,0,0,0,0,0,0,0,1,4,0,0,1,0,0,0
1743177474609379,15.598004,-1.0,10.041139,0.0,0.68222046,1.0366012,nan,nan,0.0,0.0,0.0,0.0,0.0,0.0,0.0,0.0,0.0,0.0,0.0,0.0,0.0,0.0,0.0,0.0,0.0,0.0,0.005,15.578004,16.18,0.98888874,0.0,0.0,6.0133185,0,0,0,0,0,0,0,0,0,0,1,4,0,0,1,0,0,0
1743177474809379,15.592005,-1.0,10.001059,0.0,0.67888737,1.0369993,nan,nan,0.0,0.0,0.0,0.0,0.0,0.0,0.0,0.0,0.0,0.0,0.0,0.0,0.0,0.0,0.0,0.0,0.0,0.0,0.005,15.572004,16.18,0.98888874,0.0,0.0,6.0133185,0,0,0,0,0,0,0,0,0,0,1,4,0,0,1,0,0,0
1743177475009379,15.586005,-1.0,9.961138,0.0,0.6755543,1.0373977,nan,nan,0.0,0.0,0.0,0.0,0.0,0.0,0.0,0.0,0.0,0.0,0.0,0.0,0.0,0.0,0.0,0.0,0.0,0.0,0.005,15.566005,16.18,0.98888874,0.0,0.0,6.0133185,0,0,0,0,0,0,0,0,0,0,1,4,0,0,1,0,0,0
1743177475209379,15.580006,-1.0,9.921377,0.0,0.6722212,1.0377964,nan,nan,0.0,0.0,0.0,0.0,0.0,0.0,0.0,0.0,0.0,0.0,0.0,0.0,0.0,0.0,0.0,0.0,0.0,0.0,0.005,15.560005,16.18,0.98888874,0.0,0.0,6.0133185,0,0,0,0,0,0,0,0,0,0,1,4,0,0,1,0,0,0
1743177475409379,15.574006,-1.0,9.881775,0.0,0.6688881,1.0381955,nan,nan,0.0,0.0,0.0,0.0,0.0,0.0,0.0,0.0,0.0,0.0,0.0,0.0,0.0,0.0,0.0,0.0,0.0,0.0,0.005,15.554006,16.18,0.98888874,0.0,0.0,6.0133185,0,0,0,0,0,0,0,0,0,0,1,4,0,0,1,0,0,0
1743177475609379,15.5680065,-1.0,9.842331,0.0,0.665555,1.0385947,nan,nan,0.0,0.0,0.0,0.0,0.0,0.0,0.0,0.0,0.0,0.0,0.0,0.0,0.0,0.0,0.0,0.0,0.0,0.0,0.005,15.548006,16.18,0.98888874,0.0,0.0,6.0133185,0,0,0,0,0,0,0,0,0,0,1,4,0,0,1,0,0,0
1743177475809379,15.562007,-1.0,9.803044,0.0,0.6622219,1.0389944,nan,nan,0.0,0.0,0.0,0.0,0.0,0.0,0.0,0.0,0.0,0.0,0.0,0.0,0.0,0.0,0.0,0.0,0.0,0.0,0.005,15.5420065,16.18,0.98888874,0.0,0.0,6.0133185,0,0,0,0,0,0,0,0,0,0,1,4,0,0,1,0,0,0
1743177476009379,15.556007,-1.0,9.763914,0.0,0.6588888,1.0393944,nan,nan,0.0,0.0,0.0,0.0,0.0,0.0,0.0,0.0,0.0,0.0,0.0,0.0,0.0,0.0,0.0,0.0,0.0,0.0,0.005,15.536007,16.18,0.98888874,0.0,0.0,6.0133185,0,0,0,0,0,0,0,0,0,0,1,4,0,0,1,0,0,0
1743177476209379,15.550008,-1.0,9.72494,0.0,0.6555557,1.0397946,nan,nan,0.0,0.0,0.0,0.0,0.0,0.0,0.0,0.0,0.0,0.0,0.0,0.0,0.0,0.0,0.0,0.0,0.0,0.0,0.005,15.530007,16.18,0.98888874,0.0,0.0,6.0133185,0,0,0,0,0,0,0,0,0,0,1,4,0,0,1,0,0,0
1743177476409379,15.544008,-1.0,9.686122,0.0,0.65222263,1.0401951,nan,nan,0.0,0.0,0.0,0.0,0.0,0.0,0.0,0.0,0.0,0.0,0.0,0.0,0.0,0.0,0.0,0.0,0.0,0.0,0.005,15.524008,16.18,0.98888874,0.0,0.0,6.0133185,0,0,0,0,0,0,0,0,0,0,1,4,0,0,1,0,0,0
1743177476609379,15.538009,-1.0,9.647459,0.0,0.64888954,1.040596,nan,nan,0.0,0.0,0.0,0.0,0.0,0.0,0.0,0.0,0.0,0.0,0.0,0.0,0.0,0.0,0.0,0.0,0.0,0.0,0.005,15.518008,16.18,0.98888874,0.0,0.0,6.0133185,0,0,0,0,0,0,0,0,0,0,1,4,0,0,1,0,0,0
1743177476809379,15.532009,-1.0,9.60895,0.0,0.64555645,1.0409971,nan,nan,0.0,0.0,0.0,0.0,0.0,0.0,0.0,0.0,0.0,0.0,0.0,0.0,0.0,0.0,0.0,0.0,0.0,0.0,0.005,15.512009,16.18,0.98888874,0.0,0.0,6.0133185,0,0,0,0,0,0,0,0,0,0,1,4,0,0,1,0,0,0
1743177477009379,15.52601,-1.0,9.570593,0.0,0.64222336,1.0413986,nan,nan,0.0,0.0,0.0,0.0,0.0,0.0,0.0,0.0,0.0,0.0,0.0,0.0,0.0,0.0,0.0,0.0,0.0,0.0,0.005,15.506009,16.18,0.98888874,0.0,0.0,6.0133185,0,0,0,0,0,0,0,0,0,0,1,4,0,0,1,0,0,0
1743177477209379,15.52001,-1.0,9.5323925,0.0,0.63889027,1.0418005,nan,nan,0.0,0.0,0.0,0.0,0.0,0.0,0.0,0.0,0.0,0.0,0.0,0.0,0.0,0.0,0.0,0.0,0.0,0.0,0.005,15.50001,16.18,0.98888874,0.0,0.0,6.0133185,0,0,0,0,0,0,0,0,0,0,1,4,0,0,1,0,0,0
1743177477409379,15.51401,-1.0,9.494344,0.0,0.6355572,1.0422026,nan,nan,0.0,0.0,0.0,0.0,0.0,0.0,0.0,0.0,0.0,0.0,0.0,0.0,0.0,0.0,0.0,0.0,0.0,0.0,0.005,15.49401,16.18,0.98888874,0.0,0.0,6.0133185,0,0,0,0,0,0,0,0,0,0,1,4,0,0,1,0,0,0
1743177477609379,15.508011,-1.0,9.456445,0.0,0.6322241,1.042605,nan,nan,0.0,0.0,0.0,0.0,0.0,0.0,0.0,0.0,0.0,0.0,0.0,0.0,0.0,0.0,0.0,0.0,0.0,0.0,0.005,15.48801,16.18,0.98888874,0.0,0.0,6.0133185,0,0,0,0,0,0,0,0,0,0,1,4,0,0,1,0,0,0
1743177477809379,15.502011,-1.0,9.418698,0.0,0.628891,1.0430077,nan,nan,0.0,0.0,0.0,0.0,0.0,0.0,0.0,0.0,0.0,0.0,0.0,0.0,0.0,0.0,0.0,0.0,0.0,0.0,0.005,15.482011,16.18,0.98888874,0.0,0.0,6.0133185,0,0,0,0,0,0,0,0,0,0,1,4,0,0,1,0,0,0
1743177478009379,15.496012,-1.0,9.381103,0.0,0.6255579,1.0434108,nan,nan,0.0,0.0,0.0,0.0,0.0,0.0,0.0,0.0,0.0,0.0,0.0,0.0,0.0,0.0,0.0,0.0,0.0,0.0,0.005,15.476011,16.18,0.98888874,0.0,0.0,6.0133185,0,0,0,0,0,0,0,0,0,0,1,4,0,0,1,0,0,0
1743177478209379,15.490012,-1.0,9.343657,0.0,0.6222248,1.0438142,nan,nan,0.0,0.0,0.0,0.0,0.0,0.0,0.0,0.0,0.0,0.0,0.0,0.0,0.0,0.0,0.0,0.0,0.0,0.0,0.005,15.470012,16.18,0.98888874,0.0,0.0,6.0133185,0,0,0,0,0,0,0,0,0,0,1,4,0,0,1,0,0,0
1743177478409379,15.484013,-1.0,9.30636,0.0,0.6188917,1.0442178,nan,nan,0.0,0.0,0.0,0.0,0.0,0.0,0.0,0.0,0.0,0.0,0.0,0.0,0.0,0.0,0.0,0.0,0.0,0.0,0.005,15.464012,16.18,0.98888874,0.0,0.0,6.0133185,0,0,0,0,0,0,0,0,0,0,1,4,0,0,1,0,0,0
1743177478609379,15.478012,-1.0,9.269213,0.0,0.6155577,1.0446218,nan,nan,0.0,0.0,0.0,0.0,0.0,0.0,0.0,0.0,0.0,0.0,0.0,0.0,0.0,0.0,0.0,0.0,0.0,0.0,0.005,15.458012,16.18,0.98888874,0.0,0.0,6.0133185,0,0,0,0,0,0,0,0,0,0,1,4,0,0,1,0,0,0
1743177478809379,15.472013,-1.0,9.232213,0.0,0.61222553,1.0450261,nan,nan,0.0,0.0,0.0,0.0,0.0,0.0,0.0,0.0,0.0,0.0,0.0,0.0,0.0,0.0,0.0,0.0,0.0,0.0,0.005,15.452013,16.18,0.98888874,0.0,0.0,6.0133185,0,0,0,0,0,0,0,0,0,0,1,4,0,0,1,0,0,0
1743177479009379,15.466013,-1.0,9.195362,0.0,0.6088915,1.0454308,nan,nan,0.0,0.0,0.0,0.0,0.0,0.0,0.0,0.0,0.0,0.0,0.0,0.0,0.0,0.0,0.0,0.0,0.0,0.0,0.005,15.4460125,16.18,0.98888874,0.0,0.0,6.0133185,0,0,0,0,0,0,0,0,0,0,1,4,0,0,1,0,0,0
1743177479209379,15.460014,-1.0,9.158658,0.0,0.60555935,1.0458356,nan,nan,0.0,0.0,0.0,0.0,0.0,0.0,0.0,0.0,0.0,0.0,0.0,0.0,0.0,0.0,0.0,0.0,0.0,0.0,0.005,15.440014,16.18,0.98888874,0.0,0.0,6.0133185,0,0,0,0,0,0,0,0,0,0,1,4,0,0,1,0,0,0
1743177479409379,15.454014,-1.0,9.122101,0.0,0.6022253,1.0462408,nan,nan,0.0,0.0,0.0,0.0,0.0,0.0,0.0,0.0,0.0,0.0,0.0,0.0,0.0,0.0,0.0,0.0,0.0,0.0,0.005,15.434013,16.18,0.98888874,0.0,0.0,6.0133185,0,0,0,0,0,0,0,0,0,0,1,4,0,0,1,0,0,0
1743177479609379,15.448015,-1.0,9.085689,0.0,0.59889317,1.0466464,nan,nan,0.0,0.0,0.0,0.0,0.0,0.0,0.0,0.0,0.0,0.0,0.0,0.0,0.0,0.0,0.0,0.0,0.0,0.0,0.005,15.428015,16.18,0.98888874,0.0,0.0,6.0133185,0,0,0,0,0,0,0,0,0,0,1,4,0,0,1,0,0,0
1743177479809379,15.442015,-1.0,9.049421,0.0,0.5955591,1.0470523,nan,nan,0.0,0.0,0.0,0.0,0.0,0.0,0.0,0.0,0.0,0.0,0.0,0.0,0.0,0.0,0.0,0.0,0.0,0.0,0.005,15.422014,16.18,0.98888874,0.0,0.0,6.0133185,0,0,0,0,0,0,0,0,0,0,1,4,0,0,1,0,0,0
1743177480009379,15.436016,-1.0,9.0133,0.0,0.592227,1.0474584,nan,nan,0.0,0.0,0.0,0.0,0.0,0.0,0.0,0.0,0.0,0.0,0.0,0.0,0.0,0.0,0.0,0.0,0.0,0.0,0.005,15.416016,16.18,0.98888874,0.0,0.0,6.0133185,0,0,0,0,0,0,0,0,0,0,1,4,0,0,1,0,0,0
1743177480209379,15.430016,-1.0,8.977323,0.0,0.58889294,1.0478649,nan,nan,0.0,0.0,0.0,0.0,0.0,0.0,0.0,0.0,0.0,0.0,0.0,0.0,0.0,0.0,0.0,0.0,0.0,0.0,0.005,15.410015,16.18,0.98888874,0.0,0.0,6.0133185,0,0,0,0,0,0,0,0,0,0,1,4,0,0,1,0,0,0
1743177480409379,15.424017,-1.0,8.941488,0.0,0.5855608,1.0482717,nan,nan,0.0,0.0,0.0,0.0,0.0,0.0,0.0,0.0,0.0,0.0,0.0,0.0,0.0,0.0,0.0,0.0,0.0,0.0,0.005,15.4040165,16.18,0.98888874,0.0,0.0,6.0133185,0,0,0,0,0,0,0,0,0,0,1,4,0,0,1,0,0,0
1743177480609379,15.418016,-1.0,8.905797,0.0,0.58222675,1.0486789,nan,nan,0.0,0.0,0.0,0.0,0.0,0.0,0.0,0.0,0.0,0.0,0.0,0.0,0.0,0.0,0.0,0.0,0.0,0.0,0.005,15.398016,16.18,0.98888874,0.0,0.0,6.0133185,0,0,0,0,0,0,0,0,0,0,1,4,0,0,1,0,0,0
1743177480809379,15.412018,-1.0,8.870249,0.0,0.5788946,1.0490862,nan,nan,0.0,0.0,0.0,0.0,0.0,0.0,0.0,0.0,0.0,0.0,0.0,0.0,0.0,0.0,0.0,0.0,0.0,0.0,0.005,15.392017,16.18,0.98888874,0.0,0.0,6.0133185,0,0,0,0,0,0,0,0,0,0,1,4,0,0,1,0,0,0
1743177481009379,15.406017,-1.0,8.834842,0.0,0.57556057,1.049494,nan,nan,0.0,0.0,0.0,0.0,0.0,0.0,0.0,0.0,0.0,0.0,0.0,0.0,0.0,0.0,0.0,0.0,0.0,0.0,0.005,15.386017,16.18,0.98888874,0.0,0.0,6.0133185,0,0,0,0,0,0,0,0,0,0,1,4,0,0,1,0,0,0
1743177481209379,15.400019,-1.0,8.799577,0.0,0.57222843,1.0499021,nan,nan,0.0,0.0,0.0,0.0,0.0,0.0,0.0,0.0,0.0,0.0,0.0,0.0,0.0,0.0,0.0,0.0,0.0,0.0,0.005,15.380018,16.18,0.98888874,0.0,0.0,6.0133185,0,0,0,0,0,0,0,0,0,0,1,4,0,0,1,0,0,0
1743177481409379,15.394018,-1.0,8.764452,0.0,0.5688944,1.0503105,nan,nan,0.0,0.0,0.0,0.0,0.0,0.0,0.0,0.0,0.0,0.0,0.0,0.0,0.0,0.0,0.0,0.0,0.0,0.0,0.005,15.374018,16.18,0.98888874,0.0,0.0,6.0133185,0,0,0,0,0,0,0,0,0,0,1,4,0,0,1,0,0,0
1743177481609379,15.38802,-1.0,8.729467,0.0,0.56556225,1.0507191,nan,nan,0.0,0.0,0.0,0.0,0.0,0.0,0.0,0.0,0.0,0.0,0.0,0.0,0.0,0.0,0.0,0.0,0.0,0.0,0.005,15.368019,16.18,0.98888874,0.0,0.0,6.0133185,0,0,0,0,0,0,0,0,0,0,1,4,0,0,1,0,0,0
1743177481809379,15.382019,-1.0,8.694623,0.0,0.5622282,1.0511283,nan,nan,0.0,0.0,0.0,0.0,0.0,0.0,0.0,0.0,0.0,0.0,0.0,0.0,0.0,0.0,0.0,0.0,0.0,0.0,0.005,15.362019,16.18,0.98888874,0.0,0.0,6.0133185,0,0,0,0,0,0,0,0,0,0,1,4,0,0,1,0,0,0
1743177482009379,15.37602,-1.0,8.659918,0.0,0.55889606,1.0515375,nan,nan,0.0,0.0,0.0,0.0,0.0,0.0,0.0,0.0,0.0,0.0,0.0,0.0,0.0,0.0,0.0,0.0,0.0,0.0,0.005,15.35602,16.18,0.98888874,0.0,0.0,6.0133185,0,0,0,0,0,0,0,0,0,0,1,4,0,0,1,0,0,0
1743177482209379,15.37002,-1.0,8.625351,0.0,0.555562,1.0519472,nan,nan,0.0,0.0,0.0,0.0,0.0,0.0,0.0,0.0,0.0,0.0,0.0,0.0,0.0,0.0,0.0,0.0,0.0,0.0,0.005,15.350019,16.18,0.98888874,0.0,0.0,6.0133185,0,0,0,0,0,0,0,0,0,0,1,4,0,0,1,0,0,0
1743177482409379,15.364021,-1.0,8.590921,0.0,0.5522299,1.0523571,nan,nan,0.0,0.0,0.0,0.0,0.0,0.0,0.0,0.0,0.0,0.0,0.0,0.0,0.0,0.0,0.0,0.0,0.0,0.0,0.005,15.344021,16.18,0.98888874,0.0,0.0,6.0133185,0,0,0,0,0,0,0,0,0,0,1,4,0,0,1,0,0,0
1743177482609379,15.358021,-1.0,8.55663,0.0,0.54889584,1.0527675,nan,nan,0.0,0.0,0.0,0.0,0.0,0.0,0.0,0.0,0.0,0.0,0.0,0.0,0.0,0.0,0.0,0.0,0.0,0.0,0.005,15.33802,16.18,0.98888874,0.0,0.0,6.0133185,0,0,0,0,0,0,0,0,0,0,1,4,0,0,1,0,0,0
1743177482809379,15.352022,-1.0,8.522475,0.0,0.5455637,1.0531781,nan,nan,0.0,0.0,0.0,0.0,0.0,0.0,0.0,0.0,0.0,0.0,0.0,0.0,0.0,0.0,0.0,0.0,0.0,0.0,0.005,15.332022,16.18,0.98888874,0.0,0.0,6.0133185,0,0,0,0,0,0,0,0,0,0,1,4,0,0,1,0,0,0
1743177483009379,15.346022,-1.0,8.488456,0.0,0.54222965,1.0535891,nan,nan,0.0,0.0,0.0,0.0,0.0,0.0,0.0,0.0,0.0,0.0,0.0,0.0,0.0,0.0,0.0,0.0,0.0,0.0,0.005,15.326021,16.18,0.98888874,0.0,0.0,6.0133185,0,0,0,0,0,0,0,0,0,0,1,4,0,0,1,0,0,0
1743177483209379,15.340022,-1.0,8.454574,0.0,0.53889656,1.0540003,nan,nan,0.0,0.0,0.0,0.0,0.0,0.0,0.0,0.0,0.0,0.0,0.0,0.0,0.0,0.0,0.0,0.0,0.0,0.0,0.005,15.320022,16.18,0.98888874,0.0,0.0,6.0133185,0,0,0,0,0,0,0,0,0,0,1,4,0,0,1,0,0,0
1743177483409379,15.3340225,-1.0,8.420826,0.0,0.53556347,1.0544119,nan,nan,0.0,0.0,0.0,0.0,0.0,0.0,0.0,0.0,0.0,0.0,0.0,0.0,0.0,0.0,0.0,0.0,0.0,0.0,0.005,15.314022,16.18,0.98888874,0.0,0.0,6.0133185,0,0,0,0,0,0,0,0,0,0,1,4,0,0,1,0,0,0
1743177483609379,15.328023,-1.0,8.387213,0.0,0.5322304,1.0548238,nan,nan,0.0,0.0,0.0,0.0,0.0,0.0,0.0,0.0,0.0,0.0,0.0,0.0,0.0,0.0,0.0,0.0,0.0,0.0,0.005,15.3080225,16.18,0.98888874,0.0,0.0,6.0133185,0,0,0,0,0,0,0,0,0,0,1,4,0,0,1,0,0,0
1743177483809379,15.322023,-1.0,8.353734,0.0,0.5288973,1.055236,nan,nan,0.0,0.0,0.0,0.0,0.0,0.0,0.0,0.0,0.0,0.0,0.0,0.0,0.0,0.0,0.0,0.0,0.0,0.0,0.005,15.302023,16.18,0.98888874,0.0,0.0,6.0133185,0,0,0,0,0,0,0,0,0,0,1,4,0,0,1,0,0,0
1743177484009379,15.316024,-1.0,8.320389,0.0,0.5255642,1.0556486,nan,nan,0.0,0.0,0.0,0.0,0.0,0.0,0.0,0.0,0.0,0.0,0.0,0.0,0.0,0.0,0.0,0.0,0.0,0.0,0.005,15.296023,16.18,0.98888874,0.0,0.0,6.0133185,0,0,0,0,0,0,0,0,0,0,1,4,0,0,1,0,0,0
1743177484209379,15.310024,-1.0,8.287177,0.0,0.5222311,1.0560614,nan,nan,0.0,0.0,0.0,0.0,0.0,0.0,0.0,0.0,0.0,0.0,0.0,0.0,0.0,0.0,0.0,0.0,0.0,0.0,0.005,15.290024,16.18,0.98888874,0.0,0.0,6.0133185,0,0,0,0,0,0,0,0,0,0,1,4,0,0,1,0,0,0
1743177484409379,15.304025,-1.0,8.254098,0.0,0.518898,1.0564747,nan,nan,0.0,0.0,0.0,0.0,0.0,0.0,0.0,0.0,0.0,0.0,0.0,0.0,0.0,0.0,0.0,0.0,0.0,0.0,0.005,15.284024,16.18,0.98888874,0.0,0.0,6.0133185,0,0,0,0,0,0,0,0,0,0,1,4,0,0,1,0,0,0
1743177484609379,15.3,-1.0,8.22115,0.0,0.5156059,1.0568831,nan,nan,0.0,0.0,0.0,0.0,0.0,0.0,0.0,0.0,0.0,0.0,0.0,0.0,0.0,0.0,0.0,0.0,0.0,0.0,0.005,15.28,16.18,0.98888874,0.0,0.0,6.0133185,0,0,0,0,0,0,0,0,0,0,1,4,0,0,1,0,0,0
1743177484809379,15.3,-1.0,8.188334,0.0,0.5127897,1.0572327,nan,nan,0.0,0.0,0.0,0.0,0.0,0.0,0.0,0.0,0.0,0.0,0.0,0.0,0.0,0.0,0.0,0.0,0.0,0.0,0.005,15.28,16.18,0.98888874,0.0,0.0,6.0133185,0,0,0,0,0,0,0,0,0,0,1,4,0,0,1,0,0,0
1743177485009379,15.3,-1.0,8.15565,0.0,0.5104809,1.0575196,nan,nan,0.0,0.0,0.0,0.0,0.0,0.0,0.0,0.0,0.0,0.0,0.0,0.0,0.0,0.0,0.0,0.0,0.0,0.0,0.005,15.28,16.18,0.98888874,0.0,0.0,6.0133185,0,0,0,0,0,0,0,0,0,0,1,4,0,0,1,0,0,0
1743177485209379,15.3,-1.0,8.123095,0.0,0.50858974,1.0577546,nan,nan,0.0,0.0,0.0,0.0,0.0,0.0,0.0,0.0,0.0,0.0,0.0,0.0,0.0,0.0,0.0,0.0,0.0,0.0,0.005,15.28,16.18,0.98888874,0.0,0.0,6.0133185,0,0,0,0,0,0,0,0,0,0,1,4,0,0,1,0,0,0
1743177485409379,15.3,-1.0,8.090672,0.0,0.50703907,1.0579474,nan,nan,0.0,0.0,0.0,0.0,0.0,0.0,0.0,0.0,0.0,0.0,0.0,0.0,0.0,0.0,0.0,0.0,0.0,0.0,0.005,15.28,16.18,0.98888874,0.0,0.0,6.0133185,0,0,0,0,0,0,0,0,0,0,1,4,0,0,1,0,0,0
1743177485609379,15.3,-1.0,8.058377,0.0,0.5057697,1.0581053,nan,nan,0.0,0.0,0.0,0.0,0.0,0.0,0.0,0.0,0.0,0.0,0.0,0.0,0.0,0.0,0.0,0.0,0.0,0.0,0.005,15.28,16.18,0.98888874,0.0,0.0,6.0133185,0,0,0,0,0,0,0,0,0,0,1,4,0,0,1,0,0,0
1743177485809379,15.3,-1.0,8.02621,0.0,0.50472546,1.0582352,nan,nan,0.0,0.0,0.0,0.0,0.0,0.0,0.0,0.0,0.0,0.0,0.0,0.0,0.0,0.0,0.0,0.0,0.0,0.0,0.005,15.28,16.18,0.98888874,0.0,0.0,6.0133185,0,0,0,0,0,0,0,0,0,0,1,4,0,0,1,0,0,0
1743177486009379,15.3,-1.0,7.99417,0.0,0.5038729,1.0583414,nan,nan,0.0,0.0,0.0,0.0,0.0,0.0,0.0,0.0,0.0,0.0,0.0,0.0,0.0,0.0,0.0,0.0,0.0,0.0,0.005,15.28,16.18,0.98888874,0.0,0.0,6.0133185,0,0,0,0,0,0,0,0,0,0,1,4,0,0,1,0,0,0
1743177486209379,15.3,-1.0,7.9622602,0.0,0.5031738,1.0584284,nan,nan,0.0,0.0,0.0,0.0,0.0,0.0,0.0,0.0,0.0,0.0,0.0,0.0,0.0,0.0,0.0,0.0,0.0,0.0,0.005,15.28,16.18,0.98888874,0.0,0.0,6.0133185,0,0,0,0,0,0,0,0,0,0,1,4,0,0,1,0,0,0
1743177486409379,15.3,-1.0,7.9304776,0.0,0.5025997,1.0584997,nan,nan,0.0,0.0,0.0,0.0,0.0,0.0,0.0,0.0,0.0,0.0,0.0,0.0,0.0,0.0,0.0,0.0,0.0,0.0,0.005,15.28,16.18,0.98888874,0.0,0.0,6.0133185,0,0,0,0,0,0,0,0,0,0,1,4,0,0,1,0,0,0
1743177486609379,15.3,-1.0,7.898822,0.0,0.5021305,1.0585582,nan,nan,0.0,0.0,0.0,0.0,0.0,0.0,0.0,0.0,0.0,0.0,0.0,0.0,0.0,0.0,0.0,0.0,0.0,0.0,0.005,15.28,16.18,0.98888874,0.0,0.0,6.0133185,0,0,0,0,0,0,0,0,0,0,1,4,0,0,1,0,0,0
1743177486809379,15.3,-1.0,7.8672934,0.0,0.5017462,1.058606,nan,nan,0.0,0.0,0.0,0.0,0.0,0.0,0.0,0.0,0.0,0.0,0.0,0.0,0.0,0.0,0.0,0.0,0.0,0.0,0.005,15.28,16.18,0.98888874,0.0,0.0,6.0133185,0,0,0,0,0,0,0,0,0,0,1,4,0,0,1,0,0,0
1743177487009379,15.3,-1.0,7.83589,0.0,0.5014305,1.0586454,nan,nan,0.0,0.0,0.0,0.0,0.0,0.0,0.0,0.0,0.0,0.0,0.0,0.0,0.0,0.0,0.0,0.0,0.0,0.0,0.005,15.28,16.18,0.98888874,0.0,0.0,6.0133185,0,0,0,0,0,0,0,0,0,0,1,4,0,0,1,0,0,0
1743177487209379,15.3,-1.0,7.8046126,0.0,0.501173,1.0586774,nan,nan,0.0,0.0,0.0,0.0,0.0,0.0,0.0,0.0,0.0,0.0,0.0,0.0,0.0,0.0,0.0,0.0,0.0,0.0,0.005,15.28,16.18,0.98888874,0.0,0.0,6.0133185,0,0,0,0,0,0,0,0,0,0,1,4,0,0,1,0,0,0
1743177487409379,15.3,-1.0,7.7734594,0.0,0.5009613,1.0587038,nan,nan,0.0,0.0,0.0,0.0,0.0,0.0,0.0,0.0,0.0,0.0,0.0,0.0,0.0,0.0,0.0,0.0,0.0,0.0,0.005,15.28,16.18,0.98888874,0.0,0.0,6.0133185,0,0,0,0,0,0,0,0,0,0,1,4,0,0,1,0,0,0
1743177487609379,15.3,-1.0,7.7424307,0.0,0.50078773,1.0587254,nan,nan,0.0,0.0,0.0,0.0,0.0,0.0,0.0,0.0,0.0,0.0,0.0,0.0,0.0,0.0,0.0,0.0,0.0,0.0,0.005,15.28,16.18,0.98888874,0.0,0.0,6.0133185,0,0,0,0,0,0,0,0,0,0,1,4,0,0,1,0,0,0
1743177487809379,15.3,-1.0,7.711526,0.0,0.5006466,1.058743,nan,nan,0.0,0.0,0.0,0.0,0.0,0.0,0.0,0.0,0.0,0.0,0.0,0.0,0.0,0.0,0.0,0.0,0.0,0.0,0.005,15.28,16.18,0.98888874,0.0,0.0,6.0133185,0,0,0,0,0,0,0,0,0,0,1,4,0,0,1,0,0,0
1743177488009379,15.3,-1.0,7.680744,0.0,0.5005293,1.0587575,nan,nan,0.0,0.0,0.0,0.0,0.0,0.0,0.0,0.0,0.0,0.0,0.0,0.0,0.0,0.0,0.0,0.0,0.0,0.0,0.005,15.28,16.18,0.98888874,0.0,0.0,6.0133185,0,0,0,0,0,0,0,0,0,0,1,4,0,0,1,0,0,0
1743177488209379,15.3,-1.0,7.6500854,0.0,0.5004339,1.0587695,nan,nan,0.0,0.0,0.0,0.0,0.0,0.0,0.0,0.0,0.0,0.0,0.0,0.0,0.0,0.0,0.0,0.0,0.0,0.0,0.005,15.28,16.18,0.98888874,0.0,0.0,6.0133185,0,0,0,0,0,0,0,0,0,0,1,4,0,0,1,0,0,0
1743177488409379,15.3,-1.0,7.6195493,0.0,0.5003557,1.0587792,nan,nan,0.0,0.0,0.0,0.0,0.0,0.0,0.0,0.0,0.0,0.0,0.0,0.0,0.0,0.0,0.0,0.0,0.0,0.0,0.005,15.28,16.18,0.98888874,0.0,0.0,6.0133185,0,0,0,0,0,0,0,0,0,0,1,4,0,0,1,0,0,0
1743177488609379,15.3,-1.0,7.589135,0.0,0.5002909,1.0587873,nan,nan,0.0,0.0,0.0,0.0,0.0,0.0,0.0,0.0,0.0,0.0,0.0,0.0,0.0,0.0,0.0,0.0,0.0,0.0,0.005,15.28,16.18,0.98888874,0.0,0.0,6.0133185,0,0,0,0,0,0,0,0,0,0,1,4,0,0,1,0,0,0
1743177488809379,15.3,-1.0,7.5588427,0.0,0.5002384,1.0587939,nan,nan,0.0,0.0,0.0,0.0,0.0,0.0,0.0,0.0,0.0,0.0,0.0,0.0,0.0,0.0,0.0,0.0,0.0,0.0,0.005,15.28,16.18,0.98888874,0.0,0.0,6.0133185,0,0,0,0,0,0,0,0,0,0,1,4,0,0,1,0,0,0
1743177489009379,15.3,-1.0,7.5286703,0.0,0.5001955,1.0587991,nan,nan,0.0,0.0,0.0,0.0,0.0,0.0,0.0,0.0,0.0,0.0,0.0,0.0,0.0,0.0,0.0,0.0,0.0,0.0,0.005,15.28,16.18,0.98888874,0.0,0.0,6.0133185,0,0,0,0,0,0,0,0,0,0,1,4,0,0,1,0,0,0
1743177489209379,15.3,-1.0,7.498619,0.0,0.5001612,1.0588034,nan,nan,0.0,0.0,0.0,0.0,0.0,0.0,0.0,0.0,0.0,0.0,0.0,0.0,0.0,0.0,0.0,0.0,0.0,0.0,0.005,15.28,16.18,0.98888874,0.0,0.0,6.0133185,0,0,0,0,0,0,0,0,0,0,1,4,0,0,1,0,0,0
1743177489409379,15.3,-1.0,7.4686875,0.0,0.50013065,1.0588073,nan,nan,0.0,0.0,0.0,0.0,0.0,0.0,0.0,0.0,0.0,0.0,0.0,0.0,0.0,0.0,0.0,0.0,0.0,0.0,0.005,15.28,16.18,0.98888874,0.0,0.0,6.0133185,0,0,0,0,0,0,0,0,0,0,1,4,0,0,1,0,0,0
1743177489609379,15.3,-1.0,7.4388757,0.0,0.5001097,1.0588099,nan,nan,0.0,0.0,0.0,0.0,0.0,0.0,0.0,0.0,0.0,0.0,0.0,0.0,0.0,0.0,0.0,0.0,0.0,0.0,0.005,15.28,16.18,0.98888874,0.0,0.0,6.0133185,0,0,0,0,0,0,0,0,0,0,1,4,0,0,1,0,0,0
1743177489809379,15.3,-1.0,7.4091825,0.0,0.5000887,1.0588125,nan,nan,0.0,0.0,0.0,0.0,0.0,0.0,0.0,0.0,0.0,0.0,0.0,0.0,0.0,0.0,0.0,0.0,0.0,0.0,0.005,15.28,16.18,0.98888874,0.0,0.0,6.0133185,0,0,0,0,0,0,0,0,0,0,1,4,0,0,1,0,0,0
1743177490009379,15.3,-1.0,7.379608,0.0,0.50007343,1.0588144,nan,nan,0.0,0.0,0.0,0.0,0.0,0.0,0.0,0.0,0.0,0.0,0.0,0.0,0.0,0.0,0.0,0.0,0.0,0.0,0.005,15.28,16.18,0.98888874,0.0,0.0,6.0133185,0,0,0,0,0,0,0,0,0,0,1,4,0,0,1,0,0,0
1743177490209379,15.3,-1.0,7.3501515,0.0,0.50006294,1.0588157,nan,nan,0.0,0.0,0.0,0.0,0.0,0.0,0.0,0.0,0.0,0.0,0.0,0.0,0.0,0.0,0.0,0.0,0.0,0.0,0.005,15.28,16.18,0.98888874,0.0,0.0,6.0133185,0,0,0,0,0,0,0,0,0,0,1,4,0,0,1,0,0,0
1743177490409379,15.3,-1.0,7.3208127,0.0,0.50005245,1.058817,nan,nan,0.0,0.0,0.0,0.0,0.0,0.0,0.0,0.0,0.0,0.0,0.0,0.0,0.0,0.0,0.0,0.0,0.0,0.0,0.005,15.28,16.18,0.98888874,0.0,0.0,6.0133185,0,0,0,0,0,0,0,0,0,0,1,4,0,0,1,0,0,0
1743177490609379,15.3,-1.0,7.2915907,0.0,0.50004196,1.0588183,nan,nan,0.0,0.0,0.0,0.0,0.0,0.0,0.0,0.0,0.0,0.0,0.0,0.0,0.0,0.0,0.0,0.0,0.0,0.0,0.005,15.28,16.18,0.98888874,0.0,0.0,6.0133185,0,0,0,0,0,0,0,0,0,0,1,4,0,0,1,0,0,0
1743177490809379,15.3,-1.0,7.2624855,0.0,0.5000315,1.0588197,nan,nan,0.0,0.0,0.0,0.0,0.0,0.0,0.0,0.0,0.0,0.0,0.0,0.0,0.0,0.0,0.0,0.0,0.0,0.0,0.005,15.28,16.18,0.98888874,0.0,0.0,6.0133185,0,0,0,0,0,0,0,0,0,0,1,4,0,0,1,0,0,0
1743177491009379,15.3,-1.0,7.2334967,0.0,0.5000267,1.0588202,nan,nan,0.0,0.0,0.0,0.0,0.0,0.0,0.0,0.0,0.0,0.0,0.0,0.0,0.0,0.0,0.0,0.0,0.0,0.0,0.005,15.28,16.18,0.98888874,0.0,0.0,6.0133185,0,0,0,0,0,0,0,0,0,0,1,4,0,0,1,0,0,0
1743177491209379,15.3,-1.0,7.2046237,0.0,0.5000267,1.0588202,nan,nan,0.0,0.0,0.0,0.0,0.0,0.0,0.0,0.0,0.0,0.0,0.0,0.0,0.0,0.0,0.0,0.0,0.0,0.0,0.005,15.28,16.18,0.98888874,0.0,0.0,6.0133185,0,0,0,0,0,0,0,0,0,0,1,4,0,0,1,0,0,0
1743177491409379,15.3,-1.0,7.1758657,0.0,0.5000267,1.0588202,nan,nan,0.0,0.0,0.0,0.0,0.0,0.0,0.0,0.0,0.0,0.0,0.0,0.0,0.0,0.0,0.0,0.0,0.0,0.0,0.005,15.28,16.18,0.98888874,0.0,0.0,6.0133185,0,0,0,0,0,0,0,0,0,0,1,4,0,0,1,0,0,0
1743177491609379,15.3,-1.0,7.147222,0.0,0.5000267,1.0588202,nan,nan,0.0,0.0,0.0,0.0,0.0,0.0,0.0,0.0,0.0,0.0,0.0,0.0,0.0,0.0,0.0,0.0,0.0,0.0,0.005,15.28,16.18,0.98888874,0.0,0.0,6.0133185,0,0,0,0,0,0,0,0,0,0,1,4,0,0,1,0,0,0
1743177491809379,15.3,-1.0,7.118693,0.0,0.5000267,1.0588202,nan,nan,0.0,0.0,0.0,0.0,0.0,0.0,0.0,0.0,0.0,0.0,0.0,0.0,0.0,0.0,0.0,0.0,0.0,0.0,0.005,15.28,16.18,0.98888874,0.0,0.0,6.0133185,0,0,0,0,0,0,0,0,0,0,1,4,0,0,1,0,0,0
1743177492009379,15.3,-1.0,7.090278,0.0,0.5000267,1.0588202,nan,nan,0.0,0.0,0.0,0.0,0.0,0.0,0.0,0.0,0.0,0.0,0.0,0.0,0.0,0.0,0.0,0.0,0.0,0.0,0.005,15.28,16.18,0.98888874,0.0,0.0,6.0133185,0,0,0,0,0,0,0,0,0,0,1,4,0,0,1,0,0,0
1743177492209379,15.3,-1.0,7.061976,0.0,0.5000267,1.0588202,nan,nan,0.0,0.0,0.0,0.0,0.0,0.0,0.0,0.0,0.0,0.0,0.0,0.0,0.0,0.0,0.0,0.0,0.0,0.0,0.005,15.28,16.18,0.98888874,0.0,0.0,6.0133185,0,0,0,0,0,0,0,0,0,0,1,4,0,0,1,0,0,0
1743177492409379,15.3,-1.0,7.0337877,0.0,0.5000267,1.0588202,nan,nan,0.0,0.0,0.0,0.0,0.0,0.0,0.0,0.0,0.0,0.0,0.0,0.0,0.0,0.0,0.0,0.0,0.0,0.0,0.005,15.28,16.18,0.98888874,0.0,0.0,6.0133185,0,0,0,0,0,0,0,0,0,0,1,4,0,0,1,0,0,0
1743177492609379,15.3,-1.0,7.0057116,0.0,0.5000267,1.0588202,nan,nan,0.0,0.0,0.0,0.0,0.0,0.0,0.0,0.0,0.0,0.0,0.0,0.0,0.0,0.0,0.0,0.0,0.0,0.0,0.005,15.28,16.18,0.98888874,0.0,0.0,6.0133185,0,0,0,0,0,0,0,0,0,0,1,4,0,0,1,0,0,0
1743177492809379,15.3,-1.0,6.9777474,0.0,0.5000267,1.0588202,nan,nan,0.0,0.0,0.0,0.0,0.0,0.0,0.0,0.0,0.0,0.0,0.0,0.0,0.0,0.0,0.0,0.0,0.0,0.0,0.005,15.28,16.18,0.98888874,0.0,0.0,6.0133185,0,0,0,0,0,0,0,0,0,0,1,4,0,0,1,0,0,0
1743177493009379,15.3,-1.0,6.949895,0.0,0.5000267,1.0588202,nan,nan,0.0,0.0,0.0,0.0,0.0,0.0,0.0,0.0,0.0,0.0,0.0,0.0,0.0,0.0,0.0,0.0,0.0,0.0,0.005,15.28,16.18,0.98888874,0.0,0.0,6.0133185,0,0,0,0,0,0,0,0,0,0,1,4,0,0,1,0,0,0
1743177493209379,15.3,-1.0,6.9221535,0.0,0.5000267,1.0588202,nan,nan,0.0,0.0,0.0,0.0,0.0,0.0,0.0,0.0,0.0,0.0,0.0,0.0,0.0,0.0,0.0,0.0,0.0,0.0,0.005,15.28,16.18,0.98888874,0.0,0.0,6.0133185,0,0,0,0,0,0,0,0,0,0,1,4,0,0,1,0,0,0
1743177493409379,15.3,-1.0,6.8945227,0.0,0.5000267,1.0588202,nan,nan,0.0,0.0,0.0,0.0,0.0,0.0,0.0,0.0,0.0,0.0,0.0,0.0,0.0,0.0,0.0,0.0,0.0,0.0,0.005,15.28,16.18,0.98888874,0.0,0.0,6.0133185,0,0,0,0,0,0,0,0,0,0,1,4,0,0,1,0,0,0
1743177493609379,15.3,-1.0,6.8670025,0.0,0.5000267,1.0588202,nan,nan,0.0,0.0,0.0,0.0,0.0,0.0,0.0,0.0,0.0,0.0,0.0,0.0,0.0,0.0,0.0,0.0,0.0,0.0,0.005,15.28,16.18,0.98888874,0.0,0.0,6.0133185,0,0,0,0,0,0,0,0,0,0,1,4,0,0,1,0,0,0
1743177493809379,15.3,-1.0,6.839592,0.0,0.5000267,1.0588202,nan,nan,0.0,0.0,0.0,0.0,0.0,0.0,0.0,0.0,0.0,0.0,0.0,0.0,0.0,0.0,0.0,0.0,0.0,0.0,0.005,15.28,16.18,0.98888874,0.0,0.0,6.0133185,0,0,0,0,0,0,0,0,0,0,1,4,0,0,1,0,0,0
1743177494009379,15.3,-1.0,6.812291,0.0,0.5000267,1.0588202,nan,nan,0.0,0.0,0.0,0.0,0.0,0.0,0.0,0.0,0.0,0.0,0.0,0.0,0.0,0.0,0.0,0.0,0.0,0.0,0.005,15.28,16.18,0.98888874,0.0,0.0,6.0133185,0,0,0,0,0,0,0,0,0,0,1,4,0,0,1,0,0,0
1743177494209379,15.3,-1.0,6.785099,0.0,0.5000267,1.0588202,nan,nan,0.0,0.0,0.0,0.0,0.0,0.0,0.0,0.0,0.0,0.0,0.0,0.0,0.0,0.0,0.0,0.0,0.0,0.0,0.005,15.28,16.18,0.98888874,0.0,0.0,6.0133185,0,0,0,0,0,0,0,0,0,0,1,4,0,0,1,0,0,0
1743177494409379,15.3,-1.0,6.7580156,0.0,0.5000267,1.0588202,nan,nan,0.0,0.0,0.0,0.0,0.0,0.0,0.0,0.0,0.0,0.0,0.0,0.0,0.0,0.0,0.0,0.0,0.0,0.0,0.005,15.28,16.18,0.98888874,0.0,0.0,6.0133185,0,0,0,0,0,0,0,0,0,0,1,4,0,0,1,0,0,0
1743177494609379,15.3,-1.0,6.7310405,0.0,0.5000267,1.0588202,nan,nan,0.0,0.0,0.0,0.0,0.0,0.0,0.0,0.0,0.0,0.0,0.0,0.0,0.0,0.0,0.0,0.0,0.0,0.0,0.005,15.28,16.18,0.98888874,0.0,0.0,6.0133185,0,0,0,0,0,0,0,0,0,0,1,4,0,0,1,0,0,0
1743177494809379,15.3,-1.0,6.7041726,0.0,0.5000267,1.0588202,nan,nan,0.0,0.0,0.0,0.0,0.0,0.0,0.0,0.0,0.0,0.0,0.0,0.0,0.0,0.0,0.0,0.0,0.0,0.0,0.005,15.28,16.18,0.98888874,0.0,0.0,6.0133185,0,0,0,0,0,0,0,0,0,0,1,4,0,0,1,0,0,0
1743177495009379,15.3,-1.0,6.677412,0.0,0.5000267,1.0588202,nan,nan,0.0,0.0,0.0,0.0,0.0,0.0,0.0,0.0,0.0,0.0,0.0,0.0,0.0,0.0,0.0,0.0,0.0,0.0,0.005,15.28,16.18,0.98888874,0.0,0.0,6.0133185,0,0,0,0,0,0,0,0,0,0,1,4,0,0,1,0,0,0
1743177495209379,15.3,-1.0,6.6507583,0.0,0.5000267,1.0588202,nan,nan,0.0,0.0,0.0,0.0,0.0,0.0,0.0,0.0,0.0,0.0,0.0,0.0,0.0,0.0,0.0,0.0,0.0,0.0,0.005,15.28,16.18,0.98888874,0.0,0.0,6.0133185,0,0,0,0,0,0,0,0,0,0,1,4,0,0,1,0,0,0
1743177495409379,15.3,-1.0,6.624211,0.0,0.5000267,1.0588202,nan,nan,0.0,0.0,0.0,0.0,0.0,0.0,0.0,0.0,0.0,0.0,0.0,0.0,0.0,0.0,0.0,0.0,0.0,0.0,0.005,15.28,16.18,0.98888874,0.0,0.0,6.0133185,0,0,0,0,0,0,0,0,0,0,1,4,0,0,1,0,0,0
1743177495609379,15.3,-1.0,6.5977693,0.0,0.5000267,1.0588202,nan,nan,0.0,0.0,0.0,0.0,0.0,0.0,0.0,0.0,0.0,0.0,0.0,0.0,0.0,0.0,0.0,0.0,0.0,0.0,0.005,15.28,16.18,0.98888874,0.0,0.0,6.0133185,0,0,0,0,0,0,0,0,0,0,1,4,0,0,1,0,0,0
1743177495809379,15.3,-1.0,6.5714335,0.0,0.5000267,1.0588202,nan,nan,0.0,0.0,0.0,0.0,0.0,0.0,0.0,0.0,0.0,0.0,0.0,0.0,0.0,0.0,0.0,0.0,0.0,0.0,0.005,15.28,16.18,0.98888874,0.0,0.0,6.0133185,0,0,0,0,0,0,0,0,0,0,1,4,0,0,1,0,0,0
1743177496009379,15.3,-1.0,6.5452027,0.0,0.5000267,1.0588202,nan,nan,0.0,0.0,0.0,0.0,0.0,0.0,0.0,0.0,0.0,0.0,0.0,0.0,0.0,0.0,0.0,0.0,0.0,0.0,0.005,15.28,16.18,0.98888874,0.0,0.0,6.0133185,0,0,0,0,0,0,0,0,0,0,1,4,0,0,1,0,0,0
1743177496209379,15.3,-1.0,6.519077,0.0,0.5000267,1.0588202,nan,nan,0.0,0.0,0.0,0.0,0.0,0.0,0.0,0.0,0.0,0.0,0.0,0.0,0.0,0.0,0.0,0.0,0.0,0.0,0.005,15.28,16.18,0.98888874,0.0,0.0,6.0133185,0,0,0,0,0,0,0,0,0,0,1,4,0,0,1,0,0,0
1743177496409379,15.3,-1.0,6.4930553,0.0,0.5000267,1.0588202,nan,nan,0.0,0.0,0.0,0.0,0.0,0.0,0.0,0.0,0.0,0.0,0.0,0.0,0.0,0.0,0.0,0.0,0.0,0.0,0.005,15.28,16.18,0.98888874,0.0,0.0,6.0133185,0,0,0,0,0,0,0,0,0,0,1,4,0,0,1,0,0,0
1743177496609379,15.3,-1.0,6.4671373,0.0,0.5000267,1.0588202,nan,nan,0.0,0.0,0.0,0.0,0.0,0.0,0.0,0.0,0.0,0.0,0.0,0.0,0.0,0.0,0.0,0.0,0.0,0.0,0.005,15.28,16.18,0.98888874,0.0,0.0,6.0133185,0,0,0,0,0,0,0,0,0,0,1,4,0,0,1,0,0,0
1743177496809379,15.3,-1.0,6.4413233,0.0,0.5000267,1.0588202,nan,nan,0.0,0.0,0.0,0.0,0.0,0.0,0.0,0.0,0.0,0.0,0.0,0.0,0.0,0.0,0.0,0.0,0.0,0.0,0.005,15.28,16.18,0.98888874,0.0,0.0,6.0133185,0,0,0,0,0,0,0,0,0,0,1,4,0,0,1,0,0,0
1743177497009379,15.3,-1.0,6.4156117,0.0,0.5000267,1.0588202,nan,nan,0.0,0.0,0.0,0.0,0.0,0.0,0.0,0.0,0.0,0.0,0.0,0.0,0.0,0.0,0.0,0.0,0.0,0.0,0.005,15.28,16.18,0.98888874,0.0,0.0,6.0133185,0,0,0,0,0,0,0,0,0,0,1,4,0,0,1,0,0,0
1743177497209379,15.3,-1.0,6.390003,0.0,0.5000267,1.0588202,nan,nan,0.0,0.0,0.0,0.0,0.0,0.0,0.0,0.0,0.0,0.0,0.0,0.0,0.0,0.0,0.0,0.0,0.0,0.0,0.005,15.28,16.18,0.98888874,0.0,0.0,6.0133185,0,0,0,0,0,0,0,0,0,0,1,4,0,0,1,0,0,0
1743177497409379,15.3,-1.0,6.3644967,0.0,0.5000267,1.0588202,nan,nan,0.0,0.0,0.0,0.0,0.0,0.0,0.0,0.0,0.0,0.0,0.0,0.0,0.0,0.0,0.0,0.0,0.0,0.0,0.005,15.28,16.18,0.98888874,0.0,0.0,6.0133185,0,0,0,0,0,0,0,0,0,0,1,4,0,0,1,0,0,0
1743177497609379,15.3,-1.0,6.3390923,0.0,0.5000267,1.0588202,nan,nan,0.0,0.0,0.0,0.0,0.0,0.0,0.0,0.0,0.0,0.0,0.0,0.0,0.0,0.0,0.0,0.0,0.0,0.0,0.005,15.28,16.18,0.98888874,0.0,0.0,6.0133185,0,0,0,0,0,0,0,0,0,0,1,4,0,0,1,0,0,0
1743177497809379,15.3,-1.0,6.3137894,0.0,0.5000267,1.0588202,nan,nan,0.0,0.0,0.0,0.0,0.0,0.0,0.0,0.0,0.0,0.0,0.0,0.0,0.0,0.0,0.0,0.0,0.0,0.0,0.005,15.28,16.18,0.98888874,0.0,0.0,6.0133185,0,0,0,0,0,0,0,0,0,0,1,4,0,0,1,0,0,0
1743177498009379,15.3,-1.0,6.288587,0.0,0.5000267,1.0588202,nan,nan,0.0,0.0,0.0,0.0,0.0,0.0,0.0,0.0,0.0,0.0,0.0,0.0,0.0,0.0,0.0,0.0,0.0,0.0,0.005,15.28,16.18,0.98888874,0.0,0.0,6.0133185,0,0,0,0,0,0,0,0,0,0,1,4,0,0,1,0,0,0
1743177498209379,15.3,-1.0,6.2634854,0.0,0.5000267,1.0588202,nan,nan,0.0,0.0,0.0,0.0,0.0,0.0,0.0,0.0,0.0,0.0,0.0,0.0,0.0,0.0,0.0,0.0,0.0,0.0,0.005,15.28,16.18,0.98888874,0.0,0.0,6.0133185,0,0,0,0,0,0,0,0,0,0,1,4,0,0,1,0,0,0
1743177498409379,15.3,-1.0,6.238484,0.0,0.5000267,1.0588202,nan,nan,0.0,0.0,0.0,0.0,0.0,0.0,0.0,0.0,0.0,0.0,0.0,0.0,0.0,0.0,0.0,0.0,0.0,0.0,0.005,15.28,16.18,0.98888874,0.0,0.0,6.0133185,0,0,0,0,0,0,0,0,0,0,1,4,0,0,1,0,0,0
1743177498609379,15.3,-1.0,6.2135825,0.0,0.5000267,1.0588202,nan,nan,0.0,0.0,0.0,0.0,0.0,0.0,0.0,0.0,0.0,0.0,0.0,0.0,0.0,0.0,0.0,0.0,0.0,0.0,0.005,15.28,16.18,0.98888874,0.0,0.0,6.0133185,0,0,0,0,0,0,0,0,0,0,1,4,0,0,1,0,0,0
1743177498809379,15.3,-1.0,6.1887803,0.0,0.5000267,1.0588202,nan,nan,0.0,0.0,0.0,0.0,0.0,0.0,0.0,0.0,0.0,0.0,0.0,0.0,0.0,0.0,0.0,0.0,0.0,0.0,0.005,15.28,16.18,0.98888874,0.0,0.0,6.0133185,0,0,0,0,0,0,0,0,0,0,1,4,0,0,1,0,0,0
1743177499009379,15.3,-1.0,6.164077,0.0,0.5000267,1.0588202,nan,nan,0.0,0.0,0.0,0.0,0.0,0.0,0.0,0.0,0.0,0.0,0.0,0.0,0.0,0.0,0.0,0.0,0.0,0.0,0.005,15.28,16.18,0.98888874,0.0,0.0,6.0133185,0,0,0,0,0,0,0,0,0,0,1,4,0,0,1,0,0,0
1743177499209379,15.3,-1.0,6.139472,0.0,0.5000267,1.0588202,nan,nan,0.0,0.0,0.0,0.0,0.0,0.0,0.0,0.0,0.0,0.0,0.0,0.0,0.0,0.0,0.0,0.0,0.0,0.0,0.005,15.28,16.18,0.98888874,0.0,0.0,6.0133185,0,0,0,0,0,0,0,0,0,0,1,4,0,0,1,0,0,0
1743177499409379,15.3,-1.0,6.114966,0.0,0.5000267,1.0588202,nan,nan,0.0,0.0,0.0,0.0,0.0,0.0,0.0,0.0,0.0,0.0,0.0,0.0,0.0,0.0,0.0,0.0,0.0,0.0,0.005,15.28,16.18,0.98888874,0.0,0.0,6.0133185,0,0,0,0,0,0,0,0,0,0,1,4,0,0,1,0,0,0
1743177499609379,15.3,-1.0,6.0905566,0.0,0.5000267,1.0588202,nan,nan,0.0,0.0,0.0,0.0,0.0,0.0,0.0,0.0,0.0,0.0,0.0,0.0,0.0,0.0,0.0,0.0,0.0,0.0,0.005,15.28,16.18,0.98888874,0.0,0.0,6.0133185,0,0,0,0,0,0,0,0,0,0,1,4,0,0,1,0,0,0
1743177499809379,15.3,-1.0,6.066246,0.0,0.5000267,1.0588202,nan,nan,0.0,0.0,0.0,0.0,0.0,0.0,0.0,0.0,0.0,0.0,0.0,0.0,0.0,0.0,0.0,0.0,0.0,0.0,0.005,15.28,16.18,0.98888874,0.0,0.0,6.0133185,0,0,0,0,0,0,0,0,0,0,1,4,0,0,1,0,0,0
1743177500009379,15.3,-1.0,6.0420322,0.0,0.5000267,1.0588202,nan,nan,0.0,0.0,0.0,0.0,0.0,0.0,0.0,0.0,0.0,0.0,0.0,0.0,0.0,0.0,0.0,0.0,0.0,0.0,0.005,15.28,16.18,0.98888874,0.0,0.0,6.0133185,0,0,0,0,0,0,0,0,0,0,1,4,0,0,1,0,0,0
1743177500209379,15.3,-1.0,6.017914,0.0,0.5000267,1.0588202,nan,nan,0.0,0.0,0.0,0.0,0.0,0.0,0.0,0.0,0.0,0.0,0.0,0.0,0.0,0.0,0.0,0.0,0.0,0.0,0.005,15.28,16.18,0.98888874,0.0,0.0,6.0133185,0,0,0,0,0,0,0,0,0,0,1,4,0,0,1,0,0,0
1743177500409379,15.3,-1.0,5.993891,0.0,0.5000267,1.0588202,nan,nan,0.0,0.0,0.0,0.0,0.0,0.0,0.0,0.0,0.0,0.0,0.0,0.0,0.0,0.0,0.0,0.0,0.0,0.0,0.005,15.28,16.18,0.98888874,0.0,0.0,6.0133185,0,0,0,0,0,0,0,0,0,0,1,4,0,0,1,0,0,0
1743177500609379,15.3,-1.0,5.969966,0.0,0.5000267,1.0588202,nan,nan,0.0,0.0,0.0,0.0,0.0,0.0,0.0,0.0,0.0,0.0,0.0,0.0,0.0,0.0,0.0,0.0,0.0,0.0,0.005,15.28,16.18,0.98888874,0.0,0.0,6.0133185,0,0,0,0,0,0,0,0,0,0,1,4,0,0,1,0,0,0
1743177500809379,15.3,-1.0,5.9461384,0.0,0.5000267,1.0588202,nan,nan,0.0,0.0,0.0,0.0,0.0,0.0,0.0,0.0,0.0,0.0,0.0,0.0,0.0,0.0,0.0,0.0,0.0,0.0,0.005,15.28,16.18,0.98888874,0.0,0.0,6.0133185,0,0,0,0,0,0,0,0,0,0,1,4,0,0,1,0,0,0
1743177501009379,15.3,-1.0,5.922403,0.0,0.5000267,1.0588202,nan,nan,0.0,0.0,0.0,0.0,0.0,0.0,0.0,0.0,0.0,0.0,0.0,0.0,0.0,0.0,0.0,0.0,0.0,0.0,0.005,15.28,16.18,0.98888874,0.0,0.0,6.0133185,0,0,0,0,0,0,0,0,0,0,1,4,0,0,1,0,0,0
1743177501209379,15.3,-1.0,5.8987613,0.0,0.5000267,1.0588202,nan,nan,0.0,0.0,0.0,0.0,0.0,0.0,0.0,0.0,0.0,0.0,0.0,0.0,0.0,0.0,0.0,0.0,0.0,0.0,0.005,15.28,16.18,0.98888874,0.0,0.0,6.0133185,0,0,0,0,0,0,0,0,0,0,1,4,0,0,1,0,0,0
