timestamp,timestamp_sample,xyz[0],xyz[1],xyz[2],xyz_derivative[0],xyz_derivative[1],xyz_derivative[2]
1743177449813379,1743177449813379,-6.5753295e-05,0.01157289,-0.0048857178,0.018277347,1.3313813,-0.4818861
1743177449817379,1743177449817379,0.008019692,0.013848765,-0.0032279762,0.8689309,0.94094616,-0.09000452
1743177449825379,1743177449825379,0.0026441324,0.004922211,0.008957033,-0.47988474,-0.4808775,0.99772394
1743177449833379,1743177449833379,-0.011823089,-0.0047908947,0.007534537,-1.2014194,-0.94085747,0.13593282
1743177449845379,1743177449845379,0.003378802,-0.008808787,-0.0032476026,0.52869266,-0.80602616,-0.749218
1743177449853379,1743177449853379,0.0034899076,-0.007753173,0.0054639424,0.2826625,-0.06438626,0.6741172
1743177449865379,1743177449865379,-0.00555347,-0.0025659215,0.0010025658,-0.38031283,0.080526784,-0.9399871
1743177449873379,1743177449873379,0.006336962,-0.0017487102,0.001147361,0.83387184,0.1986355,-0.07391018
1743177449885379,1743177449885379,-0.008343494,-0.0023403217,-0.0075444593,-1.0393775,-0.3109667,-0.6617819
1743177449893379,1743177449893379,-0.0062529678,-0.0020680807,-0.008162729,-0.051665068,0.021976028,-0.26341975
1743177449905379,1743177449905379,-0.0013192927,0.0018122464,-0.004604089,0.3961581,0.30035394,0.05053504
1743177449913379,1743177449913379,-0.0039882474,0.0019111617,0.003496646,-0.102323934,0.025302844,0.7319955
1743177449925379,1743177449925379,-0.0008508182,-0.0032588213,0.0059397663,0.1879817,-0.75561655,0.20793588
1743177449933379,1743177449933379,-0.00043183024,-0.0032604171,-0.01121379,0.18432137,-0.14564341,-1.4680107
1743177449945379,1743177449945379,0.0060945516,0.006077837,-0.005366693,0.19504762,0.8379357,0.37755954
1743177449953379,1743177449953379,-0.0024659797,-0.0038762817,-0.00039282892,-0.6634172,-0.6890388,0.536098
1743177449965379,1743177449965379,0.0031728852,0.0043294653,0.004801289,0.3980292,0.743624,0.43904224
1743177449973379,1743177449973379,0.0022208474,0.011858442,-0.0015905222,0.112880275,0.7851001,-0.48914826
1743177449985379,1743177449985379,-4.1957886e-05,0.013686236,0.0016052843,-0.34287304,0.5174324,0.52174294
1743177449993379,1743177449993379,0.0012388588,0.010975499,0.0023103717,0.124972165,-0.22795081,0.047200855
1743177450005379,1743177450005379,-0.005109857,0.00023009587,0.0011399091,-0.7914496,-0.6738963,-0.03949381
1743177450013379,1743177450013379,0.004110785,-0.0030124744,-0.016271258,0.6957931,-0.4610937,-1.5125008
1743177450025379,1743177450025379,0.009485341,-0.0019069469,-0.0066109793,0.52304876,0.32320186,0.52569854
1743177450033379,1743177450033379,0.0004023269,0.004882387,-0.0018230093,-0.7250981,0.543695,0.57746273
1743177450045379,1743177450045379,0.006786289,0.0024735064,0.0010810666,0.31601083,0.16076225,0.21871299
1743177450053379,1743177450053379,-0.0043760785,-0.0017358015,0.008846729,-0.9046699,-0.24940199,0.76141703
1743177450065379,1743177450065379,-0.005504016,-0.00956945,-0.0074599236,-0.0847704,-0.660969,-0.90324044
1743177450073379,1743177450073379,-0.0007672715,-0.0052574836,0.0021466657,0.4736746,0.14517261,0.5090673
1743177450085379,1743177450085379,-0.003797432,-0.0018447934,0.008591447,-0.15170938,0.57734895,0.80976474
1743177450093379,1743177450093379,0.007362611,0.0020419522,0.0076388484,0.8705195,0.34400934,0.061812527
1743177450105379,1743177450105379,-0.0047440403,-0.0034231143,0.0066644643,-0.6530933,-0.0090813665,0.16221403
1743177450113379,1743177450113379,0.0071463115,-0.0015810974,0.0013813826,0.94465965,0.20504606,-0.5496663
1743177450125379,1743177450125379,0.0075383913,0.02082451,0.0049153236,-0.021214336,1.105953,0.67889386
1743177450133379,1743177450133379,0.002944151,0.0038272268,0.012048284,-0.37917793,-1.1194103,0.67951787
1743177450145379,1743177450145379,-0.0020048022,0.0052066753,-0.0017669126,-0.18396395,-0.23111866,-0.67709947
1743177450153379,1743177450153379,0.0067204875,-0.0024104263,0.0041620503,0.6695436,-0.63918984,0.26173878
1743177450165379,1743177450165379,-0.0117570935,0.0063285856,-0.011185979,-1.1170492,0.6401181,-1.3099695
1743177450173379,1743177450173379,1.6083184e-05,0.0040688394,-0.005892603,0.6806824,-0.153849,0.23742151
1743177450185379,1743177450185379,0.005442296,0.0020253821,-0.0068659456,0.27234668,0.18300164,-0.18397577
1743177450193379,1743177450193379,-0.0010812958,0.012078998,0.007117243,-0.3923166,0.9161558,1.1992419
1743177450205379,1743177450205379,0.0011534407,-0.006565878,0.0045779045,0.09730101,-1.1563259,-0.057026226
1743177450213379,1743177450213379,0.002525376,-0.008514331,0.0031994544,0.08680998,-0.46694022,-0.26264971
1743177450225379,1743177450225379,-0.0010076445,-0.00082594214,0.0052968375,-0.04643944,0.31081793,0.3965602
1743177450233379,1743177450233379,0.0014366731,-0.0016398005,0.0070728897,0.15650998,0.017303448,0.24636163
1743177450245379,1743177450245379,0.00088168215,-0.00019652586,-0.00041451544,-0.26090246,0.2202775,-0.4927092
1743177450253379,1743177450253379,0.00031188308,-0.002193253,0.009430769,-0.016790599,-0.065187946,0.676023
1743177450265379,1743177450265379,0.008217427,0.0146650905,0.006692599,0.36977714,1.105731,0.054133553
1743177450273379,1743177450273379,-0.0033287704,0.010840104,-0.002518066,-0.8443557,-0.05647795,-0.84047216
1743177450285379,1743177450285379,0.0012567758,0.008467032,0.016523883,-0.007104367,0.0049993186,1.212706
1743177450293379,1743177450293379,0.0057237484,-0.0031317046,0.0064488743,0.5046091,-1.1008513,-0.47799197
1743177450305379,1743177450305379,-0.0070904386,-0.006003195,-0.007094152,-1.2101318,-0.47480685,-1.0177573
1743177450313379,1743177450313379,-0.0039422587,-0.01084108,0.0022931874,0.05409354,-0.45120335,0.6467447
1743177450325379,1743177450325379,0.00383594,0.002555892,0.0042585856,0.6406183,0.8668779,0.0011634382
1743177450333379,1743177450333379,0.011184069,0.0019935984,0.0072843577,0.6646357,0.12196767,0.18666206
1743177450345379,1743177450345379,0.0019365454,0.00518011,0.0029861613,-0.4390554,0.2548778,-0.28127953
1743177450353379,1743177450353379,-0.004572417,-0.00027921426,0.0022026345,-0.734354,-0.309607,-0.15415877
1743177450365379,1743177450365379,0.008768143,-0.0038458062,-0.005211744,1.0947113,-0.5084249,-0.91816896
1743177450373379,1743177450373379,0.0060789166,-0.006312372,-0.0033010666,-0.14885747,-0.35063183,0.10119825
1743177450385379,1743177450385379,-0.010006101,0.01255992,0.0006029818,-0.7141929,1.3956807,-0.14151558
1743177450393379,1743177450393379,-0.006675429,0.0022728217,0.00039878747,0.20008576,-0.5924308,-0.02676062
1743177450405379,1743177450405379,-0.005686063,0.005860078,-0.00045379315,0.17144859,0.21138272,-0.10694656
1743177450413379,1743177450413379,0.00090194296,-0.0019072463,-0.0008169789,0.62580365,-0.48115647,0.00549326
1743177450425379,1743177450425379,-0.005701248,0.0070562097,0.0005760308,-0.46626014,0.46034306,-0.038161956
1743177450433379,1743177450433379,-0.0015085195,-0.005626807,0.006232739,0.22112796,-0.9880555,0.47970167
1743177450445379,1743177450445379,0.001405152,0.0050867056,0.0027030585,0.1217227,0.70574546,-0.1951699
1743177450453379,1743177450453379,-0.0024667473,0.012275052,-0.005479775,-0.22517593,0.79620254,-0.6730342
1743177450465379,1743177450465379,0.0065828436,0.0039946795,-0.00059189013,0.62696755,-0.54831403,0.22022235
1743177450473379,1743177450473379,-0.00023371761,0.010091609,0.00042219518,-0.43977457,0.36343148,-0.056841187
1743177450485379,1743177450485379,-0.0039033126,-0.001932254,0.0019045582,-0.22433755,-0.8141309,0.30175322
1743177450493379,1743177450493379,-0.010380301,0.0013781352,-0.0065475213,-0.6616143,0.123740986,-0.6750587
1743177450505379,1743177450505379,-6.882637e-05,0.004545558,-0.007939554,0.77406967,0.113362424,-0.34034017
1743177450513379,1743177450513379,0.0068090907,0.0071608876,0.0014400745,0.8135953,0.29353234,0.88518834
1743177450525379,1743177450525379,0.0006548794,-0.010852997,-0.0019847038,-0.44474572,-1.2428272,-0.3457018
1743177450533379,1743177450533379,-0.00518817,-0.007947519,0.0060968455,-0.57873124,-0.06901742,0.6384771
1743177450545379,1743177450545379,0.00068765145,-0.0044054054,0.0008833325,0.17521746,-0.002978026,-0.04957959
1743177450553379,1743177450553379,-0.0037226048,-0.0026906529,0.0041210027,-0.24993044,0.21125376,0.2785199
1743177450565379,1743177450565379,-0.00073644664,-0.0019538945,0.0022241236,0.31594115,-0.07177174,-0.120418906
1743177450573379,1743177450573379,0.003305647,-0.008428576,0.0024036763,0.3370581,-0.55745834,-0.1984028
1743177450585379,1743177450585379,0.0015411917,0.0015878517,-0.004488714,0.23994693,0.80263317,0.11039843
1743177450593379,1743177450593379,0.0016768501,0.004604707,0.0027726926,0.066553235,0.34800678,0.48002538
1743177450605379,1743177450605379,-0.008044311,0.015689181,-0.006392237,-0.66076946,1.0870216,-0.41718286
1743177450613379,1743177450613379,-0.003497886,-0.0029834139,-0.0021372726,0.12092843,-1.3206404,0.30629203
1743177450625379,1743177450625379,-0.007735176,-0.0027207069,-0.009596746,0.14757752,-0.06250887,-0.43786103
1743177450633379,1743177450633379,-0.0014348117,-6.107817e-05,0.0017123701,0.43606952,0.038507238,0.85948527
1743177450645379,1743177450645379,-0.00062577456,0.00029147815,-0.0025210148,0.55290943,0.53578365,-0.23096773
1743177450653379,1743177450653379,0.0071289428,0.011777453,0.00068387657,0.70438385,0.9980631,0.18776916
1743177450665379,1743177450665379,-0.0039391313,0.003646838,-0.0065720766,-0.5432469,-0.5162622,-0.36826336
1743177450673379,1743177450673379,-0.007365906,-0.010203051,-0.0053387657,-0.38664663,-1.3271387,-0.046032153
1743177450685379,1743177450685379,0.004372331,0.0016216387,-0.0035372095,0.7161281,0.7670973,0.2080472
1743177450693379,1743177450693379,0.002518926,0.0019969838,-0.0038470656,-0.083067775,0.18287396,0.014309141
1743177450705379,1743177450705379,0.008854452,-0.008704953,0.004921202,0.68337464,-0.7268391,0.908855
1743177450713379,1743177450713379,0.010166032,0.0057598674,-0.0046563256,0.23287064,1.1203846,-0.6485776
1743177450725379,1743177450725379,0.00015182297,0.010935909,-0.0028953073,-0.4300825,0.27325594,-0.23541099
1743177450733379,1743177450733379,0.012557491,0.0013648926,-0.00412422,0.91539264,-0.7285734,0.003194975
1743177450745379,1743177450745379,-0.003368887,-0.006467481,0.005237963,-1.476274,-0.36046177,0.4712478
1743177450753379,1743177450753379,-0.0073241894,0.0026906896,0.004462273,-0.5081562,0.61259764,0.10953236
1743177450765379,1743177450765379,0.0016992366,0.000339199,0.001692513,0.39740035,-0.010170655,-0.32884103
1743177450773379,1743177450773379,0.01135778,0.0007841817,0.004579611,0.99836254,0.007269468,0.21687819
1743177450785379,1743177450785379,-0.00451811,0.0021246374,0.0039784675,-1.168292,0.26543498,-0.15360996
1743177450793379,1743177450793379,-0.007947653,-0.0016907182,0.00029516823,-0.48561478,-0.35380456,-0.24424651
1743177450805379,1743177450805379,-0.002976923,-0.004354019,0.0025847724,-0.101897955,0.22172922,-0.14128762
1743177450813379,1743177450813379,-0.0061171637,-0.006148256,0.0017412796,-0.18186316,-0.26132435,-0.057106037
1743177450825379,1743177450825379,0.0043616937,0.0026798649,0.002971715,0.5742026,0.91533834,0.07643439
1743177450833379,1743177450833379,0.002491579,-0.00063092064,-0.0022908468,-0.0105572045,-0.0395815,-0.45293415
1743177450845379,1743177450845379,0.012101129,-0.0038552443,-0.002431687,0.93256295,-0.42147988,-0.12421667
1743177450853379,1743177450853379,0.005063768,-0.0059339395,0.0065987906,-0.54237217,-0.19411774,0.69145894
1743177450865379,1743177450865379,-0.003698287,0.0017506876,-0.007678593,-0.29414207,0.33130467,-1.1244539
1743177450873379,1743177450873379,-0.012701351,0.009091512,-0.007080951,-0.8596766,0.7548634,-0.18880229
1743177450885379,1743177450885379,0.010866552,-0.0037587527,0.002280206,1.6069989,-0.95914304,0.6888057
1743177450893379,1743177450893379,0.009909703,-0.0053387946,0.0018357306,0.27624708,-0.27100402,0.08487927
1743177450905379,1743177450905379,0.0077731656,0.007588504,-0.002622789,0.22580269,0.55512047,0.18275751
1743177450913379,1743177450913379,-0.0038363836,0.00050184247,0.009731008,-0.9787868,-0.34977362,1.0852525
1743177450925379,1743177450925379,0.00811502,0.006301863,0.006898378,1.033195,-0.011451835,-0.30654886
1743177450933379,1743177450933379,-0.0035210308,-0.0006557449,-0.00158346,-0.9994137,-0.5379843,-0.68873644
1743177450945379,1743177450945379,0.0014459002,0.0050496706,-0.0066178287,0.68666255,0.38452858,-0.57439965
1743177450953379,1743177450953379,0.006868048,0.010497402,0.0038713668,0.65714115,0.49452806,0.8059439
1743177450965379,1743177450965379,-0.0056978045,-0.004175945,0.0087890625,-0.6310184,-0.73956704,0.25781924
1743177450973379,1743177450973379,-0.00078852277,-0.005456065,0.0005304516,0.04136464,-0.22601323,-0.58770967
1743177450985379,1743177450985379,0.00295175,0.0036759328,-0.00035302696,0.58801705,0.17198384,-0.19172747
1743177450993379,1743177450993379,0.005429509,0.003130492,0.001520111,0.32823402,0.03343078,0.13215095
1743177451005379,1743177451005379,-0.01231502,0.0040137186,0.0043698195,-0.9803289,0.17299442,0.3755477
1743177451013379,1743177451013379,-0.0010273895,-0.010796459,0.0013337387,0.71189004,-1.2598486,-0.22058983
1743177451025379,1743177451025379,-0.008024977,0.008277523,0.0012966646,-0.76782054,0.91195905,0.2716159
1743177451033379,1743177451033379,-0.007849151,0.0035870373,0.007965418,-0.16397157,-0.039127655,0.5048281
1743177451045379,1743177451045379,-0.0013359823,0.004248477,0.0057607265,0.71761334,0.119660705,-0.3057144
1743177451053379,1743177451053379,-0.004686965,-0.003726674,0.0027934965,-0.27846253,-0.6518837,-0.16615279
1743177451065379,1743177451065379,0.0037756362,3.836106e-05,-0.0070081092,1.1622276,-0.177285,-0.848694
1743177451073379,1743177451073379,0.003872021,-0.00015347578,0.0026035572,0.24344373,0.052095883,0.5021285
1743177451085379,1743177451085379,0.0019500842,0.00980102,-0.003840521,-0.111025795,0.7646216,-0.15158339
1743177451093379,1743177451093379,-0.008385935,0.0022981279,0.0030405375,-0.9412911,-0.5950841,0.49035534
1743177451105379,1743177451105379,0.005244345,-0.0011380985,0.009866623,0.9262849,-0.23234756,0.8150032
1743177451113379,1743177451113379,-0.0037735398,-0.0037313062,0.011800128,-0.5293987,-0.24669424,0.29999077
1743177451125379,1743177451125379,-0.0040150043,0.0048610475,0.005674114,-0.34993693,0.6910907,-0.27628702
1743177451133379,1743177451133379,0.0023084965,0.0123924045,0.0009070721,0.66114384,0.757184,-0.48841423
1743177451145379,1743177451145379,-0.0053049973,-0.007829909,0.011103876,-0.66806114,-1.3354255,0.46191892
1743177451153379,1743177451153379,0.010594962,-0.013685013,0.0012060981,1.1728362,-0.71479434,-0.6474028
1743177451165379,1743177451165379,-0.009910871,0.0018742927,0.0067393905,-1.3941233,0.5752619,0.117061056
1743177451173379,1743177451173379,-0.0012795681,-0.011028044,-0.005407357,0.42139858,-0.9287873,-1.0589767
1743177451185379,1743177451185379,-0.0027575549,0.0030175503,-0.0037410213,-0.108811475,0.7702715,0.73069525
1743177451193379,1743177451193379,0.002338372,-0.0007052713,0.010882797,0.394889,-0.11062553,1.1299403
1743177451205379,1743177451205379,-0.00082734285,0.007638863,-0.00071936904,-0.28711304,0.20754951,0.014959697
1743177451213379,1743177451213379,-5.561349e-05,-0.0016942044,-0.0009848563,0.043722183,-0.47498965,-0.12663211
1743177451225379,1743177451225379,-0.00062549696,-0.006394605,0.01112224,-0.3540665,-1.0239792,0.861077
1743177451233379,1743177451233379,-0.0009367524,-0.0028450266,0.015730273,-0.06041056,0.091699176,0.5468167
1743177451245379,1743177451245379,0.008735057,0.0017435313,-0.0043838196,0.7339418,0.41399252,-1.0869159
1743177451253379,1743177451253379,0.010179193,0.0030568433,0.003936494,0.3166736,0.116243415,0.44402677
1743177451265379,1743177451265379,0.002481645,-0.0034278978,-0.0052317055,-0.4440969,-0.010573849,-0.8732023
1743177451273379,1743177451273379,0.0014501878,0.014566762,-0.002052148,-0.18621865,1.461103,0.16912213
1743177451285379,1743177451285379,0.0038807923,-0.00022046383,-0.0007329816,0.04882297,-0.8462316,-0.23399265
1743177451293379,1743177451293379,-0.0028287382,-0.0046075317,-4.772545e-05,-0.47663322,-0.55207855,0.13315623
1743177451305379,1743177451305379,-0.0006285014,-0.00288368,0.0013478468,-0.4256791,-0.37007558,-0.1767461
1743177451313379,1743177451313379,-0.011320524,-0.006205273,0.00694958,-0.88050187,-0.35789013,0.51735103
1743177451325379,1743177451325379,0.00648736,-0.001916296,0.002746202,1.0058911,0.0997441,-0.17888243
1743177451333379,1743177451333379,0.00094754144,7.973718e-05,0.005300912,-0.20687377,0.19623622,0.07265608
1743177451345379,1743177451345379,-0.0059023006,0.001885151,0.009438289,-0.7019565,0.27916735,0.396982
1743177451353379,1743177451353379,-0.0032437406,0.0024402859,0.0034738416,0.2269103,0.13766778,-0.47748452
1743177451365379,1743177451365379,-0.0084121525,-0.006791198,0.0027239493,-0.5851984,-0.53957134,0.467556
1743177451373379,1743177451373379,-0.0074259443,-0.005600994,0.0013717599,-0.09920797,-0.16417208,-0.19262028
1743177451385379,1743177451385379,-0.0061776005,0.0033891986,0.00377133,-0.065827996,1.2079829,0.07889383
1743177451393379,1743177451393379,-0.0066051045,0.011037106,-0.0036829629,-0.0124657005,0.6408942,-0.6057744
1743177451405379,1743177451405379,-0.0021438617,-0.004505594,-0.0007205343,0.27912968,-0.31062114,0.11421197
1743177451413379,1743177451413379,0.0018394954,0.011571665,0.003250477,0.45487642,1.1690617,0.487386
1743177451425379,1743177451425379,-0.0013849168,0.0035298658,0.014032937,-0.09485773,-0.1735632,0.64019454
1743177451433379,1743177451433379,-0.0021804953,0.009436733,0.009953975,-0.1798315,0.4580626,-0.040853426
1743177451445379,1743177451445379,-0.004095696,0.0064320914,-0.0028104675,0.17433244,-0.21912374,-1.1363795
1743177451453379,1743177451453379,-0.0014034444,-0.0011522216,0.0011380506,0.25350782,-0.7417898,0.17532347
1743177451465379,1743177451465379,-0.0036183503,-0.005299999,0.001743234,-0.111056805,-0.051030155,-0.15080366
1743177451473379,1743177451473379,0.0042211437,0.00040868952,-0.0003735887,0.6988059,0.35849983,-0.3191644
1743177451485379,1743177451485379,0.010367645,-0.0022279713,-0.008816183,0.3335115,-0.0432712,-0.6185036
1743177451493379,1743177451493379,0.0014190547,-0.0012456827,-0.004743098,-0.7246548,0.14284107,0.26756185
1743177451505379,1743177451505379,-0.0075401305,0.008437825,0.002170552,-0.5629877,0.9292184,0.47730595
1743177451513379,1743177451513379,-0.0064402083,0.005603843,-0.00050438073,-0.025604695,-0.17950398,-0.06831299
1743177451525379,1743177451525379,0.0031735501,0.005626177,-0.0013079809,0.6463584,0.43107712,-0.12151154
1743177451533379,1743177451533379,0.00077547063,0.010986305,-0.0020934138,-0.026065737,0.49770984,-0.18308553
1743177451545379,1743177451545379,0.011015643,-0.005286791,-0.014739885,0.64781797,-1.0515069,-0.77769125
1743177451553379,1743177451553379,-0.0035755425,-0.002438795,-0.0069220983,-1.0854118,-0.0008879386,0.46911103
1743177451565379,1743177451565379,-0.004869399,0.003593341,-0.0019953062,-0.08682093,0.2523135,-0.055100378
1743177451573379,1743177451573379,0.00089280016,0.011422416,0.0011113306,0.572121,0.8200371,0.31180057
1743177451585379,1743177451585379,0.0011849345,-0.0030856133,0.0062838974,-0.09862152,-0.9800526,0.3954087
1743177451593379,1743177451593379,-0.010533465,-0.012361581,0.0010773374,-0.9907669,-1.0740297,-0.3642201
1743177451605379,1743177451605379,0.00943875,-0.0022265322,-0.010256003,1.2627766,0.68476826,-0.9704447
1743177451613379,1743177451613379,-0.0031262636,-0.0017426043,-0.0002940799,-0.7796307,0.26074833,0.7441406
1743177451625379,1743177451625379,0.0055538393,-0.0041439477,0.0045505865,0.72794646,-0.19513875,0.21252576
1743177451633379,1743177451633379,0.0037385803,-0.003239497,-0.0031030078,-0.0355677,0.015489997,-0.5424715
1743177451645379,1743177451645379,-0.006100791,0.0075745485,-0.005629412,-0.37792742,0.6303983,-0.4358269
1743177451653379,1743177451653379,-0.0037586936,0.0019518433,0.004025108,-0.04253514,-0.40785706,0.8428308
1743177451665379,1743177451665379,-0.004153552,-1.6786922e-05,-0.0005468852,-0.29122543,0.4391063,-0.3197596
1743177451673379,1743177451673379,-0.015241076,0.0043429434,-0.002688485,-0.97603875,0.30057496,-0.25261727
1743177451685379,1743177451685379,-0.0061883167,0.0023674339,-0.0013724505,0.8562661,0.24562258,0.056459974
1743177451693379,1743177451693379,0.0016787883,0.0035642553,-0.0056570065,0.8237947,0.091038354,-0.48031053
1743177451705379,1743177451705379,-0.0011635254,-0.010730856,-0.004851413,0.46372533,-0.8895423,0.22828005
1743177451713379,1743177451713379,0.0028271815,-0.0077288873,0.0014007398,0.30421388,0.11592048,0.60417193
1743177451725379,1743177451725379,-0.007935401,0.0037327039,0.007246153,-0.65349966,0.6613069,0.6230382
1743177451733379,1743177451733379,-0.0047414564,0.0001592902,0.0062606153,0.1115154,-0.18069413,-0.03420574
1743177451745379,1743177451745379,-0.0020685198,0.0052763424,-0.008078674,0.5981241,0.70082825,-0.89586776
1743177451753379,1743177451753379,-0.00082151825,-0.0017702475,-0.0034354834,0.17415807,-0.49891657,0.15299876
1743177451765379,1743177451765379,-0.004850305,0.0035267444,-0.009716069,-0.45712867,0.3611666,-0.629828
1743177451773379,1743177451773379,-0.005586609,0.001591253,-0.009974135,0.030948699,-0.023199543,-0.019293368
1743177451785379,1743177451785379,-0.0073653674,0.008862772,0.0043640947,-0.4748924,0.2734288,0.652054
1743177451793379,1743177451793379,-0.000661216,-0.007533846,0.009884486,0.39393634,-1.3035017,0.73386085
1743177451805379,1743177451805379,0.000332113,-0.007952331,-0.0040615983,0.18905522,-0.047155242,-1.0832409
1743177451813379,1743177451813379,-0.006014482,-0.0021441167,-0.0005087911,-0.62504727,0.5727846,0.008051346
1743177451825379,1743177451825379,0.006997899,0.005312581,-0.00269554,1.060359,0.14415395,-0.15568142
1743177451833379,1743177451833379,-0.0026925362,0.00067685643,-0.009128519,-0.62980807,-0.2719392,-0.5574974
1743177451845379,1743177451845379,-0.0031429438,-0.0007711809,7.077679e-05,0.14064896,-0.09197724,0.6742804
1743177451853379,1743177451853379,-0.006809277,-0.0006662513,0.0062085357,-0.22335613,-0.069348924,0.6140621
1743177451865379,1743177451865379,-0.0027642117,-0.009170117,0.0034617207,0.121351734,-0.7072344,0.06961368
1743177451873379,1743177451873379,0.0012048894,0.00067799666,0.009165143,0.37223697,0.68520385,0.57656
1743177451885379,1743177451885379,4.4309098e-05,-0.007395062,0.0069315434,0.19242243,-0.6468581,-0.2533919
1743177451893379,1743177451893379,0.007350575,-0.015723752,-0.0026789506,0.6091692,-0.7952311,-0.9409387
1743177451905379,1743177451905379,0.0017006504,0.009776437,-0.0051293327,-0.24573672,1.173132,-0.5826905
1743177451913379,1743177451913379,0.0040447256,-0.011868088,-0.0015338351,0.17136328,-1.4965822,0.259061
1743177451925379,1743177451925379,-0.0073175933,0.010772111,-0.0010218737,-0.965672,1.7001619,0.052700207
1743177451933379,1743177451933379,-0.0017352698,-0.0030108304,0.0044239108,0.36498988,-0.9823111,0.50772935
1743177451945379,1743177451945379,-0.00843161,-0.00726503,-0.00586651,-0.58377236,0.2644292,-0.7301104
1743177451953379,1743177451953379,-0.0064155795,-0.009110872,0.0025387483,0.05667168,-0.1731578,0.65091026
1743177451965379,1743177451965379,-6.599643e-06,-0.00407613,0.00020978236,0.2531116,0.531158,-0.27885652
1743177451973379,1743177451973379,-0.0027832945,0.010519945,-0.00672231,-0.16153453,1.3628734,-0.70107293
1743177451985379,1743177451985379,0.009795517,0.001974501,-0.011090291,0.7379355,-0.46692494,-0.35205704
1743177451993379,1743177451993379,-0.00891873,-0.0035839928,-0.004888731,-1.4969018,-0.49492943,0.43126604
1743177452005379,1743177452005379,-0.00012236938,0.0050783246,0.0076173902,0.52977765,0.060761437,0.9273786
1743177452013379,1743177452013379,0.0004565572,-0.0021597983,-0.0020950704,0.2869064,-0.52425516,-0.55469453
1743177452025379,1743177452025379,-0.004754054,-0.011881774,0.007576583,-0.4790276,-0.636989,0.566421
1743177452033379,1743177452033379,-0.0029061798,-0.0020220617,0.0014911945,0.003156945,0.6313428,-0.39403543
1743177452045379,1743177452045379,-0.0012428637,-0.0019641274,-0.0027589086,0.0685671,-0.10093826,-0.10360053
1743177452053379,1743177452053379,0.0044311453,-0.007720526,-0.00425389,0.5955703,-0.4834057,-0.23801987
1743177452065379,1743177452065379,0.0068584634,0.0046362975,-0.004305137,0.19483826,0.5901791,0.044035133
1743177452073379,1743177452073379,0.004384621,0.004232,0.008388991,-0.22099991,0.23232898,1.1340746
1743177452085379,1743177452085379,0.0008828909,0.003303538,-0.0039614425,-0.15546742,-0.26883823,-0.7903551
1743177452093379,1743177452093379,-0.0012440721,-0.00626982,-0.004107558,-0.24681523,-0.75610185,-0.24343579
1743177452105379,1743177452105379,0.004029038,0.0014255127,-0.008721037,0.35407555,0.00970251,-0.3526648
1743177452113379,1743177452113379,-0.00055168016,-0.00631182,0.008160764,-0.32088676,-0.5725503,1.4535664
1743177452125379,1743177452125379,-0.00035207678,0.0070189186,0.006549927,0.030508816,1.0254619,-0.37748072
1743177452133379,1743177452133379,0.001572042,0.011972761,-0.0027976523,0.22402999,0.6924609,-0.9232208
1743177452145379,1743177452145379,0.00531974,-0.009200352,0.0090532275,0.18041325,-1.5512118,1.3143709
1743177452153379,1743177452153379,-0.010995835,-0.0034258903,0.015245143,-1.3860425,0.14085625,0.7141717
1743177452165379,1743177452165379,0.008053786,0.0031237775,0.007772014,1.0456939,0.2294628,-0.090900384
1743177452173379,1743177452173379,0.0038529988,-0.008507376,0.009444473,-0.078404605,-0.8384204,-0.049975112
1743177452185379,1743177452185379,-0.0024362728,0.0022248833,0.00813891,-0.3612034,0.7136378,0.075633824
1743177452193379,1743177452193379,-0.0011009389,-0.0070621585,-0.0060541523,0.058542103,-0.6780196,-1.1287476
1743177452205379,1743177452205379,-0.0040320833,0.0105381,0.0032522883,-0.26686835,1.3724928,0.40061048
1743177452213379,1743177452213379,-0.0010719564,-0.0041904235,0.005560016,0.32462785,-1.1096878,0.2692789
1743177452225379,1743177452225379,0.0028721772,-0.0021588693,0.003697909,0.015283078,0.36838204,0.017020283
1743177452233379,1743177452233379,0.001976824,-0.0018541864,0.0041163587,-0.091913566,0.061361194,0.096576124
1743177452245379,1743177452245379,-0.005519634,-0.00520739,-0.00015991826,-0.4354692,-0.26506412,0.020478304
1743177452253379,1743177452253379,0.0017321574,-0.0001752263,0.0053116833,0.3973379,0.41539407,0.28489232
1743177452265379,1743177452265379,-0.0006582375,-2.0045369e-05,-0.011750159,-0.20006767,-0.062640116,-0.8011902
1743177452273379,1743177452273379,0.00072159304,-0.0010070852,-0.0010833361,0.16793808,-0.15283033,0.6757921
1743177452285379,1743177452285379,-0.0031322115,-0.0020864904,-0.00069306185,-0.5820936,0.20954621,0.1559318
1743177452293379,1743177452293379,-0.0043781437,-0.0007033898,-0.0009856329,-0.28139567,0.067860216,-0.06257862
1743177452305379,1743177452305379,0.011750718,0.0012994634,-0.0054664784,1.1887513,0.35958853,-0.32733068
1743177452313379,1743177452313379,0.0040937513,0.00019541588,-0.0054896353,-0.32486385,-0.06438342,-0.01865119
1743177452325379,1743177452325379,-0.00022388529,0.0042882566,-0.0099971,-0.19626573,0.30894578,-0.27949092
1743177452333379,1743177452333379,0.00036054035,0.0015714706,-0.0044261077,-0.09098002,-0.11890669,0.38092998
1743177452345379,1743177452345379,-0.0064910175,-0.0014514244,0.0051979367,-0.27671325,-0.060900826,1.1657081
1743177452353379,1743177452353379,-0.0014451074,-0.0050305603,0.0118148215,0.28121623,-0.44030905,0.67498904
1743177452365379,1743177452365379,-0.0058504576,0.0062533747,0.0014399202,-0.30001986,0.9954372,-0.5854111
1743177452373379,1743177452373379,-0.004459735,-0.0026057865,0.0016982987,0.03674987,-0.6190191,-0.08957831
1743177452385379,1743177452385379,0.0049729827,0.007813585,-0.00835184,0.47448528,0.6505252,-0.7468804
1743177452393379,1743177452393379,-0.0015656473,0.0033851564,-0.0008354034,-0.38688493,-0.094581835,0.45275903
1743177452405379,1743177452405379,0.01602393,0.006187127,-0.0011785792,1.1116707,-0.06847727,-0.14439744
1743177452413379,1743177452413379,0.0011771328,0.0075630834,0.001813395,-1.1036952,0.20755653,0.19575918
1743177452425379,1743177452425379,0.003885927,0.0054847947,0.0016265174,0.50096524,0.0024999985,-0.055776164
1743177452433379,1743177452433379,0.0041893474,0.0075494507,0.0070861834,0.20553447,0.04513397,0.47872514
1743177452445379,1743177452445379,0.0071366867,0.00278492,-0.0063739177,0.22982875,-0.31726846,-0.87616944
1743177452453379,1743177452453379,0.0051210616,-0.0022607562,0.0017180372,-0.11289722,-0.57700276,0.49119562
1743177452465379,1743177452465379,0.0020126896,0.004361015,-0.00027650723,-0.20711404,0.62187815,0.0037140658
1743177452473379,1743177452473379,0.012585037,-0.00138777,-0.006599711,0.9538316,-0.3850218,-0.6625184
1743177452485379,1743177452485379,0.0017856976,-0.0064227534,0.00059056893,-0.8658014,-0.38844764,0.8031281
1743177452493379,1743177452493379,0.005709091,-0.003905024,-0.003955691,0.10257065,0.0804505,-0.30923438
1743177452505379,1743177452505379,0.009552953,0.008503012,-0.0054076705,0.026198983,1.0610852,0.11557497
1743177452513379,1743177452513379,-0.0014121248,-0.0034303248,-0.004935232,-0.9182493,-0.8320074,-0.0023004855
1743177452525379,1743177452525379,-0.008815016,-0.0062226187,-0.0041852626,-0.49758792,-0.36168748,-0.03180123
1743177452533379,1743177452533379,-0.0051180837,-0.014728894,-0.012524279,0.1408837,-0.72542167,-0.7393292
1743177452545379,1743177452545379,0.001217636,-0.00013146742,0.0039841533,0.42016834,0.7204203,0.99652183
1743177452553379,1743177452553379,-0.0028993736,-0.010236195,0.0031379913,-0.22163834,-0.609213,0.18827738
1743177452565379,1743177452565379,-0.0039246776,-0.00015305055,0.005572068,0.090394735,0.475119,0.5449723
1743177452573379,1743177452573379,-0.004080096,-0.003316861,0.011161676,-0.052363694,-0.19210586,0.5385324
1743177452585379,1743177452585379,-0.0029772168,0.010834557,0.014762883,0.074451864,1.0445949,0.63233227
1743177452593379,1743177452593379,0.0006486433,-0.0036471959,0.0069005135,0.32808572,-1.0583212,-0.5894374
1743177452605379,1743177452605379,-0.012107434,0.00530332,0.0026992664,-0.8300547,0.8216008,-0.2721222
1743177452613379,1743177452613379,-0.0009892698,0.0021625583,-0.0005700656,0.78675866,-0.049504094,-0.36605588
1743177452625379,1743177452625379,-0.0060040234,-8.4060375e-06,-0.0036876034,-0.22580482,-0.345964,-0.1395581
1743177452633379,1743177452633379,-0.0025172743,-0.00067598326,-0.0032061255,0.32883984,-0.08443269,-0.09029649
1743177452645379,1743177452645379,0.0049877474,0.0058416417,0.0010056689,0.041913748,0.5729381,0.38956857
1743177452653379,1743177452653379,-0.010928164,0.0041120774,0.0033263918,-1.2662704,-0.13776594,0.2426596
1743177452665379,1743177452665379,0.0011746611,-0.002336925,-0.003023459,0.7286455,0.0037401356,-0.2200041
1743177452673379,1743177452673379,0.00019922128,-9.930073e-05,0.0029346955,0.10284874,0.10960985,0.4730156
1743177452685379,1743177452685379,0.00014643371,0.0003909049,-0.012191308,-0.15241194,0.107447416,-1.0191681
1743177452693379,1743177452693379,-0.0005646255,0.007952001,0.00066109456,-0.07179192,0.68884814,0.80101633
1743177452705379,1743177452705379,0.004432833,0.0035687664,0.0037234419,0.4168811,-0.2698828,0.39098856
1743177452713379,1743177452713379,-0.0025174983,0.0030785433,-0.00044782757,-0.5941949,-0.10123966,-0.33204946
1743177452725379,1743177452725379,-0.00084952626,0.0114236735,-0.0030114315,0.12862502,0.6191821,-0.25767595
1743177452733379,1743177452733379,-0.001604567,0.0029746483,-0.013320921,0.037695408,-0.60852116,-0.91798127
1743177452745379,1743177452745379,-0.006345437,0.0005108264,-0.0038363244,-0.34011224,-0.1390187,0.5719394
1743177452753379,1743177452753379,-0.009312913,-0.0044747717,-0.0025271552,-0.32776743,-0.5388279,0.04365288
1743177452765379,1743177452765379,-0.004666541,0.001985586,-0.0027034944,0.21632081,0.6091519,0.35236764
1743177452773379,1743177452773379,0.0025926586,0.0004391785,-0.0024628872,0.7551503,-0.02084655,0.19347155
1743177452785379,1743177452785379,-0.0006094979,0.003338369,0.0064147403,-0.28529438,0.063393086,0.19117779
1743177452793379,1743177452793379,-0.00096479524,-0.006227021,0.006813841,-0.06437598,-0.7707413,0.13151784
1743177452805379,1743177452805379,-0.0046872897,0.012633388,-0.0074423687,-0.36688995,1.1190763,-0.8090545
1743177452813379,1743177452813379,0.0022222032,0.00038974127,0.0006696255,0.5103333,-0.74958634,0.48346812
1743177452825379,1743177452825379,-0.0077506816,-0.007645254,0.00071409263,-0.45438612,-0.7495516,-0.14068587
1743177452833379,1743177452833379,-0.0052794404,0.004400003,-0.00024203848,0.03348814,0.92205256,-0.11476454
1743177452845379,1743177452845379,-0.008774908,0.005153384,-0.009976658,-0.25903744,0.14190005,-0.41133314
1743177452853379,1743177452853379,-0.010311011,0.004782276,-0.00535468,-0.09671882,0.03134251,0.14672498
1743177452865379,1743177452865379,-0.00126097,-0.0023304727,0.0013185351,0.32276508,-0.6673588,1.0120392
1743177452873379,1743177452873379,-0.0069537265,-0.0032818725,-0.0025010568,-0.38079178,-0.20948991,-0.1953398
1743177452885379,1743177452885379,-0.004940385,0.0026646596,-0.0036170734,0.048486307,0.46561956,-0.26772046
1743177452893379,1743177452893379,0.0023802142,0.009230112,-0.003532077,0.62349826,0.6165929,0.00030536536
1743177452905379,1743177452905379,0.0038393948,0.0075038783,0.005653149,0.2149269,0.15221722,0.62978166
1743177452913379,1743177452913379,-0.0035745811,-0.005860341,0.00169503,-0.6026434,-1.2010024,-0.25545403
1743177452925379,1743177452925379,0.0012988311,-0.0019374721,0.007403943,0.4222207,0.364551,0.40242475
1743177452933379,1743177452933379,0.0035521,0.00607217,-0.0011640954,0.16507787,0.69975907,-0.60821944
1743177452945379,1743177452945379,0.0063657025,0.0019750844,0.0055518555,0.30108893,0.01179216,0.495802
1743177452953379,1743177452953379,0.007102252,0.005250021,-0.005185249,0.2680676,0.3560663,-0.83312523
1743177452965379,1743177452965379,-0.005076529,0.0013655215,0.003898797,-0.78511834,-0.1661954,0.5991063
1743177452973379,1743177452973379,0.005461526,0.003345273,0.0017743316,0.43142903,0.019844385,-0.06327453
1743177452985379,1743177452985379,-0.00154391,-0.0038605018,-0.008854236,0.15516508,-0.05326264,-0.72834057
1743177452993379,1743177452993379,0.014002805,0.0024608402,-0.0029158622,1.3015382,0.40971202,0.24896215
1743177453005379,1743177453005379,0.009759303,-0.0041489783,-1.926937e-05,0.20856273,-0.24913248,0.34682393
1743177453013379,1743177453013379,0.0015988639,0.0068108556,-0.0021524178,-0.7880895,0.79884243,-0.11923018
1743177453025379,1743177453025379,-0.008809854,-0.0009761109,-0.0021011878,-0.63948,-0.20142639,-0.050306335
1743177453033379,1743177453033379,4.357082e-05,-0.0004684385,0.006252347,0.5594902,-0.025385177,0.7029236
1743177453045379,1743177453045379,-0.01244725,0.000115773044,0.00012778754,-0.6501535,0.102722205,-0.21776575
1743177453053379,1743177453053379,0.003339393,-0.013064625,-0.00043550786,1.2043352,-1.1785078,-0.22791429
1743177453065379,1743177453065379,-0.0044844123,0.0080988305,0.0057026483,-0.670889,1.7586794,0.555541
1743177453073379,1743177453073379,-0.0027906382,0.0010785105,-0.0032332602,0.007228911,-0.35417926,-0.60244584
1743177453085379,1743177453085379,0.0019584685,-0.013265019,0.0003242854,0.3105439,-0.48059028,0.22515628
1743177453093379,1743177453093379,0.004294973,-0.009357187,-0.00047043158,0.1560781,0.20722988,-0.17373997
1743177453105379,1743177453105379,-0.01650265,-0.0011678727,0.011032774,-1.1553345,0.6641592,1.3081374
1743177453113379,1743177453113379,-0.009742554,-0.0057887174,0.0048684725,0.37360132,-0.27695042,-0.25696164
1743177453125379,1743177453125379,0.0043502497,0.0033965334,-0.0050491323,0.6654622,0.68132776,-0.6972875
1743177453133379,1743177453133379,-0.00764654,0.0004008004,-0.0021448098,-0.78525245,-0.06340623,0.028550414
1743177453145379,1743177453145379,-0.006567488,-0.00132639,0.0003319662,-0.24966347,-0.018673886,0.16733688
1743177453153379,1743177453153379,-0.008349078,0.00523454,0.0010611692,-0.10360977,0.5680496,0.09510067
1743177453165379,1743177453165379,0.006627903,0.0047415127,0.00086304784,0.59522235,0.11274252,-0.08585775
1743177453173379,1743177453173379,-0.0055390876,0.011274749,0.0030927171,-0.7929559,0.59765077,0.31620163
1743177453185379,1743177453185379,0.001670558,-0.0009468074,0.010544247,0.31304935,-0.84038085,0.2430961
1743177453193379,1743177453193379,-0.0020503562,0.0015794471,0.0047647706,-0.18717659,0.036264606,-0.41871554
1743177453205379,1743177453205379,0.0016214096,-0.01327741,0.0065083886,0.3201897,-1.1634569,0.54532135
1743177453213379,1743177453213379,-0.00557372,2.3674176e-05,0.001619583,-0.5960424,0.85659933,-0.41575548
1743177453225379,1743177453225379,-0.0041985195,-0.006173458,-0.0023787036,0.39874595,-0.39545265,-0.15480354
1743177453233379,1743177453233379,0.003663349,-0.013546326,0.0012778753,0.67459047,-0.7070312,0.20673423
1743177453245379,1743177453245379,-0.004505398,0.0026611928,0.0019050267,-0.49874735,0.8527559,0.12159589
1743177453253379,1743177453253379,-0.002528586,0.002721684,0.0013209468,0.030402854,0.3608709,-0.07832158
1743177453265379,1743177453265379,0.002733807,0.0015218998,-7.9606296e-05,0.14751649,-0.04727889,0.38114673
1743177453273379,1743177453273379,-0.0033322903,-0.009914549,0.0071105263,-0.2833531,-0.96179473,0.62006783
1743177453285379,1743177453285379,0.008368567,-0.00071687007,-0.0074849296,0.37607396,0.6511617,-0.8185112
1743177453293379,1743177453293379,0.003938331,0.005339769,0.0013201884,-0.3517059,0.59696424,0.5605122
1743177453305379,1743177453305379,-0.0021841277,0.004772331,-0.006765654,-0.04278332,-0.050277345,-0.4930935
1743177453313379,1743177453313379,0.003008959,-0.0022839194,-0.0019993903,0.46154702,-0.57781804,0.27526212
1743177453325379,1743177453325379,0.012211483,0.0027352653,-0.0029220409,0.46125096,0.57920146,0.089510106
1743177453333379,1743177453333379,-0.0034465925,-0.008347262,0.001305262,-1.2750669,-0.8034115,0.44793242
1743177453345379,1743177453345379,0.0013312136,-0.007499508,-0.0026089053,0.4101836,-0.089226134,-0.40395015
1743177453353379,1743177453353379,-0.004723007,0.0027445331,0.002182224,-0.38488352,0.8881312,0.34916463
1743177453365379,1743177453365379,0.00258855,0.0061480445,0.0032897694,0.28152585,0.37206003,-0.05931785
1743177453373379,1743177453373379,-0.0013562444,0.008818857,-0.0045421827,-0.17611489,0.3444802,-0.65409446
1743177453385379,1743177453385379,-0.012961545,0.004528921,0.0020893442,-0.8713659,-0.5838694,0.72051895
1743177453393379,1743177453393379,-0.01065958,-0.0057901163,0.0028680754,-0.07215825,-0.9902327,0.112212285
1743177453405379,1743177453405379,0.0069545237,0.0069263987,0.00032843577,1.5808437,0.73489296,0.39243525
1743177453413379,1743177453413379,0.018370654,-0.0020741387,0.0035231565,1.1998464,-0.6061329,0.21221308
1743177453425379,1743177453425379,3.3631804e-05,-0.0061319335,-0.00656493,-0.71790284,-0.51428545,-0.46073407
1743177453433379,1743177453433379,0.0042567505,-0.00819767,0.00079253933,0.14394498,-0.15477248,0.49981114
1743177453445379,1743177453445379,0.0061043245,-0.0029062517,0.0064911433,0.11626043,0.24516481,0.56949574
1743177453453379,1743177453453379,0.00012868864,0.0040081274,0.0032506406,-0.49284977,0.7151725,-0.13127281
1743177453465379,1743177453465379,0.0067806873,0.014574526,0.0037636126,0.75175244,0.80978817,-0.2819233
1743177453473379,1743177453473379,0.014795427,0.0010315,-0.0005069034,0.81988144,-0.9850097,-0.31765184
1743177453485379,1743177453485379,-0.0023868019,0.010360106,-0.0010256391,-1.0330462,0.53041166,-0.43857133
1743177453493379,1743177453493379,0.001058721,-0.00047913278,-0.00554867,-0.12390059,-0.8715961,-0.36099336
1743177453505379,1743177453505379,0.0021017822,0.0028587624,0.008810296,0.5429435,0.45660073,0.6809126
1743177453513379,1743177453513379,-0.0062447605,0.0047364417,0.0023110104,-0.6993356,0.12392146,-0.29898623
1743177453525379,1743177453525379,0.0021218169,-0.007968327,0.0017191551,0.805044,-0.5928367,-0.0063570244
1743177453533379,1743177453533379,0.0031092553,-0.005216469,0.0025534334,0.17410159,0.24709821,0.05320866
1743177453545379,1743177453545379,0.00019444688,-0.005978301,-0.0042726514,-0.012397155,-0.3904369,-0.16748136
1743177453553379,1743177453553379,0.0042635943,-0.004107538,-0.004758531,0.3375877,0.022804694,-0.13756546
1743177453565379,1743177453565379,-0.007549712,0.0073831687,-0.018558536,-0.6556939,0.7306916,-1.0104511
1743177453573379,1743177453573379,-0.00034270564,0.013574184,-0.0083367815,0.44789636,0.7422344,0.63035345
1743177453585379,1743177453585379,0.0010589268,-0.001350255,0.0010045936,0.30892026,-0.8684445,0.46323732
1743177453593379,1743177453593379,0.0019584666,-0.004758603,0.0038302373,0.030121028,-0.61310613,0.41648188
1743177453605379,1743177453605379,-0.0074329595,-0.0012391664,-0.0005720934,-0.11909264,0.3062843,-0.24766359
1743177453613379,1743177453613379,-0.006197113,-0.0058564856,-0.007450713,-0.10786891,-0.3564455,-0.6636396
1743177453625379,1743177453625379,0.0025732787,0.0064066886,-0.0056186737,0.86680925,1.0547323,-0.05647197
1743177453633379,1743177453633379,-0.00613705,0.010012166,-0.0029441451,-0.6332097,0.5191353,0.26160654
1743177453645379,1743177453645379,-0.0015005622,-0.00036140287,0.0041604713,0.4900245,-0.49055964,0.5853416
1743177453653379,1743177453653379,-0.005253861,0.0014732726,0.006244034,-0.12733981,0.0026723542,0.3001352
1743177453665379,1743177453665379,-0.004164511,0.0044101193,0.009678801,-0.4033627,0.34543547,0.56118834
1743177453673379,1743177453673379,-0.0053559835,0.0035798294,0.010768567,-0.06000018,-0.19155955,0.18579268
1743177453685379,1743177453685379,4.350848e-05,-0.0014135996,0.0007513657,0.06907296,0.19441338,-0.5088786
1743177453693379,1743177453693379,-0.008159588,-0.0014296621,-1.3628072e-05,-0.6187983,-0.108543985,-0.2907542
1743177453705379,1743177453705379,0.010567887,0.0021785444,0.003349091,1.0615897,0.85712725,0.25257388
1743177453713379,1743177453713379,0.004263267,0.0034807848,0.0025586518,-0.16241863,0.11871672,0.07070012
1743177453725379,1743177453725379,-0.00023096555,-0.0021186827,0.00089973584,-0.36805674,0.16590327,-0.33654317
1743177453733379,1743177453733379,0.0038278876,0.006610106,-0.0072404263,0.23707753,0.63985705,-0.7622505
1743177453745379,1743177453745379,-0.006644227,-2.769658e-05,0.009567703,-0.6884946,-0.39351684,0.6639742
1743177453753379,1743177453753379,-0.00928851,-0.0028762042,0.0030756823,-0.46725973,-0.3133186,-0.24712187
1743177453765379,1743177453765379,0.0007633886,-0.010219624,0.0058734384,0.6991333,-0.40555298,-0.23359507
1743177453773379,1743177453773379,0.0005317221,0.0022344762,0.004122297,0.041029096,0.92877084,-0.009416386
1743177453785379,1743177453785379,-0.0009178764,0.006388269,-0.0010893379,0.45544618,0.097140744,-0.8170033
1743177453793379,1743177453793379,0.0040787,-0.009512556,-0.0029713155,0.3292858,-1.2684504,-0.26010868
1743177453805379,1743177453805379,0.00059770327,0.001479015,0.00021131564,0.29158652,0.08699256,0.11871885
1743177453813379,1743177453813379,0.011458557,0.002159561,0.0031193113,0.9828089,0.3632111,0.19229752
1743177453825379,1743177453825379,-0.001902763,0.010206256,-0.0014312345,-0.785604,0.11682171,0.023701848
1743177453833379,1743177453833379,-0.004777086,0.011550713,0.0028435304,-0.2744758,0.26203048,0.27347767
1743177453845379,1743177453845379,0.009453284,-7.66883e-05,0.014166724,0.33866417,-0.7134817,1.0333183
1743177453853379,1743177453853379,0.0021203987,-0.007825609,0.0025686652,-0.5770261,-1.001336,-0.6925869
1743177453865379,1743177453865379,0.0019519643,-0.0064611747,-0.011038459,-0.061349668,-0.019345503,-1.507307
1743177453873379,1743177453873379,-0.0043257806,-0.010724615,-0.011192165,-0.613747,-0.37154165,-0.16352582
1743177453885379,1743177453885379,-0.003801743,0.005119861,0.0008734701,0.021885991,1.270286,0.40711334
1743177453893379,1743177453893379,-0.0009100884,0.0015835356,0.0058533004,0.19467147,-0.02100874,0.5260609
1743177453905379,1743177453905379,-0.0050449995,-0.0072781644,0.006587594,-0.050864846,-0.5629605,0.30167675
1743177453913379,1743177453913379,0.00068057474,0.0022534772,-0.00030502476,0.3743279,0.6429192,-0.53018886
1743177453925379,1743177453925379,-0.01091258,0.0050359606,0.0040324684,-0.65152276,0.4453413,0.34437492
1743177453933379,1743177453933379,-0.0072471197,-0.004366153,0.0061835395,0.20512432,-0.8404984,0.28838557
1743177453945379,1743177453945379,0.0015531117,-0.0027670974,0.0031171497,0.4614144,0.07673461,-0.34608582
1743177453953379,1743177453953379,0.0017196274,0.0049942387,-0.008467083,0.32739225,0.84259224,-1.1688505
1743177453965379,1743177453965379,0.006002377,-0.0012555416,0.0073160324,-0.11932391,-0.50377995,1.202085
1743177453973379,1743177453973379,0.0063598803,0.004223478,0.0015717642,0.15621462,0.26208335,-0.22452158
1743177453985379,1743177453985379,0.006803482,0.0043665976,-0.00288379,-0.006875232,0.35269496,-0.21035951
1743177453993379,1743177453993379,-0.00024665962,0.013028277,-0.001724482,-0.69010717,0.8250765,0.05818829
1743177454005379,1743177454005379,0.01059439,0.0003855001,0.018947631,0.697003,-0.74771786,1.5450652
1743177454013379,1743177454013379,0.008441575,0.004558397,0.0054397956,0.049852178,0.18425302,-0.79138064
1743177454025379,1743177454025379,-0.006830733,-0.00521197,-0.0015654942,-1.1601698,-0.6482067,-0.3391961
1743177454033379,1743177454033379,0.0055179605,0.00089664647,0.007081976,0.7082234,0.38150644,0.6482382
1743177454045379,1743177454045379,0.00058214564,-0.011974859,0.0003695027,-0.18658546,-1.2674325,-0.5574647
1743177454053379,1743177454053379,0.0061296592,-0.0024106696,0.008123109,0.3650202,0.6336155,0.5762011
1743177454065379,1743177454065379,-0.0028030279,-0.0006569326,-0.0019329083,-0.439547,-0.1414312,-0.63929415
1743177454073379,1743177454073379,0.0024207665,-0.0105177285,0.0017105227,0.32599553,-0.93859565,0.13978161
1743177454085379,1743177454085379,-0.011435084,0.0026260503,0.0029562577,-0.8911987,1.0145826,0.024388392
1743177454093379,1743177454093379,-0.008372029,-0.002433112,0.006882438,0.13834661,-0.16895932,0.37711883
1743177454105379,1743177454105379,0.008561462,-0.0059237047,0.003893518,0.6754603,-0.17684036,-0.27855247
1743177454113379,1743177454113379,0.0015378167,0.006113999,-0.0018833769,-0.39112395,0.97220534,-0.62188804
1743177454125379,1743177454125379,-0.0031350306,-0.006906062,-0.009293207,-0.10884869,-0.82068515,-0.26838392
1743177454133379,1743177454133379,0.008509483,-0.0066091917,-0.00013266245,0.8286439,-0.15218471,0.6058946
1743177454145379,1743177454145379,-0.0049341354,0.005079041,0.014504791,-0.779353,0.757311,1.4922061
1743177454153379,1743177454153379,-0.0066100666,-0.0039522382,0.012172662,-0.28440318,-0.6137716,-0.016694319
1743177454165379,1743177454165379,-0.0065171425,0.0060736123,-0.0022046426,-0.04012765,0.77665967,-0.5003482
1743177454173379,1743177454173379,0.008503923,0.0044138716,0.0066991467,1.2566177,0.08866268,0.58443904
1743177454185379,1743177454185379,0.0051878854,0.004282545,0.00673894,-0.093827456,0.11827342,0.15745781
1743177454193379,1743177454193379,0.0003329676,0.0033545424,0.008222596,-0.5022563,-0.1513364,0.18088491
1743177454205379,1743177454205379,0.0045989626,-0.0017166615,-0.005835225,0.37228873,-0.28983864,-0.9783555
1743177454213379,1743177454213379,0.002252231,-0.0030029556,0.0036039287,-0.23765182,-0.09506116,0.5539442
1743177454225379,1743177454225379,-0.0005755781,-0.0008718866,-0.00024588293,0.25812423,-0.077338874,-0.18846293
1743177454233379,1743177454233379,0.0032244157,-0.004175202,0.0023088634,0.22753286,-0.33342704,0.1623126
1743177454245379,1743177454245379,0.007962736,-0.004620817,-0.009796829,0.53987104,-0.2254866,-0.93670475
1743177454253379,1743177454253379,0.00095106644,-0.0021836516,0.0016407041,-0.3627907,0.19771282,0.7866853
1743177454265379,1743177454265379,0.0018465493,-0.0033219825,-0.006816178,-0.32192525,-0.25105447,-0.8987801
1743177454273379,1743177454273379,-0.001561519,-0.014295139,-0.0057064397,-0.21422601,-0.88614833,-0.00038839932
1743177454285379,1743177454285379,-0.0027524275,-0.007944623,0.011415465,-0.40477082,0.16665988,0.68933785
1743177454293379,1743177454293379,0.0081106,-0.00019254835,0.0020991766,0.9342214,0.7290719,-0.48499095
1743177454305379,1743177454305379,0.002290001,0.00366567,-0.005612128,-0.4088628,0.53152823,-0.7893523
1743177454313379,1743177454313379,0.0062292316,-0.0075739254,0.0036541831,0.13421765,-0.94796365,0.5829738
1743177454325379,1743177454325379,0.0036829447,0.0034746204,-0.0039791223,0.05925864,0.9966682,-0.7206829
1743177454333379,1743177454333379,0.0029904689,0.0036986861,-0.0009150733,-0.06483607,0.1311174,0.2129361
1743177454345379,1743177454345379,-0.005771928,-0.00085073954,0.0033153188,-0.55459154,-0.0054250346,-0.06843996
1743177454353379,1743177454353379,-0.0012388553,0.0020007074,0.0069563175,0.2577093,0.10288995,0.29471672
1743177454365379,1743177454365379,-0.004289814,-0.00221735,0.0070038936,-0.3613092,-0.25799388,0.1800386
1743177454373379,1743177454373379,-0.001510405,0.0016102578,0.008568311,0.16327828,0.35002413,0.13693768
1743177454385379,1743177454385379,0.00096327567,-0.0041976087,-0.0048738327,0.011073887,-0.62142885,-1.144934
1743177454393379,1743177454393379,0.0031147336,-0.007169207,0.0010814572,0.25045466,-0.5130516,0.25394768
1743177454405379,1743177454405379,-0.006736702,-0.0020837851,-0.0006921508,-0.77615535,0.6241203,-0.098867185
1743177454413379,1743177454413379,-0.0027892468,-0.0029130175,0.00041740047,0.15241298,0.04812798,-0.032064423
1743177454425379,1743177454425379,0.009211784,-0.0031021899,-0.007072166,0.85895365,-0.24866247,-0.21133775
1743177454433379,1743177454433379,0.007158995,-0.0014745642,-0.0043029105,0.03902763,0.12967226,0.21031466
1743177454445379,1743177454445379,0.0049665435,-0.008112912,0.002732113,-0.3035401,-0.36702508,0.5485789
1743177454453379,1743177454453379,-0.0012041584,0.0013684336,0.0050267475,-0.59656614,0.66409224,0.32805306
1743177454465379,1743177454465379,-0.010450453,0.0033544768,-0.0026031807,-0.80966455,0.37784088,-0.31337303
1743177454473379,1743177454473379,-0.013689853,0.008402722,0.0020016944,-0.3854568,0.58635134,0.26415193
1743177454485379,1743177454485379,0.004987212,0.00025242136,5.421735e-05,0.99252665,-0.60469705,0.015510608
1743177454493379,1743177454493379,-0.0036157416,0.0015558611,0.0016426034,-0.42848378,-0.06599145,0.11444603
1743177454505379,1743177454505379,0.004048556,-0.004184024,-0.00037275496,0.42844725,-0.40905246,-0.09564031
1743177454513379,1743177454513379,0.005909031,-0.005687615,0.0059252894,0.29689905,-0.18879132,0.55247295
1743177454525379,1743177454525379,-0.001271321,0.0018936557,-0.0020421455,-0.34655643,0.43469533,-0.855708
1743177454533379,1743177454533379,-0.00562259,0.008853875,-0.0007132924,-0.58900195,0.77584153,0.0073168413
1743177454545379,1743177454545379,0.003089059,-0.008282075,-0.0052304473,1.1413145,-1.479208,-0.44401017
1743177454553379,1743177454553379,0.013175882,0.0028291312,-0.0019930531,0.9128016,0.6556904,0.15500747
1743177454565379,1743177454565379,-0.00026025157,-0.0010793315,-0.004609403,-0.4176075,-0.60070366,-0.09778596
1743177454573379,1743177454573379,0.0009809874,-0.011420952,-0.008989444,-0.021986276,-1.022613,-0.45529854
1743177454585379,1743177454585379,0.009534693,-0.006564929,-0.009722216,0.63046354,0.34541854,-0.16837317
1743177454593379,1743177454593379,-0.00063755864,6.994957e-05,-0.009724915,-0.7894818,0.73390806,-0.046934318
1743177454605379,1743177454605379,0.00013134122,-0.006563117,-0.0011497379,0.117390186,-0.5380632,0.4916044
1743177454613379,1743177454613379,-0.00053237716,-0.01945329,-0.012593839,0.053587183,-1.2868954,-0.7811327
1743177454625379,1743177454625379,0.0061349235,-0.00267724,0.0031268303,0.20738006,0.8127248,0.63977325
1743177454633379,1743177454633379,0.010318021,-0.0062605985,-0.0102228215,0.48960966,-0.08202307,-0.9409752
1743177454645379,1743177454645379,0.004878241,-0.012148523,-0.002174765,-0.26958385,-0.045097657,0.5253341
1743177454653379,1743177454653379,0.0085152,0.004740097,0.0007512399,0.16007909,1.3790994,0.4946765
1743177454665379,1743177454665379,0.006808995,-0.008549932,-0.000314991,-0.07622724,-1.0149459,-0.064462796
1743177454669379,1743177454669379,0.0070311166,-0.007827382,-0.002029138,-0.018010695,-0.48668265,-0.22532722
1743177454685379,1743177454685379,0.0038448242,0.01781579,0.0062322645,-0.30826843,1.0616753,0.8411537
1743177454693379,1743177454693379,-0.0012768961,0.0061698747,0.0039806864,-0.48243004,-0.59426236,0.06405743
1743177454705379,1743177454705379,0.00752101,0.0028308458,-0.00980823,0.5875187,-0.20698853,-0.91868865
1743177454713379,1743177454713379,0.00699163,0.010732847,-0.0034266233,0.11311737,0.47931856,0.31708306
1743177454725379,1743177454725379,0.0039032132,-0.00564025,0.0039322325,-0.0014750361,-0.9714554,0.17277162
1743177454733379,1743177454733379,0.009707765,0.004475819,0.0054446966,0.41139168,0.6806447,0.27335978
1743177454745379,1743177454745379,0.00026867795,0.006832067,-0.005733412,-0.3134967,0.17215848,-0.9811604
1743177454753379,1743177454753379,-0.0074355286,-0.003592386,-0.0053246464,-0.7175599,-0.8710387,-0.2094784
1743177454765379,1743177454765379,0.00089714833,0.0030162039,-0.0015707698,0.45914102,0.40383396,0.35115874
1743177454773379,1743177454773379,0.0035742805,-0.0014072831,0.0025847892,0.45005888,-0.3574265,0.40497327
1743177454785379,1743177454785379,0.015541241,-0.0028866013,-0.008143769,0.61402315,0.11172692,-0.6265162
1743177454793379,1743177454793379,0.008797319,-0.006658713,-0.0026675472,-0.4307457,-0.42637664,0.33703873
1743177454805379,1743177454805379,0.005045094,0.0013153245,0.010188349,-0.2937018,0.9254265,0.5536572
1743177454813379,1743177454813379,0.0068826815,0.002365894,0.00734853,0.08859688,0.2847414,0.012019818
1743177454825379,1743177454825379,-4.029018e-05,0.0039284234,-0.0063578244,-0.5690416,0.1647775,-1.0243783
1743177454833379,1743177454833379,-0.0031091636,0.0023951253,-0.016470004,-0.3460874,0.025060406,-1.1944479
1743177454845379,1743177454845379,0.0058309175,0.0050704307,-0.011724647,0.6281354,0.26078483,0.31247097
1743177454853379,1743177454853379,0.0053562266,-0.0031253172,0.0074794325,0.011668026,-0.84755576,1.8565291
1743177454865379,1743177454865379,-0.0071457224,-0.0018698348,0.002680299,-0.6244085,0.27383754,-0.7656578
1743177454873379,1743177454873379,0.00018097524,0.004219082,-0.008916439,0.47090575,0.68959236,-1.0779831
1743177454885379,1743177454885379,-0.005877684,-0.0009351503,0.0074536214,-0.5802738,-0.62851197,0.851269
1743177454893379,1743177454893379,0.0027200538,-0.0048865257,0.0027859432,0.6603577,-0.3457644,-0.24168083
1743177454905379,1743177454905379,0.0018789258,0.0007124506,0.0013493837,-0.044393167,0.34004804,-0.24109012
1743177454913379,1743177454913379,0.0114821615,0.010816602,-0.0060381503,0.82950866,0.916904,-0.6257948
1743177454925379,1743177454925379,0.009831843,-0.0018078915,0.00786839,-0.1438686,-0.39929828,1.0928447
1743177454933379,1743177454933379,-0.00214653,0.002718573,0.0031574864,-1.1148119,0.17498314,-0.22870696
1743177454945379,1743177454945379,0.0052426066,-0.0071589607,0.0004690389,0.4865726,-0.28612578,0.12427198
1743177454953379,1743177454953379,-0.0027798468,-0.00028701063,0.007084345,-0.50043875,0.47024667,0.41380194
1743177454965379,1743177454965379,0.0074783266,-0.003021085,7.201386e-05,0.26025516,-0.24963206,-0.008291666
1743177454973379,1743177454973379,0.0019743904,-0.002668426,-0.0028428384,-0.18344048,-0.056725454,-0.33379665
1743177454985379,1743177454985379,-0.000685011,-0.0051213037,-0.0004203916,-0.4237777,0.3228196,0.26164547
1743177454993379,1743177454993379,0.0025585108,-0.0014499322,0.003152376,0.039284065,0.19446588,0.3339306
1743177455005379,1743177455005379,-0.0027135455,0.0056694355,0.0064862426,-0.15100828,0.86641943,0.49772847
1743177455013379,1743177455013379,-0.006138468,0.0017634669,-0.0033848342,-0.37837982,-0.16833426,-0.69695556
1743177455025379,1743177455025379,-0.00081173837,-0.0114831645,0.0053600813,0.4476744,-0.91685736,0.26154202
1743177455033379,1743177455033379,-0.0052699386,0.0020979734,-0.0036401702,-0.45266694,1.018439,-0.6472959
1743177455045379,1743177455045379,0.0024960192,-0.00024566782,0.01222628,0.84287053,-0.26913026,1.1513569
1743177455053379,1743177455053379,-0.004210905,-0.00821233,0.007841604,-0.37694222,-0.70990837,-0.10612197
1743177455065379,1743177455065379,0.00030143704,-0.0060142726,-0.0070310864,0.067620814,-0.115997806,-0.93500054
1743177455073379,1743177455073379,-0.001603192,-0.005903439,-0.003690659,-0.06756887,0.11451629,0.085458875
1743177455085379,1743177455085379,-0.0023910478,-0.004005539,-0.0029952186,-0.025433019,-0.3779676,-0.022858927
1743177455093379,1743177455093379,0.0036583801,-0.001587099,-0.003935455,0.575387,0.21636304,-0.20435399
1743177455105379,1743177455105379,0.006979365,0.0038077869,-0.008778494,0.20084848,0.29480475,-0.14789271
1743177455113379,1743177455113379,0.005299784,0.0026698746,0.0047957916,-0.1406123,0.018742962,1.2252825
1743177455125379,1743177455125379,0.008722298,-0.005035302,-0.0007071737,0.16329035,-0.43354952,-0.77710706
1743177455133379,1743177455133379,-0.0073208297,-0.011607442,-0.0018713053,-1.2795646,-0.7589734,-0.11961867
1743177455145379,1743177455145379,0.0032483467,-0.008261463,0.0033438744,0.38069963,0.23702896,-0.16093951
1743177455153379,1743177455153379,-0.0041575087,0.0021142212,-0.0009052234,-0.3659696,0.9444901,-0.25191906
1743177455165379,1743177455165379,0.010113167,0.006480348,0.012773707,0.7759203,0.21972923,1.1793191
1743177455173379,1743177455173379,-0.004285026,-5.391774e-05,0.013567863,-1.1084499,-0.35684907,0.08641457
1743177455185379,1743177455185379,-0.00051483995,0.0077314004,-0.0053855632,0.3536386,0.5724918,-0.8031673
1743177455193379,1743177455193379,0.006929247,0.0010561167,-0.005226689,0.66848886,-0.5548934,-0.22699231
1743177455205379,1743177455205379,-0.004926978,-0.004634688,0.009731509,-0.9254129,-0.31156284,1.1176076
1743177455213379,1743177455213379,-0.0068018683,0.0051282034,-0.0024773732,-0.38094702,0.7733944,-0.8584998
1743177455225379,1743177455225379,0.0015333875,0.0086434195,-0.000722645,0.7269155,-0.07502509,0.2704816
1743177455233379,1743177455233379,0.015084244,-0.0028887829,-0.0067746113,1.2158033,-0.88354594,-0.44978318
1743177455245379,1743177455245379,0.0023694409,0.008506007,0.008829725,-0.51391727,0.54009944,0.77857864
1743177455253379,1743177455253379,0.007439425,-0.0016203467,0.0065960027,0.24787158,-0.6287917,0.067419745
1743177455265379,1743177455265379,-0.004895239,0.0047805747,-0.003826113,-0.79987305,0.26918027,-0.997218
1743177455273379,1743177455273379,-0.00040100137,0.005201958,-0.00070300995,0.1717216,0.15656629,0.005480769
1743177455285379,1743177455285379,9.94468e-05,-0.006278038,-0.009710158,0.051200327,-0.9104311,-0.62584275
1743177455293379,1743177455293379,0.004734709,0.003659197,-0.0046019307,0.5247078,0.701444,0.289953
1743177455305379,1743177455305379,-0.002645803,0.0014595242,-0.0068680365,-0.7370522,-0.3921073,-0.1827458
1743177455313379,1743177455313379,-0.0036886975,0.0009796078,-0.0013267993,-0.22421294,-0.08399976,0.43219906
1743177455325379,1743177455325379,0.0035732968,-0.005795255,0.0026914584,0.48101285,-0.31457224,0.16930073
1743177455333379,1743177455333379,-0.0060662986,0.0057790102,-0.002830541,-0.7535558,0.87257516,-0.43598795
1743177455345379,1743177455345379,0.0012095717,-0.0009595653,-0.004858096,0.19224888,-0.3054498,-0.17154428
1743177455353379,1743177455353379,0.0085708015,-0.001999293,-0.002423455,0.80999774,-0.31374568,0.26681292
1743177455365379,1743177455365379,0.002962223,-0.008253097,0.006572002,-0.43544415,-0.18110956,0.46946272
1743177455373379,1743177455373379,-0.00054774474,0.008385614,0.013604226,-0.42024794,1.3926132,0.6478239
1743177455385379,1743177455385379,0.002773894,0.0068230503,-0.0013573637,0.14580202,-0.089381926,-0.55412024
1743177455393379,1743177455393379,0.0006640283,0.0143287,0.0045713903,-0.106776275,0.6664963,0.2254056
