timestamp,timestamp_sample,latitude_deg,longitude_deg,altitude_msl_m,altitude_ellipsoid_m,time_utc_usec,device_id,s_variance_m_s,c_variance_rad,eph,epv,hdop,vdop,noise_per_ms,jamming_indicator,vel_m_s,vel_n_m_s,vel_e_m_s,vel_d_m_s,cog_rad,timestamp_time_relative,heading,heading_offset,heading_accuracy,rtcm_injection_rate,automatic_gain_control,fix_type,jamming_state,spoofing_state,vel_ned_valid,satellites_used,selected_rtcm_instance,rtcm_crc_failed,rtcm_msg_used
1743177449801379,0,52.5148588,13.325424199999999,-0.006,-0.006,1743177449801379,0,0.25,0.5,0.29999998,0.39999998,0.0,0.0,0,0,0.0,0.0,0.0,0.0,nan,0,nan,nan,0.0,0.0,0,3,0,0,1,9,0,0,0
1743177449853379,0,52.5148588,13.325424199999999,-0.006,-0.006,1743177449853379,0,0.25,0.5,0.29999998,0.39999998,0.0,0.0,0,0,0.0,0.0,0.0,0.0,nan,0,nan,nan,0.0,0.0,0,3,0,0,1,9,0,0,0
1743177449905379,0,52.5148588,13.325424199999999,-0.006,-0.006,1743177449905379,0,0.25,0.5,0.29999998,0.39999998,0.0,0.0,0,0,0.01,0.01,0.0,0.0,nan,0,nan,nan,0.0,0.0,0,3,0,0,1,9,0,0,0
1743177449957379,0,52.5148588,13.325424199999999,-0.006,-0.006,1743177449957379,0,0.25,0.5,0.29999998,0.39999998,0.0,0.0,0,0,0.0,0.0,0.0,0.0,nan,0,nan,nan,0.0,0.0,0,3,0,0,1,9,0,0,0
1743177450009379,0,52.5148588,13.325424199999999,-0.006,-0.006,1743177450009379,0,0.25,0.5,0.29999998,0.39999998,0.0,0.0,0,0,0.0,0.0,0.0,0.0,nan,0,nan,nan,0.0,0.0,0,3,0,0,1,9,0,0,0
1743177450061379,0,52.5148588,13.325424199999999,-0.006,-0.006,1743177450061379,0,0.25,0.5,0.29999998,0.39999998,0.0,0.0,0,0,0.0,0.0,0.0,0.0,nan,0,nan,nan,0.0,0.0,0,3,0,0,1,9,0,0,0
1743177450113379,0,52.5148588,13.325424199999999,-0.006,-0.006,1743177450113379,0,0.25,0.5,0.29999998,0.39999998,0.0,0.0,0,0,0.0,0.0,0.0,0.0,nan,0,nan,nan,0.0,0.0,0,3,0,0,1,9,0,0,0
1743177450165379,0,52.5148588,13.325424199999999,-0.006,-0.006,1743177450165379,0,0.25,0.5,0.29999998,0.39999998,0.0,0.0,0,0,0.01,0.0,-0.01,0.0,nan,0,nan,nan,0.0,0.0,0,3,0,0,1,9,0,0,0
1743177450217379,0,52.5148588,13.325424199999999,-0.007,-0.007,1743177450217379,0,0.25,0.5,0.29999998,0.39999998,0.0,0.0,0,0,0.0,0.0,0.0,0.0,nan,0,nan,nan,0.0,0.0,0,3,0,0,1,9,0,0,0
1743177450269379,0,52.5148588,13.325424199999999,-0.006,-0.006,1743177450269379,0,0.25,0.5,0.29999998,0.39999998,0.0,0.0,0,0,0.0,0.0,0.0,0.0,nan,0,nan,nan,0.0,0.0,0,3,0,0,1,9,0,0,0
1743177450321379,0,52.5148588,13.325424199999999,-0.007,-0.007,1743177450321379,0,0.25,0.5,0.29999998,0.39999998,0.0,0.0,0,0,0.0,0.0,0.0,0.01,nan,0,nan,nan,0.0,0.0,0,3,0,0,1,9,0,0,0
1743177450373379,0,52.5148588,13.325424199999999,-0.006,-0.006,1743177450373379,0,0.25,0.5,0.29999998,0.39999998,0.0,0.0,0,0,0.0,0.0,0.0,0.0,nan,0,nan,nan,0.0,0.0,0,3,0,0,1,9,0,0,0
1743177450425379,0,52.5148588,13.325424199999999,-0.006,-0.006,1743177450425379,0,0.25,0.5,0.29999998,0.39999998,0.0,0.0,0,0,0.0,0.0,0.0,0.0,nan,0,nan,nan,0.0,0.0,0,3,0,0,1,9,0,0,0
1743177450477379,0,52.5148588,13.325424199999999,-0.006,-0.006,1743177450477379,0,0.25,0.5,0.29999998,0.39999998,0.0,0.0,0,0,0.01,-0.01,0.0,0.0,nan,0,nan,nan,0.0,0.0,0,3,0,0,1,9,0,0,0
1743177450529379,0,52.5148588,13.325424199999999,-0.006,-0.006,1743177450529379,0,0.25,0.5,0.29999998,0.39999998,0.0,0.0,0,0,0.0,0.0,0.0,0.0,nan,0,nan,nan,0.0,0.0,0,3,0,0,1,9,0,0,0
1743177450581379,0,52.5148588,13.325424199999999,-0.006,-0.006,1743177450581379,0,0.25,0.5,0.29999998,0.39999998,0.0,0.0,0,0,0.0,0.0,0.0,0.0,nan,0,nan,nan,0.0,0.0,0,3,0,0,1,9,0,0,0
1743177450633379,0,52.5148588,13.325424199999999,-0.006,-0.006,1743177450633379,0,0.25,0.5,0.29999998,0.39999998,0.0,0.0,0,0,0.01,0.0,-0.01,0.0,nan,0,nan,nan,0.0,0.0,0,3,0,0,1,9,0,0,0
1743177450685379,0,52.5148588,13.325424199999999,-0.006,-0.006,1743177450685379,0,0.25,0.5,0.29999998,0.39999998,0.0,0.0,0,0,0.0,0.0,0.0,0.0,nan,0,nan,nan,0.0,0.0,0,3,0,0,1,9,0,0,0
1743177450737379,0,52.5148588,13.325424199999999,-0.006,-0.006,1743177450737379,0,0.25,0.5,0.29999998,0.39999998,0.0,0.0,0,0,0.0,0.0,0.0,0.0,nan,0,nan,nan,0.0,0.0,0,3,0,0,1,9,0,0,0
1743177450789379,0,52.5148588,13.325424199999999,-0.006,-0.006,1743177450789379,0,0.25,0.5,0.29999998,0.39999998,0.0,0.0,0,0,0.0,0.0,0.0,0.0,nan,0,nan,nan,0.0,0.0,0,3,0,0,1,9,0,0,0
1743177450841379,0,52.5148588,13.325424199999999,-0.006,-0.006,1743177450841379,0,0.25,0.5,0.29999998,0.39999998,0.0,0.0,0,0,0.0,0.0,0.0,0.0,nan,0,nan,nan,0.0,0.0,0,3,0,0,1,9,0,0,0
1743177450893379,0,52.5148588,13.325424199999999,-0.006,-0.006,1743177450893379,0,0.25,0.5,0.29999998,0.39999998,0.0,0.0,0,0,0.0,0.0,0.0,0.0,nan,0,nan,nan,0.0,0.0,0,3,0,0,1,9,0,0,0
1743177450945379,0,52.5148588,13.325424199999999,-0.006,-0.006,1743177450945379,0,0.25,0.5,0.29999998,0.39999998,0.0,0.0,0,0,0.0,0.0,0.0,0.0,nan,0,nan,nan,0.0,0.0,0,3,0,0,1,9,0,0,0
1743177450997379,0,52.5148588,13.325424199999999,-0.006,-0.006,1743177450997379,0,0.25,0.5,0.29999998,0.39999998,0.0,0.0,0,0,0.0,0.0,0.0,0.0,nan,0,nan,nan,0.0,0.0,0,3,0,0,1,9,0,0,0
1743177451049379,0,52.5148588,13.325424199999999,-0.006,-0.006,1743177451049379,0,0.25,0.5,0.29999998,0.39999998,0.0,0.0,0,0,0.0,0.0,0.0,0.0,nan,0,nan,nan,0.0,0.0,0,3,0,0,1,9,0,0,0
1743177451101379,0,52.5148588,13.325424199999999,-0.006,-0.006,1743177451101379,0,0.25,0.5,0.29999998,0.39999998,0.0,0.0,0,0,0.0,0.0,0.0,0.0,nan,0,nan,nan,0.0,0.0,0,3,0,0,1,9,0,0,0
1743177451153379,0,52.5148588,13.325424199999999,-0.006,-0.006,1743177451153379,0,0.25,0.5,0.29999998,0.39999998,0.0,0.0,0,0,0.0,0.0,0.0,0.0,nan,0,nan,nan,0.0,0.0,0,3,0,0,1,9,0,0,0
1743177451205379,0,52.5148588,13.325424199999999,-0.006,-0.006,1743177451205379,0,0.25,0.5,0.29999998,0.39999998,0.0,0.0,0,0,0.0,0.0,0.0,0.0,nan,0,nan,nan,0.0,0.0,0,3,0,0,1,9,0,0,0
1743177451257379,0,52.5148588,13.325424199999999,-0.006,-0.006,1743177451257379,0,0.25,0.5,0.29999998,0.39999998,0.0,0.0,0,0,0.0,0.0,0.0,0.0,nan,0,nan,nan,0.0,0.0,0,3,0,0,1,9,0,0,0
1743177451309379,0,52.5148588,13.325424199999999,-0.006,-0.006,1743177451309379,0,0.25,0.5,0.29999998,0.39999998,0.0,0.0,0,0,0.0,0.0,0.0,0.0,nan,0,nan,nan,0.0,0.0,0,3,0,0,1,9,0,0,0
1743177451361379,0,52.5148588,13.325424199999999,-0.006,-0.006,1743177451361379,0,0.25,0.5,0.29999998,0.39999998,0.0,0.0,0,0,0.0,0.0,0.0,0.0,nan,0,nan,nan,0.0,0.0,0,3,0,0,1,9,0,0,0
1743177451413379,0,52.5148588,13.325424199999999,-0.006,-0.006,1743177451413379,0,0.25,0.5,0.29999998,0.39999998,0.0,0.0,0,0,0.0,0.0,0.0,0.0,nan,0,nan,nan,0.0,0.0,0,3,0,0,1,9,0,0,0
1743177451465379,0,52.5148588,13.325424199999999,-0.006,-0.006,1743177451465379,0,0.25,0.5,0.29999998,0.39999998,0.0,0.0,0,0,0.0,0.0,0.0,0.0,nan,0,nan,nan,0.0,0.0,0,3,0,0,1,9,0,0,0
1743177451517379,0,52.5148588,13.325424199999999,-0.006,-0.006,1743177451517379,0,0.25,0.5,0.29999998,0.39999998,0.0,0.0,0,0,0.0,0.0,0.0,0.0,nan,0,nan,nan,0.0,0.0,0,3,0,0,1,9,0,0,0
1743177451569379,0,52.5148588,13.325424199999999,-0.006,-0.006,1743177451569379,0,0.25,0.5,0.29999998,0.39999998,0.0,0.0,0,0,0.0,0.0,0.0,0.0,nan,0,nan,nan,0.0,0.0,0,3,0,0,1,9,0,0,0
1743177451621379,0,52.5148588,13.325424199999999,-0.006,-0.006,1743177451621379,0,0.25,0.5,0.29999998,0.39999998,0.0,0.0,0,0,0.01,0.01,0.0,0.0,nan,0,nan,nan,0.0,0.0,0,3,0,0,1,9,0,0,0
1743177451673379,0,52.5148588,13.325424199999999,-0.006,-0.006,1743177451673379,0,0.25,0.5,0.29999998,0.39999998,0.0,0.0,0,0,0.0,0.0,0.0,0.0,nan,0,nan,nan,0.0,0.0,0,3,0,0,1,9,0,0,0
1743177451725379,0,52.5148588,13.325424199999999,-0.007,-0.007,1743177451725379,0,0.25,0.5,0.29999998,0.39999998,0.0,0.0,0,0,0.0,0.0,0.0,0.0,nan,0,nan,nan,0.0,0.0,0,3,0,0,1,9,0,0,0
1743177451777379,0,52.5148588,13.325424199999999,-0.006,-0.006,1743177451777379,0,0.25,0.5,0.29999998,0.39999998,0.0,0.0,0,0,0.0,0.0,0.0,0.0,nan,0,nan,nan,0.0,0.0,0,3,0,0,1,9,0,0,0
1743177451829379,0,52.5148588,13.325424199999999,-0.006,-0.006,1743177451829379,0,0.25,0.5,0.29999998,0.39999998,0.0,0.0,0,0,0.0,0.0,0.0,0.0,nan,0,nan,nan,0.0,0.0,0,3,0,0,1,9,0,0,0
1743177451881379,0,52.5148588,13.325424199999999,-0.006,-0.006,1743177451881379,0,0.25,0.5,0.29999998,0.39999998,0.0,0.0,0,0,0.01,0.0,-0.01,0.0,nan,0,nan,nan,0.0,0.0,0,3,0,0,1,9,0,0,0
1743177451933379,0,52.5148588,13.325424199999999,-0.006,-0.006,1743177451933379,0,0.25,0.5,0.29999998,0.39999998,0.0,0.0,0,0,0.0,0.0,0.0,0.0,nan,0,nan,nan,0.0,0.0,0,3,0,0,1,9,0,0,0
1743177451985379,0,52.5148588,13.325424199999999,-0.006,-0.006,1743177451985379,0,0.25,0.5,0.29999998,0.39999998,0.0,0.0,0,0,0.0,0.0,0.0,0.0,nan,0,nan,nan,0.0,0.0,0,3,0,0,1,9,0,0,0
1743177452037379,0,52.5148588,13.325424199999999,-0.006,-0.006,1743177452037379,0,0.25,0.5,0.29999998,0.39999998,0.0,0.0,0,0,0.0,0.0,0.0,0.0,nan,0,nan,nan,0.0,0.0,0,3,0,0,1,9,0,0,0
1743177452089379,0,52.5148588,13.325424199999999,-0.006,-0.006,1743177452089379,0,0.25,0.5,0.29999998,0.39999998,0.0,0.0,0,0,0.0,0.0,0.0,0.0,nan,0,nan,nan,0.0,0.0,0,3,0,0,1,9,0,0,0
1743177452141379,0,52.5148588,13.325424199999999,-0.006,-0.006,1743177452141379,0,0.25,0.5,0.29999998,0.39999998,0.0,0.0,0,0,0.0,0.0,0.0,0.0,nan,0,nan,nan,0.0,0.0,0,3,0,0,1,9,0,0,0
1743177452193379,0,52.5148588,13.325424199999999,-0.006,-0.006,1743177452193379,0,0.25,0.5,0.29999998,0.39999998,0.0,0.0,0,0,0.0,0.0,0.0,0.0,nan,0,nan,nan,0.0,0.0,0,3,0,0,1,9,0,0,0
1743177452245379,0,52.5148588,13.325424199999999,-0.006,-0.006,1743177452245379,0,0.25,0.5,0.29999998,0.39999998,0.0,0.0,0,0,0.0,0.0,0.0,0.0,nan,0,nan,nan,0.0,0.0,0,3,0,0,1,9,0,0,0
1743177452297379,0,52.5148588,13.325424199999999,-0.006,-0.006,1743177452297379,0,0.25,0.5,0.29999998,0.39999998,0.0,0.0,0,0,0.01,0.0,0.0,0.0,nan,0,nan,nan,0.0,0.0,0,3,0,0,1,9,0,0,0
1743177452349379,0,52.5148588,13.325424199999999,-0.006,-0.006,1743177452349379,0,0.25,0.5,0.29999998,0.39999998,0.0,0.0,0,0,0.0,0.0,0.0,0.0,nan,0,nan,nan,0.0,0.0,0,3,0,0,1,9,0,0,0
1743177452401379,0,52.5148588,13.325424199999999,-0.006,-0.006,1743177452401379,0,0.25,0.5,0.29999998,0.39999998,0.0,0.0,0,0,0.0,0.0,0.0,0.0,nan,0,nan,nan,0.0,0.0,0,3,0,0,1,9,0,0,0
1743177452453379,0,52.5148588,13.325424199999999,-0.007,-0.007,1743177452453379,0,0.25,0.5,0.29999998,0.39999998,0.0,0.0,0,0,0.0,0.0,0.0,0.0,nan,0,nan,nan,0.0,0.0,0,3,0,0,1,9,0,0,0
1743177452505379,0,52.5148588,13.325424199999999,-0.006,-0.006,1743177452505379,0,0.25,0.5,0.29999998,0.39999998,0.0,0.0,0,0,0.0,0.0,0.0,0.0,nan,0,nan,nan,0.0,0.0,0,3,0,0,1,9,0,0,0
1743177452557379,0,52.5148588,13.325424199999999,-0.006,-0.006,1743177452557379,0,0.25,0.5,0.29999998,0.39999998,0.0,0.0,0,0,0.0,0.0,0.0,0.0,nan,0,nan,nan,0.0,0.0,0,3,0,0,1,9,0,0,0
1743177452609379,0,52.5148588,13.325424199999999,-0.006,-0.006,1743177452609379,0,0.25,0.5,0.29999998,0.39999998,0.0,0.0,0,0,0.0,0.0,0.0,0.0,nan,0,nan,nan,0.0,0.0,0,3,0,0,1,9,0,0,0
1743177452661379,0,52.5148588,13.325424199999999,-0.006,-0.006,1743177452661379,0,0.25,0.5,0.29999998,0.39999998,0.0,0.0,0,0,0.0,0.0,0.0,0.0,nan,0,nan,nan,0.0,0.0,0,3,0,0,1,9,0,0,0
1743177452713379,0,52.5148588,13.325424199999999,-0.006,-0.006,1743177452713379,0,0.25,0.5,0.29999998,0.39999998,0.0,0.0,0,0,0.01,0.0,0.01,0.0,nan,0,nan,nan,0.0,0.0,0,3,0,0,1,9,0,0,0
1743177452765379,0,52.5148588,13.325424199999999,-0.006,-0.006,1743177452765379,0,0.25,0.5,0.29999998,0.39999998,0.0,0.0,0,0,0.01,0.0,-0.01,0.0,nan,0,nan,nan,0.0,0.0,0,3,0,0,1,9,0,0,0
1743177452817379,0,52.5148588,13.325424199999999,-0.006,-0.006,1743177452817379,0,0.25,0.5,0.29999998,0.39999998,0.0,0.0,0,0,0.0,0.0,0.0,0.0,nan,0,nan,nan,0.0,0.0,0,3,0,0,1,9,0,0,0
1743177452869379,0,52.5148588,13.325424199999999,-0.006,-0.006,1743177452869379,0,0.25,0.5,0.29999998,0.39999998,0.0,0.0,0,0,0.0,0.0,0.0,0.0,nan,0,nan,nan,0.0,0.0,0,3,0,0,1,9,0,0,0
1743177452921379,0,52.5148588,13.325424199999999,-0.006,-0.006,1743177452921379,0,0.25,0.5,0.29999998,0.39999998,0.0,0.0,0,0,0.0,0.0,0.0,0.0,nan,0,nan,nan,0.0,0.0,0,3,0,0,1,9,0,0,0
1743177452973379,0,52.5148588,13.325424199999999,-0.006,-0.006,1743177452973379,0,0.25,0.5,0.29999998,0.39999998,0.0,0.0,0,0,0.0,0.0,0.0,0.0,nan,0,nan,nan,0.0,0.0,0,3,0,0,1,9,0,0,0
1743177453025379,0,52.5148588,13.325424199999999,-0.006,-0.006,1743177453025379,0,0.25,0.5,0.29999998,0.39999998,0.0,0.0,0,0,0.0,0.0,0.0,0.0,nan,0,nan,nan,0.0,0.0,0,3,0,0,1,9,0,0,0
1743177453077379,0,52.5148588,13.325424199999999,-0.006,-0.006,1743177453077379,0,0.25,0.5,0.29999998,0.39999998,0.0,0.0,0,0,0.0,0.0,0.0,0.0,nan,0,nan,nan,0.0,0.0,0,3,0,0,1,9,0,0,0
1743177453129379,0,52.5148588,13.325424199999999,-0.006,-0.006,1743177453129379,0,0.25,0.5,0.29999998,0.39999998,0.0,0.0,0,0,0.0,0.0,0.0,0.0,nan,0,nan,nan,0.0,0.0,0,3,0,0,1,9,0,0,0
1743177453181379,0,52.5148588,13.325424199999999,-0.006,-0.006,1743177453181379,0,0.25,0.5,0.29999998,0.39999998,0.0,0.0,0,0,0.0,0.0,0.0,0.0,nan,0,nan,nan,0.0,0.0,0,3,0,0,1,9,0,0,0
1743177453233379,0,52.5148588,13.325424199999999,-0.006,-0.006,1743177453233379,0,0.25,0.5,0.29999998,0.39999998,0.0,0.0,0,0,0.0,0.0,0.0,0.0,nan,0,nan,nan,0.0,0.0,0,3,0,0,1,9,0,0,0
1743177453285379,0,52.5148588,13.325424199999999,-0.006,-0.006,1743177453285379,0,0.25,0.5,0.29999998,0.39999998,0.0,0.0,0,0,0.0,0.0,0.0,0.0,nan,0,nan,nan,0.0,0.0,0,3,0,0,1,9,0,0,0
1743177453337379,0,52.5148588,13.325424199999999,-0.006,-0.006,1743177453337379,0,0.25,0.5,0.29999998,0.39999998,0.0,0.0,0,0,0.0,0.0,0.0,0.0,nan,0,nan,nan,0.0,0.0,0,3,0,0,1,9,0,0,0
1743177453389379,0,52.5148588,13.325424199999999,-0.006,-0.006,1743177453389379,0,0.25,0.5,0.29999998,0.39999998,0.0,0.0,0,0,0.0,0.0,0.0,0.0,nan,0,nan,nan,0.0,0.0,0,3,0,0,1,9,0,0,0
1743177453441379,0,52.5148588,13.325424199999999,-0.006,-0.006,1743177453441379,0,0.25,0.5,0.29999998,0.39999998,0.0,0.0,0,0,0.0,0.0,0.0,0.0,nan,0,nan,nan,0.0,0.0,0,3,0,0,1,9,0,0,0
1743177453493379,0,52.5148588,13.325424199999999,-0.006,-0.006,1743177453493379,0,0.25,0.5,0.29999998,0.39999998,0.0,0.0,0,0,0.0,0.0,0.0,0.0,nan,0,nan,nan,0.0,0.0,0,3,0,0,1,9,0,0,0
1743177453545379,0,52.5148588,13.325424199999999,-0.006,-0.006,1743177453545379,0,0.25,0.5,0.29999998,0.39999998,0.0,0.0,0,0,0.0,0.0,0.0,0.0,nan,0,nan,nan,0.0,0.0,0,3,0,0,1,9,0,0,0
1743177453597379,0,52.5148588,13.325424199999999,-0.006,-0.006,1743177453597379,0,0.25,0.5,0.29999998,0.39999998,0.0,0.0,0,0,0.0,0.0,0.0,0.0,nan,0,nan,nan,0.0,0.0,0,3,0,0,1,9,0,0,0
1743177453649379,0,52.5148588,13.325424199999999,-0.006,-0.006,1743177453649379,0,0.25,0.5,0.29999998,0.39999998,0.0,0.0,0,0,0.0,0.0,0.0,0.0,nan,0,nan,nan,0.0,0.0,0,3,0,0,1,9,0,0,0
1743177453701379,0,52.5148588,13.325424199999999,-0.006,-0.006,1743177453701379,0,0.25,0.5,0.29999998,0.39999998,0.0,0.0,0,0,0.0,0.0,0.0,0.0,nan,0,nan,nan,0.0,0.0,0,3,0,0,1,9,0,0,0
1743177453753379,0,52.5148588,13.325424199999999,-0.006,-0.006,1743177453753379,0,0.25,0.5,0.29999998,0.39999998,0.0,0.0,0,0,0.01,0.0,0.0,0.0,nan,0,nan,nan,0.0,0.0,0,3,0,0,1,9,0,0,0
1743177453805379,0,52.5148588,13.325424199999999,-0.006,-0.006,1743177453805379,0,0.25,0.5,0.29999998,0.39999998,0.0,0.0,0,0,0.0,0.0,0.0,0.0,nan,0,nan,nan,0.0,0.0,0,3,0,0,1,9,0,0,0
1743177453857379,0,52.5148588,13.325424199999999,-0.006,-0.006,1743177453857379,0,0.25,0.5,0.29999998,0.39999998,0.0,0.0,0,0,0.0,0.0,0.0,0.0,nan,0,nan,nan,0.0,0.0,0,3,0,0,1,9,0,0,0
1743177453909379,0,52.5148588,13.325424199999999,-0.006,-0.006,1743177453909379,0,0.25,0.5,0.29999998,0.39999998,0.0,0.0,0,0,0.01,-0.01,0.0,0.0,nan,0,nan,nan,0.0,0.0,0,3,0,0,1,9,0,0,0
1743177453961379,0,52.5148588,13.325424199999999,-0.006,-0.006,1743177453961379,0,0.25,0.5,0.29999998,0.39999998,0.0,0.0,0,0,0.0,0.0,0.0,0.0,nan,0,nan,nan,0.0,0.0,0,3,0,0,1,9,0,0,0
1743177454013379,0,52.5148588,13.325424199999999,-0.006,-0.006,1743177454013379,0,0.25,0.5,0.29999998,0.39999998,0.0,0.0,0,0,0.0,0.0,0.0,0.0,nan,0,nan,nan,0.0,0.0,0,3,0,0,1,9,0,0,0
1743177454065379,0,52.5148588,13.325424199999999,-0.006,-0.006,1743177454065379,0,0.25,0.5,0.29999998,0.39999998,0.0,0.0,0,0,0.0,0.0,0.0,0.0,nan,0,nan,nan,0.0,0.0,0,3,0,0,1,9,0,0,0
1743177454117379,0,52.5148588,13.325424199999999,-0.006,-0.006,1743177454117379,0,0.25,0.5,0.29999998,0.39999998,0.0,0.0,0,0,0.0,0.0,0.0,0.0,nan,0,nan,nan,0.0,0.0,0,3,0,0,1,9,0,0,0
1743177454169379,0,52.5148588,13.325424199999999,-0.006,-0.006,1743177454169379,0,0.25,0.5,0.29999998,0.39999998,0.0,0.0,0,0,0.01,0.0,0.0,0.0,nan,0,nan,nan,0.0,0.0,0,3,0,0,1,9,0,0,0
1743177454221379,0,52.5148588,13.325424199999999,-0.007,-0.007,1743177454221379,0,0.25,0.5,0.29999998,0.39999998,0.0,0.0,0,0,0.01,0.0,0.01,0.01,nan,0,nan,nan,0.0,0.0,0,3,0,0,1,9,0,0,0
1743177454273379,0,52.5148588,13.325424199999999,-0.006,-0.006,1743177454273379,0,0.25,0.5,0.29999998,0.39999998,0.0,0.0,0,0,0.0,0.0,0.0,0.0,nan,0,nan,nan,0.0,0.0,0,3,0,0,1,9,0,0,0
1743177454325379,0,52.5148588,13.325424199999999,-0.006,-0.006,1743177454325379,0,0.25,0.5,0.29999998,0.39999998,0.0,0.0,0,0,0.0,0.0,0.0,0.0,nan,0,nan,nan,0.0,0.0,0,3,0,0,1,9,0,0,0
1743177454377379,0,52.5148588,13.325424199999999,-0.006,-0.006,1743177454377379,0,0.25,0.5,0.29999998,0.39999998,0.0,0.0,0,0,0.0,0.0,0.0,0.0,nan,0,nan,nan,0.0,0.0,0,3,0,0,1,9,0,0,0
1743177454429379,0,52.5148588,13.325424199999999,-0.006,-0.006,1743177454429379,0,0.25,0.5,0.29999998,0.39999998,0.0,0.0,0,0,0.01,0.0,0.0,0.0,nan,0,nan,nan,0.0,0.0,0,3,0,0,1,9,0,0,0
1743177454481379,0,52.5148588,13.325424199999999,-0.006,-0.006,1743177454481379,0,0.25,0.5,0.29999998,0.39999998,0.0,0.0,0,0,0.0,0.0,0.0,0.0,nan,0,nan,nan,0.0,0.0,0,3,0,0,1,9,0,0,0
1743177454533379,0,52.5148588,13.325424199999999,-0.006,-0.006,1743177454533379,0,0.25,0.5,0.29999998,0.39999998,0.0,0.0,0,0,0.0,0.0,0.0,0.0,nan,0,nan,nan,0.0,0.0,0,3,0,0,1,9,0,0,0
1743177454585379,0,52.5148588,13.325424199999999,-0.006,-0.006,1743177454585379,0,0.25,0.5,0.29999998,0.39999998,0.0,0.0,0,0,0.0,0.0,0.0,0.0,nan,0,nan,nan,0.0,0.0,0,3,0,0,1,9,0,0,0
1743177454637379,0,52.5148588,13.325424199999999,-0.006,-0.006,1743177454637379,0,0.25,0.5,0.29999998,0.39999998,0.0,0.0,0,0,0.0,0.0,0.0,0.0,nan,0,nan,nan,0.0,0.0,0,3,0,0,1,9,0,0,0
1743177454689379,0,52.5148588,13.325424199999999,-0.006,-0.006,1743177454689379,0,0.25,0.5,0.29999998,0.39999998,0.0,0.0,0,0,0.0,0.0,0.0,0.0,nan,0,nan,nan,0.0,0.0,0,3,0,0,1,9,0,0,0
1743177454741379,0,52.5148588,13.325424199999999,-0.006,-0.006,1743177454741379,0,0.25,0.5,0.29999998,0.39999998,0.0,0.0,0,0,0.0,0.0,0.0,0.0,nan,0,nan,nan,0.0,0.0,0,3,0,0,1,9,0,0,0
1743177454793379,0,52.5148588,13.325424199999999,-0.006,-0.006,1743177454793379,0,0.25,0.5,0.29999998,0.39999998,0.0,0.0,0,0,0.0,0.0,0.0,0.0,nan,0,nan,nan,0.0,0.0,0,3,0,0,1,9,0,0,0
1743177454845379,0,52.5148588,13.325424199999999,-0.006,-0.006,1743177454845379,0,0.25,0.5,0.29999998,0.39999998,0.0,0.0,0,0,0.01,0.0,0.01,0.0,nan,0,nan,nan,0.0,0.0,0,3,0,0,1,9,0,0,0
1743177454897379,0,52.5148588,13.325424199999999,-0.006,-0.006,1743177454897379,0,0.25,0.5,0.29999998,0.39999998,0.0,0.0,0,0,0.0,0.0,0.0,0.0,nan,0,nan,nan,0.0,0.0,0,3,0,0,1,9,0,0,0
1743177454949379,0,52.5148588,13.325424199999999,-0.006,-0.006,1743177454949379,0,0.25,0.5,0.29999998,0.39999998,0.0,0.0,0,0,0.0,0.0,0.0,0.0,nan,0,nan,nan,0.0,0.0,0,3,0,0,1,9,0,0,0
1743177455001379,0,52.5148588,13.325424199999999,-0.006,-0.006,1743177455001379,0,0.25,0.5,0.29999998,0.39999998,0.0,0.0,0,0,0.0,0.0,0.0,0.0,nan,0,nan,nan,0.0,0.0,0,3,0,0,1,9,0,0,0
1743177455053379,0,52.5148588,13.325424199999999,-0.006,-0.006,1743177455053379,0,0.25,0.5,0.29999998,0.39999998,0.0,0.0,0,0,0.0,0.0,0.0,0.0,nan,0,nan,nan,0.0,0.0,0,3,0,0,1,9,0,0,0
1743177455105379,0,52.5148588,13.325424199999999,-0.006,-0.006,1743177455105379,0,0.25,0.5,0.29999998,0.39999998,0.0,0.0,0,0,0.0,0.0,0.0,0.0,nan,0,nan,nan,0.0,0.0,0,3,0,0,1,9,0,0,0
1743177455157379,0,52.5148588,13.325424199999999,-0.005,-0.005,1743177455157379,0,0.25,0.5,0.29999998,0.39999998,0.0,0.0,0,0,0.01,0.0,-0.01,-0.01,nan,0,nan,nan,0.0,0.0,0,3,0,0,1,9,0,0,0
1743177455209379,0,52.5148588,13.325424199999999,-0.006,-0.006,1743177455209379,0,0.25,0.5,0.29999998,0.39999998,0.0,0.0,0,0,0.01,0.0,-0.01,0.0,nan,0,nan,nan,0.0,0.0,0,3,0,0,1,9,0,0,0
1743177455261379,0,52.5148588,13.325424199999999,-0.006,-0.006,1743177455261379,0,0.25,0.5,0.29999998,0.39999998,0.0,0.0,0,0,0.0,0.0,0.0,0.0,nan,0,nan,nan,0.0,0.0,0,3,0,0,1,9,0,0,0
1743177455313379,0,52.5148588,13.325424199999999,-0.006,-0.006,1743177455313379,0,0.25,0.5,0.29999998,0.39999998,0.0,0.0,0,0,0.0,0.0,0.0,0.0,nan,0,nan,nan,0.0,0.0,0,3,0,0,1,9,0,0,0
1743177455365379,0,52.5148588,13.325424199999999,-0.006,-0.006,1743177455365379,0,0.25,0.5,0.29999998,0.39999998,0.0,0.0,0,0,0.0,0.0,0.0,0.0,nan,0,nan,nan,0.0,0.0,0,3,0,0,1,9,0,0,0
1743177455417379,0,52.5148588,13.325424199999999,-0.006,-0.006,1743177455417379,0,0.25,0.5,0.29999998,0.39999998,0.0,0.0,0,0,0.0,0.0,0.0,0.0,nan,0,nan,nan,0.0,0.0,0,3,0,0,1,9,0,0,0
1743177455469379,0,52.5148588,13.325424199999999,-0.006,-0.006,1743177455469379,0,0.25,0.5,0.29999998,0.39999998,0.0,0.0,0,0,0.0,0.0,0.0,0.0,nan,0,nan,nan,0.0,0.0,0,3,0,0,1,9,0,0,0
1743177455521379,0,52.5148588,13.325424199999999,-0.006,-0.006,1743177455521379,0,0.25,0.5,0.29999998,0.39999998,0.0,0.0,0,0,0.0,0.0,0.0,0.0,nan,0,nan,nan,0.0,0.0,0,3,0,0,1,9,0,0,0
1743177455573379,0,52.5148588,13.325424199999999,-0.006,-0.006,1743177455573379,0,0.25,0.5,0.29999998,0.39999998,0.0,0.0,0,0,0.0,0.0,0.0,0.0,nan,0,nan,nan,0.0,0.0,0,3,0,0,1,9,0,0,0
1743177455625379,0,52.5148588,13.325424199999999,-0.006,-0.006,1743177455625379,0,0.25,0.5,0.29999998,0.39999998,0.0,0.0,0,0,0.0,0.0,0.0,0.0,nan,0,nan,nan,0.0,0.0,0,3,0,0,1,9,0,0,0
1743177455677379,0,52.5148588,13.325424199999999,-0.006,-0.006,1743177455677379,0,0.25,0.5,0.29999998,0.39999998,0.0,0.0,0,0,0.0,0.0,0.0,0.0,nan,0,nan,nan,0.0,0.0,0,3,0,0,1,9,0,0,0
1743177455729379,0,52.5148588,13.325424199999999,-0.007,-0.007,1743177455729379,0,0.25,0.5,0.29999998,0.39999998,0.0,0.0,0,0,0.0,0.0,0.0,0.01,nan,0,nan,nan,0.0,0.0,0,3,0,0,1,9,0,0,0
1743177455781379,0,52.5148588,13.325424199999999,-0.006,-0.006,1743177455781379,0,0.25,0.5,0.29999998,0.39999998,0.0,0.0,0,0,0.0,0.0,0.0,0.0,nan,0,nan,nan,0.0,0.0,0,3,0,0,1,9,0,0,0
1743177455833379,0,52.5148588,13.325424199999999,-0.006,-0.006,1743177455833379,0,0.25,0.5,0.29999998,0.39999998,0.0,0.0,0,0,0.0,0.0,0.0,0.0,nan,0,nan,nan,0.0,0.0,0,3,0,0,1,9,0,0,0
1743177455885379,0,52.5148588,13.325424199999999,-0.006,-0.006,1743177455885379,0,0.25,0.5,0.29999998,0.39999998,0.0,0.0,0,0,0.0,0.0,0.0,0.0,nan,0,nan,nan,0.0,0.0,0,3,0,0,1,9,0,0,0
1743177455937379,0,52.5148588,13.325424199999999,-0.006,-0.006,1743177455937379,0,0.25,0.5,0.29999998,0.39999998,0.0,0.0,0,0,0.01,0.0,0.0,0.0,nan,0,nan,nan,0.0,0.0,0,3,0,0,1,9,0,0,0
1743177455989379,0,52.5148588,13.325424199999999,-0.006,-0.006,1743177455989379,0,0.25,0.5,0.29999998,0.39999998,0.0,0.0,0,0,0.01,0.0,-0.01,0.0,nan,0,nan,nan,0.0,0.0,0,3,0,0,1,9,0,0,0
1743177456041379,0,52.5148588,13.325424199999999,-0.006,-0.006,1743177456041379,0,0.25,0.5,0.29999998,0.39999998,0.0,0.0,0,0,0.01,0.0,0.01,0.0,nan,0,nan,nan,0.0,0.0,0,3,0,0,1,9,0,0,0
1743177456093379,0,52.5148588,13.325424199999999,-0.006,-0.006,1743177456093379,0,0.25,0.5,0.29999998,0.39999998,0.0,0.0,0,0,0.0,0.0,0.0,0.0,nan,0,nan,nan,0.0,0.0,0,3,0,0,1,9,0,0,0
1743177456145379,0,52.5148588,13.325424199999999,-0.006,-0.006,1743177456145379,0,0.25,0.5,0.29999998,0.39999998,0.0,0.0,0,0,0.0,0.0,0.0,0.0,nan,0,nan,nan,0.0,0.0,0,3,0,0,1,9,0,0,0
1743177456197379,0,52.5148588,13.325424199999999,-0.005,-0.005,1743177456197379,0,0.25,0.5,0.29999998,0.39999998,0.0,0.0,0,0,0.0,0.0,0.0,-0.01,nan,0,nan,nan,0.0,0.0,0,3,0,0,1,9,0,0,0
1743177456249379,0,52.5148588,13.325424199999999,-0.005,-0.005,1743177456249379,0,0.25,0.5,0.29999998,0.39999998,0.0,0.0,0,0,0.0,0.0,0.0,0.0,nan,0,nan,nan,0.0,0.0,0,3,0,0,1,9,0,0,0
1743177456301379,0,52.5148588,13.325424199999999,-0.005,-0.005,1743177456301379,0,0.25,0.5,0.29999998,0.39999998,0.0,0.0,0,0,0.0,0.0,0.0,0.0,nan,0,nan,nan,0.0,0.0,0,3,0,0,1,9,0,0,0
1743177456353379,0,52.5148588,13.325424199999999,-0.006,-0.006,1743177456353379,0,0.25,0.5,0.29999998,0.39999998,0.0,0.0,0,0,0.0,0.0,0.0,0.0,nan,0,nan,nan,0.0,0.0,0,3,0,0,1,9,0,0,0
1743177456405379,0,52.5148588,13.325424199999999,-0.005,-0.005,1743177456405379,0,0.25,0.5,0.29999998,0.39999998,0.0,0.0,0,0,0.0,0.0,0.0,0.0,nan,0,nan,nan,0.0,0.0,0,3,0,0,1,9,0,0,0
1743177456457379,0,52.5148588,13.325424199999999,-0.005,-0.005,1743177456457379,0,0.25,0.5,0.29999998,0.39999998,0.0,0.0,0,0,0.0,0.0,0.0,0.0,nan,0,nan,nan,0.0,0.0,0,3,0,0,1,9,0,0,0
1743177456509379,0,52.5148588,13.325424199999999,-0.005,-0.005,1743177456509379,0,0.25,0.5,0.29999998,0.39999998,0.0,0.0,0,0,0.0,0.0,0.0,0.0,nan,0,nan,nan,0.0,0.0,0,3,0,0,1,9,0,0,0
1743177456561379,0,52.5148588,13.325424199999999,-0.005,-0.005,1743177456561379,0,0.25,0.5,0.29999998,0.39999998,0.0,0.0,0,0,0.0,0.0,0.0,0.0,nan,0,nan,nan,0.0,0.0,0,3,0,0,1,9,0,0,0
1743177456613379,0,52.5148588,13.325424199999999,-0.004,-0.004,1743177456613379,0,0.25,0.5,0.29999998,0.39999998,0.0,0.0,0,0,0.01,0.0,0.0,0.0,nan,0,nan,nan,0.0,0.0,0,3,0,0,1,9,0,0,0
1743177456665379,0,52.5148588,13.325424199999999,-0.004,-0.004,1743177456665379,0,0.25,0.5,0.29999998,0.39999998,0.0,0.0,0,0,0.0,0.0,0.0,0.0,nan,0,nan,nan,0.0,0.0,0,3,0,0,1,9,0,0,0
1743177456717379,0,52.5148588,13.325424199999999,-0.004,-0.004,1743177456717379,0,0.25,0.5,0.29999998,0.39999998,0.0,0.0,0,0,0.01,0.0,-0.01,0.0,nan,0,nan,nan,0.0,0.0,0,3,0,0,1,9,0,0,0
1743177456769379,0,52.5148588,13.325424199999999,-0.003,-0.003,1743177456769379,0,0.25,0.5,0.29999998,0.39999998,0.0,0.0,0,0,0.0,0.0,0.0,0.0,nan,0,nan,nan,0.0,0.0,0,3,0,0,1,9,0,0,0
1743177456821379,0,52.5148588,13.325424199999999,-0.003,-0.003,1743177456821379,0,0.25,0.5,0.29999998,0.39999998,0.0,0.0,0,0,0.0,0.0,0.0,0.0,nan,0,nan,nan,0.0,0.0,0,3,0,0,1,9,0,0,0
1743177456873379,0,52.5148588,13.325424199999999,-0.003,-0.003,1743177456873379,0,0.25,0.5,0.29999998,0.39999998,0.0,0.0,0,0,0.0,0.0,0.0,0.0,nan,0,nan,nan,0.0,0.0,0,3,0,0,1,9,0,0,0
1743177456925379,0,52.5148588,13.325424199999999,-0.002,-0.002,1743177456925379,0,0.25,0.5,0.29999998,0.39999998,0.0,0.0,0,0,0.0,0.0,0.0,-0.01,nan,0,nan,nan,0.0,0.0,0,3,0,0,1,9,0,0,0
1743177456977379,0,52.5148588,13.325424199999999,-0.002,-0.002,1743177456977379,0,0.25,0.5,0.29999998,0.39999998,0.0,0.0,0,0,0.0,0.0,0.0,-0.01,nan,0,nan,nan,0.0,0.0,0,3,0,0,1,9,0,0,0
1743177457029379,0,52.5148588,13.325424199999999,-0.002,-0.002,1743177457029379,0,0.25,0.5,0.29999998,0.39999998,0.0,0.0,0,0,0.0,0.0,0.0,0.0,nan,0,nan,nan,0.0,0.0,0,3,0,0,1,9,0,0,0
1743177457081379,0,52.5148588,13.325424199999999,-0.002,-0.002,1743177457081379,0,0.25,0.5,0.29999998,0.39999998,0.0,0.0,0,0,0.0,0.0,0.0,0.0,nan,0,nan,nan,0.0,0.0,0,3,0,0,1,9,0,0,0
1743177457133379,0,52.5148588,13.325424199999999,-0.002,-0.002,1743177457133379,0,0.25,0.5,0.29999998,0.39999998,0.0,0.0,0,0,0.0,0.0,0.0,0.0,nan,0,nan,nan,0.0,0.0,0,3,0,0,1,9,0,0,0
1743177457185379,0,52.5148588,13.325424199999999,-0.002,-0.002,1743177457185379,0,0.25,0.5,0.29999998,0.39999998,0.0,0.0,0,0,0.0,0.0,0.0,0.0,nan,0,nan,nan,0.0,0.0,0,3,0,0,1,9,0,0,0
1743177457237379,0,52.5148588,13.325424199999999,-0.002,-0.002,1743177457237379,0,0.25,0.5,0.29999998,0.39999998,0.0,0.0,0,0,0.0,0.0,0.0,0.0,nan,0,nan,nan,0.0,0.0,0,3,0,0,1,9,0,0,0
1743177457289379,0,52.5148588,13.325424199999999,-0.002,-0.002,1743177457289379,0,0.25,0.5,0.29999998,0.39999998,0.0,0.0,0,0,0.0,0.0,0.0,0.0,nan,0,nan,nan,0.0,0.0,0,3,0,0,1,9,0,0,0
1743177457341379,0,52.5148588,13.325424199999999,-0.002,-0.002,1743177457341379,0,0.25,0.5,0.29999998,0.39999998,0.0,0.0,0,0,0.0,0.0,0.0,0.0,nan,0,nan,nan,0.0,0.0,0,3,0,0,1,9,0,0,0
1743177457393379,0,52.5148588,13.325424199999999,-0.002,-0.002,1743177457393379,0,0.25,0.5,0.29999998,0.39999998,0.0,0.0,0,0,0.0,0.0,0.0,0.0,nan,0,nan,nan,0.0,0.0,0,3,0,0,1,9,0,0,0
1743177457445379,0,52.5148588,13.325424199999999,-0.001,-0.001,1743177457445379,0,0.25,0.5,0.29999998,0.39999998,0.0,0.0,0,0,0.0,0.0,0.0,0.0,nan,0,nan,nan,0.0,0.0,0,3,0,0,1,9,0,0,0
1743177457497379,0,52.5148588,13.325424199999999,-0.001,-0.001,1743177457497379,0,0.25,0.5,0.29999998,0.39999998,0.0,0.0,0,0,0.0,0.0,0.0,0.0,nan,0,nan,nan,0.0,0.0,0,3,0,0,1,9,0,0,0
1743177457549379,0,52.5148588,13.325424199999999,-0.001,-0.001,1743177457549379,0,0.25,0.5,0.29999998,0.39999998,0.0,0.0,0,0,0.0,0.0,0.0,0.0,nan,0,nan,nan,0.0,0.0,0,3,0,0,1,9,0,0,0
1743177457601379,0,52.5148588,13.325424199999999,0.0,0.0,1743177457601379,0,0.25,0.5,0.29999998,0.39999998,0.0,0.0,0,0,0.0,0.0,0.0,0.0,nan,0,nan,nan,0.0,0.0,0,3,0,0,1,9,0,0,0
1743177457653379,0,52.5148588,13.325424199999999,0.0,0.0,1743177457653379,0,0.25,0.5,0.29999998,0.39999998,0.0,0.0,0,0,0.01,0.0,-0.01,0.0,nan,0,nan,nan,0.0,0.0,0,3,0,0,1,9,0,0,0
1743177457705379,0,52.5148588,13.325424199999999,0.0,0.0,1743177457705379,0,0.25,0.5,0.29999998,0.39999998,0.0,0.0,0,0,0.0,0.0,0.0,0.0,nan,0,nan,nan,0.0,0.0,0,3,0,0,1,9,0,0,0
1743177457757379,0,52.5148588,13.325424199999999,0.0,0.0,1743177457757379,0,0.25,0.5,0.29999998,0.39999998,0.0,0.0,0,0,0.01,0.0,0.0,-0.01,nan,0,nan,nan,0.0,0.0,0,3,0,0,1,9,0,0,0
1743177457809379,0,52.5148588,13.325424199999999,0.0,0.0,1743177457809379,0,0.25,0.5,0.29999998,0.39999998,0.0,0.0,0,0,0.0,0.0,0.0,0.0,nan,0,nan,nan,0.0,0.0,0,3,0,0,1,9,0,0,0
1743177457861379,0,52.5148588,13.325424199999999,0.0,0.0,1743177457861379,0,0.25,0.5,0.29999998,0.39999998,0.0,0.0,0,0,0.0,0.0,0.0,0.0,nan,0,nan,nan,0.0,0.0,0,3,0,0,1,9,0,0,0
1743177457913379,0,52.5148588,13.325424199999999,0.0,0.0,1743177457913379,0,0.25,0.5,0.29999998,0.39999998,0.0,0.0,0,0,0.0,0.0,0.0,0.0,nan,0,nan,nan,0.0,0.0,0,3,0,0,1,9,0,0,0
1743177457965379,0,52.5148588,13.325424199999999,0.0,0.0,1743177457965379,0,0.25,0.5,0.29999998,0.39999998,0.0,0.0,0,0,0.07,-0.07,0.03,-0.01,nan,0,nan,nan,0.0,0.0,0,3,0,0,1,9,0,0,0
1743177458017379,0,52.5148587,13.3254243,0.002,0.002,1743177458017379,0,0.25,0.5,0.29999998,0.39999998,0.0,0.0,0,0,0.14999999,-0.14,0.06,-0.03,nan,0,nan,nan,0.0,0.0,0,3,0,0,1,9,0,0,0
1743177458069379,0,52.5148586,13.3254243,0.006,0.006,1743177458069379,0,0.25,0.5,0.29999998,0.39999998,0.0,0.0,0,0,0.19,-0.17999999,0.07,-0.07,nan,0,nan,nan,0.0,0.0,0,3,0,0,1,9,0,0,0
1743177458121379,0,52.514858499999995,13.3254244,0.013000000000000001,0.013000000000000001,1743177458121379,0,0.25,0.5,0.29999998,0.39999998,0.0,0.0,0,0,0.19,-0.17999999,0.07,-0.11,nan,0,nan,nan,0.0,0.0,0,3,0,0,1,9,0,0,0
1743177458173379,0,52.514858499999995,13.3254244,0.022,0.022,1743177458173379,0,0.25,0.5,0.29999998,0.39999998,0.0,0.0,0,0,0.17,-0.16,0.06,-0.14,nan,0,nan,nan,0.0,0.0,0,3,0,0,1,9,0,0,0
1743177458225379,0,52.514858399999994,13.325424499999999,0.033,0.033,1743177458225379,0,0.25,0.5,0.29999998,0.39999998,0.0,0.0,0,0,0.14999999,-0.14,0.06,-0.19,nan,0,nan,nan,0.0,0.0,0,3,0,0,1,9,0,0,0
1743177458277379,0,52.5148583,13.325424499999999,0.046,0.046,1743177458277379,0,0.25,0.5,0.29999998,0.39999998,0.0,0.0,0,0,0.14,-0.12,0.06,-0.22999999,nan,0,nan,nan,0.0,0.0,0,3,0,0,1,9,0,0,0
1743177458329379,0,52.5148583,13.3254246,0.06,0.06,1743177458329379,0,0.25,0.5,0.29999998,0.39999998,0.0,0.0,0,0,0.11,-0.099999994,0.04,-0.25,nan,0,nan,nan,0.0,0.0,0,3,0,0,1,9,0,0,0
1743177458381379,0,52.5148582,13.3254246,0.077,0.077,1743177458381379,0,0.25,0.5,0.29999998,0.39999998,0.0,0.0,0,0,0.11,-0.089999996,0.049999997,-0.29999998,nan,0,nan,nan,0.0,0.0,0,3,0,0,1,9,0,0,0
1743177458433379,0,52.5148582,13.3254246,0.096,0.096,1743177458433379,0,0.25,0.5,0.29999998,0.39999998,0.0,0.0,0,0,0.08,-0.07,0.04,-0.34,nan,0,nan,nan,0.0,0.0,0,3,0,0,1,9,0,0,0
1743177458485379,0,52.5148582,13.3254247,0.116,0.116,1743177458485379,0,0.25,0.5,0.29999998,0.39999998,0.0,0.0,0,0,0.08,-0.07,0.03,-0.38,nan,0,nan,nan,0.0,0.0,0,3,0,0,1,9,0,0,0
1743177458537379,0,52.5148582,13.3254247,0.139,0.139,1743177458537379,0,0.25,0.5,0.29999998,0.39999998,0.0,0.0,0,0,0.06,-0.049999997,0.03,-0.41,nan,0,nan,nan,0.0,0.0,0,3,0,0,1,9,0,0,0
1743177458589379,0,52.5148581,13.3254247,0.162,0.162,1743177458589379,0,0.25,0.5,0.29999998,0.39999998,0.0,0.0,0,0,0.049999997,-0.04,0.02,-0.42999998,nan,0,nan,nan,0.0,0.0,0,3,0,0,1,9,0,0,0
1743177458641379,0,52.5148581,13.3254247,0.189,0.189,1743177458641379,0,0.25,0.5,0.29999998,0.39999998,0.0,0.0,0,0,0.03,-0.02,0.02,-0.48999998,nan,0,nan,nan,0.0,0.0,0,3,0,0,1,9,0,0,0
1743177458693379,0,52.5148581,13.3254247,0.221,0.221,1743177458693379,0,0.25,0.5,0.29999998,0.39999998,0.0,0.0,0,0,0.03,-0.02,0.02,-0.57,nan,0,nan,nan,0.0,0.0,0,3,0,0,1,9,0,0,0
1743177458745379,0,52.5148581,13.3254247,0.258,0.258,1743177458745379,0,0.25,0.5,0.29999998,0.39999998,0.0,0.0,0,0,0.02,-0.02,0.01,-0.66999996,nan,0,nan,nan,0.0,0.0,0,3,0,0,1,9,0,0,0
1743177458797379,0,52.5148581,13.3254247,0.302,0.302,1743177458797379,0,0.25,0.5,0.29999998,0.39999998,0.0,0.0,0,0,0.01,-0.01,0.01,-0.78999996,nan,0,nan,nan,0.0,0.0,0,3,0,0,1,9,0,0,0
1743177458849379,0,52.5148581,13.3254247,0.352,0.352,1743177458849379,0,0.25,0.5,0.29999998,0.39999998,0.0,0.0,0,0,0.01,0.0,0.01,-0.90999997,nan,0,nan,nan,0.0,0.0,0,3,0,0,1,9,0,0,0
1743177458901379,0,52.5148581,13.3254247,0.40900000000000003,0.40900000000000003,1743177458901379,0,0.25,0.5,0.29999998,0.39999998,0.0,0.0,0,0,0.0,0.0,0.0,-1.03,nan,0,nan,nan,0.0,0.0,0,3,0,0,1,9,0,0,0
1743177458953379,0,52.5148581,13.3254247,0.47300000000000003,0.47300000000000003,1743177458953379,0,0.25,0.5,0.29999998,0.39999998,0.0,0.0,0,0,0.01,0.01,0.0,-1.17,nan,0,nan,nan,0.0,0.0,0,3,0,0,1,9,0,0,0
1743177459005379,0,52.5148581,13.3254247,0.543,0.543,1743177459005379,0,0.25,0.5,0.29999998,0.39999998,0.0,0.0,0,0,0.01,0.01,0.0,-1.29,nan,0,nan,nan,0.0,0.0,0,3,0,0,1,9,0,0,0
1743177459057379,0,52.5148581,13.3254247,0.621,0.621,1743177459057379,0,0.25,0.5,0.29999998,0.39999998,0.0,0.0,0,0,0.02,0.02,0.0,-1.4399999,nan,0,nan,nan,0.0,0.0,0,3,0,0,1,9,0,0,0
1743177459109379,0,52.5148582,13.3254247,0.706,0.706,1743177459109379,0,0.25,0.5,0.29999998,0.39999998,0.0,0.0,0,0,0.01,0.01,0.0,-1.5699999,nan,0,nan,nan,0.0,0.0,0,3,0,0,1,9,0,0,0
1743177459161379,0,52.5148582,13.3254247,0.8,0.8,1743177459161379,0,0.25,0.5,0.29999998,0.39999998,0.0,0.0,0,0,0.03,0.03,0.0,-1.73,nan,0,nan,nan,0.0,0.0,0,3,0,0,1,9,0,0,0
1743177459213379,0,52.5148582,13.3254247,0.903,0.903,1743177459213379,0,0.25,0.5,0.29999998,0.39999998,0.0,0.0,0,0,0.03,0.03,-0.01,-1.9,nan,0,nan,nan,0.0,0.0,0,3,0,0,1,9,0,0,0
1743177459265379,0,52.5148582,13.3254247,1.014,1.014,1743177459265379,0,0.25,0.5,0.29999998,0.39999998,0.0,0.0,0,0,0.04,0.04,0.0,-2.06,nan,0,nan,nan,0.0,0.0,0,3,0,0,1,9,0,0,0
1743177459317379,0,52.5148582,13.3254247,1.133,1.133,1743177459317379,0,0.25,0.5,0.29999998,0.39999998,0.0,0.0,0,0,0.04,0.04,-0.01,-2.21,nan,0,nan,nan,0.0,0.0,0,3,0,0,1,9,0,0,0
1743177459369379,0,52.5148582,13.3254247,1.258,1.258,1743177459369379,0,0.25,0.5,0.29999998,0.39999998,0.0,0.0,0,0,0.04,0.03,-0.01,-2.34,nan,0,nan,nan,0.0,0.0,0,3,0,0,1,9,0,0,0
1743177459421379,0,52.5148583,13.3254247,1.387,1.387,1743177459421379,0,0.25,0.5,0.29999998,0.39999998,0.0,0.0,0,0,0.03,0.03,0.0,-2.44,nan,0,nan,nan,0.0,0.0,0,3,0,0,1,9,0,0,0
1743177459473379,0,52.5148583,13.3254247,1.5190000000000001,1.5190000000000001,1743177459473379,0,0.25,0.5,0.29999998,0.39999998,0.0,0.0,0,0,0.02,0.02,0.0,-2.51,nan,0,nan,nan,0.0,0.0,0,3,0,0,1,9,0,0,0
1743177459525379,0,52.5148583,13.3254247,1.655,1.655,1743177459525379,0,0.25,0.5,0.29999998,0.39999998,0.0,0.0,0,0,0.04,0.04,-0.01,-2.57,nan,0,nan,nan,0.0,0.0,0,3,0,0,1,9,0,0,0
1743177459577379,0,52.5148583,13.3254247,1.7910000000000001,1.7910000000000001,1743177459577379,0,0.25,0.5,0.29999998,0.39999998,0.0,0.0,0,0,0.04,0.04,0.0,-2.61,nan,0,nan,nan,0.0,0.0,0,3,0,0,1,9,0,0,0
1743177459629379,0,52.5148583,13.3254247,1.929,1.929,1743177459629379,0,0.25,0.5,0.29999998,0.39999998,0.0,0.0,0,0,0.03,0.03,0.0,-2.62,nan,0,nan,nan,0.0,0.0,0,3,0,0,1,9,0,0,0
1743177459681379,0,52.5148583,13.3254247,2.069,2.069,1743177459681379,0,0.25,0.5,0.29999998,0.39999998,0.0,0.0,0,0,0.03,0.03,-0.01,-2.6599998,nan,0,nan,nan,0.0,0.0,0,3,0,0,1,9,0,0,0
1743177459733379,0,52.514858399999994,13.3254247,2.208,2.208,1743177459733379,0,0.25,0.5,0.29999998,0.39999998,0.0,0.0,0,0,0.03,0.03,-0.01,-2.6699998,nan,0,nan,nan,0.0,0.0,0,3,0,0,1,9,0,0,0
1743177459785379,0,52.514858399999994,13.3254247,2.349,2.349,1743177459785379,0,0.25,0.5,0.29999998,0.39999998,0.0,0.0,0,0,0.03,0.03,0.0,-2.69,nan,0,nan,nan,0.0,0.0,0,3,0,0,1,9,0,0,0
1743177459837379,0,52.514858399999994,13.3254247,2.489,2.489,1743177459837379,0,0.25,0.5,0.29999998,0.39999998,0.0,0.0,0,0,0.03,0.03,0.0,-2.7,nan,0,nan,nan,0.0,0.0,0,3,0,0,1,9,0,0,0
1743177459889379,0,52.514858399999994,13.3254247,2.63,2.63,1743177459889379,0,0.25,0.5,0.29999998,0.39999998,0.0,0.0,0,0,0.03,0.03,0.0,-2.69,nan,0,nan,nan,0.0,0.0,0,3,0,0,1,9,0,0,0
1743177459941379,0,52.514858399999994,13.3254247,2.77,2.77,1743177459941379,0,0.25,0.5,0.29999998,0.39999998,0.0,0.0,0,0,0.03,0.03,0.0,-2.69,nan,0,nan,nan,0.0,0.0,0,3,0,0,1,9,0,0,0
1743177459993379,0,52.514858399999994,13.3254246,2.908,2.908,1743177459993379,0,0.25,0.5,0.29999998,0.39999998,0.0,0.0,0,0,0.03,0.03,-0.01,-2.6699998,nan,0,nan,nan,0.0,0.0,0,3,0,0,1,9,0,0,0
1743177460045379,0,52.514858399999994,13.3254246,3.0460000000000003,3.0460000000000003,1743177460045379,0,0.25,0.5,0.29999998,0.39999998,0.0,0.0,0,0,0.02,0.02,0.0,-2.6499999,nan,0,nan,nan,0.0,0.0,0,3,0,0,1,9,0,0,0
1743177460097379,0,52.514858399999994,13.3254246,3.1830000000000003,3.1830000000000003,1743177460097379,0,0.25,0.5,0.29999998,0.39999998,0.0,0.0,0,0,0.02,0.01,-0.01,-2.6399999,nan,0,nan,nan,0.0,0.0,0,3,0,0,1,9,0,0,0
1743177460149379,0,52.514858499999995,13.3254246,3.3200000000000003,3.3200000000000003,1743177460149379,0,0.25,0.5,0.29999998,0.39999998,0.0,0.0,0,0,0.02,0.01,-0.01,-2.6299999,nan,0,nan,nan,0.0,0.0,0,3,0,0,1,9,0,0,0
1743177460201379,0,52.514858499999995,13.3254246,3.458,3.458,1743177460201379,0,0.25,0.5,0.29999998,0.39999998,0.0,0.0,0,0,0.02,0.02,0.0,-2.6499999,nan,0,nan,nan,0.0,0.0,0,3,0,0,1,9,0,0,0
1743177460253379,0,52.514858499999995,13.3254246,3.597,3.597,1743177460253379,0,0.25,0.5,0.29999998,0.39999998,0.0,0.0,0,0,0.01,0.01,0.0,-2.6599998,nan,0,nan,nan,0.0,0.0,0,3,0,0,1,9,0,0,0
1743177460305379,0,52.514858499999995,13.3254246,3.736,3.736,1743177460305379,0,0.25,0.5,0.29999998,0.39999998,0.0,0.0,0,0,0.02,0.02,0.0,-2.6599998,nan,0,nan,nan,0.0,0.0,0,3,0,0,1,9,0,0,0
1743177460357379,0,52.514858499999995,13.3254246,3.8770000000000002,3.8770000000000002,1743177460357379,0,0.25,0.5,0.29999998,0.39999998,0.0,0.0,0,0,0.01,0.01,0.0,-2.6799998,nan,0,nan,nan,0.0,0.0,0,3,0,0,1,9,0,0,0
1743177460409379,0,52.514858499999995,13.3254246,4.018,4.018,1743177460409379,0,0.25,0.5,0.29999998,0.39999998,0.0,0.0,0,0,0.01,0.01,-0.01,-2.69,nan,0,nan,nan,0.0,0.0,0,3,0,0,1,9,0,0,0
1743177460461379,0,52.514858499999995,13.3254246,4.159,4.159,1743177460461379,0,0.25,0.5,0.29999998,0.39999998,0.0,0.0,0,0,0.01,0.01,-0.01,-2.71,nan,0,nan,nan,0.0,0.0,0,3,0,0,1,9,0,0,0
1743177460513379,0,52.514858499999995,13.3254246,4.301,4.301,1743177460513379,0,0.25,0.5,0.29999998,0.39999998,0.0,0.0,0,0,0.0,0.0,0.0,-2.71,nan,0,nan,nan,0.0,0.0,0,3,0,0,1,9,0,0,0
1743177460565379,0,52.514858499999995,13.3254246,4.4430000000000005,4.4430000000000005,1743177460565379,0,0.25,0.5,0.29999998,0.39999998,0.0,0.0,0,0,0.0,0.0,0.0,-2.72,nan,0,nan,nan,0.0,0.0,0,3,0,0,1,9,0,0,0
1743177460617379,0,52.514858499999995,13.3254246,4.586,4.586,1743177460617379,0,0.25,0.5,0.29999998,0.39999998,0.0,0.0,0,0,0.01,-0.01,0.0,-2.74,nan,0,nan,nan,0.0,0.0,0,3,0,0,1,9,0,0,0
1743177460669379,0,52.514858499999995,13.3254246,4.728,4.728,1743177460669379,0,0.25,0.5,0.29999998,0.39999998,0.0,0.0,0,0,0.02,-0.02,0.01,-2.74,nan,0,nan,nan,0.0,0.0,0,3,0,0,1,9,0,0,0
1743177460721379,0,52.514858499999995,13.3254246,4.871,4.871,1743177460721379,0,0.25,0.5,0.29999998,0.39999998,0.0,0.0,0,0,0.01,-0.01,0.01,-2.74,nan,0,nan,nan,0.0,0.0,0,3,0,0,1,9,0,0,0
1743177460773379,0,52.514858399999994,13.3254246,5.014,5.014,1743177460773379,0,0.25,0.5,0.29999998,0.39999998,0.0,0.0,0,0,0.03,-0.03,0.02,-2.74,nan,0,nan,nan,0.0,0.0,0,3,0,0,1,9,0,0,0
1743177460825379,0,52.514858399999994,13.3254247,5.158,5.158,1743177460825379,0,0.25,0.5,0.29999998,0.39999998,0.0,0.0,0,0,0.06,-0.049999997,0.03,-2.75,nan,0,nan,nan,0.0,0.0,0,3,0,0,1,9,0,0,0
1743177460877379,0,52.514858399999994,13.3254247,5.3020000000000005,5.3020000000000005,1743177460877379,0,0.25,0.5,0.29999998,0.39999998,0.0,0.0,0,0,0.07,-0.049999997,0.04,-2.76,nan,0,nan,nan,0.0,0.0,0,3,0,0,1,9,0,0,0
1743177460929379,0,52.5148583,13.3254247,5.446,5.446,1743177460929379,0,0.25,0.5,0.29999998,0.39999998,0.0,0.0,0,0,0.08,-0.07,0.04,-2.76,nan,0,nan,nan,0.0,0.0,0,3,0,0,1,9,0,0,0
1743177460981379,0,52.5148583,13.325424799999999,5.59,5.59,1743177460981379,0,0.25,0.5,0.29999998,0.39999998,0.0,0.0,0,0,0.099999994,-0.07,0.06,-2.77,nan,0,nan,nan,0.0,0.0,0,3,0,0,1,9,0,0,0
1743177461033379,0,52.5148583,13.325424799999999,5.735,5.735,1743177461033379,0,0.25,0.5,0.29999998,0.39999998,0.0,0.0,0,0,0.12,-0.099999994,0.07,-2.78,nan,0,nan,nan,0.0,0.0,0,3,0,0,1,9,0,0,0
1743177461085379,0,52.5148582,13.3254249,5.8790000000000004,5.8790000000000004,1743177461085379,0,0.25,0.5,0.29999998,0.39999998,0.0,0.0,0,0,0.14999999,-0.12,0.08,-2.78,nan,0,nan,nan,0.0,0.0,0,3,0,0,1,9,0,0,0
1743177461137379,0,52.5148581,13.325425,6.024,6.024,1743177461137379,0,0.25,0.5,0.29999998,0.39999998,0.0,0.0,0,0,0.16,-0.13,0.099999994,-2.78,nan,0,nan,nan,0.0,0.0,0,3,0,0,1,9,0,0,0
1743177461189379,0,52.5148581,13.325425099999999,6.17,6.17,1743177461189379,0,0.25,0.5,0.29999998,0.39999998,0.0,0.0,0,0,0.17999999,-0.13,0.11,-2.79,nan,0,nan,nan,0.0,0.0,0,3,0,0,1,9,0,0,0
1743177461241379,0,52.514858,13.3254252,6.314,6.314,1743177461241379,0,0.25,0.5,0.29999998,0.39999998,0.0,0.0,0,0,0.19999999,-0.14999999,0.13,-2.78,nan,0,nan,nan,0.0,0.0,0,3,0,0,1,9,0,0,0
1743177461293379,0,52.514857899999996,13.3254253,6.461,6.461,1743177461293379,0,0.25,0.5,0.29999998,0.39999998,0.0,0.0,0,0,0.22999999,-0.17,0.14999999,-2.8,nan,0,nan,nan,0.0,0.0,0,3,0,0,1,9,0,0,0
1743177461345379,0,52.514857799999994,13.3254255,6.606,6.606,1743177461345379,0,0.25,0.5,0.29999998,0.39999998,0.0,0.0,0,0,0.25,-0.19,0.16,-2.79,nan,0,nan,nan,0.0,0.0,0,3,0,0,1,9,0,0,0
1743177461397379,0,52.5148577,13.325425599999999,6.753,6.753,1743177461397379,0,0.25,0.5,0.29999998,0.39999998,0.0,0.0,0,0,0.26999998,-0.19999999,0.17,-2.8,nan,0,nan,nan,0.0,0.0,0,3,0,0,1,9,0,0,0
1743177461449379,0,52.5148576,13.3254258,6.899,6.899,1743177461449379,0,0.25,0.5,0.29999998,0.39999998,0.0,0.0,0,0,0.29,-0.22,0.19,-2.81,nan,0,nan,nan,0.0,0.0,0,3,0,0,1,9,0,0,0
1743177461501379,0,52.5148575,13.325425899999999,7.046,7.046,1743177461501379,0,0.25,0.5,0.29999998,0.39999998,0.0,0.0,0,0,0.29999998,-0.24,0.19,-2.82,nan,0,nan,nan,0.0,0.0,0,3,0,0,1,9,0,0,0
1743177461553379,0,52.5148574,13.3254261,7.192,7.192,1743177461553379,0,0.25,0.5,0.29999998,0.39999998,0.0,0.0,0,0,0.32,-0.24,0.19999999,-2.81,nan,0,nan,nan,0.0,0.0,0,3,0,0,1,9,0,0,0
1743177461605379,0,52.514857199999994,13.325426199999999,7.339,7.339,1743177461605379,0,0.25,0.5,0.29999998,0.39999998,0.0,0.0,0,0,0.32,-0.25,0.21,-2.81,nan,0,nan,nan,0.0,0.0,0,3,0,0,1,9,0,0,0
1743177461657379,0,52.5148571,13.3254264,7.486,7.486,1743177461657379,0,0.25,0.5,0.29999998,0.39999998,0.0,0.0,0,0,0.35,-0.26,0.22999999,-2.82,nan,0,nan,nan,0.0,0.0,0,3,0,0,1,9,0,0,0
1743177461709379,0,52.514857,13.3254266,7.632000000000001,7.632000000000001,1743177461709379,0,0.25,0.5,0.29999998,0.39999998,0.0,0.0,0,0,0.34,-0.26,0.22,-2.81,nan,0,nan,nan,0.0,0.0,0,3,0,0,1,9,0,0,0
1743177461761379,0,52.5148569,13.325426799999999,7.78,7.78,1743177461761379,0,0.25,0.5,0.29999998,0.39999998,0.0,0.0,0,0,0.35999998,-0.26,0.24,-2.83,nan,0,nan,nan,0.0,0.0,0,3,0,0,1,9,0,0,0
1743177461813379,0,52.514856699999996,13.325427,7.9270000000000005,7.9270000000000005,1743177461813379,0,0.25,0.5,0.29999998,0.39999998,0.0,0.0,0,0,0.35999998,-0.26,0.24,-2.83,nan,0,nan,nan,0.0,0.0,0,3,0,0,1,9,0,0,0
1743177461865379,0,52.514856599999995,13.3254272,8.075,8.075,1743177461865379,0,0.25,0.5,0.29999998,0.39999998,0.0,0.0,0,0,0.37,-0.28,0.24,-2.84,nan,0,nan,nan,0.0,0.0,0,3,0,0,1,9,0,0,0
1743177461917379,0,52.5148565,13.325427399999999,8.223,8.223,1743177461917379,0,0.25,0.5,0.29999998,0.39999998,0.0,0.0,0,0,0.35999998,-0.26999998,0.24,-2.84,nan,0,nan,nan,0.0,0.0,0,3,0,0,1,9,0,0,0
1743177461969379,0,52.5148564,13.3254275,8.371,8.371,1743177461969379,0,0.25,0.5,0.29999998,0.39999998,0.0,0.0,0,0,0.35,-0.26,0.22,-2.84,nan,0,nan,nan,0.0,0.0,0,3,0,0,1,9,0,0,0
1743177462021379,0,52.5148562,13.325427699999999,8.519,8.519,1743177462021379,0,0.25,0.5,0.29999998,0.39999998,0.0,0.0,0,0,0.34,-0.26,0.22,-2.85,nan,0,nan,nan,0.0,0.0,0,3,0,0,1,9,0,0,0
1743177462073379,0,52.514856099999996,13.3254279,8.668000000000001,8.668000000000001,1743177462073379,0,0.25,0.5,0.29999998,0.39999998,0.0,0.0,0,0,0.35,-0.26999998,0.22,-2.85,nan,0,nan,nan,0.0,0.0,0,3,0,0,1,9,0,0,0
1743177462125379,0,52.514855999999995,13.325427999999999,8.816,8.816,1743177462125379,0,0.25,0.5,0.29999998,0.39999998,0.0,0.0,0,0,0.34,-0.25,0.22,-2.85,nan,0,nan,nan,0.0,0.0,0,3,0,0,1,9,0,0,0
1743177462177379,0,52.5148559,13.3254282,8.965,8.965,1743177462177379,0,0.25,0.5,0.29999998,0.39999998,0.0,0.0,0,0,0.32,-0.25,0.21,-2.86,nan,0,nan,nan,0.0,0.0,0,3,0,0,1,9,0,0,0
1743177462229379,0,52.5148558,13.3254284,9.113,9.113,1743177462229379,0,0.25,0.5,0.29999998,0.39999998,0.0,0.0,0,0,0.29999998,-0.24,0.19,-2.85,nan,0,nan,nan,0.0,0.0,0,3,0,0,1,9,0,0,0
1743177462281379,0,52.5148557,13.3254285,9.262,9.262,1743177462281379,0,0.25,0.5,0.29999998,0.39999998,0.0,0.0,0,0,0.29,-0.22,0.17999999,-2.86,nan,0,nan,nan,0.0,0.0,0,3,0,0,1,9,0,0,0
1743177462333379,0,52.5148556,13.325428599999999,9.411,9.411,1743177462333379,0,0.25,0.5,0.29999998,0.39999998,0.0,0.0,0,0,0.28,-0.21,0.19,-2.86,nan,0,nan,nan,0.0,0.0,0,3,0,0,1,9,0,0,0
1743177462385379,0,52.514855499999996,13.3254288,9.56,9.56,1743177462385379,0,0.25,0.5,0.29999998,0.39999998,0.0,0.0,0,0,0.26999998,-0.21,0.17,-2.85,nan,0,nan,nan,0.0,0.0,0,3,0,0,1,9,0,0,0
1743177462437379,0,52.514855399999995,13.325428899999999,9.71,9.71,1743177462437379,0,0.25,0.5,0.29999998,0.39999998,0.0,0.0,0,0,0.26,-0.21,0.16,-2.86,nan,0,nan,nan,0.0,0.0,0,3,0,0,1,9,0,0,0
1743177462489379,0,52.5148553,13.325429,9.86,9.86,1743177462489379,0,0.25,0.5,0.29999998,0.39999998,0.0,0.0,0,0,0.25,-0.19999999,0.14,-2.87,nan,0,nan,nan,0.0,0.0,0,3,0,0,1,9,0,0,0
1743177462541379,0,52.5148552,13.3254291,10.009,10.009,1743177462541379,0,0.25,0.5,0.29999998,0.39999998,0.0,0.0,0,0,0.22,-0.17999999,0.13,-2.87,nan,0,nan,nan,0.0,0.0,0,3,0,0,1,9,0,0,0
1743177462593379,0,52.5148551,13.325429199999999,10.159,10.159,1743177462593379,0,0.25,0.5,0.29999998,0.39999998,0.0,0.0,0,0,0.19999999,-0.16,0.12,-2.8799999,nan,0,nan,nan,0.0,0.0,0,3,0,0,1,9,0,0,0
1743177462645379,0,52.5148551,13.3254293,10.308,10.308,1743177462645379,0,0.25,0.5,0.29999998,0.39999998,0.0,0.0,0,0,0.19,-0.14999999,0.11,-2.87,nan,0,nan,nan,0.0,0.0,0,3,0,0,1,9,0,0,0
1743177462697379,0,52.514855,13.3254293,10.458,10.458,1743177462697379,0,0.25,0.5,0.29999998,0.39999998,0.0,0.0,0,0,0.17999999,-0.14999999,0.099999994,-2.8799999,nan,0,nan,nan,0.0,0.0,0,3,0,0,1,9,0,0,0
1743177462749379,0,52.514854899999996,13.325429399999999,10.609,10.609,1743177462749379,0,0.25,0.5,0.29999998,0.39999998,0.0,0.0,0,0,0.17,-0.14,0.08,-2.8799999,nan,0,nan,nan,0.0,0.0,0,3,0,0,1,9,0,0,0
1743177462801379,0,52.514854899999996,13.3254295,10.759,10.759,1743177462801379,0,0.25,0.5,0.29999998,0.39999998,0.0,0.0,0,0,0.14,-0.12,0.08,-2.8799999,nan,0,nan,nan,0.0,0.0,0,3,0,0,1,9,0,0,0
1743177462853379,0,52.514854799999995,13.3254295,10.909,10.909,1743177462853379,0,0.25,0.5,0.29999998,0.39999998,0.0,0.0,0,0,0.14,-0.12,0.07,-2.8799999,nan,0,nan,nan,0.0,0.0,0,3,0,0,1,9,0,0,0
1743177462905379,0,52.514854799999995,13.3254296,11.06,11.06,1743177462905379,0,0.25,0.5,0.29999998,0.39999998,0.0,0.0,0,0,0.12,-0.11,0.049999997,-2.8899999,nan,0,nan,nan,0.0,0.0,0,3,0,0,1,9,0,0,0
1743177462957379,0,52.5148547,13.3254296,11.211,11.211,1743177462957379,0,0.25,0.5,0.29999998,0.39999998,0.0,0.0,0,0,0.099999994,-0.089999996,0.049999997,-2.8899999,nan,0,nan,nan,0.0,0.0,0,3,0,0,1,9,0,0,0
1743177463009379,0,52.5148547,13.3254296,11.361,11.361,1743177463009379,0,0.25,0.5,0.29999998,0.39999998,0.0,0.0,0,0,0.08,-0.07,0.03,-2.8899999,nan,0,nan,nan,0.0,0.0,0,3,0,0,1,9,0,0,0
1743177463061379,0,52.5148547,13.3254296,11.513,11.513,1743177463061379,0,0.25,0.5,0.29999998,0.39999998,0.0,0.0,0,0,0.08,-0.07,0.03,-2.8999999,nan,0,nan,nan,0.0,0.0,0,3,0,0,1,9,0,0,0
1743177463113379,0,52.5148546,13.325429699999999,11.663,11.663,1743177463113379,0,0.25,0.5,0.29999998,0.39999998,0.0,0.0,0,0,0.06,-0.049999997,0.02,-2.8999999,nan,0,nan,nan,0.0,0.0,0,3,0,0,1,9,0,0,0
1743177463165379,0,52.5148546,13.325429699999999,11.814,11.814,1743177463165379,0,0.25,0.5,0.29999998,0.39999998,0.0,0.0,0,0,0.06,-0.049999997,0.01,-2.8899999,nan,0,nan,nan,0.0,0.0,0,3,0,0,1,9,0,0,0
1743177463217379,0,52.5148546,13.325429699999999,11.966000000000001,11.966000000000001,1743177463217379,0,0.25,0.5,0.29999998,0.39999998,0.0,0.0,0,0,0.04,-0.04,0.01,-2.8999999,nan,0,nan,nan,0.0,0.0,0,3,0,0,1,9,0,0,0
1743177463269379,0,52.5148546,13.325429699999999,12.117,12.117,1743177463269379,0,0.25,0.5,0.29999998,0.39999998,0.0,0.0,0,0,0.03,-0.03,0.0,-2.9099998,nan,0,nan,nan,0.0,0.0,0,3,0,0,1,9,0,0,0
1743177463321379,0,52.5148546,13.325429699999999,12.269,12.269,1743177463321379,0,0.25,0.5,0.29999998,0.39999998,0.0,0.0,0,0,0.03,-0.03,0.0,-2.9099998,nan,0,nan,nan,0.0,0.0,0,3,0,0,1,9,0,0,0
1743177463373379,0,52.5148545,13.325429699999999,12.42,12.42,1743177463373379,0,0.25,0.5,0.29999998,0.39999998,0.0,0.0,0,0,0.02,-0.01,-0.01,-2.9099998,nan,0,nan,nan,0.0,0.0,0,3,0,0,1,9,0,0,0
1743177463425379,0,52.5148545,13.325429699999999,12.571,12.571,1743177463425379,0,0.25,0.5,0.29999998,0.39999998,0.0,0.0,0,0,0.01,-0.01,-0.01,-2.9099998,nan,0,nan,nan,0.0,0.0,0,3,0,0,1,9,0,0,0
1743177463477379,0,52.5148545,13.3254296,12.723,12.723,1743177463477379,0,0.25,0.5,0.29999998,0.39999998,0.0,0.0,0,0,0.02,0.0,-0.02,-2.9099998,nan,0,nan,nan,0.0,0.0,0,3,0,0,1,9,0,0,0
1743177463529379,0,52.5148546,13.3254296,12.875,12.875,1743177463529379,0,0.25,0.5,0.29999998,0.39999998,0.0,0.0,0,0,0.02,0.0,-0.02,-2.9099998,nan,0,nan,nan,0.0,0.0,0,3,0,0,1,9,0,0,0
1743177463581379,0,52.5148546,13.3254296,13.026,13.026,1743177463581379,0,0.25,0.5,0.29999998,0.39999998,0.0,0.0,0,0,0.03,0.02,-0.02,-2.9099998,nan,0,nan,nan,0.0,0.0,0,3,0,0,1,9,0,0,0
1743177463633379,0,52.5148546,13.3254296,13.179,13.179,1743177463633379,0,0.25,0.5,0.29999998,0.39999998,0.0,0.0,0,0,0.03,0.01,-0.03,-2.9199998,nan,0,nan,nan,0.0,0.0,0,3,0,0,1,9,0,0,0
1743177463685379,0,52.5148546,13.3254296,13.33,13.33,1743177463685379,0,0.25,0.5,0.29999998,0.39999998,0.0,0.0,0,0,0.03,0.01,-0.03,-2.9099998,nan,0,nan,nan,0.0,0.0,0,3,0,0,1,9,0,0,0
1743177463737379,0,52.5148546,13.3254295,13.483,13.483,1743177463737379,0,0.25,0.5,0.29999998,0.39999998,0.0,0.0,0,0,0.049999997,0.03,-0.03,-2.9199998,nan,0,nan,nan,0.0,0.0,0,3,0,0,1,9,0,0,0
1743177463789379,0,52.5148546,13.3254295,13.635,13.635,1743177463789379,0,0.25,0.5,0.29999998,0.39999998,0.0,0.0,0,0,0.049999997,0.03,-0.03,-2.9199998,nan,0,nan,nan,0.0,0.0,0,3,0,0,1,9,0,0,0
1743177463841379,0,52.5148546,13.3254295,13.787,13.787,1743177463841379,0,0.25,0.5,0.29999998,0.39999998,0.0,0.0,0,0,0.049999997,0.04,-0.03,-2.9199998,nan,0,nan,nan,0.0,0.0,0,3,0,0,1,9,0,0,0
1743177463893379,0,52.5148547,13.325429399999999,13.939,13.939,1743177463893379,0,0.25,0.5,0.29999998,0.39999998,0.0,0.0,0,0,0.049999997,0.04,-0.03,-2.9199998,nan,0,nan,nan,0.0,0.0,0,3,0,0,1,9,0,0,0
1743177463945379,0,52.5148547,13.325429399999999,14.091000000000001,14.091000000000001,1743177463945379,0,0.25,0.5,0.29999998,0.39999998,0.0,0.0,0,0,0.049999997,0.04,-0.03,-2.9299998,nan,0,nan,nan,0.0,0.0,0,3,0,0,1,9,0,0,0
1743177463997379,0,52.5148547,13.325429399999999,14.244,14.244,1743177463997379,0,0.25,0.5,0.29999998,0.39999998,0.0,0.0,0,0,0.06,0.049999997,-0.03,-2.9299998,nan,0,nan,nan,0.0,0.0,0,3,0,0,1,9,0,0,0
1743177464049379,0,52.5148547,13.325429399999999,14.397,14.397,1743177464049379,0,0.25,0.5,0.29999998,0.39999998,0.0,0.0,0,0,0.07,0.06,-0.03,-2.9299998,nan,0,nan,nan,0.0,0.0,0,3,0,0,1,9,0,0,0
1743177464101379,0,52.514854799999995,13.3254293,14.549,14.549,1743177464101379,0,0.25,0.5,0.29999998,0.39999998,0.0,0.0,0,0,0.07,0.06,-0.03,-2.9299998,nan,0,nan,nan,0.0,0.0,0,3,0,0,1,9,0,0,0
1743177464153379,0,52.514854799999995,13.3254293,14.701,14.701,1743177464153379,0,0.25,0.5,0.29999998,0.39999998,0.0,0.0,0,0,0.07,0.06,-0.04,-2.9299998,nan,0,nan,nan,0.0,0.0,0,3,0,0,1,9,0,0,0
1743177464205379,0,52.514854799999995,13.3254293,14.854000000000001,14.854000000000001,1743177464205379,0,0.25,0.5,0.29999998,0.39999998,0.0,0.0,0,0,0.07,0.06,-0.03,-2.9199998,nan,0,nan,nan,0.0,0.0,0,3,0,0,1,9,0,0,0
1743177464257379,0,52.514854899999996,13.325429199999999,15.007,15.007,1743177464257379,0,0.25,0.5,0.29999998,0.39999998,0.0,0.0,0,0,0.08,0.07,-0.03,-2.9399998,nan,0,nan,nan,0.0,0.0,0,3,0,0,1,9,0,0,0
1743177464309379,0,52.514854899999996,13.325429199999999,15.159,15.159,1743177464309379,0,0.25,0.5,0.29999998,0.39999998,0.0,0.0,0,0,0.08,0.07,-0.04,-2.9299998,nan,0,nan,nan,0.0,0.0,0,3,0,0,1,9,0,0,0
1743177464361379,0,52.514854899999996,13.325429199999999,15.313,15.313,1743177464361379,0,0.25,0.5,0.29999998,0.39999998,0.0,0.0,0,0,0.08,0.07,-0.04,-2.9399998,nan,0,nan,nan,0.0,0.0,0,3,0,0,1,9,0,0,0
1743177464413379,0,52.514855,13.3254291,15.466000000000001,15.466000000000001,1743177464413379,0,0.25,0.5,0.29999998,0.39999998,0.0,0.0,0,0,0.08,0.07,-0.03,-2.9399998,nan,0,nan,nan,0.0,0.0,0,3,0,0,1,9,0,0,0
1743177464465379,0,52.514855,13.3254291,15.619,15.619,1743177464465379,0,0.25,0.5,0.29999998,0.39999998,0.0,0.0,0,0,0.08,0.07,-0.04,-2.9399998,nan,0,nan,nan,0.0,0.0,0,3,0,0,1,9,0,0,0
1743177464517379,0,52.514855,13.3254291,15.772,15.772,1743177464517379,0,0.25,0.5,0.29999998,0.39999998,0.0,0.0,0,0,0.08,0.07,-0.04,-2.95,nan,0,nan,nan,0.0,0.0,0,3,0,0,1,9,0,0,0
1743177464569379,0,52.5148551,13.325429,15.925,15.925,1743177464569379,0,0.25,0.5,0.29999998,0.39999998,0.0,0.0,0,0,0.08,0.06,-0.049999997,-2.9399998,nan,0,nan,nan,0.0,0.0,0,3,0,0,1,9,0,0,0
1743177464621379,0,52.5148551,13.325429,16.079,16.079,1743177464621379,0,0.25,0.5,0.29999998,0.39999998,0.0,0.0,0,0,0.089999996,0.07,-0.04,-2.9399998,nan,0,nan,nan,0.0,0.0,0,3,0,0,1,9,0,0,0
1743177464673379,0,52.5148551,13.325428899999999,16.232,16.232,1743177464673379,0,0.25,0.5,0.29999998,0.39999998,0.0,0.0,0,0,0.089999996,0.08,-0.049999997,-2.9399998,nan,0,nan,nan,0.0,0.0,0,3,0,0,1,9,0,0,0
1743177464725379,0,52.5148552,13.325428899999999,16.386,16.386,1743177464725379,0,0.25,0.5,0.29999998,0.39999998,0.0,0.0,0,0,0.08,0.06,-0.049999997,-2.95,nan,0,nan,nan,0.0,0.0,0,3,0,0,1,9,0,0,0
1743177464777379,0,52.5148552,13.325428899999999,16.539,16.539,1743177464777379,0,0.25,0.5,0.29999998,0.39999998,0.0,0.0,0,0,0.089999996,0.08,-0.04,-2.9399998,nan,0,nan,nan,0.0,0.0,0,3,0,0,1,9,0,0,0
1743177464829379,0,52.5148552,13.3254288,16.693,16.693,1743177464829379,0,0.25,0.5,0.29999998,0.39999998,0.0,0.0,0,0,0.08,0.07,-0.04,-2.95,nan,0,nan,nan,0.0,0.0,0,3,0,0,1,9,0,0,0
1743177464881379,0,52.5148553,13.3254288,16.847,16.847,1743177464881379,0,0.25,0.5,0.29999998,0.39999998,0.0,0.0,0,0,0.08,0.06,-0.04,-2.95,nan,0,nan,nan,0.0,0.0,0,3,0,0,1,9,0,0,0
1743177464933379,0,52.5148553,13.3254288,17.0,17.0,1743177464933379,0,0.25,0.5,0.29999998,0.39999998,0.0,0.0,0,0,0.08,0.07,-0.04,-2.95,nan,0,nan,nan,0.0,0.0,0,3,0,0,1,9,0,0,0
1743177464985379,0,52.514855399999995,13.3254287,17.154,17.154,1743177464985379,0,0.25,0.5,0.29999998,0.39999998,0.0,0.0,0,0,0.089999996,0.07,-0.049999997,-2.96,nan,0,nan,nan,0.0,0.0,0,3,0,0,1,9,0,0,0
1743177465037379,0,52.514855399999995,13.3254287,17.308,17.308,1743177465037379,0,0.25,0.5,0.29999998,0.39999998,0.0,0.0,0,0,0.089999996,0.07,-0.06,-2.96,nan,0,nan,nan,0.0,0.0,0,3,0,0,1,9,0,0,0
1743177465089379,0,52.514855399999995,13.325428599999999,17.461000000000002,17.461000000000002,1743177465089379,0,0.25,0.5,0.29999998,0.39999998,0.0,0.0,0,0,0.089999996,0.08,-0.04,-2.95,nan,0,nan,nan,0.0,0.0,0,3,0,0,1,9,0,0,0
1743177465141379,0,52.514855499999996,13.325428599999999,17.613,17.613,1743177465141379,0,0.25,0.5,0.29999998,0.39999998,0.0,0.0,0,0,0.089999996,0.08,-0.04,-2.9299998,nan,0,nan,nan,0.0,0.0,0,3,0,0,1,9,0,0,0
1743177465193379,0,52.514855499999996,13.325428599999999,17.763,17.763,1743177465193379,0,0.25,0.5,0.29999998,0.39999998,0.0,0.0,0,0,0.07,0.06,-0.04,-2.8899999,nan,0,nan,nan,0.0,0.0,0,3,0,0,1,9,0,0,0
1743177465245379,0,52.514855499999996,13.3254285,17.911,17.911,1743177465245379,0,0.25,0.5,0.29999998,0.39999998,0.0,0.0,0,0,0.07,0.06,-0.04,-2.85,nan,0,nan,nan,0.0,0.0,0,3,0,0,1,9,0,0,0
1743177465297379,0,52.5148556,13.3254285,18.057,18.057,1743177465297379,0,0.25,0.5,0.29999998,0.39999998,0.0,0.0,0,0,0.07,0.06,-0.03,-2.82,nan,0,nan,nan,0.0,0.0,0,3,0,0,1,9,0,0,0
1743177465349379,0,52.5148556,13.3254285,18.2,18.2,1743177465349379,0,0.25,0.5,0.29999998,0.39999998,0.0,0.0,0,0,0.07,0.06,-0.03,-2.77,nan,0,nan,nan,0.0,0.0,0,3,0,0,1,9,0,0,0
1743177465401379,0,52.5148556,13.3254285,18.344,18.344,1743177465401379,0,0.25,0.5,0.29999998,0.39999998,0.0,0.0,0,0,0.07,0.06,-0.02,-2.75,nan,0,nan,nan,0.0,0.0,0,3,0,0,1,9,0,0,0
1743177465453379,0,52.5148556,13.3254284,18.486,18.486,1743177465453379,0,0.25,0.5,0.29999998,0.39999998,0.0,0.0,0,0,0.06,0.049999997,-0.03,-2.74,nan,0,nan,nan,0.0,0.0,0,3,0,0,1,9,0,0,0
1743177465505379,0,52.5148557,13.3254284,18.628,18.628,1743177465505379,0,0.25,0.5,0.29999998,0.39999998,0.0,0.0,0,0,0.07,0.07,-0.03,-2.74,nan,0,nan,nan,0.0,0.0,0,3,0,0,1,9,0,0,0
1743177465557379,0,52.5148557,13.3254284,18.77,18.77,1743177465557379,0,0.25,0.5,0.29999998,0.39999998,0.0,0.0,0,0,0.07,0.06,-0.03,-2.72,nan,0,nan,nan,0.0,0.0,0,3,0,0,1,9,0,0,0
1743177465609379,0,52.5148557,13.325428299999999,18.912,18.912,1743177465609379,0,0.25,0.5,0.29999998,0.39999998,0.0,0.0,0,0,0.07,0.06,-0.03,-2.73,nan,0,nan,nan,0.0,0.0,0,3,0,0,1,9,0,0,0
1743177465661379,0,52.5148558,13.325428299999999,19.056,19.056,1743177465661379,0,0.25,0.5,0.29999998,0.39999998,0.0,0.0,0,0,0.06,0.049999997,-0.03,-2.75,nan,0,nan,nan,0.0,0.0,0,3,0,0,1,9,0,0,0
1743177465713379,0,52.5148558,13.325428299999999,19.198,19.198,1743177465713379,0,0.25,0.5,0.29999998,0.39999998,0.0,0.0,0,0,0.07,0.06,-0.03,-2.73,nan,0,nan,nan,0.0,0.0,0,3,0,0,1,9,0,0,0
1743177465765379,0,52.5148558,13.325428299999999,19.339,19.339,1743177465765379,0,0.25,0.5,0.29999998,0.39999998,0.0,0.0,0,0,0.07,0.07,-0.02,-2.71,nan,0,nan,nan,0.0,0.0,0,3,0,0,1,9,0,0,0
1743177465817379,0,52.5148559,13.3254282,19.478,19.478,1743177465817379,0,0.25,0.5,0.29999998,0.39999998,0.0,0.0,0,0,0.07,0.06,-0.03,-2.6799998,nan,0,nan,nan,0.0,0.0,0,3,0,0,1,9,0,0,0
1743177465869379,0,52.5148559,13.3254282,19.614,19.614,1743177465869379,0,0.25,0.5,0.29999998,0.39999998,0.0,0.0,0,0,0.07,0.06,-0.03,-2.6399999,nan,0,nan,nan,0.0,0.0,0,3,0,0,1,9,0,0,0
1743177465921379,0,52.5148559,13.3254282,19.748,19.748,1743177465921379,0,0.25,0.5,0.29999998,0.39999998,0.0,0.0,0,0,0.049999997,0.04,-0.03,-2.59,nan,0,nan,nan,0.0,0.0,0,3,0,0,1,9,0,0,0
1743177465973379,0,52.5148559,13.3254282,19.877,19.877,1743177465973379,0,0.25,0.5,0.29999998,0.39999998,0.0,0.0,0,0,0.049999997,0.049999997,-0.01,-2.52,nan,0,nan,nan,0.0,0.0,0,3,0,0,1,9,0,0,0
1743177466025379,0,52.514855999999995,13.3254282,20.004,20.004,1743177466025379,0,0.25,0.5,0.29999998,0.39999998,0.0,0.0,0,0,0.04,0.04,0.0,-2.47,nan,0,nan,nan,0.0,0.0,0,3,0,0,1,9,0,0,0
1743177466077379,0,52.514855999999995,13.3254282,20.127,20.127,1743177466077379,0,0.25,0.5,0.29999998,0.39999998,0.0,0.0,0,0,0.04,0.04,-0.01,-2.3899999,nan,0,nan,nan,0.0,0.0,0,3,0,0,1,9,0,0,0
1743177466129379,0,52.514855999999995,13.3254282,20.248,20.248,1743177466129379,0,0.25,0.5,0.29999998,0.39999998,0.0,0.0,0,0,0.04,0.04,0.0,-2.33,nan,0,nan,nan,0.0,0.0,0,3,0,0,1,9,0,0,0
1743177466181379,0,52.514855999999995,13.3254282,20.366,20.366,1743177466181379,0,0.25,0.5,0.29999998,0.39999998,0.0,0.0,0,0,0.02,0.02,0.0,-2.29,nan,0,nan,nan,0.0,0.0,0,3,0,0,1,9,0,0,0
1743177466233379,0,52.514855999999995,13.3254281,20.48,20.48,1743177466233379,0,0.25,0.5,0.29999998,0.39999998,0.0,0.0,0,0,0.03,0.03,-0.01,-2.21,nan,0,nan,nan,0.0,0.0,0,3,0,0,1,9,0,0,0
1743177466285379,0,52.514855999999995,13.3254282,20.591,20.591,1743177466285379,0,0.25,0.5,0.29999998,0.39999998,0.0,0.0,0,0,0.02,0.02,0.0,-2.1599998,nan,0,nan,nan,0.0,0.0,0,3,0,0,1,9,0,0,0
1743177466337379,0,52.514855999999995,13.3254282,20.701,20.701,1743177466337379,0,0.25,0.5,0.29999998,0.39999998,0.0,0.0,0,0,0.03,0.03,0.0,-2.11,nan,0,nan,nan,0.0,0.0,0,3,0,0,1,9,0,0,0
1743177466389379,0,52.514856099999996,13.3254282,20.806,20.806,1743177466389379,0,0.25,0.5,0.29999998,0.39999998,0.0,0.0,0,0,0.02,0.02,0.0,-2.06,nan,0,nan,nan,0.0,0.0,0,3,0,0,1,9,0,0,0
