timestamp,timestamp_sample,baro_device_id,baro_alt_meter,baro_pressure_pa,ambient_temperature,rho,temperature_source,calibration_count
1743177449805379,1743177449781379,6620172,-0.037560094,101325.42,15.0,1.224804,0,0
1743177449857379,1743177449833379,6620172,-0.32865083,101328.93,15.0,1.2248464,0,0
1743177449909379,1743177449885379,6620172,0.93430734,101313.78,15.0,1.2246633,0,0
1743177449961379,1743177449937379,6620172,-0.0798152,101325.93,15.0,1.2248101,0,0
1743177450013379,1743177449989379,6620172,0.14085035,101323.28,15.0,1.224778,0,0
1743177450065379,1743177450041379,6620172,-0.48828122,101330.83,15.0,1.2248694,0,0
1743177450117379,1743177450093379,6620172,0.18310545,101322.805,15.0,1.2247723,0,0
1743177450169379,1743177450145379,6620172,0.06573016,101324.2,15.0,1.2247893,0,0
1743177450221379,1743177450197379,6620172,-0.24883562,101327.984,15.0,1.2248349,0,0
1743177450273379,1743177450249379,6620172,0.30048075,101321.375,15.0,1.2247552,0,0
1743177450325379,1743177450301379,6620172,-0.07512019,101325.87,15.0,1.2248094,0,0
1743177450377379,1743177450353379,6620172,-0.028170072,101325.3,15.0,1.2248026,0,0
1743177450429379,1743177450405379,6620172,0.15024038,101323.21,15.0,1.2247772,0,0
1743177450481379,1743177450457379,6620172,0.26292065,101321.87,15.0,1.224761,0,0
1743177450533379,1743177450509379,6620172,-0.028170072,101325.336,15.0,1.224803,0,0
1743177450585379,1743177450561379,6620172,0.14085035,101323.3,15.0,1.2247783,0,0
1743177450637379,1743177450613379,6620172,-0.014085036,101325.17,15.0,1.224801,0,0
1743177450689379,1743177450665379,6620172,-0.2817007,101328.37,15.0,1.2248396,0,0
1743177450741379,1743177450717379,6620172,-0.06573016,101325.79,15.0,1.2248085,0,0
1743177450793379,1743177450769379,6620172,-0.23475058,101327.805,15.0,1.2248329,0,0
1743177450845379,1743177450821379,6620172,-0.44602612,101330.36,15.0,1.2248636,0,0
1743177450897379,1743177450873379,6620172,0.19249548,101322.68,15.0,1.2247709,0,0
1743177450949379,1743177450925379,6620172,0.112680286,101323.68,15.0,1.224783,0,0
1743177451001379,1743177450977379,6620172,0.25822565,101321.93,15.0,1.2247617,0,0
1743177451053379,1743177451029379,6620172,0.023475058,101324.71,15.0,1.2247955,0,0
1743177451105379,1743177451081379,6620172,-0.69955677,101333.375,15.0,1.2249002,0,0
1743177451157379,1743177451133379,6620172,0.07512019,101324.125,15.0,1.2247883,0,0
1743177451209379,1743177451185379,6620172,0.056340143,101324.33,15.0,1.2247908,0,0
1743177451261379,1743177451237379,6620172,0.046950117,101324.47,15.0,1.2247925,0,0
1743177451313379,1743177451289379,6620172,-0.5211463,101331.305,15.0,1.2248751,0,0
1743177451365379,1743177451341379,6620172,0.10798527,101323.734,15.0,1.2247837,0,0
1743177451417379,1743177451393379,6620172,-0.389686,101329.71,15.0,1.2248558,0,0
1743177451469379,1743177451445379,6620172,0.004695012,101324.93,15.0,1.2247981,0,0
1743177451521379,1743177451497379,6620172,-0.21597055,101327.59,15.0,1.2248303,0,0
1743177451573379,1743177451549379,6620172,0.33334583,101320.95,15.0,1.22475,0,0
1743177451625379,1743177451601379,6620172,0.11737529,101323.59,15.0,1.2247819,0,0
1743177451677379,1743177451653379,6620172,0.112680286,101323.67,15.0,1.2247828,0,0
1743177451729379,1743177451705379,6620172,-0.22536057,101327.72,15.0,1.2248318,0,0
1743177451781379,1743177451757379,6620172,0.13615534,101323.375,15.0,1.2247792,0,0
1743177451833379,1743177451809379,6620172,0.03286508,101324.586,15.0,1.2247939,0,0
1743177451885379,1743177451861379,6620172,-0.16432542,101326.96,15.0,1.2248225,0,0
1743177451937379,1743177451913379,6620172,-0.2817007,101328.336,15.0,1.2248392,0,0
1743177451989379,1743177451965379,6620172,0.18310545,101322.805,15.0,1.2247723,0,0
1743177452041379,1743177452017379,6620172,-0.18310545,101327.25,15.0,1.2248261,0,0
1743177452093379,1743177452069379,6620172,0.1971905,101322.61,15.0,1.2247701,0,0
1743177452145379,1743177452121379,6620172,0.009390024,101324.914,15.0,1.2247978,0,0
1743177452197379,1743177452173379,6620172,-0.24883562,101327.96,15.0,1.2248348,0,0
1743177452249379,1743177452225379,6620172,0.57748646,101318.09,15.0,1.2247154,0,0
1743177452301379,1743177452277379,6620172,0.399076,101320.2,15.0,1.2247409,0,0
1743177452353379,1743177452329379,6620172,-0.45072114,101330.38,15.0,1.224864,0,0
1743177452405379,1743177452381379,6620172,-0.112680286,101326.33,15.0,1.2248149,0,0
1743177452457379,1743177452433379,6620172,0.056340143,101324.32,15.0,1.2247907,0,0
1743177452509379,1743177452485379,6620172,0.44133112,101319.695,15.0,1.2247348,0,0
1743177452561379,1743177452537379,6620172,0.13146032,101323.42,15.0,1.2247798,0,0
1743177452613379,1743177452589379,6620172,0.3615159,101320.695,15.0,1.2247468,0,0
1743177452665379,1743177452641379,6620172,0.18310545,101322.82,15.0,1.2247726,0,0
1743177452717379,1743177452693379,6620172,-0.17371544,101327.07,15.0,1.224824,0,0
1743177452769379,1743177452745379,6620172,-0.15493539,101326.82,15.0,1.2248209,0,0
1743177452821379,1743177452797379,6620172,-0.5164513,101331.195,15.0,1.2248738,0,0
1743177452873379,1743177452849379,6620172,-0.34273586,101329.14,15.0,1.224849,0,0
1743177452925379,1743177452901379,6620172,-0.29578575,101328.54,15.0,1.2248417,0,0
1743177452977379,1743177452953379,6620172,0.4741962,101319.33,15.0,1.2247304,0,0
1743177453029379,1743177453005379,6620172,0.14085035,101323.28,15.0,1.224778,0,0
1743177453081379,1743177453057379,6620172,0.35682088,101320.72,15.0,1.2247472,0,0
1743177453133379,1743177453109379,6620172,-0.4366361,101330.29,15.0,1.2248628,0,0
1743177453185379,1743177453161379,6620172,-0.32865083,101328.95,15.0,1.2248467,0,0
1743177453237379,1743177453213379,6620172,0.1596304,101323.086,15.0,1.2247758,0,0
1743177453289379,1743177453265379,6620172,0.399076,101320.195,15.0,1.2247409,0,0
1743177453341379,1743177453317379,6620172,0.13146032,101323.42,15.0,1.2247798,0,0
1743177453393379,1743177453369379,6620172,0.10329026,101323.75,15.0,1.2247838,0,0
1743177453445379,1743177453421379,6620172,0.33334583,101320.99,15.0,1.2247504,0,0
1743177453497379,1743177453473379,6620172,0.49297625,101319.086,15.0,1.2247275,0,0
1743177453549379,1743177453525379,6620172,0.1971905,101322.61,15.0,1.2247701,0,0
1743177453601379,1743177453577379,6620172,-0.1971905,101327.375,15.0,1.2248276,0,0
1743177453653379,1743177453629379,6620172,-0.30048075,101328.625,15.0,1.2248427,0,0
1743177453705379,1743177453681379,6620172,0.014085036,101324.84,15.0,1.224797,0,0
1743177453757379,1743177453733379,6620172,-0.18310545,101327.22,15.0,1.2248257,0,0
1743177453809379,1743177453785379,6620172,-0.028170072,101325.33,15.0,1.2248029,0,0
1743177453861379,1743177453837379,6620172,-0.14085035,101326.71,15.0,1.2248197,0,0
1743177453913379,1743177453889379,6620172,0.6385216,101317.32,15.0,1.224706,0,0
1743177453965379,1743177453941379,6620172,0.21597055,101322.43,15.0,1.2247678,0,0
1743177454017379,1743177453993379,6620172,0.16432542,101323.0,15.0,1.2247747,0,0
1743177454069379,1743177454045379,6620172,-0.16902043,101327.055,15.0,1.2248237,0,0
1743177454121379,1743177454097379,6620172,0.3662109,101320.59,15.0,1.2247456,0,0
1743177454173379,1743177454149379,6620172,0.3662109,101320.625,15.0,1.224746,0,0
1743177454225379,1743177454201379,6620172,0.23005557,101322.25,15.0,1.2247657,0,0
1743177454277379,1743177454253379,6620172,-0.05164513,101325.63,15.0,1.2248065,0,0
1743177454329379,1743177454305379,6620172,0.2817007,101321.63,15.0,1.2247581,0,0
1743177454381379,1743177454357379,6620172,-0.62913156,101332.54,15.0,1.22489,0,0
1743177454433379,1743177454409379,6620172,-0.18310545,101327.24,15.0,1.2248261,0,0
1743177454485379,1743177454461379,6620172,0.65730166,101317.14,15.0,1.2247039,0,0
1743177454537379,1743177454513379,6620172,0.38499096,101320.37,15.0,1.2247429,0,0
1743177454589379,1743177454565379,6620172,0.3615159,101320.664,15.0,1.2247466,0,0
1743177454641379,1743177454617379,6620172,0.16902043,101322.984,15.0,1.2247746,0,0
1743177454693379,1743177454669379,6620172,-0.22536057,101327.74,15.0,1.224832,0,0
1743177454745379,1743177454721379,6620172,0.41785604,101319.96,15.0,1.224738,0,0
1743177454797379,1743177454773379,6620172,-0.24414061,101327.91,15.0,1.224834,0,0
1743177454849379,1743177454825379,6620172,0.3239558,101321.086,15.0,1.2247516,0,0
1743177454901379,1743177454877379,6620172,0.35212588,101320.74,15.0,1.2247475,0,0
1743177454953379,1743177454929379,6620172,0.014085036,101324.84,15.0,1.224797,0,0
1743177455005379,1743177454981379,6620172,0.22536057,101322.266,15.0,1.2247659,0,0
1743177455057379,1743177455033379,6620172,0.004695012,101324.96,15.0,1.2247984,0,0
1743177455109379,1743177455085379,6620172,0.061035153,101324.266,15.0,1.2247901,0,0
1743177455161379,1743177455137379,6620172,-0.084510215,101326.01,15.0,1.2248111,0,0
1743177455213379,1743177455189379,6620172,-0.23475058,101327.8,15.0,1.2248328,0,0
1743177455265379,1743177455241379,6620172,0.056340143,101324.3,15.0,1.2247903,0,0
1743177455317379,1743177455293379,6620172,-0.34273586,101329.16,15.0,1.2248491,0,0
1743177455369379,1743177455345379,6620172,-0.112680286,101326.34,15.0,1.2248151,0,0
1743177455421379,1743177455397379,6620172,-0.67138666,101333.05,15.0,1.2248962,0,0
1743177455473379,1743177455449379,6620172,-0.30987078,101328.74,15.0,1.2248442,0,0
1743177455525379,1743177455501379,6620172,-0.004695012,101325.08,15.0,1.2247999,0,0
1743177455577379,1743177455553379,6620172,0.394381,101320.26,15.0,1.2247416,0,0
1743177455629379,1743177455605379,6620172,0.014085036,101324.83,15.0,1.2247969,0,0
1743177455681379,1743177455657379,6620172,-0.037560094,101325.46,15.0,1.2248045,0,0
1743177455733379,1743177455709379,6620172,0.023475058,101324.7,15.0,1.2247953,0,0
1743177455785379,1743177455761379,6620172,0.30048075,101321.41,15.0,1.2247554,0,0
1743177455837379,1743177455813379,6620172,-0.13146032,101326.57,15.0,1.2248179,0,0
1743177455889379,1743177455865379,6620172,0.399076,101320.2,15.0,1.2247409,0,0
1743177455941379,1743177455917379,6620172,-0.30517575,101328.68,15.0,1.2248434,0,0
1743177455993379,1743177455969379,6620172,0.23005557,101322.234,15.0,1.2247655,0,0
1743177456045379,1743177456021379,6620172,-0.15024038,101326.8,15.0,1.2248206,0,0
1743177456097379,1743177456073379,6620172,0.056340143,101324.29,15.0,1.2247903,0,0
1743177456149379,1743177456125379,6620172,-0.13615534,101326.625,15.0,1.2248186,0,0
1743177456201379,1743177456177379,6620172,-0.44602612,101330.37,15.0,1.2248638,0,0
1743177456253379,1743177456229379,6620172,-0.2018855,101327.42,15.0,1.2248282,0,0
1743177456305379,1743177456281379,6620172,0.28639573,101321.586,15.0,1.2247577,0,0
1743177456357379,1743177456333379,6620172,0.09859525,101323.836,15.0,1.2247849,0,0
1743177456409379,1743177456385379,6620172,0.26761568,101321.79,15.0,1.22476,0,0
1743177456461379,1743177456437379,6620172,-0.14085035,101326.72,15.0,1.2248197,0,0
1743177456513379,1743177456489379,6620172,0.24883562,101321.984,15.0,1.2247624,0,0
1743177456565379,1743177456541379,6620172,0.023475058,101324.74,15.0,1.2247958,0,0
1743177456617379,1743177456593379,6620172,0.028170072,101324.66,15.0,1.2247947,0,0
1743177456669379,1743177456645379,6620172,0.3192608,101321.16,15.0,1.2247524,0,0
1743177456721379,1743177456697379,6620172,0.1596304,101323.08,15.0,1.2247757,0,0
1743177456773379,1743177456749379,6620172,0.112680286,101323.625,15.0,1.2247823,0,0
1743177456825379,1743177456801379,6620172,-0.41316104,101329.96,15.0,1.2248589,0,0
1743177456877379,1743177456853379,6620172,0.061035153,101324.26,15.0,1.22479,0,0
1743177456929379,1743177456905379,6620172,-0.67138666,101333.055,15.0,1.2248963,0,0
1743177456981379,1743177456957379,6620172,0.2018855,101322.55,15.0,1.2247694,0,0
1743177457033379,1743177457009379,6620172,-0.25822565,101328.086,15.0,1.2248362,0,0
1743177457085379,1743177457061379,6620172,0.32865083,101321.08,15.0,1.2247515,0,0
1743177457137379,1743177457113379,6620172,-0.03286508,101325.41,15.0,1.2248038,0,0
1743177457189379,1743177457165379,6620172,-0.1971905,101327.37,15.0,1.2248275,0,0
1743177457241379,1743177457217379,6620172,0.26761568,101321.78,15.0,1.2247599,0,0
1743177457293379,1743177457269379,6620172,-0.53992635,101331.5,15.0,1.2248776,0,0
1743177457345379,1743177457321379,6620172,0.403771,101320.18,15.0,1.2247406,0,0
1743177457397379,1743177457373379,6620172,0.13615534,101323.37,15.0,1.2247791,0,0
1743177457449379,1743177457425379,6620172,0.07512019,101324.08,15.0,1.2247877,0,0
1743177457501379,1743177457477379,6620172,0.49297625,101319.11,15.0,1.2247276,0,0
1743177457553379,1743177457529379,6620172,0.408466,101320.09,15.0,1.2247397,0,0
1743177457605379,1743177457581379,6620172,-0.13615534,101326.68,15.0,1.2248192,0,0
1743177457657379,1743177457633379,6620172,0.26761568,101321.75,15.0,1.2247597,0,0
1743177457709379,1743177457685379,6620172,0.45072114,101319.58,15.0,1.2247334,0,0
1743177457761379,1743177457737379,6620172,0.5680964,101318.18,15.0,1.2247164,0,0
1743177457813379,1743177457789379,6620172,-0.12676531,101326.5,15.0,1.224817,0,0
1743177457865379,1743177457841379,6620172,0.53523135,101318.59,15.0,1.2247214,0,0
1743177457917379,1743177457893379,6620172,-0.26761568,101328.21,15.0,1.2248377,0,0
1743177457969379,1743177457945379,6620172,-0.056340143,101325.67,15.0,1.224807,0,0
1743177458021379,1743177457997379,6620172,0.66669166,101316.984,15.0,1.224702,0,0
1743177458073379,1743177458049379,6620172,0.10329026,101323.76,15.0,1.2247839,0,0
1743177458125379,1743177458101379,6620172,0.33334583,101321.016,15.0,1.2247508,0,0
1743177458177379,1743177458153379,6620172,0.046950117,101324.445,15.0,1.2247921,0,0
1743177458229379,1743177458205379,6620172,0.15024038,101323.18,15.0,1.224777,0,0
1743177458281379,1743177458257379,6620172,-0.15493539,101326.84,15.0,1.2248212,0,0
1743177458333379,1743177458309379,6620172,0.014085036,101324.805,15.0,1.2247965,0,0
1743177458385379,1743177458361379,6620172,0.5634014,101318.22,15.0,1.224717,0,0
1743177458437379,1743177458413379,6620172,-0.30517575,101328.71,15.0,1.2248437,0,0
1743177458489379,1743177458465379,6620172,0.056340143,101324.32,15.0,1.2247907,0,0
1743177458541379,1743177458517379,6620172,-0.28639573,101328.445,15.0,1.2248405,0,0
1743177458593379,1743177458569379,6620172,0.06573016,101324.234,15.0,1.2247896,0,0
1743177458645379,1743177458621379,6620172,0.24883562,101322.03,15.0,1.224763,0,0
1743177458697379,1743177458673379,6620172,0.30048075,101321.41,15.0,1.2247554,0,0
1743177458749379,1743177458725379,6620172,0.2018855,101322.586,15.0,1.2247697,0,0
1743177458801379,1743177458777379,6620172,0.24414061,101322.04,15.0,1.2247632,0,0
1743177458853379,1743177458829379,6620172,0.3239558,101321.09,15.0,1.2247517,0,0
1743177458905379,1743177458881379,6620172,0.7277268,101316.234,15.0,1.224693,0,0
1743177458957379,1743177458933379,6620172,0.46011114,101319.43,15.0,1.2247316,0,0
1743177459009379,1743177458985379,6620172,0.50236624,101318.96,15.0,1.2247258,0,0
1743177459061379,1743177459037379,6620172,0.403771,101320.16,15.0,1.2247404,0,0
1743177459113379,1743177459089379,6620172,0.74650687,101316.04,15.0,1.2246906,0,0
1743177459165379,1743177459141379,6620172,1.1643629,101311.0,15.0,1.2246298,0,0
1743177459217379,1743177459193379,6620172,1.0845478,101311.97,15.0,1.2246413,0,0
1743177459269379,1743177459245379,6620172,1.4883187,101307.14,15.0,1.224583,0,0
1743177459321379,1743177459297379,6620172,1.1174128,101311.586,15.0,1.2246368,0,0
1743177459373379,1743177459349379,6620172,1.6948992,101304.62,15.0,1.2245525,0,0
1743177459425379,1743177459401379,6620172,1.596304,101305.79,15.0,1.2245667,0,0
1743177459477379,1743177459453379,6620172,1.0610727,101312.24,15.0,1.2246448,0,0
1743177459529379,1743177459505379,6620172,1.3146033,101309.18,15.0,1.2246077,0,0
1743177459581379,1743177459557379,6620172,1.4460636,101307.63,15.0,1.224589,0,0
1743177459633379,1743177459609379,6620172,1.8263596,101303.055,15.0,1.2245337,0,0
1743177459685379,1743177459661379,6620172,1.9765999,101301.266,15.0,1.2245121,0,0
1743177459737379,1743177459713379,6620172,2.4742713,101295.266,15.0,1.2244395,0,0
1743177459789379,1743177459765379,6620172,2.1972656,101298.59,15.0,1.2244798,0,0
1743177459841379,1743177459817379,6620172,2.5071363,101294.914,15.0,1.2244352,0,0
1743177459893379,1743177459869379,6620172,2.385066,101296.37,15.0,1.2244529,0,0
1743177459945379,1743177459921379,6620172,2.9343824,101289.75,15.0,1.2243727,0,0
1743177459997379,1743177459973379,6620172,2.7418869,101292.07,15.0,1.2244009,0,0
1743177460049379,1743177460025379,6620172,3.0329776,101288.61,15.0,1.224359,0,0
1743177460101379,1743177460077379,6620172,2.6245115,101293.47,15.0,1.2244178,0,0
1743177460153379,1743177460129379,6620172,3.6057692,101281.7,15.0,1.2242756,0,0
1743177460205379,1743177460181379,6620172,3.568209,101282.17,15.0,1.2242812,0,0
1743177460257379,1743177460233379,6620172,3.4367485,101283.71,15.0,1.2242998,0,0
1743177460309379,1743177460285379,6620172,3.99076,101277.09,15.0,1.2242198,0,0
1743177460361379,1743177460337379,6620172,3.648024,101281.164,15.0,1.224269,0,0
1743177460413379,1743177460389379,6620172,3.591684,101281.88,15.0,1.2242777,0,0
1743177460465379,1743177460441379,6620172,4.1738653,101274.88,15.0,1.2241932,0,0
1743177460517379,1743177460493379,6620172,3.94381,101277.62,15.0,1.2242262,0,0
1743177460569379,1743177460545379,6620172,4.403921,101272.13,15.0,1.22416,0,0
1743177460621379,1743177460597379,6620172,3.7700944,101279.766,15.0,1.2242521,0,0
1743177460673379,1743177460649379,6620172,4.784217,101267.555,15.0,1.2241045,0,0
1743177460725379,1743177460701379,6620172,5.497859,101259.016,15.0,1.2240014,0,0
1743177460777379,1743177460753379,6620172,5.042443,101264.47,15.0,1.2240672,0,0
1743177460829379,1743177460805379,6620172,4.8264723,101267.055,15.0,1.2240984,0,0
1743177460881379,1743177460857379,6620172,5.3523135,101260.76,15.0,1.2240223,0,0
1743177460933379,1743177460909379,6620172,5.7936444,101255.41,15.0,1.2239578,0,0
1743177460985379,1743177460961379,6620172,5.8312044,101254.984,15.0,1.2239525,0,0
1743177461037379,1743177461013379,6620172,5.90163,101254.11,15.0,1.223942,0,0
1743177461089379,1743177461065379,6620172,6.1551604,101251.12,15.0,1.2239058,0,0
1743177461141379,1743177461117379,6620172,5.634014,101257.336,15.0,1.223981,0,0
1743177461193379,1743177461169379,6620172,6.1692452,101250.91,15.0,1.2239033,0,0
1743177461245379,1743177461221379,6620172,6.0190053,101252.734,15.0,1.2239255,0,0
1743177461297379,1743177461273379,6620172,5.94858,101253.55,15.0,1.2239351,0,0
1743177461349379,1743177461325379,6620172,6.375826,101248.45,15.0,1.2238736,0,0
1743177461401379,1743177461377379,6620172,6.310096,101249.25,15.0,1.2238833,0,0
1743177461453379,1743177461429379,6620172,7.230318,101238.17,15.0,1.2237494,0,0
1743177461505379,1743177461481379,6620172,6.901667,101242.125,15.0,1.2237972,0,0
1743177461557379,1743177461533379,6620172,6.9580073,101241.47,15.0,1.2237892,0,0
1743177461609379,1743177461585379,6620172,7.0566025,101240.305,15.0,1.2237751,0,0
1743177461661379,1743177461637379,6620172,7.089468,101239.875,15.0,1.2237699,0,0
1743177461713379,1743177461689379,6620172,7.465069,101235.37,15.0,1.2237154,0,0
1743177461765379,1743177461741379,6620172,7.624699,101233.42,15.0,1.2236919,0,0
1743177461817379,1743177461793379,6620172,7.9063997,101230.055,15.0,1.2236512,0,0
1743177461869379,1743177461845379,6620172,7.727989,101232.22,15.0,1.2236774,0,0
1743177461921379,1743177461897379,6620172,7.7045145,101232.53,15.0,1.2236812,0,0
1743177461973379,1743177461949379,6620172,8.441631,101223.64,15.0,1.2235737,0,0
1743177462025379,1743177462001379,6620172,7.9157896,101229.96,15.0,1.2236501,0,0
1743177462077379,1743177462053379,6620172,8.432241,101223.766,15.0,1.2235752,0,0
1743177462129379,1743177462105379,6620172,8.798452,101219.37,15.0,1.2235221,0,0
1743177462181379,1743177462157379,6620172,9.357159,101212.68,15.0,1.2234412,0,0
1743177462233379,1743177462209379,6620172,9.408804,101212.07,15.0,1.2234339,0,0
1743177462285379,1743177462261379,6620172,9.0801525,101215.97,15.0,1.2234809,0,0
1743177462337379,1743177462313379,6620172,9.507399,101210.84,15.0,1.223419,0,0
1743177462389379,1743177462365379,6620172,9.061373,101216.195,15.0,1.2234837,0,0
1743177462441379,1743177462417379,6620172,9.324293,101213.09,15.0,1.2234461,0,0
1743177462493379,1743177462469379,6620172,9.587214,101209.87,15.0,1.2234073,0,0
1743177462545379,1743177462521379,6620172,10.296161,101201.37,15.0,1.2233045,0,0
1743177462597379,1743177462573379,6620172,10.028545,101204.62,15.0,1.2233437,0,0
1743177462649379,1743177462625379,6620172,10.155311,101203.08,15.0,1.2233251,0,0
1743177462701379,1743177462677379,6620172,10.765662,101195.76,15.0,1.2232367,0,0
1743177462753379,1743177462729379,6620172,10.422926,101199.87,15.0,1.2232864,0,0
1743177462805379,1743177462781379,6620172,10.662372,101196.984,15.0,1.2232516,0,0
1743177462857379,1743177462833379,6620172,11.052057,101192.305,15.0,1.223195,0,0
1743177462909379,1743177462885379,6620172,11.263333,101189.79,15.0,1.2231644,0,0
1743177462961379,1743177462937379,6620172,10.845477,101194.82,15.0,1.2232254,0,0
1743177463013379,1743177462989379,6620172,11.263333,101189.79,15.0,1.2231644,0,0
1743177463065379,1743177463041379,6620172,11.624849,101185.43,15.0,1.2231119,0,0
1743177463117379,1743177463093379,6620172,11.873685,101182.47,15.0,1.223076,0,0
1743177463169379,1743177463145379,6620172,11.704664,101184.49,15.0,1.2231005,0,0
1743177463221379,1743177463197379,6620172,11.765699,101183.79,15.0,1.2230921,0,0
1743177463273379,1743177463249379,6620172,12.319711,101177.125,15.0,1.2230114,0,0
1743177463325379,1743177463301379,6620172,12.329101,101177.016,15.0,1.2230102,0,0
1743177463377379,1743177463353379,6620172,12.282151,101177.53,15.0,1.2230163,0,0
1743177463429379,1743177463405379,6620172,12.164776,101178.99,15.0,1.223034,0,0
1743177463481379,1743177463457379,6620172,12.836163,101170.914,15.0,1.2229364,0,0
1743177463533379,1743177463509379,6620172,12.977013,101169.21,15.0,1.2229158,0,0
1743177463585379,1743177463561379,6620172,12.8408575,101170.88,15.0,1.222936,0,0
1743177463637379,1743177463613379,6620172,13.164813,101166.97,15.0,1.2228887,0,0
1743177463689379,1743177463665379,6620172,12.995792,101168.97,15.0,1.2229128,0,0
1743177463741379,1743177463717379,6620172,13.516939,101162.74,15.0,1.2228376,0,0
1743177463793379,1743177463769379,6620172,13.620229,101161.51,15.0,1.2228227,0,0
1743177463845379,1743177463821379,6620172,13.310358,101165.2,15.0,1.2228673,0,0
1743177463897379,1743177463873379,6620172,14.193021,101154.62,15.0,1.2227393,0,0
1743177463949379,1743177463925379,6620172,13.554499,101162.32,15.0,1.2228324,0,0
1743177464001379,1743177463977379,6620172,14.366736,101152.57,15.0,1.2227145,0,0
1743177464053379,1743177464029379,6620172,14.615572,101149.555,15.0,1.2226782,0,0
1743177464105379,1743177464081379,6620172,14.775202,101147.68,15.0,1.2226554,0,0
1743177464157379,1743177464133379,6620172,14.451246,101151.555,15.0,1.2227024,0,0
1743177464209379,1743177464185379,6620172,14.826847,101147.016,15.0,1.2226475,0,0
1743177464261379,1743177464237379,6620172,14.718862,101148.305,15.0,1.222663,0,0
1743177464313379,1743177464289379,6620172,14.864408,101146.61,15.0,1.2226425,0,0
1743177464365379,1743177464341379,6620172,15.770545,101135.734,15.0,1.2225112,0,0
1743177464417379,1743177464393379,6620172,15.531099,101138.625,15.0,1.2225461,0,0
1743177464469379,1743177464445379,6620172,15.479454,101139.234,15.0,1.2225534,0,0
1743177464521379,1743177464497379,6620172,16.59217,101125.87,15.0,1.2223918,0,0
1743177464573379,1743177464549379,6620172,16.127365,101131.445,15.0,1.2224592,0,0
1743177464625379,1743177464601379,6620172,15.690729,101136.68,15.0,1.2225225,0,0
1743177464677379,1743177464653379,6620172,15.681339,101136.78,15.0,1.2225237,0,0
1743177464729379,1743177464705379,6620172,16.16962,101130.914,15.0,1.2224529,0,0
1743177464781379,1743177464757379,6620172,16.667292,101124.984,15.0,1.2223811,0,0
1743177464833379,1743177464809379,6620172,16.948992,101121.61,15.0,1.2223403,0,0
1743177464885379,1743177464861379,6620172,17.329288,101117.04,15.0,1.2222852,0,0
1743177464937379,1743177464913379,6620172,17.380934,101116.41,15.0,1.2222775,0,0
1743177464989379,1743177464965379,6620172,16.944298,101121.625,15.0,1.2223406,0,0
1743177465041379,1743177465017379,6620172,17.216608,101118.375,15.0,1.2223014,0,0
1743177465093379,1743177465069379,6620172,17.79879,101111.39,15.0,1.2222168,0,0
1743177465145379,1743177465121379,6620172,17.432579,101115.76,15.0,1.2222697,0,0
1743177465197379,1743177465173379,6620172,17.822266,101111.125,15.0,1.2222136,0,0
1743177465249379,1743177465225379,6620172,17.77062,101111.75,15.0,1.2222211,0,0
1743177465301379,1743177465277379,6620172,17.93964,101109.68,15.0,1.2221961,0,0
1743177465353379,1743177465329379,6620172,17.99598,101109.055,15.0,1.2221886,0,0
1743177465405379,1743177465381379,6620172,18.568771,101102.17,15.0,1.2221054,0,0
1743177465457379,1743177465433379,6620172,18.3528,101104.75,15.0,1.2221366,0,0
1743177465509379,1743177465485379,6620172,18.272985,101105.734,15.0,1.2221485,0,0
1743177465561379,1743177465537379,6620172,18.625113,101101.47,15.0,1.2220969,0,0
1743177465613379,1743177465589379,6620172,19.085222,101095.96,15.0,1.2220303,0,0
1743177465665379,1743177465641379,6620172,19.310583,101093.28,15.0,1.221998,0,0
1743177465717379,1743177465693379,6620172,19.071138,101096.12,15.0,1.2220322,0,0
1743177465769379,1743177465745379,6620172,20.089956,101083.92,15.0,1.2218847,0,0
1743177465821379,1743177465797379,6620172,19.74722,101088.016,15.0,1.2219343,0,0
1743177465873379,1743177465849379,6620172,19.648624,101089.195,15.0,1.2219485,0,0
1743177465925379,1743177465901379,6620172,19.620455,101089.57,15.0,1.221953,0,0
1743177465977379,1743177465953379,6620172,20.169771,101082.97,15.0,1.2218733,0,0
1743177466029379,1743177466005379,6620172,19.479605,101091.21,15.0,1.221973,0,0
1743177466081379,1743177466057379,6620172,19.625149,101089.49,15.0,1.2219521,0,0
1743177466133379,1743177466109379,6620172,20.11343,101083.664,15.0,1.2218817,0,0
1743177466185379,1743177466161379,6620172,20.911583,101074.08,15.0,1.2217659,0,0
1743177466237379,1743177466213379,6620172,20.526592,101078.71,15.0,1.2218219,0,0
1743177466289379,1743177466265379,6620172,20.690916,101076.76,15.0,1.2217983,0,0
1743177466341379,1743177466317379,6620172,19.911545,101086.08,15.0,1.2219108,0,0
1743177466393379,1743177466369379,6620172,20.568846,101078.17,15.0,1.2218153,0,0
1743177466445379,1743177466421379,6620172,20.775427,101075.72,15.0,1.2217857,0,0
1743177466497379,1743177466473379,6620172,21.094688,101071.88,15.0,1.2217393,0,0
1743177466549379,1743177466525379,6620172,21.113468,101071.63,15.0,1.2217363,0,0
1743177466601379,1743177466577379,6620172,21.071213,101072.13,15.0,1.2217423,0,0
1743177466653379,1743177466629379,6620172,20.728477,101076.305,15.0,1.2217927,0,0
1743177466705379,1743177466681379,6620172,20.977312,101073.305,15.0,1.2217566,0,0
1743177466757379,1743177466733379,6620172,21.235538,101070.2,15.0,1.221719,0,0
1743177466809379,1743177466785379,6620172,21.390474,101068.305,15.0,1.221696,0,0
1743177466861379,1743177466837379,6620172,21.766075,101063.82,15.0,1.2216418,0,0
1743177466913379,1743177466889379,6620172,21.878756,101062.445,15.0,1.2216252,0,0
1743177466965379,1743177466941379,6620172,21.428034,101067.87,15.0,1.2216908,0,0
1743177467017379,1743177466993379,6620172,21.794245,101063.47,15.0,1.2216376,0,0
1743177467069379,1743177467045379,6620172,21.916315,101062.04,15.0,1.2216203,0,0
1743177467121379,1743177467097379,6620172,22.634651,101053.42,15.0,1.2215161,0,0
1743177467173379,1743177467149379,6620172,22.08064,101060.04,15.0,1.2215961,0,0
1743177467225379,1743177467201379,6620172,22.052471,101060.42,15.0,1.2216008,0,0
1743177467277379,1743177467253379,6620172,22.385817,101056.414,15.0,1.2215524,0,0
1743177467329379,1743177467305379,6620172,22.315392,101057.266,15.0,1.2215626,0,0
1743177467381379,1743177467357379,6620172,22.376427,101056.53,15.0,1.2215537,0,0
1743177467433379,1743177467409379,6620172,22.37173,101056.59,15.0,1.2215544,0,0
1743177467485379,1743177467461379,6620172,22.367037,101056.63,15.0,1.221555,0,0
1743177467537379,1743177467513379,6620172,23.287258,101045.57,15.0,1.2214212,0,0
1743177467589379,1743177467565379,6620172,22.273136,101057.74,15.0,1.2215683,0,0
1743177467641379,1743177467617379,6620172,22.324781,101057.14,15.0,1.2215611,0,0
1743177467693379,1743177467669379,6620172,22.601788,101053.836,15.0,1.2215211,0,0
1743177467745379,1743177467721379,6620172,22.554836,101054.375,15.0,1.2215277,0,0
1743177467797379,1743177467773379,6620172,23.287258,101045.59,15.0,1.2214215,0,0
1743177467849379,1743177467825379,6620172,23.160494,101047.13,15.0,1.2214401,0,0
1743177467901379,1743177467877379,6620172,22.958607,101049.55,15.0,1.2214693,0,0
1743177467953379,1743177467929379,6620172,22.902267,101050.2,15.0,1.2214773,0,0
1743177468005379,1743177467981379,6620172,23.390549,101044.336,15.0,1.2214062,0,0
1743177468057379,1743177468033379,6620172,23.442194,101043.766,15.0,1.2213994,0,0
1743177468109379,1743177468085379,6620172,22.836536,101051.0,15.0,1.2214869,0,0
1743177468161379,1743177468137379,6620172,23.047813,101048.51,15.0,1.2214566,0,0
1743177468213379,1743177468189379,6620172,23.72859,101040.336,15.0,1.221358,0,0
1743177468265379,1743177468241379,6620172,23.714504,101040.516,15.0,1.2213601,0,0
1743177468317379,1743177468293379,6620172,23.273174,101045.79,15.0,1.2214239,0,0
1743177468369379,1743177468345379,6620172,23.883524,101038.49,15.0,1.2213356,0,0
1743177468421379,1743177468397379,6620172,24.367111,101032.695,15.0,1.2212657,0,0
1743177468473379,1743177468449379,6620172,23.822489,101039.21,15.0,1.2213444,0,0
1743177468525379,1743177468501379,6620172,23.695724,101040.7,15.0,1.2213625,0,0
1743177468577379,1743177468553379,6620172,23.531399,101042.695,15.0,1.2213864,0,0
1743177468629379,1743177468605379,6620172,23.822489,101039.195,15.0,1.2213441,0,0
1743177468681379,1743177468657379,6620172,23.930475,101037.89,15.0,1.2213284,0,0
1743177468733379,1743177468709379,6620172,23.385853,101044.414,15.0,1.2214072,0,0
1743177468785379,1743177468761379,6620172,23.432804,101043.84,15.0,1.2214004,0,0
1743177468837379,1743177468813379,6620172,23.639383,101041.37,15.0,1.2213703,0,0
1743177468889379,1743177468865379,6620172,23.49384,101043.11,15.0,1.2213914,0,0
1743177468941379,1743177468917379,6620172,23.986814,101037.21,15.0,1.2213202,0,0
1743177468993379,1743177468969379,6620172,24.442232,101031.76,15.0,1.2212543,0,0
1743177469045379,1743177469021379,6620172,24.06663,101036.28,15.0,1.221309,0,0
1743177469097379,1743177469073379,6620172,23.780235,101039.7,15.0,1.2213503,0,0
1743177469149379,1743177469125379,6620172,24.235651,101034.234,15.0,1.2212842,0,0
1743177469201379,1743177469177379,6620172,23.137018,101047.41,15.0,1.2214434,0,0
1743177469253379,1743177469229379,6620172,23.95395,101037.59,15.0,1.2213248,0,0
1743177469305379,1743177469281379,6620172,24.390587,101032.375,15.0,1.2212617,0,0
1743177469357379,1743177469333379,6620172,24.043156,101036.57,15.0,1.2213124,0,0
1743177469409379,1743177469385379,6620172,23.667555,101041.016,15.0,1.2213662,0,0
1743177469461379,1743177469437379,6620172,24.0948,101035.945,15.0,1.2213049,0,0
1743177469513379,1743177469489379,6620172,24.1887,101034.83,15.0,1.2212914,0,0
1743177469565379,1743177469541379,6620172,23.845964,101038.92,15.0,1.2213408,0,0
1743177469617379,1743177469593379,6620172,24.437536,101031.83,15.0,1.2212552,0,0
1743177469669379,1743177469645379,6620172,24.850697,101026.89,15.0,1.2211955,0,0
1743177469721379,1743177469697379,6620172,24.789661,101027.62,15.0,1.2212042,0,0
1743177469773379,1743177469749379,6620172,24.14175,101035.36,15.0,1.2212979,0,0
1743177469825379,1743177469801379,6620172,24.517351,101030.875,15.0,1.2212436,0,0
1743177469877379,1743177469853379,6620172,24.522047,101030.79,15.0,1.2212425,0,0
1743177469929379,1743177469905379,6620172,24.817833,101027.26,15.0,1.2211999,0,0
1743177469981379,1743177469957379,6620172,24.01029,101036.93,15.0,1.2213168,0,0
1743177470033379,1743177470009379,6620172,24.320162,101033.234,15.0,1.2212721,0,0
1743177470085379,1743177470061379,6620172,24.29199,101033.555,15.0,1.221276,0,0
1743177470137379,1743177470113379,6620172,24.40467,101032.2,15.0,1.2212596,0,0
1743177470189379,1743177470165379,6620172,24.639421,101029.414,15.0,1.2212259,0,0
1743177470241379,1743177470217379,6620172,24.371805,101032.63,15.0,1.2212648,0,0
1743177470293379,1743177470269379,6620172,24.409367,101032.164,15.0,1.2212591,0,0
1743177470345379,1743177470321379,6620172,24.507961,101030.97,15.0,1.2212448,0,0
1743177470397379,1743177470373379,6620172,24.587776,101030.05,15.0,1.2212335,0,0
1743177470449379,1743177470425379,6620172,24.461012,101031.53,15.0,1.2212515,0,0
1743177470501379,1743177470477379,6620172,24.733322,101028.266,15.0,1.221212,0,0
1743177470553379,1743177470529379,6620172,24.507961,101030.945,15.0,1.2212445,0,0
1743177470605379,1743177470581379,6620172,24.357721,101032.78,15.0,1.2212666,0,0
1743177470657379,1743177470633379,6620172,23.96334,101037.516,15.0,1.2213238,0,0
1743177470709379,1743177470685379,6620172,24.770882,101027.82,15.0,1.2212067,0,0
1743177470761379,1743177470737379,6620172,24.799051,101027.45,15.0,1.2212021,0,0
1743177470813379,1743177470789379,6620172,23.84127,101038.945,15.0,1.2213411,0,0
1743177470865379,1743177470841379,6620172,24.503267,101031.03,15.0,1.2212455,0,0
1743177470917379,1743177470893379,6620172,24.723932,101028.375,15.0,1.2212135,0,0
1743177470969379,1743177470945379,6620172,24.418756,101032.016,15.0,1.2212573,0,0
1743177471021379,1743177470997379,6620172,24.26382,101033.93,15.0,1.2212806,0,0
1743177471073379,1743177471049379,6620172,25.005632,101025.016,15.0,1.2211727,0,0
1743177471125379,1743177471101379,6620172,24.522047,101030.8,15.0,1.2212427,0,0
1743177471177379,1743177471153379,6620172,25.160568,101023.16,15.0,1.2211503,0,0
1743177471229379,1743177471205379,6620172,24.418756,101032.03,15.0,1.2212576,0,0
1743177471281379,1743177471257379,6620172,25.052584,101024.42,15.0,1.2211655,0,0
1743177471333379,1743177471309379,6620172,24.592472,101029.97,15.0,1.2212325,0,0
1743177471385379,1743177471361379,6620172,24.944597,101025.766,15.0,1.2211819,0,0
1743177471437379,1743177471413379,6620172,24.644117,101029.336,15.0,1.2212249,0,0
1743177471489379,1743177471465379,6620172,24.794357,101027.516,15.0,1.221203,0,0
1743177471541379,1743177471517379,6620172,24.40467,101032.2,15.0,1.2212596,0,0
1743177471593379,1743177471569379,6620172,24.672287,101029.016,15.0,1.2212212,0,0
1743177471645379,1743177471621379,6620172,24.625338,101029.58,15.0,1.2212279,0,0
1743177471697379,1743177471673379,6620172,25.451658,101019.63,15.0,1.2211077,0,0
1743177471749379,1743177471725379,6620172,24.728626,101028.34,15.0,1.221213,0,0
1743177471801379,1743177471777379,6620172,24.268517,101033.84,15.0,1.2212795,0,0
1743177471853379,1743177471829379,6620172,25.019718,101024.84,15.0,1.2211707,0,0
1743177471905379,1743177471881379,6620172,24.780272,101027.695,15.0,1.2212051,0,0
1743177471957379,1743177471933379,6620172,24.592472,101029.96,15.0,1.2212325,0,0
1743177472009379,1743177471985379,6620172,24.719236,101028.43,15.0,1.221214,0,0
1743177472061379,1743177472037379,6620172,24.691067,101028.8,15.0,1.2212185,0,0
1743177472113379,1743177472089379,6620172,24.756798,101028.016,15.0,1.221209,0,0
1743177472165379,1743177472141379,6620172,24.968073,101025.45,15.0,1.221178,0,0
1743177472217379,1743177472193379,6620172,24.930513,101025.91,15.0,1.2211835,0,0
1743177472269379,1743177472245379,6620172,24.935207,101025.86,15.0,1.221183,0,0
1743177472321379,1743177472297379,6620172,24.968073,101025.46,15.0,1.2211782,0,0
1743177472373379,1743177472349379,6620172,24.897648,101026.28,15.0,1.2211881,0,0
1743177472425379,1743177472401379,6620172,24.789661,101027.625,15.0,1.2212043,0,0
1743177472477379,1743177472453379,6620172,24.39528,101032.32,15.0,1.221261,0,0
1743177472529379,1743177472505379,6620172,24.648811,101029.29,15.0,1.2212244,0,0
1743177472581379,1743177472557379,6620172,25.418795,101020.09,15.0,1.2211132,0,0
1743177472633379,1743177472609379,6620172,25.418795,101020.055,15.0,1.2211128,0,0
1743177472685379,1743177472661379,6620172,24.676981,101028.945,15.0,1.2212203,0,0
1743177472737379,1743177472713379,6620172,24.864782,101026.7,15.0,1.2211932,0,0
1743177472789379,1743177472765379,6620172,24.892952,101026.37,15.0,1.221189,0,0
1743177472841379,1743177472817379,6620172,24.874172,101026.625,15.0,1.2211922,0,0
1743177472893379,1743177472869379,6620172,25.043192,101024.58,15.0,1.2211674,0,0
1743177472945379,1743177472921379,6620172,25.282639,101021.7,15.0,1.2211328,0,0
1743177472997379,1743177472973379,6620172,25.249773,101022.09,15.0,1.2211375,0,0
1743177473049379,1743177473025379,6620172,24.982157,101025.32,15.0,1.2211765,0,0
1743177473101379,1743177473077379,6620172,24.41406,101032.09,15.0,1.2212583,0,0
1743177473153379,1743177473129379,6620172,25.193434,101022.766,15.0,1.2211455,0,0
1743177473205379,1743177473181379,6620172,24.836613,101027.03,15.0,1.2211971,0,0
1743177473257379,1743177473233379,6620172,25.118313,101023.68,15.0,1.2211566,0,0
1743177473309379,1743177473285379,6620172,25.155872,101023.18,15.0,1.2211506,0,0
1743177473361379,1743177473337379,6620172,25.273249,101021.805,15.0,1.221134,0,0
1743177473413379,1743177473389379,6620172,24.601862,101029.875,15.0,1.2212316,0,0
1743177473465379,1743177473441379,6620172,25.047888,101024.54,15.0,1.2211671,0,0
1743177473517379,1743177473493379,6620172,25.155872,101023.195,15.0,1.2211508,0,0
1743177473569379,1743177473545379,6620172,24.944597,101025.76,15.0,1.2211818,0,0
1743177473621379,1743177473597379,6620172,25.259163,101021.99,15.0,1.2211362,0,0
1743177473673379,1743177473649379,6620172,24.982157,101025.28,15.0,1.2211759,0,0
1743177473725379,1743177473701379,6620172,24.996243,101025.11,15.0,1.2211739,0,0
1743177473777379,1743177473753379,6620172,24.620642,101029.61,15.0,1.2212282,0,0
1743177473829379,1743177473805379,6620172,25.531473,101018.71,15.0,1.2210966,0,0
1743177473881379,1743177473857379,6620172,24.53613,101030.64,15.0,1.2212408,0,0
1743177473933379,1743177473909379,6620172,24.630032,101029.53,15.0,1.2212273,0,0
1743177473985379,1743177473961379,6620172,25.127703,101023.54,15.0,1.2211549,0,0
1743177474037379,1743177474013379,6620172,25.400013,101020.3,15.0,1.2211158,0,0
1743177474089379,1743177474065379,6620172,24.742712,101028.16,15.0,1.2212107,0,0
1743177474141379,1743177474117379,6620172,25.296724,101021.54,15.0,1.2211307,0,0
1743177474193379,1743177474169379,6620172,24.723932,101028.38,15.0,1.2212135,0,0
1743177474245379,1743177474221379,6620172,24.681677,101028.89,15.0,1.2212195,0,0
1743177474297379,1743177474273379,6620172,24.968073,101025.43,15.0,1.2211777,0,0
1743177474349379,1743177474325379,6620172,25.259163,101022.0,15.0,1.2211363,0,0
1743177474401379,1743177474377379,6620172,25.169958,101023.05,15.0,1.221149,0,0
1743177474453379,1743177474429379,6620172,25.65824,101017.2,15.0,1.2210783,0,0
1743177474505379,1743177474481379,6620172,24.883562,101026.49,15.0,1.2211907,0,0
1743177474557379,1743177474533379,6620172,25.010328,101024.945,15.0,1.2211719,0,0
1743177474609379,1743177474585379,6620172,25.085447,101024.086,15.0,1.2211615,0,0
1743177474661379,1743177474637379,6620172,25.23569,101022.24,15.0,1.2211393,0,0
1743177474713379,1743177474689379,6620172,25.287333,101021.625,15.0,1.2211318,0,0
1743177474765379,1743177474741379,6620172,25.066668,101024.266,15.0,1.2211637,0,0
1743177474817379,1743177474793379,6620172,24.648811,101029.305,15.0,1.2212247,0,0
1743177474869379,1743177474845379,6620172,24.864782,101026.67,15.0,1.2211927,0,0
1743177474921379,1743177474897379,6620172,25.202824,101022.61,15.0,1.2211436,0,0
1743177474973379,1743177474949379,6620172,24.780272,101027.7,15.0,1.2212052,0,0
1743177475025379,1743177475001379,6620172,25.165262,101023.086,15.0,1.2211494,0,0
1743177475077379,1743177475053379,6620172,25.207518,101022.586,15.0,1.2211434,0,0
1743177475129379,1743177475105379,6620172,25.442268,101019.805,15.0,1.2211097,0,0
1743177475181379,1743177475157379,6620172,25.094837,101023.92,15.0,1.2211595,0,0
1743177475233379,1743177475209379,6620172,25.099533,101023.91,15.0,1.2211593,0,0
1743177475285379,1743177475261379,6620172,25.49861,101019.09,15.0,1.2211012,0,0
1743177475337379,1743177475313379,6620172,25.146482,101023.305,15.0,1.2211521,0,0
1743177475389379,1743177475365379,6620172,25.123009,101023.61,15.0,1.2211558,0,0
1743177475441379,1743177475417379,6620172,25.160568,101023.125,15.0,1.2211499,0,0
1743177475493379,1743177475469379,6620172,25.409403,101020.195,15.0,1.2211145,0,0
1743177475545379,1743177475521379,6620172,25.461048,101019.586,15.0,1.2211071,0,0
1743177475597379,1743177475573379,6620172,25.395319,101020.34,15.0,1.2211163,0,0
1743177475649379,1743177475625379,6620172,25.292028,101021.58,15.0,1.2211312,0,0
1743177475701379,1743177475677379,6620172,24.653507,101029.234,15.0,1.2212238,0,0
1743177475753379,1743177475729379,6620172,25.465744,101019.5,15.0,1.2211062,0,0
1743177475805379,1743177475781379,6620172,24.860086,101026.766,15.0,1.2211939,0,0
1743177475857379,1743177475833379,6620172,24.601862,101029.88,15.0,1.2212316,0,0
1743177475909379,1743177475885379,6620172,25.451658,101019.664,15.0,1.2211081,0,0
1743177475961379,1743177475937379,6620172,25.484524,101019.28,15.0,1.2211034,0,0
1743177476013379,1743177475989379,6620172,25.249773,101022.08,15.0,1.2211373,0,0
1743177476065379,1743177476041379,6620172,24.822527,101027.21,15.0,1.2211993,0,0
1743177476117379,1743177476093379,6620172,25.348368,101020.92,15.0,1.2211233,0,0
1743177476169379,1743177476145379,6620172,24.850697,101026.86,15.0,1.2211951,0,0
1743177476221379,1743177476197379,6620172,24.953987,101025.62,15.0,1.2211801,0,0
1743177476273379,1743177476249379,6620172,24.953987,101025.64,15.0,1.2211803,0,0
1743177476325379,1743177476301379,6620172,25.019718,101024.836,15.0,1.2211707,0,0
1743177476377379,1743177476353379,6620172,25.404709,101020.24,15.0,1.221115,0,0
1743177476429379,1743177476405379,6620172,25.681715,101016.88,15.0,1.2210745,0,0
1743177476481379,1743177476457379,6620172,25.216908,101022.45,15.0,1.2211418,0,0
1743177476533379,1743177476509379,6620172,24.841307,101026.95,15.0,1.2211962,0,0
1743177476585379,1743177476561379,6620172,25.029108,101024.72,15.0,1.2211691,0,0
1743177476637379,1743177476613379,6620172,24.836613,101027.04,15.0,1.2211972,0,0
1743177476689379,1743177476665379,6620172,25.475134,101019.37,15.0,1.2211044,0,0
1743177476741379,1743177476717379,6620172,25.230993,101022.32,15.0,1.2211401,0,0
1743177476793379,1743177476769379,6620172,25.029108,101024.7,15.0,1.221169,0,0
1743177476845379,1743177476821379,6620172,24.846003,101026.93,15.0,1.2211959,0,0
1743177476897379,1743177476873379,6620172,25.442268,101019.8,15.0,1.2211096,0,0
1743177476949379,1743177476925379,6620172,24.606556,101029.805,15.0,1.2212306,0,0
1743177477001379,1743177476977379,6620172,25.132399,101023.484,15.0,1.2211542,0,0
1743177477053379,1743177477029379,6620172,25.512693,101018.914,15.0,1.221099,0,0
1743177477105379,1743177477081379,6620172,25.540865,101018.61,15.0,1.2210953,0,0
1743177477157379,1743177477133379,6620172,24.761492,101027.91,15.0,1.2212077,0,0
1743177477209379,1743177477185379,6620172,25.230993,101022.32,15.0,1.2211401,0,0
1743177477261379,1743177477237379,6620172,25.573729,101018.18,15.0,1.2210902,0,0
1743177477313379,1743177477289379,6620172,25.254469,101022.04,15.0,1.2211367,0,0
1743177477365379,1743177477341379,6620172,25.188738,101022.8,15.0,1.221146,0,0
1743177477417379,1743177477393379,6620172,24.658201,101029.164,15.0,1.221223,0,0
1743177477469379,1743177477445379,6620172,25.099533,101023.88,15.0,1.2211591,0,0
1743177477521379,1743177477497379,6620172,24.874172,101026.625,15.0,1.2211922,0,0
1743177477573379,1743177477549379,6620172,25.132399,101023.484,15.0,1.2211542,0,0
1743177477625379,1743177477601379,6620172,25.076057,101024.164,15.0,1.2211624,0,0
1743177477677379,1743177477653379,6620172,24.944597,101025.734,15.0,1.2211814,0,0
1743177477729379,1743177477705379,6620172,24.446926,101031.72,15.0,1.2212538,0,0
1743177477781379,1743177477757379,6620172,24.625338,101029.555,15.0,1.2212276,0,0
1743177477833379,1743177477809379,6620172,24.874172,101026.625,15.0,1.2211922,0,0
1743177477885379,1743177477861379,6620172,25.029108,101024.72,15.0,1.2211691,0,0
1743177477937379,1743177477913379,6620172,24.977463,101025.38,15.0,1.2211772,0,0
1743177477989379,1743177477965379,6620172,25.338978,101021.055,15.0,1.2211249,0,0
1743177478041379,1743177478017379,6620172,24.578386,101030.16,15.0,1.2212349,0,0
1743177478093379,1743177478069379,6620172,25.184044,101022.89,15.0,1.2211471,0,0
1743177478145379,1743177478121379,6620172,24.634727,101029.45,15.0,1.2212265,0,0
1743177478197379,1743177478173379,6620172,24.784967,101027.67,15.0,1.2212049,0,0
1743177478249379,1743177478225379,6620172,25.362453,101020.72,15.0,1.2211208,0,0
1743177478301379,1743177478277379,6620172,25.329588,101021.09,15.0,1.2211252,0,0
1743177478353379,1743177478329379,6620172,24.766188,101027.87,15.0,1.2212073,0,0
1743177478405379,1743177478381379,6620172,25.193434,101022.76,15.0,1.2211454,0,0
1743177478457379,1743177478433379,6620172,25.465744,101019.51,15.0,1.2211062,0,0
1743177478509379,1743177478485379,6620172,24.644117,101029.336,15.0,1.2212249,0,0
1743177478561379,1743177478537379,6620172,25.23569,101022.26,15.0,1.2211394,0,0
1743177478613379,1743177478589379,6620172,23.996204,101037.086,15.0,1.2213187,0,0
1743177478665379,1743177478641379,6620172,24.808443,101027.38,15.0,1.2212013,0,0
1743177478717379,1743177478693379,6620172,24.465706,101031.445,15.0,1.2212505,0,0
1743177478769379,1743177478745379,6620172,25.37654,101020.59,15.0,1.2211193,0,0
1743177478821379,1743177478797379,6620172,24.625338,101029.59,15.0,1.2212281,0,0
1743177478873379,1743177478849379,6620172,24.54552,101030.516,15.0,1.2212392,0,0
1743177478925379,1743177478901379,6620172,24.902342,101026.25,15.0,1.2211877,0,0
1743177478977379,1743177478953379,6620172,24.747408,101028.14,15.0,1.2212106,0,0
1743177479029379,1743177479005379,6620172,24.968073,101025.43,15.0,1.2211777,0,0
1743177479081379,1743177479057379,6620172,24.991549,101025.17,15.0,1.2211746,0,0
1743177479133379,1743177479109379,6620172,25.446964,101019.71,15.0,1.2211087,0,0
1743177479185379,1743177479161379,6620172,24.564302,101030.28,15.0,1.2212363,0,0
1743177479237379,1743177479213379,6620172,25.151178,101023.28,15.0,1.2211518,0,0
1743177479289379,1743177479265379,6620172,24.944597,101025.766,15.0,1.2211819,0,0
1743177479341379,1743177479317379,6620172,24.991549,101025.2,15.0,1.2211751,0,0
1743177479393379,1743177479369379,6620172,24.30138,101033.45,15.0,1.2212747,0,0
1743177479445379,1743177479421379,6620172,25.071363,101024.22,15.0,1.2211632,0,0
1743177479497379,1743177479473379,6620172,25.644154,101017.33,15.0,1.2210798,0,0
1743177479549379,1743177479525379,6620172,24.752102,101028.055,15.0,1.2212095,0,0
1743177479601379,1743177479577379,6620172,25.475134,101019.38,15.0,1.2211046,0,0
1743177479653379,1743177479629379,6620172,25.198128,101022.734,15.0,1.2211453,0,0
1743177479705379,1743177479681379,6620172,25.146482,101023.34,15.0,1.2211525,0,0
1743177479757379,1743177479733379,6620172,24.592472,101029.97,15.0,1.2212325,0,0
1743177479809379,1743177479785379,6620172,24.968073,101025.47,15.0,1.2211783,0,0
1743177479861379,1743177479837379,6620172,25.169958,101023.07,15.0,1.2211492,0,0
1743177479913379,1743177479889379,6620172,24.831917,101027.13,15.0,1.2211983,0,0
1743177479965379,1743177479941379,6620172,24.794357,101027.57,15.0,1.2212037,0,0
1743177480017379,1743177479993379,6620172,25.198128,101022.695,15.0,1.2211447,0,0
1743177480069379,1743177480045379,6620172,24.935207,101025.86,15.0,1.221183,0,0
1743177480121379,1743177480097379,6620172,25.113619,101023.71,15.0,1.221157,0,0
1743177480173379,1743177480149379,6620172,24.583082,101030.09,15.0,1.2212342,0,0
1743177480225379,1743177480201379,6620172,24.371805,101032.62,15.0,1.2212647,0,0
1743177480277379,1743177480253379,6620172,24.418756,101032.07,15.0,1.221258,0,0
1743177480329379,1743177480305379,6620172,25.033802,101024.63,15.0,1.221168,0,0
1743177480381379,1743177480357379,6620172,24.921122,101026.01,15.0,1.2211847,0,0
1743177480433379,1743177480409379,6620172,24.939903,101025.836,15.0,1.2211827,0,0
1743177480485379,1743177480461379,6620172,25.53617,101018.66,15.0,1.2210959,0,0
1743177480537379,1743177480513379,6620172,24.836613,101027.055,15.0,1.2211975,0,0
1743177480589379,1743177480565379,6620172,24.719236,101028.46,15.0,1.2212144,0,0
1743177480641379,1743177480617379,6620172,24.578386,101030.11,15.0,1.2212343,0,0
1743177480693379,1743177480669379,6620172,24.991549,101025.17,15.0,1.2211746,0,0
1743177480745379,1743177480721379,6620172,24.775578,101027.75,15.0,1.2212058,0,0
1743177480797379,1743177480773379,6620172,24.780272,101027.68,15.0,1.221205,0,0
1743177480849379,1743177480825379,6620172,24.676981,101028.95,15.0,1.2212204,0,0
1743177480901379,1743177480877379,6620172,25.174654,101022.99,15.0,1.2211483,0,0
1743177480953379,1743177480929379,6620172,24.752102,101028.05,15.0,1.2212094,0,0
1743177481005379,1743177480981379,6620172,25.019718,101024.83,15.0,1.2211705,0,0
1743177481057379,1743177481033379,6620172,24.770882,101027.84,15.0,1.2212069,0,0
1743177481109379,1743177481085379,6620172,24.747408,101028.13,15.0,1.2212105,0,0
1743177481161379,1743177481137379,6620172,25.179348,101022.945,15.0,1.2211478,0,0
1743177481213379,1743177481189379,6620172,24.874172,101026.586,15.0,1.2211918,0,0
1743177481265379,1743177481241379,6620172,24.676981,101028.914,15.0,1.2212199,0,0
1743177481317379,1743177481293379,6620172,25.169958,101023.055,15.0,1.221149,0,0
1743177481369379,1743177481345379,6620172,24.766188,101027.88,15.0,1.2212074,0,0
1743177481421379,1743177481397379,6620172,24.892952,101026.36,15.0,1.2211889,0,0
1743177481473379,1743177481449379,6620172,25.423489,101019.99,15.0,1.221112,0,0
1743177481525379,1743177481501379,6620172,24.935207,101025.87,15.0,1.2211831,0,0
1743177481577379,1743177481553379,6620172,25.076057,101024.17,15.0,1.2211626,0,0
1743177481629379,1743177481605379,6620172,24.653507,101029.195,15.0,1.2212232,0,0
1743177481681379,1743177481657379,6620172,24.963377,101025.516,15.0,1.2211788,0,0
1743177481733379,1743177481709379,6620172,25.446964,101019.72,15.0,1.2211088,0,0
1743177481785379,1743177481761379,6620172,24.709846,101028.53,15.0,1.2212152,0,0
1743177481837379,1743177481813379,6620172,25.259163,101021.95,15.0,1.2211357,0,0
1743177481889379,1743177481865379,6620172,24.813137,101027.3,15.0,1.2212002,0,0
1743177481941379,1743177481917379,6620172,25.249773,101022.08,15.0,1.2211373,0,0
1743177481993379,1743177481969379,6620172,25.043192,101024.58,15.0,1.2211674,0,0
1743177482045379,1743177482021379,6620172,24.766188,101027.89,15.0,1.2212075,0,0
1743177482097379,1743177482073379,6620172,25.277943,101021.766,15.0,1.2211335,0,0
1743177482149379,1743177482125379,6620172,25.390623,101020.37,15.0,1.2211167,0,0
1743177482201379,1743177482177379,6620172,24.662897,101029.14,15.0,1.2212226,0,0
1743177482253379,1743177482229379,6620172,24.991549,101025.2,15.0,1.2211751,0,0
1743177482305379,1743177482281379,6620172,25.188738,101022.805,15.0,1.2211461,0,0
1743177482357379,1743177482333379,6620172,24.897648,101026.32,15.0,1.2211885,0,0
1743177482409379,1743177482385379,6620172,25.099533,101023.91,15.0,1.2211593,0,0
1743177482461379,1743177482437379,6620172,25.019718,101024.86,15.0,1.2211709,0,0
1743177482513379,1743177482489379,6620172,25.324894,101021.21,15.0,1.2211268,0,0
1743177482565379,1743177482541379,6620172,24.601862,101029.83,15.0,1.2212309,0,0
1743177482617379,1743177482593379,6620172,25.343674,101020.97,15.0,1.2211238,0,0
1743177482669379,1743177482645379,6620172,25.446964,101019.734,15.0,1.2211089,0,0
1743177482721379,1743177482697379,6620172,25.047888,101024.5,15.0,1.2211665,0,0
1743177482773379,1743177482749379,6620172,25.019718,101024.87,15.0,1.2211709,0,0
1743177482825379,1743177482801379,6620172,25.005632,101025.04,15.0,1.221173,0,0
1743177482877379,1743177482853379,6620172,25.310808,101021.37,15.0,1.2211287,0,0
1743177482929379,1743177482905379,6620172,25.024412,101024.82,15.0,1.2211704,0,0
1743177482981379,1743177482957379,6620172,24.817833,101027.25,15.0,1.2211998,0,0
1743177483033379,1743177483009379,6620172,24.709846,101028.53,15.0,1.2212152,0,0
1743177483085379,1743177483061379,6620172,24.968073,101025.43,15.0,1.2211777,0,0
1743177483137379,1743177483113379,6620172,25.343674,101020.96,15.0,1.2211237,0,0
1743177483189379,1743177483165379,6620172,24.794357,101027.555,15.0,1.2212034,0,0
1743177483241379,1743177483217379,6620172,25.019718,101024.88,15.0,1.2211711,0,0
1743177483293379,1743177483269379,6620172,24.907038,101026.164,15.0,1.2211866,0,0
1743177483345379,1743177483321379,6620172,25.324894,101021.18,15.0,1.2211263,0,0
1743177483397379,1743177483373379,6620172,25.423489,101020.016,15.0,1.2211123,0,0
1743177483449379,1743177483425379,6620172,24.522047,101030.8,15.0,1.2212427,0,0
1743177483501379,1743177483477379,6620172,24.888258,101026.42,15.0,1.2211899,0,0
1743177483553379,1743177483529379,6620172,25.573729,101018.195,15.0,1.2210903,0,0
1743177483605379,1743177483581379,6620172,25.47983,101019.34,15.0,1.2211043,0,0
1743177483657379,1743177483633379,6620172,25.508,101018.984,15.0,1.2210999,0,0
1743177483709379,1743177483685379,6620172,25.578424,101018.11,15.0,1.2210892,0,0
1743177483761379,1743177483737379,6620172,24.996243,101025.13,15.0,1.2211741,0,0
1743177483813379,1743177483789379,6620172,25.061974,101024.34,15.0,1.2211646,0,0
1743177483865379,1743177483841379,6620172,25.432878,101019.89,15.0,1.2211108,0,0
1743177483917379,1743177483893379,6620172,25.240383,101022.21,15.0,1.2211388,0,0
1743177483969379,1743177483945379,6620172,25.085447,101024.09,15.0,1.2211616,0,0
1743177484021379,1743177483997379,6620172,24.315466,101033.28,15.0,1.2212727,0,0
1743177484073379,1743177484049379,6620172,25.118313,101023.68,15.0,1.2211566,0,0
1743177484125379,1743177484101379,6620172,25.259163,101021.95,15.0,1.2211357,0,0
1743177484177379,1743177484153379,6620172,25.118313,101023.664,15.0,1.2211565,0,0
1743177484229379,1743177484205379,6620172,24.930513,101025.92,15.0,1.2211838,0,0
1743177484281379,1743177484257379,6620172,24.968073,101025.46,15.0,1.2211782,0,0
1743177484333379,1743177484309379,6620172,25.446964,101019.72,15.0,1.2211088,0,0
1743177484385379,1743177484361379,6620172,24.761492,101027.914,15.0,1.2212079,0,0
1743177484437379,1743177484413379,6620172,25.202824,101022.63,15.0,1.221144,0,0
1743177484489379,1743177484465379,6620172,25.113619,101023.74,15.0,1.2211574,0,0
1743177484541379,1743177484517379,6620172,24.522047,101030.78,15.0,1.2212424,0,0
1743177484593379,1743177484569379,6620172,25.118313,101023.66,15.0,1.2211564,0,0
1743177484645379,1743177484621379,6620172,25.137093,101023.45,15.0,1.2211539,0,0
1743177484697379,1743177484673379,6620172,25.348368,101020.92,15.0,1.2211233,0,0
1743177484749379,1743177484725379,6620172,25.23569,101022.26,15.0,1.2211394,0,0
1743177484801379,1743177484777379,6620172,25.019718,101024.87,15.0,1.2211709,0,0
1743177484853379,1743177484829379,6620172,25.090143,101023.97,15.0,1.2211602,0,0
1743177484905379,1743177484881379,6620172,24.911732,101026.14,15.0,1.2211864,0,0
1743177484957379,1743177484933379,6620172,25.174654,101023.016,15.0,1.2211486,0,0
1743177485009379,1743177484985379,6620172,25.423489,101019.99,15.0,1.221112,0,0
1743177485061379,1743177485037379,6620172,25.038498,101024.62,15.0,1.221168,0,0
1743177485113379,1743177485089379,6620172,25.160568,101023.16,15.0,1.2211503,0,0
1743177485165379,1743177485141379,6620172,25.094837,101023.95,15.0,1.2211599,0,0
1743177485217379,1743177485193379,6620172,24.930513,101025.91,15.0,1.2211835,0,0
1743177485269379,1743177485245379,6620172,25.240383,101022.2,15.0,1.2211387,0,0
1743177485321379,1743177485297379,6620172,25.245079,101022.16,15.0,1.2211382,0,0
1743177485373379,1743177485349379,6620172,24.892952,101026.375,15.0,1.2211891,0,0
1743177485425379,1743177485401379,6620172,25.216908,101022.45,15.0,1.2211418,0,0
1743177485477379,1743177485453379,6620172,24.850697,101026.86,15.0,1.2211951,0,0
1743177485529379,1743177485505379,6620172,25.160568,101023.17,15.0,1.2211505,0,0
1743177485581379,1743177485557379,6620172,24.752102,101028.08,15.0,1.2212098,0,0
1743177485633379,1743177485609379,6620172,25.245079,101022.13,15.0,1.2211379,0,0
1743177485685379,1743177485661379,6620172,24.503267,101031.0,15.0,1.221245,0,0
1743177485737379,1743177485713379,6620172,25.226297,101022.38,15.0,1.221141,0,0
1743177485789379,1743177485765379,6620172,25.423489,101019.984,15.0,1.221112,0,0
1743177485841379,1743177485817379,6620172,24.578386,101030.164,15.0,1.221235,0,0
1743177485893379,1743177485869379,6620172,25.071363,101024.195,15.0,1.2211628,0,0
1743177485945379,1743177485921379,6620172,24.864782,101026.7,15.0,1.2211932,0,0
1743177485997379,1743177485973379,6620172,24.968073,101025.47,15.0,1.2211783,0,0
1743177486049379,1743177486025379,6620172,24.982157,101025.266,15.0,1.2211758,0,0
1743177486101379,1743177486077379,6620172,24.892952,101026.39,15.0,1.2211894,0,0
1743177486153379,1743177486129379,6620172,25.531473,101018.695,15.0,1.2210964,0,0
1743177486205379,1743177486181379,6620172,24.869478,101026.66,15.0,1.2211926,0,0
1743177486257379,1743177486233379,6620172,25.65824,101017.18,15.0,1.221078,0,0
1743177486309379,1743177486285379,6620172,24.620642,101029.61,15.0,1.2212282,0,0
1743177486361379,1743177486337379,6620172,25.047888,101024.54,15.0,1.2211671,0,0
1743177486413379,1743177486389379,6620172,25.005632,101025.04,15.0,1.221173,0,0
1743177486465379,1743177486441379,6620172,24.841307,101026.95,15.0,1.2211962,0,0
1743177486517379,1743177486493379,6620172,24.855392,101026.83,15.0,1.2211946,0,0
1743177486569379,1743177486545379,6620172,24.827223,101027.14,15.0,1.2211984,0,0
1743177486621379,1743177486597379,6620172,25.315504,101021.28,15.0,1.2211276,0,0
1743177486673379,1743177486649379,6620172,25.137093,101023.42,15.0,1.2211535,0,0
1743177486725379,1743177486701379,6620172,25.024412,101024.766,15.0,1.2211698,0,0
1743177486777379,1743177486753379,6620172,25.273249,101021.8,15.0,1.2211338,0,0
1743177486829379,1743177486805379,6620172,25.141788,101023.38,15.0,1.221153,0,0
1743177486881379,1743177486857379,6620172,25.071363,101024.21,15.0,1.221163,0,0
1743177486933379,1743177486909379,6620172,24.902342,101026.26,15.0,1.2211878,0,0
1743177486985379,1743177486961379,6620172,24.709846,101028.586,15.0,1.221216,0,0
1743177487037379,1743177487013379,6620172,24.611252,101029.72,15.0,1.2212297,0,0
1743177487089379,1743177487065379,6620172,24.578386,101030.12,15.0,1.2212344,0,0
1743177487141379,1743177487117379,6620172,24.831917,101027.12,15.0,1.2211982,0,0
1743177487193379,1743177487169379,6620172,25.273249,101021.836,15.0,1.2211343,0,0
1743177487245379,1743177487221379,6620172,24.977463,101025.375,15.0,1.2211771,0,0
1743177487297379,1743177487273379,6620172,24.700457,101028.68,15.0,1.221217,0,0
1743177487349379,1743177487325379,6620172,24.921122,101026.0,15.0,1.2211846,0,0
1743177487401379,1743177487377379,6620172,24.892952,101026.38,15.0,1.2211893,0,0
1743177487453379,1743177487429379,6620172,24.752102,101028.07,15.0,1.2212098,0,0
1743177487505379,1743177487481379,6620172,25.700495,101016.695,15.0,1.2210721,0,0
1743177487557379,1743177487533379,6620172,24.705153,101028.64,15.0,1.2212166,0,0
1743177487609379,1743177487585379,6620172,24.55491,101030.42,15.0,1.2212381,0,0
1743177487661379,1743177487637379,6620172,24.559607,101030.37,15.0,1.2212374,0,0
1743177487713379,1743177487689379,6620172,25.137093,101023.445,15.0,1.2211537,0,0
1743177487765379,1743177487741379,6620172,24.780272,101027.72,15.0,1.2212055,0,0
1743177487817379,1743177487793379,6620172,24.996243,101025.12,15.0,1.221174,0,0
1743177487869379,1743177487845379,6620172,25.216908,101022.5,15.0,1.2211424,0,0
1743177487921379,1743177487897379,6620172,25.094837,101023.93,15.0,1.2211596,0,0
1743177487973379,1743177487949379,6620172,25.230993,101022.336,15.0,1.2211404,0,0
1743177488025379,1743177488001379,6620172,24.723932,101028.38,15.0,1.2212135,0,0
