timestamp,timestamp_sample,q[0],q[1],q[2],q[3],delta_q_reset[0],delta_q_reset[1],delta_q_reset[2],delta_q_reset[3],quat_reset_counter
21726360000,21726360000,0.85994357,0.0008714692,-0.0026334545,-0.5103815,0.9994659,-3.3122752e-10,-5.5297705e-10,0.03268201,47
21726364000,21726364000,0.8599445,0.00087305374,-0.0026384247,-0.5103799,0.9994659,-3.3122752e-10,-5.5297705e-10,0.03268201,47
21726368000,21726368000,0.85994786,0.000873963,-0.002642217,-0.5103743,0.9994659,-3.3122752e-10,-5.5297705e-10,0.03268201,47
21726372000,21726372000,0.8599498,0.00087708386,-0.0026485543,-0.51037097,0.9994659,-3.3122752e-10,-5.5297705e-10,0.03268201,47
21726376000,21726376000,0.85994667,0.00088562677,-0.002659158,-0.5103763,0.9994659,-3.3122752e-10,-5.5297705e-10,0.03268201,47
21726380000,21726380000,0.8599429,0.0008893054,-0.0026643947,-0.51038253,0.9994659,-3.3122752e-10,-5.5297705e-10,0.03268201,47
21726384000,21726384000,0.8599433,0.0008848732,-0.0026622012,-0.51038194,0.9994659,-3.3122752e-10,-5.5297705e-10,0.03268201,47
21726388000,21726388000,0.85994524,0.00088007504,-0.0026616564,-0.5103786,0.9994659,-3.3122752e-10,-5.5297705e-10,0.03268201,47
21726392000,21726392000,0.8599475,0.0008714529,-0.0026673619,-0.5103748,0.9994659,-3.3122752e-10,-5.5297705e-10,0.03268201,47
21726396000,21726396000,0.8599495,0.0008583375,-0.0026691607,-0.51037145,0.9994659,-3.3122752e-10,-5.5297705e-10,0.03268201,47
21726404000,21726404000,0.8599506,0.0008623108,-0.0026507357,-0.5103697,0.9994659,-3.3122752e-10,-5.5297705e-10,0.03268201,47
21726408000,21726408000,0.85994965,0.00086604914,-0.002646749,-0.5103714,0.9994659,-3.3122752e-10,-5.5297705e-10,0.03268201,47
21726412000,21726412000,0.85994405,0.000860338,-0.0026482805,-0.5103808,0.9994659,-3.3122752e-10,-5.5297705e-10,0.03268201,47
21726416000,21726416000,0.8599395,0.00085178437,-0.0026523282,-0.5103884,0.9994659,-3.3122752e-10,-5.5297705e-10,0.03268201,47
21726420000,21726420000,0.859935,0.00084716687,-0.0026580926,-0.51039594,0.9994659,-3.3122752e-10,-5.5297705e-10,0.03268201,47
21726424000,21726424000,0.8599302,0.0008472991,-0.0026671605,-0.510404,0.9994659,-3.3122752e-10,-5.5297705e-10,0.03268201,47
21726428000,21726428000,0.859932,0.0008431185,-0.0026792744,-0.51040107,0.9994659,-3.3122752e-10,-5.5297705e-10,0.03268201,47
21726432000,21726432000,0.85993725,0.0008308573,-0.002690195,-0.5103921,0.9994659,-3.3122752e-10,-5.5297705e-10,0.03268201,47
21726436000,21726436000,0.8599367,0.00082105794,-0.002693878,-0.5103928,0.9994659,-3.3122752e-10,-5.5297705e-10,0.03268201,47
21726444000,21726444000,0.85992706,0.0008170515,-0.0026934806,-0.5104091,0.9994659,-3.3122752e-10,-5.5297705e-10,0.03268201,47
21726448000,21726448000,0.85992414,0.00081478304,-0.0026914605,-0.51041406,0.9994659,-3.3122752e-10,-5.5297705e-10,0.03268201,47
21726452000,21726452000,0.8599221,0.000819437,-0.0026861203,-0.5104177,0.9994659,-3.3122752e-10,-5.5297705e-10,0.03268201,47
21726456000,21726456000,0.85992074,0.00082382595,-0.002687324,-0.5104198,0.9994659,-3.3122752e-10,-5.5297705e-10,0.03268201,47
21726460000,21726460000,0.85992163,0.0008231091,-0.0026929402,-0.5104183,0.9994659,-3.3122752e-10,-5.5297705e-10,0.03268201,47
21726468000,21726468000,0.859927,0.00082396873,-0.0026979027,-0.51040924,0.9994659,-3.3122752e-10,-5.5297705e-10,0.03268201,47
21726472000,21726472000,0.8599247,0.0008280582,-0.0026993358,-0.51041317,0.9994659,-3.3122752e-10,-5.5297705e-10,0.03268201,47
21726480000,21726480000,0.85992193,0.00082992925,-0.0027064262,-0.51041776,0.9994659,-3.3122752e-10,-5.5297705e-10,0.03268201,47
21726484000,21726484000,0.85992455,0.0008335045,-0.0027043882,-0.5104134,0.9994659,-3.3122752e-10,-5.5297705e-10,0.03268201,47
21726488000,21726488000,0.85992557,0.0008396878,-0.0027030215,-0.5104117,0.9994659,-3.3122752e-10,-5.5297705e-10,0.03268201,47
21726492000,21726492000,0.85992485,0.0008426892,-0.0027059368,-0.5104127,0.9994659,-3.3122752e-10,-5.5297705e-10,0.03268201,47
21726496000,21726496000,0.8599219,0.00083548704,-0.0027144756,-0.5104179,0.9994659,-3.3122752e-10,-5.5297705e-10,0.03268201,47
21726500000,21726500000,0.85991716,0.00082052185,-0.0027214957,-0.51042575,0.9994659,-3.3122752e-10,-5.5297705e-10,0.03268201,47
21726504000,21726504000,0.85991544,0.00080799015,-0.0027274266,-0.51042855,0.9994659,-3.3122752e-10,-5.5297705e-10,0.03268201,47
21726512000,21726512000,0.85992503,0.0007985146,-0.0027305793,-0.51041263,0.9994659,-3.3122752e-10,-5.5297705e-10,0.03268201,47
21726516000,21726516000,0.85992765,0.000793702,-0.0027348583,-0.510408,0.9994659,-3.3122752e-10,-5.5297705e-10,0.03268201,47
21726520000,21726520000,0.85992825,0.0007893488,-0.002739343,-0.51040703,0.9994659,-3.3122752e-10,-5.5297705e-10,0.03268201,47
21726528000,21726528000,0.8599281,0.0007952498,-0.0027278147,-0.5104073,0.9994659,-3.3122752e-10,-5.5297705e-10,0.03268201,47
21726536000,21726536000,0.8599361,0.000812227,-0.0027339528,-0.5103938,0.9994659,-3.3122752e-10,-5.5297705e-10,0.03268201,47
21726540000,21726540000,0.85993755,0.00081586564,-0.0027331798,-0.51039135,0.9994659,-3.3122752e-10,-5.5297705e-10,0.03268201,47
21726544000,21726544000,0.8599363,0.00081026496,-0.0027281104,-0.51039344,0.9994659,-3.3122752e-10,-5.5297705e-10,0.03268201,47
21726548000,21726548000,0.8599354,0.00080230186,-0.002725976,-0.51039517,0.9994659,-3.3122752e-10,-5.5297705e-10,0.03268201,47
21726552000,21726552000,0.85993785,0.0007966031,-0.002725169,-0.51039076,0.9994659,-3.3122752e-10,-5.5297705e-10,0.03268201,47
21726560000,21726560000,0.85993814,0.0007982073,-0.0027256468,-0.5103903,0.9994659,-3.3122752e-10,-5.5297705e-10,0.03268201,47
21726564000,21726564000,0.85993886,0.0008055947,-0.0027288538,-0.5103891,0.9994659,-3.3122752e-10,-5.5297705e-10,0.03268201,47
21726568000,21726568000,0.8599385,0.0008060411,-0.0027322478,-0.51038975,0.9994659,-3.3122752e-10,-5.5297705e-10,0.03268201,47
21726572000,21726572000,0.8599354,0.00080030557,-0.002738773,-0.51039493,0.9994659,-3.3122752e-10,-5.5297705e-10,0.03268201,47
21726576000,21726576000,0.8599331,0.000796891,-0.0027515313,-0.51039875,0.9994659,-3.3122752e-10,-5.5297705e-10,0.03268201,47
21726580000,21726580000,0.8599322,0.00080003805,-0.0027626164,-0.51040024,0.9994659,-3.3122752e-10,-5.5297705e-10,0.03268201,47
21726584000,21726584000,0.85993016,0.0007990601,-0.002766813,-0.51040363,0.9994659,-3.3122752e-10,-5.5297705e-10,0.03268201,47
21726588000,21726588000,0.8599309,0.00078810606,-0.0027700562,-0.51040244,0.9994659,-3.3122752e-10,-5.5297705e-10,0.03268201,47
21726592000,21726592000,0.85993326,0.0007784384,-0.0027739753,-0.51039845,0.9994659,-3.3122752e-10,-5.5297705e-10,0.03268201,47
21726596000,21726596000,0.859934,0.0007748049,-0.0027771324,-0.51039726,0.9994659,-3.3122752e-10,-5.5297705e-10,0.03268201,47
21726604000,21726604000,0.8599344,0.0007739859,-0.0027877025,-0.51039654,0.9994659,-3.3122752e-10,-5.5297705e-10,0.03268201,47
21726608000,21726608000,0.8599324,0.0007632553,-0.0027876906,-0.5103998,0.9994659,-3.3122752e-10,-5.5297705e-10,0.03268201,47
21726616000,21726616000,0.85993916,0.0007531536,-0.0027838396,-0.51038855,0.9994659,-3.3122752e-10,-5.5297705e-10,0.03268201,47
21726620000,21726620000,0.85994214,0.0007584087,-0.0027858163,-0.51038355,0.9994659,-3.3122752e-10,-5.5297705e-10,0.03268201,47
21726624000,21726624000,0.8599423,0.00076185534,-0.0027853828,-0.510383,0.9994659,-3.3122752e-10,-5.5297705e-10,0.03268201,47
21726628000,21726628000,0.8599403,0.0007678478,-0.0027796356,-0.5103867,0.9994659,-3.3122752e-10,-5.5297705e-10,0.03268201,47
21726632000,21726632000,0.85994077,0.0007679807,-0.0027709596,-0.5103857,0.9994659,-3.3122752e-10,-5.5297705e-10,0.03268201,47
21726636000,21726636000,0.85994256,0.0007623694,-0.002765693,-0.51038295,0.9994659,-3.3122752e-10,-5.5297705e-10,0.03268201,47
21726644000,21726644000,0.8599353,0.0007482479,-0.002760658,-0.51039517,0.9994659,-3.3122752e-10,-5.5297705e-10,0.03268201,47
21726648000,21726648000,0.85993344,0.0007433195,-0.00275376,-0.51039827,0.9994659,-3.3122752e-10,-5.5297705e-10,0.03268201,47
21726652000,21726652000,0.8599335,0.00073892454,-0.0027459487,-0.51039815,0.9994659,-3.3122752e-10,-5.5297705e-10,0.03268201,47
21726656000,21726656000,0.85993785,0.00073644,-0.0027367298,-0.5103909,0.9994659,-3.3122752e-10,-5.5297705e-10,0.03268201,47
21726660000,21726660000,0.85994416,0.00073513325,-0.0027275998,-0.51038045,0.9994659,-3.3122752e-10,-5.5297705e-10,0.03268201,47
21726668000,21726668000,0.8599533,0.0007356039,-0.0027308266,-0.5103649,0.9994659,-3.3122752e-10,-5.5297705e-10,0.03268201,47
21726672000,21726672000,0.8599545,0.0007357052,-0.0027335146,-0.5103631,0.9994659,-3.3122752e-10,-5.5297705e-10,0.03268201,47
21726676000,21726676000,0.8599517,0.00072952965,-0.0027374143,-0.51036763,0.9994659,-3.3122752e-10,-5.5297705e-10,0.03268201,47
21726684000,21726684000,0.85993487,0.0007212056,-0.0027412295,-0.51039594,0.9994659,-3.3122752e-10,-5.5297705e-10,0.03268201,47
21726688000,21726688000,0.85993135,0.0007245152,-0.002747535,-0.51040184,0.9994659,-3.3122752e-10,-5.5297705e-10,0.03268201,47
21726692000,21726692000,0.8599322,0.0007246808,-0.0027507555,-0.5104004,0.9994659,-3.3122752e-10,-5.5297705e-10,0.03268201,47
21726696000,21726696000,0.8599304,0.00072669785,-0.0027519227,-0.51040345,0.9994659,-3.3122752e-10,-5.5297705e-10,0.03268201,47
21726700000,21726700000,0.85992616,0.00072862185,-0.002754279,-0.5104106,0.9994659,-3.3122752e-10,-5.5297705e-10,0.03268201,47
21726704000,21726704000,0.8599233,0.00072792557,-0.0027556543,-0.51041543,0.9994659,-3.3122752e-10,-5.5297705e-10,0.03268201,47
21726708000,21726708000,0.85992396,0.0007260075,-0.002753843,-0.5104143,0.9994659,-3.3122752e-10,-5.5297705e-10,0.03268201,47
21726716000,21726716000,0.85993236,0.0007263325,-0.002750152,-0.5104001,0.9994659,-3.3122752e-10,-5.5297705e-10,0.03268201,47
21726720000,21726720000,0.8599337,0.00072957185,-0.002738308,-0.51039803,0.9994659,-3.3122752e-10,-5.5297705e-10,0.03268201,47
21726724000,21726724000,0.859936,0.0007373001,-0.002730372,-0.51039416,0.9994659,-3.3122752e-10,-5.5297705e-10,0.03268201,47
21726728000,21726728000,0.85993904,0.00074961176,-0.0027344096,-0.510389,0.9994659,-3.3122752e-10,-5.5297705e-10,0.03268201,47
21726732000,21726732000,0.8599388,0.00075830636,-0.0027424793,-0.51038927,0.9994659,-3.3122752e-10,-5.5297705e-10,0.03268201,47
21726736000,21726736000,0.8599385,0.0007607388,-0.0027474167,-0.51038957,0.9994659,-3.3122752e-10,-5.5297705e-10,0.03268201,47
21726740000,21726740000,0.85994357,0.0007602241,-0.002753107,-0.5103813,0.9994659,-3.3122752e-10,-5.5297705e-10,0.03268201,47
21726744000,21726744000,0.85994923,0.00075466407,-0.0027619696,-0.5103715,0.9994659,-3.3122752e-10,-5.5297705e-10,0.03268201,47
21726748000,21726748000,0.8599502,0.0007430906,-0.0027684793,-0.5103701,0.9994659,-3.3122752e-10,-5.5297705e-10,0.03268201,47
21726752000,21726752000,0.8599491,0.0007359638,-0.002772637,-0.51037186,0.9994659,-3.3122752e-10,-5.5297705e-10,0.03268201,47
21726756000,21726756000,0.8599489,0.0007354722,-0.0027708267,-0.5103723,0.9994659,-3.3122752e-10,-5.5297705e-10,0.03268201,47
21726760000,21726760000,0.8599497,0.00073401845,-0.0027653298,-0.51037085,0.9994659,-3.3122752e-10,-5.5297705e-10,0.03268201,47
21726764000,21726764000,0.8599516,0.0007302985,-0.0027646867,-0.5103676,0.9994659,-3.3122752e-10,-5.5297705e-10,0.03268201,47
21726772000,21726772000,0.859953,0.00072670827,-0.0027724463,-0.51036525,0.9994659,-3.3122752e-10,-5.5297705e-10,0.03268201,47
21726776000,21726776000,0.8599507,0.000726235,-0.002786061,-0.51036894,0.9994659,-3.3122752e-10,-5.5297705e-10,0.03268201,47
21726780000,21726780000,0.8599488,0.0007247286,-0.002794109,-0.51037216,0.9994659,-3.3122752e-10,-5.5297705e-10,0.03268201,47
21726784000,21726784000,0.85995096,0.00072599103,-0.0028014185,-0.5103685,0.9994659,-3.3122752e-10,-5.5297705e-10,0.03268201,47
21726788000,21726788000,0.85995144,0.00072518823,-0.0028143078,-0.51036763,0.9994659,-3.3122752e-10,-5.5297705e-10,0.03268201,47
21726792000,21726792000,0.85994834,0.0007207302,-0.0028300455,-0.51037276,0.9994659,-3.3122752e-10,-5.5297705e-10,0.03268201,47
21726796000,21726796000,0.8599447,0.0007160034,-0.0028462403,-0.5103788,0.9994659,-3.3122752e-10,-5.5297705e-10,0.03268201,47
21726800000,21726800000,0.85994256,0.00071785646,-0.0028521826,-0.5103824,0.9994659,-3.3122752e-10,-5.5297705e-10,0.03268201,47
21726804000,21726804000,0.8599429,0.0007316012,-0.0028453742,-0.5103819,0.9994659,-3.3122752e-10,-5.5297705e-10,0.03268201,47
21726808000,21726808000,0.8599437,0.000746238,-0.0028410398,-0.51038045,0.9994659,-3.3122752e-10,-5.5297705e-10,0.03268201,47
21726812000,21726812000,0.8599437,0.00075323804,-0.0028433178,-0.51038045,0.9994659,-3.3122752e-10,-5.5297705e-10,0.03268201,47
21726816000,21726816000,0.8599451,0.0007496918,-0.0028443842,-0.51037824,0.9994659,-3.3122752e-10,-5.5297705e-10,0.03268201,47
21726820000,21726820000,0.8599469,0.0007417333,-0.0028403567,-0.510375,0.9994659,-3.3122752e-10,-5.5297705e-10,0.03268201,47
21726828000,21726828000,0.8599455,0.00074701966,-0.0028369941,-0.51037747,0.9994659,-3.3122752e-10,-5.5297705e-10,0.03268201,47
21726832000,21726832000,0.8599447,0.000759159,-0.002839489,-0.51037896,0.9994659,-3.3122752e-10,-5.5297705e-10,0.03268201,47
21726836000,21726836000,0.85994476,0.00076460774,-0.0028386372,-0.5103786,0.9994659,-3.3122752e-10,-5.5297705e-10,0.03268201,47
21726840000,21726840000,0.8599434,0.0007631663,-0.0028325408,-0.5103811,0.9994659,-3.3122752e-10,-5.5297705e-10,0.03268201,47
21726844000,21726844000,0.85993975,0.0007611634,-0.0028211453,-0.51038724,0.9994659,-3.3122752e-10,-5.5297705e-10,0.03268201,47
21726848000,21726848000,0.85993826,0.0007630569,-0.0028103061,-0.51038975,0.9994659,-3.3122752e-10,-5.5297705e-10,0.03268201,47
21726852000,21726852000,0.8599382,0.0007742749,-0.0028025303,-0.51039,0.9994659,-3.3122752e-10,-5.5297705e-10,0.03268201,47
21726856000,21726856000,0.85994214,0.0007852874,-0.0027990807,-0.51038337,0.9994659,-3.3122752e-10,-5.5297705e-10,0.03268201,47
21726864000,21726864000,0.85995644,0.00079092174,-0.0027955845,-0.5103592,0.9994659,-3.3122752e-10,-5.5297705e-10,0.03268201,47
21726872000,21726872000,0.8599525,0.0007746141,-0.0027934075,-0.5103659,0.9994659,-3.3122752e-10,-5.5297705e-10,0.03268201,47
21726876000,21726876000,0.8599528,0.0007714765,-0.0027947328,-0.51036537,0.9994659,-3.3122752e-10,-5.5297705e-10,0.03268201,47
21726884000,21726884000,0.85995173,0.00078765413,-0.002794769,-0.51036716,0.9994659,-3.3122752e-10,-5.5297705e-10,0.03268201,47
21726892000,21726892000,0.8599509,0.00078389404,-0.0027905689,-0.5103686,0.9994659,-3.3122752e-10,-5.5297705e-10,0.03268201,47
21726896000,21726896000,0.8599515,0.0007892214,-0.0027866347,-0.5103678,0.9994659,-3.3122752e-10,-5.5297705e-10,0.03268201,47
21726904000,21726904000,0.8599607,0.0007748531,-0.0027647752,-0.51035243,0.9994659,-3.3122752e-10,-5.5297705e-10,0.03268201,47
21726908000,21726908000,0.8599657,0.0007673252,-0.0027503364,-0.5103438,0.9994659,-3.3122752e-10,-5.5297705e-10,0.03268201,47
21726916000,21726916000,0.8599722,0.0007591738,-0.0027399217,-0.5103331,0.9994659,-3.3122752e-10,-5.5297705e-10,0.03268201,47
21726920000,21726920000,0.8599713,0.0007675678,-0.0027350364,-0.5103347,0.9994659,-3.3122752e-10,-5.5297705e-10,0.03268201,47
21726924000,21726924000,0.8599698,0.0007782247,-0.002725298,-0.51033705,0.9994659,-3.3122752e-10,-5.5297705e-10,0.03268201,47
21726932000,21726932000,0.859969,0.00077653467,-0.0027183127,-0.51033837,0.9994659,-3.3122752e-10,-5.5297705e-10,0.03268201,47
21726940000,21726940000,0.85996634,0.00078245753,-0.0027202815,-0.51034296,0.9994659,-3.3122752e-10,-5.5297705e-10,0.03268201,47
21726944000,21726944000,0.8599636,0.0007938097,-0.002718549,-0.51034755,0.9994659,-3.3122752e-10,-5.5297705e-10,0.03268201,47
21726948000,21726948000,0.85996115,0.00080322765,-0.002713812,-0.5103517,0.9994659,-3.3122752e-10,-5.5297705e-10,0.03268201,47
21726952000,21726952000,0.8599581,0.0008154368,-0.002709536,-0.5103568,0.9994659,-3.3122752e-10,-5.5297705e-10,0.03268201,47
21726956000,21726956000,0.8599552,0.0008282048,-0.0027074497,-0.5103619,0.9994659,-3.3122752e-10,-5.5297705e-10,0.03268201,47
21726960000,21726960000,0.85995203,0.0008326317,-0.0027078865,-0.510367,0.9994659,-3.3122752e-10,-5.5297705e-10,0.03268201,47
21726964000,21726964000,0.8599493,0.00082994474,-0.0027109159,-0.5103716,0.9994659,-3.3122752e-10,-5.5297705e-10,0.03268201,47
21726968000,21726968000,0.85994595,0.00082912814,-0.002710754,-0.5103772,0.9994659,-3.3122752e-10,-5.5297705e-10,0.03268201,47
21726972000,21726972000,0.8599433,0.0008332318,-0.0027085603,-0.510382,0.9994659,-3.3122752e-10,-5.5297705e-10,0.03268201,47
21726976000,21726976000,0.85994333,0.0008338403,-0.002711152,-0.5103816,0.9994659,-3.3122752e-10,-5.5297705e-10,0.03268201,47
21726980000,21726980000,0.85994637,0.0008274225,-0.002718258,-0.51037675,0.9994659,-3.3122752e-10,-5.5297705e-10,0.03268201,47
21726984000,21726984000,0.85994995,0.00082143117,-0.0027256499,-0.51037043,0.9994659,-3.3122752e-10,-5.5297705e-10,0.03268201,47
21726992000,21726992000,0.85995036,0.0008254961,-0.0027319815,-0.51036984,0.9994659,-3.3122752e-10,-5.5297705e-10,0.03268201,47
21726996000,21726996000,0.85994756,0.0008261465,-0.0027321542,-0.5103746,0.9994659,-3.3122752e-10,-5.5297705e-10,0.03268201,47
21727000000,21727000000,0.85994816,0.0008257172,-0.0027255248,-0.51037335,0.9994659,-3.3122752e-10,-5.5297705e-10,0.03268201,47
21727004000,21727004000,0.8599536,0.00082351686,-0.0027166284,-0.5103644,0.9994659,-3.3122752e-10,-5.5297705e-10,0.03268201,47
21727008000,21727008000,0.859959,0.0008139213,-0.0027126458,-0.5103555,0.9994659,-3.3122752e-10,-5.5297705e-10,0.03268201,47
21727012000,21727012000,0.85996205,0.0008042663,-0.002712953,-0.5103501,0.9994659,-3.3122752e-10,-5.5297705e-10,0.03268201,47
21727016000,21727016000,0.85996383,0.00080182083,-0.0027144477,-0.5103471,0.9994659,-3.3122752e-10,-5.5297705e-10,0.03268201,47
21727020000,21727020000,0.85996425,0.0008021309,-0.0027175713,-0.5103464,0.9994659,-3.3122752e-10,-5.5297705e-10,0.03268201,47
21727024000,21727024000,0.85996413,0.0008018803,-0.0027203662,-0.51034665,0.9994659,-3.3122752e-10,-5.5297705e-10,0.03268201,47
21727032000,21727032000,0.8599685,0.0007996206,-0.0027286548,-0.51033926,0.9994659,-3.3122752e-10,-5.5297705e-10,0.03268201,47
21727036000,21727036000,0.85997266,0.00079920323,-0.0027419045,-0.51033217,0.9994659,-3.3122752e-10,-5.5297705e-10,0.03268201,47
21727040000,21727040000,0.85997856,0.0007997235,-0.002763772,-0.5103223,0.9994659,-3.3122752e-10,-5.5297705e-10,0.03268201,47
21727044000,21727044000,0.859984,0.0007931326,-0.002788231,-0.5103128,0.9994659,-3.3122752e-10,-5.5297705e-10,0.03268201,47
21727048000,21727048000,0.8599872,0.000780814,-0.0027981312,-0.51030755,0.9994659,-3.3122752e-10,-5.5297705e-10,0.03268201,47
21727052000,21727052000,0.8599875,0.0007693807,-0.0027992534,-0.5103068,0.9994659,-3.3122752e-10,-5.5297705e-10,0.03268201,47
21727056000,21727056000,0.8599875,0.00076343614,-0.0028023892,-0.510307,0.9994659,-3.3122752e-10,-5.5297705e-10,0.03268201,47
21727060000,21727060000,0.85999,0.0007662499,-0.0028063995,-0.51030254,0.9994659,-3.3122752e-10,-5.5297705e-10,0.03268201,47
21727064000,21727064000,0.8599921,0.00077236403,-0.0028129811,-0.5102991,0.9994659,-3.3122752e-10,-5.5297705e-10,0.03268201,47
21727068000,21727068000,0.8599874,0.0007783998,-0.002814529,-0.5103071,0.9994659,-3.3122752e-10,-5.5297705e-10,0.03268201,47
21727072000,21727072000,0.8599829,0.0007819491,-0.0028127397,-0.5103146,0.9994659,-3.3122752e-10,-5.5297705e-10,0.03268201,47
21727076000,21727076000,0.85998523,0.0007828284,-0.002814353,-0.51031065,0.9994659,-3.3122752e-10,-5.5297705e-10,0.03268201,47
21727080000,21727080000,0.85998946,0.00078596995,-0.0028129765,-0.5103035,0.9994659,-3.3122752e-10,-5.5297705e-10,0.03268201,47
21727084000,21727084000,0.85999125,0.00079155597,-0.0028043678,-0.51030046,0.9994659,-3.3122752e-10,-5.5297705e-10,0.03268201,47
21727088000,21727088000,0.85999095,0.0007942381,-0.0027952571,-0.510301,0.9994659,-3.3122752e-10,-5.5297705e-10,0.03268201,47
21727092000,21727092000,0.8599924,0.00079309114,-0.0027894564,-0.51029885,0.9994659,-3.3122752e-10,-5.5297705e-10,0.03268201,47
21727096000,21727096000,0.8599947,0.0007864652,-0.0027822598,-0.51029474,0.9994659,-3.3122752e-10,-5.5297705e-10,0.03268201,47
21727100000,21727100000,0.8599959,0.00077791384,-0.0027720567,-0.51029307,0.9994659,-3.3122752e-10,-5.5297705e-10,0.03268201,47
21727104000,21727104000,0.8599947,0.00077807636,-0.00276267,-0.51029485,0.9994659,-3.3122752e-10,-5.5297705e-10,0.03268201,47
21727108000,21727108000,0.8599921,0.0007782784,-0.0027594927,-0.5102995,0.9994659,-3.3122752e-10,-5.5297705e-10,0.03268201,47
21727112000,21727112000,0.85999143,0.000772346,-0.002762348,-0.51030034,0.9994659,-3.3122752e-10,-5.5297705e-10,0.03268201,47
21727116000,21727116000,0.85999316,0.000770458,-0.0027719403,-0.51029766,0.9994659,-3.3122752e-10,-5.5297705e-10,0.03268201,47
21727120000,21727120000,0.8599957,0.0007660415,-0.0027825064,-0.510293,0.9994659,-3.3122752e-10,-5.5297705e-10,0.03268201,47
21727124000,21727124000,0.8600013,0.0007555397,-0.00278452,-0.5102839,0.9994659,-3.3122752e-10,-5.5297705e-10,0.03268201,47
21727128000,21727128000,0.8600064,0.00075399794,-0.002780692,-0.51027507,0.9994659,-3.3122752e-10,-5.5297705e-10,0.03268201,47
21727136000,21727136000,0.86000824,0.00077491987,-0.00275131,-0.51027215,0.9994659,-3.3122752e-10,-5.5297705e-10,0.03268201,47
21727140000,21727140000,0.86000615,0.00078228104,-0.0027397159,-0.5102757,0.9994659,-3.3122752e-10,-5.5297705e-10,0.03268201,47
21727144000,21727144000,0.8600027,0.0007806893,-0.002735801,-0.51028156,0.9994659,-3.3122752e-10,-5.5297705e-10,0.03268201,47
21727152000,21727152000,0.86000454,0.0007780715,-0.0027122374,-0.5102785,0.9994659,-3.3122752e-10,-5.5297705e-10,0.03268201,47
21727156000,21727156000,0.86000836,0.0007835834,-0.002701415,-0.51027244,0.9994659,-3.3122752e-10,-5.5297705e-10,0.03268201,47
21727164000,21727164000,0.86000746,0.0008076091,-0.002694252,-0.5102738,0.9994659,-3.3122752e-10,-5.5297705e-10,0.03268201,47
21727168000,21727168000,0.86000717,0.0008125546,-0.0026904962,-0.5102743,0.9994659,-3.3122752e-10,-5.5297705e-10,0.03268201,47
21727172000,21727172000,0.86000717,0.000812576,-0.0026887746,-0.5102743,0.9994659,-3.3122752e-10,-5.5297705e-10,0.03268201,47
21727176000,21727176000,0.86000717,0.00080839155,-0.0026919825,-0.5102743,0.9994659,-3.3122752e-10,-5.5297705e-10,0.03268201,47
21727180000,21727180000,0.8600087,0.0008025524,-0.0026948354,-0.5102715,0.9994659,-3.3122752e-10,-5.5297705e-10,0.03268201,47
21727188000,21727188000,0.8600056,0.000797942,-0.0026916855,-0.510277,0.9994659,-3.3122752e-10,-5.5297705e-10,0.03268201,47
21727192000,21727192000,0.86000484,0.00079408934,-0.0026963118,-0.5102783,0.9994659,-3.3122752e-10,-5.5297705e-10,0.03268201,47
21727196000,21727196000,0.8600078,0.0007901616,-0.0027083433,-0.51027316,0.9994659,-3.3122752e-10,-5.5297705e-10,0.03268201,47
21727200000,21727200000,0.8600095,0.00078931946,-0.0027140926,-0.5102703,0.9994659,-3.3122752e-10,-5.5297705e-10,0.03268201,47
21727204000,21727204000,0.86000925,0.00079110457,-0.0027133408,-0.51027066,0.9994659,-3.3122752e-10,-5.5297705e-10,0.03268201,47
21727208000,21727208000,0.8600109,0.00079463253,-0.0027148153,-0.5102678,0.9994659,-3.3122752e-10,-5.5297705e-10,0.03268201,47
21727212000,21727212000,0.86001235,0.00079653127,-0.0027190382,-0.5102654,0.9994659,-3.3122752e-10,-5.5297705e-10,0.03268201,47
21727216000,21727216000,0.8600108,0.0007927871,-0.0027223215,-0.51026803,0.9994659,-3.3122752e-10,-5.5297705e-10,0.03268201,47
21727220000,21727220000,0.86000896,0.00078510813,-0.002723888,-0.51027113,0.9994659,-3.3122752e-10,-5.5297705e-10,0.03268201,47
21727228000,21727228000,0.86000997,0.00077969505,-0.002724784,-0.5102694,0.9994659,-3.3122752e-10,-5.5297705e-10,0.03268201,47
21727232000,21727232000,0.86000776,0.0007849933,-0.0027221749,-0.51027316,0.9994659,-3.3122752e-10,-5.5297705e-10,0.03268201,47
21727236000,21727236000,0.86000687,0.00078928267,-0.0027202119,-0.51027465,0.9994659,-3.3122752e-10,-5.5297705e-10,0.03268201,47
21727240000,21727240000,0.8600038,0.0007893382,-0.0027243437,-0.5102798,0.9994659,-3.3122752e-10,-5.5297705e-10,0.03268201,47
21727244000,21727244000,0.85999775,0.00078699406,-0.0027388048,-0.5102899,0.9994659,-3.3122752e-10,-5.5297705e-10,0.03268201,47
21727248000,21727248000,0.8599939,0.00078328204,-0.0027524116,-0.51029634,0.9994659,-3.3122752e-10,-5.5297705e-10,0.03268201,47
21727252000,21727252000,0.8599939,0.0007767405,-0.002751971,-0.51029634,0.9994659,-3.3122752e-10,-5.5297705e-10,0.03268201,47
21727256000,21727256000,0.8599948,0.00077227276,-0.0027428023,-0.51029503,0.9994659,-3.3122752e-10,-5.5297705e-10,0.03268201,47
21727260000,21727260000,0.8599945,0.00077579916,-0.0027420877,-0.5102954,0.9994659,-3.3122752e-10,-5.5297705e-10,0.03268201,47
21727264000,21727264000,0.8599926,0.0007834228,-0.0027511765,-0.5102985,0.9994659,-3.3122752e-10,-5.5297705e-10,0.03268201,47
21727268000,21727268000,0.8599878,0.0007883997,-0.0027574422,-0.51030666,0.9994659,-3.3122752e-10,-5.5297705e-10,0.03268201,47
21727272000,21727272000,0.85998243,0.0007879051,-0.0027604064,-0.5103157,0.9994659,-3.3122752e-10,-5.5297705e-10,0.03268201,47
21727276000,21727276000,0.85997677,0.0007838483,-0.0027631135,-0.5103252,0.9994659,-3.3122752e-10,-5.5297705e-10,0.03268201,47
21727280000,21727280000,0.8599714,0.000778424,-0.0027618618,-0.5103342,0.9994659,-3.3122752e-10,-5.5297705e-10,0.03268201,47
21727284000,21727284000,0.8599693,0.0007731532,-0.0027582392,-0.5103377,0.9994659,-3.3122752e-10,-5.5297705e-10,0.03268201,47
21727288000,21727288000,0.8599705,0.00077411433,-0.002757662,-0.5103357,0.9994659,-3.3122752e-10,-5.5297705e-10,0.03268201,47
21727296000,21727296000,0.85997653,0.0007809679,-0.0027742693,-0.5103256,0.9994659,-3.3122752e-10,-5.5297705e-10,0.03268201,47
21727300000,21727300000,0.85997933,0.0007714831,-0.0027829388,-0.5103208,0.9994659,-3.3122752e-10,-5.5297705e-10,0.03268201,47
21727304000,21727304000,0.85998106,0.0007655598,-0.0027856217,-0.51031786,0.9994659,-3.3122752e-10,-5.5297705e-10,0.03268201,47
21727312000,21727312000,0.85998076,0.0007731047,-0.0027875714,-0.51031834,0.9994659,-3.3122752e-10,-5.5297705e-10,0.03268201,47
21727316000,21727316000,0.8599795,0.00077848457,-0.0027962874,-0.5103204,0.9994659,-3.3122752e-10,-5.5297705e-10,0.03268201,47
21727324000,21727324000,0.8599768,0.0007868625,-0.0027984092,-0.5103249,0.9994659,-3.3122752e-10,-5.5297705e-10,0.03268201,47
21727328000,21727328000,0.8599765,0.0007926717,-0.002801946,-0.5103255,0.9994659,-3.3122752e-10,-5.5297705e-10,0.03268201,47
21727336000,21727336000,0.8599731,0.0007936891,-0.0028008244,-0.51033115,0.9994659,-3.3122752e-10,-5.5297705e-10,0.03268201,47
21727340000,21727340000,0.85997194,0.0007962862,-0.0027962248,-0.51033306,0.9994659,-3.3122752e-10,-5.5297705e-10,0.03268201,47
21727344000,21727344000,0.85996974,0.0008034031,-0.0027955112,-0.51033676,0.9994659,-3.3122752e-10,-5.5297705e-10,0.03268201,47
21727352000,21727352000,0.8599675,0.0008084416,-0.0027991394,-0.51034045,0.9994659,-3.3122752e-10,-5.5297705e-10,0.03268201,47
21727356000,21727356000,0.8599656,0.0008003183,-0.0027980267,-0.5103437,0.9994659,-3.3122752e-10,-5.5297705e-10,0.03268201,47
21727360000,21727360000,0.8599633,0.0007979834,-0.0027997026,-0.5103478,0.9994659,-3.3122752e-10,-5.5297705e-10,0.03268201,47
21727364000,21727364000,0.8599589,0.0007975058,-0.0028055683,-0.510355,0.9994659,-3.3122752e-10,-5.5297705e-10,0.03268201,47
21727372000,21727372000,0.85995686,0.00077043776,-0.002818503,-0.51035833,0.9994659,-3.3122752e-10,-5.5297705e-10,0.03268201,47
21727376000,21727376000,0.8599609,0.0007555645,-0.0028151996,-0.51035154,0.9994659,-3.3122752e-10,-5.5297705e-10,0.03268201,47
21727380000,21727380000,0.85996175,0.00074773614,-0.002810487,-0.51035017,0.9994659,-3.3122752e-10,-5.5297705e-10,0.03268201,47
21727384000,21727384000,0.8599577,0.0007456158,-0.0028066444,-0.510357,0.9994659,-3.3122752e-10,-5.5297705e-10,0.03268201,47
21727392000,21727392000,0.85995215,0.0007477159,-0.0028070544,-0.5103666,0.9994659,-3.3122752e-10,-5.5297705e-10,0.03268201,47
21727400000,21727400000,0.85995513,0.00075056567,-0.0028165933,-0.5103613,0.9994659,-3.3122752e-10,-5.5297705e-10,0.03268201,47
21727404000,21727404000,0.85995984,0.0007549894,-0.002811073,-0.51035345,0.9994659,-3.3122752e-10,-5.5297705e-10,0.03268201,47
21727408000,21727408000,0.8599637,0.0007568287,-0.0028107755,-0.5103469,0.9994659,-3.3122752e-10,-5.5297705e-10,0.03268201,47
21727412000,21727412000,0.8599657,0.0007567757,-0.0028136815,-0.51034355,0.9994659,-3.3122752e-10,-5.5297705e-10,0.03268201,47
21727416000,21727416000,0.8599669,0.0007551947,-0.002813768,-0.5103415,0.9994659,-3.3122752e-10,-5.5297705e-10,0.03268201,47
21727420000,21727420000,0.8599675,0.00074860814,-0.002817075,-0.51034045,0.9994659,-3.3122752e-10,-5.5297705e-10,0.03268201,47
21727424000,21727424000,0.85996795,0.0007403484,-0.0028261517,-0.51033986,0.9994659,-3.3122752e-10,-5.5297705e-10,0.03268201,47
21727432000,21727432000,0.85996616,0.0007364471,-0.002837488,-0.5103426,0.9994659,-3.3122752e-10,-5.5297705e-10,0.03268201,47
21727436000,21727436000,0.8599617,0.0007467438,-0.0028370668,-0.51035017,0.9994659,-3.3122752e-10,-5.5297705e-10,0.03268201,47
21727440000,21727440000,0.8599607,0.0007575891,-0.002834465,-0.51035184,0.9994659,-3.3122752e-10,-5.5297705e-10,0.03268201,47
21727444000,21727444000,0.8599598,0.0007576877,-0.002838492,-0.51035357,0.9994659,-3.3122752e-10,-5.5297705e-10,0.03268201,47
21727452000,21727452000,0.8599539,0.0007536607,-0.0028439332,-0.5103633,0.9994659,-3.3122752e-10,-5.5297705e-10,0.03268201,47
21727460000,21727460000,0.85995036,0.0007389472,-0.0028398586,-0.5103695,0.9994659,-3.3122752e-10,-5.5297705e-10,0.03268201,47
21727464000,21727464000,0.8599517,0.0007412058,-0.0028407134,-0.510367,0.9994659,-3.3122752e-10,-5.5297705e-10,0.03268201,47
21727468000,21727468000,0.8599545,0.00074622023,-0.002846307,-0.51036227,0.9994659,-3.3122752e-10,-5.5297705e-10,0.03268201,47
21727472000,21727472000,0.85995644,0.0007456231,-0.0028559566,-0.5103589,0.9994659,-3.3122752e-10,-5.5297705e-10,0.03268201,47
21727476000,21727476000,0.85995895,0.000742189,-0.0028651643,-0.5103547,0.9994659,-3.3122752e-10,-5.5297705e-10,0.03268201,47
21727480000,21727480000,0.8599604,0.0007457085,-0.0028697809,-0.5103523,0.9994659,-3.3122752e-10,-5.5297705e-10,0.03268201,47
21727484000,21727484000,0.8599577,0.0007539726,-0.0028685224,-0.5103568,0.9994659,-3.3122752e-10,-5.5297705e-10,0.03268201,47
21727488000,21727488000,0.85995394,0.0007610755,-0.0028659098,-0.51036316,0.9994659,-3.3122752e-10,-5.5297705e-10,0.03268201,47
21727492000,21727492000,0.8599495,0.0007681963,-0.0028664018,-0.5103704,0.9994659,-3.3122752e-10,-5.5297705e-10,0.03268201,47
21727496000,21727496000,0.85994285,0.0007755407,-0.0028663578,-0.5103819,0.9994659,-3.3122752e-10,-5.5297705e-10,0.03268201,47
21727500000,21727500000,0.8599387,0.000785804,-0.0028686784,-0.5103887,0.9994659,-3.3122752e-10,-5.5297705e-10,0.03268201,47
21727504000,21727504000,0.8599398,0.0007974821,-0.0028767718,-0.51038677,0.9994659,-3.3122752e-10,-5.5297705e-10,0.03268201,47
21727508000,21727508000,0.8599382,0.000802763,-0.002881055,-0.5103895,0.9994659,-3.3122752e-10,-5.5297705e-10,0.03268201,47
21727512000,21727512000,0.85993546,0.0008049292,-0.0028747802,-0.5103941,0.9994659,-3.3122752e-10,-5.5297705e-10,0.03268201,47
21727516000,21727516000,0.8599377,0.00080822606,-0.002862387,-0.5103904,0.9994659,-3.3122752e-10,-5.5297705e-10,0.03268201,47
21727520000,21727520000,0.8599445,0.000807623,-0.0028532457,-0.51037896,0.9994659,-3.3122752e-10,-5.5297705e-10,0.03268201,47
21727524000,21727524000,0.85995483,0.0008073018,-0.0028498634,-0.51036155,0.9994659,-3.3122752e-10,-5.5297705e-10,0.03268201,47
21727528000,21727528000,0.8599676,0.00081213785,-0.0028452228,-0.5103401,0.9994659,-3.3122752e-10,-5.5297705e-10,0.03268201,47
21727536000,21727536000,0.85998,0.00081496645,-0.0028547056,-0.5103192,0.9994659,-3.3122752e-10,-5.5297705e-10,0.03268201,47
21727540000,21727540000,0.85997915,0.00081263925,-0.0028568693,-0.5103206,0.9994659,-3.3122752e-10,-5.5297705e-10,0.03268201,47
21727544000,21727544000,0.859981,0.00081370125,-0.002854221,-0.5103175,0.9994659,-3.3122752e-10,-5.5297705e-10,0.03268201,47
21727548000,21727548000,0.8599858,0.00082168775,-0.002851361,-0.51030934,0.9994659,-3.3122752e-10,-5.5297705e-10,0.03268201,47
21727556000,21727556000,0.85999006,0.00082948094,-0.0028456713,-0.5103023,0.9994659,-3.3122752e-10,-5.5297705e-10,0.03268201,47
21727564000,21727564000,0.85999066,0.00083232694,-0.0028481374,-0.5103013,0.9994659,-3.3122752e-10,-5.5297705e-10,0.03268201,47
21727572000,21727572000,0.8599909,0.0008298013,-0.002867818,-0.51030076,0.9994659,-3.3122752e-10,-5.5297705e-10,0.03268201,47
21727576000,21727576000,0.8599888,0.00082449056,-0.0028755392,-0.51030403,0.9994659,-3.3122752e-10,-5.5297705e-10,0.03268201,47
21727584000,21727584000,0.85998845,0.000823008,-0.0028827833,-0.51030487,0.9994659,-3.3122752e-10,-5.5297705e-10,0.03268201,47
21727588000,21727588000,0.85999095,0.0008212323,-0.0028771276,-0.5103004,0.9994659,-3.3122752e-10,-5.5297705e-10,0.03268201,47
21727592000,21727592000,0.85999197,0.0008239208,-0.0028722433,-0.5102989,0.9994659,-3.3122752e-10,-5.5297705e-10,0.03268201,47
21727596000,21727596000,0.8599925,0.00082813104,-0.0028794084,-0.5102978,0.9994659,-3.3122752e-10,-5.5297705e-10,0.03268201,47
21727604000,21727604000,0.8599967,0.00082352373,-0.002894675,-0.5102908,0.9994659,-3.3122752e-10,-5.5297705e-10,0.03268201,47
21727608000,21727608000,0.8599988,0.000821627,-0.0028963487,-0.51028717,0.9994659,-3.3122752e-10,-5.5297705e-10,0.03268201,47
21727612000,21727612000,0.8600012,0.0008285174,-0.002901999,-0.5102831,0.9994659,-3.3122752e-10,-5.5297705e-10,0.03268201,47
21727616000,21727616000,0.860003,0.0008429284,-0.0029083847,-0.51028,0.9994659,-3.3122752e-10,-5.5297705e-10,0.03268201,47
21727620000,21727620000,0.8600018,0.0008517589,-0.0029095858,-0.51028204,0.9994659,-3.3122752e-10,-5.5297705e-10,0.03268201,47
21727628000,21727628000,0.85999703,0.0008410927,-0.0029155924,-0.5102899,0.9994659,-3.3122752e-10,-5.5297705e-10,0.03268201,47
21727632000,21727632000,0.86000127,0.00083605153,-0.0029147703,-0.510283,0.9994659,-3.3122752e-10,-5.5297705e-10,0.03268201,47
21727636000,21727636000,0.86000514,0.0008313538,-0.0029091958,-0.5102765,0.9994659,-3.3122752e-10,-5.5297705e-10,0.03268201,47
21727640000,21727640000,0.8600059,0.00082397927,-0.0029069677,-0.5102752,0.9994659,-3.3122752e-10,-5.5297705e-10,0.03268201,47
21727644000,21727644000,0.86000454,0.0008183791,-0.0029101167,-0.5102775,0.9994659,-3.3122752e-10,-5.5297705e-10,0.03268201,47
21727648000,21727648000,0.86000025,0.0008143734,-0.0029135817,-0.5102847,0.9994659,-3.3122752e-10,-5.5297705e-10,0.03268201,47
21727656000,21727656000,0.85999656,0.0007965562,-0.0029128564,-0.510291,0.9994659,-3.3122752e-10,-5.5297705e-10,0.03268201,47
21727660000,21727660000,0.8599892,0.0007774943,-0.0029092277,-0.5103034,0.9994659,-3.3122752e-10,-5.5297705e-10,0.03268201,47
21727668000,21727668000,0.85998386,0.00074964337,-0.0029260688,-0.51031226,0.9994659,-3.3122752e-10,-5.5297705e-10,0.03268201,47
21727672000,21727672000,0.8599846,0.0007494756,-0.0029330684,-0.51031107,0.9994659,-3.3122752e-10,-5.5297705e-10,0.03268201,47
21727676000,21727676000,0.85998756,0.0007453139,-0.0029290377,-0.51030624,0.9994659,-3.3122752e-10,-5.5297705e-10,0.03268201,47
21727680000,21727680000,0.8599942,0.0007448264,-0.002925966,-0.51029503,0.9994659,-3.3122752e-10,-5.5297705e-10,0.03268201,47
21727684000,21727684000,0.85999936,0.0007532815,-0.0029381027,-0.51028603,0.9994659,-3.3122752e-10,-5.5297705e-10,0.03268201,47
21727688000,21727688000,0.8600016,0.00075414625,-0.002955631,-0.51028234,0.9994659,-3.3122752e-10,-5.5297705e-10,0.03268201,47
21727692000,21727692000,0.8599994,0.0007516434,-0.0029705197,-0.5102859,0.9994659,-3.3122752e-10,-5.5297705e-10,0.03268201,47
21727696000,21727696000,0.85999507,0.0007600493,-0.0029825806,-0.5102932,0.9994659,-3.3122752e-10,-5.5297705e-10,0.03268201,47
21727700000,21727700000,0.85999507,0.0007702869,-0.0029821242,-0.5102932,0.9994659,-3.3122752e-10,-5.5297705e-10,0.03268201,47
21727704000,21727704000,0.8599972,0.000770829,-0.0029728294,-0.5102896,0.9994659,-3.3122752e-10,-5.5297705e-10,0.03268201,47
21727708000,21727708000,0.859998,0.00076190603,-0.0029690596,-0.5102883,0.9994659,-3.3122752e-10,-5.5297705e-10,0.03268201,47
21727712000,21727712000,0.859999,0.00075339456,-0.002965536,-0.5102866,0.9994659,-3.3122752e-10,-5.5297705e-10,0.03268201,47
21727716000,21727716000,0.86000246,0.0007483167,-0.002957249,-0.51028085,0.9994659,-3.3122752e-10,-5.5297705e-10,0.03268201,47
21727720000,21727720000,0.8600071,0.00073909643,-0.0029527056,-0.51027304,0.9994659,-3.3122752e-10,-5.5297705e-10,0.03268201,47
21727724000,21727724000,0.8600107,0.00072825165,-0.002950909,-0.5102671,0.9994659,-3.3122752e-10,-5.5297705e-10,0.03268201,47
21727732000,21727732000,0.86001503,0.0007181386,-0.0029547934,-0.51025975,0.9994659,-3.3122752e-10,-5.5297705e-10,0.03268201,47
21727736000,21727736000,0.8600112,0.00072079874,-0.0029539007,-0.5102661,0.9994659,-3.3122752e-10,-5.5297705e-10,0.03268201,47
21727740000,21727740000,0.8600055,0.0007273606,-0.0029485093,-0.5102757,0.9994659,-3.3122752e-10,-5.5297705e-10,0.03268201,47
21727744000,21727744000,0.86000144,0.0007332521,-0.0029452061,-0.5102826,0.9994659,-3.3122752e-10,-5.5297705e-10,0.03268201,47
21727748000,21727748000,0.8599989,0.00073455524,-0.0029391872,-0.51028717,0.9994659,-3.3122752e-10,-5.5297705e-10,0.03268201,47
21727752000,21727752000,0.8599966,0.0007384736,-0.0029328654,-0.51029074,0.9994659,-3.3122752e-10,-5.5297705e-10,0.03268201,47
21727756000,21727756000,0.8599948,0.0007469864,-0.002932368,-0.51029396,0.9994659,-3.3122752e-10,-5.5297705e-10,0.03268201,47
21727764000,21727764000,0.85999596,0.0007535668,-0.0029227238,-0.51029205,0.9994659,-3.3122752e-10,-5.5297705e-10,0.03268201,47
21727768000,21727768000,0.86000174,0.0007595645,-0.0029127218,-0.5102824,0.9994659,-3.3122752e-10,-5.5297705e-10,0.03268201,47
21727772000,21727772000,0.860008,0.00076594687,-0.0029072864,-0.5102718,0.9994659,-3.3122752e-10,-5.5297705e-10,0.03268201,47
21727776000,21727776000,0.8600119,0.0007702486,-0.0029074182,-0.5102653,0.9994659,-3.3122752e-10,-5.5297705e-10,0.03268201,47
21727784000,21727784000,0.86001325,0.0007814466,-0.0029116692,-0.5102628,0.9994659,-3.3122752e-10,-5.5297705e-10,0.03268201,47
21727788000,21727788000,0.8600065,0.00078590645,-0.0029167987,-0.5102742,0.9994659,-3.3122752e-10,-5.5297705e-10,0.03268201,47
21727796000,21727796000,0.85999966,0.00079405814,-0.0029334489,-0.5102857,0.9994659,-3.3122752e-10,-5.5297705e-10,0.03268201,47
21727804000,21727804000,0.8599953,0.0008069846,-0.002926315,-0.510293,0.9994659,-3.3122752e-10,-5.5297705e-10,0.03268201,47
21727808000,21727808000,0.85999113,0.000807716,-0.0029292586,-0.5103001,0.9994659,-3.3122752e-10,-5.5297705e-10,0.03268201,47
21727816000,21727816000,0.85998625,0.0007952963,-0.002941791,-0.5103082,0.9994659,-3.3122752e-10,-5.5297705e-10,0.03268201,47
21727820000,21727820000,0.8599864,0.0007907678,-0.0029410168,-0.5103079,0.9994659,-3.3122752e-10,-5.5297705e-10,0.03268201,47
21727828000,21727828000,0.8599786,0.0007866866,-0.0029381344,-0.5103209,0.9994659,-3.3122752e-10,-5.5297705e-10,0.03268201,47
21727832000,21727832000,0.859973,0.0007836048,-0.0029450918,-0.5103306,0.9994659,-3.3122752e-10,-5.5297705e-10,0.03268201,47
21727836000,21727836000,0.8599693,0.0007792367,-0.0029531536,-0.5103366,0.9994659,-3.3122752e-10,-5.5297705e-10,0.03268201,47
21727840000,21727840000,0.8599671,0.00077923876,-0.0029589059,-0.5103403,0.9994659,-3.3122752e-10,-5.5297705e-10,0.03268201,47
21727844000,21727844000,0.8599619,0.0007861138,-0.0029656254,-0.510349,0.9994659,-3.3122752e-10,-5.5297705e-10,0.03268201,47
21727848000,21727848000,0.85995513,0.0007990384,-0.0029734941,-0.51036036,0.9994659,-3.3122752e-10,-5.5297705e-10,0.03268201,47
21727852000,21727852000,0.8599535,0.000813307,-0.0029821864,-0.51036304,0.9994659,-3.3122752e-10,-5.5297705e-10,0.03268201,47
21727860000,21727860000,0.8599577,0.0008292953,-0.002998443,-0.51035595,0.9994659,-3.3122752e-10,-5.5297705e-10,0.03268201,47
21727864000,21727864000,0.85995805,0.00083814556,-0.003000302,-0.51035535,0.9994659,-3.3122752e-10,-5.5297705e-10,0.03268201,47
21727868000,21727868000,0.8599583,0.00084390497,-0.003005281,-0.5103547,0.9994659,-3.3122752e-10,-5.5297705e-10,0.03268201,47
21727872000,21727872000,0.8599603,0.0008481126,-0.0030106308,-0.5103513,0.9994659,-3.3122752e-10,-5.5297705e-10,0.03268201,47
21727876000,21727876000,0.8599613,0.000854572,-0.003008021,-0.5103497,0.9994659,-3.3122752e-10,-5.5297705e-10,0.03268201,47
21727880000,21727880000,0.85996044,0.0008530736,-0.0029988654,-0.51035136,0.9994659,-3.3122752e-10,-5.5297705e-10,0.03268201,47
21727884000,21727884000,0.8599621,0.000845262,-0.0029909313,-0.5103484,0.9994659,-3.3122752e-10,-5.5297705e-10,0.03268201,47
21727888000,21727888000,0.85996646,0.0008466874,-0.002986059,-0.5103413,0.9994659,-3.3122752e-10,-5.5297705e-10,0.03268201,47
21727896000,21727896000,0.8599768,0.00084498205,-0.0029786183,-0.51032376,0.9994659,-3.3122752e-10,-5.5297705e-10,0.03268201,47
21727900000,21727900000,0.8599808,0.00083738426,-0.002975246,-0.510317,0.9994659,-3.3122752e-10,-5.5297705e-10,0.03268201,47
21727904000,21727904000,0.85998046,0.0008288715,-0.0029639204,-0.5103177,0.9994659,-3.3122752e-10,-5.5297705e-10,0.03268201,47
21727908000,21727908000,0.85997665,0.00082389766,-0.0029435286,-0.51032424,0.9994659,-3.3122752e-10,-5.5297705e-10,0.03268201,47
21727912000,21727912000,0.8599742,0.0008252538,-0.0029269413,-0.5103285,0.9994659,-3.3122752e-10,-5.5297705e-10,0.03268201,47
21727916000,21727916000,0.85997343,0.00083093945,-0.0029197445,-0.51032996,0.9994659,-3.3122752e-10,-5.5297705e-10,0.03268201,47
21727920000,21727920000,0.85997164,0.00083075016,-0.0029202441,-0.5103327,0.9994659,-3.3122752e-10,-5.5297705e-10,0.03268201,47
21727924000,21727924000,0.85997033,0.00082237483,-0.0029282747,-0.5103351,0.9994659,-3.3122752e-10,-5.5297705e-10,0.03268201,47
21727928000,21727928000,0.85996914,0.0008118426,-0.0029387795,-0.51033694,0.9994659,-3.3122752e-10,-5.5297705e-10,0.03268201,47
21727932000,21727932000,0.8599694,0.0008031047,-0.0029441626,-0.5103365,0.9994659,-3.3122752e-10,-5.5297705e-10,0.03268201,47
21727936000,21727936000,0.85997266,0.0007946972,-0.0029405039,-0.51033103,0.9994659,-3.3122752e-10,-5.5297705e-10,0.03268201,47
21727940000,21727940000,0.8599766,0.00078481185,-0.0029341131,-0.5103247,0.9994659,-3.3122752e-10,-5.5297705e-10,0.03268201,47
21727944000,21727944000,0.8599792,0.00077673653,-0.002932263,-0.51032007,0.9994659,-3.3122752e-10,-5.5297705e-10,0.03268201,47
21727948000,21727948000,0.85998195,0.0007690478,-0.0029349583,-0.5103155,0.9994659,-3.3122752e-10,-5.5297705e-10,0.03268201,47
21727952000,21727952000,0.85998225,0.0007613348,-0.002940755,-0.510315,0.9994659,-3.3122752e-10,-5.5297705e-10,0.03268201,47
21727956000,21727956000,0.8599817,0.0007581767,-0.0029430576,-0.5103159,0.9994659,-3.3122752e-10,-5.5297705e-10,0.03268201,47
21727960000,21727960000,0.8599834,0.000756044,-0.0029435304,-0.5103131,0.9994659,-3.3122752e-10,-5.5297705e-10,0.03268201,47
21727964000,21727964000,0.85998446,0.00075218285,-0.0029448331,-0.51031125,0.9994659,-3.3122752e-10,-5.5297705e-10,0.03268201,47
21727972000,21727972000,0.85998315,0.0007358433,-0.002936787,-0.5103135,0.9994659,-3.3122752e-10,-5.5297705e-10,0.03268201,47
21727976000,21727976000,0.8599799,0.00072865374,-0.0029237578,-0.510319,0.9994659,-3.3122752e-10,-5.5297705e-10,0.03268201,47
21727980000,21727980000,0.85997504,0.00073109264,-0.0029164343,-0.5103272,0.9994659,-3.3122752e-10,-5.5297705e-10,0.03268201,47
21727984000,21727984000,0.8599718,0.0007370787,-0.0029155817,-0.51033264,0.9994659,-3.3122752e-10,-5.5297705e-10,0.03268201,47
21727988000,21727988000,0.8599695,0.0007383942,-0.0029132,-0.51033676,0.9994659,-3.3122752e-10,-5.5297705e-10,0.03268201,47
21727992000,21727992000,0.85996616,0.000732669,-0.0029153274,-0.5103421,0.9994659,-3.3122752e-10,-5.5297705e-10,0.03268201,47
21727996000,21727996000,0.8599636,0.00073308183,-0.0029217193,-0.5103467,0.9994659,-3.3122752e-10,-5.5297705e-10,0.03268201,47
21728000000,21728000000,0.8599624,0.00074091053,-0.0029207703,-0.51034844,0.9994659,-3.3122752e-10,-5.5297705e-10,0.03268201,47
21728004000,21728004000,0.85996175,0.0007386909,-0.0029200532,-0.5103498,0.9994659,-3.3122752e-10,-5.5297705e-10,0.03268201,47
21728012000,21728012000,0.85994965,0.00072730606,-0.002935538,-0.5103699,0.9994659,-3.3122752e-10,-5.5297705e-10,0.03268201,47
21728016000,21728016000,0.8599469,0.0007335966,-0.00294547,-0.5103744,0.9994659,-3.3122752e-10,-5.5297705e-10,0.03268201,47
21728020000,21728020000,0.8599453,0.0007403798,-0.00294517,-0.51037717,0.9994659,-3.3122752e-10,-5.5297705e-10,0.03268201,47
21728024000,21728024000,0.85993934,0.00074248767,-0.0029402282,-0.51038724,0.9994659,-3.3122752e-10,-5.5297705e-10,0.03268201,47
21728028000,21728028000,0.8599334,0.00074572745,-0.0029427714,-0.5103973,0.9994659,-3.3122752e-10,-5.5297705e-10,0.03268201,47
21728032000,21728032000,0.8599315,0.00075197103,-0.0029525934,-0.5104004,0.9994659,-3.3122752e-10,-5.5297705e-10,0.03268201,47
21728036000,21728036000,0.8599329,0.00076177437,-0.002965783,-0.51039803,0.9994659,-3.3122752e-10,-5.5297705e-10,0.03268201,47
21728040000,21728040000,0.8599365,0.0007729047,-0.0029765742,-0.51039195,0.9994659,-3.3122752e-10,-5.5297705e-10,0.03268201,47
21728044000,21728044000,0.85994005,0.00077798014,-0.0029819137,-0.51038593,0.9994659,-3.3122752e-10,-5.5297705e-10,0.03268201,47
21728052000,21728052000,0.85993576,0.0007740387,-0.0029994538,-0.5103931,0.9994659,-3.3122752e-10,-5.5297705e-10,0.03268201,47
21728056000,21728056000,0.8599289,0.00077650964,-0.0030079468,-0.51040435,0.9994659,-3.3122752e-10,-5.5297705e-10,0.03268201,47
21728060000,21728060000,0.85992527,0.0007832124,-0.0030071991,-0.5104107,0.9994659,-3.3122752e-10,-5.5297705e-10,0.03268201,47
21728068000,21728068000,0.85992503,0.0007704739,-0.0030160283,-0.51041085,0.9994659,-3.3122752e-10,-5.5297705e-10,0.03268201,47
21728072000,21728072000,0.8599249,0.0007569821,-0.0030229236,-0.5104112,0.9994659,-3.3122752e-10,-5.5297705e-10,0.03268201,47
21728076000,21728076000,0.85992527,0.00074875273,-0.0030230344,-0.5104106,0.9994659,-3.3122752e-10,-5.5297705e-10,0.03268201,47
21728080000,21728080000,0.8599259,0.0007413314,-0.0030216596,-0.51040953,0.9994659,-3.3122752e-10,-5.5297705e-10,0.03268201,47
21728084000,21728084000,0.8599244,0.0007434972,-0.0030166733,-0.5104121,0.9994659,-3.3122752e-10,-5.5297705e-10,0.03268201,47
21728088000,21728088000,0.85992336,0.000750832,-0.0030059793,-0.5104137,0.9994659,-3.3122752e-10,-5.5297705e-10,0.03268201,47
21728092000,21728092000,0.85992306,0.00074833253,-0.0030024587,-0.5104145,0.9994659,-3.3122752e-10,-5.5297705e-10,0.03268201,47
21728100000,21728100000,0.8599303,0.0007487005,-0.003022584,-0.51040214,0.9994659,-3.3122752e-10,-5.5297705e-10,0.03268201,47
21728104000,21728104000,0.85993665,0.00075731275,-0.0030229983,-0.51039135,0.9994659,-3.3122752e-10,-5.5297705e-10,0.03268201,47
21728108000,21728108000,0.8599398,0.00076932186,-0.003022935,-0.510386,0.9994659,-3.3122752e-10,-5.5297705e-10,0.03268201,47
21728112000,21728112000,0.859943,0.0007774201,-0.0030272547,-0.5103807,0.9994659,-3.3122752e-10,-5.5297705e-10,0.03268201,47
21728116000,21728116000,0.85994816,0.00077565946,-0.0030356438,-0.5103717,0.9994659,-3.3122752e-10,-5.5297705e-10,0.03268201,47
21728120000,21728120000,0.8599528,0.0007703368,-0.0030436693,-0.5103641,0.9994659,-3.3122752e-10,-5.5297705e-10,0.03268201,47
21728124000,21728124000,0.85995287,0.00076874497,-0.003043357,-0.51036376,0.9994659,-3.3122752e-10,-5.5297705e-10,0.03268201,47
21728128000,21728128000,0.85995126,0.0007681491,-0.0030391924,-0.51036674,0.9994659,-3.3122752e-10,-5.5297705e-10,0.03268201,47
21728132000,21728132000,0.85995114,0.000765983,-0.003033484,-0.5103669,0.9994659,-3.3122752e-10,-5.5297705e-10,0.03268201,47
21728136000,21728136000,0.8599521,0.0007702622,-0.0030209827,-0.5103652,0.9994659,-3.3122752e-10,-5.5297705e-10,0.03268201,47
21728144000,21728144000,0.85994536,0.00077894557,-0.0030114073,-0.5103766,0.9994659,-3.3122752e-10,-5.5297705e-10,0.03268201,47
21728148000,21728148000,0.8599434,0.0007661266,-0.003010953,-0.51038015,0.9994659,-3.3122752e-10,-5.5297705e-10,0.03268201,47
21728152000,21728152000,0.85994565,0.000756885,-0.0029971995,-0.51037633,0.9994659,-3.3122752e-10,-5.5297705e-10,0.03268201,47
21728156000,21728156000,0.85994965,0.0007554934,-0.0029837706,-0.5103697,0.9994659,-3.3122752e-10,-5.5297705e-10,0.03268201,47
21728160000,21728160000,0.85995275,0.00075678434,-0.0029761868,-0.5103645,0.9994659,-3.3122752e-10,-5.5297705e-10,0.03268201,47
21728164000,21728164000,0.8599546,0.00076344924,-0.002963734,-0.5103615,0.9994659,-3.3122752e-10,-5.5297705e-10,0.03268201,47
21728172000,21728172000,0.85995764,0.0007704307,-0.0029473,-0.51035655,0.9994659,-3.3122752e-10,-5.5297705e-10,0.03268201,47
21728176000,21728176000,0.85995436,0.00077392324,-0.0029526195,-0.5103618,0.9994659,-3.3122752e-10,-5.5297705e-10,0.03268201,47
21728184000,21728184000,0.85996246,0.0007675583,-0.002958442,-0.51034814,0.9994659,-3.3122752e-10,-5.5297705e-10,0.03268201,47
21728188000,21728188000,0.85996485,0.00076131645,-0.0029591888,-0.5103443,0.9994659,-3.3122752e-10,-5.5297705e-10,0.03268201,47
21728192000,21728192000,0.8599638,0.00076039025,-0.0029593,-0.51034594,0.9994659,-3.3122752e-10,-5.5297705e-10,0.03268201,47
21728196000,21728196000,0.85996336,0.000763669,-0.0029606712,-0.51034665,0.9994659,-3.3122752e-10,-5.5297705e-10,0.03268201,47
21728200000,21728200000,0.8599651,0.0007704152,-0.0029634403,-0.51034373,0.9994659,-3.3122752e-10,-5.5297705e-10,0.03268201,47
21728204000,21728204000,0.8599687,0.00077574607,-0.0029591855,-0.5103376,0.9994659,-3.3122752e-10,-5.5297705e-10,0.03268201,47
21728208000,21728208000,0.8599732,0.0007790258,-0.0029468585,-0.51033014,0.9994659,-3.3122752e-10,-5.5297705e-10,0.03268201,47
21728216000,21728216000,0.8599814,0.0007784062,-0.00292905,-0.51031643,0.9994659,-3.3122752e-10,-5.5297705e-10,0.03268201,47
21728220000,21728220000,0.85998595,0.0007732741,-0.0029339893,-0.5103088,0.9994659,-3.3122752e-10,-5.5297705e-10,0.03268201,47
21728224000,21728224000,0.8599887,0.0007774899,-0.0029450576,-0.5103039,0.9994659,-3.3122752e-10,-5.5297705e-10,0.03268201,47
21728232000,21728232000,0.85999125,0.0007917369,-0.0029563527,-0.5102997,0.9994659,-3.3122752e-10,-5.5297705e-10,0.03268201,47
21728236000,21728236000,0.8599955,0.0007975782,-0.0029646445,-0.51029253,0.9994659,-3.3122752e-10,-5.5297705e-10,0.03268201,47
21728244000,21728244000,0.8600052,0.00079979503,-0.00298354,-0.51027596,0.9994659,-3.3122752e-10,-5.5297705e-10,0.03268201,47
21728252000,21728252000,0.8600004,0.00079512555,-0.0029901036,-0.5102842,0.9994659,-3.3122752e-10,-5.5297705e-10,0.03268201,47
21728256000,21728256000,0.8599986,0.0007933854,-0.002981917,-0.51028717,0.9994659,-3.3122752e-10,-5.5297705e-10,0.03268201,47
21728260000,21728260000,0.85999924,0.00079284917,-0.0029800315,-0.51028603,0.9994659,-3.3122752e-10,-5.5297705e-10,0.03268201,47
21728268000,21728268000,0.8600039,0.0007962676,-0.0029769756,-0.5102783,0.9994659,-3.3122752e-10,-5.5297705e-10,0.03268201,47
21728272000,21728272000,0.8600072,0.00081015617,-0.002970552,-0.5102725,0.9994659,-3.3122752e-10,-5.5297705e-10,0.03268201,47
21728276000,21728276000,0.8600132,0.00082167017,-0.0029670678,-0.5102627,0.9994659,-3.3122752e-10,-5.5297705e-10,0.03268201,47
21728280000,21728280000,0.860017,0.0008206161,-0.0029659776,-0.51025605,0.9994659,-3.3122752e-10,-5.5297705e-10,0.03268201,47
21728284000,21728284000,0.8600194,0.0008123434,-0.0029624552,-0.51025224,0.9994659,-3.3122752e-10,-5.5297705e-10,0.03268201,47
21728288000,21728288000,0.86002165,0.0008035264,-0.0029567063,-0.5102484,0.9994659,-3.3122752e-10,-5.5297705e-10,0.03268201,47
21728296000,21728296000,0.86002296,0.00079594884,-0.0029585476,-0.5102462,0.9994659,-3.3122752e-10,-5.5297705e-10,0.03268201,47
21728300000,21728300000,0.8600228,0.0008048547,-0.0029657357,-0.51024646,0.9994659,-3.3122752e-10,-5.5297705e-10,0.03268201,47
21728304000,21728304000,0.86002153,0.0008101014,-0.00296761,-0.51024854,0.9994659,-3.3122752e-10,-5.5297705e-10,0.03268201,47
21728308000,21728308000,0.8600192,0.00081360765,-0.0029672075,-0.5102525,0.9994659,-3.3122752e-10,-5.5297705e-10,0.03268201,47
21728312000,21728312000,0.8600158,0.0008192087,-0.0029611907,-0.51025826,0.9994659,-3.3122752e-10,-5.5297705e-10,0.03268201,47
21728316000,21728316000,0.86000913,0.000820248,-0.0029524507,-0.5102695,0.9994659,-3.3122752e-10,-5.5297705e-10,0.03268201,47
21728324000,21728324000,0.8600032,0.0008306752,-0.0029448404,-0.51027966,0.9994659,-3.3122752e-10,-5.5297705e-10,0.03268201,47
21728328000,21728328000,0.8600066,0.0008351637,-0.002937506,-0.51027393,0.9994659,-3.3122752e-10,-5.5297705e-10,0.03268201,47
21728332000,21728332000,0.86000943,0.0008354472,-0.0029289124,-0.5102691,0.9994659,-3.3122752e-10,-5.5297705e-10,0.03268201,47
21728336000,21728336000,0.8600112,0.00082651887,-0.0029191514,-0.5102662,0.9994659,-3.3122752e-10,-5.5297705e-10,0.03268201,47
21728340000,21728340000,0.86001164,0.00081493537,-0.0029065697,-0.5102655,0.9994659,-3.3122752e-10,-5.5297705e-10,0.03268201,47
21728344000,21728344000,0.8600091,0.00080988003,-0.002896579,-0.5102699,0.9994659,-3.3122752e-10,-5.5297705e-10,0.03268201,47
21728348000,21728348000,0.86000544,0.0008139067,-0.0028932104,-0.510276,0.9994659,-3.3122752e-10,-5.5297705e-10,0.03268201,47
21728352000,21728352000,0.860006,0.000822503,-0.0028925473,-0.51027536,0.9994659,-3.3122752e-10,-5.5297705e-10,0.03268201,47
21728356000,21728356000,0.8600104,0.000824779,-0.0028931086,-0.51026773,0.9994659,-3.3122752e-10,-5.5297705e-10,0.03268201,47
21728360000,21728360000,0.8600127,0.00082663103,-0.0028956558,-0.51026386,0.9994659,-3.3122752e-10,-5.5297705e-10,0.03268201,47
21728364000,21728364000,0.86001253,0.00082753197,-0.0028914348,-0.5102641,0.9994659,-3.3122752e-10,-5.5297705e-10,0.03268201,47
21728372000,21728372000,0.86001277,0.0008599037,-0.0029097616,-0.5102635,0.9994659,-3.3122752e-10,-5.5297705e-10,0.03268201,47
21728380000,21728380000,0.8600152,0.00084065355,-0.0029054848,-0.51025945,0.9994659,-3.3122752e-10,-5.5297705e-10,0.03268201,47
21728384000,21728384000,0.8600132,0.0008326219,-0.002896517,-0.5102629,0.9994659,-3.3122752e-10,-5.5297705e-10,0.03268201,47
21728388000,21728388000,0.86000663,0.0008242746,-0.0028922935,-0.5102742,0.9994659,-3.3122752e-10,-5.5297705e-10,0.03268201,47
21728392000,21728392000,0.8600008,0.0008292005,-0.0028928379,-0.510284,0.9994659,-3.3122752e-10,-5.5297705e-10,0.03268201,47
21728396000,21728396000,0.8599964,0.00084423594,-0.002888859,-0.51029146,0.9994659,-3.3122752e-10,-5.5297705e-10,0.03268201,47
21728404000,21728404000,0.8599882,0.0008563841,-0.00287458,-0.51030505,0.9994659,-3.3122752e-10,-5.5297705e-10,0.03268201,47
21728408000,21728408000,0.85998386,0.0008560079,-0.0028725807,-0.5103126,0.9994659,-3.3122752e-10,-5.5297705e-10,0.03268201,47
21728412000,21728412000,0.8599831,0.0008548097,-0.002875067,-0.51031363,0.9994659,-3.3122752e-10,-5.5297705e-10,0.03268201,47
21728416000,21728416000,0.859985,0.00085331796,-0.0028749055,-0.51031065,0.9994659,-3.3122752e-10,-5.5297705e-10,0.03268201,47
21728420000,21728420000,0.859989,0.00085052534,-0.0028727439,-0.5103039,0.9994659,-3.3122752e-10,-5.5297705e-10,0.03268201,47
21728424000,21728424000,0.8599954,0.0008450624,-0.0028677636,-0.51029307,0.9994659,-3.3122752e-10,-5.5297705e-10,0.03268201,47
21728428000,21728428000,0.85999966,0.0008485867,-0.0028674859,-0.5102859,0.9994659,-3.3122752e-10,-5.5297705e-10,0.03268201,47
21728432000,21728432000,0.8599978,0.00085917604,-0.0028657909,-0.51028895,0.9994659,-3.3122752e-10,-5.5297705e-10,0.03268201,47
21728436000,21728436000,0.8599928,0.00086617435,-0.0028545165,-0.51029754,0.9994659,-3.3122752e-10,-5.5297705e-10,0.03268201,47
21728440000,21728440000,0.8599902,0.0008681704,-0.0028495716,-0.51030195,0.9994659,-3.3122752e-10,-5.5297705e-10,0.03268201,47
21728444000,21728444000,0.8599935,0.0008490375,-0.0028457446,-0.51029634,0.9994659,-3.3122752e-10,-5.5297705e-10,0.03268201,47
21728448000,21728448000,0.8599988,0.00081958063,-0.002844479,-0.5102876,0.9994659,-3.3122752e-10,-5.5297705e-10,0.03268201,47
21728452000,21728452000,0.85999835,0.0007999763,-0.002852747,-0.51028836,0.9994659,-3.3122752e-10,-5.5297705e-10,0.03268201,47
21728456000,21728456000,0.85999405,0.0007912603,-0.0028612718,-0.51029545,0.9994659,-3.3122752e-10,-5.5297705e-10,0.03268201,47
21728460000,21728460000,0.8599928,0.0007921316,-0.0028724032,-0.51029754,0.9994659,-3.3122752e-10,-5.5297705e-10,0.03268201,47
21728464000,21728464000,0.8599945,0.00079407747,-0.0028835759,-0.5102945,0.9994659,-3.3122752e-10,-5.5297705e-10,0.03268201,47
21728468000,21728468000,0.8599952,0.0007975293,-0.0028838697,-0.5102933,0.9994659,-3.3122752e-10,-5.5297705e-10,0.03268201,47
21728472000,21728472000,0.8599948,0.0008024052,-0.0028763416,-0.51029396,0.9994659,-3.3122752e-10,-5.5297705e-10,0.03268201,47
21728476000,21728476000,0.85999566,0.0008061879,-0.002870648,-0.5102928,0.9994659,-3.3122752e-10,-5.5297705e-10,0.03268201,47
21728480000,21728480000,0.85999846,0.0008127954,-0.00286727,-0.5102879,0.9994659,-3.3122752e-10,-5.5297705e-10,0.03268201,47
21728484000,21728484000,0.86000204,0.0008291049,-0.0028684132,-0.51028204,0.9994659,-3.3122752e-10,-5.5297705e-10,0.03268201,47
21728492000,21728492000,0.86001027,0.0008376916,-0.00287319,-0.510268,0.9994659,-3.3122752e-10,-5.5297705e-10,0.03268201,47
21728496000,21728496000,0.86001456,0.000832433,-0.0028758065,-0.5102607,0.9994659,-3.3122752e-10,-5.5297705e-10,0.03268201,47
21728500000,21728500000,0.8600176,0.0008131683,-0.002870726,-0.5102559,0.9994659,-3.3122752e-10,-5.5297705e-10,0.03268201,47
21728504000,21728504000,0.86002207,0.0007928702,-0.0028619498,-0.51024836,0.9994659,-3.3122752e-10,-5.5297705e-10,0.03268201,47
21728508000,21728508000,0.8600248,0.0007954695,-0.0028636537,-0.51024354,0.9994659,-3.3122752e-10,-5.5297705e-10,0.03268201,47
21728512000,21728512000,0.8600267,0.00080438936,-0.0028691147,-0.51024055,0.9994659,-3.3122752e-10,-5.5297705e-10,0.03268201,47
21728516000,21728516000,0.86002916,0.0008052607,-0.0028735206,-0.51023614,0.9994659,-3.3122752e-10,-5.5297705e-10,0.03268201,47
21728520000,21728520000,0.860031,0.000793902,-0.0028805882,-0.51023316,0.9994659,-3.3122752e-10,-5.5297705e-10,0.03268201,47
21728524000,21728524000,0.86003166,0.00078273565,-0.002888384,-0.510232,0.9994659,-3.3122752e-10,-5.5297705e-10,0.03268201,47
21728528000,21728528000,0.86003214,0.0007774811,-0.0028922667,-0.5102312,0.9994659,-3.3122752e-10,-5.5297705e-10,0.03268201,47
21728536000,21728536000,0.86003244,0.00078627537,-0.0029059201,-0.5102305,0.9994659,-3.3122752e-10,-5.5297705e-10,0.03268201,47
21728540000,21728540000,0.86003155,0.00079298415,-0.0029082356,-0.510232,0.9994659,-3.3122752e-10,-5.5297705e-10,0.03268201,47
21728544000,21728544000,0.8600299,0.00078800035,-0.002909196,-0.5102348,0.9994659,-3.3122752e-10,-5.5297705e-10,0.03268201,47
21728548000,21728548000,0.8600277,0.00078602444,-0.0029082224,-0.51023847,0.9994659,-3.3122752e-10,-5.5297705e-10,0.03268201,47
21728552000,21728552000,0.8600252,0.00079513,-0.002911356,-0.51024264,0.9994659,-3.3122752e-10,-5.5297705e-10,0.03268201,47
21728556000,21728556000,0.86002195,0.0007959247,-0.0029138902,-0.5102482,0.9994659,-3.3122752e-10,-5.5297705e-10,0.03268201,47
21728560000,21728560000,0.8600214,0.00079316075,-0.0029180534,-0.5102491,0.9994659,-3.3122752e-10,-5.5297705e-10,0.03268201,47
21728564000,21728564000,0.860023,0.0007955087,-0.0029240218,-0.51024634,0.9994659,-3.3122752e-10,-5.5297705e-10,0.03268201,47
