timestamp,timestamp_sample,gps_hvel[0],gps_hvel[1],gps_vvel,gps_hpos[0],gps_hpos[1],gps_vpos,ev_hvel[0],ev_hvel[1],ev_vvel,ev_hpos[0],ev_hpos[1],ev_vpos,rng_vpos,baro_vpos,aux_hvel[0],aux_hvel[1],aux_vvel,flow[0],flow[1],heading,mag_field[0],mag_field[1],mag_field[2],drag[0],drag[1],airspeed,beta,hagl,hagl_rate
21726680000,21726600000,0.090134524,0.09013452,0.20263943,1.0012062,1.0012062,0.0,0.0,0.0,0.0,0.0,0.0,0.0,0.0,12.25307,0.0,0.0,nan,0.0,0.0,0.09032065,0.0025276758,0.0025353674,0.0025372524,0.0,0.0,0.0,0.0,0.0,0.0
21727184000,21727104000,0.09014338,0.09014338,0.20264894,1.001205,1.001205,0.0,0.0,0.0,0.0,0.0,0.0,0.0,0.0,12.253063,0.0,0.0,nan,0.0,0.0,0.090320766,0.0025276758,0.0025353674,0.0025372524,0.0,0.0,0.0,0.0,0.0,0.0
21727688000,21727608000,0.09014339,0.09014339,0.20264894,1.0012037,1.0012037,0.0,0.0,0.0,0.0,0.0,0.0,0.0,0.0,12.253059,0.0,0.0,nan,0.0,0.0,0.090320766,0.0025276758,0.0025353674,0.0025372524,0.0,0.0,0.0,0.0,0.0,0.0
21728184000,21728104000,0.09008256,0.09008256,0.20258452,1.0012025,1.0012023,0.0,0.0,0.0,0.0,0.0,0.0,0.0,0.0,12.253057,0.0,0.0,nan,0.0,0.0,0.09032076,0.0025276758,0.0025353674,0.0025372524,0.0,0.0,0.0,0.0,0.0,0.0
21728680000,21728600000,0.090074115,0.090074115,0.20257573,1.0012004,1.0012003,0.0,0.0,0.0,0.0,0.0,0.0,0.0,0.0,12.253049,0.0,0.0,nan,0.0,0.0,0.09032075,0.0025276758,0.0025353674,0.0025372524,0.0,0.0,0.0,0.0,0.0,0.0
21729184000,21729104000,0.09007412,0.09007412,0.20257573,1.0011997,1.0011997,0.0,0.0,0.0,0.0,0.0,0.0,0.0,0.0,12.253046,0.0,0.0,nan,0.0,0.0,0.09032075,0.0025276758,0.0025353674,0.0025372524,0.0,0.0,0.0,0.0,0.0,0.0
21729680000,21729600000,0.090024814,0.090024814,0.20252502,1.0011984,1.0011984,0.0,0.0,0.0,0.0,0.0,0.0,0.0,0.0,12.25304,0.0,0.0,nan,0.0,0.0,0.09032062,0.0025276758,0.0025353674,0.0025372524,0.0,0.0,0.0,0.0,0.0,0.0
21730184000,21730104000,0.09002482,0.09002482,0.20252502,1.0011971,1.0011971,0.0,0.0,0.0,0.0,0.0,0.0,0.0,0.0,12.2530365,0.0,0.0,nan,0.0,0.0,0.090320386,0.0025276758,0.0025353674,0.0025372524,0.0,0.0,0.0,0.0,0.0,0.0
21730680000,21730600000,0.09019806,0.090198055,0.20270804,1.0011978,1.0011978,0.0,0.0,0.0,0.0,0.0,0.0,0.0,0.0,12.253031,0.0,0.0,nan,0.0,0.0,0.09032037,0.0025276758,0.0025353674,0.0025372524,0.0,0.0,0.0,0.0,0.0,0.0
21731184000,21731104000,0.090198025,0.090198025,0.20270804,1.0011965,1.0011965,0.0,0.0,0.0,0.0,0.0,0.0,0.0,0.0,12.253027,0.0,0.0,nan,0.0,0.0,0.09032025,0.0025276758,0.0025353674,0.0025372524,0.0,0.0,0.0,0.0,0.0,0.0
21731688000,21731608000,0.09019807,0.09019808,0.20270804,1.0011952,1.0011952,0.0,0.0,0.0,0.0,0.0,0.0,0.0,0.0,12.253023,0.0,0.0,nan,0.0,0.0,0.090320386,0.0025276758,0.0025353674,0.0025372524,0.0,0.0,0.0,0.0,0.0,0.0
21732184000,21732104000,0.09013449,0.09013448,0.20263943,1.0011933,1.0011933,0.0,0.0,0.0,0.0,0.0,0.0,0.0,0.0,12.253017,0.0,0.0,nan,0.0,0.0,0.09032038,0.0025276758,0.0025353674,0.0025372524,0.0,0.0,0.0,0.0,0.0,0.0
21732688000,21732608000,0.0901345,0.0901345,0.20263943,1.0011914,1.0011914,0.0,0.0,0.0,0.0,0.0,0.0,0.0,0.0,12.253014,0.0,0.0,nan,0.0,0.0,0.090320244,0.0025276758,0.0025353674,0.0025372524,0.0,0.0,0.0,0.0,0.0,0.0
21733184000,21733104000,0.090082526,0.090082526,0.20258452,1.001191,1.001191,0.0,0.0,0.0,0.0,0.0,0.0,0.0,0.0,12.253011,0.0,0.0,nan,0.0,0.0,0.09032025,0.0025276758,0.0025353674,0.0025372524,0.0,0.0,0.0,0.0,0.0,0.0
21733688000,21733608000,0.090949826,0.090949796,0.20357531,1.0013264,1.0013264,0.0,0.0,0.0,0.0,0.0,0.0,0.0,0.0,12.253178,0.0,0.0,nan,0.0,0.0,0.0903204,0.0025276758,0.0025353674,0.0025372524,0.0,0.0,0.0,0.0,0.0,0.0
21734184000,21734104000,0.09177179,0.09177174,0.2045527,1.0018119,1.0018119,0.0,0.0,0.0,0.0,0.0,0.0,0.0,0.0,12.254087,0.0,0.0,nan,0.0,0.0,0.090320535,0.0025276758,0.0025353674,0.0025372524,0.0,0.0,0.0,0.0,0.0,0.0
21734688000,21734608000,0.09346063,0.09346059,0.20625608,1.0036299,1.0036298,0.0,0.0,0.0,0.0,0.0,0.0,0.0,0.0,12.256195,0.0,0.0,nan,0.0,0.0,0.09032067,0.0025276758,0.0025353674,0.0025372524,0.0,0.0,0.0,0.0,0.0,0.0
21735184000,21735104000,0.09485326,0.094852746,0.20765845,1.0061777,1.0061777,0.0,0.0,0.0,0.0,0.0,0.0,0.0,0.0,12.260853,0.0,0.0,nan,0.0,0.0,0.0903208,0.0025276758,0.0025353674,0.0025372524,0.0,0.0,0.0,0.0,0.0,0.0
21735688000,21735608000,0.09622446,0.096224196,0.20984398,1.0120063,1.012006,0.0,0.0,0.0,0.0,0.0,0.0,0.0,0.0,12.267429,0.0,0.0,nan,0.0,0.0,0.09839515,0.0025276758,0.0025353674,0.0025372524,0.0,0.0,0.0,0.0,0.0,0.0
21736184000,21736104000,0.0964579,0.096450366,0.21123765,1.0168173,1.0168171,0.0,0.0,0.0,0.0,0.0,0.0,0.0,0.0,12.278215,0.0,0.0,nan,0.0,0.0,0.0950785,0.0025276758,0.0025353674,0.0025372524,0.0,0.0,0.0,0.0,0.0,0.0
21736688000,21736608000,0.098397225,0.09836569,0.21303649,1.0243381,1.0243369,0.0,0.0,0.0,0.0,0.0,0.0,0.0,0.0,12.289051,0.0,0.0,nan,0.0,0.0,0.0936407,0.0025276758,0.0025353674,0.0025372524,0.0,0.0,0.0,0.0,0.0,0.0
21737184000,21737104000,0.10066466,0.1006136,0.21428631,1.0302962,1.0302911,0.0,0.0,0.0,0.0,0.0,0.0,0.0,0.0,12.3071785,0.0,0.0,nan,0.0,0.0,0.09283789,0.0025276758,0.0025353674,0.0025372524,0.0,0.0,0.0,0.0,0.0,0.0
21737680000,21737600000,0.10243261,0.10237419,0.21517865,1.0375271,1.0375179,0.0,0.0,0.0,0.0,0.0,0.0,0.0,0.0,12.318965,0.0,0.0,nan,0.0,0.0,0.092325516,0.0025276758,0.0025353674,0.0025372524,0.0,0.0,0.0,0.0,0.0,0.0
21738184000,21738104000,0.10284441,0.102786794,0.21533948,1.0397207,1.0397105,0.0,0.0,0.0,0.0,0.0,0.0,0.0,0.0,12.341055,0.0,0.0,nan,0.0,0.0,0.09197033,0.0025276758,0.0025353674,0.0025372524,0.0,0.0,0.0,0.0,0.0,0.0
21738688000,21738608000,0.10480586,0.104656756,0.21619242,1.0498105,1.0497942,0.0,0.0,0.0,0.0,0.0,0.0,0.0,0.0,12.350742,0.0,0.0,nan,0.0,0.0,0.09170807,0.0025276758,0.0025353674,0.0025372524,0.0,0.0,0.0,0.0,0.0,0.0
21739184000,21739104000,0.10471203,0.104028486,0.21602698,1.0521485,1.0521317,0.0,0.0,0.0,0.0,0.0,0.0,0.0,0.0,12.365461,0.0,0.0,nan,0.0,0.0,0.091496944,0.0025276758,0.0025353674,0.0025372524,0.0,0.0,0.0,0.0,0.0,0.0
21739680000,21739600000,0.10818228,0.10581699,0.21636708,1.0597601,1.0597386,0.0,0.0,0.0,0.0,0.0,0.0,0.0,0.0,12.377474,0.0,0.0,nan,0.0,0.0,0.09143501,0.0030414078,0.00304708,0.0030533983,0.0,0.0,0.0,0.0,0.0,0.0
21740184000,21740104000,0.10714696,0.105707236,0.21601896,1.0604783,1.060472,0.0,0.0,0.0,0.0,0.0,0.0,0.0,0.0,12.387802,0.0,0.0,nan,0.0,0.0,0.09143501,0.002720306,0.0027203008,0.0027182028,0.0,0.0,0.0,0.0,0.0,0.0
21740680000,21740600000,0.10538278,0.104720965,0.21572556,1.061046,1.0610386,0.0,0.0,0.0,0.0,0.0,0.0,0.0,0.0,12.398002,0.0,0.0,nan,0.0,0.0,0.09143501,0.0026390636,0.0026378632,0.0026357127,0.0,0.0,0.0,0.0,0.0,0.0
21741184000,21741104000,0.10481744,0.10460618,0.21605258,1.0664809,1.0664265,0.0,0.0,0.0,0.0,0.0,0.0,0.0,0.0,12.405094,0.0,0.0,nan,0.0,0.0,0.09143501,0.0026004303,0.002599615,0.0025981646,0.0,0.0,0.0,0.0,0.0,0.0
21741680000,21741600000,0.10255478,0.10259597,0.21561173,1.0654738,1.0654227,0.0,0.0,0.0,0.0,0.0,0.0,0.0,0.0,12.4061165,0.0,0.0,nan,0.0,0.0,0.09143501,0.0025788401,0.0025780261,0.0025769537,0.0,0.0,0.0,0.0,0.0,0.0
21742184000,21742104000,0.10205469,0.10211759,0.21547104,1.0651953,1.0651445,0.0,0.0,0.0,0.0,0.0,0.0,0.0,0.0,12.418048,0.0,0.0,nan,0.0,0.0,0.09143501,0.0025651131,0.0025642428,0.0025633082,0.0,0.0,0.0,0.0,0.0,0.0
21742688000,21742608000,0.10167316,0.10171359,0.21574573,1.0685097,1.0684553,0.0,0.0,0.0,0.0,0.0,0.0,0.0,0.0,12.414951,0.0,0.0,nan,0.0,0.0,0.09143501,0.0025544867,0.0025535384,0.002552762,0.0,0.0,0.0,0.0,0.0,0.0
21743184000,21743104000,0.10107533,0.10104239,0.21561539,1.0672729,1.067228,0.0,0.0,0.0,0.0,0.0,0.0,0.0,0.0,12.419159,0.0,0.0,nan,0.0,0.0,0.09143501,0.002547839,0.0025468376,0.0025460338,0.0,0.0,0.0,0.0,0.0,0.0
21743688000,21743608000,0.101539254,0.10136627,0.21599777,1.070608,1.070582,0.0,0.0,0.0,0.0,0.0,0.0,0.0,0.0,12.420808,0.0,0.0,nan,0.0,0.0,0.09143501,0.0025427302,0.0025416608,0.0025409989,0.0,0.0,0.0,0.0,0.0,0.0
21744184000,21744104000,0.101154454,0.100886,0.21581307,1.0691179,1.0691001,0.0,0.0,0.0,0.0,0.0,0.0,0.0,0.0,12.421289,0.0,0.0,nan,0.0,0.0,0.09143501,0.002538688,0.00253761,0.0025368156,0.0,0.0,0.0,0.0,0.0,0.0
21744688000,21744608000,0.10083787,0.100511625,0.21567783,1.0674113,1.0674005,0.0,0.0,0.0,0.0,0.0,0.0,0.0,0.0,12.423924,0.0,0.0,nan,0.0,0.0,0.09143501,0.002535473,0.0025343178,0.002533557,0.0,0.0,0.0,0.0,0.0,0.0
21745184000,21745104000,0.10163591,0.10118239,0.2162278,1.0707061,1.0706992,0.0,0.0,0.0,0.0,0.0,0.0,0.0,0.0,12.424184,0.0,0.0,nan,0.0,0.0,0.09143501,0.002532794,0.0025316128,0.002530819,0.0,0.0,0.0,0.0,0.0,0.0
21745680000,21745600000,0.10115565,0.10070797,0.21596004,1.0681173,1.068108,0.0,0.0,0.0,0.0,0.0,0.0,0.0,0.0,12.421526,0.0,0.0,nan,0.0,0.0,0.09097064,0.002532457,0.0025312721,0.002530469,0.0,0.0,0.0,0.0,0.0,0.0
21746184000,21746104000,0.10212087,0.101618506,0.21648602,1.0721502,1.0721182,0.0,0.0,0.0,0.0,0.0,0.0,0.0,0.0,12.4265785,0.0,0.0,nan,0.0,0.0,0.09088329,0.002532457,0.0025312721,0.002530469,0.0,0.0,0.0,0.0,0.0,0.0
21746680000,21746600000,0.1014364,0.1010333,0.21614471,1.06933,1.0692971,0.0,0.0,0.0,0.0,0.0,0.0,0.0,0.0,12.422891,0.0,0.0,nan,0.0,0.0,0.09082362,0.002532457,0.0025312721,0.002530469,0.0,0.0,0.0,0.0,0.0,0.0
21747184000,21747104000,0.10113752,0.10079273,0.21596159,1.0677661,1.0677303,0.0,0.0,0.0,0.0,0.0,0.0,0.0,0.0,12.423255,0.0,0.0,nan,0.0,0.0,0.0907545,0.002532457,0.0025312721,0.002530469,0.0,0.0,0.0,0.0,0.0,0.0
21747688000,21747608000,0.10178794,0.10147904,0.21626991,1.0707066,1.0706426,0.0,0.0,0.0,0.0,0.0,0.0,0.0,0.0,12.423469,0.0,0.0,nan,0.0,0.0,0.090705656,0.002532457,0.0025312721,0.002530469,0.0,0.0,0.0,0.0,0.0,0.0
21748184000,21748104000,0.1013457,0.101100974,0.21602994,1.0688738,1.068815,0.0,0.0,0.0,0.0,0.0,0.0,0.0,0.0,12.424275,0.0,0.0,nan,0.0,0.0,0.09066403,0.002532457,0.0025312721,0.002530469,0.0,0.0,0.0,0.0,0.0,0.0
21748688000,21748608000,0.10215412,0.10194214,0.2163763,1.0724063,1.0723191,0.0,0.0,0.0,0.0,0.0,0.0,0.0,0.0,12.424982,0.0,0.0,nan,0.0,0.0,0.090627834,0.002532457,0.0025312721,0.002530469,0.0,0.0,0.0,0.0,0.0,0.0
21749184000,21749104000,0.10156149,0.10140167,0.21607162,1.0702208,1.0701482,0.0,0.0,0.0,0.0,0.0,0.0,0.0,0.0,12.426587,0.0,0.0,nan,0.0,0.0,0.09059636,0.002532457,0.0025312721,0.002530469,0.0,0.0,0.0,0.0,0.0,0.0
21749688000,21749608000,0.101010375,0.10090877,0.21565737,1.0677518,1.0676913,0.0,0.0,0.0,0.0,0.0,0.0,0.0,0.0,12.425676,0.0,0.0,nan,0.0,0.0,0.09056918,0.002532457,0.0025312721,0.002530469,0.0,0.0,0.0,0.0,0.0,0.0
21750184000,21750104000,0.10191644,0.10181609,0.2160775,1.0718082,1.071731,0.0,0.0,0.0,0.0,0.0,0.0,0.0,0.0,12.426855,0.0,0.0,nan,0.0,0.0,0.09054521,0.002532457,0.0025312721,0.002530469,0.0,0.0,0.0,0.0,0.0,0.0
21750680000,21750600000,0.101163544,0.101107195,0.21568987,1.0688907,1.0688317,0.0,0.0,0.0,0.0,0.0,0.0,0.0,0.0,12.422129,0.0,0.0,nan,0.0,0.0,0.09052402,0.002532457,0.0025312721,0.002530469,0.0,0.0,0.0,0.0,0.0,0.0
21751184000,21751104000,0.100996576,0.10094918,0.21552865,1.0681175,1.068063,0.0,0.0,0.0,0.0,0.0,0.0,0.0,0.0,12.42857,0.0,0.0,nan,0.0,0.0,0.09050527,0.002532457,0.0025312721,0.002530469,0.0,0.0,0.0,0.0,0.0,0.0
21751688000,21751608000,0.101351805,0.10131832,0.21564259,1.0702529,1.0702014,0.0,0.0,0.0,0.0,0.0,0.0,0.0,0.0,12.424014,0.0,0.0,nan,0.0,0.0,0.09048576,0.002532457,0.0025312721,0.002530469,0.0,0.0,0.0,0.0,0.0,0.0
21752184000,21752104000,0.10096353,0.10093767,0.21537498,1.0685152,1.0684726,0.0,0.0,0.0,0.0,0.0,0.0,0.0,0.0,12.424434,0.0,0.0,nan,0.0,0.0,0.09047093,0.002532457,0.0025312721,0.002530469,0.0,0.0,0.0,0.0,0.0,0.0
21752688000,21752608000,0.101704255,0.10167967,0.21567161,1.0718399,1.071796,0.0,0.0,0.0,0.0,0.0,0.0,0.0,0.0,12.42622,0.0,0.0,nan,0.0,0.0,0.09045746,0.002532457,0.0025312721,0.002530469,0.0,0.0,0.0,0.0,0.0,0.0
21753184000,21753104000,0.10118093,0.10116054,0.21537551,1.0697794,1.0697441,0.0,0.0,0.0,0.0,0.0,0.0,0.0,0.0,12.425495,0.0,0.0,nan,0.0,0.0,0.09044523,0.002532457,0.0025312721,0.002530469,0.0,0.0,0.0,0.0,0.0,0.0
21753688000,21753608000,0.10083399,0.10081616,0.21512963,1.0681384,1.0681089,0.0,0.0,0.0,0.0,0.0,0.0,0.0,0.0,12.426326,0.0,0.0,nan,0.0,0.0,0.09043402,0.002532457,0.0025312721,0.002530469,0.0,0.0,0.0,0.0,0.0,0.0
21754184000,21754104000,0.10144574,0.10142867,0.21533807,1.0712973,1.071267,0.0,0.0,0.0,0.0,0.0,0.0,0.0,0.0,12.426525,0.0,0.0,nan,0.0,0.0,0.09042377,0.002532457,0.0025312721,0.002530469,0.0,0.0,0.0,0.0,0.0,0.0
21754688000,21754608000,0.100822434,0.100808956,0.21491703,1.0685244,1.0685014,0.0,0.0,0.0,0.0,0.0,0.0,0.0,0.0,12.426771,0.0,0.0,nan,0.0,0.0,0.090414256,0.002532457,0.0025312721,0.002530469,0.0,0.0,0.0,0.0,0.0,0.0
21755184000,21755104000,0.10068338,0.10067064,0.21484992,1.067787,1.067766,0.0,0.0,0.0,0.0,0.0,0.0,0.0,0.0,12.428551,0.0,0.0,nan,0.0,0.0,0.090405494,0.002532457,0.0025312721,0.002530469,0.0,0.0,0.0,0.0,0.0,0.0
21755688000,21755608000,0.10105676,0.10104514,0.2149483,1.069776,1.0697562,0.0,0.0,0.0,0.0,0.0,0.0,0.0,0.0,12.423093,0.0,0.0,nan,0.0,0.0,0.09039729,0.002532457,0.0025312721,0.002530469,0.0,0.0,0.0,0.0,0.0,0.0
21756184000,21756104000,0.1007244,0.10071504,0.21473248,1.0681335,1.0681163,0.0,0.0,0.0,0.0,0.0,0.0,0.0,0.0,12.423796,0.0,0.0,nan,0.0,0.0,0.090389654,0.002532457,0.0025312721,0.002530469,0.0,0.0,0.0,0.0,0.0,0.0
21756688000,21756608000,0.10133699,0.10132831,0.21495305,1.0712831,1.0712641,0.0,0.0,0.0,0.0,0.0,0.0,0.0,0.0,12.423537,0.0,0.0,nan,0.0,0.0,0.09038274,0.002532457,0.0025312721,0.002530469,0.0,0.0,0.0,0.0,0.0,0.0
21757184000,21757104000,0.10089615,0.10088949,0.21472338,1.0693331,1.0693171,0.0,0.0,0.0,0.0,0.0,0.0,0.0,0.0,12.424286,0.0,0.0,nan,0.0,0.0,0.090376325,0.002532457,0.0025312721,0.002530469,0.0,0.0,0.0,0.0,0.0,0.0
21757688000,21757608000,0.1006024,0.100598425,0.21453466,1.0677738,1.0677598,0.0,0.0,0.0,0.0,0.0,0.0,0.0,0.0,12.423731,0.0,0.0,nan,0.0,0.0,0.09036945,0.002532457,0.0025312721,0.002530469,0.0,0.0,0.0,0.0,0.0,0.0
21758184000,21758104000,0.10119428,0.10119325,0.21473938,1.0707273,1.0707114,0.0,0.0,0.0,0.0,0.0,0.0,0.0,0.0,12.4249525,0.0,0.0,nan,0.0,0.0,0.090363964,0.002532457,0.0025312721,0.002530469,0.0,0.0,0.0,0.0,0.0,0.0
21758688000,21758608000,0.100641266,0.10064426,0.21440855,1.068117,1.0681041,0.0,0.0,0.0,0.0,0.0,0.0,0.0,0.0,12.420955,0.0,0.0,nan,0.0,0.0,0.09035889,0.002532457,0.0025312721,0.002530469,0.0,0.0,0.0,0.0,0.0,0.0
21759184000,21759104000,0.10154438,0.10154964,0.21479936,1.0724194,1.0724033,0.0,0.0,0.0,0.0,0.0,0.0,0.0,0.0,12.425194,0.0,0.0,nan,0.0,0.0,0.09035421,0.002532457,0.0025312721,0.002530469,0.0,0.0,0.0,0.0,0.0,0.0
21759680000,21759600000,0.10082173,0.100829124,0.21444419,1.0693123,1.0693,0.0,0.0,0.0,0.0,0.0,0.0,0.0,0.0,12.420724,0.0,0.0,nan,0.0,0.0,0.09034999,0.002532457,0.0025312721,0.002530469,0.0,0.0,0.0,0.0,0.0,0.0
21760184000,21760104000,0.10053087,0.10053977,0.21428493,1.067755,1.0677441,0.0,0.0,0.0,0.0,0.0,0.0,0.0,0.0,12.421295,0.0,0.0,nan,0.0,0.0,0.090346016,0.002532457,0.0025312721,0.002530469,0.0,0.0,0.0,0.0,0.0,0.0
21760680000,21760600000,0.10112619,0.10113829,0.21457872,1.0707024,1.0706905,0.0,0.0,0.0,0.0,0.0,0.0,0.0,0.0,12.422114,0.0,0.0,nan,0.0,0.0,0.09034225,0.002532457,0.0025312721,0.002530469,0.0,0.0,0.0,0.0,0.0,0.0
21761184000,21761104000,0.10073898,0.1007526,0.2143943,1.0688697,1.0688596,0.0,0.0,0.0,0.0,0.0,0.0,0.0,0.0,12.422117,0.0,0.0,nan,0.0,0.0,0.0903389,0.002532457,0.0025312721,0.002530469,0.0,0.0,0.0,0.0,0.0,0.0
21761688000,21761608000,0.10149351,0.101512134,0.21467207,1.0723904,1.0723792,0.0,0.0,0.0,0.0,0.0,0.0,0.0,0.0,12.42348,0.0,0.0,nan,0.0,0.0,0.090335816,0.002532457,0.0025312721,0.002530469,0.0,0.0,0.0,0.0,0.0,0.0
21762184000,21762104000,0.10092218,0.100941285,0.21442929,1.0699567,1.0699477,0.0,0.0,0.0,0.0,0.0,0.0,0.0,0.0,12.423855,0.0,0.0,nan,0.0,0.0,0.09033283,0.002532457,0.0025312721,0.002530469,0.0,0.0,0.0,0.0,0.0,0.0
21762688000,21762608000,0.10045826,0.1004788,0.21421972,1.0675161,1.0675089,0.0,0.0,0.0,0.0,0.0,0.0,0.0,0.0,12.41963,0.0,0.0,nan,0.0,0.0,0.09032974,0.002532457,0.0025312721,0.002530469,0.0,0.0,0.0,0.0,0.0,0.0
21763184000,21763104000,0.10136723,0.1013932,0.21454464,1.0718073,1.0717992,0.0,0.0,0.0,0.0,0.0,0.0,0.0,0.0,12.4247055,0.0,0.0,nan,0.0,0.0,0.09032737,0.002532457,0.0025312721,0.002530469,0.0,0.0,0.0,0.0,0.0,0.0
21763680000,21763600000,0.100714155,0.10074083,0.21430425,1.0688815,1.0688756,0.0,0.0,0.0,0.0,0.0,0.0,0.0,0.0,12.420814,0.0,0.0,nan,0.0,0.0,0.09032519,0.002532457,0.0025312721,0.002530469,0.0,0.0,0.0,0.0,0.0,0.0
21764184000,21764104000,0.100569785,0.10059694,0.21419229,1.0681053,1.0681,0.0,0.0,0.0,0.0,0.0,0.0,0.0,0.0,12.4264765,0.0,0.0,nan,0.0,0.0,0.09032354,0.002532457,0.0025312721,0.002530469,0.0,0.0,0.0,0.0,0.0,0.0
21764688000,21764608000,0.10094673,0.10097901,0.21438494,1.0702101,1.0702057,0.0,0.0,0.0,0.0,0.0,0.0,0.0,0.0,12.421421,0.0,0.0,nan,0.0,0.0,0.09032197,0.002532457,0.0025312721,0.002530469,0.0,0.0,0.0,0.0,0.0,0.0
21765184000,21765104000,0.10059999,0.1006325,0.21422568,1.0684724,1.0684689,0.0,0.0,0.0,0.0,0.0,0.0,0.0,0.0,12.421924,0.0,0.0,nan,0.0,0.0,0.090320595,0.002532457,0.0025312721,0.002530469,0.0,0.0,0.0,0.0,0.0,0.0
21765688000,21765608000,0.10132341,0.10136294,0.21448418,1.0717608,1.0717583,0.0,0.0,0.0,0.0,0.0,0.0,0.0,0.0,12.422351,0.0,0.0,nan,0.0,0.0,0.09031939,0.002532457,0.0025312721,0.002530469,0.0,0.0,0.0,0.0,0.0,0.0
21766184000,21766104000,0.10085297,0.100891195,0.21429732,1.0697094,1.0697078,0.0,0.0,0.0,0.0,0.0,0.0,0.0,0.0,12.422703,0.0,0.0,nan,0.0,0.0,0.090318486,0.002532457,0.0025312721,0.002530469,0.0,0.0,0.0,0.0,0.0,0.0
21766688000,21766608000,0.10053479,0.10057273,0.21414553,1.0680727,1.0680714,0.0,0.0,0.0,0.0,0.0,0.0,0.0,0.0,12.423569,0.0,0.0,nan,0.0,0.0,0.09031735,0.002532457,0.0025312721,0.002530469,0.0,0.0,0.0,0.0,0.0,0.0
21767184000,21767104000,0.101145625,0.10118909,0.21440138,1.0712026,1.071203,0.0,0.0,0.0,0.0,0.0,0.0,0.0,0.0,12.424322,0.0,0.0,nan,0.0,0.0,0.09031649,0.002532457,0.0025312721,0.002530469,0.0,0.0,0.0,0.0,0.0,0.0
21767688000,21767608000,0.10057171,0.100613095,0.21418889,1.068445,1.0684458,0.0,0.0,0.0,0.0,0.0,0.0,0.0,0.0,12.420484,0.0,0.0,nan,0.0,0.0,0.09031577,0.002532457,0.0025312721,0.002530469,0.0,0.0,0.0,0.0,0.0,0.0
21768184000,21768104000,0.10145453,0.10150305,0.21458098,1.0727144,1.0727174,0.0,0.0,0.0,0.0,0.0,0.0,0.0,0.0,12.424105,0.0,0.0,nan,0.0,0.0,0.090315044,0.002532457,0.0025312721,0.002530469,0.0,0.0,0.0,0.0,0.0,0.0
21768688000,21768608000,0.100749336,0.10079404,0.21426693,1.0695506,1.0695533,0.0,0.0,0.0,0.0,0.0,0.0,0.0,0.0,12.420191,0.0,0.0,nan,0.0,0.0,0.09031469,0.002532457,0.0025312721,0.002530469,0.0,0.0,0.0,0.0,0.0,0.0
21769184000,21769104000,0.10045785,0.10050157,0.2141262,1.0679374,1.0679401,0.0,0.0,0.0,0.0,0.0,0.0,0.0,0.0,12.420694,0.0,0.0,nan,0.0,0.0,0.0903143,0.002532457,0.0025312721,0.002530469,0.0,0.0,0.0,0.0,0.0,0.0
21769688000,21769608000,0.10104343,0.10109252,0.21436088,1.0708339,1.0708387,0.0,0.0,0.0,0.0,0.0,0.0,0.0,0.0,12.421492,0.0,0.0,nan,0.0,0.0,0.09031402,0.002532457,0.0025312721,0.002530469,0.0,0.0,0.0,0.0,0.0,0.0
21770184000,21770104000,0.1006585,0.10070518,0.21420199,1.0689672,1.0689716,0.0,0.0,0.0,0.0,0.0,0.0,0.0,0.0,12.421056,0.0,0.0,nan,0.0,0.0,0.09031385,0.002532457,0.0025312721,0.002530469,0.0,0.0,0.0,0.0,0.0,0.0
21770688000,21770608000,0.10140894,0.1014623,0.2144999,1.0724459,1.0724533,0.0,0.0,0.0,0.0,0.0,0.0,0.0,0.0,12.42161,0.0,0.0,nan,0.0,0.0,0.09031388,0.002532457,0.0025312721,0.002530469,0.0,0.0,0.0,0.0,0.0,0.0
21771184000,21771104000,0.10090398,0.10095339,0.21431558,1.0702442,1.0702505,0.0,0.0,0.0,0.0,0.0,0.0,0.0,0.0,12.422548,0.0,0.0,nan,0.0,0.0,0.090313755,0.002532457,0.0025312721,0.002530469,0.0,0.0,0.0,0.0,0.0,0.0
21771680000,21771600000,0.100448534,0.10049538,0.21406989,1.0677719,1.0677775,0.0,0.0,0.0,0.0,0.0,0.0,0.0,0.0,12.422687,0.0,0.0,nan,0.0,0.0,0.09031382,0.002532457,0.0025312721,0.002530469,0.0,0.0,0.0,0.0,0.0,0.0
21772184000,21772104000,0.10129577,0.101350024,0.21444261,1.0717832,1.0717918,0.0,0.0,0.0,0.0,0.0,0.0,0.0,0.0,12.4223385,0.0,0.0,nan,0.0,0.0,0.09031384,0.002532457,0.0025312721,0.002530469,0.0,0.0,0.0,0.0,0.0,0.0
21772680000,21772600000,0.100656025,0.10070504,0.21416445,1.0688577,1.0688648,0.0,0.0,0.0,0.0,0.0,0.0,0.0,0.0,12.41969,0.0,0.0,nan,0.0,0.0,0.090314046,0.002532457,0.0025312721,0.002530469,0.0,0.0,0.0,0.0,0.0,0.0
21773184000,21773104000,0.10051456,0.10056267,0.21413518,1.0680813,1.068088,0.0,0.0,0.0,0.0,0.0,0.0,0.0,0.0,12.423192,0.0,0.0,nan,0.0,0.0,0.09031433,0.002532457,0.0025312721,0.002530469,0.0,0.0,0.0,0.0,0.0,0.0
21773688000,21773608000,0.1009018,0.10095355,0.21428487,1.0701964,1.0702051,0.0,0.0,0.0,0.0,0.0,0.0,0.0,0.0,12.420859,0.0,0.0,nan,0.0,0.0,0.09031448,0.002532457,0.0025312721,0.002530469,0.0,0.0,0.0,0.0,0.0,0.0
21774184000,21774104000,0.100513905,0.10056258,0.21417391,1.0682182,1.0682257,0.0,0.0,0.0,0.0,0.0,0.0,0.0,0.0,12.421462,0.0,0.0,nan,0.0,0.0,0.090314865,0.002532457,0.0025312721,0.002530469,0.0,0.0,0.0,0.0,0.0,0.0
21774688000,21774608000,0.10129604,0.101351745,0.21447298,1.0717587,1.0717695,0.0,0.0,0.0,0.0,0.0,0.0,0.0,0.0,12.421965,0.0,0.0,nan,0.0,0.0,0.09031531,0.002532457,0.0025312721,0.002530469,0.0,0.0,0.0,0.0,0.0,0.0
21775184000,21775104000,0.10082734,0.10087892,0.2142892,1.069706,1.069715,0.0,0.0,0.0,0.0,0.0,0.0,0.0,0.0,12.423266,0.0,0.0,nan,0.0,0.0,0.0903158,0.002532457,0.0025312721,0.002530469,0.0,0.0,0.0,0.0,0.0,0.0
21775680000,21775600000,0.10051341,0.100563094,0.2141389,1.0680679,1.068076,0.0,0.0,0.0,0.0,0.0,0.0,0.0,0.0,12.423715,0.0,0.0,nan,0.0,0.0,0.09031619,0.002532457,0.0025312721,0.002530469,0.0,0.0,0.0,0.0,0.0,0.0
21776184000,21776104000,0.101121925,0.101176865,0.2143916,1.0711919,1.0712028,0.0,0.0,0.0,0.0,0.0,0.0,0.0,0.0,12.42444,0.0,0.0,nan,0.0,0.0,0.090316765,0.002532457,0.0025312721,0.002530469,0.0,0.0,0.0,0.0,0.0,0.0
21776688000,21776608000,0.10055624,0.10060693,0.21418601,1.0684348,1.0684437,0.0,0.0,0.0,0.0,0.0,0.0,0.0,0.0,12.419309,0.0,0.0,nan,0.0,0.0,0.09031749,0.002532457,0.0025312721,0.002530469,0.0,0.0,0.0,0.0,0.0,0.0
21777184000,21777104000,0.10043192,0.100481786,0.21408607,1.0677005,1.0677088,0.0,0.0,0.0,0.0,0.0,0.0,0.0,0.0,12.425421,0.0,0.0,nan,0.0,0.0,0.09031825,0.002532457,0.0025312721,0.002530469,0.0,0.0,0.0,0.0,0.0,0.0
21777680000,21777600000,0.10081269,0.10086633,0.21427292,1.0696725,1.0696825,0.0,0.0,0.0,0.0,0.0,0.0,0.0,0.0,12.421449,0.0,0.0,nan,0.0,0.0,0.090318754,0.002532457,0.0025312721,0.002530469,0.0,0.0,0.0,0.0,0.0,0.0
21778184000,21778104000,0.1005012,0.10055269,0.21412449,1.0680407,1.0680498,0.0,0.0,0.0,0.0,0.0,0.0,0.0,0.0,12.421864,0.0,0.0,nan,0.0,0.0,0.09031956,0.002532457,0.0025312721,0.002530469,0.0,0.0,0.0,0.0,0.0,0.0
21778680000,21778600000,0.10110819,0.10116516,0.21437916,1.0711669,1.0711787,0.0,0.0,0.0,0.0,0.0,0.0,0.0,0.0,12.422526,0.0,0.0,nan,0.0,0.0,0.09032026,0.002532457,0.0025312721,0.002530469,0.0,0.0,0.0,0.0,0.0,0.0
21779184000,21779104000,0.10065395,0.10070681,0.21418071,1.069011,1.0690211,0.0,0.0,0.0,0.0,0.0,0.0,0.0,0.0,12.422423,0.0,0.0,nan,0.0,0.0,0.09032082,0.002532457,0.0025312721,0.002530469,0.0,0.0,0.0,0.0,0.0,0.0
21779688000,21779608000,0.10043184,0.10048364,0.21408437,1.0677216,1.0677309,0.0,0.0,0.0,0.0,0.0,0.0,0.0,0.0,12.421655,0.0,0.0,nan,0.0,0.0,0.09032154,0.002532457,0.0025312721,0.002530469,0.0,0.0,0.0,0.0,0.0,0.0
21780184000,21780104000,0.1010209,0.101078324,0.21433142,1.0706542,1.0706663,0.0,0.0,0.0,0.0,0.0,0.0,0.0,0.0,12.423514,0.0,0.0,nan,0.0,0.0,0.09032212,0.002532457,0.0025312721,0.002530469,0.0,0.0,0.0,0.0,0.0,0.0
21780688000,21780608000,0.1004964,0.10054941,0.2141412,1.0680544,1.0680646,0.0,0.0,0.0,0.0,0.0,0.0,0.0,0.0,12.419846,0.0,0.0,nan,0.0,0.0,0.090323016,0.002532457,0.0025312721,0.002530469,0.0,0.0,0.0,0.0,0.0,0.0
21781184000,21781104000,0.10138122,0.101442605,0.2145384,1.0723305,1.072345,0.0,0.0,0.0,0.0,0.0,0.0,0.0,0.0,12.424446,0.0,0.0,nan,0.0,0.0,0.090323895,0.002532457,0.0025312721,0.002530469,0.0,0.0,0.0,0.0,0.0,0.0
21781688000,21781608000,0.1006924,0.100747675,0.2142287,1.069263,1.0692742,0.0,0.0,0.0,0.0,0.0,0.0,0.0,0.0,12.420953,0.0,0.0,nan,0.0,0.0,0.09032478,0.002532457,0.0025312721,0.002530469,0.0,0.0,0.0,0.0,0.0,0.0
21782184000,21782104000,0.10041154,0.10046485,0.21408947,1.0677084,1.0677185,0.0,0.0,0.0,0.0,0.0,0.0,0.0,0.0,12.421423,0.0,0.0,nan,0.0,0.0,0.09032566,0.002532457,0.0025312721,0.002530469,0.0,0.0,0.0,0.0,0.0,0.0
21782680000,21782600000,0.10099752,0.10105642,0.21439786,1.0706394,1.0706525,0.0,0.0,0.0,0.0,0.0,0.0,0.0,0.0,12.422177,0.0,0.0,nan,0.0,0.0,0.09032654,0.002532457,0.0025312721,0.002530469,0.0,0.0,0.0,0.0,0.0,0.0
21783184000,21783104000,0.100613855,0.10066957,0.21423465,1.0688148,1.0688262,0.0,0.0,0.0,0.0,0.0,0.0,0.0,0.0,12.4225855,0.0,0.0,nan,0.0,0.0,0.09032742,0.002532457,0.0025312721,0.002530469,0.0,0.0,0.0,0.0,0.0,0.0
21783688000,21783608000,0.10130507,0.10136779,0.21448927,1.0720532,1.0720685,0.0,0.0,0.0,0.0,0.0,0.0,0.0,0.0,12.422929,0.0,0.0,nan,0.0,0.0,0.090328276,0.002532457,0.0025312721,0.002530469,0.0,0.0,0.0,0.0,0.0,0.0
21784184000,21784104000,0.10085756,0.10091589,0.2143301,1.0701634,1.0701765,0.0,0.0,0.0,0.0,0.0,0.0,0.0,0.0,12.424073,0.0,0.0,nan,0.0,0.0,0.090329,0.002532457,0.0025312721,0.002530469,0.0,0.0,0.0,0.0,0.0,0.0
21784688000,21784608000,0.10038886,0.10044343,0.21413678,1.0676961,1.0677072,0.0,0.0,0.0,0.0,0.0,0.0,0.0,0.0,12.420232,0.0,0.0,nan,0.0,0.0,0.09032983,0.002532457,0.0025312721,0.002530469,0.0,0.0,0.0,0.0,0.0,0.0
21785184000,21785104000,0.10122912,0.10129191,0.21450035,1.0717053,1.0717208,0.0,0.0,0.0,0.0,0.0,0.0,0.0,0.0,12.424661,0.0,0.0,nan,0.0,0.0,0.090330675,0.002532457,0.0025312721,0.002530469,0.0,0.0,0.0,0.0,0.0,0.0
21785680000,21785600000,0.10059631,0.10065311,0.21419725,1.0688022,1.0688145,0.0,0.0,0.0,0.0,0.0,0.0,0.0,0.0,12.421954,0.0,0.0,nan,0.0,0.0,0.0903315,0.002532457,0.0025312721,0.002530469,0.0,0.0,0.0,0.0,0.0,0.0
21786184000,21786104000,0.10045797,0.100513674,0.21416263,1.0680306,1.0680424,0.0,0.0,0.0,0.0,0.0,0.0,0.0,0.0,12.425634,0.0,0.0,nan,0.0,0.0,0.0903323,0.002532457,0.0025312721,0.002530469,0.0,0.0,0.0,0.0,0.0,0.0
21786680000,21786600000,0.10083964,0.100899085,0.21429192,1.0701302,1.0701442,0.0,0.0,0.0,0.0,0.0,0.0,0.0,0.0,12.421923,0.0,0.0,nan,0.0,0.0,0.09033295,0.002532457,0.0025312721,0.002530469,0.0,0.0,0.0,0.0,0.0,0.0
21787184000,21787104000,0.10050901,0.100565344,0.21413825,1.0684031,1.0684155,0.0,0.0,0.0,0.0,0.0,0.0,0.0,0.0,12.422259,0.0,0.0,nan,0.0,0.0,0.09033373,0.002532457,0.0025312721,0.002530469,0.0,0.0,0.0,0.0,0.0,0.0
21787688000,21787608000,0.101230174,0.10129395,0.21447322,1.0716797,1.0716963,0.0,0.0,0.0,0.0,0.0,0.0,0.0,0.0,12.422548,0.0,0.0,nan,0.0,0.0,0.090334326,0.002532457,0.0025312721,0.002530469,0.0,0.0,0.0,0.0,0.0,0.0
21788184000,21788104000,0.10077181,0.100830875,0.21429047,1.0696422,1.0696563,0.0,0.0,0.0,0.0,0.0,0.0,0.0,0.0,12.424123,0.0,0.0,nan,0.0,0.0,0.09033507,0.002532457,0.0025312721,0.002530469,0.0,0.0,0.0,0.0,0.0,0.0
21788688000,21788608000,0.10046663,0.10052292,0.2141406,1.0680143,1.0680268,0.0,0.0,0.0,0.0,0.0,0.0,0.0,0.0,12.424427,0.0,0.0,nan,0.0,0.0,0.09033579,0.002532457,0.0025312721,0.002530469,0.0,0.0,0.0,0.0,0.0,0.0
21789184000,21789104000,0.1010784,0.10114038,0.21446851,1.0711386,1.0711546,0.0,0.0,0.0,0.0,0.0,0.0,0.0,0.0,12.42456,0.0,0.0,nan,0.0,0.0,0.09033605,0.002532457,0.0025312721,0.002530469,0.0,0.0,0.0,0.0,0.0,0.0
21789680000,21789600000,0.10051964,0.10057617,0.21417797,1.0683953,1.0684084,0.0,0.0,0.0,0.0,0.0,0.0,0.0,0.0,12.4214,0.0,0.0,nan,0.0,0.0,0.090336435,0.002532457,0.0025312721,0.002530469,0.0,0.0,0.0,0.0,0.0,0.0
21790184000,21790104000,0.100398086,0.100453526,0.21414563,1.0676643,1.0676767,0.0,0.0,0.0,0.0,0.0,0.0,0.0,0.0,12.425923,0.0,0.0,nan,0.0,0.0,0.09033681,0.002532457,0.0025312721,0.002530469,0.0,0.0,0.0,0.0,0.0,0.0
21790688000,21790608000,0.10077737,0.10083634,0.21425745,1.0696396,1.0696542,0.0,0.0,0.0,0.0,0.0,0.0,0.0,0.0,12.421782,0.0,0.0,nan,0.0,0.0,0.09033726,0.002532457,0.0025312721,0.002530469,0.0,0.0,0.0,0.0,0.0,0.0
21791184000,21791104000,0.100472644,0.10052872,0.21411337,1.0680128,1.0680258,0.0,0.0,0.0,0.0,0.0,0.0,0.0,0.0,12.421675,0.0,0.0,nan,0.0,0.0,0.09033776,0.002532457,0.0025312721,0.002530469,0.0,0.0,0.0,0.0,0.0,0.0
21791688000,21791608000,0.10103228,0.101093516,0.21441872,1.070885,1.070901,0.0,0.0,0.0,0.0,0.0,0.0,0.0,0.0,12.42189,0.0,0.0,nan,0.0,0.0,0.09033809,0.002532457,0.0025312721,0.002530469,0.0,0.0,0.0,0.0,0.0,0.0
21792184000,21792104000,0.10063047,0.10068779,0.21418494,1.0689874,1.0690011,0.0,0.0,0.0,0.0,0.0,0.0,0.0,0.0,12.42188,0.0,0.0,nan,0.0,0.0,0.09033854,0.002532457,0.0025312721,0.002530469,0.0,0.0,0.0,0.0,0.0,0.0
21792688000,21792608000,0.10036188,0.10041697,0.21405314,1.0674652,1.0674777,0.0,0.0,0.0,0.0,0.0,0.0,0.0,0.0,12.423262,0.0,0.0,nan,0.0,0.0,0.090339124,0.002532457,0.0025312721,0.002530469,0.0,0.0,0.0,0.0,0.0,0.0
21793184000,21793104000,0.101004384,0.10106588,0.21439774,1.0706552,1.0706711,0.0,0.0,0.0,0.0,0.0,0.0,0.0,0.0,12.423582,0.0,0.0,nan,0.0,0.0,0.09033955,0.002532457,0.0025312721,0.002530469,0.0,0.0,0.0,0.0,0.0,0.0
21793688000,21793608000,0.10047739,0.100534044,0.21412808,1.0680547,1.0680677,0.0,0.0,0.0,0.0,0.0,0.0,0.0,0.0,12.420213,0.0,0.0,nan,0.0,0.0,0.09033994,0.002532457,0.0025312721,0.002530469,0.0,0.0,0.0,0.0,0.0,0.0
21794184000,21794104000,0.101361685,0.10142722,0.21452363,1.0723282,1.0723462,0.0,0.0,0.0,0.0,0.0,0.0,0.0,0.0,12.424309,0.0,0.0,nan,0.0,0.0,0.09034016,0.002532457,0.0025312721,0.002530469,0.0,0.0,0.0,0.0,0.0,0.0
21794688000,21794608000,0.10067198,0.100730434,0.21422058,1.0692401,1.069254,0.0,0.0,0.0,0.0,0.0,0.0,0.0,0.0,12.420901,0.0,0.0,nan,0.0,0.0,0.0903405,0.002532457,0.0025312721,0.002530469,0.0,0.0,0.0,0.0,0.0,0.0
21795184000,21795104000,0.100398675,0.10045479,0.2140842,1.0676887,1.0677012,0.0,0.0,0.0,0.0,0.0,0.0,0.0,0.0,12.421395,0.0,0.0,nan,0.0,0.0,0.090340994,0.002532457,0.0025312721,0.002530469,0.0,0.0,0.0,0.0,0.0,0.0
21795688000,21795608000,0.10099333,0.10105517,0.21439362,1.0706198,1.0706356,0.0,0.0,0.0,0.0,0.0,0.0,0.0,0.0,12.422155,0.0,0.0,nan,0.0,0.0,0.090341456,0.002532457,0.0025312721,0.002530469,0.0,0.0,0.0,0.0,0.0,0.0
21796184000,21796104000,0.10062064,0.10067871,0.2142317,1.0687985,1.0688121,0.0,0.0,0.0,0.0,0.0,0.0,0.0,0.0,12.422588,0.0,0.0,nan,0.0,0.0,0.09034189,0.002532457,0.0025312721,0.002530469,0.0,0.0,0.0,0.0,0.0,0.0
21796688000,21796608000,0.101370774,0.10143656,0.21452911,1.0723015,1.0723195,0.0,0.0,0.0,0.0,0.0,0.0,0.0,0.0,12.4220915,0.0,0.0,nan,0.0,0.0,0.09034184,0.002532457,0.0025312721,0.002530469,0.0,0.0,0.0,0.0,0.0,0.0
21797184000,21797104000,0.100866415,0.100927174,0.2143468,1.0701323,1.0701472,0.0,0.0,0.0,0.0,0.0,0.0,0.0,0.0,12.42258,0.0,0.0,nan,0.0,0.0,0.09034209,0.002532457,0.0025312721,0.002530469,0.0,0.0,0.0,0.0,0.0,0.0
21797688000,21797608000,0.100406654,0.100463636,0.21409482,1.0676743,1.0676868,0.0,0.0,0.0,0.0,0.0,0.0,0.0,0.0,12.419825,0.0,0.0,nan,0.0,0.0,0.09034246,0.002532457,0.0025312721,0.002530469,0.0,0.0,0.0,0.0,0.0,0.0
21798184000,21798104000,0.10125001,0.101315506,0.21446064,1.0716867,1.0717039,0.0,0.0,0.0,0.0,0.0,0.0,0.0,0.0,12.424436,0.0,0.0,nan,0.0,0.0,0.090342514,0.002532457,0.0025312721,0.002530469,0.0,0.0,0.0,0.0,0.0,0.0
21798688000,21798608000,0.10061601,0.10067524,0.2141709,1.0687904,1.068804,0.0,0.0,0.0,0.0,0.0,0.0,0.0,0.0,12.419684,0.0,0.0,nan,0.0,0.0,0.090342745,0.002532457,0.0025312721,0.002530469,0.0,0.0,0.0,0.0,0.0,0.0
21799184000,21799104000,0.10047852,0.10053639,0.21414098,1.0680207,1.0680335,0.0,0.0,0.0,0.0,0.0,0.0,0.0,0.0,12.424515,0.0,0.0,nan,0.0,0.0,0.090342775,0.002532457,0.0025312721,0.002530469,0.0,0.0,0.0,0.0,0.0,0.0
21799688000,21799608000,0.10087073,0.100932114,0.21435566,1.0701474,1.0701625,0.0,0.0,0.0,0.0,0.0,0.0,0.0,0.0,12.421056,0.0,0.0,nan,0.0,0.0,0.090342924,0.002532457,0.0025312721,0.002530469,0.0,0.0,0.0,0.0,0.0,0.0
21800184000,21800104000,0.10053432,0.10059275,0.21420324,1.0684187,1.068432,0.0,0.0,0.0,0.0,0.0,0.0,0.0,0.0,12.421576,0.0,0.0,nan,0.0,0.0,0.090343215,0.002532457,0.0025312721,0.002530469,0.0,0.0,0.0,0.0,0.0,0.0
21800688000,21800608000,0.10125003,0.10131588,0.2144674,1.0716984,1.071716,0.0,0.0,0.0,0.0,0.0,0.0,0.0,0.0,12.422019,0.0,0.0,nan,0.0,0.0,0.09034347,0.002532457,0.0025312721,0.002530469,0.0,0.0,0.0,0.0,0.0,0.0
21801184000,21801104000,0.10078694,0.100847885,0.21428616,1.0696577,1.0696725,0.0,0.0,0.0,0.0,0.0,0.0,0.0,0.0,12.42284,0.0,0.0,nan,0.0,0.0,0.09034356,0.002532457,0.0025312721,0.002530469,0.0,0.0,0.0,0.0,0.0,0.0
21801688000,21801608000,0.100479916,0.10053748,0.21413958,1.068028,1.0680412,0.0,0.0,0.0,0.0,0.0,0.0,0.0,0.0,12.423345,0.0,0.0,nan,0.0,0.0,0.09034363,0.002532457,0.0025312721,0.002530469,0.0,0.0,0.0,0.0,0.0,0.0
21802184000,21802104000,0.10110131,0.101165146,0.2144078,1.071176,1.0711929,0.0,0.0,0.0,0.0,0.0,0.0,0.0,0.0,12.423769,0.0,0.0,nan,0.0,0.0,0.09034354,0.002532457,0.0025312721,0.002530469,0.0,0.0,0.0,0.0,0.0,0.0
21802680000,21802600000,0.10054218,0.10060021,0.21413068,1.0684431,1.0684565,0.0,0.0,0.0,0.0,0.0,0.0,0.0,0.0,12.4232855,0.0,0.0,nan,0.0,0.0,0.09034358,0.002532457,0.0025312721,0.002530469,0.0,0.0,0.0,0.0,0.0,0.0
21803184000,21803104000,0.10037175,0.100428104,0.21406987,1.0674717,1.0674844,0.0,0.0,0.0,0.0,0.0,0.0,0.0,0.0,12.424309,0.0,0.0,nan,0.0,0.0,0.09034362,0.002532457,0.0025312721,0.002530469,0.0,0.0,0.0,0.0,0.0,0.0
21803688000,21803608000,0.10080241,0.10086287,0.21429472,1.0696954,1.0697103,0.0,0.0,0.0,0.0,0.0,0.0,0.0,0.0,12.420469,0.0,0.0,nan,0.0,0.0,0.09034349,0.002532457,0.0025312721,0.002530469,0.0,0.0,0.0,0.0,0.0,0.0
21804184000,21804104000,0.10049087,0.100547686,0.21414945,1.0680586,1.0680717,0.0,0.0,0.0,0.0,0.0,0.0,0.0,0.0,12.421388,0.0,0.0,nan,0.0,0.0,0.09034364,0.002532457,0.0025312721,0.002530469,0.0,0.0,0.0,0.0,0.0,0.0
21804680000,21804600000,0.10110556,0.101168394,0.21441458,1.0712044,1.0712209,0.0,0.0,0.0,0.0,0.0,0.0,0.0,0.0,12.421337,0.0,0.0,nan,0.0,0.0,0.090343475,0.002532457,0.0025312721,0.002530469,0.0,0.0,0.0,0.0,0.0,0.0
21805184000,21805104000,0.10068937,0.100747645,0.214244,1.0692629,1.069277,0.0,0.0,0.0,0.0,0.0,0.0,0.0,0.0,12.4226675,0.0,0.0,nan,0.0,0.0,0.090343475,0.002532457,0.0025312721,0.002530469,0.0,0.0,0.0,0.0,0.0,0.0
21805680000,21805600000,0.10042164,0.10047787,0.21410684,1.0677279,1.0677407,0.0,0.0,0.0,0.0,0.0,0.0,0.0,0.0,12.423161,0.0,0.0,nan,0.0,0.0,0.09034344,0.002532457,0.0025312721,0.002530469,0.0,0.0,0.0,0.0,0.0,0.0
21806184000,21806104000,0.10100998,0.10107192,0.21441138,1.0706576,1.0706735,0.0,0.0,0.0,0.0,0.0,0.0,0.0,0.0,12.423466,0.0,0.0,nan,0.0,0.0,0.09034326,0.002532457,0.0025312721,0.002530469,0.0,0.0,0.0,0.0,0.0,0.0
21806680000,21806600000,0.099850655,0.09989715,0.21411784,1.0681074,1.0681202,0.0,0.0,0.0,0.0,0.0,0.0,0.0,0.0,12.419666,0.0,0.0,nan,0.0,0.0,0.090343624,0.002532457,0.0025312721,0.002530469,0.0,0.0,0.0,0.0,0.0,0.0
21807184000,21807104000,0.10066245,0.10030754,0.21329905,1.0722363,1.0722532,0.0,0.0,0.0,0.0,0.0,0.0,0.0,0.0,12.423257,0.0,0.0,nan,0.0,0.0,0.09034566,0.002862528,0.0030335053,0.0030818058,0.0,0.0,0.0,0.0,0.0,0.0
21807680000,21807600000,0.103781186,0.100505464,0.21199894,1.0690541,1.0690614,0.0,0.0,0.0,0.0,0.0,0.0,0.0,0.0,12.419386,0.0,0.0,nan,0.0,0.0,0.09034566,0.0026782958,0.0027000727,0.0027111373,0.0,0.0,0.0,0.0,0.0,0.0
21808184000,21808104000,0.10325232,0.10108075,0.21156548,1.0672504,1.0672278,0.0,0.0,0.0,0.0,0.0,0.0,0.0,0.0,12.419395,0.0,0.0,nan,0.0,0.0,0.09034566,0.0026390017,0.002627908,0.0026413798,0.0,0.0,0.0,0.0,0.0,0.0
21808680000,21808600000,0.10384964,0.10256158,0.21169476,1.0704553,1.0703048,0.0,0.0,0.0,0.0,0.0,0.0,0.0,0.0,12.41831,0.0,0.0,nan,0.0,0.0,0.09034566,0.0025973213,0.0025952386,0.002600922,0.0,0.0,0.0,0.0,0.0,0.0
21809184000,21809104000,0.103682846,0.10271781,0.21185623,1.0686712,1.0685117,0.0,0.0,0.0,0.0,0.0,0.0,0.0,0.0,12.417656,0.0,0.0,nan,0.0,0.0,0.09034566,0.002591067,0.0025752771,0.0025789165,0.0,0.0,0.0,0.0,0.0,0.0
21809688000,21809608000,0.10477364,0.104061075,0.21258882,1.072107,1.0718364,0.0,0.0,0.0,0.0,0.0,0.0,0.0,0.0,12.415923,0.0,0.0,nan,0.0,0.0,0.09034566,0.0025695907,0.0025624668,0.0025671758,0.0,0.0,0.0,0.0,0.0,0.0
21810184000,21810104000,0.10381531,0.10346551,0.21296789,1.0702614,1.0700076,0.0,0.0,0.0,0.0,0.0,0.0,0.0,0.0,12.415703,0.0,0.0,nan,0.0,0.0,0.09034566,0.002553611,0.002553275,0.002553704,0.0,0.0,0.0,0.0,0.0,0.0
21810688000,21810608000,0.10316319,0.10283083,0.21360894,1.067883,1.067662,0.0,0.0,0.0,0.0,0.0,0.0,0.0,0.0,12.412752,0.0,0.0,nan,0.0,0.0,0.09034566,0.0025468986,0.0025477048,0.0025475381,0.0,0.0,0.0,0.0,0.0,0.0
21811184000,21811104000,0.104777046,0.10403791,0.21443246,1.0720608,1.0718743,0.0,0.0,0.0,0.0,0.0,0.0,0.0,0.0,12.415958,0.0,0.0,nan,0.0,0.0,0.09034566,0.002543814,0.0025409535,0.0025420925,0.0,0.0,0.0,0.0,0.0,0.0
21811688000,21811608000,0.10410947,0.10307745,0.21492003,1.0691179,1.0689906,0.0,0.0,0.0,0.0,0.0,0.0,0.0,0.0,12.414247,0.0,0.0,nan,0.0,0.0,0.09034566,0.0025420324,0.002537195,0.0025383523,0.0,0.0,0.0,0.0,0.0,0.0
21812184000,21812104000,0.10393578,0.10282118,0.21510333,1.0683409,1.0682329,0.0,0.0,0.0,0.0,0.0,0.0,0.0,0.0,12.418139,0.0,0.0,nan,0.0,0.0,0.09034566,0.0025446024,0.0025339574,0.0025372356,0.0,0.0,0.0,0.0,0.0,0.0
21812680000,21812600000,0.10446728,0.10307796,0.21602477,1.0705699,1.070519,0.0,0.0,0.0,0.0,0.0,0.0,0.0,0.0,12.414158,0.0,0.0,nan,0.0,0.0,0.09026188,0.0025442452,0.0025320228,0.0025359022,0.0,0.0,0.0,0.0,0.0,0.0
21813184000,21813104000,0.1036153,0.10238283,0.21612209,1.0688113,1.0687723,0.0,0.0,0.0,0.0,0.0,0.0,0.0,0.0,12.415463,0.0,0.0,nan,0.0,0.0,0.09025007,0.0025442452,0.0025320228,0.0025359022,0.0,0.0,0.0,0.0,0.0,0.0
21813688000,21813608000,0.104098074,0.10293313,0.21676293,1.0722952,1.0722371,0.0,0.0,0.0,0.0,0.0,0.0,0.0,0.0,12.415681,0.0,0.0,nan,0.0,0.0,0.090239786,0.0025442452,0.0025320228,0.0025359022,0.0,0.0,0.0,0.0,0.0,0.0
21814184000,21814104000,0.10295716,0.10206079,0.21669418,1.0701756,1.0701234,0.0,0.0,0.0,0.0,0.0,0.0,0.0,0.0,12.417522,0.0,0.0,nan,0.0,0.0,0.09023151,0.0025442452,0.0025320228,0.0025359022,0.0,0.0,0.0,0.0,0.0,0.0
21814688000,21814608000,0.10214656,0.10143537,0.21661876,1.0684994,1.0684478,0.0,0.0,0.0,0.0,0.0,0.0,0.0,0.0,12.4193125,0.0,0.0,nan,0.0,0.0,0.090225756,0.0025442452,0.0025320228,0.0025359022,0.0,0.0,0.0,0.0,0.0,0.0
21815184000,21815104000,0.10246362,0.10184169,0.21721171,1.0717492,1.0716586,0.0,0.0,0.0,0.0,0.0,0.0,0.0,0.0,12.420804,0.0,0.0,nan,0.0,0.0,0.09022139,0.0025442452,0.0025320228,0.0025359022,0.0,0.0,0.0,0.0,0.0,0.0
21815688000,21815608000,0.10142641,0.10098394,0.21685827,1.0688837,1.0688047,0.0,0.0,0.0,0.0,0.0,0.0,0.0,0.0,12.418204,0.0,0.0,nan,0.0,0.0,0.090216786,0.0025442452,0.0025320228,0.0025359022,0.0,0.0,0.0,0.0,0.0,0.0
21816184000,21816104000,0.10119556,0.10079244,0.21681061,1.0681227,1.0680457,0.0,0.0,0.0,0.0,0.0,0.0,0.0,0.0,12.42445,0.0,0.0,nan,0.0,0.0,0.090217225,0.0025442452,0.0025320228,0.0025359022,0.0,0.0,0.0,0.0,0.0,0.0
21816688000,21816608000,0.101374,0.10105361,0.21709067,1.0700942,1.0699934,0.0,0.0,0.0,0.0,0.0,0.0,0.0,0.0,12.422238,0.0,0.0,nan,0.0,0.0,0.09021531,0.0025442452,0.0025320228,0.0025359022,0.0,0.0,0.0,0.0,0.0,0.0
21817184000,21817104000,0.10095214,0.10069156,0.21685162,1.0683966,1.0683062,0.0,0.0,0.0,0.0,0.0,0.0,0.0,0.0,12.422358,0.0,0.0,nan,0.0,0.0,0.09021554,0.0025442452,0.0025320228,0.0025359022,0.0,0.0,0.0,0.0,0.0,0.0
21817688000,21817608000,0.101524875,0.10128929,0.217222,1.0715238,1.0714114,0.0,0.0,0.0,0.0,0.0,0.0,0.0,0.0,12.423228,0.0,0.0,nan,0.0,0.0,0.09021606,0.0025442452,0.0025320228,0.0025359022,0.0,0.0,0.0,0.0,0.0,0.0
21818184000,21818104000,0.101059295,0.1008661,0.21693717,1.0695236,1.069428,0.0,0.0,0.0,0.0,0.0,0.0,0.0,0.0,12.42421,0.0,0.0,nan,0.0,0.0,0.09021699,0.0025442452,0.0025320228,0.0025359022,0.0,0.0,0.0,0.0,0.0,0.0
21818688000,21818608000,0.10075093,0.10058737,0.21671338,1.0679245,1.0678406,0.0,0.0,0.0,0.0,0.0,0.0,0.0,0.0,12.426339,0.0,0.0,nan,0.0,0.0,0.09021814,0.0025442452,0.0025320228,0.0025359022,0.0,0.0,0.0,0.0,0.0,0.0
21819184000,21819104000,0.10134086,0.101190776,0.21705101,1.0708495,1.0707527,0.0,0.0,0.0,0.0,0.0,0.0,0.0,0.0,12.427018,0.0,0.0,nan,0.0,0.0,0.09021936,0.0025442452,0.0025320228,0.0025359022,0.0,0.0,0.0,0.0,0.0,0.0
21819688000,21819608000,0.100774586,0.1006635,0.2166442,1.0681987,1.0681226,0.0,0.0,0.0,0.0,0.0,0.0,0.0,0.0,12.422385,0.0,0.0,nan,0.0,0.0,0.090220675,0.0025442452,0.0025320228,0.0025359022,0.0,0.0,0.0,0.0,0.0,0.0
21820184000,21820104000,0.1016355,0.101523176,0.21717884,1.0722244,1.0721326,0.0,0.0,0.0,0.0,0.0,0.0,0.0,0.0,12.427618,0.0,0.0,nan,0.0,0.0,0.09022252,0.0025442452,0.0025320228,0.0025359022,0.0,0.0,0.0,0.0,0.0,0.0
21820680000,21820600000,0.10095967,0.10087938,0.21685484,1.0693753,1.0693061,0.0,0.0,0.0,0.0,0.0,0.0,0.0,0.0,12.423187,0.0,0.0,nan,0.0,0.0,0.090224184,0.0025442452,0.0025320228,0.0025359022,0.0,0.0,0.0,0.0,0.0,0.0
21821184000,21821104000,0.10066614,0.10060081,0.21664347,1.0678021,1.0677432,0.0,0.0,0.0,0.0,0.0,0.0,0.0,0.0,12.425411,0.0,0.0,nan,0.0,0.0,0.09022591,0.0025442452,0.0025320228,0.0025359022,0.0,0.0,0.0,0.0,0.0,0.0
21821688000,21821608000,0.10127596,0.101215616,0.2169926,1.0707371,1.0706761,0.0,0.0,0.0,0.0,0.0,0.0,0.0,0.0,12.424847,0.0,0.0,nan,0.0,0.0,0.09022781,0.0025442452,0.0025320228,0.0025359022,0.0,0.0,0.0,0.0,0.0,0.0
21822184000,21822104000,0.10086875,0.10081876,0.21674827,1.0688975,1.0688472,0.0,0.0,0.0,0.0,0.0,0.0,0.0,0.0,12.426963,0.0,0.0,nan,0.0,0.0,0.09022978,0.0025442452,0.0025320228,0.0025359022,0.0,0.0,0.0,0.0,0.0,0.0
21822680000,21822600000,0.101631984,0.10158517,0.21718395,1.0724149,1.0723615,0.0,0.0,0.0,0.0,0.0,0.0,0.0,0.0,12.42592,0.0,0.0,nan,0.0,0.0,0.09023169,0.0025442452,0.0025320228,0.0025359022,0.0,0.0,0.0,0.0,0.0,0.0
21823184000,21823104000,0.10111267,0.10107514,0.21690744,1.0702481,1.0702053,0.0,0.0,0.0,0.0,0.0,0.0,0.0,0.0,12.427014,0.0,0.0,nan,0.0,0.0,0.090234,0.0025442452,0.0025320228,0.0025359022,0.0,0.0,0.0,0.0,0.0,0.0
21823688000,21823608000,0.10056552,0.1005376,0.21658996,1.0675305,1.0674981,0.0,0.0,0.0,0.0,0.0,0.0,0.0,0.0,12.4227295,0.0,0.0,nan,0.0,0.0,0.09023599,0.0025442452,0.0025320228,0.0025359022,0.0,0.0,0.0,0.0,0.0,0.0
21824184000,21824104000,0.10149108,0.10146212,0.21718487,1.071828,1.0717905,0.0,0.0,0.0,0.0,0.0,0.0,0.0,0.0,12.429241,0.0,0.0,nan,0.0,0.0,0.09023812,0.0025442452,0.0025320228,0.0025359022,0.0,0.0,0.0,0.0,0.0,0.0
21824680000,21824600000,0.100822285,0.10080197,0.21675222,1.0688983,1.0688705,0.0,0.0,0.0,0.0,0.0,0.0,0.0,0.0,12.424564,0.0,0.0,nan,0.0,0.0,0.09024,0.0025442452,0.0025320228,0.0025359022,0.0,0.0,0.0,0.0,0.0,0.0
21825184000,21825104000,0.10067476,0.100656524,0.21660753,1.0681217,1.0680962,0.0,0.0,0.0,0.0,0.0,0.0,0.0,0.0,12.42966,0.0,0.0,nan,0.0,0.0,0.09024201,0.0025442452,0.0025320228,0.0025359022,0.0,0.0,0.0,0.0,0.0,0.0
21825688000,21825608000,0.10103718,0.101023465,0.2169007,1.0702335,1.0702099,0.0,0.0,0.0,0.0,0.0,0.0,0.0,0.0,12.425845,0.0,0.0,nan,0.0,0.0,0.09024408,0.0025442452,0.0025320228,0.0025359022,0.0,0.0,0.0,0.0,0.0,0.0
21826184000,21826104000,0.10067989,0.10066936,0.21666986,1.0684936,1.0684739,0.0,0.0,0.0,0.0,0.0,0.0,0.0,0.0,12.425762,0.0,0.0,nan,0.0,0.0,0.09024595,0.0025442452,0.0025320228,0.0025359022,0.0,0.0,0.0,0.0,0.0,0.0
21826688000,21826608000,0.10140574,0.1013965,0.21716261,1.0717906,1.0717702,0.0,0.0,0.0,0.0,0.0,0.0,0.0,0.0,12.427228,0.0,0.0,nan,0.0,0.0,0.09024789,0.0025442452,0.0025320228,0.0025359022,0.0,0.0,0.0,0.0,0.0,0.0
21827184000,21827104000,0.10092243,0.100915544,0.21689278,1.0697356,1.0697191,0.0,0.0,0.0,0.0,0.0,0.0,0.0,0.0,12.427109,0.0,0.0,nan,0.0,0.0,0.09024993,0.0025442452,0.0025320228,0.0025359022,0.0,0.0,0.0,0.0,0.0,0.0
21827688000,21827608000,0.10060241,0.10059686,0.21667975,1.0680962,1.0680825,0.0,0.0,0.0,0.0,0.0,0.0,0.0,0.0,12.42822,0.0,0.0,nan,0.0,0.0,0.09025161,0.0025442452,0.0025320228,0.0025359022,0.0,0.0,0.0,0.0,0.0,0.0
21828184000,21828104000,0.10120777,0.101202086,0.21707301,1.0712348,1.071221,0.0,0.0,0.0,0.0,0.0,0.0,0.0,0.0,12.428531,0.0,0.0,nan,0.0,0.0,0.09025362,0.0025442452,0.0025320228,0.0025359022,0.0,0.0,0.0,0.0,0.0,0.0
21828688000,21828608000,0.100613676,0.100609206,0.21666403,1.068472,1.0684617,0.0,0.0,0.0,0.0,0.0,0.0,0.0,0.0,12.424464,0.0,0.0,nan,0.0,0.0,0.090255365,0.0025442452,0.0025320228,0.0025359022,0.0,0.0,0.0,0.0,0.0,0.0
21829184000,21829104000,0.1004863,0.10048207,0.21661432,1.0677361,1.0677266,0.0,0.0,0.0,0.0,0.0,0.0,0.0,0.0,12.429078,0.0,0.0,nan,0.0,0.0,0.09025721,0.0025442452,0.0025320228,0.0025359022,0.0,0.0,0.0,0.0,0.0,0.0
21829688000,21829608000,0.10085568,0.100852,0.21689981,1.0697128,1.069704,0.0,0.0,0.0,0.0,0.0,0.0,0.0,0.0,12.424965,0.0,0.0,nan,0.0,0.0,0.09025913,0.0025442452,0.0025320228,0.0025359022,0.0,0.0,0.0,0.0,0.0,0.0
21830184000,21830104000,0.10054049,0.10053715,0.21668734,1.068076,1.0680687,0.0,0.0,0.0,0.0,0.0,0.0,0.0,0.0,12.425509,0.0,0.0,nan,0.0,0.0,0.09026103,0.0025442452,0.0025320228,0.0025359022,0.0,0.0,0.0,0.0,0.0,0.0
21830680000,21830600000,0.10114802,0.10114457,0.21708009,1.0712075,1.0712003,0.0,0.0,0.0,0.0,0.0,0.0,0.0,0.0,12.425919,0.0,0.0,nan,0.0,0.0,0.09026279,0.0025442452,0.0025320228,0.0025359022,0.0,0.0,0.0,0.0,0.0,0.0
21831184000,21831104000,0.10072953,0.10072694,0.21682948,1.0692679,1.0692619,0.0,0.0,0.0,0.0,0.0,0.0,0.0,0.0,12.426439,0.0,0.0,nan,0.0,0.0,0.09026463,0.0025442452,0.0025320228,0.0025359022,0.0,0.0,0.0,0.0,0.0,0.0
21831680000,21831600000,0.10039866,0.10039635,0.21658552,1.0674788,1.0674739,0.0,0.0,0.0,0.0,0.0,0.0,0.0,0.0,12.426654,0.0,0.0,nan,0.0,0.0,0.09026635,0.0025442452,0.0025320228,0.0025359022,0.0,0.0,0.0,0.0,0.0,0.0
21832184000,21832104000,0.10103241,0.10103037,0.2170047,1.0706742,1.0706692,0.0,0.0,0.0,0.0,0.0,0.0,0.0,0.0,12.426668,0.0,0.0,nan,0.0,0.0,0.09026792,0.0025442452,0.0025320228,0.0025359022,0.0,0.0,0.0,0.0,0.0,0.0
21832688000,21832608000,0.100502744,0.10050133,0.21663445,1.0680705,1.0680668,0.0,0.0,0.0,0.0,0.0,0.0,0.0,0.0,12.422992,0.0,0.0,nan,0.0,0.0,0.0902697,0.0025442452,0.0025320228,0.0025359022,0.0,0.0,0.0,0.0,0.0,0.0
21833184000,21833104000,0.101328656,0.10132702,0.21717685,1.0720886,1.0720845,0.0,0.0,0.0,0.0,0.0,0.0,0.0,0.0,12.428533,0.0,0.0,nan,0.0,0.0,0.090271324,0.0025442452,0.0025320228,0.0025359022,0.0,0.0,0.0,0.0,0.0,0.0
21833688000,21833608000,0.10071132,0.1007102,0.21678218,1.0692974,1.0692945,0.0,0.0,0.0,0.0,0.0,0.0,0.0,0.0,12.424548,0.0,0.0,nan,0.0,0.0,0.09027281,0.0025442452,0.0025320228,0.0025359022,0.0,0.0,0.0,0.0,0.0,0.0
21834184000,21834104000,0.10038322,0.10038246,0.21662404,1.0675217,1.0675192,0.0,0.0,0.0,0.0,0.0,0.0,0.0,0.0,12.425171,0.0,0.0,nan,0.0,0.0,0.090274364,0.0025442452,0.0025320228,0.0025359022,0.0,0.0,0.0,0.0,0.0,0.0
21834688000,21834608000,0.10102089,0.10102043,0.21703012,1.0707102,1.0707077,0.0,0.0,0.0,0.0,0.0,0.0,0.0,0.0,12.426153,0.0,0.0,nan,0.0,0.0,0.090275906,0.0025442452,0.0025320228,0.0025359022,0.0,0.0,0.0,0.0,0.0,0.0
21835184000,21835104000,0.10063209,0.100631684,0.21678595,1.0688726,1.0688705,0.0,0.0,0.0,0.0,0.0,0.0,0.0,0.0,12.426657,0.0,0.0,nan,0.0,0.0,0.09027752,0.0025442452,0.0025320228,0.0025359022,0.0,0.0,0.0,0.0,0.0,0.0
21835688000,21835608000,0.10136804,0.10136745,0.2172205,1.0723711,1.0723691,0.0,0.0,0.0,0.0,0.0,0.0,0.0,0.0,12.426629,0.0,0.0,nan,0.0,0.0,0.09027887,0.0025442452,0.0025320228,0.0025359022,0.0,0.0,0.0,0.0,0.0,0.0
21836184000,21836104000,0.10086621,0.10086529,0.21693763,1.0701873,1.0701858,0.0,0.0,0.0,0.0,0.0,0.0,0.0,0.0,12.425592,0.0,0.0,nan,0.0,0.0,0.09028019,0.0025442452,0.0025320228,0.0025359022,0.0,0.0,0.0,0.0,0.0,0.0
21836688000,21836608000,0.1004021,0.1004013,0.21658407,1.067714,1.0677128,0.0,0.0,0.0,0.0,0.0,0.0,0.0,0.0,12.422962,0.0,0.0,nan,0.0,0.0,0.09028173,0.0025442452,0.0025320228,0.0025359022,0.0,0.0,0.0,0.0,0.0,0.0
21837184000,21837104000,0.10124445,0.101243414,0.2171318,1.0717261,1.0717247,0.0,0.0,0.0,0.0,0.0,0.0,0.0,0.0,12.427464,0.0,0.0,nan,0.0,0.0,0.0902831,0.0025442452,0.0025320228,0.0025359022,0.0,0.0,0.0,0.0,0.0,0.0
21837680000,21837600000,0.10061322,0.10061248,0.21671192,1.0688175,1.0688164,0.0,0.0,0.0,0.0,0.0,0.0,0.0,0.0,12.428009,0.0,0.0,nan,0.0,0.0,0.090284586,0.0025442452,0.0025320228,0.0025359022,0.0,0.0,0.0,0.0,0.0,0.0
21838184000,21838104000,0.10047531,0.10047451,0.21665476,1.0680449,1.068044,0.0,0.0,0.0,0.0,0.0,0.0,0.0,0.0,12.430275,0.0,0.0,nan,0.0,0.0,0.090286024,0.0025442452,0.0025320228,0.0025359022,0.0,0.0,0.0,0.0,0.0,0.0
21838688000,21838608000,0.10086979,0.100868806,0.2169468,1.0701454,1.0701444,0.0,0.0,0.0,0.0,0.0,0.0,0.0,0.0,12.425393,0.0,0.0,nan,0.0,0.0,0.090287425,0.0025442452,0.0025320228,0.0025359022,0.0,0.0,0.0,0.0,0.0,0.0
21839184000,21839104000,0.100536704,0.10053567,0.21671203,1.0684171,1.0684162,0.0,0.0,0.0,0.0,0.0,0.0,0.0,0.0,12.426865,0.0,0.0,nan,0.0,0.0,0.090288796,0.0025442452,0.0025320228,0.0025359022,0.0,0.0,0.0,0.0,0.0,0.0
21839688000,21839608000,0.10124873,0.101247616,0.21711057,1.0716987,1.0716977,0.0,0.0,0.0,0.0,0.0,0.0,0.0,0.0,12.426767,0.0,0.0,nan,0.0,0.0,0.09029014,0.0025442452,0.0025320228,0.0025359022,0.0,0.0,0.0,0.0,0.0,0.0
21840184000,21840104000,0.10078428,0.100783214,0.21684049,1.0696579,1.069657,0.0,0.0,0.0,0.0,0.0,0.0,0.0,0.0,12.427715,0.0,0.0,nan,0.0,0.0,0.09029131,0.0025442452,0.0025320228,0.0025359022,0.0,0.0,0.0,0.0,0.0,0.0
21840680000,21840600000,0.100474425,0.10047332,0.2166274,1.0680285,1.0680276,0.0,0.0,0.0,0.0,0.0,0.0,0.0,0.0,12.4282255,0.0,0.0,nan,0.0,0.0,0.09029246,0.0025442452,0.0025320228,0.0025359022,0.0,0.0,0.0,0.0,0.0,0.0
21841184000,21841104000,0.10109815,0.10109692,0.21701705,1.0711775,1.0711766,0.0,0.0,0.0,0.0,0.0,0.0,0.0,0.0,12.428074,0.0,0.0,nan,0.0,0.0,0.09029357,0.0025442452,0.0025320228,0.0025359022,0.0,0.0,0.0,0.0,0.0,0.0
21841688000,21841608000,0.10054299,0.10054187,0.216626,1.0684447,1.068444,0.0,0.0,0.0,0.0,0.0,0.0,0.0,0.0,12.427049,0.0,0.0,nan,0.0,0.0,0.09029478,0.0025442452,0.0025320228,0.0025359022,0.0,0.0,0.0,0.0,0.0,0.0
21842184000,21842104000,0.1004179,0.10041685,0.21657945,1.0677097,1.067709,0.0,0.0,0.0,0.0,0.0,0.0,0.0,0.0,12.429425,0.0,0.0,nan,0.0,0.0,0.09029584,0.0025442452,0.0025320228,0.0025359022,0.0,0.0,0.0,0.0,0.0,0.0
21842688000,21842608000,0.10077794,0.10077721,0.21686254,1.0696808,1.0696801,0.0,0.0,0.0,0.0,0.0,0.0,0.0,0.0,12.424738,0.0,0.0,nan,0.0,0.0,0.090296865,0.0025442452,0.0025320228,0.0025359022,0.0,0.0,0.0,0.0,0.0,0.0
21843184000,21843104000,0.100464225,0.10046381,0.21664779,1.0680472,1.0680465,0.0,0.0,0.0,0.0,0.0,0.0,0.0,0.0,12.42527,0.0,0.0,nan,0.0,0.0,0.09029786,0.0025442452,0.0025320228,0.0025359022,0.0,0.0,0.0,0.0,0.0,0.0
21843680000,21843600000,0.10106649,0.101066664,0.21703514,1.0711688,1.0711681,0.0,0.0,0.0,0.0,0.0,0.0,0.0,0.0,12.425148,0.0,0.0,nan,0.0,0.0,0.09029895,0.0025442452,0.0025320228,0.0025359022,0.0,0.0,0.0,0.0,0.0,0.0
21844184000,21844104000,0.10065676,0.100657254,0.216788,1.0692339,1.0692332,0.0,0.0,0.0,0.0,0.0,0.0,0.0,0.0,12.426278,0.0,0.0,nan,0.0,0.0,0.09029977,0.0025442452,0.0025320228,0.0025359022,0.0,0.0,0.0,0.0,0.0,0.0
21844680000,21844600000,0.10038975,0.10039066,0.21659084,1.0676836,1.0676831,0.0,0.0,0.0,0.0,0.0,0.0,0.0,0.0,12.426416,0.0,0.0,nan,0.0,0.0,0.090300806,0.0025442452,0.0025320228,0.0025359022,0.0,0.0,0.0,0.0,0.0,0.0
21845184000,21845104000,0.10097747,0.10097857,0.21695347,1.0706155,1.0706152,0.0,0.0,0.0,0.0,0.0,0.0,0.0,0.0,12.427482,0.0,0.0,nan,0.0,0.0,0.090301804,0.0025442452,0.0025320228,0.0025359022,0.0,0.0,0.0,0.0,0.0,0.0
21845688000,21845608000,0.100452535,0.100452974,0.21666846,1.0680256,1.0680254,0.0,0.0,0.0,0.0,0.0,0.0,0.0,0.0,12.422209,0.0,0.0,nan,0.0,0.0,0.09030279,0.0025442452,0.0025320228,0.0025359022,0.0,0.0,0.0,0.0,0.0,0.0
21846184000,21846104000,0.10133524,0.10133556,0.21717155,1.0722967,1.0722966,0.0,0.0,0.0,0.0,0.0,0.0,0.0,0.0,12.42832,0.0,0.0,nan,0.0,0.0,0.09030347,0.0025442452,0.0025320228,0.0025359022,0.0,0.0,0.0,0.0,0.0,0.0
21846688000,21846608000,0.10065099,0.100651145,0.21682166,1.0692172,1.0692171,0.0,0.0,0.0,0.0,0.0,0.0,0.0,0.0,12.423353,0.0,0.0,nan,0.0,0.0,0.09030426,0.0025442452,0.0025320228,0.0025359022,0.0,0.0,0.0,0.0,0.0,0.0
21847184000,21847104000,0.10037654,0.100376606,0.21662223,1.0676702,1.0676702,0.0,0.0,0.0,0.0,0.0,0.0,0.0,0.0,12.425052,0.0,0.0,nan,0.0,0.0,0.09030516,0.0025442452,0.0025320228,0.0025359022,0.0,0.0,0.0,0.0,0.0,0.0
21847688000,21847608000,0.100975744,0.10097575,0.21697915,1.0706024,1.0706023,0.0,0.0,0.0,0.0,0.0,0.0,0.0,0.0,12.425473,0.0,0.0,nan,0.0,0.0,0.09030603,0.0025442452,0.0025320228,0.0025359022,0.0,0.0,0.0,0.0,0.0,0.0
21848184000,21848104000,0.100592464,0.10059247,0.21673536,1.0687852,1.0687852,0.0,0.0,0.0,0.0,0.0,0.0,0.0,0.0,12.425943,0.0,0.0,nan,0.0,0.0,0.09030675,0.0025442452,0.0025320228,0.0025359022,0.0,0.0,0.0,0.0,0.0,0.0
21848688000,21848608000,0.10133773,0.10133773,0.21725659,1.072287,1.072287,0.0,0.0,0.0,0.0,0.0,0.0,0.0,0.0,12.427904,0.0,0.0,nan,0.0,0.0,0.09030756,0.0025442452,0.0025320228,0.0025359022,0.0,0.0,0.0,0.0,0.0,0.0
21849184000,21849104000,0.10083593,0.10083593,0.21696308,1.0701208,1.0701208,0.0,0.0,0.0,0.0,0.0,0.0,0.0,0.0,12.427199,0.0,0.0,nan,0.0,0.0,0.090308234,0.0025442452,0.0025320228,0.0025359022,0.0,0.0,0.0,0.0,0.0,0.0
21849688000,21849608000,0.10037339,0.10037326,0.21659097,1.0676657,1.0676656,0.0,0.0,0.0,0.0,0.0,0.0,0.0,0.0,12.424263,0.0,0.0,nan,0.0,0.0,0.090308994,0.0025442452,0.0025320228,0.0025359022,0.0,0.0,0.0,0.0,0.0,0.0
21850184000,21850104000,0.10121055,0.10121035,0.21712968,1.0716754,1.0716753,0.0,0.0,0.0,0.0,0.0,0.0,0.0,0.0,12.4296255,0.0,0.0,nan,0.0,0.0,0.090309605,0.0025442452,0.0025320228,0.0025359022,0.0,0.0,0.0,0.0,0.0,0.0
21850688000,21850608000,0.100585595,0.10058527,0.21670033,1.0687814,1.0687811,0.0,0.0,0.0,0.0,0.0,0.0,0.0,0.0,12.424444,0.0,0.0,nan,0.0,0.0,0.0903102,0.0025442452,0.0025320228,0.0025359022,0.0,0.0,0.0,0.0,0.0,0.0
