timestamp,timestamp_sample,q[0],q[1],q[2],q[3],delta_q_reset[0],delta_q_reset[1],delta_q_reset[2],delta_q_reset[3],quat_reset_counter
21726812000,21726812000,0.8609003,0.0007905514,-0.0028618316,-0.5087651,0.9994819,2.1715818e-10,3.8425138e-10,0.0321856,47
21727312000,21727312000,0.8609362,0.00081030326,-0.0028060554,-0.5087044,0.9994819,2.1715818e-10,3.8425138e-10,0.0321856,47
21727808000,21727808000,0.8609459,0.0008451767,-0.0029476732,-0.50868744,0.9994819,2.1715818e-10,3.8425138e-10,0.0321856,47
21728312000,21728312000,0.8609698,0.0008567204,-0.0029795815,-0.5086469,0.9994819,2.1715818e-10,3.8425138e-10,0.0321856,47
21728812000,21728812000,0.86098975,0.0009303549,-0.0031281903,-0.5086118,0.9994819,2.1715818e-10,3.8425138e-10,0.0321856,47
21729312000,21729312000,0.86089593,0.0011234655,-0.003273393,-0.50876945,0.9994819,2.1715818e-10,3.8425138e-10,0.0321856,47
21729812000,21729812000,0.8608904,0.0012946026,-0.0031957712,-0.5087789,0.9994819,2.1715818e-10,3.8425138e-10,0.0321856,47
21730312000,21730312000,0.8608578,0.0014473983,-0.0030229434,-0.5088348,0.9994819,2.1715818e-10,3.8425138e-10,0.0321856,47
21730812000,21730812000,0.86094385,0.0014817251,-0.0030047467,-0.5086891,0.9994819,2.1715818e-10,3.8425138e-10,0.0321856,47
21731312000,21731312000,0.8609376,0.0014662024,-0.0030829858,-0.50869936,0.9994819,2.1715818e-10,3.8425138e-10,0.0321856,47
21731812000,21731812000,0.86089176,0.0016159929,-0.0029017623,-0.50877744,0.9994819,2.1715818e-10,3.8425138e-10,0.0321856,47
21732312000,21732312000,0.86078566,0.001422282,-0.0028179674,-0.508958,0.9994819,2.1715818e-10,3.8425138e-10,0.0321856,47
21732812000,21732812000,0.86095214,0.0015403928,-0.0029292854,-0.5086752,0.9994819,2.1715818e-10,3.8425138e-10,0.0321856,47
21733312000,21733312000,0.8610602,0.0014130305,-0.0028964498,-0.50849295,0.9994819,2.1715818e-10,3.8425138e-10,0.0321856,47
21733812000,21733812000,0.8614442,0.0017656283,-0.0024547775,-0.5078433,0.9994819,2.1715818e-10,3.8425138e-10,0.0321856,47
21734312000,21734312000,0.86101764,0.001124121,0.0021653066,-0.5085694,0.9994819,2.1715818e-10,3.8425138e-10,0.0321856,47
21734812000,21734812000,0.861064,0.0023456672,-0.0036017136,-0.5084784,0.9994819,2.1715818e-10,3.8425138e-10,0.0321856,47
21735312000,21735312000,0.8611587,0.0030889534,-0.0036975637,-0.50831336,0.9994819,2.1715818e-10,3.8425138e-10,0.0321856,47
21735812000,21735812000,0.87586135,0.003157488,-0.0021030318,-0.482548,0.9993166,-3.2951555e-10,-4.2889242e-10,0.03696723,48
21736312000,21736312000,0.8706635,0.004129078,-0.00080244703,-0.4918612,0.9993166,-3.2951555e-10,-4.2889242e-10,0.03696723,48
21736812000,21736812000,0.86783886,0.0040810113,0.0005511387,-0.49682876,0.9993166,-3.2951555e-10,-4.2889242e-10,0.03696723,48
21737312000,21737312000,0.8666481,0.0048256395,0.00015658546,-0.4988967,0.9993166,-3.2951555e-10,-4.2889242e-10,0.03696723,48
21737812000,21737812000,0.86585796,0.006336024,0.001935511,-0.5002462,0.9993166,-3.2951555e-10,-4.2889242e-10,0.03696723,48
21738312000,21738312000,0.8638589,0.03102928,0.015647538,-0.50253373,0.9993166,-3.2951555e-10,-4.2889242e-10,0.03696723,48
21738812000,21738812000,0.8577894,0.09206094,0.05175713,-0.50303423,0.9993166,-3.2951555e-10,-4.2889242e-10,0.03696723,48
21739312000,21739312000,0.8491773,0.1054239,0.15977259,-0.4921956,0.9993166,-3.2951555e-10,-4.2889242e-10,0.03696723,48
21739812000,21739812000,0.84859604,0.09615275,0.16949886,-0.4918431,0.9993166,-3.2951555e-10,-4.2889242e-10,0.03696723,48
21740312000,21740312000,0.84837174,0.09731317,0.16276231,-0.49427116,0.9993166,-3.2951555e-10,-4.2889242e-10,0.03696723,48
21740812000,21740812000,0.8482451,0.09966845,0.16421266,-0.49353915,0.9993166,-3.2951555e-10,-4.2889242e-10,0.03696723,48
21741312000,21741312000,0.8476838,0.1015871,0.16756402,-0.49298552,0.9993166,-3.2951555e-10,-4.2889242e-10,0.03696723,48
21741812000,21741812000,0.8473786,0.10327051,0.17060263,-0.49211738,0.9993166,-3.2951555e-10,-4.2889242e-10,0.03696723,48
21742312000,21742312000,0.8470178,0.10450012,0.17394006,-0.49130988,0.9993166,-3.2951555e-10,-4.2889242e-10,0.03696723,48
21742812000,21742812000,0.84656733,0.10572475,0.17673251,-0.4908277,0.9993166,-3.2951555e-10,-4.2889242e-10,0.03696723,48
21743312000,21743312000,0.8461307,0.10731077,0.17847347,-0.49060628,0.9993166,-3.2951555e-10,-4.2889242e-10,0.03696723,48
21743812000,21743812000,0.8458279,0.10776933,0.18101963,-0.49009466,0.9993166,-3.2951555e-10,-4.2889242e-10,0.03696723,48
21744312000,21744312000,0.845316,0.10947203,0.18229707,-0.49012706,0.9993166,-3.2951555e-10,-4.2889242e-10,0.03696723,48
21744812000,21744812000,0.84504247,0.10954796,0.18428451,-0.48983854,0.9993166,-3.2951555e-10,-4.2889242e-10,0.03696723,48
21745312000,21745312000,0.84462637,0.1106131,0.18560949,-0.4898167,0.9993166,-3.2951555e-10,-4.2889242e-10,0.03696723,48
21745812000,21745812000,0.84438664,0.110907406,0.1870141,-0.4896291,0.9993166,-3.2951555e-10,-4.2889242e-10,0.03696723,48
21746312000,21746312000,0.8441699,0.111528404,0.18817389,-0.48941728,0.9993166,-3.2951555e-10,-4.2889242e-10,0.03696723,48
21746812000,21746812000,0.8440718,0.11207345,0.18892059,-0.489174,0.9993166,-3.2951555e-10,-4.2889242e-10,0.03696723,48
21747312000,21747312000,0.84387326,0.11280127,0.1897891,-0.4890133,0.9993166,-3.2951555e-10,-4.2889242e-10,0.03696723,48
21747812000,21747812000,0.8439764,0.11233101,0.1909222,-0.48850217,0.9993166,-3.2951555e-10,-4.2889242e-10,0.03696723,48
21748312000,21748312000,0.84361416,0.11317755,0.19157003,-0.48867866,0.9993166,-3.2951555e-10,-4.2889242e-10,0.03696723,48
21748812000,21748812000,0.8435327,0.11343254,0.19192691,-0.4886205,0.9993166,-3.2951555e-10,-4.2889242e-10,0.03696723,48
21749312000,21749312000,0.84348065,0.114006855,0.19247212,-0.4883618,0.9993166,-3.2951555e-10,-4.2889242e-10,0.03696723,48
21749812000,21749812000,0.8434863,0.11315084,0.1934947,-0.48814693,0.9993166,-3.2951555e-10,-4.2889242e-10,0.03696723,48
21750312000,21750312000,0.8432845,0.11453824,0.19324139,-0.48827264,0.9993166,-3.2951555e-10,-4.2889242e-10,0.03696723,48
21750812000,21750812000,0.84321666,0.11454536,0.19366516,-0.48822013,0.9993166,-3.2951555e-10,-4.2889242e-10,0.03696723,48
21751312000,21751312000,0.8431472,0.113794155,0.19456434,-0.48815835,0.9993166,-3.2951555e-10,-4.2889242e-10,0.03696723,48
21751812000,21751812000,0.84294164,0.114636995,0.19460027,-0.4883018,0.9993166,-3.2951555e-10,-4.2889242e-10,0.03696723,48
21752312000,21752312000,0.84304625,0.11441572,0.19490446,-0.4880518,0.9993166,-3.2951555e-10,-4.2889242e-10,0.03696723,48
21752812000,21752812000,0.8430307,0.11459609,0.19514494,-0.4879401,0.9993166,-3.2951555e-10,-4.2889242e-10,0.03696723,48
21753312000,21753312000,0.8429824,0.114883274,0.19501065,-0.4880098,0.9993166,-3.2951555e-10,-4.2889242e-10,0.03696723,48
21753812000,21753812000,0.8429136,0.11496439,0.19537756,-0.48796254,0.9993166,-3.2951555e-10,-4.2889242e-10,0.03696723,48
21754312000,21754312000,0.8428107,0.115224145,0.19538069,-0.4880779,0.9993166,-3.2951555e-10,-4.2889242e-10,0.03696723,48
21754812000,21754812000,0.8427973,0.11466281,0.19588843,-0.48802987,0.9993166,-3.2951555e-10,-4.2889242e-10,0.03696723,48
21755308000,21755308000,0.84283125,0.11501534,0.19538963,-0.48808798,0.9993166,-3.2951555e-10,-4.2889242e-10,0.03696723,48
21755812000,21755812000,0.8427967,0.11453271,0.19607122,-0.4879878,0.9993166,-3.2951555e-10,-4.2889242e-10,0.03696723,48
21756312000,21756312000,0.8426736,0.11502464,0.19593754,-0.48813838,0.9993166,-3.2951555e-10,-4.2889242e-10,0.03696723,48
21756812000,21756812000,0.84269947,0.1154965,0.19556014,-0.48813355,0.9993166,-3.2951555e-10,-4.2889242e-10,0.03696723,48
21757312000,21757312000,0.8427894,0.11465986,0.19626148,-0.48789424,0.9993166,-3.2951555e-10,-4.2889242e-10,0.03696723,48
21757812000,21757812000,0.8426506,0.11542975,0.19573025,-0.48816574,0.9993166,-3.2951555e-10,-4.2889242e-10,0.03696723,48
21758312000,21758312000,0.8427548,0.115170576,0.19574991,-0.48803917,0.9993166,-3.2951555e-10,-4.2889242e-10,0.03696723,48
21758812000,21758812000,0.8426878,0.11506378,0.1959233,-0.4881103,0.9993166,-3.2951555e-10,-4.2889242e-10,0.03696723,48
21759312000,21759312000,0.84264016,0.11521688,0.19585125,-0.48818555,0.9993166,-3.2951555e-10,-4.2889242e-10,0.03696723,48
21759812000,21759812000,0.842656,0.115583524,0.19582878,-0.4880804,0.9993166,-3.2951555e-10,-4.2889242e-10,0.03696723,48
21760312000,21760312000,0.84265715,0.11526798,0.1957908,-0.48816824,0.9993166,-3.2951555e-10,-4.2889242e-10,0.03696723,48
21760812000,21760812000,0.84269404,0.11505348,0.19602038,-0.4880629,0.9993166,-3.2951555e-10,-4.2889242e-10,0.03696723,48
21761312000,21761312000,0.842645,0.11534007,0.19610333,-0.4880468,0.9993166,-3.2951555e-10,-4.2889242e-10,0.03696723,48
21761812000,21761812000,0.8426041,0.115396544,0.19602312,-0.4881363,0.9993166,-3.2951555e-10,-4.2889242e-10,0.03696723,48
21762312000,21762312000,0.84260565,0.11565441,0.1958211,-0.48815367,0.9993166,-3.2951555e-10,-4.2889242e-10,0.03696723,48
21762812000,21762812000,0.8426406,0.115168594,0.19624637,-0.48803732,0.9993166,-3.2951555e-10,-4.2889242e-10,0.03696723,48
21763312000,21763312000,0.84265184,0.115510315,0.19584233,-0.48809946,0.9993166,-3.2951555e-10,-4.2889242e-10,0.03696723,48
21763812000,21763812000,0.84259164,0.11521844,0.19611132,-0.48816428,0.9993166,-3.2951555e-10,-4.2889242e-10,0.03696723,48
21764312000,21764312000,0.84252155,0.1154378,0.19614325,-0.48822072,0.9993166,-3.2951555e-10,-4.2889242e-10,0.03696723,48
21764812000,21764812000,0.8425555,0.11514506,0.19593988,-0.4883127,0.9993166,-3.2951555e-10,-4.2889242e-10,0.03696723,48
21765312000,21765312000,0.8426116,0.11504833,0.1959102,-0.48825088,0.9993166,-3.2951555e-10,-4.2889242e-10,0.03696723,48
21765812000,21765812000,0.8426675,0.114973016,0.19600436,-0.48813415,0.9993166,-3.2951555e-10,-4.2889242e-10,0.03696723,48
21766312000,21766312000,0.8423815,0.11582069,0.19601603,-0.48842278,0.9993166,-3.2951555e-10,-4.2889242e-10,0.03696723,48
21766812000,21766812000,0.84264123,0.11490175,0.19615121,-0.48813722,0.9993166,-3.2951555e-10,-4.2889242e-10,0.03696723,48
21767312000,21767312000,0.84240204,0.11578157,0.19589536,-0.48844495,0.9993166,-3.2951555e-10,-4.2889242e-10,0.03696723,48
21767812000,21767812000,0.8425208,0.11509529,0.19651794,-0.48815227,0.9993166,-3.2951555e-10,-4.2889242e-10,0.03696723,48
21768312000,21768312000,0.8424192,0.11562467,0.19611023,-0.48836634,0.9993166,-3.2951555e-10,-4.2889242e-10,0.03696723,48
21768812000,21768812000,0.8425135,0.115532555,0.1962234,-0.4881799,0.9993166,-3.2951555e-10,-4.2889242e-10,0.03696723,48
21769312000,21769312000,0.84256876,0.115545996,0.19595729,-0.4881882,0.9993166,-3.2951555e-10,-4.2889242e-10,0.03696723,48
21769812000,21769812000,0.8426384,0.114771195,0.19637798,-0.4880818,0.9993166,-3.2951555e-10,-4.2889242e-10,0.03696723,48
21770312000,21770312000,0.8425129,0.1152425,0.19638129,-0.48818603,0.9993166,-3.2951555e-10,-4.2889242e-10,0.03696723,48
21770812000,21770812000,0.8426056,0.11515797,0.19610108,-0.48815885,0.9993166,-3.2951555e-10,-4.2889242e-10,0.03696723,48
21771312000,21771312000,0.8425684,0.115377046,0.19615498,-0.48814943,0.9993166,-3.2951555e-10,-4.2889242e-10,0.03696723,48
21771812000,21771812000,0.8425196,0.11533482,0.19628291,-0.48819238,0.9993166,-3.2951555e-10,-4.2889242e-10,0.03696723,48
21772312000,21772312000,0.84247327,0.11548951,0.19630688,-0.48822597,0.9993166,-3.2951555e-10,-4.2889242e-10,0.03696723,48
21772812000,21772812000,0.84245986,0.11558515,0.19611976,-0.48830178,0.9993166,-3.2951555e-10,-4.2889242e-10,0.03696723,48
21773312000,21773312000,0.8423602,0.1157969,0.1961743,-0.48840144,0.9993166,-3.2951555e-10,-4.2889242e-10,0.03696723,48
21773812000,21773812000,0.8424288,0.115150444,0.19643438,-0.48833156,0.9993166,-3.2951555e-10,-4.2889242e-10,0.03696723,48
21774312000,21774312000,0.842454,0.11541762,0.19624564,-0.48830098,0.9993166,-3.2951555e-10,-4.2889242e-10,0.03696723,48
21774812000,21774812000,0.8425469,0.11506148,0.1964112,-0.48815808,0.9993166,-3.2951555e-10,-4.2889242e-10,0.03696723,48
21775312000,21775312000,0.84238774,0.11581407,0.19607823,-0.48838854,0.9993166,-3.2951555e-10,-4.2889242e-10,0.03696723,48
21775812000,21775812000,0.84244525,0.11526008,0.19652258,-0.48824176,0.9993166,-3.2951555e-10,-4.2889242e-10,0.03696723,48
21776312000,21776312000,0.84246594,0.11533583,0.19643806,-0.48822212,0.9993166,-3.2951555e-10,-4.2889242e-10,0.03696723,48
21776812000,21776812000,0.8425183,0.115760654,0.19619998,-0.48812693,0.9993166,-3.2951555e-10,-4.2889242e-10,0.03696723,48
21777312000,21777312000,0.84237564,0.11585342,0.1965421,-0.48821366,0.9993166,-3.2951555e-10,-4.2889242e-10,0.03696723,48
21777812000,21777812000,0.8424297,0.11607808,0.19608991,-0.48824874,0.9993166,-3.2951555e-10,-4.2889242e-10,0.03696723,48
21778312000,21778312000,0.842511,0.11559063,0.19624488,-0.4881619,0.9993166,-3.2951555e-10,-4.2889242e-10,0.03696723,48
21778812000,21778812000,0.84267604,0.11515075,0.19654085,-0.48786178,0.9993166,-3.2951555e-10,-4.2889242e-10,0.03696723,48
21779312000,21779312000,0.8424795,0.11550207,0.19655271,-0.48811325,0.9993166,-3.2951555e-10,-4.2889242e-10,0.03696723,48
21779812000,21779812000,0.8424515,0.11530666,0.19672173,-0.48813996,0.9993166,-3.2951555e-10,-4.2889242e-10,0.03696723,48
21780312000,21780312000,0.8424285,0.115708746,0.19626431,-0.48826832,0.9993166,-3.2951555e-10,-4.2889242e-10,0.03696723,48
21780812000,21780812000,0.84245753,0.11533994,0.1966156,-0.48816422,0.9993166,-3.2951555e-10,-4.2889242e-10,0.03696723,48
21781312000,21781312000,0.8423758,0.11617363,0.19606885,-0.48832747,0.9993166,-3.2951555e-10,-4.2889242e-10,0.03696723,48
21781812000,21781812000,0.84243065,0.1157391,0.19621864,-0.48827595,0.9993166,-3.2951555e-10,-4.2889242e-10,0.03696723,48
21782312000,21782312000,0.8425171,0.115184985,0.19651014,-0.48814073,0.9993166,-3.2951555e-10,-4.2889242e-10,0.03696723,48
21782812000,21782812000,0.84240687,0.11579281,0.19631235,-0.4882666,0.9993166,-3.2951555e-10,-4.2889242e-10,0.03696723,48
21783312000,21783312000,0.842475,0.115499094,0.19654621,-0.48812452,0.9993166,-3.2951555e-10,-4.2889242e-10,0.03696723,48
21783812000,21783812000,0.84243846,0.11549832,0.19650851,-0.48820308,0.9993166,-3.2951555e-10,-4.2889242e-10,0.03696723,48
21784312000,21784312000,0.8423891,0.116082445,0.19607677,-0.48832303,0.9993166,-3.2951555e-10,-4.2889242e-10,0.03696723,48
21784812000,21784812000,0.84249836,0.11561673,0.19635499,-0.48813337,0.9993166,-3.2951555e-10,-4.2889242e-10,0.03696723,48
21785312000,21785312000,0.8424225,0.11602223,0.19607025,-0.48828244,0.9993166,-3.2951555e-10,-4.2889242e-10,0.03696723,48
21785812000,21785812000,0.84240514,0.11619516,0.19611117,-0.48825473,0.9993166,-3.2951555e-10,-4.2889242e-10,0.03696723,48
21786312000,21786312000,0.8424496,0.11614038,0.1958714,-0.48828745,0.9993166,-3.2951555e-10,-4.2889242e-10,0.03696723,48
21786812000,21786812000,0.8425911,0.11559992,0.1963786,-0.4879675,0.9993166,-3.2951555e-10,-4.2889242e-10,0.03696723,48
21787312000,21787312000,0.84254044,0.115707934,0.1961954,-0.48810324,0.9993166,-3.2951555e-10,-4.2889242e-10,0.03696723,48
21787812000,21787812000,0.842478,0.1158262,0.19624309,-0.48816383,0.9993166,-3.2951555e-10,-4.2889242e-10,0.03696723,48
21788312000,21788312000,0.84252405,0.1158329,0.19608073,-0.48814785,0.9993166,-3.2951555e-10,-4.2889242e-10,0.03696723,48
21788812000,21788812000,0.8426044,0.115337074,0.19617328,-0.4880893,0.9993166,-3.2951555e-10,-4.2889242e-10,0.03696723,48
21789312000,21789312000,0.8425469,0.115466334,0.19633947,-0.48809144,0.9993166,-3.2951555e-10,-4.2889242e-10,0.03696723,48
21789812000,21789812000,0.84255594,0.11508632,0.196257,-0.48819852,0.9993166,-3.2951555e-10,-4.2889242e-10,0.03696723,48
21790312000,21790312000,0.84252536,0.11530348,0.1961385,-0.48824787,0.9993166,-3.2951555e-10,-4.2889242e-10,0.03696723,48
21790812000,21790812000,0.84261805,0.11538233,0.19608015,-0.48809263,0.9993166,-3.2951555e-10,-4.2889242e-10,0.03696723,48
21791312000,21791312000,0.8424557,0.1155931,0.1961479,-0.48829556,0.9993166,-3.2951555e-10,-4.2889242e-10,0.03696723,48
21791812000,21791812000,0.84263074,0.115015514,0.19666609,-0.48792142,0.9993166,-3.2951555e-10,-4.2889242e-10,0.03696723,48
21792312000,21792312000,0.84261465,0.11496839,0.19638376,-0.48807412,0.9993166,-3.2951555e-10,-4.2889242e-10,0.03696723,48
21792812000,21792812000,0.84242463,0.11550645,0.19612621,-0.48837847,0.9993166,-3.2951555e-10,-4.2889242e-10,0.03696723,48
21793312000,21793312000,0.84257823,0.115353115,0.19619907,-0.4881203,0.9993166,-3.2951555e-10,-4.2889242e-10,0.03696723,48
21793812000,21793812000,0.8425523,0.11580703,0.1960954,-0.48809946,0.9993166,-3.2951555e-10,-4.2889242e-10,0.03696723,48
21794312000,21794312000,0.8425626,0.115437016,0.19608663,-0.48817283,0.9993166,-3.2951555e-10,-4.2889242e-10,0.03696723,48
21794812000,21794812000,0.8424749,0.11590758,0.19615212,-0.48818624,0.9993166,-3.2951555e-10,-4.2889242e-10,0.03696723,48
21795312000,21795312000,0.8425522,0.11554107,0.19603193,-0.48818812,0.9993166,-3.2951555e-10,-4.2889242e-10,0.03696723,48
21795812000,21795812000,0.842485,0.11544247,0.19602796,-0.48832896,0.9993166,-3.2951555e-10,-4.2889242e-10,0.03696723,48
21796312000,21796312000,0.8424568,0.11509963,0.19644757,-0.48828995,0.9993166,-3.2951555e-10,-4.2889242e-10,0.03696723,48
21796812000,21796812000,0.84251994,0.11564648,0.19601107,-0.48822713,0.9993166,-3.2951555e-10,-4.2889242e-10,0.03696723,48
21797312000,21797312000,0.8424854,0.115738556,0.19629723,-0.4881499,0.9993166,-3.2951555e-10,-4.2889242e-10,0.03696723,48
21797812000,21797812000,0.8424931,0.11549497,0.19609289,-0.48827636,0.9993166,-3.2951555e-10,-4.2889242e-10,0.03696723,48
21798312000,21798312000,0.84249187,0.115530826,0.19602674,-0.48829663,0.9993166,-3.2951555e-10,-4.2889242e-10,0.03696723,48
21798812000,21798812000,0.8425806,0.11520592,0.19635092,-0.48809025,0.9993166,-3.2951555e-10,-4.2889242e-10,0.03696723,48
21799312000,21799312000,0.8425175,0.11492679,0.19639151,-0.4882486,0.9993166,-3.2951555e-10,-4.2889242e-10,0.03696723,48
21799812000,21799812000,0.8424617,0.11592534,0.19584452,-0.48832822,0.9993166,-3.2951555e-10,-4.2889242e-10,0.03696723,48
21800312000,21800312000,0.8425373,0.115382366,0.19636989,-0.48811558,0.9993166,-3.2951555e-10,-4.2889242e-10,0.03696723,48
21800812000,21800812000,0.84246415,0.116023146,0.19597916,-0.48824695,0.9993166,-3.2951555e-10,-4.2889242e-10,0.03696723,48
21801312000,21801312000,0.8426637,0.11466573,0.19670367,-0.4879319,0.9993166,-3.2951555e-10,-4.2889242e-10,0.03696723,48
21801812000,21801812000,0.84245104,0.11635566,0.19569287,-0.4883052,0.9993166,-3.2951555e-10,-4.2889242e-10,0.03696723,48
21802312000,21802312000,0.84248936,0.1155742,0.1964375,-0.48812568,0.9993166,-3.2951555e-10,-4.2889242e-10,0.03696723,48
21802812000,21802812000,0.8424789,0.115445875,0.19629078,-0.48823312,0.9993166,-3.2951555e-10,-4.2889242e-10,0.03696723,48
21803312000,21803312000,0.842396,0.11596207,0.19633973,-0.48823395,0.9993166,-3.2951555e-10,-4.2889242e-10,0.03696723,48
21803812000,21803812000,0.8426802,0.114658415,0.19649887,-0.48798746,0.9993166,-3.2951555e-10,-4.2889242e-10,0.03696723,48
21804312000,21804312000,0.84244627,0.1161597,0.19592421,-0.48826745,0.9993166,-3.2951555e-10,-4.2889242e-10,0.03696723,48
21804812000,21804812000,0.84253305,0.11495797,0.1969296,-0.48799732,0.9993166,-3.2951555e-10,-4.2889242e-10,0.03696723,48
21805312000,21805312000,0.84239596,0.11602852,0.196522,-0.48814508,0.9993166,-3.2951555e-10,-4.2889242e-10,0.03696723,48
21805812000,21805812000,0.84245974,0.1158565,0.19615243,-0.48822433,0.9993166,-3.2951555e-10,-4.2889242e-10,0.03696723,48
21806312000,21806312000,0.84245723,0.115516335,0.19641769,-0.4882027,0.9993166,-3.2951555e-10,-4.2889242e-10,0.03696723,48
21806812000,21806812000,0.84612846,0.011683081,-0.30470112,-0.43713534,0.9993166,-3.2951555e-10,-4.2889242e-10,0.03696723,48
21807312000,21807312000,0.85549706,-0.09757795,-0.0010316087,-0.5085296,0.9993166,-3.2951555e-10,-4.2889242e-10,0.03696723,48
21807812000,21807812000,0.8615383,0.0133982,-0.054997195,-0.5045271,0.9993166,-3.2951555e-10,-4.2889242e-10,0.03696723,48
21808312000,21808312000,0.8615059,-0.022170741,-0.045531463,-0.5052158,0.9993166,-3.2951555e-10,-4.2889242e-10,0.03696723,48
21808812000,21808812000,0.8538928,-0.06775042,-0.12743288,-0.5000377,0.9993166,-3.2951555e-10,-4.2889242e-10,0.03696723,48
21809312000,21809312000,0.85029364,-0.07976846,-0.14799921,-0.49873242,0.9993166,-3.2951555e-10,-4.2889242e-10,0.03696723,48
21809812000,21809812000,0.8557364,-0.069262296,-0.12663186,-0.49687266,0.9993166,-3.2951555e-10,-4.2889242e-10,0.03696723,48
21810312000,21810312000,0.85975224,-0.040331345,-0.10286189,-0.49861687,0.9993166,-3.2951555e-10,-4.2889242e-10,0.03696723,48
21810812000,21810812000,0.86555475,-0.0027548044,-0.061590493,-0.4970051,0.9993166,-3.2951555e-10,-4.2889242e-10,0.03696723,48
21811312000,21811312000,0.864433,-0.015360407,-0.035784416,-0.5012376,0.9993166,-3.2951555e-10,-4.2889242e-10,0.03696723,48
21811812000,21811812000,0.8648672,0.002208123,-0.019020129,-0.50163543,0.9993166,-3.2951555e-10,-4.2889242e-10,0.03696723,48
21812312000,21812312000,0.8646815,0.010689679,0.0032435376,-0.5021965,0.9993166,-3.2951555e-10,-4.2889242e-10,0.03696723,48
21812812000,21812812000,0.8645345,0.0119092725,0.014377173,-0.50222653,0.9993166,-3.2951555e-10,-4.2889242e-10,0.03696723,48
21813312000,21813312000,0.8646564,0.010023973,0.014130894,-0.50206494,0.9993166,-3.2951555e-10,-4.2889242e-10,0.03696723,48
21813812000,21813812000,0.86495304,0.0065119164,0.011004416,-0.5016899,0.9993166,-3.2951555e-10,-4.2889242e-10,0.03696723,48
21814312000,21814312000,0.8652316,0.004940245,0.0093420725,-0.50126123,0.9993166,-3.2951555e-10,-4.2889242e-10,0.03696723,48
21814812000,21814812000,0.8653576,0.004710286,0.004599688,-0.50111187,0.9993166,-3.2951555e-10,-4.2889242e-10,0.03696723,48
21815312000,21815312000,0.86537457,0.0065152254,0.00052210654,-0.5010829,0.9993166,-3.2951555e-10,-4.2889242e-10,0.03696723,48
21815812000,21815812000,0.86545676,0.006205048,-0.0015300972,-0.50094306,0.9993166,-3.2951555e-10,-4.2889242e-10,0.03696723,48
21816312000,21816312000,0.86536837,0.0063318186,-0.00069327356,-0.50109583,0.9993166,-3.2951555e-10,-4.2889242e-10,0.03696723,48
21816812000,21816812000,0.86532116,0.0065638353,-0.0025064023,-0.50116855,0.9993166,-3.2951555e-10,-4.2889242e-10,0.03696723,48
21817312000,21817312000,0.8653032,0.0077363686,-0.001742297,-0.50118613,0.9993166,-3.2951555e-10,-4.2889242e-10,0.03696723,48
21817812000,21817812000,0.86538166,0.0081830565,0.00017202961,-0.5010466,0.9993166,-3.2951555e-10,-4.2889242e-10,0.03696723,48
21818312000,21818312000,0.86532235,0.010004845,0.0012176569,-0.5011146,0.9993166,-3.2951555e-10,-4.2889242e-10,0.03696723,48
21818812000,21818812000,0.8651943,0.010343706,0.0015530783,-0.5013278,0.9993166,-3.2951555e-10,-4.2889242e-10,0.03696723,48
21819312000,21819312000,0.8651584,0.010358644,0.0018286447,-0.5013885,0.9993166,-3.2951555e-10,-4.2889242e-10,0.03696723,48
21819812000,21819812000,0.8652623,0.00922274,0.0033076764,-0.5012236,0.9993166,-3.2951555e-10,-4.2889242e-10,0.03696723,48
21820312000,21820312000,0.8652609,0.00927746,0.0026718222,-0.50122875,0.9993166,-3.2951555e-10,-4.2889242e-10,0.03696723,48
21820812000,21820812000,0.8652939,0.008217439,0.0022454308,-0.5011925,0.9993166,-3.2951555e-10,-4.2889242e-10,0.03696723,48
21821312000,21821312000,0.8652715,0.009368014,0.0024870636,-0.50121,0.9993166,-3.2951555e-10,-4.2889242e-10,0.03696723,48
21821812000,21821812000,0.865302,0.0091077285,0.0012603593,-0.5011666,0.9993166,-3.2951555e-10,-4.2889242e-10,0.03696723,48
21822312000,21822312000,0.86530846,0.0093989745,0.0027749743,-0.501144,0.9993166,-3.2951555e-10,-4.2889242e-10,0.03696723,48
21822812000,21822812000,0.86529773,0.009589178,0.0027882177,-0.50115883,0.9993166,-3.2951555e-10,-4.2889242e-10,0.03696723,48
21823312000,21823312000,0.8653097,0.009467896,0.0041952706,-0.50113076,0.9993166,-3.2951555e-10,-4.2889242e-10,0.03696723,48
21823812000,21823812000,0.86526614,0.009183668,0.0047634966,-0.50120604,0.9993166,-3.2951555e-10,-4.2889242e-10,0.03696723,48
21824312000,21824312000,0.8653055,0.009171261,0.0044069705,-0.5011417,0.9993166,-3.2951555e-10,-4.2889242e-10,0.03696723,48
21824812000,21824812000,0.86533445,0.008551517,0.0033146515,-0.5011109,0.9993166,-3.2951555e-10,-4.2889242e-10,0.03696723,48
21825312000,21825312000,0.86531985,0.0066058883,0.0015861208,-0.5011741,0.9993166,-3.2951555e-10,-4.2889242e-10,0.03696723,48
21825812000,21825812000,0.8653689,0.007240653,0.0009911448,-0.5010823,0.9993166,-3.2951555e-10,-4.2889242e-10,0.03696723,48
21826312000,21826312000,0.86536115,0.008197879,0.00046525671,-0.5010815,0.9993166,-3.2951555e-10,-4.2889242e-10,0.03696723,48
21826812000,21826812000,0.8652975,0.007830873,0.00030507552,-0.50119734,0.9993166,-3.2951555e-10,-4.2889242e-10,0.03696723,48
21827312000,21827312000,0.8653095,0.008994089,0.0004586702,-0.50115716,0.9993166,-3.2951555e-10,-4.2889242e-10,0.03696723,48
21827812000,21827812000,0.865296,0.0102763865,-8.186768e-05,-0.5011559,0.9993166,-3.2951555e-10,-4.2889242e-10,0.03696723,48
21828312000,21828312000,0.8652759,0.009865499,0.0013056685,-0.5011972,0.9993166,-3.2951555e-10,-4.2889242e-10,0.03696723,48
21828812000,21828812000,0.86535025,0.0102425665,0.001092588,-0.5010619,0.9993166,-3.2951555e-10,-4.2889242e-10,0.03696723,48
21829312000,21829312000,0.86527044,0.009153168,0.001885523,-0.5012183,0.9993166,-3.2951555e-10,-4.2889242e-10,0.03696723,48
21829812000,21829812000,0.8652664,0.010732725,0.0015391845,-0.50119525,0.9993166,-3.2951555e-10,-4.2889242e-10,0.03696723,48
21830312000,21830312000,0.8652736,0.011536281,0.0011571231,-0.50116605,0.9993166,-3.2951555e-10,-4.2889242e-10,0.03696723,48
21830812000,21830812000,0.8652561,0.010469492,0.0013907023,-0.501219,0.9993166,-3.2951555e-10,-4.2889242e-10,0.03696723,48
21831312000,21831312000,0.86527157,0.010791648,0.0018276338,-0.5011841,0.9993166,-3.2951555e-10,-4.2889242e-10,0.03696723,48
21831812000,21831812000,0.8651864,0.010466957,0.00093484495,-0.50134027,0.9993166,-3.2951555e-10,-4.2889242e-10,0.03696723,48
21832312000,21832312000,0.8651691,0.011653087,0.0007015027,-0.5013444,0.9993166,-3.2951555e-10,-4.2889242e-10,0.03696723,48
21832812000,21832812000,0.8651623,0.011841401,0.00081019785,-0.5013516,0.9993166,-3.2951555e-10,-4.2889242e-10,0.03696723,48
21833312000,21833312000,0.8652054,0.011074137,0.0012767538,-0.50129366,0.9993166,-3.2951555e-10,-4.2889242e-10,0.03696723,48
21833812000,21833812000,0.8652263,0.010370777,0.0010020537,-0.5012733,0.9993166,-3.2951555e-10,-4.2889242e-10,0.03696723,48
21834312000,21834312000,0.86519694,0.010264572,0.0023875341,-0.5013215,0.9993166,-3.2951555e-10,-4.2889242e-10,0.03696723,48
21834812000,21834812000,0.86534333,0.009046854,0.0012332847,-0.50109625,0.9993166,-3.2951555e-10,-4.2889242e-10,0.03696723,48
21835312000,21835312000,0.8652978,0.00988491,0.00053952757,-0.50116044,0.9993166,-3.2951555e-10,-4.2889242e-10,0.03696723,48
21835812000,21835812000,0.86518294,0.010729174,0.00013786115,-0.5013417,0.9993166,-3.2951555e-10,-4.2889242e-10,0.03696723,48
21836312000,21836312000,0.8651892,0.009566576,0.00019324732,-0.5013542,0.9993166,-3.2951555e-10,-4.2889242e-10,0.03696723,48
21836812000,21836812000,0.86519426,0.0088045215,-0.00010105728,-0.5013596,0.9993166,-3.2951555e-10,-4.2889242e-10,0.03696723,48
21837312000,21837312000,0.86519676,0.008748943,-0.0018538022,-0.50135285,0.9993166,-3.2951555e-10,-4.2889242e-10,0.03696723,48
21837812000,21837812000,0.8651827,0.0087921135,-0.0007883268,-0.5013792,0.9993166,-3.2951555e-10,-4.2889242e-10,0.03696723,48
21838312000,21838312000,0.86520463,0.00889189,-0.001187461,-0.50133884,0.9993166,-3.2951555e-10,-4.2889242e-10,0.03696723,48
21838812000,21838812000,0.8652226,0.009424261,0.0006154082,-0.50129926,0.9993166,-3.2951555e-10,-4.2889242e-10,0.03696723,48
21839312000,21839312000,0.8651862,0.00968665,0.0007363905,-0.5013567,0.9993166,-3.2951555e-10,-4.2889242e-10,0.03696723,48
21839812000,21839812000,0.86520404,0.009863936,0.00056812284,-0.5013226,0.9993166,-3.2951555e-10,-4.2889242e-10,0.03696723,48
21840312000,21840312000,0.86517376,0.010514421,0.001529961,-0.50135976,0.9993166,-3.2951555e-10,-4.2889242e-10,0.03696723,48
21840812000,21840812000,0.8651488,0.012498529,0.0013428691,-0.5013579,0.9993166,-3.2951555e-10,-4.2889242e-10,0.03696723,48
21841312000,21841312000,0.8651182,0.012814133,-0.0007139681,-0.5014037,0.9993166,-3.2951555e-10,-4.2889242e-10,0.03696723,48
21841812000,21841812000,0.86503077,0.013679353,-0.00089957996,-0.5015316,0.9993166,-3.2951555e-10,-4.2889242e-10,0.03696723,48
21842312000,21842312000,0.865065,0.013507158,-0.0026725393,-0.5014709,0.9993166,-3.2951555e-10,-4.2889242e-10,0.03696723,48
21842812000,21842812000,0.86504054,0.012669606,-0.0017429044,-0.5015391,0.9993166,-3.2951555e-10,-4.2889242e-10,0.03696723,48
21843312000,21843312000,0.86501193,0.010879107,-0.0003511973,-0.5016334,0.9993166,-3.2951555e-10,-4.2889242e-10,0.03696723,48
21843812000,21843812000,0.86509794,0.010611967,0.00015411312,-0.5014908,0.9993166,-3.2951555e-10,-4.2889242e-10,0.03696723,48
21844312000,21844312000,0.8650971,0.010689982,0.0016902568,-0.50148773,0.9993166,-3.2951555e-10,-4.2889242e-10,0.03696723,48
21844812000,21844812000,0.8651703,0.011133714,0.0010654808,-0.5013535,0.9993166,-3.2951555e-10,-4.2889242e-10,0.03696723,48
21845312000,21845312000,0.86519563,0.011794084,0.00013975927,-0.5012959,0.9993166,-3.2951555e-10,-4.2889242e-10,0.03696723,48
21845812000,21845812000,0.8652304,0.011502774,0.00015967248,-0.5012425,0.9993166,-3.2951555e-10,-4.2889242e-10,0.03696723,48
21846312000,21846312000,0.8652834,0.011136423,-0.0004780241,-0.501159,0.9993166,-3.2951555e-10,-4.2889242e-10,0.03696723,48
21846812000,21846812000,0.8652947,0.009696148,-0.0017696101,-0.5011665,0.9993166,-3.2951555e-10,-4.2889242e-10,0.03696723,48
21847312000,21847312000,0.8653,0.010472312,-0.0021333748,-0.5011405,0.9993166,-3.2951555e-10,-4.2889242e-10,0.03696723,48
21847812000,21847812000,0.86529195,0.01008874,-0.0026484004,-0.50115985,0.9993166,-3.2951555e-10,-4.2889242e-10,0.03696723,48
21848312000,21848312000,0.86520153,0.009715241,-0.0025700894,-0.5013235,0.9993166,-3.2951555e-10,-4.2889242e-10,0.03696723,48
21848812000,21848812000,0.86526394,0.009549872,-0.0029025779,-0.50121725,0.9993166,-3.2951555e-10,-4.2889242e-10,0.03696723,48
21849312000,21849312000,0.8652564,0.009930952,-0.0021031783,-0.5012269,0.9993166,-3.2951555e-10,-4.2889242e-10,0.03696723,48
21849812000,21849812000,0.8652591,0.011565304,-0.0020656544,-0.5011872,0.9993166,-3.2951555e-10,-4.2889242e-10,0.03696723,48
21850312000,21850312000,0.8652103,0.010304653,-0.0026529669,-0.5012964,0.9993166,-3.2951555e-10,-4.2889242e-10,0.03696723,48
21850812000,21850812000,0.8652329,0.010709262,-0.0032217966,-0.5012457,0.9993166,-3.2951555e-10,-4.2889242e-10,0.03696723,48
