timestamp,data_rate,rate_multiplier,tx_rate_avg,tx_error_rate_avg,tx_message_count,tx_buffer_overruns,rx_rate_avg,rx_message_count,rx_message_lost_count,rx_buffer_overruns,rx_parse_errors,rx_packet_drop_count,rx_message_lost_rate,type,mode,flow_control,forwarding,mavlink_v2,ftp,streams,heartbeat_type_antenna_tracker,heartbeat_type_gcs,heartbeat_type_onboard_controller,heartbeat_type_gimbal,heartbeat_type_adsb,heartbeat_type_camera,heartbeat_type_parachute,heartbeat_component_telemetry_radio,heartbeat_component_log,heartbeat_component_osd,heartbeat_component_obstacle_avoidance,heartbeat_component_vio,heartbeat_component_pairing_manager,heartbeat_component_udp_bridge,heartbeat_component_uart_bridge,avoidance_system_healthy,parachute_system_healthy
21727216000,4000000.0,1.0,26240.041,0.0,9872009,0,776.89246,914232,16228,0,0,0,0.017750418,0,2,0,1,1,1,57,0,1,1,0,0,0,0,0,0,0,0,0,0,1,0,0,0
21728196000,4000000.0,1.0,25879.482,0.0,9872461,0,1113.5459,914280,16228,0,0,0,0.017749486,0,2,0,1,1,1,57,0,1,1,0,0,0,0,0,0,0,0,0,0,1,0,0,0
21729180000,4000000.0,1.0,26204.184,0.0,9872916,0,2315.737,914333,16228,0,0,0,0.017748456,0,2,0,1,1,1,57,0,1,1,0,0,0,0,0,0,0,0,0,0,1,0,0,0
21730120000,4000000.0,1.0,25884.463,0.0,9873349,0,2380.4783,914384,16228,0,0,0,0.017747467,0,2,0,1,1,1,57,0,1,1,0,0,0,0,0,0,0,0,0,0,1,0,0,0
21731104000,4000000.0,1.0,26343.627,0.0,9873805,0,2446.2153,914437,16229,0,0,0,0.017747533,0,2,0,1,1,1,57,0,1,1,0,0,0,0,0,0,0,0,0,0,1,0,0,0
21732092000,4000000.0,1.0,25811.754,0.0,9874259,0,2231.0757,914488,16230,0,0,0,0.017747635,0,2,0,1,1,1,57,0,1,1,0,0,0,0,0,0,0,0,0,0,1,0,0,0
21733092000,4000000.0,1.0,26000.0,0.0,9874720,0,2315.737,914541,16230,0,0,0,0.017746607,0,2,0,1,1,1,57,0,1,1,0,0,0,0,0,0,0,0,0,0,1,0,0,0
21734096000,4000000.0,1.0,25971.117,0.0,9875185,0,2315.737,914594,16230,0,0,0,0.017745579,0,2,0,1,1,1,57,0,1,1,0,0,0,0,0,0,0,0,0,0,1,0,0,0
21735092000,4000000.0,1.0,26102.59,0.0,9875642,0,2315.737,914646,16230,0,0,0,0.01774457,0,2,0,1,1,1,57,0,1,1,0,0,0,0,0,0,0,0,0,0,1,0,0,0
21736092000,4000000.0,1.0,26007.969,0.0,9876099,0,2315.737,914700,16230,0,0,0,0.017743522,0,2,0,1,1,1,57,0,1,1,0,0,0,0,0,0,0,0,0,0,1,0,0,0
21737088000,4000000.0,1.0,25907.371,0.0,9876556,0,2315.737,914752,16230,0,0,0,0.017742515,0,2,0,1,1,1,57,0,1,1,0,0,0,0,0,0,0,0,0,0,1,0,0,0
21738084000,4000000.0,1.0,26114.543,0.0,9877015,0,2367.53,914812,16230,0,0,0,0.01774135,0,2,0,1,1,1,57,0,1,1,0,0,0,0,0,0,0,0,0,0,1,0,0,0
21739328000,4000000.0,1.0,26064.742,0.0,9877589,0,2773.9045,914889,16230,0,0,0,0.017739857,0,2,0,1,1,1,57,0,1,1,0,0,0,0,0,0,0,0,0,0,1,0,0,0
21740320000,4000000.0,1.0,25627.49,0.0,9878042,0,2071.7131,914917,16230,0,0,0,0.017739315,0,2,0,1,1,1,57,0,1,1,0,0,0,0,0,0,0,0,0,0,1,0,0,0
21741312000,4000000.0,1.0,25586.654,0.0,9878486,0,697.2112,914945,16230,0,0,0,0.01773877,0,2,0,1,1,1,57,0,1,1,0,0,0,0,0,0,0,0,0,0,1,0,0,0
21742312000,4000000.0,1.0,25264.941,0.0,9878937,0,697.2112,914973,16230,0,0,0,0.017738229,0,2,0,1,1,1,57,0,1,1,0,0,0,0,0,0,0,0,0,0,1,0,0,0
21743200000,4000000.0,1.0,25353.586,0.0,9879332,0,697.2112,915000,16230,0,0,0,0.017737705,0,2,0,1,1,1,57,0,1,1,0,0,0,0,0,0,0,0,0,0,1,0,0,0
21744208000,4000000.0,1.0,25208.168,0.0,9879781,0,725.0996,915028,16230,0,0,0,0.017737161,0,2,0,1,1,1,57,0,1,1,0,0,0,0,0,0,0,0,0,0,1,0,0,0
21745212000,4000000.0,1.0,25426.295,0.0,9880234,0,725.0996,915056,16230,0,0,0,0.01773662,0,2,0,1,1,1,57,0,1,1,0,0,0,0,0,0,0,0,0,0,1,0,0,0
21746212000,4000000.0,1.0,25909.363,0.0,9880684,0,723.1076,915084,16230,0,0,0,0.017736077,0,2,0,1,1,1,57,0,1,1,0,0,0,0,0,0,0,0,0,0,1,0,0,0
21747176000,4000000.0,1.0,25506.973,0.0,9881125,0,697.2112,915111,16230,0,0,0,0.017735554,0,2,0,1,1,1,57,0,1,1,0,0,0,0,0,0,0,0,0,0,1,0,0,0
21748176000,4000000.0,1.0,25212.152,0.0,9881571,0,717.1315,915140,16230,0,0,0,0.017734991,0,2,0,1,1,1,57,0,1,1,0,0,0,0,0,0,0,0,0,0,1,0,0,0
21749180000,4000000.0,1.0,25421.316,0.0,9882025,0,697.2112,915168,16230,0,0,0,0.01773445,0,2,0,1,1,1,57,0,1,1,0,0,0,0,0,0,0,0,0,0,1,0,0,0
21750184000,4000000.0,1.0,25232.072,0.0,9882472,0,697.2112,915196,16230,0,0,0,0.017733905,0,2,0,1,1,1,57,0,1,1,0,0,0,0,0,0,0,0,0,0,1,0,0,0
21751184000,4000000.0,1.0,25600.598,0.0,9882924,0,697.2112,915224,16230,0,0,0,0.017733363,0,2,0,1,1,1,57,0,1,1,0,0,0,0,0,0,0,0,0,0,1,0,0,0
21752172000,4000000.0,1.0,25113.547,0.0,9883360,0,697.2112,915251,16230,0,0,0,0.01773284,0,2,0,1,1,1,57,0,1,1,0,0,0,0,0,0,0,0,0,0,1,0,0,0
21753180000,4000000.0,1.0,25365.54,0.0,9883823,0,697.2112,915280,16230,0,0,0,0.01773228,0,2,0,1,1,1,57,0,1,1,0,0,0,0,0,0,0,0,0,0,1,0,0,0
21754180000,4000000.0,1.0,25491.037,0.0,9884269,0,697.2112,915308,16230,0,0,0,0.017731735,0,2,0,1,1,1,57,0,1,1,0,0,0,0,0,0,0,0,0,0,1,0,0,0
21755180000,4000000.0,1.0,25467.133,0.0,9884723,0,697.2112,915336,16230,0,0,0,0.017731193,0,2,0,1,1,1,57,0,1,1,0,0,0,0,0,0,0,0,0,0,1,0,0,0
21756180000,4000000.0,1.0,25376.494,0.0,9885172,0,697.2112,915364,16230,0,0,0,0.017730651,0,2,0,1,1,1,57,0,1,1,0,0,0,0,0,0,0,0,0,0,1,0,0,0
21757176000,4000000.0,1.0,25401.395,0.0,9885621,0,697.2112,915391,16230,0,0,0,0.017730128,0,2,0,1,1,1,57,0,1,1,0,0,0,0,0,0,0,0,0,0,1,0,0,0
21758176000,4000000.0,1.0,25153.387,0.0,9886069,0,697.2112,915419,16230,0,0,0,0.017729586,0,2,0,1,1,1,57,0,1,1,0,0,0,0,0,0,0,0,0,0,1,0,0,0
21759176000,4000000.0,1.0,25486.057,0.0,9886519,0,697.2112,915447,16230,0,0,0,0.017729044,0,2,0,1,1,1,57,0,1,1,0,0,0,0,0,0,0,0,0,0,1,0,0,0
21760172000,4000000.0,1.0,25240.041,0.0,9886959,0,725.0996,915475,16230,0,0,0,0.017728502,0,2,0,1,1,1,57,0,1,1,0,0,0,0,0,0,0,0,0,0,1,0,0,0
21761156000,4000000.0,1.0,25612.55,0.0,9887410,0,697.2112,915503,16230,0,0,0,0.01772796,0,2,0,1,1,1,57,0,1,1,0,0,0,0,0,0,0,0,0,0,1,0,0,0
21762152000,4000000.0,1.0,25205.18,0.0,9887854,0,697.2112,915531,16230,0,0,0,0.017727418,0,2,0,1,1,1,57,0,1,1,0,0,0,0,0,0,0,0,0,0,1,0,0,0
21763156000,4000000.0,1.0,25673.307,0.0,9888311,0,697.2112,915559,16230,0,0,0,0.017726876,0,2,0,1,1,1,57,0,1,1,0,0,0,0,0,0,0,0,0,0,1,0,0,0
21764148000,4000000.0,1.0,25218.129,0.0,9888752,0,697.2112,915587,16230,0,0,0,0.017726334,0,2,0,1,1,1,57,0,1,1,0,0,0,0,0,0,0,0,0,0,1,0,0,0
21765152000,4000000.0,1.0,25392.432,0.0,9889203,0,697.2112,915615,16230,0,0,0,0.017725792,0,2,0,1,1,1,57,0,1,1,0,0,0,0,0,0,0,0,0,0,1,0,0,0
21766156000,4000000.0,1.0,25330.678,0.0,9889655,0,697.2112,915643,16230,0,0,0,0.017725248,0,2,0,1,1,1,57,0,1,1,0,0,0,0,0,0,0,0,0,0,1,0,0,0
21767156000,4000000.0,1.0,25351.594,0.0,9890106,0,697.2112,915671,16230,0,0,0,0.017724708,0,2,0,1,1,1,57,0,1,1,0,0,0,0,0,0,0,0,0,0,1,0,0,0
21768152000,4000000.0,1.0,25294.822,0.0,9890552,0,697.2112,915699,16230,0,0,0,0.017724166,0,2,0,1,1,1,57,0,1,1,0,0,0,0,0,0,0,0,0,0,1,0,0,0
21769152000,4000000.0,1.0,25444.225,0.0,9891003,0,697.2112,915727,16230,0,0,0,0.017723624,0,2,0,1,1,1,57,0,1,1,0,0,0,0,0,0,0,0,0,0,1,0,0,0
21770148000,4000000.0,1.0,25162.352,0.0,9891453,0,697.2112,915755,16230,0,0,0,0.017723082,0,2,0,1,1,1,57,0,1,1,0,0,0,0,0,0,0,0,0,0,1,0,0,0
21771144000,4000000.0,1.0,26065.738,0.0,9891904,0,697.2112,915783,16230,0,0,0,0.01772254,0,2,0,1,1,1,57,0,1,1,0,0,0,0,0,0,0,0,0,0,1,0,0,0
21772140000,4000000.0,1.0,25247.014,0.0,9892348,0,723.1076,915811,16230,0,0,0,0.017721998,0,2,0,1,1,1,57,0,1,1,0,0,0,0,0,0,0,0,0,0,1,0,0,0
21773144000,4000000.0,1.0,25306.773,0.0,9892802,0,697.2112,915839,16230,0,0,0,0.017721456,0,2,0,1,1,1,57,0,1,1,0,0,0,0,0,0,0,0,0,0,1,0,0,0
21774148000,4000000.0,1.0,25283.865,0.0,9893254,0,697.2112,915867,16230,0,0,0,0.017720914,0,2,0,1,1,1,57,0,1,1,0,0,0,0,0,0,0,0,0,0,1,0,0,0
21775144000,4000000.0,1.0,25406.375,0.0,9893703,0,697.2112,915895,16230,0,0,0,0.017720371,0,2,0,1,1,1,57,0,1,1,0,0,0,0,0,0,0,0,0,0,1,0,0,0
21776144000,4000000.0,1.0,25347.61,0.0,9894153,0,697.2112,915923,16230,0,0,0,0.01771983,0,2,0,1,1,1,57,0,1,1,0,0,0,0,0,0,0,0,0,0,1,0,0,0
21777140000,4000000.0,1.0,25499.004,0.0,9894603,0,725.0996,915951,16230,0,0,0,0.01771929,0,2,0,1,1,1,57,0,1,1,0,0,0,0,0,0,0,0,0,0,1,0,0,0
21778140000,4000000.0,1.0,25087.65,0.0,9895050,0,697.2112,915979,16230,0,0,0,0.017718747,0,2,0,1,1,1,57,0,1,1,0,0,0,0,0,0,0,0,0,0,1,0,0,0
21779092000,4000000.0,1.0,25723.107,0.0,9895486,0,737.0518,916007,16230,0,0,0,0.017718205,0,2,0,1,1,1,57,0,1,1,0,0,0,0,0,0,0,0,0,0,1,0,0,0
21780240000,4000000.0,1.0,25346.615,0.0,9895997,0,764.94025,916040,16230,0,0,0,0.017717566,0,2,0,1,1,1,57,0,1,1,0,0,0,0,0,0,0,0,0,0,1,0,0,0
21781232000,4000000.0,1.0,25525.896,0.0,9896442,0,697.2112,916068,16230,0,0,0,0.017717026,0,2,0,1,1,1,57,0,1,1,0,0,0,0,0,0,0,0,0,0,1,0,0,0
21782236000,4000000.0,1.0,25160.36,0.0,9896894,0,697.2112,916096,16230,0,0,0,0.017716484,0,2,0,1,1,1,57,0,1,1,0,0,0,0,0,0,0,0,0,0,1,0,0,0
21783236000,4000000.0,1.0,25471.117,0.0,9897347,0,697.2112,916124,16230,0,0,0,0.017715942,0,2,0,1,1,1,57,0,1,1,0,0,0,0,0,0,0,0,0,0,1,0,0,0
21784240000,4000000.0,1.0,25196.217,0.0,9897794,0,697.2112,916152,16230,0,0,0,0.0177154,0,2,0,1,1,1,57,0,1,1,0,0,0,0,0,0,0,0,0,0,1,0,0,0
21785236000,4000000.0,1.0,25449.203,0.0,9898245,0,697.2112,916180,16230,0,0,0,0.01771486,0,2,0,1,1,1,57,0,1,1,0,0,0,0,0,0,0,0,0,0,1,0,0,0
21786228000,4000000.0,1.0,25399.402,0.0,9898687,0,697.2112,916208,16230,0,0,0,0.017714318,0,2,0,1,1,1,57,0,1,1,0,0,0,0,0,0,0,0,0,0,1,0,0,0
21787224000,4000000.0,1.0,25349.602,0.0,9899137,0,725.0996,916236,16230,0,0,0,0.017713778,0,2,0,1,1,1,57,0,1,1,0,0,0,0,0,0,0,0,0,0,1,0,0,0
21788224000,4000000.0,1.0,25453.188,0.0,9899585,0,697.2112,916264,16230,0,0,0,0.017713236,0,2,0,1,1,1,57,0,1,1,0,0,0,0,0,0,0,0,0,0,1,0,0,0
21789228000,4000000.0,1.0,25473.107,0.0,9900037,0,697.2112,916292,16230,0,0,0,0.017712694,0,2,0,1,1,1,57,0,1,1,0,0,0,0,0,0,0,0,0,0,1,0,0,0
21790108000,4000000.0,1.0,25264.941,0.0,9900438,0,725.0996,916319,16230,0,0,0,0.017712172,0,2,0,1,1,1,57,0,1,1,0,0,0,0,0,0,0,0,0,0,1,0,0,0
21791108000,4000000.0,1.0,25501.992,0.0,9900889,0,717.1315,916347,16230,0,0,0,0.017711632,0,2,0,1,1,1,57,0,1,1,0,0,0,0,0,0,0,0,0,0,1,0,0,0
21792104000,4000000.0,1.0,25223.107,0.0,9901333,0,697.2112,916375,16230,0,0,0,0.01771109,0,2,0,1,1,1,57,0,1,1,0,0,0,0,0,0,0,0,0,0,1,0,0,0
21793108000,4000000.0,1.0,25303.785,0.0,9901787,0,697.2112,916403,16230,0,0,0,0.017710548,0,2,0,1,1,1,57,0,1,1,0,0,0,0,0,0,0,0,0,0,1,0,0,0
21794104000,4000000.0,1.0,25225.1,0.0,9902232,0,697.2112,916431,16230,0,0,0,0.017710008,0,2,0,1,1,1,57,0,1,1,0,0,0,0,0,0,0,0,0,0,1,0,0,0
21795104000,4000000.0,1.0,25450.2,0.0,9902684,0,697.2112,916459,16230,0,0,0,0.017709466,0,2,0,1,1,1,57,0,1,1,0,0,0,0,0,0,0,0,0,0,1,0,0,0
21796104000,4000000.0,1.0,25775.896,0.0,9903132,0,697.2112,916487,16230,0,0,0,0.017708926,0,2,0,1,1,1,57,0,1,1,0,0,0,0,0,0,0,0,0,0,1,0,0,0
21797104000,4000000.0,1.0,25524.9,0.0,9903584,0,723.1076,916515,16230,0,0,0,0.017708385,0,2,0,1,1,1,57,0,1,1,0,0,0,0,0,0,0,0,0,0,1,0,0,0
21798092000,4000000.0,1.0,25245.021,0.0,9904029,0,697.2112,916543,16230,0,0,0,0.017707843,0,2,0,1,1,1,57,0,1,1,0,0,0,0,0,0,0,0,0,0,1,0,0,0
21799252000,4000000.0,1.0,25450.2,0.0,9904549,0,697.2112,916576,16230,0,0,0,0.017707206,0,2,0,1,1,1,57,0,1,1,0,0,0,0,0,0,0,0,0,0,1,0,0,0
21800152000,4000000.0,1.0,25362.55,0.0,9904957,0,752.9881,916603,16230,0,0,0,0.017706685,0,2,0,1,1,1,57,0,1,1,0,0,0,0,0,0,0,0,0,0,1,0,0,0
21801156000,4000000.0,1.0,25591.635,0.0,9905412,0,697.2112,916631,16230,0,0,0,0.017706143,0,2,0,1,1,1,57,0,1,1,0,0,0,0,0,0,0,0,0,0,1,0,0,0
21802328000,4000000.0,1.0,25168.328,0.0,9905942,0,764.94025,916665,16230,0,0,0,0.017705487,0,2,0,1,1,1,57,0,1,1,0,0,0,0,0,0,0,0,0,0,1,0,0,0
21803320000,4000000.0,1.0,25357.57,0.0,9906390,0,697.2112,916693,16230,0,0,0,0.017704945,0,2,0,1,1,1,57,0,1,1,0,0,0,0,0,0,0,0,0,0,1,0,0,0
21804324000,4000000.0,1.0,25477.092,0.0,9906841,0,697.2112,916721,16230,0,0,0,0.017704405,0,2,0,1,1,1,57,0,1,1,0,0,0,0,0,0,0,0,0,0,1,0,0,0
21805324000,4000000.0,1.0,25463.148,0.0,9907289,0,697.2112,916749,16230,0,0,0,0.017703865,0,2,0,1,1,1,57,0,1,1,0,0,0,0,0,0,0,0,0,0,1,0,0,0
21806316000,4000000.0,1.0,25357.57,0.0,9907743,0,697.2112,916777,16230,0,0,0,0.017703325,0,2,0,1,1,1,57,0,1,1,0,0,0,0,0,0,0,0,0,0,1,0,0,0
21807308000,4000000.0,1.0,25789.842,0.0,9908196,0,715.13947,916806,16230,0,0,0,0.017702764,0,2,0,1,1,1,57,0,1,1,0,0,0,0,0,0,0,0,0,0,1,0,0,0
21808316000,4000000.0,1.0,25913.348,0.0,9908666,0,697.2112,916836,16230,0,0,0,0.017702185,0,2,0,1,1,1,57,0,1,1,0,0,0,0,0,0,0,0,0,0,1,0,0,0
21809300000,4000000.0,1.0,26115.54,0.0,9909119,0,743.0279,916865,16230,0,0,0,0.017701624,0,2,0,1,1,1,57,0,1,1,0,0,0,0,0,0,0,0,0,0,1,0,0,0
21810296000,4000000.0,1.0,25894.424,0.0,9909581,0,697.2112,916893,16230,0,0,0,0.017701084,0,2,0,1,1,1,57,0,1,1,0,0,0,0,0,0,0,0,0,0,1,0,0,0
21811296000,4000000.0,1.0,26205.18,0.0,9910037,0,697.2112,916921,16230,0,0,0,0.017700544,0,2,0,1,1,1,57,0,1,1,0,0,0,0,0,0,0,0,0,0,1,0,0,0
21812296000,4000000.0,1.0,25793.826,0.0,9910498,0,697.2112,916949,16230,0,0,0,0.017700003,0,2,0,1,1,1,57,0,1,1,0,0,0,0,0,0,0,0,0,0,1,0,0,0
21813292000,4000000.0,1.0,26213.148,0.0,9910952,0,697.2112,916977,16230,0,0,0,0.017699463,0,2,0,1,1,1,57,0,1,1,0,0,0,0,0,0,0,0,0,0,1,0,0,0
21814288000,4000000.0,1.0,25933.268,0.0,9911411,0,697.2112,917005,16230,0,0,0,0.017698921,0,2,0,1,1,1,57,0,1,1,0,0,0,0,0,0,0,0,0,0,1,0,0,0
21815288000,4000000.0,1.0,25932.271,0.0,9911869,0,697.2112,917033,16230,0,0,0,0.017698381,0,2,0,1,1,1,57,0,1,1,0,0,0,0,0,0,0,0,0,0,1,0,0,0
21816288000,4000000.0,1.0,26074.701,0.0,9912331,0,697.2112,917061,16230,0,0,0,0.01769784,0,2,0,1,1,1,57,0,1,1,0,0,0,0,0,0,0,0,0,0,1,0,0,0
21817284000,4000000.0,1.0,26050.797,0.0,9912788,0,697.2112,917089,16230,0,0,0,0.0176973,0,2,0,1,1,1,57,0,1,1,0,0,0,0,0,0,0,0,0,0,1,0,0,0
21818288000,4000000.0,1.0,25856.574,0.0,9913253,0,697.2112,917117,16230,0,0,0,0.01769676,0,2,0,1,1,1,57,0,1,1,0,0,0,0,0,0,0,0,0,0,1,0,0,0
21819288000,4000000.0,1.0,26034.861,0.0,9913713,0,697.2112,917145,16230,0,0,0,0.01769622,0,2,0,1,1,1,57,0,1,1,0,0,0,0,0,0,0,0,0,0,1,0,0,0
21820288000,4000000.0,1.0,25879.482,0.0,9914174,0,697.2112,917173,16230,0,0,0,0.01769568,0,2,0,1,1,1,57,0,1,1,0,0,0,0,0,0,0,0,0,0,1,0,0,0
21821280000,4000000.0,1.0,26647.412,0.0,9914631,0,723.1076,917201,16230,0,0,0,0.01769514,0,2,0,1,1,1,57,0,1,1,0,0,0,0,0,0,0,0,0,0,1,0,0,0
21822284000,4000000.0,1.0,25809.762,0.0,9915093,0,697.2112,917229,16230,0,0,0,0.0176946,0,2,0,1,1,1,57,0,1,1,0,0,0,0,0,0,0,0,0,0,1,0,0,0
21823284000,4000000.0,1.0,26028.885,0.0,9915549,0,697.2112,917257,16230,0,0,0,0.01769406,0,2,0,1,1,1,57,0,1,1,0,0,0,0,0,0,0,0,0,0,1,0,0,0
21824280000,4000000.0,1.0,25903.387,0.0,9916009,0,725.0996,917285,16230,0,0,0,0.01769352,0,2,0,1,1,1,57,0,1,1,0,0,0,0,0,0,0,0,0,0,1,0,0,0
21825284000,4000000.0,1.0,26034.861,0.0,9916466,0,697.2112,917313,16230,0,0,0,0.01769298,0,2,0,1,1,1,57,0,1,1,0,0,0,0,0,0,0,0,0,0,1,0,0,0
21826280000,4000000.0,1.0,25960.16,0.0,9916929,0,697.2112,917341,16230,0,0,0,0.01769244,0,2,0,1,1,1,57,0,1,1,0,0,0,0,0,0,0,0,0,0,1,0,0,0
21827256000,4000000.0,1.0,26027.889,0.0,9917364,0,697.2112,917368,16230,0,0,0,0.017691918,0,2,0,1,1,1,57,0,1,1,0,0,0,0,0,0,0,0,0,0,1,0,0,0
21828264000,4000000.0,1.0,25777.889,0.0,9917822,0,697.2112,917396,16230,0,0,0,0.01769138,0,2,0,1,1,1,57,0,1,1,0,0,0,0,0,0,0,0,0,0,1,0,0,0
21829264000,4000000.0,1.0,26331.674,0.0,9918284,0,697.2112,917424,16230,0,0,0,0.01769084,0,2,0,1,1,1,57,0,1,1,0,0,0,0,0,0,0,0,0,0,1,0,0,0
21830260000,4000000.0,1.0,25886.455,0.0,9918742,0,717.1315,917452,16230,0,0,0,0.0176903,0,2,0,1,1,1,57,0,1,1,0,0,0,0,0,0,0,0,0,0,1,0,0,0
21831264000,4000000.0,1.0,26204.184,0.0,9919205,0,697.2112,917480,16230,0,0,0,0.017689759,0,2,0,1,1,1,57,0,1,1,0,0,0,0,0,0,0,0,0,0,1,0,0,0
21832256000,4000000.0,1.0,25821.715,0.0,9919661,0,697.2112,917508,16230,0,0,0,0.017689219,0,2,0,1,1,1,57,0,1,1,0,0,0,0,0,0,0,0,0,0,1,0,0,0
21833260000,4000000.0,1.0,26043.826,0.0,9920124,0,697.2112,917536,16230,0,0,0,0.017688679,0,2,0,1,1,1,57,0,1,1,0,0,0,0,0,0,0,0,0,0,1,0,0,0
21834260000,4000000.0,1.0,25851.594,0.0,9920580,0,697.2112,917564,16230,0,0,0,0.01768814,0,2,0,1,1,1,57,0,1,1,0,0,0,0,0,0,0,0,0,0,1,0,0,0
21835164000,4000000.0,1.0,26126.494,0.0,9921000,0,725.0996,917591,16230,0,0,0,0.017687619,0,2,0,1,1,1,57,0,1,1,0,0,0,0,0,0,0,0,0,0,1,0,0,0
21836160000,4000000.0,1.0,25894.424,0.0,9921456,0,697.2112,917619,16230,0,0,0,0.017687079,0,2,0,1,1,1,57,0,1,1,0,0,0,0,0,0,0,0,0,0,1,0,0,0
21837156000,4000000.0,1.0,26214.145,0.0,9921915,0,697.2112,917647,16230,0,0,0,0.01768654,0,2,0,1,1,1,57,0,1,1,0,0,0,0,0,0,0,0,0,0,1,0,0,0
21838152000,4000000.0,1.0,25818.727,0.0,9922368,0,697.2112,917675,16230,0,0,0,0.017686,0,2,0,1,1,1,57,0,1,1,0,0,0,0,0,0,0,0,0,0,1,0,0,0
21839156000,4000000.0,1.0,26075.697,0.0,9922832,0,697.2112,917703,16230,0,0,0,0.01768546,0,2,0,1,1,1,57,0,1,1,0,0,0,0,0,0,0,0,0,0,1,0,0,0
21840156000,4000000.0,1.0,25866.535,0.0,9923291,0,697.2112,917731,16230,0,0,0,0.017684922,0,2,0,1,1,1,57,0,1,1,0,0,0,0,0,0,0,0,0,0,1,0,0,0
21841152000,4000000.0,1.0,26235.06,0.0,9923749,0,725.0996,917759,16230,0,0,0,0.017684381,0,2,0,1,1,1,57,0,1,1,0,0,0,0,0,0,0,0,0,0,1,0,0,0
21842148000,4000000.0,1.0,25786.854,0.0,9924206,0,697.2112,917787,16230,0,0,0,0.017683841,0,2,0,1,1,1,57,0,1,1,0,0,0,0,0,0,0,0,0,0,1,0,0,0
21843148000,4000000.0,1.0,26139.443,0.0,9924671,0,697.2112,917815,16230,0,0,0,0.017683303,0,2,0,1,1,1,57,0,1,1,0,0,0,0,0,0,0,0,0,0,1,0,0,0
21844144000,4000000.0,1.0,25878.486,0.0,9925127,0,697.2112,917843,16230,0,0,0,0.017682763,0,2,0,1,1,1,57,0,1,1,0,0,0,0,0,0,0,0,0,0,1,0,0,0
21845144000,4000000.0,1.0,25945.22,0.0,9925590,0,697.2112,917871,16230,0,0,0,0.017682223,0,2,0,1,1,1,57,0,1,1,0,0,0,0,0,0,0,0,0,0,1,0,0,0
21846144000,4000000.0,1.0,26451.195,0.0,9926046,0,723.1076,917899,16230,0,0,0,0.017681684,0,2,0,1,1,1,57,0,1,1,0,0,0,0,0,0,0,0,0,0,1,0,0,0
21847148000,4000000.0,1.0,26160.36,0.0,9926509,0,697.2112,917927,16230,0,0,0,0.017681144,0,2,0,1,1,1,57,0,1,1,0,0,0,0,0,0,0,0,0,0,1,0,0,0
21848140000,4000000.0,1.0,25779.88,0.0,9926964,0,697.2112,917955,16230,0,0,0,0.017680606,0,2,0,1,1,1,57,0,1,1,0,0,0,0,0,0,0,0,0,0,1,0,0,0
21849144000,4000000.0,1.0,25995.021,0.0,9927425,0,697.2112,917983,16230,0,0,0,0.017680066,0,2,0,1,1,1,57,0,1,1,0,0,0,0,0,0,0,0,0,0,1,0,0,0
21850148000,4000000.0,1.0,25840.639,0.0,9927883,0,697.2112,918011,16230,0,0,0,0.017679527,0,2,0,1,1,1,57,0,1,1,0,0,0,0,0,0,0,0,0,0,1,0,0,0
