timestamp,timestamp_sample,gyro_device_id,gyro_bias[0],gyro_bias[1],gyro_bias[2],gyro_bias_limit,gyro_bias_variance[0],gyro_bias_variance[1],gyro_bias_variance[2],accel_device_id,accel_bias[0],accel_bias[1],accel_bias[2],accel_bias_limit,accel_bias_variance[0],accel_bias_variance[1],accel_bias_variance[2],mag_device_id,mag_bias[0],mag_bias[1],mag_bias[2],mag_bias_limit,mag_bias_variance[0],mag_bias_variance[1],mag_bias_variance[2],gyro_bias_valid,gyro_bias_stable,accel_bias_valid,accel_bias_stable,mag_bias_valid,mag_bias_stable
21726064000,21725984000,1311004,0.0010991892,8.2262566e-05,-0.00025110863,0.34906584,1.3784037e-07,1.3784009e-07,3.5885864e-07,1311004,-0.015437984,-0.0022331486,-0.027624896,0.4,0.0013564009,0.0013633787,0.00078123936,197388,0.0127204135,-0.0057865293,-0.0012311562,0.5,1.8362469e-05,4.2487474e-05,5.200741e-05,1,1,1,0,1,0
21726688000,21726608000,1311004,0.0010708229,9.206521e-05,-0.0002504913,0.34906584,1.3783497e-07,1.3783635e-07,3.5874834e-07,1311004,-0.015442572,-0.002227657,-0.029773122,0.4,0.0013564429,0.0013634209,0.00078123936,197388,0.0127204135,-0.0057865293,-0.0012311562,0.5,1.8362469e-05,4.2487474e-05,5.200741e-05,1,1,1,0,1,0
21727312000,21727232000,1311004,0.0010500173,0.0001002463,-0.00024774813,0.34906584,1.3783351e-07,1.3783574e-07,3.5864218e-07,1311004,-0.015447534,-0.0022257785,-0.03109925,0.4,0.0013564868,0.0013634639,0.00078123936,197388,0.0127204135,-0.0057865293,-0.0012311562,0.5,1.8362469e-05,4.2487474e-05,5.200741e-05,1,1,1,0,1,0
21727520000,21727440000,1311004,0.0010450534,0.00010088403,-0.00025300053,0.34906584,1.3783168e-07,1.3783415e-07,3.5860737e-07,1311004,-0.015447952,-0.0022241205,-0.032187548,0.4,0.0013565014,0.0013634785,0.00078123936,197388,0.0127204135,-0.0057865293,-0.0012311562,0.5,1.8362469e-05,4.2487474e-05,5.200741e-05,1,1,1,0,1,0
21728520000,21728440000,1311004,0.0010211454,0.00010778924,-0.000249134,0.34906584,1.391771e-07,1.391805e-07,3.5867734e-07,1311004,-0.015451444,-0.0022255545,-0.032349322,0.4,0.0013565707,0.0013635482,0.0007812457,197388,0.0127204135,-0.0057865293,-0.0012311562,0.5,1.8362469e-05,4.2487474e-05,5.200741e-05,1,1,1,0,1,0
21729184000,21729104000,1311004,0.0009880877,0.000105036794,-0.00025221577,0.34906584,1.3783895e-07,1.3784467e-07,3.5889093e-07,1311004,-0.015454074,-0.002231132,-0.0305289,0.4,0.0013566166,0.0013635939,0.00078123936,197388,0.0127204135,-0.0057865293,-0.0012311562,0.5,1.8362469e-05,4.2487474e-05,5.200741e-05,1,1,1,0,1,0
21729392000,21729312000,1311004,0.0009850803,0.000104719045,-0.00025182345,0.34906584,1.3784123e-07,1.3784681e-07,3.588575e-07,1311004,-0.015453587,-0.0022327213,-0.029249873,0.4,0.001356631,0.0013636084,0.00078123936,197388,0.0127204135,-0.0057865293,-0.0012311562,0.5,1.8362469e-05,4.2487474e-05,5.200741e-05,1,1,1,0,1,0
21729600000,21729520000,1311004,0.00097649544,0.00010228837,-0.00025361145,0.34906584,1.3783682e-07,1.3784313e-07,3.588227e-07,1311004,-0.015452427,-0.0022300747,-0.030752143,0.4,0.0013566453,0.0013636223,0.00078123936,197388,0.0127204135,-0.0057865293,-0.0012311562,0.5,1.8362469e-05,4.2487474e-05,5.200741e-05,1,1,1,0,1,0
21729808000,21729728000,1311004,0.0009657743,9.626908e-05,-0.00025473925,0.34906584,1.3783864e-07,1.378462e-07,3.587866e-07,1311004,-0.015450486,-0.00223056,-0.029551143,0.4,0.0013566593,0.0013636361,0.00078123936,197388,0.0127204135,-0.0057865293,-0.0012311562,0.5,1.8362469e-05,4.2487474e-05,5.200741e-05,1,1,1,0,1,0
21730016000,21729936000,1311004,0.00096324156,9.073547e-05,-0.00025401573,0.34906584,1.3782727e-07,1.3783492e-07,3.5875286e-07,1311004,-0.015450601,-0.0022252025,-0.034357615,0.4,0.0013566694,0.0013636465,0.00078123936,197388,0.0127204135,-0.0057865293,-0.0012311562,0.5,1.8362469e-05,4.2487474e-05,5.200741e-05,1,1,1,0,1,0
21730432000,21730352000,1311004,0.00096862373,9.040693e-05,-0.00025579764,0.34906584,1.3783357e-07,1.3783935e-07,3.5868302e-07,1311004,-0.015452095,-0.0022265345,-0.03247405,0.4,0.0013566974,0.0013636738,0.00078123936,197388,0.0127204135,-0.0057865293,-0.0012311562,0.5,1.8362469e-05,4.2487474e-05,5.200741e-05,1,1,1,0,1,0
21730848000,21730768000,1311004,0.00096898794,9.0519745e-05,-0.00025553507,0.34906584,1.3783121e-07,1.3783598e-07,3.5861743e-07,1311004,-0.015451159,-0.002226488,-0.033998474,0.4,0.0013567258,0.0013637033,0.00078123936,197388,0.0127204135,-0.0057865293,-0.0012311562,0.5,1.8362469e-05,4.2487474e-05,5.200741e-05,1,1,1,0,1,0
21731264000,21731184000,1311004,0.000971981,8.0847225e-05,-0.00025668988,0.34906584,1.3783526e-07,1.3783968e-07,3.5855578e-07,1311004,-0.015451415,-0.0022257513,-0.032200877,0.4,0.0013567541,0.0013637323,0.00078123936,197388,0.0127204135,-0.0057865293,-0.0012311562,0.5,1.8362469e-05,4.2487474e-05,5.200741e-05,1,1,1,0,1,0
21732264000,21732184000,1311004,0.0009743346,8.202382e-05,-0.00025064024,0.34906584,1.3917833e-07,1.391812e-07,3.5863548e-07,1311004,-0.015452303,-0.0022266286,-0.03187448,0.4,0.0013568223,0.0013638014,0.00078124227,197388,0.0127204135,-0.0057865293,-0.0012311562,0.5,1.8362469e-05,4.2487474e-05,5.200741e-05,1,1,1,0,1,0
21732304000,21732224000,1311004,0.000983258,8.2640894e-05,-0.0002501648,0.34906584,1.3784124e-07,1.3784309e-07,3.5838812e-07,1311004,-0.01545553,-0.002226583,-0.029276792,0.4,0.001356824,0.0013638021,0.00078123936,197388,0.0127204135,-0.0057865293,-0.0012311562,0.5,1.8362469e-05,4.2487474e-05,5.200741e-05,1,1,1,0,1,0
21732512000,21732432000,1311004,0.0009784126,9.3663875e-05,-0.00025069175,0.34906584,1.378513e-07,1.3785258e-07,3.583522e-07,1311004,-0.015457234,-0.0022306407,-0.024461867,0.4,0.001356834,0.0013638128,0.00078123936,197388,0.0127204135,-0.0057865293,-0.0012311562,0.5,1.8362469e-05,4.2487474e-05,5.200741e-05,1,1,1,0,1,0
21732720000,21732640000,1311004,0.0009746848,0.0001064926,-0.00025076643,0.34906584,1.378556e-07,1.3785603e-07,3.583164e-07,1311004,-0.015457322,-0.0022313902,-0.0217035,0.4,0.001356847,0.0013638267,0.00078123936,197388,0.0127204135,-0.0057865293,-0.0012311562,0.5,1.8362469e-05,4.2487474e-05,5.200741e-05,1,1,1,0,1,0
21732928000,21732848000,1311004,0.0009767474,0.00011262634,-0.00025245556,0.34906584,1.3785665e-07,1.3785632e-07,3.5828597e-07,1311004,-0.015457758,-0.002231671,-0.019768069,0.4,0.0013568616,0.0013638414,0.00078123936,197388,0.0127204135,-0.0057865293,-0.0012311562,0.5,1.8362469e-05,4.2487474e-05,5.200741e-05,1,1,1,0,1,0
21733928000,21733848000,1311004,0.0009777177,0.00011293136,-0.0002488907,0.34906584,1.456572e-07,1.4565677e-07,3.589409e-07,1311004,-0.015457933,-0.0022314936,-0.01956912,0.4,0.0013569327,0.0013639122,0.0007812417,197388,0.0127204135,-0.0057865293,-0.0012311562,0.5,1.8362469e-05,4.2487474e-05,5.200741e-05,1,0,1,0,1,0
21734824000,21734744000,1311004,0.0009772753,0.00011687658,-0.00024495332,0.34906584,1.5109472e-07,1.5109413e-07,3.587494e-07,1311004,-0.015394103,-0.0022280912,-0.020744063,0.4,0.0013563986,0.0013633725,0.00078123936,197388,0.0127204135,-0.0057865293,-0.0012311562,0.5,1.8362469e-05,4.2487474e-05,5.200741e-05,1,0,1,0,1,0
21735240000,21735160000,1311004,0.00097541464,0.00011899225,-0.00024876517,0.34906584,1.5263309e-07,1.5263268e-07,3.586775e-07,1311004,-0.015360968,-0.0021855375,-0.01974421,0.4,0.0013557319,0.0013626993,0.00078123936,197388,0.0127204135,-0.0057865293,-0.0012311562,0.5,1.8362469e-05,4.2487474e-05,5.200741e-05,1,0,1,0,1,0
21735816000,21735736000,1311004,0.0009730502,0.00012524704,-0.00024822284,0.34906584,1.5502941e-07,1.5502923e-07,3.6158434e-07,1311004,-0.015404042,-0.0021887827,-0.018511591,0.4,0.0013547855,0.0013617439,0.00078123936,197388,0.0127204135,-0.0057865293,-0.0012311562,0.5,0.0025000002,0.0025000002,0.0025000002,1,0,1,0,1,0
21736024000,21735944000,1311004,0.0009706892,0.00012891418,-0.00024810302,0.34906584,1.5573802e-07,1.5573788e-07,3.632477e-07,1311004,-0.015621444,-0.0023188249,-0.017290795,0.4,0.0013514819,0.001358407,0.00078123936,197388,0.0127204135,-0.0057865293,-0.0012311562,0.5,0.0025000002,0.0025000002,0.0025000002,1,0,1,0,1,0
21736536000,21736456000,1311004,0.00096609036,0.00013025184,-0.00024771676,0.34906584,1.5817305e-07,1.5817264e-07,3.6734005e-07,1311004,-0.015662083,-0.002810143,-0.016419087,0.4,0.0013340141,0.0013407639,0.00078123936,197388,0.0127204135,-0.0057865293,-0.0012311562,0.5,0.0025000002,0.0025000002,0.0025000002,1,0,1,0,1,0
21737008000,21736928000,1311004,0.00096448715,0.00013202324,-0.00024705025,0.34906584,1.6055616e-07,1.6055466e-07,3.711095e-07,1311004,-0.015777968,-0.0029964305,-0.015425555,0.4,0.0012947036,0.0013010731,0.00078123936,197388,0.0127204135,-0.0057865293,-0.0012311562,0.5,0.0025000002,0.0025000002,0.0025000002,1,0,1,0,1,0
21737632000,21737552000,1311004,0.00096060283,0.00013380041,-0.00024622193,0.34906584,1.6400368e-07,1.6399947e-07,3.7608407e-07,1311004,-0.015840719,-0.003931124,-0.014797798,0.4,0.0012121069,0.0012177463,0.00078123936,197388,0.0127204135,-0.0057865293,-0.0012311562,0.5,0.0025000002,0.0025000002,0.0025000002,1,0,1,0,1,0
21738632000,21738552000,1311004,0.0009577039,0.00013532556,-0.0002442115,0.34906584,1.7064721e-07,1.7063832e-07,3.8403184e-07,1311004,-0.01592478,-0.004628769,-0.014481239,0.4,0.0011044628,0.0011093555,0.00078123994,197388,0.0127204135,-0.0057865293,-0.0012311562,0.5,0.0025000002,0.0025000002,0.0025000002,1,0,1,0,1,0
21739032000,21738952000,1311004,0.0009559432,0.00013696021,-0.00024382131,0.34906584,1.73369e-07,1.7335528e-07,3.871965e-07,1311004,-0.016417645,-0.005174274,-0.013617889,0.4,0.001067299,0.0010722338,0.00078123936,197388,0.0127204135,-0.0057865293,-0.0012311562,0.5,0.0025000002,0.0025000002,0.0025000002,1,0,1,0,1,0
21739352000,21739272000,1311004,0.0009547223,0.00013769475,-0.00024323446,0.34906584,1.7572157e-07,1.7570362e-07,3.8972814e-07,1311004,-0.016654871,-0.005555164,-0.0134988455,0.4,0.0010526794,0.0010578181,0.0007812434,197388,0.010826938,-0.0069219535,-9.4278585e-05,0.5,0.0014267999,0.0015452548,0.0016281101,1,0,1,0,1,0
21739416000,21739336000,1311004,0.00095472456,0.00013769454,-0.00024323446,0.34906584,1.7623358e-07,1.7621562e-07,3.9024016e-07,1311004,-0.016655743,-0.005554707,-0.013416977,0.4,0.0010526835,0.0010578225,0.00078123936,197388,0.012205874,-0.006668892,0.0009780454,0.5,0.0011242076,0.0012954847,0.0014322739,1,0,1,0,1,0
21739560000,21739480000,1311004,0.0009547256,0.00013769465,-0.00024323449,0.34906584,1.773856e-07,1.7736764e-07,3.9139218e-07,1311004,-0.016656226,-0.005554461,-0.013381426,0.4,0.0010526931,0.0010578327,0.0007812411,197388,0.011271989,-0.0057369852,0.00025695935,0.5,0.0008977894,0.0011063188,0.0012949341,1,0,1,0,1,0
21739608000,21739528000,1311004,0.00095040275,0.00014140284,-0.00024258731,0.34906584,1.7753598e-07,1.7750155e-07,3.9177172e-07,1311004,-0.017617758,-0.0068552988,-0.014258593,0.4,0.0010397728,0.0010459544,0.00078123936,197388,0.0114186965,-0.0059332624,0.0003304728,0.5,0.0008974908,0.0011060298,0.0012948845,1,0,1,0,1,0
21739816000,21739736000,1311004,0.00094642595,0.00014233288,-0.00024188386,0.34906584,1.7898728e-07,1.7892405e-07,3.9342956e-07,1311004,-0.01776821,-0.007862095,-0.014388693,0.4,0.0010296066,0.0010375375,0.00078123936,197388,0.011663701,-0.0056236587,0.0011650382,0.5,0.00077046565,0.0010074893,0.001226362,1,0,1,0,1,0
21740232000,21740152000,1311004,0.0009404839,0.0001409838,-0.00024091976,0.34906584,1.8192392e-07,1.8176738e-07,3.9674822e-07,1311004,-0.01730708,-0.00903463,-0.015451505,0.4,0.0010151628,0.0010272766,0.00078123936,197388,0.011294185,-0.006495544,0.0010094072,0.5,0.00067482947,0.0009424625,0.0011821665,1,0,1,0,1,0
21740776000,21740696000,1311004,0.0009386826,0.000139795,-0.00024074732,0.34906584,1.8606525e-07,1.8584275e-07,4.010841e-07,1311004,-0.017044736,-0.009407961,-0.015324578,0.4,0.0010098744,0.0010238425,0.00078123936,197388,0.011941514,-0.0072944863,0.001264958,0.5,0.00062790327,0.0009123696,0.0011613017,1,0,1,0,1,0
21741016000,21740936000,1311004,0.0009334027,0.00013500555,-0.00024091036,0.34906584,1.8744599e-07,1.870339e-07,4.0296652e-07,1311004,-0.016352339,-0.009872589,-0.016103934,0.4,0.0010013529,0.0010190194,0.00078123936,197388,0.01206482,-0.007352661,0.0014210355,0.5,0.00061771274,0.000905318,0.0011565401,1,0,1,0,1,0
21741640000,21741560000,1311004,0.000928214,0.0001291205,-0.00024190491,0.34906584,1.914836e-07,1.9075966e-07,4.0779082e-07,1311004,-0.015550665,-0.010201999,-0.01729891,0.4,0.0009922122,0.0010147045,0.00078123936,197388,0.012084125,-0.007515271,0.0014961527,0.5,0.0006005202,0.000892387,0.0011463956,1,0,1,0,1,0
21742640000,21742560000,1311004,0.00092451274,0.000118622025,-0.00024362668,0.34906584,1.9724705e-07,1.960926e-07,4.150412e-07,1311004,-0.015004056,-0.010407008,-0.016787615,0.4,0.0009809213,0.0010111652,0.0007812405,197388,0.012254766,-0.007994121,0.0019821892,0.5,0.00058910047,0.00088115624,0.0011352642,1,0,1,0,1,0
21743640000,21743560000,1311004,0.00091610465,0.000110434055,-0.00024930318,0.34906584,2.0149523e-07,2.0002709e-07,4.212723e-07,1311004,-0.014454799,-0.010584912,-0.016980335,0.4,0.00096830534,0.0010087987,0.00078123994,197388,0.012392187,-0.008087548,0.0021058985,0.5,0.0005838085,0.0008742536,0.0011256307,1,0,1,0,1,0
21744328000,21744248000,1311004,0.00091748,0.00010144351,-0.00024869142,0.34906584,2.0324778e-07,2.0159679e-07,4.246788e-07,1311004,-0.014563608,-0.010626115,-0.01598542,0.4,0.00095795834,0.0010074488,0.00078123936,197388,0.012429946,-0.008352114,0.0022338906,0.5,0.0005812845,0.00087050424,0.001118958,1,0,1,0,1,0
21745328000,21745248000,1311004,0.0009188563,9.603108e-05,-0.00024923834,0.34906584,2.0468738e-07,2.0256883e-07,4.2843664e-07,1311004,-0.014401147,-0.010641257,-0.015616844,0.4,0.0009430114,0.0010057633,0.0007812405,197388,0.01241399,-0.008563824,0.002716563,0.5,0.000578502,0.00086643174,0.0011103093,1,0,1,0,1,0
21746328000,21746248000,1311004,0.0009223434,8.671672e-05,-0.00024675342,0.34906584,2.0539869e-07,2.0214806e-07,4.3046728e-07,1311004,-0.01383934,-0.010619153,-0.016384555,0.4,0.00092802395,0.0010021459,0.00078123936,197388,0.01241399,-0.008563824,0.002716563,0.5,0.000578502,0.00086643174,0.0011103093,1,0,1,0,1,0
21747328000,21747248000,1311004,0.0009231011,7.7735465e-05,-0.00024735645,0.34906584,2.0580464e-07,2.0083625e-07,4.3250498e-07,1311004,-0.013962117,-0.010657705,-0.015728166,0.4,0.00091406883,0.0009999096,0.0007812405,197388,0.01241399,-0.008563824,0.002716563,0.5,0.000578502,0.00086643174,0.0011103093,1,0,1,0,1,0
21748328000,21748248000,1311004,0.00093516114,6.0539445e-05,-0.00023870541,0.34906584,2.0351104e-07,1.9547308e-07,4.3263603e-07,1311004,-0.013551755,-0.010682978,-0.01637897,0.4,0.00089866685,0.0009982975,0.0007812417,197388,0.01241399,-0.008563824,0.002716563,0.5,0.000578502,0.00086643174,0.0011103093,1,0,1,0,1,0
21749024000,21748944000,1311004,0.0009447451,5.0798466e-05,-0.00023179539,0.34906584,2.0250494e-07,1.9228578e-07,4.330935e-07,1311004,-0.013118513,-0.010719841,-0.017375628,0.4,0.0008904742,0.0009973706,0.00078123936,197388,0.01241399,-0.008563824,0.002716563,0.5,0.000578502,0.00086643174,0.0011103093,1,0,1,0,1,0
21749648000,21749568000,1311004,0.0009443648,3.6586745e-05,-0.00023441362,0.34906584,2.0151076e-07,1.8924094e-07,4.334091e-07,1311004,-0.0126955565,-0.010753123,-0.018441465,0.4,0.00088362483,0.0009965951,0.00078123936,197388,0.01241399,-0.008563824,0.002716563,0.5,0.000578502,0.00086643174,0.0011103093,1,0,1,0,1,0
21750424000,21750344000,1311004,0.0009517704,2.1050362e-05,-0.000229087,0.34906584,2.0122188e-07,1.8679624e-07,4.3443958e-07,1311004,-0.012352706,-0.010791846,-0.019420277,0.4,0.00087746675,0.0009957016,0.00078123936,197388,0.01241399,-0.008563824,0.002716563,0.5,0.000578502,0.00086643174,0.0011103093,1,0,1,0,1,0
21751424000,21751344000,1311004,0.0009565903,1.5953581e-05,-0.00022727491,0.34906584,2.0083263e-07,1.8370562e-07,4.3564188e-07,1311004,-0.012085345,-0.010844814,-0.020254139,0.4,0.00087077724,0.0009945825,0.00078124,197388,0.01241399,-0.008563824,0.002716563,0.5,0.000578502,0.00086643174,0.0011103093,1,0,1,0,1,0
21752424000,21752344000,1311004,0.0009582224,1.5218795e-05,-0.0002297239,0.34906584,2.0094943e-07,1.814353e-07,4.3707618e-07,1311004,-0.0119884685,-0.01090149,-0.020553805,0.4,0.000865637,0.0009934931,0.00078124285,197388,0.01241399,-0.008563824,0.002716563,0.5,0.000578502,0.00086643174,0.0011103093,1,0,1,0,1,0
21753424000,21753344000,1311004,0.0009453844,2.306694e-05,-0.00024603368,0.34906584,2.0087619e-07,1.789921e-07,4.3814708e-07,1311004,-0.012018389,-0.010857039,-0.02014455,0.4,0.00086156186,0.000992397,0.00078124227,197388,0.01241399,-0.008563824,0.002716563,0.5,0.000578502,0.00086643174,0.0011103093,1,0,1,0,1,0
21754424000,21754344000,1311004,0.000937165,3.638213e-05,-0.0002594043,0.34906584,2.0098636e-07,1.768661e-07,4.3916404e-07,1311004,-0.012016667,-0.010852519,-0.019782664,0.4,0.00085847266,0.0009913272,0.0007812417,197388,0.01241399,-0.008563824,0.002716563,0.5,0.000578502,0.00086643174,0.0011103093,1,0,1,0,1,0
21755208000,21755128000,1311004,0.00093037507,6.060588e-05,-0.00026935147,0.34906584,2.0001242e-07,1.7371451e-07,4.3892877e-07,1311004,-0.012078231,-0.0108458,-0.018540863,0.4,0.0008563123,0.0009904283,0.00078123936,197388,0.01241399,-0.008563824,0.002716563,0.5,0.000578502,0.00086643174,0.0011103093,1,0,1,0,1,0
21756040000,21755960000,1311004,0.00091820897,8.716932e-05,-0.00028492717,0.34906584,1.9955449e-07,1.712098e-07,4.3905803e-07,1311004,-0.012072677,-0.010792182,-0.017423779,0.4,0.0008546533,0.0009895279,0.00078123936,197388,0.01241399,-0.008563824,0.002716563,0.5,0.000578502,0.00086643174,0.0011103093,1,0,1,0,1,0
21757032000,21756952000,1311004,0.0009050941,0.00011302841,-0.00030333834,0.34906584,2.0016854e-07,1.6981832e-07,4.4007186e-07,1311004,-0.012092717,-0.010743686,-0.015788725,0.4,0.0008533187,0.0009886094,0.00078123936,197388,0.01241399,-0.008563824,0.002716563,0.5,0.000578502,0.00086643174,0.0011103093,1,0,1,0,1,0
21757448000,21757368000,1311004,0.00089962955,0.00012589528,-0.0003129005,0.34906584,2.0023519e-07,1.6894427e-07,4.402655e-07,1311004,-0.012135592,-0.010738747,-0.0143832555,0.4,0.0008528199,0.0009882255,0.00078123936,197388,0.01241399,-0.008563824,0.002716563,0.5,0.000578502,0.00086643174,0.0011103093,1,0,1,0,1,0
21758224000,21758144000,1311004,0.00089011877,0.0001397499,-0.00032756777,0.34906584,2.0111445e-07,1.6834697e-07,4.4117706e-07,1311004,-0.012183196,-0.010706188,-0.01277172,0.4,0.00085211516,0.00098761,0.00078123936,197388,0.01241399,-0.008563824,0.002716563,0.5,0.000578502,0.00086643174,0.0011103093,1,0,1,0,1,0
21758640000,21758560000,1311004,0.0008846724,0.00014217371,-0.00033280623,0.34906584,2.0124973e-07,1.675216e-07,4.4132705e-07,1311004,-0.012276091,-0.010670205,-0.011164391,0.4,0.00085173344,0.0009872727,0.00078123936,197388,0.01241399,-0.008563824,0.002716563,0.5,0.000578502,0.00086643174,0.0011103093,1,0,1,0,1,0
21759216000,21759136000,1311004,0.0008808282,0.00014558417,-0.0003389336,0.34906584,2.0225099e-07,1.6753633e-07,4.421907e-07,1311004,-0.012328615,-0.010658462,-0.010041819,0.4,0.00085135776,0.0009868937,0.00078123936,197388,0.01241399,-0.008563824,0.002716563,0.5,0.000578502,0.00086643174,0.0011103093,1,0,1,0,1,0
21759632000,21759552000,1311004,0.00087646313,0.00015079298,-0.00034620977,0.34906584,2.0234245e-07,1.666435e-07,4.4226792e-07,1311004,-0.012381396,-0.010647762,-0.008532526,0.4,0.00085106003,0.000986586,0.00078123936,197388,0.01241399,-0.008563824,0.002716563,0.5,0.000578502,0.00086643174,0.0011103093,1,0,1,0,1,0
21760032000,21759952000,1311004,0.0008782529,0.00015056726,-0.00034656358,0.34906584,2.0380645e-07,1.6781898e-07,4.4336034e-07,1311004,-0.012444808,-0.0106751025,-0.0075313826,0.4,0.00085090933,0.0009863877,0.00078123936,197388,0.01241399,-0.008563824,0.002716563,0.5,0.000578502,0.00086643174,0.0011103093,1,0,1,0,1,0
21760408000,21760328000,1311004,0.0008801783,0.00015612745,-0.0003460879,0.34906584,2.036209e-07,1.6659584e-07,4.432683e-07,1311004,-0.0124947885,-0.010706798,-0.0055101993,0.4,0.0008506576,0.0009861226,0.00078123936,197388,0.01241399,-0.008563824,0.002716563,0.5,0.000578502,0.00086643174,0.0011103093,1,0,1,0,1,0
21760616000,21760536000,1311004,0.00088128756,0.00016268321,-0.0003459674,0.34906584,2.0362685e-07,1.6610201e-07,4.4327152e-07,1311004,-0.012490253,-0.010727342,-0.004374435,0.4,0.000850537,0.000985983,0.00078123936,197388,0.01241399,-0.008563824,0.002716563,0.5,0.000578502,0.00086643174,0.0011103093,1,0,1,0,1,0
21761032000,21760952000,1311004,0.00088568404,0.00017080795,-0.00034468388,0.34906584,2.0378927e-07,1.6532972e-07,4.4337477e-07,1311004,-0.012501754,-0.010782602,-0.0028201453,0.4,0.00085030845,0.0009857197,0.00078123936,197388,0.01241399,-0.008563824,0.002716563,0.5,0.000578502,0.00086643174,0.0011103093,1,0,1,0,1,0
21761448000,21761368000,1311004,0.0008876333,0.0001767056,-0.00034466642,0.34906584,2.0540016e-07,1.6668058e-07,4.4450542e-07,1311004,-0.012505133,-0.010811426,-0.0017946648,0.4,0.00085019553,0.0009855526,0.00078123936,197388,0.01241399,-0.008563824,0.002716563,0.5,0.000578502,0.00086643174,0.0011103093,1,0,1,0,1,0
21761816000,21761736000,1311004,0.0008932973,0.00018397525,-0.00034111217,0.34906584,2.0500372e-07,1.6520328e-07,4.4425062e-07,1311004,-0.012496971,-0.010867358,-0.00047416092,0.4,0.00084997754,0.0009853131,0.00078123936,197388,0.01241399,-0.008563824,0.002716563,0.5,0.000578502,0.00086643174,0.0011103093,1,0,1,0,1,0
21762232000,21762152000,1311004,0.00089748285,0.00019337996,-0.0003381678,0.34906584,2.0516497e-07,1.6446413e-07,4.4433602e-07,1311004,-0.012484389,-0.010911794,0.0011841233,0.4,0.0008497855,0.0009850815,0.00078123936,197388,0.01241399,-0.008563824,0.002716563,0.5,0.000578502,0.00086643174,0.0011103093,1,0,1,0,1,0
21762440000,21762360000,1311004,0.0009022439,0.00020019412,-0.00033470176,0.34906584,2.0529596e-07,1.6417056e-07,4.4440745e-07,1311004,-0.012463605,-0.010956007,0.0023285355,0.4,0.0008496981,0.0009849723,0.00078123936,197388,0.01241399,-0.008563824,0.002716563,0.5,0.000578502,0.00086643174,0.0011103093,1,0,1,0,1,0
21763104000,21763024000,1311004,0.00090440764,0.00020918713,-0.00033890796,0.34906584,2.0714043e-07,1.6537511e-07,4.4547818e-07,1311004,-0.012443814,-0.010999502,0.0033810642,0.4,0.0008495244,0.0009847088,0.00078123936,197388,0.01241399,-0.008563824,0.002716563,0.5,0.000578502,0.00086643174,0.0011103093,1,0,1,0,1,0
21763424000,21763344000,1311004,0.00090992573,0.00021038782,-0.00033787588,0.34906584,2.0660279e-07,1.638139e-07,4.4520405e-07,1311004,-0.012459563,-0.011055345,0.004847266,0.4,0.0008493534,0.0009845307,0.00078123936,197388,0.01241399,-0.008563824,0.002716563,0.5,0.000578502,0.00086643174,0.0011103093,1,1,1,0,1,0
21763840000,21763760000,1311004,0.0009143285,0.00021777,-0.00033515808,0.34906584,2.0685552e-07,1.6325721e-07,4.4529676e-07,1311004,-0.012436238,-0.011096211,0.0060255905,0.4,0.0008492008,0.000984343,0.00078123936,197388,0.01241399,-0.008563824,0.002716563,0.5,0.000578502,0.00086643174,0.0011103093,1,1,1,0,1,0
21764416000,21764336000,1311004,0.0009182528,0.00022228467,-0.00033177942,0.34906584,2.0792513e-07,1.6354535e-07,4.459354e-07,1311004,-0.012432023,-0.01113029,0.0076605584,0.4,0.0008490451,0.0009841343,0.00078123936,197388,0.01241399,-0.008563824,0.002716563,0.5,0.000578502,0.00086643174,0.0011103093,1,1,1,0,1,0
21765040000,21764960000,1311004,0.000924287,0.00022420875,-0.00033010187,0.34906584,2.0820178e-07,1.6264684e-07,4.4594523e-07,1311004,-0.012433922,-0.011183213,0.008909534,0.4,0.00084884075,0.0009838853,0.00078123936,197388,0.01241399,-0.008563824,0.002716563,0.5,0.000578502,0.00086643174,0.0011103093,1,1,1,0,1,0
21765608000,21765528000,1311004,0.0009248427,0.00023158769,-0.00033464452,0.34906584,2.0945356e-07,1.6317239e-07,4.4679263e-07,1311004,-0.012402594,-0.011206295,0.010152818,0.4,0.0008487202,0.0009837283,0.00078123936,197388,0.01241399,-0.008563824,0.002716563,0.5,0.000578502,0.00086643174,0.0011103093,1,1,1,0,1,0
21766232000,21766152000,1311004,0.00093099393,0.0002335971,-0.0003327323,0.34906584,2.096427e-07,1.6221351e-07,4.4663747e-07,1311004,-0.012403807,-0.011254377,0.01143236,0.4,0.00084854255,0.0009835155,0.00078123936,197388,0.01241399,-0.008563824,0.002716563,0.5,0.000578502,0.00086643174,0.0011103093,1,1,1,0,1,0
21766808000,21766728000,1311004,0.0009302644,0.00023533888,-0.0003368653,0.34906584,2.108141e-07,1.6277697e-07,4.4710566e-07,1311004,-0.012401234,-0.011262895,0.012776331,0.4,0.00084844267,0.0009833724,0.00078123936,197388,0.01241399,-0.008563824,0.002716563,0.5,0.000578502,0.00086643174,0.0011103093,1,1,1,0,1,0
21767432000,21767352000,1311004,0.00092992024,0.00024121873,-0.0003331945,0.34906584,2.1091543e-07,1.6179914e-07,4.4682068e-07,1311004,-0.012372717,-0.011256055,0.014008963,0.4,0.0008482928,0.0009831933,0.00078123936,197388,0.01241399,-0.008563824,0.002716563,0.5,0.000578502,0.00086643174,0.0011103093,1,1,1,0,1,0
21768128000,21768048000,1311004,0.0009301655,0.00024043558,-0.00033649683,0.34906584,2.128282e-07,1.6332784e-07,4.4740054e-07,1311004,-0.012380051,-0.011267137,0.015032669,0.4,0.0008482217,0.0009830634,0.00078123936,197388,0.01241399,-0.008563824,0.002716563,0.5,0.000578502,0.00086643174,0.0011103093,1,1,1,0,1,0
21768480000,21768400000,1311004,0.00093218085,0.0002448668,-0.0003354844,0.34906584,2.1240878e-07,1.6214713e-07,4.4695497e-07,1311004,-0.012357336,-0.011279996,0.016055418,0.4,0.0008481349,0.0009829693,0.00078123936,197388,0.01241399,-0.008563824,0.002716563,0.5,0.000578502,0.00086643174,0.0011103093,1,1,1,0,1,0
21768840000,21768760000,1311004,0.00093416014,0.00023890712,-0.00033379314,0.34906584,2.1218865e-07,1.6124106e-07,4.4663165e-07,1311004,-0.012383662,-0.011289698,0.017360317,0.4,0.00084806007,0.0009828854,0.00078123936,197388,0.01241399,-0.008563824,0.002716563,0.5,0.000578502,0.00086643174,0.0011103093,1,1,1,0,1,0
21769616000,21769536000,1311004,0.0009290084,0.00023375175,-0.00033522162,0.34906584,2.1322444e-07,1.6151508e-07,4.4656215e-07,1311004,-0.0124095185,-0.011262681,0.018543985,0.4,0.0008479714,0.0009827529,0.00078123936,197388,0.01241399,-0.008563824,0.002716563,0.5,0.000578502,0.00086643174,0.0011103093,1,1,1,0,1,0
21770400000,21770320000,1311004,0.0009297592,0.00022332938,-0.00033225244,0.34906584,2.1447288e-07,1.6211014e-07,4.4648823e-07,1311004,-0.012460921,-0.011262034,0.019574497,0.4,0.00084789965,0.0009826386,0.00078123936,197388,0.01241399,-0.008563824,0.002716563,0.5,0.000578502,0.00086643174,0.0011103093,1,1,1,0,1,0
21771232000,21771152000,1311004,0.0009269526,0.00020474455,-0.0003321233,0.34906584,2.1431728e-07,1.6076652e-07,4.4542472e-07,1311004,-0.0125456825,-0.01124723,0.020742137,0.4,0.0008477943,0.0009825045,0.00078123936,197388,0.01241399,-0.008563824,0.002716563,0.5,0.000578502,0.00086643174,0.0011103093,1,1,1,0,1,0
21772232000,21772152000,1311004,0.00092724373,0.00018119732,-0.00032836365,0.34906584,2.1542672e-07,1.6103425e-07,4.4478148e-07,1311004,-0.012649499,-0.011242899,0.021497415,0.4,0.00084772246,0.0009823887,0.0007812405,197388,0.01241399,-0.008563824,0.002716563,0.5,0.000578502,0.00086643174,0.0011103093,1,1,1,0,1,0
21773232000,21773152000,1311004,0.0009192446,0.00016244822,-0.0003268751,0.34906584,2.1646791e-07,1.6132336e-07,4.4393846e-07,1311004,-0.012727806,-0.011202667,0.021985592,0.4,0.00084766815,0.0009822928,0.00078124163,197388,0.01241399,-0.008563824,0.002716563,0.5,0.000578502,0.00086643174,0.0011103093,1,1,1,0,1,0
21774232000,21774152000,1311004,0.0009056352,0.0001501571,-0.00033407958,0.34906584,2.1745304e-07,1.6167151e-07,4.4294111e-07,1311004,-0.012776503,-0.011153494,0.022130033,0.4,0.00084763084,0.0009822159,0.0007812405,197388,0.01241399,-0.008563824,0.002716563,0.5,0.000578502,0.00086643174,0.0011103093,1,1,1,0,1,0
21775232000,21775152000,1311004,0.00089687906,0.000119382916,-0.00034018842,0.34906584,2.1692561e-07,1.6005514e-07,4.4114805e-07,1311004,-0.012888004,-0.011129397,0.021318853,0.4,0.00084758055,0.0009821377,0.00078123936,197388,0.01241399,-0.008563824,0.002716563,0.5,0.000578502,0.00086643174,0.0011103093,1,1,1,0,1,0
21776016000,21775936000,1311004,0.00088656624,0.00010290094,-0.00034257825,0.34906584,2.1749611e-07,1.6041112e-07,4.3961603e-07,1311004,-0.012942283,-0.011096482,0.020134345,0.4,0.0008475715,0.0009820951,0.00078123936,197388,0.01241399,-0.008563824,0.002716563,0.5,0.000578502,0.00086643174,0.0011103093,1,1,1,0,1,0
21776640000,21776560000,1311004,0.0008809597,8.500704e-05,-0.00035229116,0.34906584,2.1742552e-07,1.597887e-07,4.3884557e-07,1311004,-0.01299829,-0.01109099,0.018923795,0.4,0.00084755936,0.0009820684,0.00078123936,197388,0.01241399,-0.008563824,0.002716563,0.5,0.000578502,0.00086643174,0.0011103093,1,1,1,0,1,0
21777416000,21777336000,1311004,0.00087376015,7.1386596e-05,-0.00035667894,0.34906584,2.1802079e-07,1.6018811e-07,4.3759837e-07,1311004,-0.013038747,-0.011074525,0.017887605,0.4,0.0008475619,0.0009820448,0.00078123936,197388,0.01241399,-0.008563824,0.002716563,0.5,0.000578502,0.00086643174,0.0011103093,1,1,1,1,1,0
21777832000,21777752000,1311004,0.00087093876,5.896039e-05,-0.00036009745,0.34906584,2.178421e-07,1.5977187e-07,4.36654e-07,1311004,-0.01307298,-0.011073601,0.016466955,0.4,0.0008475608,0.0009820318,0.00078123936,197388,0.01241399,-0.008563824,0.002716563,0.5,0.000578502,0.00086643174,0.0011103093,1,1,1,1,1,0
21778832000,21778752000,1311004,0.0008597202,3.3457032e-05,-0.0003759529,0.34906584,2.1830246e-07,1.5999264e-07,4.3484584e-07,1311004,-0.013140589,-0.011059899,0.015515918,0.4,0.0008475761,0.0009820189,0.0007812405,197388,0.01241399,-0.008563824,0.002716563,0.5,0.000578502,0.00086643174,0.0011103093,1,1,1,1,1,0
21779448000,21779368000,1311004,0.0008474061,1.8562398e-05,-0.00038775845,0.34906584,2.1801335e-07,1.5947535e-07,4.332721e-07,1311004,-0.013174902,-0.011043018,0.013845985,0.4,0.0008475868,0.0009820134,0.00078123936,197388,0.01241399,-0.008563824,0.002716563,0.5,0.000578502,0.00086643174,0.0011103093,1,1,1,1,1,0
21780432000,21780352000,1311004,0.0008400493,-4.428677e-06,-0.000401605,0.34906584,2.1822156e-07,1.5960083e-07,4.3115466e-07,1311004,-0.0132269785,-0.011042186,0.012472863,0.4,0.0008476153,0.0009820171,0.00078123936,197388,0.01241399,-0.008563824,0.002716563,0.5,0.000578502,0.00086643174,0.0011103093,1,1,1,1,1,0
21781008000,21780928000,1311004,0.00083228847,-1.3752159e-05,-0.00041540383,0.34906584,2.188289e-07,1.6032901e-07,4.301345e-07,1311004,-0.013244082,-0.011039818,0.011366924,0.4,0.0008476386,0.0009820261,0.00078123936,197388,0.01241399,-0.008563824,0.002716563,0.5,0.000578502,0.00086643174,0.0011103093,1,1,1,1,1,0
21781424000,21781344000,1311004,0.00082511094,-2.3882083e-05,-0.00042518083,0.34906584,2.184072e-07,1.5977858e-07,4.2896252e-07,1311004,-0.013262656,-0.011035188,0.010292075,0.4,0.0008476518,0.0009820311,0.00078123936,197388,0.01241399,-0.008563824,0.002716563,0.5,0.000578502,0.00086643174,0.0011103093,1,1,1,1,1,0
21782424000,21782344000,1311004,0.0008212942,-3.8218026e-05,-0.00044128997,0.34906584,2.1878722e-07,1.6030133e-07,4.2679326e-07,1311004,-0.013289203,-0.011042634,0.009692764,0.4,0.00084769726,0.0009820553,0.0007812405,197388,0.01241399,-0.008563824,0.002716563,0.5,0.000578502,0.00086643174,0.0011103093,1,1,1,1,1,0
21783424000,21783344000,1311004,0.000812528,-5.4526667e-05,-0.00046795845,0.34906584,2.192489e-07,1.6083632e-07,4.2512198e-07,1311004,-0.013314137,-0.011050574,0.009150896,0.4,0.00084774825,0.0009820898,0.0007812411,197388,0.01241399,-0.008563824,0.002716563,0.5,0.000578502,0.00086643174,0.0011103093,1,1,1,1,1,0
21784424000,21784344000,1311004,0.0008127988,-5.8262398e-05,-0.0004885469,0.34906584,2.192315e-07,1.6105217e-07,4.227075e-07,1311004,-0.013319982,-0.011069137,0.009451444,0.4,0.0008478038,0.0009821289,0.00078123994,197388,0.01241399,-0.008563824,0.002716563,0.5,0.000578502,0.00086643174,0.0011103093,1,1,1,1,1,0
21785424000,21785344000,1311004,0.0008052888,-5.790375e-05,-0.0005086563,0.34906584,2.1788473e-07,1.5962921e-07,4.198242e-07,1311004,-0.013319116,-0.011076023,0.010792926,0.4,0.0008478615,0.0009821733,0.00078123936,197388,0.01241399,-0.008563824,0.002716563,0.5,0.000578502,0.00086643174,0.0011103093,1,1,1,1,1,0
21785840000,21785760000,1311004,0.00080629264,-5.4193344e-05,-0.00051069236,0.34906584,2.1750432e-07,1.5933877e-07,4.1857552e-07,1311004,-0.013315736,-0.011078525,0.0120567735,0.4,0.0008478868,0.0009821932,0.00078123936,197388,0.01241399,-0.008563824,0.002716563,0.5,0.000578502,0.00086643174,0.0011103093,1,1,1,1,1,0
21786416000,21786336000,1311004,0.0008092209,-5.6110497e-05,-0.000519917,0.34906584,2.1776175e-07,1.5990395e-07,4.17239e-07,1311004,-0.013316693,-0.011088244,0.013539918,0.4,0.0008479232,0.0009822225,0.00078123936,197388,0.01241399,-0.008563824,0.002716563,0.5,0.000578502,0.00086643174,0.0011103093,1,1,1,1,1,0
21786832000,21786752000,1311004,0.0008086268,-5.464144e-05,-0.0005256864,0.34906584,2.1726039e-07,1.5948646e-07,4.1593515e-07,1311004,-0.013313829,-0.0110917445,0.014728331,0.4,0.00084794866,0.0009822436,0.00078123936,197388,0.01241399,-0.008563824,0.002716563,0.5,0.000578502,0.00086643174,0.0011103093,1,1,1,1,1,0
21787248000,21787168000,1311004,0.00081105507,-4.9635768e-05,-0.0005342983,0.34906584,2.1688548e-07,1.5924344e-07,4.146621e-07,1311004,-0.013306919,-0.011101125,0.016076697,0.4,0.00084797427,0.0009822651,0.00078123936,197388,0.01241399,-0.008563824,0.002716563,0.5,0.000578502,0.00086643174,0.0011103093,1,1,1,1,1,0
21787816000,21787736000,1311004,0.00081999094,-5.3674954e-05,-0.00053852703,0.34906584,2.1708998e-07,1.5980203e-07,4.132306e-07,1311004,-0.013310759,-0.011113891,0.018019736,0.4,0.00084801024,0.0009822956,0.00078123936,197388,0.01241399,-0.008563824,0.002716563,0.5,0.000578502,0.00086643174,0.0011103093,1,1,1,1,1,0
21788232000,21788152000,1311004,0.0008227382,-4.9830996e-05,-0.0005454592,0.34906584,2.1658231e-07,1.5941588e-07,4.1190853e-07,1311004,-0.01330486,-0.011122725,0.01945908,0.4,0.0008480355,0.000982318,0.00078123936,197388,0.01241399,-0.008563824,0.002716563,0.5,0.000578502,0.00086643174,0.0011103093,1,1,1,1,1,0
21788808000,21788728000,1311004,0.0008279285,-4.744366e-05,-0.0005536495,0.34906584,2.1692242e-07,1.6015834e-07,4.1053977e-07,1311004,-0.013300762,-0.0111345155,0.020641336,0.4,0.0008480717,0.00098235,0.00078123936,197388,0.01241399,-0.008563824,0.002716563,0.5,0.000578502,0.00086643174,0.0011103093,1,1,1,1,1,0
21789224000,21789144000,1311004,0.0008305567,-4.4707198e-05,-0.00055875664,0.34906584,2.162713e-07,1.5960639e-07,4.091702e-07,1311004,-0.013295493,-0.011142755,0.02205949,0.4,0.00084809616,0.000982372,0.00078123936,197388,0.01241399,-0.008563824,0.002716563,0.5,0.000578502,0.00086643174,0.0011103093,1,1,1,1,1,0
21789640000,21789560000,1311004,0.00083474704,-4.4835713e-05,-0.00056132104,0.34906584,2.1579375e-07,1.5928244e-07,4.0785255e-07,1311004,-0.013293758,-0.011151537,0.023583341,0.4,0.0008481206,0.0009823947,0.00078123936,197388,0.01241399,-0.008563824,0.002716563,0.5,0.000578502,0.00086643174,0.0011103093,1,1,1,1,1,0
21790208000,21790128000,1311004,0.0008401129,-4.6076402e-05,-0.000565358,0.34906584,2.1610144e-07,1.6001857e-07,4.0642104e-07,1311004,-0.013294021,-0.011161441,0.02467955,0.4,0.00084815593,0.000982427,0.00078123936,197388,0.01241399,-0.008563824,0.002716563,0.5,0.000578502,0.00086643174,0.0011103093,1,1,1,1,1,0
21790624000,21790544000,1311004,0.0008457949,-4.431869e-05,-0.00056891784,0.34906584,2.1548088e-07,1.5951782e-07,4.0505418e-07,1311004,-0.013290771,-0.011171664,0.025766946,0.4,0.00084818044,0.0009824503,0.00078123936,197388,0.01241399,-0.008563824,0.002716563,0.5,0.000578502,0.00086643174,0.0011103093,1,1,1,1,1,0
21791040000,21790960000,1311004,0.0008509918,-4.5477304e-05,-0.0005730846,0.34906584,2.1502346e-07,1.5922322e-07,4.037283e-07,1311004,-0.013290351,-0.011181043,0.0271008,0.4,0.0008482051,0.0009824737,0.00078123936,197388,0.01241399,-0.008563824,0.002716563,0.5,0.000578502,0.00086643174,0.0011103093,1,1,1,1,1,0
21791608000,21791528000,1311004,0.00084933714,-4.3764616e-05,-0.00057973596,0.34906584,2.1515474e-07,1.5974835e-07,4.0224415e-07,1311004,-0.013284871,-0.011183262,0.02871997,0.4,0.0008482399,0.0009825071,0.00078123936,197388,0.01241399,-0.008563824,0.002716563,0.5,0.000578502,0.00086643174,0.0011103093,1,1,1,1,1,0
21792240000,21792160000,1311004,0.00084393844,-4.1527444e-05,-0.0005906622,0.34906584,2.1441316e-07,1.5925252e-07,4.003095e-07,1311004,-0.013278469,-0.011180459,0.030018682,0.4,0.00084827706,0.0009825435,0.00078123936,197388,0.01241399,-0.008563824,0.002716563,0.5,0.000578502,0.00086643174,0.0011103093,1,1,1,1,1,0
21792808000,21792728000,1311004,0.0008355829,-4.1828065e-05,-0.0005967642,0.34906584,2.1471705e-07,1.5999422e-07,3.9885632e-07,1311004,-0.013275849,-0.0111727,0.031313635,0.4,0.0008483126,0.0009825781,0.00078123936,197388,0.01241399,-0.008563824,0.002716563,0.5,0.000578502,0.00086643174,0.0011103093,1,1,1,1,1,0
21793224000,21793144000,1311004,0.00083073956,-4.4074543e-05,-0.0006027434,0.34906584,2.1423355e-07,1.5948496e-07,3.981281e-07,1311004,-0.0132759195,-0.011168608,0.032531656,0.4,0.00084833737,0.0009826032,0.00078123936,197388,0.01241399,-0.008563824,0.002716563,0.5,0.000578502,0.00086643174,0.0011103093,1,1,1,1,1,0
21793640000,21793560000,1311004,0.00082846876,-4.6433965e-05,-0.0006102094,0.34906584,2.1377775e-07,1.5918995e-07,3.9678355e-07,1311004,-0.013276221,-0.0111675365,0.03398004,0.4,0.000848363,0.0009826282,0.00078123936,197388,0.01241399,-0.008563824,0.002716563,0.5,0.000578502,0.00086643174,0.0011103093,1,1,1,1,1,0
21794216000,21794136000,1311004,0.000825491,-4.6124616e-05,-0.0006180721,0.34906584,2.1381574e-07,1.5975432e-07,3.9467278e-07,1311004,-0.013274064,-0.011166366,0.03536603,0.4,0.00084839994,0.0009826648,0.00078123936,197388,0.01241399,-0.008563824,0.002716563,0.5,0.000578502,0.00086643174,0.0011103093,1,1,1,1,1,0
21794632000,21794552000,1311004,0.0008219569,-5.05893e-05,-0.0006218029,0.34906584,2.1343422e-07,1.5933911e-07,3.9394286e-07,1311004,-0.013277707,-0.011163024,0.03646458,0.4,0.00084842596,0.0009826911,0.00078123936,197388,0.01241399,-0.008563824,0.002716563,0.5,0.000578502,0.00086643174,0.0011103093,1,1,1,1,1,0
21795048000,21794968000,1311004,0.0008184584,-5.3489977e-05,-0.000629022,0.34906584,2.1303889e-07,1.5910018e-07,3.9260019e-07,1311004,-0.013279873,-0.01115971,0.037679188,0.4,0.0008484522,0.0009827173,0.00078123936,197388,0.01241399,-0.008563824,0.002716563,0.5,0.000578502,0.00086643174,0.0011103093,1,1,1,1,1,0
21795616000,21795536000,1311004,0.0008072584,-5.9583177e-05,-0.00063652685,0.34906584,2.1321907e-07,1.5966256e-07,3.910913e-07,1311004,-0.013285468,-0.0111469235,0.03912204,0.4,0.00084848853,0.0009827536,0.00078123936,197388,0.01241399,-0.008563824,0.002716563,0.5,0.000578502,0.00086643174,0.0011103093,1,1,1,1,1,0
21796336000,21796256000,1311004,0.0007898647,-7.377465e-05,-0.0006472231,0.34906584,2.1311303e-07,1.5991502e-07,3.891703e-07,1311004,-0.013300042,-0.011126314,0.040144056,0.4,0.0008485337,0.0009827993,0.00078123936,197388,0.01241399,-0.008563824,0.002716563,0.5,0.000578502,0.00086643174,0.0011103093,1,1,1,1,1,0
21797336000,21797256000,1311004,0.00076250295,-8.2702696e-05,-0.0006732983,0.34906584,2.1280637e-07,1.6012233e-07,3.864587e-07,1311004,-0.013308417,-0.011094164,0.041078713,0.4,0.0008485966,0.0009828625,0.00078124,197388,0.01241399,-0.008563824,0.002716563,0.5,0.000578502,0.00086643174,0.0011103093,1,1,1,1,1,0
21798336000,21798256000,1311004,0.0007323898,-8.6721724e-05,-0.00069151464,0.34906584,2.1252289e-07,1.6057581e-07,3.8321474e-07,1311004,-0.0133118685,-0.011063113,0.041902855,0.4,0.000848661,0.0009829272,0.00078123936,197388,0.01241399,-0.008563824,0.002716563,0.5,0.000578502,0.00086643174,0.0011103093,1,1,1,1,1,0
21799152000,21799072000,1311004,0.00071239506,-9.5655734e-05,-0.0007034328,0.34906584,2.1302017e-07,1.6160524e-07,3.815333e-07,1311004,-0.013320006,-0.011043169,0.042917706,0.4,0.00084871514,0.0009829823,0.00078123936,197388,0.01241399,-0.008563824,0.002716563,0.5,0.000578502,0.00086643174,0.0011103093,1,1,1,1,1,0
21800152000,21800072000,1311004,0.00067386666,-0.00011773555,-0.0007277971,0.34906584,2.1135526e-07,1.600392e-07,3.7853664e-07,1311004,-0.0133392215,-0.011011977,0.04329974,0.4,0.00084878015,0.0009830493,0.0007812428,197388,0.01241399,-0.008563824,0.002716563,0.5,0.000578502,0.00086643174,0.0011103093,1,1,1,1,1,0
21801152000,21801072000,1311004,0.00065335084,-0.00013440398,-0.0007433108,0.34906584,2.112468e-07,1.6041798e-07,3.7598434e-07,1311004,-0.013353168,-0.010995968,0.0440502,0.4,0.00084884797,0.0009831181,0.00078124227,197388,0.01241399,-0.008563824,0.002716563,0.5,0.000578502,0.00086643174,0.0011103093,1,1,1,1,1,0
21802152000,21802072000,1311004,0.0006306398,-0.00016293107,-0.0007613989,0.34906584,2.1115815e-07,1.607764e-07,3.734496e-07,1311004,-0.013372869,-0.0109831495,0.043920137,0.4,0.000848916,0.0009831873,0.0007812428,197388,0.01241399,-0.008563824,0.002716563,0.5,0.000578502,0.00086643174,0.0011103093,1,1,1,1,1,0
21803152000,21803072000,1311004,0.00061402953,-0.00019494379,-0.0007778227,0.34906584,2.1120736e-07,1.6147915e-07,3.7042835e-07,1311004,-0.013395398,-0.0109722875,0.044392824,0.4,0.00084898446,0.0009832571,0.00078124274,197388,0.01241399,-0.008563824,0.002716563,0.5,0.000578502,0.00086643174,0.0011103093,1,1,1,1,1,0
21804152000,21804072000,1311004,0.0005946044,-0.00023938279,-0.0007981959,0.34906584,2.0969644e-07,1.5999365e-07,3.676257e-07,1311004,-0.013420661,-0.010963456,0.044051025,0.4,0.00084905216,0.0009833268,0.00078124215,197388,0.01241399,-0.008563824,0.002716563,0.5,0.000578502,0.00086643174,0.0011103093,1,1,1,1,1,0
21805152000,21805072000,1311004,0.00058143167,-0.00026962798,-0.00081878394,0.34906584,2.0951202e-07,1.6021943e-07,3.6529661e-07,1311004,-0.013432456,-0.010958629,0.04317555,0.4,0.00084912125,0.0009833974,0.0007812416,197388,0.01241399,-0.008563824,0.002716563,0.5,0.000578502,0.00086643174,0.0011103093,1,1,1,1,1,0
21806152000,21806072000,1311004,0.00056641747,-0.0002967496,-0.00083741656,0.34906584,2.0946041e-07,1.6067818e-07,3.6315544e-07,1311004,-0.013445692,-0.0109512145,0.043312825,0.4,0.00084919087,0.0009834688,0.0007812405,197388,0.01241399,-0.008563824,0.002716563,0.5,0.000578502,0.00086643174,0.0011103093,1,1,1,1,1,0
21806640000,21806560000,1311004,0.0005652933,-0.0003189957,-0.0008562082,0.34906584,2.0840896e-07,1.593192e-07,3.613487e-07,1311004,-0.013307464,-0.0109451525,0.04511336,0.4,0.000849064,0.0009833237,0.00078123936,197388,0.01241399,-0.008563824,0.002716563,0.5,0.000578502,0.00086643174,0.0011103093,1,1,1,1,1,0
21806880000,21806800000,1311004,0.0005677998,-0.0003189569,-0.0008615403,0.34906584,2.0961751e-07,1.6119843e-07,3.6089463e-07,1311004,-0.013307464,-0.0109451525,0.04511336,0.4,0.0008490668,0.0009833266,0.00078124227,197388,0.011915826,-0.0092622535,0.0008030213,0.5,0.00048615658,0.0006768322,0.00085274276,1,1,1,0,1,0
21806944000,21806864000,1311004,0.00056711596,-0.00031982907,-0.0008593752,0.34906584,2.0997162e-07,1.6168916e-07,3.61043e-07,1311004,-0.013307471,-0.010945157,0.045113347,0.4,0.0008490715,0.0009833311,0.00078124687,197388,0.010621952,-0.009768189,0.0020736577,0.5,0.0004343113,0.00058371027,0.0007625934,1,1,1,0,1,0
21807016000,21806936000,1311004,0.0005715078,-0.0003570377,-0.000866122,0.34906584,2.1028892e-07,1.6078344e-07,3.5663442e-07,1311004,-0.013307477,-0.010945162,0.04511334,0.4,0.000849072,0.0009833318,0.0007812474,197388,0.011330273,-0.009908018,0.0012295286,0.5,0.00039443054,0.0005310469,0.0007103019,1,1,1,0,1,0
21807160000,21807080000,1311004,0.000572601,-0.00035624806,-0.00086859806,0.34906584,2.1128264e-07,1.6190958e-07,3.5741488e-07,1311004,-0.013307477,-0.010945162,0.04511334,0.4,0.000849072,0.0009833318,0.0007812474,197388,0.012671959,-0.008932484,0.0012431128,0.5,0.00033246615,0.00046461564,0.0006234511,1,1,1,0,1,0
21807512000,21807432000,1311004,0.0005726131,-0.00040096606,-0.0008786893,0.34906584,2.136532e-07,1.6180536e-07,3.4361912e-07,1311004,-0.01310262,-0.0109259635,0.04502267,0.4,0.0008489391,0.0009831587,0.0007812457,197388,0.013379507,-0.008163633,0.0012658273,0.5,0.00026160973,0.00039310186,0.0005441723,1,1,1,0,1,0
21808040000,21807960000,1311004,0.0005662555,-0.0004136211,-0.00081841956,0.34906584,2.1722954e-07,1.6152171e-07,3.2331167e-07,1311004,-0.012940154,-0.009920966,0.044744283,0.4,0.0008433184,0.0009765838,0.00078123936,197388,0.014177754,-0.008621254,0.0013769149,0.5,0.00022192714,0.00035788232,0.00051957753,1,1,1,0,1,0
21808616000,21808536000,1311004,0.0005682769,-0.000417633,-0.00079604867,0.34906584,2.2160822e-07,1.6275222e-07,3.1845025e-07,1311004,-0.01270589,-0.008916321,0.04478488,0.4,0.00083003676,0.0009612313,0.00078123936,197388,0.014952327,-0.009037258,0.0017206474,0.5,0.00019860089,0.00033739788,0.0004983554,1,1,1,0,1,0
21809032000,21808952000,1311004,0.0005704004,-0.00042167524,-0.0007774857,0.34906584,2.2475379e-07,1.6312065e-07,3.1502847e-07,1311004,-0.012402606,-0.007851406,0.04468822,0.4,0.00081361615,0.0009426811,0.00078123936,197388,0.015177275,-0.009363449,0.00097947,0.5,0.0001894874,0.00032741186,0.00048050276,1,1,1,0,1,0
21809568000,21809488000,1311004,0.0005733664,-0.0004209586,-0.00076934346,0.34906584,2.2881842e-07,1.6603288e-07,3.1663205e-07,1311004,-0.012365108,-0.007155614,0.045080096,0.4,0.00080489484,0.0009327814,0.00078124285,197388,0.015159664,-0.00987775,0.00012079771,0.5,0.00018159642,0.0003182019,0.00045367138,1,1,1,0,1,0
21809816000,21809736000,1311004,0.0005764717,-0.00040685572,-0.0007601767,0.34906584,2.3032342e-07,1.6525038e-07,3.1567492e-07,1311004,-0.0135943685,-0.006297393,0.045734007,0.4,0.0007843825,0.0009080507,0.00078123936,197388,0.015080011,-0.009887704,-8.4167266e-05,0.5,0.00017930048,0.0003149527,0.00044807515,1,1,1,0,1,0
21810224000,21810144000,1311004,0.0005789885,-0.00039065882,-0.0007587745,0.34906584,2.3235174e-07,1.6614757e-07,3.179627e-07,1311004,-0.014913123,-0.0059427167,0.0469191,0.4,0.00078123936,0.0008845129,0.00078123936,197388,0.015059589,-0.009964061,-0.00024334452,0.5,0.00017618772,0.00031120886,0.00044304924,1,1,1,0,1,0
21810648000,21810568000,1311004,0.0005803674,-0.00037244047,-0.00075890974,0.34906584,2.3324333e-07,1.6743488e-07,3.2087945e-07,1311004,-0.016324827,-0.0057577295,0.048317168,0.4,0.00078123936,0.0008618728,0.00078123936,197388,0.015017955,-0.010075242,-0.0003596134,0.5,0.00017332216,0.00030770488,0.00044088773,1,1,1,0,1,0
21811008000,21810928000,1311004,0.0005731692,-0.00036264912,-0.00075497775,0.34906584,2.3344558e-07,1.6913171e-07,3.2275912e-07,1311004,-0.017054832,-0.006264855,0.049240623,0.4,0.00078123936,0.00084928126,0.00078123936,197388,0.01493091,-0.010066714,-0.00025378988,0.5,0.00017081766,0.00030494694,0.00043695897,1,1,1,0,1,0
21811216000,21811136000,1311004,0.0005665172,-0.00035557736,-0.0007510817,0.34906584,2.3223905e-07,1.6970618e-07,3.2314432e-07,1311004,-0.01743811,-0.006732835,0.050649665,0.4,0.00078123936,0.00083795714,0.00078123936,197388,0.014879667,-0.010191999,-0.00015383413,0.5,0.0001692697,0.00030342626,0.00043494743,1,1,1,0,1,0
21811424000,21811344000,1311004,0.00055995036,-0.00034782215,-0.00074700144,0.34906584,2.308084e-07,1.7033419e-07,3.2315438e-07,1311004,-0.017776174,-0.0070964214,0.05212072,0.4,0.00078123936,0.0008278799,0.00078123936,197388,0.01497004,-0.010292202,-1.451005e-05,0.5,0.00016756212,0.00030183978,0.00043242433,1,1,1,0,1,0
21811632000,21811552000,1311004,0.0005506167,-0.00034240185,-0.0007400618,0.34906584,2.292068e-07,1.7099998e-07,3.228222e-07,1311004,-0.017965084,-0.0075330557,0.053553656,0.4,0.00078123936,0.000818999,0.00078123936,197388,0.014942373,-0.010330258,5.3109427e-05,0.5,0.00016593076,0.00030041827,0.00042975202,1,1,1,0,1,0
21811840000,21811760000,1311004,0.0005417621,-0.00033746762,-0.0007329522,0.34906584,2.2748422e-07,1.716914e-07,3.2219444e-07,1311004,-0.01820418,-0.007964331,0.054705966,0.4,0.00078123936,0.0008112335,0.00078123936,197388,0.014744778,-0.010425694,4.696073e-05,0.5,0.00016426232,0.00029897375,0.00042629958,1,1,1,0,1,0
21812208000,21812128000,1311004,0.0005352467,-0.00032787074,-0.0007283263,0.34906584,2.2602934e-07,1.7345539e-07,3.218073e-07,1311004,-0.018530171,-0.008234776,0.056559384,0.4,0.00078123936,0.00080372626,0.00078123936,197388,0.014689395,-0.010625773,0.00035302425,0.5,0.00016117051,0.00029628898,0.0004179629,1,1,1,0,1,0
21812416000,21812336000,1311004,0.0005236839,-0.00032052462,-0.00071870943,0.34906584,2.2356775e-07,1.7401327e-07,3.2021882e-07,1311004,-0.0188044,-0.008705795,0.05789454,0.4,0.00078123936,0.000797587,0.00078123936,197388,0.014648001,-0.010845005,0.00043589948,0.5,0.00015913136,0.00029436624,0.00041208384,1,1,1,0,1,0
21812624000,21812544000,1311004,0.00050956843,-0.0003175017,-0.00070643675,0.34906584,2.2123602e-07,1.7461483e-07,3.1837473e-07,1311004,-0.018747974,-0.0091616,0.059749458,0.4,0.00078123936,0.0007925726,0.00078123936,197388,0.014594738,-0.0108246645,0.000371742,0.5,0.00015791811,0.00029329988,0.0004080006,1,1,1,0,1,0
21812832000,21812752000,1311004,0.0005010668,-0.00031569976,-0.0007001948,0.34906584,2.1903139e-07,1.7526338e-07,3.1611015e-07,1311004,-0.018673746,-0.0094430195,0.061144236,0.4,0.00078123936,0.0007884995,0.00078123936,197388,0.014594738,-0.0108246645,0.000371742,0.5,0.00015791811,0.00029329988,0.0004080006,1,1,1,0,1,0
21813040000,21812960000,1311004,0.00049126387,-0.00031332637,-0.0006926005,0.34906584,2.1703018e-07,1.7591539e-07,3.1403945e-07,1311004,-0.018596461,-0.009725185,0.062910415,0.4,0.00078123936,0.00078519975,0.00078123936,197388,0.014594738,-0.0108246645,0.000371742,0.5,0.00015791811,0.00029329988,0.0004080006,1,1,1,0,1,0
21813248000,21813168000,1311004,0.000484789,-0.00031321126,-0.0006871785,0.34906584,2.1522384e-07,1.7656168e-07,3.1219818e-07,1311004,-0.018457733,-0.009883873,0.06430068,0.4,0.00078123936,0.00078253564,0.00078123936,197388,0.014594738,-0.0108246645,0.000371742,0.5,0.00015791811,0.00029329988,0.0004080006,1,1,1,0,1,0
21813608000,21813528000,1311004,0.00047340294,-0.0003114794,-0.00067792233,0.34906584,2.1415535e-07,1.7820295e-07,3.1092878e-07,1311004,-0.018383108,-0.010133443,0.06607817,0.4,0.00078123936,0.00078123936,0.00078123936,197388,0.014594738,-0.0108246645,0.000371742,0.5,0.00015791811,0.00029329988,0.0004080006,1,1,1,0,1,0
21813816000,21813736000,1311004,0.00047053176,-0.0003092876,-0.0006761677,0.34906584,2.1231004e-07,1.7864677e-07,3.0939597e-07,1311004,-0.018382594,-0.0101820575,0.067362264,0.4,0.00078123936,0.00078123936,0.00078123936,197388,0.014594738,-0.0108246645,0.000371742,0.5,0.00015791811,0.00029329988,0.0004080006,1,1,1,0,1,0
21814024000,21813944000,1311004,0.00046395994,-0.00030791605,-0.0006727734,0.34906584,2.10717e-07,1.790964e-07,3.081846e-07,1311004,-0.018369354,-0.010319431,0.06843042,0.4,0.00078123936,0.00078123936,0.00078123936,197388,0.014594738,-0.0108246645,0.000371742,0.5,0.00015791811,0.00029329988,0.0004080006,1,1,1,0,1,0
21814232000,21814152000,1311004,0.00046649794,-0.00030854443,-0.00067784067,0.34906584,2.0932089e-07,1.7954041e-07,3.072473e-07,1311004,-0.018283658,-0.010285525,0.06983567,0.4,0.00078123936,0.00078123936,0.00078123936,197388,0.014594738,-0.0108246645,0.000371742,0.5,0.00015791811,0.00029329988,0.0004080006,1,1,1,0,1,0
21814440000,21814360000,1311004,0.00046546618,-0.0003113556,-0.0006774865,0.34906584,2.08111e-07,1.7996939e-07,3.0679726e-07,1311004,-0.018152969,-0.010295983,0.07090852,0.4,0.00078123936,0.00078123936,0.00078123936,197388,0.014594738,-0.0108246645,0.000371742,0.5,0.00015791811,0.00029329988,0.0004080006,1,1,1,0,1,0
21815016000,21814936000,1311004,0.00047097774,-0.0003153686,-0.00068508217,0.34906584,2.0629436e-07,1.8156294e-07,3.0623903e-07,1311004,-0.01800439,-0.010241254,0.0731378,0.4,0.00078123936,0.00078123936,0.00078123936,197388,0.014594738,-0.0108246645,0.000371742,0.5,0.00015791811,0.00029329988,0.0004080006,1,1,1,0,1,0
21815224000,21815144000,1311004,0.0004744578,-0.00032045235,-0.0006877824,0.34906584,2.0508921e-07,1.8173573e-07,3.0625938e-07,1311004,-0.017880414,-0.01020815,0.074221514,0.4,0.00078123936,0.00078123936,0.00078123936,197388,0.014594738,-0.0108246645,0.000371742,0.5,0.00015791811,0.00029329988,0.0004080006,1,1,1,0,1,0
21815432000,21815352000,1311004,0.00047198235,-0.00032098463,-0.0006868851,0.34906584,2.0397952e-07,1.8190357e-07,3.061891e-07,1311004,-0.017861133,-0.010224465,0.07534051,0.4,0.00078123936,0.00078123936,0.00078123936,197388,0.014594738,-0.0108246645,0.000371742,0.5,0.00015791811,0.00029329988,0.0004080006,1,1,1,0,1,0
21815640000,21815560000,1311004,0.00047208887,-0.00032321096,-0.00068911427,0.34906584,2.0296146e-07,1.8205824e-07,3.0624923e-07,1311004,-0.0178188,-0.010222508,0.07684662,0.4,0.00078123936,0.00078123936,0.00078123936,197388,0.014594738,-0.0108246645,0.000371742,0.5,0.00015791811,0.00029329988,0.0004080006,1,1,1,0,1,0
21816208000,21816128000,1311004,0.00047924079,-0.0003297099,-0.000697666,0.34906584,2.0185331e-07,1.8322221e-07,3.073342e-07,1311004,-0.017760193,-0.010208625,0.07894348,0.4,0.00078123936,0.00078123936,0.00078123936,197388,0.014594738,-0.0108246645,0.000371742,0.5,0.00015791811,0.00029329988,0.0004080006,1,1,1,0,1,0
21816416000,21816336000,1311004,0.00047927216,-0.00033365824,-0.0006982486,0.34906584,2.0064454e-07,1.8306115e-07,3.07622e-07,1311004,-0.017736424,-0.010205776,0.08010082,0.4,0.00078123936,0.00078123936,0.00078123936,197388,0.014594738,-0.0108246645,0.000371742,0.5,0.00015791811,0.00029329988,0.0004080006,1,1,1,0,1,0
21816832000,21816752000,1311004,0.0004858572,-0.0003368754,-0.0007065949,0.34906584,1.9849993e-07,1.8276886e-07,3.084195e-07,1311004,-0.017741004,-0.01021889,0.08140074,0.4,0.00078123936,0.00078123936,0.00078123936,197388,0.014594738,-0.0108246645,0.000371742,0.5,0.00015791811,0.00029329988,0.0004080006,1,1,1,0,1,0
21817040000,21816960000,1311004,0.0004885796,-0.00033715344,-0.0007076055,0.34906584,1.9751586e-07,1.8261521e-07,3.0890448e-07,1311004,-0.01776331,-0.0102255335,0.08245602,0.4,0.00078123936,0.00078123936,0.00078123936,197388,0.014594738,-0.0108246645,0.000371742,0.5,0.00015791811,0.00029329988,0.0004080006,1,1,1,0,1,0
21818040000,21817960000,1311004,0.0005016426,-0.00032618904,-0.000719744,0.34906584,1.9387903e-07,1.8214782e-07,3.1193827e-07,1311004,-0.017775152,-0.010305012,0.083444245,0.4,0.00078123936,0.00078123965,0.00078123936,197388,0.014594738,-0.0108246645,0.000371742,0.5,0.00015791811,0.00029329988,0.0004080006,1,1,1,0,1,0
21818448000,21818368000,1311004,0.0005057691,-0.00031783065,-0.0007235044,0.34906584,1.917862e-07,1.813041e-07,3.13407e-07,1311004,-0.017786123,-0.010342083,0.08486933,0.4,0.00078123936,0.00078123936,0.00078123936,197388,0.014594738,-0.0108246645,0.000371742,0.5,0.00015791811,0.00029329988,0.0004080006,1,1,1,0,1,0
21819224000,21819144000,1311004,0.0005018953,-0.00030537968,-0.0007270394,0.34906584,1.8918357e-07,1.8049842e-07,3.1605933e-07,1311004,-0.017747644,-0.010296238,0.086172216,0.4,0.00078123936,0.00078123936,0.00078123936,197388,0.014594738,-0.0108246645,0.000371742,0.5,0.00015791811,0.00029329988,0.0004080006,1,1,1,0,1,0
21819680000,21819600000,1311004,0.000493489,-0.00029143886,-0.0007273088,0.34906584,1.874286e-07,1.7971135e-07,3.174853e-07,1311004,-0.017656729,-0.010194141,0.08716737,0.4,0.00078124204,0.00078124215,0.00078123936,197388,0.014594738,-0.0108246645,0.000371742,0.5,0.00015791811,0.00029329988,0.0004080006,1,1,1,0,1,0
21820216000,21820136000,1311004,0.00048757778,-0.0002825238,-0.00072852056,0.34906584,1.8575761e-07,1.789807e-07,3.195481e-07,1311004,-0.017618857,-0.010112579,0.088559784,0.4,0.00078123936,0.00078123936,0.00078123936,197388,0.014594738,-0.0108246645,0.000371742,0.5,0.00015791811,0.00029329988,0.0004080006,1,1,1,0,1,0
21820840000,21820760000,1311004,0.0004762587,-0.00027062255,-0.0007298728,0.34906584,1.8264876e-07,1.7698589e-07,3.2166415e-07,1311004,-0.017532263,-0.009955704,0.08964909,0.4,0.00078123936,0.00078123936,0.00078123936,197388,0.014594738,-0.0108246645,0.000371742,0.5,0.00015791811,0.00029329988,0.0004080006,1,1,1,0,1,0
21821616000,21821536000,1311004,0.0004660881,-0.00025529697,-0.00073171826,0.34906584,1.8062805e-07,1.7590354e-07,3.2439164e-07,1311004,-0.017395904,-0.009810703,0.09099005,0.4,0.00078123936,0.00078123936,0.00078123936,197388,0.014594738,-0.0108246645,0.000371742,0.5,0.00015791811,0.00029329988,0.0004080006,1,1,1,0,1,0
21822240000,21822160000,1311004,0.00045418253,-0.00024146926,-0.00073676003,0.34906584,1.779321e-07,1.7393455e-07,3.26469e-07,1311004,-0.017259251,-0.009637764,0.09211802,0.4,0.00078123936,0.00078123936,0.00078123936,197388,0.014594738,-0.0108246645,0.000371742,0.5,0.00015791811,0.00029329988,0.0004080006,1,1,1,0,1,0
21823240000,21823160000,1311004,0.00043693106,-0.00022392793,-0.0007433719,0.34906584,1.7538574e-07,1.7218218e-07,3.298402e-07,1311004,-0.01705435,-0.009394699,0.09297741,0.4,0.00078123994,0.00078123994,0.00078123994,197388,0.014594738,-0.0108246645,0.000371742,0.5,0.00015791811,0.00029329988,0.0004080006,1,1,1,0,1,0
21824240000,21824160000,1311004,0.0004223845,-0.00021210591,-0.0007514122,0.34906584,1.7350605e-07,1.7087555e-07,3.330396e-07,1311004,-0.016899718,-0.009194973,0.09313242,0.4,0.0007812411,0.0007812411,0.0007812411,197388,0.014594738,-0.0108246645,0.000371742,0.5,0.00015791811,0.00029329988,0.0004080006,1,1,1,0,1,0
21825240000,21825160000,1311004,0.00041968416,-0.0002039197,-0.00075851125,0.34906584,1.7190533e-07,1.6970327e-07,3.3569262e-07,1311004,-0.016780173,-0.00915541,0.09294101,0.4,0.00078124163,0.00078124163,0.00078124163,197388,0.014594738,-0.0108246645,0.000371742,0.5,0.00015791811,0.00029329988,0.0004080006,1,1,1,0,1,0
21826240000,21826160000,1311004,0.00042449546,-0.00019269211,-0.00076991064,0.34906584,1.7069225e-07,1.68802e-07,3.3850233e-07,1311004,-0.016618345,-0.009200085,0.092219815,0.4,0.0007812523,0.00078125356,0.0007812422,197388,0.014594738,-0.0108246645,0.000371742,0.5,0.00015791811,0.00029329988,0.0004080006,1,1,1,0,1,0
21826816000,21826736000,1311004,0.0004342004,-0.00018308018,-0.00077659666,0.34906584,1.684451e-07,1.6673818e-07,3.4005564e-07,1311004,-0.016477404,-0.009299277,0.09099196,0.4,0.00078123936,0.00078123936,0.00078123936,197388,0.014594738,-0.0108246645,0.000371742,0.5,0.00015791811,0.00029329988,0.0004080006,1,1,1,0,1,0
21827232000,21827152000,1311004,0.00044023525,-0.00017483902,-0.0007801145,0.34906584,1.6741296e-07,1.6580933e-07,3.410498e-07,1311004,-0.016361756,-0.009358356,0.08990069,0.4,0.00078123936,0.00078123936,0.00078123936,197388,0.014594738,-0.0108246645,0.000371742,0.5,0.00015791811,0.00029329988,0.0004080006,1,1,1,0,1,0
21828232000,21828152000,1311004,0.0004526875,-0.00015456023,-0.0007877697,0.34906584,1.6648139e-07,1.6506911e-07,3.4346766e-07,1311004,-0.016129604,-0.0094770845,0.089453295,0.4,0.00078123994,0.00078123994,0.00078123994,197388,0.014594738,-0.0108246645,0.000371742,0.5,0.00015791811,0.00029329988,0.0004080006,1,1,1,0,1,0
21828848000,21828768000,1311004,0.0004574381,-0.00013818404,-0.000794073,0.34906584,1.6527544e-07,1.6398207e-07,3.4470443e-07,1311004,-0.015946316,-0.00951662,0.088172376,0.4,0.00078123936,0.00078123936,0.00078123936,197388,0.014594738,-0.0108246645,0.000371742,0.5,0.00015791811,0.00029329988,0.0004080006,1,1,1,0,1,0
21829832000,21829752000,1311004,0.00046946722,-0.0001194792,-0.0008015548,0.34906584,1.6456538e-07,1.6342679e-07,3.471076e-07,1311004,-0.015755977,-0.009616994,0.08700024,0.4,0.00078123936,0.00078123936,0.00078123936,197388,0.014594738,-0.0108246645,0.000371742,0.5,0.00015791811,0.00029329988,0.0004080006,1,1,1,0,1,0
21830616000,21830536000,1311004,0.0004753067,-0.000105494466,-0.0008105163,0.34906584,1.644114e-07,1.6338002e-07,3.48628e-07,1311004,-0.01562132,-0.009659571,0.08541561,0.4,0.00078123936,0.00078123936,0.00078123936,197388,0.014594738,-0.0108246645,0.000371742,0.5,0.00015791811,0.00029329988,0.0004080006,1,1,1,0,1,0
21831616000,21831536000,1311004,0.00048178586,-9.1612346e-05,-0.0008141093,0.34906584,1.6445777e-07,1.6354704e-07,3.504244e-07,1311004,-0.015501095,-0.009708225,0.08552617,0.4,0.00078125176,0.00078125176,0.00078123936,197388,0.014594738,-0.0108246645,0.000371742,0.5,0.00015791811,0.00029329988,0.0004080006,1,1,1,0,1,0
