timestamp,timestamp_sample,xyz[0],xyz[1],xyz[2]
1743177449813379,1743177449813379,-0.012178866,-0.009129401,-9.77781
1743177449817379,1743177449817379,-0.01839162,-0.020968422,-9.771351
1743177449865379,1743177449865379,0.022564044,-0.04448942,-9.783166
1743177449913379,1743177449913379,0.021984586,0.017757088,-9.820857
1743177449965379,1743177449965379,-0.013131845,0.030133583,-9.848164
1743177450013379,1743177450013379,-0.017211635,0.003558924,-9.761019
1743177450065379,1743177450065379,0.04830776,0.017004434,-9.812665
1743177450113379,1743177450113379,0.041648947,-0.00918567,-9.802014
1743177450165379,1743177450165379,0.034257773,-0.040388957,-9.802273
1743177450213379,1743177450213379,0.01560032,0.044922724,-9.796424
1743177450265379,1743177450265379,-0.013504363,-0.033463005,-9.80461
1743177450313379,1743177450313379,0.0041120267,-0.022305936,-9.805473
1743177450365379,1743177450365379,0.014191401,-0.006992385,-9.8001
1743177450413379,1743177450413379,-0.023128916,0.0010204342,-9.789189
1743177450465379,1743177450465379,0.04845471,-0.022365924,-9.805055
1743177450513379,1743177450513379,0.018500648,0.010749676,-9.811401
1743177450565379,1743177450565379,0.04843928,-0.02295316,-9.803932
1743177450613379,1743177450613379,0.018524148,0.0005377752,-9.832543
1743177450665379,1743177450665379,-0.018515848,-0.027602812,-9.813304
1743177450713379,1743177450713379,0.006683924,-0.013793569,-9.792801
1743177450765379,1743177450765379,-0.0145038925,0.01778278,-9.82445
1743177450813379,1743177450813379,0.013815122,0.011211041,-9.821057
1743177450865379,1743177450865379,-0.030826367,-0.017193524,-9.809638
1743177450913379,1743177450913379,-0.0047448506,0.017250216,-9.781186
1743177450965379,1743177450965379,0.025679458,-0.02191745,-9.7973995
1743177451013379,1743177451013379,0.023172019,0.03943251,-9.785431
1743177451065379,1743177451065379,-0.004305681,-0.034116536,-9.810283
1743177451113379,1743177451113379,-0.020579161,-0.0031001456,-9.826162
1743177451165379,1743177451165379,-0.020577326,-0.018929904,-9.848177
1743177451213379,1743177451213379,-0.027394107,7.82432e-05,-9.818594
1743177451265379,1743177451265379,0.029051967,-0.016185118,-9.769266
1743177451313379,1743177451313379,0.010436162,0.028403724,-9.786676
1743177451365379,1743177451365379,-0.003986495,0.02246681,-9.827587
1743177451413379,1743177451413379,0.024898605,0.030657584,-9.780027
1743177451465379,1743177451465379,0.021097774,-0.022553198,-9.815311
1743177451513379,1743177451513379,0.014610696,0.003906271,-9.780539
1743177451565379,1743177451565379,0.010773128,-0.027182877,-9.82691
1743177451613379,1743177451613379,-0.022697657,0.00039322674,-9.774576
1743177451665379,1743177451665379,0.03026336,-0.030563029,-9.733943
1743177451713379,1743177451713379,0.006967571,-0.0028684577,-9.820251
1743177451765379,1743177451765379,0.0037634918,-0.01102783,-9.788008
1743177451813379,1743177451813379,0.022769742,0.0074346038,-9.80462
1743177451865379,1743177451865379,0.013067488,-0.028389987,-9.801265
1743177451913379,1743177451913379,0.0029653246,0.01968864,-9.760055
1743177451965379,1743177451965379,0.0008293914,0.01180985,-9.822319
1743177452013379,1743177452013379,0.02324425,0.016468802,-9.810699
1743177452065379,1743177452065379,-0.013825578,-0.012137076,-9.785436
1743177452113379,1743177452113379,0.018087935,0.03396317,-9.801539
1743177452165379,1743177452165379,0.007544943,-0.009277546,-9.823616
1743177452213379,1743177452213379,0.0483591,0.010077925,-9.820267
1743177452265379,1743177452265379,0.008434459,0.026701603,-9.835197
1743177452313379,1743177452313379,-0.041436173,0.010945927,-9.819594
1743177452365379,1743177452365379,-0.03779021,0.009468958,-9.818592
1743177452413379,1743177452413379,0.042990796,0.016460279,-9.790462
1743177452465379,1743177452465379,-0.035175405,0.00942737,-9.794477
1743177452513379,1743177452513379,0.013632419,-0.013111754,-9.7500305
1743177452565379,1743177452565379,0.017140148,-0.03683796,-9.778051
1743177452613379,1743177452613379,0.034205638,-0.036560085,-9.804081
1743177452665379,1743177452665379,0.040283587,0.017507665,-9.788969
1743177452713379,1743177452713379,-0.00154208,0.014121934,-9.8042145
1743177452765379,1743177452765379,0.018147392,0.010717874,-9.828311
1743177452813379,1743177452813379,-0.007698674,-0.05803987,-9.774717
1743177452865379,1743177452865379,0.022556858,0.005069673,-9.771048
1743177452913379,1743177452913379,0.019212035,0.00775495,-9.822358
1743177452965379,1743177452965379,-0.008131841,-0.058959756,-9.757008
1743177453013379,1743177453013379,0.036571704,-0.0099977385,-9.757253
1743177453065379,1743177453065379,0.043310717,0.0007869862,-9.803348
1743177453113379,1743177453113379,0.00032721274,-0.021191882,-9.81914
1743177453165379,1743177453165379,0.022107616,0.03773772,-9.798099
1743177453213379,1743177453213379,0.004075968,-0.0013574192,-9.761687
1743177453265379,1743177453265379,0.023924552,-0.011524438,-9.814293
1743177453313379,1743177453313379,-0.003913341,0.0063375416,-9.766468
1743177453365379,1743177453365379,0.0029786276,0.0012312685,-9.770282
1743177453413379,1743177453413379,-0.02888923,0.004308245,-9.774754
1743177453465379,1743177453465379,-0.020448726,-0.033787128,-9.839249
1743177453513379,1743177453513379,0.011252541,0.0047565005,-9.787689
1743177453565379,1743177453565379,0.012321805,-0.015925039,-9.779957
1743177453613379,1743177453613379,-0.008816834,-0.04379888,-9.813826
1743177453665379,1743177453665379,0.0011147694,-0.03135126,-9.84145
1743177453713379,1743177453713379,0.019633465,0.032139156,-9.792697
1743177453765379,1743177453765379,-0.0033272556,0.054809175,-9.819262
1743177453813379,1743177453813379,0.043961912,-0.026449025,-9.793276
1743177453865379,1743177453865379,0.020226741,0.01359063,-9.805399
1743177453913379,1743177453913379,0.061128873,0.029020395,-9.772168
1743177453965379,1743177453965379,-0.0027498293,0.024946585,-9.805272
1743177454013379,1743177454013379,-0.0055597653,0.005285269,-9.799667
1743177454065379,1743177454065379,-0.057801064,-0.025200125,-9.817289
1743177454113379,1743177454113379,-0.022453187,-0.028376486,-9.795812
1743177454165379,1743177454165379,0.01834981,-0.022214938,-9.849245
1743177454213379,1743177454213379,-0.023291256,-0.036050845,-9.844449
1743177454265379,1743177454265379,-0.005278518,-0.04511685,-9.804788
1743177454313379,1743177454313379,0.04295594,-0.008549782,-9.784651
1743177454365379,1743177454365379,-0.013477755,-0.01919686,-9.769951
1743177454413379,1743177454413379,0.008395346,0.023776246,-9.808676
1743177454465379,1743177454465379,-0.010791456,0.0042547565,-9.770263
1743177454513379,1743177454513379,0.0077423095,0.03733242,-9.825422
1743177454565379,1743177454565379,0.027788654,0.034024302,-9.826681
1743177454613379,1743177454613379,-0.007477089,-0.018959504,-9.838409
1743177454665379,1743177454665379,0.012825024,-0.0020697187,-9.79225
1743177454713379,1743177454713379,-0.042224918,0.0051273303,-9.799729
1743177454765379,1743177454765379,0.008569537,-0.026930146,-9.789646
1743177454813379,1743177454813379,0.004440827,0.020197263,-9.781822
1743177454865379,1743177454865379,-0.00032083062,0.006991611,-9.808786
1743177454913379,1743177454913379,-0.023669062,0.028648388,-9.846899
1743177454965379,1743177454965379,0.050416093,0.023680864,-9.816879
1743177455013379,1743177455013379,0.024784237,0.015141367,-9.781903
1743177455065379,1743177455065379,-0.0153316,-0.009051298,-9.777538
1743177455113379,1743177455113379,-0.017070172,0.010885389,-9.784691
1743177455165379,1743177455165379,0.06347018,0.012868186,-9.837489
1743177455213379,1743177455213379,-0.031579625,0.020800136,-9.799869
1743177455265379,1743177455265379,0.009913251,0.047804046,-9.820735
1743177455313379,1743177455313379,0.0260129,0.0072951047,-9.730022
1743177455365379,1743177455365379,-0.01455405,0.019252233,-9.783869
1743177455413379,1743177455413379,0.016924422,0.028906044,-9.763836
1743177455465379,1743177455465379,0.019848458,0.012763845,-9.813864
1743177455513379,1743177455513379,-0.010112352,0.0115708,-9.8271675
1743177455565379,1743177455565379,0.01086442,0.038478963,-9.764304
1743177455613379,1743177455613379,0.0036818723,-0.025255218,-9.7981825
1743177455665379,1743177455665379,0.028255507,-0.0059659556,-9.813742
1743177455713379,1743177455713379,-0.017814506,-0.022827415,-9.810974
1743177455765379,1743177455765379,0.0031748605,0.020859096,-9.791641
1743177455813379,1743177455813379,0.004567622,0.014066511,-9.813463
1743177455865379,1743177455865379,0.0047669327,0.017553652,-9.847318
1743177455913379,1743177455913379,0.0063087586,-0.0036163954,-9.771318
1743177455965379,1743177455965379,0.039331138,-0.002467845,-9.816123
1743177456013379,1743177456013379,0.016127668,0.0189103,-9.797069
1743177456065379,1743177456065379,0.014759518,0.056831807,-9.786858
1743177456113379,1743177456113379,0.02295414,0.057994787,-9.857
1743177456165379,1743177456165379,0.06596611,0.0668671,-9.801387
1743177456213379,1743177456213379,0.01693567,0.10659101,-9.801915
1743177456265379,1743177456265379,0.031176317,0.08832218,-9.756465
1743177456313379,1743177456313379,0.020454917,0.09279464,-9.831392
1743177456365379,1743177456365379,0.06294161,0.044181332,-9.826992
1743177456413379,1743177456413379,0.07670334,0.11331027,-9.839961
1743177456461379,1743177456461379,0.033882476,0.109962344,-9.857855
1743177456513379,1743177456513379,-0.0023029484,0.07312425,-9.803022
1743177456565379,1743177456565379,0.064233124,0.10660829,-9.80191
1743177456613379,1743177456613379,-0.013674953,0.11418991,-9.794943
1743177456665379,1743177456665379,0.039482623,0.081186496,-9.776188
1743177456713379,1743177456713379,0.045986693,0.09070953,-9.868071
1743177456765379,1743177456765379,0.057330124,0.11792783,-9.846752
1743177456813379,1743177456813379,0.040136017,0.11096766,-9.795692
1743177456865379,1743177456865379,0.03854189,0.15288016,-9.767397
1743177456913379,1743177456913379,0.06858762,0.07969224,-9.774326
1743177456965379,1743177456965379,-0.0020842263,0.14174388,-9.784185
1743177457013379,1743177457013379,0.037613913,0.099258736,-9.8269005
1743177457065379,1743177457065379,0.031552505,0.098100014,-9.792687
1743177457113379,1743177457113379,0.052740745,0.15551654,-9.781832
1743177457165379,1743177457165379,0.025562353,0.09265312,-9.817773
1743177457213379,1743177457213379,0.03414758,0.07640339,-9.8078375
1743177457265379,1743177457265379,-0.00014246278,0.11479622,-9.789771
1743177457313379,1743177457313379,0.045316197,0.115719415,-9.780836
1743177457365379,1743177457365379,0.044033937,0.060768448,-9.761545
1743177457413379,1743177457413379,0.088528186,0.10667824,-9.826668
1743177457465379,1743177457465379,0.032472253,0.08645991,-9.808573
1743177457513379,1743177457513379,0.03900401,0.10259754,-9.809033
1743177457565379,1743177457565379,0.05135163,0.11279853,-9.822822
1743177457613379,1743177457613379,0.039112553,0.0863143,-9.800179
1743177457665379,1743177457665379,-0.0022541764,0.0951391,-9.796797
1743177457713379,1743177457713379,0.05435595,0.059148826,-9.773081
1743177457765379,1743177457765379,0.011755638,0.087715,-9.791992
1743177457813379,1743177457813379,0.01793355,0.0917107,-9.771201
1743177457865379,1743177457865379,0.051990766,0.061993174,-9.809502
1743177457913379,1743177457913379,0.0473842,0.08372358,-9.800119
1743177457965379,1743177457965379,-1.0529511,-2.5869288,-10.481656
1743177458013379,1743177458013379,-0.0033105973,-0.03755421,-10.685805
1743177458065379,1743177458065379,-0.016823014,-0.0009925581,-10.718779
1743177458113379,1743177458113379,-0.019041419,-0.0036152608,-10.642917
1743177458165379,1743177458165379,0.02624843,0.0019771208,-10.622124
1743177458213379,1743177458213379,-0.013149537,-0.0021428335,-10.53945
1743177458265379,1743177458265379,0.037228264,0.034452997,-10.521551
1743177458313379,1743177458313379,0.00073667604,0.009379408,-10.486588
1743177458365379,1743177458365379,0.0029582307,0.015003961,-10.524073
1743177458413379,1743177458413379,-0.008604425,-0.013422735,-10.50735
1743177458465379,1743177458465379,0.009423284,0.017600426,-10.473952
1743177458513379,1743177458513379,0.0046264865,0.007989837,-10.502081
1743177458565379,1743177458565379,-0.031612325,0.034188837,-10.4814625
1743177458613379,1743177458613379,0.022866866,-0.0091936095,-11.125392
1743177458665379,1743177458665379,-0.009297855,0.012577403,-11.69994
1743177458713379,1743177458713379,0.0041521024,0.019260012,-11.9863825
1743177458765379,1743177458765379,0.06389773,-0.016901562,-12.1330805
1743177458813379,1743177458813379,0.014272254,0.035161804,-12.186687
1743177458865379,1743177458865379,-0.039640892,0.004774393,-12.22029
1743177458913379,1743177458913379,0.020326812,0.020190068,-12.249548
1743177458965379,1743177458965379,-0.018983055,-0.017864347,-12.436335
1743177459013379,1743177459013379,-0.044404384,0.038814858,-12.510491
1743177459065379,1743177459065379,-0.008305028,0.05091519,-12.612345
1743177459113379,1743177459113379,-0.017336408,0.048804812,-12.803616
1743177459165379,1743177459165379,-0.040893063,0.04611723,-12.994444
1743177459213379,1743177459213379,-0.023162905,0.02861555,-13.058725
1743177459265379,1743177459265379,-0.004790301,0.039195534,-12.768772
1743177459313379,1743177459313379,-0.043031,0.042449754,-12.222156
1743177459365379,1743177459365379,0.024987254,0.04393972,-11.6771345
1743177459413379,1743177459413379,-0.026914235,0.049585618,-11.212632
1743177459465379,1743177459465379,-0.04476298,0.01835411,-10.741018
1743177459513379,1743177459513379,0.012540405,0.048043516,-10.524139
1743177459565379,1743177459565379,-0.003941735,-0.025007382,-10.407909
1743177459613379,1743177459613379,-0.02685929,-0.017857369,-10.246425
1743177459665379,1743177459665379,0.026798397,-0.018248161,-10.126167
1743177459713379,1743177459713379,0.0026532873,-0.0006309091,-10.055353
1743177459765379,1743177459765379,0.012881456,-0.017506447,-9.912065
1743177459813379,1743177459813379,-0.016680857,0.009026168,-9.802593
1743177459865379,1743177459865379,-0.0011668364,0.00035502075,-9.664994
1743177459913379,1743177459913379,-0.01938096,0.015733596,-9.554101
1743177459965379,1743177459965379,0.005624368,-0.005564926,-9.400549
1743177460013379,1743177460013379,-0.036503166,-0.034580484,-9.457643
1743177460065379,1743177460065379,-0.0025898102,-0.06102191,-9.643375
1743177460113379,1743177460113379,0.017503338,-0.032939218,-9.879874
1743177460165379,1743177460165379,-0.009455336,-0.011307707,-10.002832
1743177460213379,1743177460213379,-0.020757748,-0.002139188,-10.135532
1743177460265379,1743177460265379,-0.055087674,-0.0049159755,-10.180867
1743177460313379,1743177460313379,-0.033874467,-0.032826178,-10.068757
1743177460365379,1743177460365379,-0.0073340125,-0.017139118,-10.046259
1743177460413379,1743177460413379,-0.054100525,-0.051944617,-10.015416
1743177460465379,1743177460465379,-0.10678,-0.0653346,-9.927812
1743177460513379,1743177460513379,-0.104368195,-0.06362594,-9.9127445
1743177460565379,1743177460565379,-0.11811806,-0.09011316,-9.94544
1743177460613379,1743177460613379,-0.11863941,-0.13879427,-9.895891
1743177460665379,1743177460665379,-0.19940624,-0.15708853,-9.910713
1743177460713379,1743177460713379,-0.24142398,-0.19409186,-9.9147415
1743177460765379,1743177460765379,-0.28203595,-0.26820058,-9.895963
1743177460813379,1743177460813379,-0.28157532,-0.2850807,-9.87446
1743177460865379,1743177460865379,-0.32399294,-0.29804766,-9.874957
1743177460913379,1743177460913379,-0.37494034,-0.33376712,-9.870995
1743177460965379,1743177460965379,-0.41953936,-0.43935964,-9.88225
1743177461013379,1743177461013379,-0.47979406,-0.43248487,-9.922208
1743177461065379,1743177461065379,-0.49224377,-0.48671657,-9.86533
1743177461113379,1743177461113379,-0.56965655,-0.5527319,-9.833468
1743177461165379,1743177461165379,-0.61084676,-0.5981155,-9.921045
1743177461213379,1743177461213379,-0.65224874,-0.5995246,-9.838921
1743177461265379,1743177461265379,-0.69729257,-0.68551826,-9.871679
1743177461313379,1743177461313379,-0.71045965,-0.6799789,-9.841923
1743177461365379,1743177461365379,-0.77529037,-0.71602297,-9.884729
1743177461413379,1743177461413379,-0.79930794,-0.7243512,-9.845733
1743177461465379,1743177461465379,-0.79456264,-0.7770346,-9.846801
1743177461513379,1743177461513379,-0.78605324,-0.77222544,-9.81016
1743177461565379,1743177461565379,-0.84795064,-0.78239256,-9.784137
1743177461613379,1743177461613379,-0.8661827,-0.79827845,-9.804741
1743177461665379,1743177461665379,-0.80915105,-0.792141,-9.796059
1743177461713379,1743177461713379,-0.81482893,-0.82568693,-9.798356
1743177461765379,1743177461765379,-0.836521,-0.80427325,-9.786508
1743177461813379,1743177461813379,-0.83944136,-0.82893854,-9.7654085
1743177461865379,1743177461865379,-0.87597823,-0.8020276,-9.817331
1743177461913379,1743177461913379,-0.88172454,-0.8427086,-9.8292465
1743177461965379,1743177461965379,-0.906657,-0.8102763,-9.805379
1743177462013379,1743177462013379,-0.8805783,-0.85500336,-9.782087
1743177462065379,1743177462065379,-0.8413459,-0.8045957,-9.739062
1743177462113379,1743177462113379,-0.7847024,-0.82285786,-9.831866
1743177462165379,1743177462165379,-0.86180294,-0.9051607,-9.798249
1743177462213379,1743177462213379,-0.8788068,-0.88269114,-9.823661
1743177462265379,1743177462265379,-0.84294915,-0.8540177,-9.768322
1743177462313379,1743177462313379,-0.8877194,-0.89805347,-9.786317
1743177462365379,1743177462365379,-0.8543585,-0.83809364,-9.792848
1743177462413379,1743177462413379,-0.8887974,-0.86107373,-9.763076
1743177462465379,1743177462465379,-0.85280496,-0.8965864,-9.786886
1743177462513379,1743177462513379,-0.8475737,-0.916567,-9.799376
1743177462565379,1743177462565379,-0.9168073,-0.9070295,-9.7523775
1743177462613379,1743177462613379,-0.86567825,-0.88622063,-9.7831
1743177462665379,1743177462665379,-0.87075406,-0.94314665,-9.769569
1743177462713379,1743177462713379,-0.8867811,-0.9415031,-9.804866
1743177462765379,1743177462765379,-0.88136125,-0.91377836,-9.748392
1743177462813379,1743177462813379,-0.8884864,-0.95798826,-9.774474
1743177462865379,1743177462865379,-0.88102645,-0.90578365,-9.762051
1743177462913379,1743177462913379,-0.9280971,-0.9421694,-9.710854
1743177462965379,1743177462965379,-0.88181305,-1.0027682,-9.803775
1743177463013379,1743177463013379,-0.92505366,-0.9177643,-9.809065
1743177463065379,1743177463065379,-0.92303854,-0.9262315,-9.786545
1743177463113379,1743177463113379,-0.9289704,-0.97243637,-9.731552
1743177463165379,1743177463165379,-0.9085082,-0.93094873,-9.71773
1743177463213379,1743177463213379,-0.92776346,-0.9424434,-9.744655
1743177463265379,1743177463265379,-0.9051061,-1.0090857,-9.81599
1743177463313379,1743177463313379,-0.9021181,-0.9615946,-9.752377
1743177463365379,1743177463365379,-0.94643486,-0.9487562,-9.759546
1743177463413379,1743177463413379,-0.913713,-0.9885661,-9.819502
1743177463465379,1743177463465379,-0.9354358,-0.9625424,-9.753964
1743177463513379,1743177463513379,-0.98511785,-0.9767174,-9.725984
1743177463565379,1743177463565379,-0.9572437,-0.95823807,-9.742984
1743177463613379,1743177463613379,-0.9651691,-0.9783361,-9.734477
1743177463665379,1743177463665379,-0.96594954,-0.97738355,-9.759541
1743177463713379,1743177463713379,-0.97339916,-1.0102825,-9.728396
1743177463765379,1743177463765379,-1.020024,-0.9861503,-9.705238
1743177463813379,1743177463813379,-0.9541562,-0.98664796,-9.717237
1743177463865379,1743177463865379,-0.96975285,-0.9731748,-9.714947
1743177463913379,1743177463913379,-1.012784,-0.95135415,-9.751248
1743177463965379,1743177463965379,-0.9848449,-0.9601359,-9.759575
1743177464013379,1743177464013379,-1.0072844,-0.9998759,-9.71587
1743177464065379,1743177464065379,-0.94914335,-0.96190244,-9.719185
1743177464113379,1743177464113379,-0.9669878,-0.91044897,-9.749044
1743177464165379,1743177464165379,-1.0016255,-0.9647756,-9.683556
1743177464213379,1743177464213379,-0.9934089,-1.0217109,-9.702677
1743177464265379,1743177464265379,-1.0268694,-0.95038867,-9.778027
1743177464313379,1743177464313379,-1.0169005,-0.9337571,-9.731375
1743177464365379,1743177464365379,-0.98799396,-0.98379225,-9.774441
1743177464413379,1743177464413379,-1.0428894,-0.9978517,-9.726411
1743177464465379,1743177464465379,-1.0002947,-0.96075064,-9.730491
1743177464513379,1743177464513379,-1.0195836,-0.99212563,-9.748686
1743177464565379,1743177464565379,-0.9643936,-0.9778966,-9.743639
1743177464613379,1743177464613379,-1.0188322,-0.97791076,-9.749367
1743177464665379,1743177464665379,-0.9719839,-0.9865476,-9.740871
1743177464713379,1743177464713379,-1.0004491,-0.9401543,-9.802305
1743177464765379,1743177464765379,-1.0216093,-0.9832383,-9.743489
1743177464813379,1743177464813379,-1.0074912,-0.960981,-9.804811
1743177464865379,1743177464865379,-0.9786551,-0.99106073,-9.741468
1743177464913379,1743177464913379,-1.0183036,-0.9847519,-9.696469
1743177464965379,1743177464965379,-0.9661342,-0.9438807,-9.683891
1743177465013379,1743177465013379,-1.0536388,-0.97087675,-9.657917
1743177465065379,1743177465065379,-0.991653,-0.9445071,-9.461162
1743177465113379,1743177465113379,-0.9927894,-0.9605075,-9.2087145
1743177465165379,1743177465165379,-0.9767988,-1.0083027,-8.995813
1743177465213379,1743177465213379,-1.0059203,-0.95304215,-8.915455
1743177465265379,1743177465265379,-0.9824029,-0.9728915,-8.855653
1743177465313379,1743177465313379,-1.0532792,-0.9822091,-9.047896
1743177465365379,1743177465365379,-1.0014284,-0.9225512,-9.272223
1743177465413379,1743177465413379,-1.0218761,-0.9049431,-9.475486
1743177465465379,1743177465465379,-0.9895215,-1.008253,-9.654293
1743177465513379,1743177465513379,-1.0033258,-0.93819934,-9.747746
1743177465565379,1743177465565379,-1.0049833,-0.93037844,-9.852952
1743177465613379,1743177465613379,-1.0215633,-0.98261905,-9.905208
1743177465665379,1743177465665379,-1.0476539,-0.93990844,-9.611821
1743177465713379,1743177465713379,-1.0313303,-0.92132974,-9.249847
1743177465765379,1743177465765379,-1.0182165,-0.9804108,-8.971247
1743177465813379,1743177465813379,-1.0534303,-0.97602344,-8.744248
1743177465865379,1743177465865379,-1.0467,-0.92968273,-8.55716
1743177465913379,1743177465913379,-1.0285475,-0.9405484,-8.522268
1743177465965379,1743177465965379,-1.0227098,-0.97305065,-8.546382
1743177466013379,1743177466013379,-1.0249717,-0.9832497,-8.506172
1743177466065379,1743177466065379,-1.0300307,-0.95858246,-8.541197
1743177466113379,1743177466113379,-0.9813176,-0.94443834,-8.577673
1743177466165379,1743177466165379,-1.0204275,-0.9522651,-8.679087
1743177466213379,1743177466213379,-1.0231304,-0.90462106,-8.638402
1743177466265379,1743177466265379,-1.0476695,-0.97691846,-8.662863
1743177466313379,1743177466313379,-1.0439105,-0.95984745,-8.646499
1743177466365379,1743177466365379,-0.98697436,-0.9152781,-8.693071
1743177466413379,1743177466413379,-1.0081064,-0.93303794,-8.75549
1743177466465379,1743177466465379,-1.0033443,-0.90431815,-8.791157
1743177466513379,1743177466513379,-1.0390674,-0.9562234,-8.778713
1743177466565379,1743177466565379,-1.0252453,-0.94795305,-8.840437
1743177466613379,1743177466613379,-1.0485442,-1.0183549,-8.871741
1743177466665379,1743177466665379,-1.0998234,-0.97560674,-8.852128
1743177466713379,1743177466713379,-0.9957628,-0.9485589,-8.939124
1743177466765379,1743177466765379,-1.0230868,-0.9699108,-8.9267645
1743177466813379,1743177466813379,-1.0520556,-0.9684746,-8.951269
1743177466865379,1743177466865379,-1.0087395,-0.93808734,-8.909534
1743177466913379,1743177466913379,-1.0678148,-0.95340747,-8.993743
1743177466965379,1743177466965379,-1.0391952,-0.98557985,-8.996403
1743177467013379,1743177467013379,-1.0419121,-1.0097885,-9.002172
1743177467065379,1743177467065379,-1.083196,-0.98932993,-9.033241
1743177467113379,1743177467113379,-1.053664,-0.9590971,-8.995911
1743177467165379,1743177467165379,-1.0561085,-0.971976,-9.04376
1743177467213379,1743177467213379,-1.0485703,-0.9481411,-9.078669
1743177467265379,1743177467265379,-1.0950084,-0.9835143,-9.051341
1743177467313379,1743177467313379,-1.0193515,-0.95934415,-9.082798
1743177467365379,1743177467365379,-1.037559,-0.95867187,-9.105263
1743177467413379,1743177467413379,-1.035059,-0.9851409,-9.1292715
1743177467465379,1743177467465379,-1.0425532,-1.0107015,-9.175175
1743177467513379,1743177467513379,-1.0424521,-1.01202,-9.210617
1743177467565379,1743177467565379,-1.061965,-0.9594029,-9.1065645
1743177467613379,1743177467613379,-1.0236007,-1.0141721,-9.184592
1743177467665379,1743177467665379,-1.0605766,-1.0437143,-9.143379
1743177467713379,1743177467713379,-1.0308051,-0.9973106,-9.176955
1743177467765379,1743177467765379,-1.043151,-1.0217434,-9.150265
1743177467813379,1743177467813379,-1.0427871,-1.0077524,-9.1910305
1743177467865379,1743177467865379,-1.0658705,-1.0417678,-9.209828
1743177467913379,1743177467913379,-1.0548333,-0.9879389,-9.235649
1743177467965379,1743177467965379,-1.0571455,-0.99243873,-9.22269
1743177468013379,1743177468013379,-1.0612855,-1.0457535,-9.25014
1743177468065379,1743177468065379,-1.061828,-0.9868267,-9.266672
1743177468113379,1743177468113379,-1.0841672,-0.98699546,-9.249188
1743177468165379,1743177468165379,-1.0554701,-1.0254449,-9.260419
1743177468213379,1743177468213379,-1.0901532,-1.0229685,-9.279639
1743177468265379,1743177468265379,-1.0508131,-1.0147301,-9.290431
1743177468313379,1743177468313379,-1.013361,-0.9949135,-9.253838
1743177468365379,1743177468365379,-1.0689716,-1.0062037,-9.280657
1743177468413379,1743177468413379,-1.0822457,-1.0304852,-9.318304
1743177468465379,1743177468465379,-1.0836658,-1.043262,-9.3715
1743177468513379,1743177468513379,-1.0623313,-1.0390767,-9.303021
1743177468565379,1743177468565379,-1.0659113,-1.0139847,-9.371631
1743177468613379,1743177468613379,-1.0747284,-0.96852094,-9.3214
1743177468665379,1743177468665379,-1.0840685,-0.9902693,-9.339037
1743177468713379,1743177468713379,-1.0797391,-1.0424924,-9.312578
1743177468765379,1743177468765379,-1.0893757,-0.99703383,-9.359371
1743177468813379,1743177468813379,-1.0451345,-0.9713815,-9.394642
1743177468865379,1743177468865379,-1.1473964,-0.9851009,-9.362989
1743177468913379,1743177468913379,-1.0875216,-1.0275384,-9.363932
1743177468965379,1743177468965379,-1.056598,-0.99711025,-9.442568
1743177469013379,1743177469013379,-1.0840495,-1.0426818,-9.399105
1743177469065379,1743177469065379,-1.0679133,-1.0164831,-9.437273
1743177469113379,1743177469113379,-1.1125135,-1.0288924,-9.462689
1743177469165379,1743177469165379,-1.0921066,-1.0265677,-9.406424
1743177469213379,1743177469213379,-1.0612336,-1.0278777,-9.376098
1743177469265379,1743177469265379,-1.0836284,-1.0010287,-9.444879
1743177469313379,1743177469313379,-1.0840632,-1.0009961,-9.455309
1743177469365379,1743177469365379,-1.0677345,-1.008653,-9.43527
1743177469413379,1743177469413379,-1.0831252,-1.0532751,-9.436435
1743177469465379,1743177469465379,-1.0658545,-1.0232863,-9.438792
1743177469513379,1743177469513379,-1.0977347,-0.9878229,-9.478727
1743177469565379,1743177469565379,-1.1105249,-1.0013087,-9.501788
1743177469613379,1743177469613379,-1.0912162,-0.9954065,-9.514969
1743177469665379,1743177469665379,-1.0518962,-0.98482144,-9.495619
1743177469713379,1743177469713379,-1.0806205,-0.9787513,-9.448338
1743177469765379,1743177469765379,-1.0864373,-1.007573,-9.388239
1743177469813379,1743177469813379,-1.106464,-0.9691421,-9.387174
1743177469865379,1743177469865379,-1.0953734,-1.0480794,-9.444444
1743177469913379,1743177469913379,-1.1090705,-1.0286467,-9.487152
1743177469965379,1743177469965379,-1.1255187,-1.0152781,-9.474733
1743177470013379,1743177470013379,-1.0738733,-1.0409961,-9.480834
1743177470065379,1743177470065379,-1.0759143,-1.0303073,-9.512987
1743177470113379,1743177470113379,-1.142815,-1.0414239,-9.554139
1743177470165379,1743177470165379,-1.1171832,-1.0550141,-9.580126
1743177470213379,1743177470213379,-1.1593298,-1.0613644,-9.602015
1743177470265379,1743177470265379,-1.1534802,-0.9788411,-9.653
1743177470313379,1743177470313379,-1.1811196,-1.037249,-9.587251
1743177470365379,1743177470365379,-1.161472,-1.0255618,-9.603283
1743177470413379,1743177470413379,-1.1724775,-0.9915219,-9.660629
1743177470465379,1743177470465379,-1.2342069,-0.9412401,-9.586919
1743177470513379,1743177470513379,-1.2125478,-0.89772284,-9.629281
1743177470565379,1743177470565379,-1.2844944,-0.87088466,-9.684509
1743177470613379,1743177470613379,-1.2946953,-0.87781155,-9.712289
1743177470665379,1743177470665379,-1.2843411,-0.8159167,-9.73946
1743177470713379,1743177470713379,-1.3542567,-0.82695085,-9.734536
1743177470765379,1743177470765379,-1.3900628,-0.8247899,-9.880571
1743177470813379,1743177470813379,-1.4707327,-0.7964906,-9.867652
1743177470865379,1743177470865379,-1.4563978,-0.7894437,-9.626643
1743177470913379,1743177470913379,-1.5479177,-0.8035842,-9.613069
1743177470965379,1743177470965379,-1.5993164,-0.7641546,-9.486492
1743177471013379,1743177471013379,-1.6252946,-0.7933024,-9.429194
1743177471065379,1743177471065379,-1.6807092,-0.7793112,-9.458924
1743177471113379,1743177471113379,-1.7553453,-0.8143958,-9.451246
1743177471165379,1743177471165379,-1.7502177,-0.8213,-9.472755
1743177471213379,1743177471213379,-1.80768,-0.8207286,-9.426761
1743177471265379,1743177471265379,-1.8265325,-0.8449296,-9.42437
1743177471313379,1743177471313379,-1.858799,-0.82056826,-9.3899765
1743177471365379,1743177471365379,-1.8895388,-0.8442054,-9.426677
1743177471413379,1743177471413379,-1.8926108,-0.8805797,-9.444581
1743177471465379,1743177471465379,-1.8652445,-0.9297769,-9.408951
1743177471513379,1743177471513379,-1.8819284,-0.990522,-9.47613
1743177471565379,1743177471565379,-1.8961641,-0.91132855,-9.470612
1743177471613379,1743177471613379,-1.8641295,-0.9300295,-9.430619
1743177471665379,1743177471665379,-1.8265841,-0.9420934,-9.514649
1743177471713379,1743177471713379,-1.823317,-0.94858825,-9.494379
1743177471765379,1743177471765379,-1.830229,-0.9816339,-9.534398
1743177471813379,1743177471813379,-1.8151379,-0.97628236,-9.531477
1743177471865379,1743177471865379,-1.7425234,-0.94443727,-9.583018
1743177471913379,1743177471913379,-1.798568,-1.0263002,-9.544364
1743177471965379,1743177471965379,-1.7573475,-1.0496087,-9.671089
1743177472013379,1743177472013379,-1.7177644,-1.0083524,-9.649158
1743177472065379,1743177472065379,-1.7171578,-0.9506636,-9.656416
1743177472113379,1743177472113379,-1.6643466,-0.9906757,-9.705053
1743177472165379,1743177472165379,-1.6429291,-0.98407286,-9.692033
1743177472213379,1743177472213379,-1.5754637,-1.0078067,-9.670151
1743177472265379,1743177472265379,-1.5955905,-0.9356996,-9.648233
1743177472313379,1743177472313379,-1.5473356,-0.9274837,-9.692168
1743177472365379,1743177472365379,-1.607302,-0.92988735,-9.682562
1743177472413379,1743177472413379,-1.5506631,-0.923148,-9.694085
1743177472465379,1743177472465379,-1.5713112,-0.89582944,-9.674131
1743177472513379,1743177472513379,-1.524152,-0.9064102,-9.675508
1743177472565379,1743177472565379,-1.5661614,-0.82566655,-9.6610565
1743177472613379,1743177472613379,-1.5647318,-0.8336147,-9.637764
1743177472665379,1743177472665379,-1.5646392,-0.7869482,-9.732542
1743177472713379,1743177472713379,-1.536613,-0.79623175,-9.710503
1743177472765379,1743177472765379,-1.5824418,-0.77982306,-9.7093115
1743177472813379,1743177472813379,-1.5561423,-0.7960546,-9.681679
1743177472865379,1743177472865379,-1.5416133,-0.8139706,-9.614679
1743177472913379,1743177472913379,-1.5661969,-0.80207956,-9.631969
1743177472965379,1743177472965379,-1.5565939,-0.7839671,-9.552947
1743177473013379,1743177473013379,-1.6077718,-0.8165213,-9.522884
1743177473065379,1743177473065379,-1.5621,-0.8093504,-9.531004
1743177473113379,1743177473113379,-1.6030684,-0.8232939,-9.586644
1743177473165379,1743177473165379,-1.5350115,-0.74328625,-9.551428
1743177473213379,1743177473213379,-1.5972815,-0.74694055,-9.570461
1743177473265379,1743177473265379,-1.5412359,-0.7885079,-9.575389
1743177473313379,1743177473313379,-1.5527074,-0.7802162,-9.584768
1743177473365379,1743177473365379,-1.6102421,-0.80388266,-9.634413
1743177473413379,1743177473413379,-1.5372266,-0.81712383,-9.585412
1743177473465379,1743177473465379,-1.5402445,-0.8256662,-9.518555
1743177473513379,1743177473513379,-1.5888524,-0.83884156,-9.429957
1743177473565379,1743177473565379,-1.4865055,-0.8462899,-9.449862
1743177473613379,1743177473613379,-1.455286,-0.79276323,-9.52822
1743177473665379,1743177473665379,-1.4731939,-0.86023635,-9.600461
1743177473713379,1743177473713379,-1.4420302,-0.9434961,-9.71209
1743177473765379,1743177473765379,-1.407183,-0.99282783,-9.722404
1743177473813379,1743177473813379,-1.3206637,-1.068491,-9.7812395
1743177473865379,1743177473865379,-1.2437183,-1.1236333,-9.782759
1743177473913379,1743177473913379,-1.1903405,-1.1390882,-9.825194
1743177473965379,1743177473965379,-1.0446556,-1.2388418,-9.800644
1743177474013379,1743177474013379,-0.9545973,-1.3235372,-9.726431
1743177474065379,1743177474065379,-0.853226,-1.4443781,-9.599923
1743177474113379,1743177474113379,-0.7753976,-1.4927998,-9.614551
1743177474165379,1743177474165379,-0.60786265,-1.6808982,-9.651144
1743177474213379,1743177474213379,-0.4849894,-1.7830697,-9.708902
1743177474265379,1743177474265379,-0.37777334,-1.8933604,-9.764095
1743177474313379,1743177474313379,-0.30992687,-1.9772732,-9.849899
1743177474365379,1743177474365379,-0.17126597,-2.0128813,-9.963816
1743177474413379,1743177474413379,-0.14603941,-2.0112326,-10.033926
1743177474465379,1743177474465379,-0.13731186,-2.0805194,-10.14555
1743177474513379,1743177474513379,-0.032951802,-2.1703408,-10.247082
1743177474565379,1743177474565379,0.010589859,-2.133003,-10.244649
1743177474613379,1743177474613379,-0.020200308,-2.1536736,-10.363996
1743177474665379,1743177474665379,0.015373416,-2.1148136,-10.413944
1743177474713379,1743177474713379,-0.029391466,-2.1141424,-10.511555
1743177474765379,1743177474765379,-0.01178493,-2.1144404,-10.485045
1743177474813379,1743177474813379,-0.018075688,-2.0930157,-10.41089
1743177474865379,1743177474865379,0.007999072,-2.0709176,-10.229903
1743177474913379,1743177474913379,0.018195234,-2.061449,-10.1123905
1743177474965379,1743177474965379,-0.027656311,-2.1904767,-9.953965
1743177475013379,1743177475013379,-0.019430917,-2.1412792,-9.73153
1743177475065379,1743177475065379,0.011347961,-2.2133288,-9.605052
1743177475113379,1743177475113379,-0.006682238,-2.2524605,-9.515913
1743177475165379,1743177475165379,-0.01860949,-2.2356026,-9.322529
1743177475213379,1743177475213379,-0.10823711,-2.2408628,-9.296082
1743177475265379,1743177475265379,-0.12675065,-2.2384508,-9.281935
1743177475313379,1743177475313379,-0.1889895,-2.234784,-9.405055
1743177475365379,1743177475365379,-0.30740112,-2.1932135,-9.494134
1743177475413379,1743177475413379,-0.3581893,-2.1658645,-9.662365
1743177475465379,1743177475465379,-0.520223,-2.0607564,-9.782809
1743177475513379,1743177475513379,-0.66089565,-2.0119805,-9.8544
1743177475565379,1743177475565379,-0.7524317,-1.9700294,-9.885014
1743177475613379,1743177475613379,-0.8784735,-1.8442254,-9.93744
1743177475665379,1743177475665379,-1.0213428,-1.8016597,-9.893443
1743177475713379,1743177475713379,-1.0834146,-1.7541982,-9.853409
1743177475765379,1743177475765379,-1.1459082,-1.6815184,-9.778443
1743177475813379,1743177475813379,-1.207077,-1.6857965,-9.657116
1743177475865379,1743177475865379,-1.2291718,-1.6922433,-9.585362
1743177475913379,1743177475913379,-1.2467558,-1.6639054,-9.596564
1743177475965379,1743177475965379,-1.2386451,-1.7496536,-9.4998455
1743177476013379,1743177476013379,-1.1638432,-1.7661549,-9.4994
1743177476065379,1743177476065379,-1.160034,-1.7936037,-9.511564
1743177476113379,1743177476113379,-1.1131808,-1.8009962,-9.498154
1743177476165379,1743177476165379,-1.0085099,-1.8855319,-9.540562
1743177476213379,1743177476213379,-0.8688257,-1.9659613,-9.515959
1743177476265379,1743177476265379,-0.8246913,-1.9843714,-9.521402
1743177476313379,1743177476313379,-0.778617,-2.0384297,-9.578562
1743177476365379,1743177476365379,-0.7436085,-2.1001117,-9.615858
1743177476413379,1743177476413379,-0.6210437,-2.1386967,-9.599205
1743177476465379,1743177476465379,-0.6462264,-2.1258261,-9.619919
1743177476513379,1743177476513379,-0.5898324,-2.1054645,-9.6132765
1743177476565379,1743177476565379,-0.5370915,-2.12979,-9.558232
1743177476613379,1743177476613379,-0.52199185,-2.1309195,-9.554684
1743177476665379,1743177476665379,-0.5042493,-2.101933,-9.495409
1743177476713379,1743177476713379,-0.53949165,-2.1407614,-9.559192
1743177476765379,1743177476765379,-0.4864139,-2.0861468,-9.513595
1743177476813379,1743177476813379,-0.47472316,-2.1038673,-9.572767
1743177476865379,1743177476865379,-0.47604564,-2.058053,-9.530961
1743177476913379,1743177476913379,-0.5092154,-2.0223465,-9.586929
1743177476965379,1743177476965379,-0.50339395,-1.9459014,-9.665762
1743177477013379,1743177477013379,-0.55607367,-1.9133773,-9.717572
1743177477065379,1743177477065379,-0.54124963,-1.9020971,-9.630942
1743177477113379,1743177477113379,-0.5086744,-1.8860338,-9.671503
1743177477165379,1743177477165379,-0.4819463,-1.7992731,-9.666247
1743177477213379,1743177477213379,-0.5398868,-1.7988296,-9.759019
1743177477265379,1743177477265379,-0.51435053,-1.7183375,-9.760814
1743177477313379,1743177477313379,-0.48383206,-1.737056,-9.721581
1743177477365379,1743177477365379,-0.48984152,-1.6940587,-9.709293
1743177477413379,1743177477413379,-0.42394173,-1.6799593,-9.745711
1743177477465379,1743177477465379,-0.38360482,-1.6317573,-9.706404
1743177477513379,1743177477513379,-0.40360698,-1.6137667,-9.768524
1743177477565379,1743177477565379,-0.4003835,-1.5969334,-9.739294
1743177477613379,1743177477613379,-0.40954572,-1.5819254,-9.745794
1743177477665379,1743177477665379,-0.34453815,-1.5724324,-9.75907
1743177477713379,1743177477713379,-0.3229699,-1.533807,-9.774102
1743177477765379,1743177477765379,-0.34542683,-1.540003,-9.725793
1743177477813379,1743177477813379,-0.32717186,-1.5363263,-9.787901
1743177477865379,1743177477865379,-0.31859523,-1.4901081,-9.742117
1743177477913379,1743177477913379,-0.24373212,-1.4991256,-9.8094425
1743177477965379,1743177477965379,-0.23539536,-1.471652,-9.8136015
1743177478013379,1743177478013379,-0.18528923,-1.4891351,-9.783882
1743177478065379,1743177478065379,-0.21387997,-1.444942,-9.778561
1743177478113379,1743177478113379,-0.20971227,-1.3720465,-9.798606
1743177478165379,1743177478165379,-0.16900048,-1.393032,-9.816362
1743177478213379,1743177478213379,-0.17021514,-1.4085742,-9.802899
1743177478265379,1743177478265379,-0.15549903,-1.364732,-9.785623
1743177478313379,1743177478313379,-0.16385984,-1.3464463,-9.81168
1743177478365379,1743177478365379,-0.16055873,-1.3309546,-9.80731
1743177478413379,1743177478413379,-0.11976284,-1.3222153,-9.861839
1743177478465379,1743177478465379,-0.057359334,-1.2513027,-9.823185
1743177478513379,1743177478513379,-0.1317406,-1.2638874,-9.812725
1743177478565379,1743177478565379,-0.10396718,-1.2524488,-9.829577
1743177478613379,1743177478613379,-0.07357505,-1.2479324,-9.813578
1743177478665379,1743177478665379,-0.11518537,-1.1736889,-9.863199
1743177478713379,1743177478713379,-0.05519859,-1.1771002,-9.825098
1743177478765379,1743177478765379,-0.061315037,-1.1444601,-9.84061
1743177478813379,1743177478813379,-0.056242764,-1.142753,-9.840517
1743177478865379,1743177478865379,-0.073312536,-1.1548847,-9.828285
1743177478913379,1743177478913379,0.003992131,-1.0931897,-9.80287
1743177478965379,1743177478965379,-0.06009872,-1.0793722,-9.773489
1743177479013379,1743177479013379,-0.035616882,-1.0516598,-9.795239
1743177479065379,1743177479065379,-0.05091606,-1.0147588,-9.861244
1743177479113379,1743177479113379,-0.010779995,-1.0577992,-9.824684
1743177479165379,1743177479165379,-0.022119906,-1.0182663,-9.883057
1743177479213379,1743177479213379,-0.051745906,-1.0005615,-9.889645
1743177479265379,1743177479265379,-0.04771735,-0.94458205,-9.860777
1743177479313379,1743177479313379,-0.02960129,-0.9416435,-9.845619
1743177479365379,1743177479365379,-0.05100589,-0.9110444,-9.807348
1743177479413379,1743177479413379,-0.00256737,-0.87251085,-9.809519
1743177479465379,1743177479465379,-0.013301138,-0.9012435,-9.8157215
1743177479513379,1743177479513379,-0.04000508,-0.8904631,-9.835669
1743177479565379,1743177479565379,-0.0476472,-0.85591674,-9.778816
1743177479613379,1743177479613379,-0.016345516,-0.83778715,-9.825358
1743177479665379,1743177479665379,0.002814483,-0.8296919,-9.845704
1743177479713379,1743177479713379,-0.013734837,-0.81373,-9.828062
1743177479765379,1743177479765379,-0.04128874,-0.7396143,-9.8581295
1743177479813379,1743177479813379,-0.031381056,-0.8177528,-9.804292
1743177479865379,1743177479865379,0.018915877,-0.7762187,-9.860457
1743177479913379,1743177479913379,-0.0029742862,-0.7577831,-9.806684
1743177479965379,1743177479965379,-0.028290015,-0.7142426,-9.858606
1743177480013379,1743177480013379,-0.0011356061,-0.78037405,-9.821143
1743177480065379,1743177480065379,0.013887718,-0.68370354,-9.835004
1743177480113379,1743177480113379,0.03175223,-0.69086736,-9.786478
1743177480165379,1743177480165379,0.021297459,-0.64831233,-9.809376
1743177480213379,1743177480213379,0.015772108,-0.63992476,-9.834055
1743177480265379,1743177480265379,0.06310621,-0.66492873,-9.798608
1743177480313379,1743177480313379,0.107691355,-0.6328374,-9.822934
1743177480365379,1743177480365379,0.0038895127,-0.5997041,-9.773586
1743177480413379,1743177480413379,0.09217396,-0.5830012,-9.823559
1743177480465379,1743177480465379,0.0738125,-0.6129353,-9.810972
1743177480513379,1743177480513379,0.08105573,-0.56654835,-9.780312
1743177480565379,1743177480565379,0.08924788,-0.5749974,-9.834503
1743177480613379,1743177480613379,0.027266659,-0.55379397,-9.759849
1743177480665379,1743177480665379,0.082340345,-0.520346,-9.783897
1743177480713379,1743177480713379,0.096745096,-0.49356765,-9.816245
1743177480765379,1743177480765379,0.15201592,-0.4349438,-9.811417
1743177480813379,1743177480813379,0.14046127,-0.4208887,-9.838257
1743177480865379,1743177480865379,0.16261773,-0.42892155,-9.814497
1743177480913379,1743177480913379,0.121505514,-0.40798354,-9.771537
1743177480965379,1743177480965379,0.17806672,-0.38942218,-9.790121
1743177481013379,1743177481013379,0.19343336,-0.3696572,-9.838747
1743177481065379,1743177481065379,0.2006903,-0.3505495,-9.838861
1743177481113379,1743177481113379,0.16970024,-0.38700506,-9.8249
1743177481165379,1743177481165379,0.22067596,-0.33998454,-9.82265
1743177481213379,1743177481213379,0.19376834,-0.30578673,-9.8884115
1743177481265379,1743177481265379,0.18673563,-0.33627248,-9.879586
1743177481313379,1743177481313379,0.22236134,-0.28548193,-9.811904
1743177481365379,1743177481365379,0.20288393,-0.37164822,-9.854557
1743177481413379,1743177481413379,0.21589464,-0.2856004,-9.769404
1743177481465379,1743177481465379,0.30857912,-0.26340726,-9.885788
1743177481513379,1743177481513379,0.19964033,-0.3382069,-9.865335
1743177481565379,1743177481565379,0.24301524,-0.29914138,-10.001506
1743177481613379,1743177481613379,0.25164884,-0.34061354,-10.098187
1743177481665379,1743177481665379,0.22757152,-0.3949203,-10.073706
1743177481713379,1743177481713379,0.14085373,-0.3544714,-9.979109
1743177481765379,1743177481765379,0.11774896,-0.3665335,-9.847237
1743177481813379,1743177481813379,0.12549232,-0.36699197,-9.761387
1743177481865379,1743177481865379,0.12940398,-0.3961102,-9.6676235
1743177481913379,1743177481913379,0.07522005,-0.4555828,-9.654955
1743177481965379,1743177481965379,0.036053915,-0.47488222,-9.6119175
1743177482013379,1743177482013379,0.030061308,-0.5146034,-9.609068
1743177482065379,1743177482065379,-0.0044012414,-0.5496924,-9.616808
1743177482113379,1743177482113379,-0.018527074,-0.6476096,-9.73058
1743177482165379,1743177482165379,-0.10814579,-0.62798584,-9.862176
1743177482213379,1743177482213379,-0.03015573,-0.59950835,-9.877365
1743177482265379,1743177482265379,-0.02672112,-0.6263088,-10.030801
1743177482313379,1743177482313379,-0.10793912,-0.5939546,-10.114983
1743177482365379,1743177482365379,-0.021936946,-0.62847096,-10.15617
1743177482413379,1743177482413379,-0.12100464,-0.55894655,-10.292352
1743177482465379,1743177482465379,-0.10358505,-0.5439618,-10.278816
1743177482513379,1743177482513379,-0.18139522,-0.5831893,-10.240642
1743177482565379,1743177482565379,-0.22638315,-0.52299994,-10.2191105
1743177482613379,1743177482613379,-0.26639655,-0.46816635,-10.207141
1743177482665379,1743177482665379,-0.39790344,-0.39878267,-10.248869
1743177482713379,1743177482713379,-0.36489144,-0.39205965,-10.178295
1743177482765379,1743177482765379,-0.48068827,-0.35861772,-10.221773
1743177482813379,1743177482813379,-0.53114927,-0.3472658,-10.203398
1743177482865379,1743177482865379,-0.5674752,-0.3167503,-10.154872
1743177482913379,1743177482913379,-0.6689658,-0.2702063,-10.188516
1743177482965379,1743177482965379,-0.76740533,-0.2117916,-10.150734
1743177483013379,1743177483013379,-0.7927582,-0.22609441,-10.177741
1743177483065379,1743177483065379,-0.8301457,-0.15874545,-10.143802
1743177483113379,1743177483113379,-0.88511056,-0.1766752,-10.195386
1743177483165379,1743177483165379,-0.99124235,-0.09872597,-10.235765
1743177483213379,1743177483213379,-0.96723306,-0.12271069,-10.215795
1743177483265379,1743177483265379,-1.0623529,-0.078883246,-10.183075
1743177483313379,1743177483313379,-1.0303667,-0.09898458,-10.060366
1743177483365379,1743177483365379,-1.1516072,-0.07994206,-9.963723
1743177483413379,1743177483413379,-1.1627538,-0.068039134,-9.89344
1743177483465379,1743177483465379,-1.1450598,-0.10538721,-9.820117
1743177483513379,1743177483513379,-1.1916463,-0.09700603,-9.723816
1743177483565379,1743177483565379,-1.1969345,-0.0862596,-9.662008
1743177483613379,1743177483613379,-1.2274302,-0.10063644,-9.66375
1743177483665379,1743177483665379,-1.259472,-0.09181574,-9.547311
1743177483713379,1743177483713379,-1.2447222,-0.024401981,-9.582613
1743177483765379,1743177483765379,-1.1955351,-0.07764134,-9.592193
1743177483813379,1743177483813379,-1.2415302,-0.15351179,-9.636803
1743177483865379,1743177483865379,-1.1989926,-0.11508898,-9.653402
1743177483913379,1743177483913379,-1.1901469,-0.14225048,-9.710741
1743177483965379,1743177483965379,-1.1543797,-0.15713647,-9.75454
1743177484013379,1743177484013379,-1.1609071,-0.12524243,-9.794096
1743177484065379,1743177484065379,-1.1786896,-0.13817856,-9.819805
1743177484113379,1743177484113379,-1.1543367,-0.17729512,-9.839339
1743177484165379,1743177484165379,-1.1365085,-0.18778107,-9.888602
1743177484213379,1743177484213379,-1.138221,-0.14666604,-9.881871
1743177484265379,1743177484265379,-1.1146278,-0.11727141,-9.821006
1743177484313379,1743177484313379,-1.0379432,-0.1279266,-9.755678
1743177484365379,1743177484365379,-1.0733716,-0.1404255,-9.769659
1743177484413379,1743177484413379,-1.0644703,-0.09729611,-9.752953
1743177484465379,1743177484465379,-1.0177369,-0.08931806,-9.720636
1743177484513379,1743177484513379,-1.0405699,-0.13180186,-9.698629
1743177484565379,1743177484565379,-1.0247748,-0.098798305,-9.757736
1743177484613379,1743177484613379,-0.99853384,-0.05689262,-9.713107
1743177484665379,1743177484665379,-1.056083,-0.03588371,-9.752325
1743177484713379,1743177484713379,-1.0372348,-0.042198453,-9.739633
1743177484765379,1743177484765379,-1.0506746,-0.051771622,-9.751209
1743177484813379,1743177484813379,-1.074158,-0.01382363,-9.757162
1743177484865379,1743177484865379,-1.0470853,0.00998022,-9.70415
1743177484913379,1743177484913379,-1.0285716,-0.004477629,-9.738545
1743177484965379,1743177484965379,-0.98827004,-0.021287203,-9.732705
1743177485013379,1743177485013379,-0.9398069,0.0022635707,-9.743798
1743177485065379,1743177485065379,-0.9916786,-0.02447036,-9.7722645
1743177485113379,1743177485113379,-0.95400023,0.03049076,-9.862502
1743177485165379,1743177485165379,-0.9716922,0.006629572,-9.871489
1743177485213379,1743177485213379,-0.87927663,-0.006406119,-9.804923
1743177485265379,1743177485265379,-0.90652883,-0.016894754,-9.838956
1743177485313379,1743177485313379,-0.8471148,0.030250438,-9.821125
1743177485365379,1743177485365379,-0.837324,-0.019837042,-9.895585
1743177485413379,1743177485413379,-0.80661976,-0.024207272,-9.901538
1743177485465379,1743177485465379,-0.8103377,0.047344804,-9.911131
1743177485513379,1743177485513379,-0.7417482,0.03394088,-9.882458
1743177485565379,1743177485565379,-0.76930404,-0.021330765,-9.845131
1743177485613379,1743177485613379,-0.75723326,0.024499616,-9.902244
1743177485665379,1743177485665379,-0.6805382,-0.011207521,-9.933291
1743177485713379,1743177485713379,-0.6769237,-0.009262718,-9.89742
1743177485765379,1743177485765379,-0.6276086,-0.0106094275,-9.897599
1743177485813379,1743177485813379,-0.6370901,0.018010957,-9.926966
1743177485865379,1743177485865379,-0.63842267,0.0005461733,-9.924957
1743177485913379,1743177485913379,-0.60895383,0.03566183,-9.909033
1743177485965379,1743177485965379,-0.56888473,-0.010710898,-9.875539
1743177486013379,1743177486013379,-0.6049913,0.012377426,-9.912738
1743177486065379,1743177486065379,-0.5399117,0.028792933,-9.906967
1743177486113379,1743177486113379,-0.563008,-0.032342102,-9.931568
1743177486165379,1743177486165379,-0.5037881,0.06050591,-9.937641
1743177486213379,1743177486213379,-0.54317874,0.025054589,-9.889515
1743177486265379,1743177486265379,-0.52241725,0.047169574,-9.899882
1743177486313379,1743177486313379,-0.51748675,0.059000067,-9.856413
1743177486365379,1743177486365379,-0.4659214,0.06532814,-9.940924
1743177486413379,1743177486413379,-0.42885017,0.039020397,-9.874328
1743177486465379,1743177486465379,-0.4475914,0.014454955,-9.904091
1743177486513379,1743177486513379,-0.44600025,0.04521351,-9.907299
1743177486565379,1743177486565379,-0.46141738,0.0173004,-9.936251
1743177486613379,1743177486613379,-0.42278475,0.073234916,-9.897186
1743177486665379,1743177486665379,-0.39338255,0.060313974,-9.886783
1743177486713379,1743177486713379,-0.3604473,0.08027203,-9.896128
1743177486765379,1743177486765379,-0.37704736,0.08394439,-9.865305
1743177486813379,1743177486813379,-0.3906679,0.053348087,-9.899012
1743177486865379,1743177486865379,-0.38235885,0.061196774,-9.870882
1743177486913379,1743177486913379,-0.41482243,0.06480846,-9.871335
1743177486965379,1743177486965379,-0.38045457,0.061936926,-9.909294
1743177487013379,1743177487013379,-0.35765237,0.07609315,-9.849876
1743177487065379,1743177487065379,-0.320489,0.06158232,-9.878805
1743177487113379,1743177487113379,-0.30462155,0.092882715,-9.855203
1743177487165379,1743177487165379,-0.31678522,0.061774172,-9.893908
1743177487213379,1743177487213379,-0.282651,0.11130893,-9.876572
1743177487265379,1743177487265379,-0.32689494,0.0787518,-9.878277
1743177487313379,1743177487313379,-0.26697582,0.040499248,-9.892056
1743177487365379,1743177487365379,-0.2990142,0.09181277,-9.894499
1743177487413379,1743177487413379,-0.24781317,0.06437645,-9.876987
1743177487465379,1743177487465379,-0.25892353,0.08418113,-9.89254
1743177487513379,1743177487513379,-0.29005492,0.044502065,-9.8515215
1743177487565379,1743177487565379,-0.27637917,0.10710346,-9.85743
1743177487613379,1743177487613379,-0.24731371,0.033545516,-9.864639
1743177487665379,1743177487665379,-0.27212718,0.05288753,-9.853759
1743177487713379,1743177487713379,-0.2651946,0.09590588,-9.91764
1743177487765379,1743177487765379,-0.27241582,0.07434731,-9.825523
1743177487813379,1743177487813379,-0.2338452,0.099524915,-9.86176
1743177487865379,1743177487865379,-0.28987828,0.11096077,-9.829596
1743177487913379,1743177487913379,-0.215145,0.06736749,-9.842297
1743177487965379,1743177487965379,-0.25499952,0.078139715,-9.843416
1743177488013379,1743177488013379,-0.20553018,0.074135505,-9.872944
1743177488065379,1743177488065379,-0.26302007,0.073085375,-9.832978
1743177488113379,1743177488113379,-0.2303203,0.100894645,-9.830788
1743177488165379,1743177488165379,-0.22473115,0.110361375,-9.838081
1743177488213379,1743177488213379,-0.16271068,0.09252542,-9.8379
1743177488265379,1743177488265379,-0.21756625,0.115602136,-9.880577
1743177488313379,1743177488313379,-0.1894781,0.08038107,-9.79318
1743177488365379,1743177488365379,-0.23817503,0.06480197,-9.78886
1743177488413379,1743177488413379,-0.18872406,0.053540096,-9.789942
1743177488465379,1743177488465379,-0.21049531,0.06916411,-9.856521
1743177488513379,1743177488513379,-0.18398151,0.080507636,-9.799816
1743177488565379,1743177488565379,-0.14572114,0.100033,-9.846566
1743177488613379,1743177488613379,-0.17917159,0.078024685,-9.81021
1743177488665379,1743177488665379,-0.18676408,0.07545023,-9.793891
1743177488713379,1743177488713379,-0.17686376,0.07749968,-9.809863
1743177488765379,1743177488765379,-0.1422714,0.09963409,-9.799418
1743177488813379,1743177488813379,-0.15250234,0.07313245,-9.85062
1743177488865379,1743177488865379,-0.15176569,0.034067612,-9.873653
1743177488913379,1743177488913379,-0.15564716,0.08248329,-9.840839
1743177488965379,1743177488965379,-0.13064288,0.09749451,-9.807038
1743177489013379,1743177489013379,-0.17968193,0.08055541,-9.832637
1743177489065379,1743177489065379,-0.124957055,0.09399507,-9.750409
1743177489113379,1743177489113379,-0.1989357,0.12007062,-9.82171
1743177489165379,1743177489165379,-0.15251026,0.10722889,-9.878868
1743177489213379,1743177489213379,-0.18263668,0.14100628,-9.936266
1743177489265379,1743177489265379,-0.15936023,0.11572622,-10.041037
1743177489313379,1743177489313379,-0.14992294,0.11748305,-10.151184
1743177489365379,1743177489365379,-0.16185614,0.105936974,-10.144849
1743177489413379,1743177489413379,-0.15858512,0.11179683,-10.084053
1743177489465379,1743177489465379,-0.1727109,0.0813881,-10.022456
1743177489513379,1743177489513379,-0.23616856,0.1044157,-9.928415
1743177489565379,1743177489565379,-0.18795869,0.01833204,-9.770839
1743177489613379,1743177489613379,-0.21318096,0.09748319,-9.7017565
1743177489665379,1743177489665379,-0.31891143,0.050054252,-9.622711
1743177489713379,1743177489713379,-0.25051925,0.039384626,-9.479786
1743177489765379,1743177489765379,-0.24931066,0.02491041,-9.487003
1743177489813379,1743177489813379,-0.27215505,-0.00047231975,-9.599653
1743177489865379,1743177489865379,-0.31633535,-0.04377921,-9.883485
1743177489913379,1743177489913379,-0.37989318,0.027948238,-10.113476
1743177489965379,1743177489965379,-0.35253382,0.021465851,-10.408797
1743177490013379,1743177490013379,-0.39407712,-0.02771316,-10.468484
1743177490065379,1743177490065379,-0.33997706,0.025598947,-10.350225
1743177490113379,1743177490113379,-0.39511168,0.035263695,-10.242699
1743177490165379,1743177490165379,-0.41730765,0.01385515,-10.020752
1743177490213379,1743177490213379,-0.42528254,0.050563186,-9.856876
1743177490265379,1743177490265379,-0.45763218,0.04075028,-9.627727
1743177490313379,1743177490313379,-0.4223352,0.05732386,-9.455235
1743177490365379,1743177490365379,-0.506748,0.007427966,-9.286562
1743177490413379,1743177490413379,-0.491669,0.08610024,-9.17684
1743177490465379,1743177490465379,-0.57597566,0.027659714,-9.178794
1743177490513379,1743177490513379,-0.49355447,0.06539339,-9.284096
1743177490565379,1743177490565379,-0.49337226,0.08079822,-9.433639
1743177490613379,1743177490613379,-0.5193839,0.038976006,-9.594279
1743177490665379,1743177490665379,-0.51616293,0.055829905,-9.796854
1743177490713379,1743177490713379,-0.49085975,0.040816233,-9.965319
1743177490765379,1743177490765379,-0.4563915,0.048198245,-10.091304
1743177490813379,1743177490813379,-0.4347706,0.065650366,-10.163313
1743177490865379,1743177490865379,-0.44215882,0.101662666,-10.221308
1743177490913379,1743177490913379,-0.46201587,0.039351262,-10.189362
1743177490965379,1743177490965379,-0.44759417,0.03792379,-10.113586
1743177491013379,1743177491013379,-0.40757126,0.02263891,-10.070355
1743177491065379,1743177491065379,-0.38256806,0.02215031,-9.966758
1743177491113379,1743177491113379,-0.390674,0.028119091,-9.898853
1743177491165379,1743177491165379,-0.3989972,0.038862344,-9.785027
1743177491213379,1743177491213379,-0.34917158,0.038071398,-9.8167515
1743177491265379,1743177491265379,-0.35574144,-0.01496009,-9.736288
1743177491313379,1743177491313379,-0.3339519,0.063673265,-9.702339
1743177491365379,1743177491365379,-0.35195702,0.036652293,-9.696411
1743177491413379,1743177491413379,-0.38514584,0.0058514765,-9.791137
1743177491465379,1743177491465379,-0.37100926,0.029481832,-9.837908
1743177491513379,1743177491513379,-0.36891675,0.025895435,-9.802204
1743177491565379,1743177491565379,-0.35124806,0.052081235,-9.92239
1743177491613379,1743177491613379,-0.39054012,0.017913403,-9.89987
1743177491665379,1743177491665379,-0.37417325,0.026501238,-9.92025
1743177491713379,1743177491713379,-0.35990128,0.033976205,-9.926949
1743177491765379,1743177491765379,-0.34958082,0.03291774,-9.914989
1743177491813379,1743177491813379,-0.3633222,0.01763915,-9.880968
1743177491865379,1743177491865379,-0.34028658,0.04120635,-9.910286
1743177491913379,1743177491913379,-0.3374173,0.037242305,-9.847351
1743177491965379,1743177491965379,-0.35209036,0.008608382,-9.851915
1743177492013379,1743177492013379,-0.35545862,0.027347736,-9.897253
1743177492065379,1743177492065379,-0.27973014,0.016753212,-9.9561205
1743177492113379,1743177492113379,-0.2738559,0.00076662283,-10.047322
1743177492165379,1743177492165379,-0.3603612,-0.028792327,-10.093818
1743177492213379,1743177492213379,-0.34730044,-0.03647618,-10.096298
1743177492265379,1743177492265379,-0.35344943,-0.032635793,-10.010722
1743177492313379,1743177492313379,-0.30475882,0.015709635,-9.966249
1743177492365379,1743177492365379,-0.33452854,0.030715194,-9.8723955
1743177492413379,1743177492413379,-0.36290634,0.032171905,-9.761329
1743177492465379,1743177492465379,-0.37073874,0.07891971,-9.693207
1743177492513379,1743177492513379,-0.31776014,0.020306876,-9.690353
1743177492565379,1743177492565379,-0.35298818,0.064747766,-9.69874
1743177492613379,1743177492613379,-0.3388572,0.081503205,-9.702248
1743177492665379,1743177492665379,-0.34641296,0.048046276,-9.792393
1743177492713379,1743177492713379,-0.35403603,0.0908097,-9.926334
1743177492765379,1743177492765379,-0.38826638,0.11458233,-9.974834
1743177492813379,1743177492813379,-0.33696637,0.12716655,-10.084793
1743177492865379,1743177492865379,-0.37405342,0.10918015,-10.263403
1743177492913379,1743177492913379,-0.3064847,0.20661253,-10.286325
1743177492965379,1743177492965379,-0.2942943,0.22478113,-10.268677
1743177493013379,1743177493013379,-0.29515147,0.18381082,-10.307599
1743177493065379,1743177493065379,-0.2946968,0.25110015,-10.340861
1743177493113379,1743177493113379,-0.2782789,0.30106717,-10.399517
1743177493165379,1743177493165379,-0.3319558,0.3378024,-10.470612
1743177493213379,1743177493213379,-0.29261118,0.32562536,-10.5289345
1743177493265379,1743177493265379,-0.3530079,0.38217995,-10.508757
1743177493313379,1743177493313379,-0.3333738,0.42177027,-10.4415455
1743177493365379,1743177493365379,-0.39866212,0.4369409,-10.253953
1743177493413379,1743177493413379,-0.43249887,0.4500807,-10.113202
1743177493465379,1743177493465379,-0.43856722,0.4076871,-9.896584
1743177493513379,1743177493513379,-0.55679476,0.40629056,-9.793271
1743177493565379,1743177493565379,-0.6172164,0.45452863,-9.682982
1743177493613379,1743177493613379,-0.6581904,0.41320816,-9.609013
1743177493665379,1743177493665379,-0.73887134,0.41406754,-9.613106
1743177493713379,1743177493713379,-0.80001485,0.3918962,-9.725065
1743177493765379,1743177493765379,-0.85883117,0.3685296,-9.784126
1743177493813379,1743177493813379,-0.9833431,0.26682568,-9.839739
1743177493865379,1743177493865379,-1.0674899,0.27856433,-9.859615
1743177493913379,1743177493913379,-1.1391764,0.20892908,-9.902518
1743177493965379,1743177493965379,-1.2177658,0.19557291,-9.895447
1743177494013379,1743177494013379,-1.3473182,0.15774812,-9.956149
1743177494065379,1743177494065379,-1.4150047,0.12669617,-9.934294
1743177494113379,1743177494113379,-1.5289204,0.10049941,-9.902023
1743177494165379,1743177494165379,-1.5528762,0.061800413,-9.8718815
1743177494213379,1743177494213379,-1.5964856,0.12842253,-9.815962
1743177494265379,1743177494265379,-1.6417315,0.08676684,-9.74722
