timestamp,counter,esc_count,esc_connectiontype,esc_online_flags,esc_armed_flags,_padding0[0],_padding0[1],esc[0].timestamp,esc[0].esc_errorcount,esc[0].esc_rpm,esc[0].esc_voltage,esc[0].esc_current,esc[0].esc_temperature,esc[0].failures,esc[0].esc_address,esc[0].esc_cmdcount,esc[0].esc_state,esc[0].actuator_function,esc[0].esc_power,esc[0]._padding0[0],esc[0]._padding0[1],esc[0]._padding0[2],esc[0]._padding0[3],esc[0]._padding0[4],esc[1].timestamp,esc[1].esc_errorcount,esc[1].esc_rpm,esc[1].esc_voltage,esc[1].esc_current,esc[1].esc_temperature,esc[1].failures,esc[1].esc_address,esc[1].esc_cmdcount,esc[1].esc_state,esc[1].actuator_function,esc[1].esc_power,esc[1]._padding0[0],esc[1]._padding0[1],esc[1]._padding0[2],esc[1]._padding0[3],esc[1]._padding0[4],esc[2].timestamp,esc[2].esc_errorcount,esc[2].esc_rpm,esc[2].esc_voltage,esc[2].esc_current,esc[2].esc_temperature,esc[2].failures,esc[2].esc_address,esc[2].esc_cmdcount,esc[2].esc_state,esc[2].actuator_function,esc[2].esc_power,esc[2]._padding0[0],esc[2]._padding0[1],esc[2]._padding0[2],esc[2]._padding0[3],esc[2]._padding0[4],esc[3].timestamp,esc[3].esc_errorcount,esc[3].esc_rpm,esc[3].esc_voltage,esc[3].esc_current,esc[3].esc_temperature,esc[3].failures,esc[3].esc_address,esc[3].esc_cmdcount,esc[3].esc_state,esc[3].actuator_function,esc[3].esc_power,esc[3]._padding0[0],esc[3]._padding0[1],esc[3]._padding0[2],esc[3]._padding0[3],esc[3]._padding0[4],esc[4].timestamp,esc[4].esc_errorcount,esc[4].esc_rpm,esc[4].esc_voltage,esc[4].esc_current,esc[4].esc_temperature,esc[4].failures,esc[4].esc_address,esc[4].esc_cmdcount,esc[4].esc_state,esc[4].actuator_function,esc[4].esc_power,esc[4]._padding0[0],esc[4]._padding0[1],esc[4]._padding0[2],esc[4]._padding0[3],esc[4]._padding0[4],esc[5].timestamp,esc[5].esc_errorcount,esc[5].esc_rpm,esc[5].esc_voltage,esc[5].esc_current,esc[5].esc_temperature,esc[5].failures,esc[5].esc_address,esc[5].esc_cmdcount,esc[5].esc_state,esc[5].actuator_function,esc[5].esc_power,esc[5]._padding0[0],esc[5]._padding0[1],esc[5]._padding0[2],esc[5]._padding0[3],esc[5]._padding0[4],esc[6].timestamp,esc[6].esc_errorcount,esc[6].esc_rpm,esc[6].esc_voltage,esc[6].esc_current,esc[6].esc_temperature,esc[6].failures,esc[6].esc_address,esc[6].esc_cmdcount,esc[6].esc_state,esc[6].actuator_function,esc[6].esc_power,esc[6]._padding0[0],esc[6]._padding0[1],esc[6]._padding0[2],esc[6]._padding0[3],esc[6]._padding0[4],esc[7].timestamp,esc[7].esc_errorcount,esc[7].esc_rpm,esc[7].esc_voltage,esc[7].esc_current,esc[7].esc_temperature,esc[7].failures,esc[7].esc_address,esc[7].esc_cmdcount,esc[7].esc_state,esc[7].actuator_function,esc[7].esc_power,esc[7]._padding0[0],esc[7]._padding0[1],esc[7]._padding0[2],esc[7]._padding0[3],esc[7]._padding0[4]
1743177449813379,0,4,0,15,15,0,0,1743177449813379,0,0,16.2,0.0,20.0,0,0,0,0,101,0,0,0,0,0,0,1743177449813379,0,0,16.2,0.0,20.0,0,0,0,0,102,0,0,0,0,0,0,1743177449813379,0,0,16.2,0.0,20.0,0,0,0,0,103,0,0,0,0,0,0,1743177449813379,0,0,16.2,0.0,20.0,0,0,0,0,104,0,0,0,0,0,0,1743177449813379,0,0,16.2,0.0,20.0,0,0,0,0,0,0,0,0,0,0,0,1743177449813379,0,0,16.2,0.0,20.0,0,0,0,0,0,0,0,0,0,0,0,1743177449813379,0,0,16.2,0.0,20.0,0,0,0,0,0,0,0,0,0,0,0,1743177449813379,0,0,16.2,0.0,20.0,0,0,0,0,0,0,0,0,0,0,0
1743177449817379,0,4,0,15,15,0,0,1743177449817379,0,0,16.2,0.0,20.0,0,0,0,0,101,0,0,0,0,0,0,1743177449817379,0,0,16.2,0.0,20.0,0,0,0,0,102,0,0,0,0,0,0,1743177449817379,0,0,16.2,0.0,20.0,0,0,0,0,103,0,0,0,0,0,0,1743177449817379,0,0,16.2,0.0,20.0,0,0,0,0,104,0,0,0,0,0,0,1743177449817379,0,0,16.2,0.0,20.0,0,0,0,0,0,0,0,0,0,0,0,1743177449817379,0,0,16.2,0.0,20.0,0,0,0,0,0,0,0,0,0,0,0,1743177449817379,0,0,16.2,0.0,20.0,0,0,0,0,0,0,0,0,0,0,0,1743177449817379,0,0,16.2,0.0,20.0,0,0,0,0,0,0,0,0,0,0,0
1743177450065379,0,4,0,15,15,0,0,1743177450065379,0,0,16.2,0.0,20.0,0,0,0,0,101,0,0,0,0,0,0,1743177450065379,0,0,16.2,0.0,20.0,0,0,0,0,102,0,0,0,0,0,0,1743177450065379,0,0,16.2,0.0,20.0,0,0,0,0,103,0,0,0,0,0,0,1743177450065379,0,0,16.2,0.0,20.0,0,0,0,0,104,0,0,0,0,0,0,1743177450065379,0,0,16.2,0.0,20.0,0,0,0,0,0,0,0,0,0,0,0,1743177450065379,0,0,16.2,0.0,20.0,0,0,0,0,0,0,0,0,0,0,0,1743177450065379,0,0,16.2,0.0,20.0,0,0,0,0,0,0,0,0,0,0,0,1743177450065379,0,0,16.2,0.0,20.0,0,0,0,0,0,0,0,0,0,0,0
1743177450309379,0,4,0,15,15,0,0,1743177450309379,0,0,16.2,0.0,20.0,0,0,0,0,101,0,0,0,0,0,0,1743177450309379,0,0,16.2,0.0,20.0,0,0,0,0,102,0,0,0,0,0,0,1743177450309379,0,0,16.2,0.0,20.0,0,0,0,0,103,0,0,0,0,0,0,1743177450309379,0,0,16.2,0.0,20.0,0,0,0,0,104,0,0,0,0,0,0,1743177450309379,0,0,16.2,0.0,20.0,0,0,0,0,0,0,0,0,0,0,0,1743177450309379,0,0,16.2,0.0,20.0,0,0,0,0,0,0,0,0,0,0,0,1743177450309379,0,0,16.2,0.0,20.0,0,0,0,0,0,0,0,0,0,0,0,1743177450309379,0,0,16.2,0.0,20.0,0,0,0,0,0,0,0,0,0,0,0
1743177450561379,0,4,0,15,15,0,0,1743177450561379,0,0,16.2,0.0,20.0,0,0,0,0,101,0,0,0,0,0,0,1743177450561379,0,0,16.2,0.0,20.0,0,0,0,0,102,0,0,0,0,0,0,1743177450561379,0,0,16.2,0.0,20.0,0,0,0,0,103,0,0,0,0,0,0,1743177450561379,0,0,16.2,0.0,20.0,0,0,0,0,104,0,0,0,0,0,0,1743177450561379,0,0,16.2,0.0,20.0,0,0,0,0,0,0,0,0,0,0,0,1743177450561379,0,0,16.2,0.0,20.0,0,0,0,0,0,0,0,0,0,0,0,1743177450561379,0,0,16.2,0.0,20.0,0,0,0,0,0,0,0,0,0,0,0,1743177450561379,0,0,16.2,0.0,20.0,0,0,0,0,0,0,0,0,0,0,0
1743177450809379,0,4,0,15,15,0,0,1743177450809379,0,0,16.2,0.0,20.0,0,0,0,0,101,0,0,0,0,0,0,1743177450809379,0,0,16.2,0.0,20.0,0,0,0,0,102,0,0,0,0,0,0,1743177450809379,0,0,16.2,0.0,20.0,0,0,0,0,103,0,0,0,0,0,0,1743177450809379,0,0,16.2,0.0,20.0,0,0,0,0,104,0,0,0,0,0,0,1743177450809379,0,0,16.2,0.0,20.0,0,0,0,0,0,0,0,0,0,0,0,1743177450809379,0,0,16.2,0.0,20.0,0,0,0,0,0,0,0,0,0,0,0,1743177450809379,0,0,16.2,0.0,20.0,0,0,0,0,0,0,0,0,0,0,0,1743177450809379,0,0,16.2,0.0,20.0,0,0,0,0,0,0,0,0,0,0,0
1743177451061379,0,4,0,15,15,0,0,1743177451061379,0,0,16.2,0.0,20.0,0,0,0,0,101,0,0,0,0,0,0,1743177451061379,0,0,16.2,0.0,20.0,0,0,0,0,102,0,0,0,0,0,0,1743177451061379,0,0,16.2,0.0,20.0,0,0,0,0,103,0,0,0,0,0,0,1743177451061379,0,0,16.2,0.0,20.0,0,0,0,0,104,0,0,0,0,0,0,1743177451061379,0,0,16.2,0.0,20.0,0,0,0,0,0,0,0,0,0,0,0,1743177451061379,0,0,16.2,0.0,20.0,0,0,0,0,0,0,0,0,0,0,0,1743177451061379,0,0,16.2,0.0,20.0,0,0,0,0,0,0,0,0,0,0,0,1743177451061379,0,0,16.2,0.0,20.0,0,0,0,0,0,0,0,0,0,0,0
1743177451309379,0,4,0,15,15,0,0,1743177451309379,0,0,16.2,0.0,20.0,0,0,0,0,101,0,0,0,0,0,0,1743177451309379,0,0,16.2,0.0,20.0,0,0,0,0,102,0,0,0,0,0,0,1743177451309379,0,0,16.2,0.0,20.0,0,0,0,0,103,0,0,0,0,0,0,1743177451309379,0,0,16.2,0.0,20.0,0,0,0,0,104,0,0,0,0,0,0,1743177451309379,0,0,16.2,0.0,20.0,0,0,0,0,0,0,0,0,0,0,0,1743177451309379,0,0,16.2,0.0,20.0,0,0,0,0,0,0,0,0,0,0,0,1743177451309379,0,0,16.2,0.0,20.0,0,0,0,0,0,0,0,0,0,0,0,1743177451309379,0,0,16.2,0.0,20.0,0,0,0,0,0,0,0,0,0,0,0
1743177451561379,0,4,0,15,15,0,0,1743177451561379,0,0,16.2,0.0,20.0,0,0,0,0,101,0,0,0,0,0,0,1743177451561379,0,0,16.2,0.0,20.0,0,0,0,0,102,0,0,0,0,0,0,1743177451561379,0,0,16.2,0.0,20.0,0,0,0,0,103,0,0,0,0,0,0,1743177451561379,0,0,16.2,0.0,20.0,0,0,0,0,104,0,0,0,0,0,0,1743177451561379,0,0,16.2,0.0,20.0,0,0,0,0,0,0,0,0,0,0,0,1743177451561379,0,0,16.2,0.0,20.0,0,0,0,0,0,0,0,0,0,0,0,1743177451561379,0,0,16.2,0.0,20.0,0,0,0,0,0,0,0,0,0,0,0,1743177451561379,0,0,16.2,0.0,20.0,0,0,0,0,0,0,0,0,0,0,0
1743177451809379,0,4,0,15,15,0,0,1743177451809379,0,0,16.2,0.0,20.0,0,0,0,0,101,0,0,0,0,0,0,1743177451809379,0,0,16.2,0.0,20.0,0,0,0,0,102,0,0,0,0,0,0,1743177451809379,0,0,16.2,0.0,20.0,0,0,0,0,103,0,0,0,0,0,0,1743177451809379,0,0,16.2,0.0,20.0,0,0,0,0,104,0,0,0,0,0,0,1743177451809379,0,0,16.2,0.0,20.0,0,0,0,0,0,0,0,0,0,0,0,1743177451809379,0,0,16.2,0.0,20.0,0,0,0,0,0,0,0,0,0,0,0,1743177451809379,0,0,16.2,0.0,20.0,0,0,0,0,0,0,0,0,0,0,0,1743177451809379,0,0,16.2,0.0,20.0,0,0,0,0,0,0,0,0,0,0,0
1743177452061379,0,4,0,15,15,0,0,1743177452061379,0,0,16.2,0.0,20.0,0,0,0,0,101,0,0,0,0,0,0,1743177452061379,0,0,16.2,0.0,20.0,0,0,0,0,102,0,0,0,0,0,0,1743177452061379,0,0,16.2,0.0,20.0,0,0,0,0,103,0,0,0,0,0,0,1743177452061379,0,0,16.2,0.0,20.0,0,0,0,0,104,0,0,0,0,0,0,1743177452061379,0,0,16.2,0.0,20.0,0,0,0,0,0,0,0,0,0,0,0,1743177452061379,0,0,16.2,0.0,20.0,0,0,0,0,0,0,0,0,0,0,0,1743177452061379,0,0,16.2,0.0,20.0,0,0,0,0,0,0,0,0,0,0,0,1743177452061379,0,0,16.2,0.0,20.0,0,0,0,0,0,0,0,0,0,0,0
1743177452309379,0,4,0,15,15,0,0,1743177452309379,0,0,16.2,0.0,20.0,0,0,0,0,101,0,0,0,0,0,0,1743177452309379,0,0,16.2,0.0,20.0,0,0,0,0,102,0,0,0,0,0,0,1743177452309379,0,0,16.2,0.0,20.0,0,0,0,0,103,0,0,0,0,0,0,1743177452309379,0,0,16.2,0.0,20.0,0,0,0,0,104,0,0,0,0,0,0,1743177452309379,0,0,16.2,0.0,20.0,0,0,0,0,0,0,0,0,0,0,0,1743177452309379,0,0,16.2,0.0,20.0,0,0,0,0,0,0,0,0,0,0,0,1743177452309379,0,0,16.2,0.0,20.0,0,0,0,0,0,0,0,0,0,0,0,1743177452309379,0,0,16.2,0.0,20.0,0,0,0,0,0,0,0,0,0,0,0
1743177452561379,0,4,0,15,15,0,0,1743177452561379,0,0,16.2,0.0,20.0,0,0,0,0,101,0,0,0,0,0,0,1743177452561379,0,0,16.2,0.0,20.0,0,0,0,0,102,0,0,0,0,0,0,1743177452561379,0,0,16.2,0.0,20.0,0,0,0,0,103,0,0,0,0,0,0,1743177452561379,0,0,16.2,0.0,20.0,0,0,0,0,104,0,0,0,0,0,0,1743177452561379,0,0,16.2,0.0,20.0,0,0,0,0,0,0,0,0,0,0,0,1743177452561379,0,0,16.2,0.0,20.0,0,0,0,0,0,0,0,0,0,0,0,1743177452561379,0,0,16.2,0.0,20.0,0,0,0,0,0,0,0,0,0,0,0,1743177452561379,0,0,16.2,0.0,20.0,0,0,0,0,0,0,0,0,0,0,0
1743177452809379,0,4,0,15,15,0,0,1743177452809379,0,0,16.2,0.0,20.0,0,0,0,0,101,0,0,0,0,0,0,1743177452809379,0,0,16.2,0.0,20.0,0,0,0,0,102,0,0,0,0,0,0,1743177452809379,0,0,16.2,0.0,20.0,0,0,0,0,103,0,0,0,0,0,0,1743177452809379,0,0,16.2,0.0,20.0,0,0,0,0,104,0,0,0,0,0,0,1743177452809379,0,0,16.2,0.0,20.0,0,0,0,0,0,0,0,0,0,0,0,1743177452809379,0,0,16.2,0.0,20.0,0,0,0,0,0,0,0,0,0,0,0,1743177452809379,0,0,16.2,0.0,20.0,0,0,0,0,0,0,0,0,0,0,0,1743177452809379,0,0,16.2,0.0,20.0,0,0,0,0,0,0,0,0,0,0,0
1743177453061379,0,4,0,15,15,0,0,1743177453061379,0,0,16.2,0.0,20.0,0,0,0,0,101,0,0,0,0,0,0,1743177453061379,0,0,16.2,0.0,20.0,0,0,0,0,102,0,0,0,0,0,0,1743177453061379,0,0,16.2,0.0,20.0,0,0,0,0,103,0,0,0,0,0,0,1743177453061379,0,0,16.2,0.0,20.0,0,0,0,0,104,0,0,0,0,0,0,1743177453061379,0,0,16.2,0.0,20.0,0,0,0,0,0,0,0,0,0,0,0,1743177453061379,0,0,16.2,0.0,20.0,0,0,0,0,0,0,0,0,0,0,0,1743177453061379,0,0,16.2,0.0,20.0,0,0,0,0,0,0,0,0,0,0,0,1743177453061379,0,0,16.2,0.0,20.0,0,0,0,0,0,0,0,0,0,0,0
1743177453309379,0,4,0,15,15,0,0,1743177453309379,0,0,16.2,0.0,20.0,0,0,0,0,101,0,0,0,0,0,0,1743177453309379,0,0,16.2,0.0,20.0,0,0,0,0,102,0,0,0,0,0,0,1743177453309379,0,0,16.2,0.0,20.0,0,0,0,0,103,0,0,0,0,0,0,1743177453309379,0,0,16.2,0.0,20.0,0,0,0,0,104,0,0,0,0,0,0,1743177453309379,0,0,16.2,0.0,20.0,0,0,0,0,0,0,0,0,0,0,0,1743177453309379,0,0,16.2,0.0,20.0,0,0,0,0,0,0,0,0,0,0,0,1743177453309379,0,0,16.2,0.0,20.0,0,0,0,0,0,0,0,0,0,0,0,1743177453309379,0,0,16.2,0.0,20.0,0,0,0,0,0,0,0,0,0,0,0
1743177453561379,0,4,0,15,15,0,0,1743177453561379,0,0,16.2,0.0,20.0,0,0,0,0,101,0,0,0,0,0,0,1743177453561379,0,0,16.2,0.0,20.0,0,0,0,0,102,0,0,0,0,0,0,1743177453561379,0,0,16.2,0.0,20.0,0,0,0,0,103,0,0,0,0,0,0,1743177453561379,0,0,16.2,0.0,20.0,0,0,0,0,104,0,0,0,0,0,0,1743177453561379,0,0,16.2,0.0,20.0,0,0,0,0,0,0,0,0,0,0,0,1743177453561379,0,0,16.2,0.0,20.0,0,0,0,0,0,0,0,0,0,0,0,1743177453561379,0,0,16.2,0.0,20.0,0,0,0,0,0,0,0,0,0,0,0,1743177453561379,0,0,16.2,0.0,20.0,0,0,0,0,0,0,0,0,0,0,0
1743177453809379,0,4,0,15,15,0,0,1743177453809379,0,0,16.2,0.0,20.0,0,0,0,0,101,0,0,0,0,0,0,1743177453809379,0,0,16.2,0.0,20.0,0,0,0,0,102,0,0,0,0,0,0,1743177453809379,0,0,16.2,0.0,20.0,0,0,0,0,103,0,0,0,0,0,0,1743177453809379,0,0,16.2,0.0,20.0,0,0,0,0,104,0,0,0,0,0,0,1743177453809379,0,0,16.2,0.0,20.0,0,0,0,0,0,0,0,0,0,0,0,1743177453809379,0,0,16.2,0.0,20.0,0,0,0,0,0,0,0,0,0,0,0,1743177453809379,0,0,16.2,0.0,20.0,0,0,0,0,0,0,0,0,0,0,0,1743177453809379,0,0,16.2,0.0,20.0,0,0,0,0,0,0,0,0,0,0,0
1743177454061379,0,4,0,15,15,0,0,1743177454061379,0,0,16.2,0.0,20.0,0,0,0,0,101,0,0,0,0,0,0,1743177454061379,0,0,16.2,0.0,20.0,0,0,0,0,102,0,0,0,0,0,0,1743177454061379,0,0,16.2,0.0,20.0,0,0,0,0,103,0,0,0,0,0,0,1743177454061379,0,0,16.2,0.0,20.0,0,0,0,0,104,0,0,0,0,0,0,1743177454061379,0,0,16.2,0.0,20.0,0,0,0,0,0,0,0,0,0,0,0,1743177454061379,0,0,16.2,0.0,20.0,0,0,0,0,0,0,0,0,0,0,0,1743177454061379,0,0,16.2,0.0,20.0,0,0,0,0,0,0,0,0,0,0,0,1743177454061379,0,0,16.2,0.0,20.0,0,0,0,0,0,0,0,0,0,0,0
1743177454309379,0,4,0,15,15,0,0,1743177454309379,0,0,16.2,0.0,20.0,0,0,0,0,101,0,0,0,0,0,0,1743177454309379,0,0,16.2,0.0,20.0,0,0,0,0,102,0,0,0,0,0,0,1743177454309379,0,0,16.2,0.0,20.0,0,0,0,0,103,0,0,0,0,0,0,1743177454309379,0,0,16.2,0.0,20.0,0,0,0,0,104,0,0,0,0,0,0,1743177454309379,0,0,16.2,0.0,20.0,0,0,0,0,0,0,0,0,0,0,0,1743177454309379,0,0,16.2,0.0,20.0,0,0,0,0,0,0,0,0,0,0,0,1743177454309379,0,0,16.2,0.0,20.0,0,0,0,0,0,0,0,0,0,0,0,1743177454309379,0,0,16.2,0.0,20.0,0,0,0,0,0,0,0,0,0,0,0
1743177454561379,0,4,0,15,15,0,0,1743177454561379,0,0,16.1994,1.0,20.0,0,0,0,0,101,0,0,0,0,0,0,1743177454561379,0,12,16.1994,1.03,20.08,0,0,0,0,102,0,0,0,0,0,0,1743177454561379,0,0,16.1994,1.0,20.0,0,0,0,0,103,0,0,0,0,0,0,1743177454561379,0,12,16.1994,1.03,20.08,0,0,0,0,104,0,0,0,0,0,0,1743177454561379,0,0,16.1994,1.0,20.0,0,0,0,0,0,0,0,0,0,0,0,1743177454561379,0,0,16.1994,1.0,20.0,0,0,0,0,0,0,0,0,0,0,0,1743177454561379,0,0,16.1994,1.0,20.0,0,0,0,0,0,0,0,0,0,0,0,1743177454561379,0,0,16.1994,1.0,20.0,0,0,0,0,0,0,0,0,0,0,0
1743177454809379,0,4,0,15,15,0,0,1743177454809379,0,0,16.191961,1.0,20.0,0,0,0,0,101,0,0,0,0,0,0,1743177454809379,0,12,16.191961,1.03,20.08,0,0,0,0,102,0,0,0,0,0,0,1743177454809379,0,0,16.191961,1.0,20.0,0,0,0,0,103,0,0,0,0,0,0,1743177454809379,0,12,16.191961,1.03,20.08,0,0,0,0,104,0,0,0,0,0,0,1743177454809379,0,0,16.191961,1.0,20.0,0,0,0,0,0,0,0,0,0,0,0,1743177454809379,0,0,16.191961,1.0,20.0,0,0,0,0,0,0,0,0,0,0,0,1743177454809379,0,0,16.191961,1.0,20.0,0,0,0,0,0,0,0,0,0,0,0,1743177454809379,0,0,16.191961,1.0,20.0,0,0,0,0,0,0,0,0,0,0,0
1743177455061379,0,4,0,15,15,0,0,1743177455061379,0,12,16.184402,1.03,20.08,0,0,0,0,101,0,0,0,0,0,0,1743177455061379,0,0,16.184402,1.0,20.0,0,0,0,0,102,0,0,0,0,0,0,1743177455061379,0,6,16.184402,1.015,20.04,0,0,0,0,103,0,0,0,0,0,0,1743177455061379,0,6,16.184402,1.015,20.04,0,0,0,0,104,0,0,0,0,0,0,1743177455061379,0,0,16.184402,1.0,20.0,0,0,0,0,0,0,0,0,0,0,0,1743177455061379,0,0,16.184402,1.0,20.0,0,0,0,0,0,0,0,0,0,0,0,1743177455061379,0,0,16.184402,1.0,20.0,0,0,0,0,0,0,0,0,0,0,0,1743177455061379,0,0,16.184402,1.0,20.0,0,0,0,0,0,0,0,0,0,0,0
1743177455309379,0,4,0,15,15,0,0,1743177455309379,0,12,16.176962,1.03,20.08,0,0,0,0,101,0,0,0,0,0,0,1743177455309379,0,0,16.176962,1.0,20.0,0,0,0,0,102,0,0,0,0,0,0,1743177455309379,0,12,16.176962,1.03,20.08,0,0,0,0,103,0,0,0,0,0,0,1743177455309379,0,0,16.176962,1.0,20.0,0,0,0,0,104,0,0,0,0,0,0,1743177455309379,0,0,16.176962,1.0,20.0,0,0,0,0,0,0,0,0,0,0,0,1743177455309379,0,0,16.176962,1.0,20.0,0,0,0,0,0,0,0,0,0,0,0,1743177455309379,0,0,16.176962,1.0,20.0,0,0,0,0,0,0,0,0,0,0,0,1743177455309379,0,0,16.176962,1.0,20.0,0,0,0,0,0,0,0,0,0,0,0
1743177455561379,0,4,0,15,15,0,0,1743177455561379,0,42,16.169403,1.105,20.28,0,0,0,0,101,0,0,0,0,0,0,1743177455561379,0,48,16.169403,1.12,20.32,0,0,0,0,102,0,0,0,0,0,0,1743177455561379,0,12,16.169403,1.03,20.08,0,0,0,0,103,0,0,0,0,0,0,1743177455561379,0,66,16.169403,1.165,20.44,0,0,0,0,104,0,0,0,0,0,0,1743177455561379,0,0,16.169403,1.0,20.0,0,0,0,0,0,0,0,0,0,0,0,1743177455561379,0,0,16.169403,1.0,20.0,0,0,0,0,0,0,0,0,0,0,0,1743177455561379,0,0,16.169403,1.0,20.0,0,0,0,0,0,0,0,0,0,0,0,1743177455561379,0,0,16.169403,1.0,20.0,0,0,0,0,0,0,0,0,0,0,0
1743177455809379,0,4,0,15,15,0,0,1743177455809379,0,318,16.161964,1.7950001,22.12,0,0,0,0,101,0,0,0,0,0,0,1743177455809379,0,288,16.161964,1.72,21.92,0,0,0,0,102,0,0,0,0,0,0,1743177455809379,0,318,16.161964,1.7950001,22.12,0,0,0,0,103,0,0,0,0,0,0,1743177455809379,0,300,16.161964,1.75,22.0,0,0,0,0,104,0,0,0,0,0,0,1743177455809379,0,0,16.161964,1.0,20.0,0,0,0,0,0,0,0,0,0,0,0,1743177455809379,0,0,16.161964,1.0,20.0,0,0,0,0,0,0,0,0,0,0,0,1743177455809379,0,0,16.161964,1.0,20.0,0,0,0,0,0,0,0,0,0,0,0,1743177455809379,0,0,16.161964,1.0,20.0,0,0,0,0,0,0,0,0,0,0,0
1743177456061379,0,4,0,15,15,0,0,1743177456061379,0,678,16.154404,2.6950002,24.52,0,0,0,0,101,0,0,0,0,0,0,1743177456061379,0,648,16.154404,2.62,24.32,0,0,0,0,102,0,0,0,0,0,0,1743177456061379,0,678,16.154404,2.6950002,24.52,0,0,0,0,103,0,0,0,0,0,0,1743177456061379,0,648,16.154404,2.62,24.32,0,0,0,0,104,0,0,0,0,0,0,1743177456061379,0,0,16.154404,1.0,20.0,0,0,0,0,0,0,0,0,0,0,0,1743177456061379,0,0,16.154404,1.0,20.0,0,0,0,0,0,0,0,0,0,0,0,1743177456061379,0,0,16.154404,1.0,20.0,0,0,0,0,0,0,0,0,0,0,0,1743177456061379,0,0,16.154404,1.0,20.0,0,0,0,0,0,0,0,0,0,0,0
1743177456309379,0,4,0,15,15,0,0,1743177456309379,0,1098,16.146965,3.7450001,27.32,0,0,0,0,101,0,0,0,0,0,0,1743177456309379,0,1092,16.146965,3.7300003,27.28,0,0,0,0,102,0,0,0,0,0,0,1743177456309379,0,1104,16.146965,3.7600002,27.36,0,0,0,0,103,0,0,0,0,0,0,1743177456309379,0,1080,16.146965,3.7,27.2,0,0,0,0,104,0,0,0,0,0,0,1743177456309379,0,0,16.146965,1.0,20.0,0,0,0,0,0,0,0,0,0,0,0,1743177456309379,0,0,16.146965,1.0,20.0,0,0,0,0,0,0,0,0,0,0,0,1743177456309379,0,0,16.146965,1.0,20.0,0,0,0,0,0,0,0,0,0,0,0,1743177456309379,0,0,16.146965,1.0,20.0,0,0,0,0,0,0,0,0,0,0,0
1743177456561379,0,4,0,15,15,0,0,1743177456561379,0,1584,16.139404,4.96,30.56,0,0,0,0,101,0,0,0,0,0,0,1743177456561379,0,1620,16.139404,5.05,30.800001,0,0,0,0,102,0,0,0,0,0,0,1743177456561379,0,1590,16.139404,4.9750004,30.6,0,0,0,0,103,0,0,0,0,0,0,1743177456561379,0,1608,16.139404,5.02,30.720001,0,0,0,0,104,0,0,0,0,0,0,1743177456561379,0,0,16.139404,1.0,20.0,0,0,0,0,0,0,0,0,0,0,0,1743177456561379,0,0,16.139404,1.0,20.0,0,0,0,0,0,0,0,0,0,0,0,1743177456561379,0,0,16.139404,1.0,20.0,0,0,0,0,0,0,0,0,0,0,0,1743177456561379,0,0,16.139404,1.0,20.0,0,0,0,0,0,0,0,0,0,0,0
1743177456809379,0,4,0,15,15,0,0,1743177456809379,0,2190,16.131966,6.4750004,34.6,0,0,0,0,101,0,0,0,0,0,0,1743177456809379,0,2184,16.131966,6.4600005,34.56,0,0,0,0,102,0,0,0,0,0,0,1743177456809379,0,2202,16.131966,6.505,34.68,0,0,0,0,103,0,0,0,0,0,0,1743177456809379,0,2184,16.131966,6.4600005,34.56,0,0,0,0,104,0,0,0,0,0,0,1743177456809379,0,0,16.131966,1.0,20.0,0,0,0,0,0,0,0,0,0,0,0,1743177456809379,0,0,16.131966,1.0,20.0,0,0,0,0,0,0,0,0,0,0,0,1743177456809379,0,0,16.131966,1.0,20.0,0,0,0,0,0,0,0,0,0,0,0,1743177456809379,0,0,16.131966,1.0,20.0,0,0,0,0,0,0,0,0,0,0,0
1743177457061379,0,4,0,15,15,0,0,1743177457061379,0,2436,16.124407,7.09,36.24,0,0,0,0,101,0,0,0,0,0,0,1743177457061379,0,2430,16.124407,7.0750003,36.2,0,0,0,0,102,0,0,0,0,0,0,1743177457061379,0,2442,16.124407,7.105,36.28,0,0,0,0,103,0,0,0,0,0,0,1743177457061379,0,2412,16.124407,7.03,36.08,0,0,0,0,104,0,0,0,0,0,0,1743177457061379,0,0,16.124407,1.0,20.0,0,0,0,0,0,0,0,0,0,0,0,1743177457061379,0,0,16.124407,1.0,20.0,0,0,0,0,0,0,0,0,0,0,0,1743177457061379,0,0,16.124407,1.0,20.0,0,0,0,0,0,0,0,0,0,0,0,1743177457061379,0,0,16.124407,1.0,20.0,0,0,0,0,0,0,0,0,0,0,0
1743177457309379,0,4,0,15,15,0,0,1743177457309379,0,2616,16.116966,7.5400004,37.440002,0,0,0,0,101,0,0,0,0,0,0,1743177457309379,0,2640,16.116966,7.6000004,37.600002,0,0,0,0,102,0,0,0,0,0,0,1743177457309379,0,2628,16.116966,7.57,37.52,0,0,0,0,103,0,0,0,0,0,0,1743177457309379,0,2622,16.116966,7.5550003,37.48,0,0,0,0,104,0,0,0,0,0,0,1743177457309379,0,0,16.116966,1.0,20.0,0,0,0,0,0,0,0,0,0,0,0,1743177457309379,0,0,16.116966,1.0,20.0,0,0,0,0,0,0,0,0,0,0,0,1743177457309379,0,0,16.116966,1.0,20.0,0,0,0,0,0,0,0,0,0,0,0,1743177457309379,0,0,16.116966,1.0,20.0,0,0,0,0,0,0,0,0,0,0,0
1743177457561379,0,4,0,15,15,0,0,1743177457561379,0,2826,16.109407,8.065001,38.84,0,0,0,0,101,0,0,0,0,0,0,1743177457561379,0,2850,16.109407,8.125,39.0,0,0,0,0,102,0,0,0,0,0,0,1743177457561379,0,2838,16.109407,8.095,38.920002,0,0,0,0,103,0,0,0,0,0,0,1743177457561379,0,2850,16.109407,8.125,39.0,0,0,0,0,104,0,0,0,0,0,0,1743177457561379,0,0,16.109407,1.0,20.0,0,0,0,0,0,0,0,0,0,0,0,1743177457561379,0,0,16.109407,1.0,20.0,0,0,0,0,0,0,0,0,0,0,0,1743177457561379,0,0,16.109407,1.0,20.0,0,0,0,0,0,0,0,0,0,0,0,1743177457561379,0,0,16.109407,1.0,20.0,0,0,0,0,0,0,0,0,0,0,0
1743177457809379,0,4,0,15,15,0,0,1743177457809379,0,3108,16.101967,8.77,40.72,0,0,0,0,101,0,0,0,0,0,0,1743177457809379,0,3096,16.101967,8.740001,40.64,0,0,0,0,102,0,0,0,0,0,0,1743177457809379,0,3120,16.101967,8.800001,40.800003,0,0,0,0,103,0,0,0,0,0,0,1743177457809379,0,3090,16.101967,8.725,40.600002,0,0,0,0,104,0,0,0,0,0,0,1743177457809379,0,0,16.101967,1.0,20.0,0,0,0,0,0,0,0,0,0,0,0,1743177457809379,0,0,16.101967,1.0,20.0,0,0,0,0,0,0,0,0,0,0,0,1743177457809379,0,0,16.101967,1.0,20.0,0,0,0,0,0,0,0,0,0,0,0,1743177457809379,0,0,16.101967,1.0,20.0,0,0,0,0,0,0,0,0,0,0,0
1743177458061379,0,4,0,15,15,0,0,1743177458061379,0,3384,16.094408,9.46,42.56,0,0,0,0,101,0,0,0,0,0,0,1743177458061379,0,3114,16.094408,8.785001,40.760002,0,0,0,0,102,0,0,0,0,0,0,1743177458061379,0,3192,16.094408,8.98,41.28,0,0,0,0,103,0,0,0,0,0,0,1743177458061379,0,3312,16.094408,9.280001,42.08,0,0,0,0,104,0,0,0,0,0,0,1743177458061379,0,0,16.094408,1.0,20.0,0,0,0,0,0,0,0,0,0,0,0,1743177458061379,0,0,16.094408,1.0,20.0,0,0,0,0,0,0,0,0,0,0,0,1743177458061379,0,0,16.094408,1.0,20.0,0,0,0,0,0,0,0,0,0,0,0,1743177458061379,0,0,16.094408,1.0,20.0,0,0,0,0,0,0,0,0,0,0,0
1743177458309379,0,4,0,15,15,0,0,1743177458309379,0,3198,16.08697,8.995001,41.320004,0,0,0,0,101,0,0,0,0,0,0,1743177458309379,0,3228,16.08697,9.070001,41.52,0,0,0,0,102,0,0,0,0,0,0,1743177458309379,0,3210,16.08697,9.025001,41.4,0,0,0,0,103,0,0,0,0,0,0,1743177458309379,0,3216,16.08697,9.04,41.440002,0,0,0,0,104,0,0,0,0,0,0,1743177458309379,0,0,16.08697,1.0,20.0,0,0,0,0,0,0,0,0,0,0,0,1743177458309379,0,0,16.08697,1.0,20.0,0,0,0,0,0,0,0,0,0,0,0,1743177458309379,0,0,16.08697,1.0,20.0,0,0,0,0,0,0,0,0,0,0,0,1743177458309379,0,0,16.08697,1.0,20.0,0,0,0,0,0,0,0,0,0,0,0
1743177458561379,0,4,0,15,15,0,0,1743177458561379,0,3198,16.079409,8.995001,41.320004,0,0,0,0,101,0,0,0,0,0,0,1743177458561379,0,3192,16.079409,8.98,41.28,0,0,0,0,102,0,0,0,0,0,0,1743177458561379,0,3186,16.079409,8.965,41.24,0,0,0,0,103,0,0,0,0,0,0,1743177458561379,0,3204,16.079409,9.01,41.36,0,0,0,0,104,0,0,0,0,0,0,1743177458561379,0,0,16.079409,1.0,20.0,0,0,0,0,0,0,0,0,0,0,0,1743177458561379,0,0,16.079409,1.0,20.0,0,0,0,0,0,0,0,0,0,0,0,1743177458561379,0,0,16.079409,1.0,20.0,0,0,0,0,0,0,0,0,0,0,0,1743177458561379,0,0,16.079409,1.0,20.0,0,0,0,0,0,0,0,0,0,0,0
1743177458809379,0,4,0,15,15,0,0,1743177458809379,0,3570,16.07197,9.925,43.800003,0,0,0,0,101,0,0,0,0,0,0,1743177458809379,0,3582,16.07197,9.955,43.88,0,0,0,0,102,0,0,0,0,0,0,1743177458809379,0,3588,16.07197,9.970001,43.920002,0,0,0,0,103,0,0,0,0,0,0,1743177458809379,0,3576,16.07197,9.940001,43.84,0,0,0,0,104,0,0,0,0,0,0,1743177458809379,0,0,16.07197,1.0,20.0,0,0,0,0,0,0,0,0,0,0,0,1743177458809379,0,0,16.07197,1.0,20.0,0,0,0,0,0,0,0,0,0,0,0,1743177458809379,0,0,16.07197,1.0,20.0,0,0,0,0,0,0,0,0,0,0,0,1743177458809379,0,0,16.07197,1.0,20.0,0,0,0,0,0,0,0,0,0,0,0
1743177459061379,0,4,0,15,15,0,0,1743177459061379,0,3690,16.064411,10.225,44.6,0,0,0,0,101,0,0,0,0,0,0,1743177459061379,0,3732,16.064411,10.330001,44.88,0,0,0,0,102,0,0,0,0,0,0,1743177459061379,0,3714,16.064411,10.285,44.760002,0,0,0,0,103,0,0,0,0,0,0,1743177459061379,0,3690,16.064411,10.225,44.6,0,0,0,0,104,0,0,0,0,0,0,1743177459061379,0,0,16.064411,1.0,20.0,0,0,0,0,0,0,0,0,0,0,0,1743177459061379,0,0,16.064411,1.0,20.0,0,0,0,0,0,0,0,0,0,0,0,1743177459061379,0,0,16.064411,1.0,20.0,0,0,0,0,0,0,0,0,0,0,0,1743177459061379,0,0,16.064411,1.0,20.0,0,0,0,0,0,0,0,0,0,0,0
1743177459309379,0,4,0,15,15,0,0,1743177459309379,0,3438,16.05697,9.595,42.920002,0,0,0,0,101,0,0,0,0,0,0,1743177459309379,0,3486,16.05697,9.715,43.24,0,0,0,0,102,0,0,0,0,0,0,1743177459309379,0,3450,16.05697,9.625001,43.0,0,0,0,0,103,0,0,0,0,0,0,1743177459309379,0,3474,16.05697,9.685,43.160004,0,0,0,0,104,0,0,0,0,0,0,1743177459309379,0,0,16.05697,1.0,20.0,0,0,0,0,0,0,0,0,0,0,0,1743177459309379,0,0,16.05697,1.0,20.0,0,0,0,0,0,0,0,0,0,0,0,1743177459309379,0,0,16.05697,1.0,20.0,0,0,0,0,0,0,0,0,0,0,0,1743177459309379,0,0,16.05697,1.0,20.0,0,0,0,0,0,0,0,0,0,0,0
1743177459561379,0,4,0,15,15,0,0,1743177459561379,0,3174,16.049412,8.935,41.160004,0,0,0,0,101,0,0,0,0,0,0,1743177459561379,0,3186,16.049412,8.965,41.24,0,0,0,0,102,0,0,0,0,0,0,1743177459561379,0,3180,16.049412,8.950001,41.2,0,0,0,0,103,0,0,0,0,0,0,1743177459561379,0,3180,16.049412,8.950001,41.2,0,0,0,0,104,0,0,0,0,0,0,1743177459561379,0,0,16.049412,1.0,20.0,0,0,0,0,0,0,0,0,0,0,0,1743177459561379,0,0,16.049412,1.0,20.0,0,0,0,0,0,0,0,0,0,0,0,1743177459561379,0,0,16.049412,1.0,20.0,0,0,0,0,0,0,0,0,0,0,0,1743177459561379,0,0,16.049412,1.0,20.0,0,0,0,0,0,0,0,0,0,0,0
1743177459809379,0,4,0,15,15,0,0,1743177459809379,0,3120,16.041971,8.800001,40.800003,0,0,0,0,101,0,0,0,0,0,0,1743177459809379,0,3174,16.041971,8.935,41.160004,0,0,0,0,102,0,0,0,0,0,0,1743177459809379,0,3138,16.041971,8.845,40.92,0,0,0,0,103,0,0,0,0,0,0,1743177459809379,0,3162,16.041971,8.905001,41.08,0,0,0,0,104,0,0,0,0,0,0,1743177459809379,0,0,16.041971,1.0,20.0,0,0,0,0,0,0,0,0,0,0,0,1743177459809379,0,0,16.041971,1.0,20.0,0,0,0,0,0,0,0,0,0,0,0,1743177459809379,0,0,16.041971,1.0,20.0,0,0,0,0,0,0,0,0,0,0,0,1743177459809379,0,0,16.041971,1.0,20.0,0,0,0,0,0,0,0,0,0,0,0
1743177460061379,0,4,0,15,15,0,0,1743177460061379,0,3168,16.034773,8.92,41.12,0,0,0,0,101,0,0,0,0,0,0,1743177460061379,0,3204,16.034773,9.01,41.36,0,0,0,0,102,0,0,0,0,0,0,1743177460061379,0,3174,16.034773,8.935,41.160004,0,0,0,0,103,0,0,0,0,0,0,1743177460061379,0,3192,16.034773,8.98,41.28,0,0,0,0,104,0,0,0,0,0,0,1743177460061379,0,0,16.034773,1.0,20.0,0,0,0,0,0,0,0,0,0,0,0,1743177460061379,0,0,16.034773,1.0,20.0,0,0,0,0,0,0,0,0,0,0,0,1743177460061379,0,0,16.034773,1.0,20.0,0,0,0,0,0,0,0,0,0,0,0,1743177460061379,0,0,16.034773,1.0,20.0,0,0,0,0,0,0,0,0,0,0,0
1743177460309379,0,4,0,15,15,0,0,1743177460309379,0,3228,16.027214,9.070001,41.52,0,0,0,0,101,0,0,0,0,0,0,1743177460309379,0,3150,16.027214,8.875,41.0,0,0,0,0,102,0,0,0,0,0,0,1743177460309379,0,3198,16.027214,8.995001,41.320004,0,0,0,0,103,0,0,0,0,0,0,1743177460309379,0,3186,16.027214,8.965,41.24,0,0,0,0,104,0,0,0,0,0,0,1743177460309379,0,0,16.027214,1.0,20.0,0,0,0,0,0,0,0,0,0,0,0,1743177460309379,0,0,16.027214,1.0,20.0,0,0,0,0,0,0,0,0,0,0,0,1743177460309379,0,0,16.027214,1.0,20.0,0,0,0,0,0,0,0,0,0,0,0,1743177460309379,0,0,16.027214,1.0,20.0,0,0,0,0,0,0,0,0,0,0,0
1743177460561379,0,4,0,15,15,0,0,1743177460561379,0,3150,16.019413,8.875,41.0,0,0,0,0,101,0,0,0,0,0,0,1743177460561379,0,3192,16.019413,8.98,41.28,0,0,0,0,102,0,0,0,0,0,0,1743177460561379,0,3156,16.019413,8.89,41.04,0,0,0,0,103,0,0,0,0,0,0,1743177460561379,0,3174,16.019413,8.935,41.160004,0,0,0,0,104,0,0,0,0,0,0,1743177460561379,0,0,16.019413,1.0,20.0,0,0,0,0,0,0,0,0,0,0,0,1743177460561379,0,0,16.019413,1.0,20.0,0,0,0,0,0,0,0,0,0,0,0,1743177460561379,0,0,16.019413,1.0,20.0,0,0,0,0,0,0,0,0,0,0,0,1743177460561379,0,0,16.019413,1.0,20.0,0,0,0,0,0,0,0,0,0,0,0
1743177460809379,0,4,0,15,15,0,0,1743177460809379,0,3156,16.011974,8.89,41.04,0,0,0,0,101,0,0,0,0,0,0,1743177460809379,0,3168,16.011974,8.92,41.12,0,0,0,0,102,0,0,0,0,0,0,1743177460809379,0,3168,16.011974,8.92,41.12,0,0,0,0,103,0,0,0,0,0,0,1743177460809379,0,3168,16.011974,8.92,41.12,0,0,0,0,104,0,0,0,0,0,0,1743177460809379,0,0,16.011974,1.0,20.0,0,0,0,0,0,0,0,0,0,0,0,1743177460809379,0,0,16.011974,1.0,20.0,0,0,0,0,0,0,0,0,0,0,0,1743177460809379,0,0,16.011974,1.0,20.0,0,0,0,0,0,0,0,0,0,0,0,1743177460809379,0,0,16.011974,1.0,20.0,0,0,0,0,0,0,0,0,0,0,0
1743177461061379,0,4,0,15,15,0,0,1743177461061379,0,3168,16.004416,8.92,41.12,0,0,0,0,101,0,0,0,0,0,0,1743177461061379,0,3168,16.004416,8.92,41.12,0,0,0,0,102,0,0,0,0,0,0,1743177461061379,0,3192,16.004416,8.98,41.28,0,0,0,0,103,0,0,0,0,0,0,1743177461061379,0,3150,16.004416,8.875,41.0,0,0,0,0,104,0,0,0,0,0,0,1743177461061379,0,0,16.004416,1.0,20.0,0,0,0,0,0,0,0,0,0,0,0,1743177461061379,0,0,16.004416,1.0,20.0,0,0,0,0,0,0,0,0,0,0,0,1743177461061379,0,0,16.004416,1.0,20.0,0,0,0,0,0,0,0,0,0,0,0,1743177461061379,0,0,16.004416,1.0,20.0,0,0,0,0,0,0,0,0,0,0,0
1743177461309379,0,4,0,15,15,0,0,1743177461309379,0,3168,15.996975,8.92,41.12,0,0,0,0,101,0,0,0,0,0,0,1743177461309379,0,3174,15.996975,8.935,41.160004,0,0,0,0,102,0,0,0,0,0,0,1743177461309379,0,3174,15.996975,8.935,41.160004,0,0,0,0,103,0,0,0,0,0,0,1743177461309379,0,3174,15.996975,8.935,41.160004,0,0,0,0,104,0,0,0,0,0,0,1743177461309379,0,0,15.996975,1.0,20.0,0,0,0,0,0,0,0,0,0,0,0,1743177461309379,0,0,15.996975,1.0,20.0,0,0,0,0,0,0,0,0,0,0,0,1743177461309379,0,0,15.996975,1.0,20.0,0,0,0,0,0,0,0,0,0,0,0,1743177461309379,0,0,15.996975,1.0,20.0,0,0,0,0,0,0,0,0,0,0,0
1743177461561379,0,4,0,15,15,0,0,1743177461561379,0,3174,15.989416,8.935,41.160004,0,0,0,0,101,0,0,0,0,0,0,1743177461561379,0,3180,15.989416,8.950001,41.2,0,0,0,0,102,0,0,0,0,0,0,1743177461561379,0,3168,15.989416,8.92,41.12,0,0,0,0,103,0,0,0,0,0,0,1743177461561379,0,3198,15.989416,8.995001,41.320004,0,0,0,0,104,0,0,0,0,0,0,1743177461561379,0,0,15.989416,1.0,20.0,0,0,0,0,0,0,0,0,0,0,0,1743177461561379,0,0,15.989416,1.0,20.0,0,0,0,0,0,0,0,0,0,0,0,1743177461561379,0,0,15.989416,1.0,20.0,0,0,0,0,0,0,0,0,0,0,0,1743177461561379,0,0,15.989416,1.0,20.0,0,0,0,0,0,0,0,0,0,0,0
1743177461809379,0,4,0,15,15,0,0,1743177461809379,0,3168,15.9819765,8.92,41.12,0,0,0,0,101,0,0,0,0,0,0,1743177461809379,0,3192,15.9819765,8.98,41.28,0,0,0,0,102,0,0,0,0,0,0,1743177461809379,0,3198,15.9819765,8.995001,41.320004,0,0,0,0,103,0,0,0,0,0,0,1743177461809379,0,3204,15.9819765,9.01,41.36,0,0,0,0,104,0,0,0,0,0,0,1743177461809379,0,0,15.9819765,1.0,20.0,0,0,0,0,0,0,0,0,0,0,0,1743177461809379,0,0,15.9819765,1.0,20.0,0,0,0,0,0,0,0,0,0,0,0,1743177461809379,0,0,15.9819765,1.0,20.0,0,0,0,0,0,0,0,0,0,0,0,1743177461809379,0,0,15.9819765,1.0,20.0,0,0,0,0,0,0,0,0,0,0,0
1743177462061379,0,4,0,15,15,0,0,1743177462061379,0,3180,15.974417,8.950001,41.2,0,0,0,0,101,0,0,0,0,0,0,1743177462061379,0,3192,15.974417,8.98,41.28,0,0,0,0,102,0,0,0,0,0,0,1743177462061379,0,3198,15.974417,8.995001,41.320004,0,0,0,0,103,0,0,0,0,0,0,1743177462061379,0,3222,15.974417,9.055,41.48,0,0,0,0,104,0,0,0,0,0,0,1743177462061379,0,0,15.974417,1.0,20.0,0,0,0,0,0,0,0,0,0,0,0,1743177462061379,0,0,15.974417,1.0,20.0,0,0,0,0,0,0,0,0,0,0,0,1743177462061379,0,0,15.974417,1.0,20.0,0,0,0,0,0,0,0,0,0,0,0,1743177462061379,0,0,15.974417,1.0,20.0,0,0,0,0,0,0,0,0,0,0,0
1743177462309379,0,4,0,15,15,0,0,1743177462309379,0,3210,15.966977,9.025001,41.4,0,0,0,0,101,0,0,0,0,0,0,1743177462309379,0,3186,15.966977,8.965,41.24,0,0,0,0,102,0,0,0,0,0,0,1743177462309379,0,3228,15.966977,9.070001,41.52,0,0,0,0,103,0,0,0,0,0,0,1743177462309379,0,3186,15.966977,8.965,41.24,0,0,0,0,104,0,0,0,0,0,0,1743177462309379,0,0,15.966977,1.0,20.0,0,0,0,0,0,0,0,0,0,0,0,1743177462309379,0,0,15.966977,1.0,20.0,0,0,0,0,0,0,0,0,0,0,0,1743177462309379,0,0,15.966977,1.0,20.0,0,0,0,0,0,0,0,0,0,0,0,1743177462309379,0,0,15.966977,1.0,20.0,0,0,0,0,0,0,0,0,0,0,0
1743177462561379,0,4,0,15,15,0,0,1743177462561379,0,3192,15.959418,8.98,41.28,0,0,0,0,101,0,0,0,0,0,0,1743177462561379,0,3234,15.959418,9.085001,41.56,0,0,0,0,102,0,0,0,0,0,0,1743177462561379,0,3186,15.959418,8.965,41.24,0,0,0,0,103,0,0,0,0,0,0,1743177462561379,0,3210,15.959418,9.025001,41.4,0,0,0,0,104,0,0,0,0,0,0,1743177462561379,0,0,15.959418,1.0,20.0,0,0,0,0,0,0,0,0,0,0,0,1743177462561379,0,0,15.959418,1.0,20.0,0,0,0,0,0,0,0,0,0,0,0,1743177462561379,0,0,15.959418,1.0,20.0,0,0,0,0,0,0,0,0,0,0,0,1743177462561379,0,0,15.959418,1.0,20.0,0,0,0,0,0,0,0,0,0,0,0
1743177462809379,0,4,0,15,15,0,0,1743177462809379,0,3240,15.951979,9.1,41.600002,0,0,0,0,101,0,0,0,0,0,0,1743177462809379,0,3216,15.951979,9.04,41.440002,0,0,0,0,102,0,0,0,0,0,0,1743177462809379,0,3174,15.951979,8.935,41.160004,0,0,0,0,103,0,0,0,0,0,0,1743177462809379,0,3192,15.951979,8.98,41.28,0,0,0,0,104,0,0,0,0,0,0,1743177462809379,0,0,15.951979,1.0,20.0,0,0,0,0,0,0,0,0,0,0,0,1743177462809379,0,0,15.951979,1.0,20.0,0,0,0,0,0,0,0,0,0,0,0,1743177462809379,0,0,15.951979,1.0,20.0,0,0,0,0,0,0,0,0,0,0,0,1743177462809379,0,0,15.951979,1.0,20.0,0,0,0,0,0,0,0,0,0,0,0
1743177463061379,0,4,0,15,15,0,0,1743177463061379,0,3258,15.944419,9.145,41.72,0,0,0,0,101,0,0,0,0,0,0,1743177463061379,0,3204,15.944419,9.01,41.36,0,0,0,0,102,0,0,0,0,0,0,1743177463061379,0,3204,15.944419,9.01,41.36,0,0,0,0,103,0,0,0,0,0,0,1743177463061379,0,3150,15.944419,8.875,41.0,0,0,0,0,104,0,0,0,0,0,0,1743177463061379,0,0,15.944419,1.0,20.0,0,0,0,0,0,0,0,0,0,0,0,1743177463061379,0,0,15.944419,1.0,20.0,0,0,0,0,0,0,0,0,0,0,0,1743177463061379,0,0,15.944419,1.0,20.0,0,0,0,0,0,0,0,0,0,0,0,1743177463061379,0,0,15.944419,1.0,20.0,0,0,0,0,0,0,0,0,0,0,0
1743177463309379,0,4,0,15,15,0,0,1743177463309379,0,3228,15.936979,9.070001,41.52,0,0,0,0,101,0,0,0,0,0,0,1743177463309379,0,3216,15.936979,9.04,41.440002,0,0,0,0,102,0,0,0,0,0,0,1743177463309379,0,3180,15.936979,8.950001,41.2,0,0,0,0,103,0,0,0,0,0,0,1743177463309379,0,3192,15.936979,8.98,41.28,0,0,0,0,104,0,0,0,0,0,0,1743177463309379,0,0,15.936979,1.0,20.0,0,0,0,0,0,0,0,0,0,0,0,1743177463309379,0,0,15.936979,1.0,20.0,0,0,0,0,0,0,0,0,0,0,0,1743177463309379,0,0,15.936979,1.0,20.0,0,0,0,0,0,0,0,0,0,0,0,1743177463309379,0,0,15.936979,1.0,20.0,0,0,0,0,0,0,0,0,0,0,0
1743177463561379,0,4,0,15,15,0,0,1743177463561379,0,3204,15.92942,9.01,41.36,0,0,0,0,101,0,0,0,0,0,0,1743177463561379,0,3204,15.92942,9.01,41.36,0,0,0,0,102,0,0,0,0,0,0,1743177463561379,0,3192,15.92942,8.98,41.28,0,0,0,0,103,0,0,0,0,0,0,1743177463561379,0,3198,15.92942,8.995001,41.320004,0,0,0,0,104,0,0,0,0,0,0,1743177463561379,0,0,15.92942,1.0,20.0,0,0,0,0,0,0,0,0,0,0,0,1743177463561379,0,0,15.92942,1.0,20.0,0,0,0,0,0,0,0,0,0,0,0,1743177463561379,0,0,15.92942,1.0,20.0,0,0,0,0,0,0,0,0,0,0,0,1743177463561379,0,0,15.92942,1.0,20.0,0,0,0,0,0,0,0,0,0,0,0
1743177463809379,0,4,0,15,15,0,0,1743177463809379,0,3198,15.921981,8.995001,41.320004,0,0,0,0,101,0,0,0,0,0,0,1743177463809379,0,3180,15.921981,8.950001,41.2,0,0,0,0,102,0,0,0,0,0,0,1743177463809379,0,3222,15.921981,9.055,41.48,0,0,0,0,103,0,0,0,0,0,0,1743177463809379,0,3198,15.921981,8.995001,41.320004,0,0,0,0,104,0,0,0,0,0,0,1743177463809379,0,0,15.921981,1.0,20.0,0,0,0,0,0,0,0,0,0,0,0,1743177463809379,0,0,15.921981,1.0,20.0,0,0,0,0,0,0,0,0,0,0,0,1743177463809379,0,0,15.921981,1.0,20.0,0,0,0,0,0,0,0,0,0,0,0,1743177463809379,0,0,15.921981,1.0,20.0,0,0,0,0,0,0,0,0,0,0,0
1743177464061379,0,4,0,15,15,0,0,1743177464061379,0,3192,15.914421,8.98,41.28,0,0,0,0,101,0,0,0,0,0,0,1743177464061379,0,3168,15.914421,8.92,41.12,0,0,0,0,102,0,0,0,0,0,0,1743177464061379,0,3228,15.914421,9.070001,41.52,0,0,0,0,103,0,0,0,0,0,0,1743177464061379,0,3204,15.914421,9.01,41.36,0,0,0,0,104,0,0,0,0,0,0,1743177464061379,0,0,15.914421,1.0,20.0,0,0,0,0,0,0,0,0,0,0,0,1743177464061379,0,0,15.914421,1.0,20.0,0,0,0,0,0,0,0,0,0,0,0,1743177464061379,0,0,15.914421,1.0,20.0,0,0,0,0,0,0,0,0,0,0,0,1743177464061379,0,0,15.914421,1.0,20.0,0,0,0,0,0,0,0,0,0,0,0
1743177464309379,0,4,0,15,15,0,0,1743177464309379,0,3186,15.906981,8.965,41.24,0,0,0,0,101,0,0,0,0,0,0,1743177464309379,0,3192,15.906981,8.98,41.28,0,0,0,0,102,0,0,0,0,0,0,1743177464309379,0,3210,15.906981,9.025001,41.4,0,0,0,0,103,0,0,0,0,0,0,1743177464309379,0,3204,15.906981,9.01,41.36,0,0,0,0,104,0,0,0,0,0,0,1743177464309379,0,0,15.906981,1.0,20.0,0,0,0,0,0,0,0,0,0,0,0,1743177464309379,0,0,15.906981,1.0,20.0,0,0,0,0,0,0,0,0,0,0,0,1743177464309379,0,0,15.906981,1.0,20.0,0,0,0,0,0,0,0,0,0,0,0,1743177464309379,0,0,15.906981,1.0,20.0,0,0,0,0,0,0,0,0,0,0,0
1743177464561379,0,4,0,15,15,0,0,1743177464561379,0,3186,15.899423,8.965,41.24,0,0,0,0,101,0,0,0,0,0,0,1743177464561379,0,3198,15.899423,8.995001,41.320004,0,0,0,0,102,0,0,0,0,0,0,1743177464561379,0,3192,15.899423,8.98,41.28,0,0,0,0,103,0,0,0,0,0,0,1743177464561379,0,3210,15.899423,9.025001,41.4,0,0,0,0,104,0,0,0,0,0,0,1743177464561379,0,0,15.899423,1.0,20.0,0,0,0,0,0,0,0,0,0,0,0,1743177464561379,0,0,15.899423,1.0,20.0,0,0,0,0,0,0,0,0,0,0,0,1743177464561379,0,0,15.899423,1.0,20.0,0,0,0,0,0,0,0,0,0,0,0,1743177464561379,0,0,15.899423,1.0,20.0,0,0,0,0,0,0,0,0,0,0,0
1743177464809379,0,4,0,15,15,0,0,1743177464809379,0,3198,15.891983,8.995001,41.320004,0,0,0,0,101,0,0,0,0,0,0,1743177464809379,0,3204,15.891983,9.01,41.36,0,0,0,0,102,0,0,0,0,0,0,1743177464809379,0,3198,15.891983,8.995001,41.320004,0,0,0,0,103,0,0,0,0,0,0,1743177464809379,0,3186,15.891983,8.965,41.24,0,0,0,0,104,0,0,0,0,0,0,1743177464809379,0,0,15.891983,1.0,20.0,0,0,0,0,0,0,0,0,0,0,0,1743177464809379,0,0,15.891983,1.0,20.0,0,0,0,0,0,0,0,0,0,0,0,1743177464809379,0,0,15.891983,1.0,20.0,0,0,0,0,0,0,0,0,0,0,0,1743177464809379,0,0,15.891983,1.0,20.0,0,0,0,0,0,0,0,0,0,0,0
1743177465061379,0,4,0,15,15,0,0,1743177465061379,0,3102,15.884423,8.755,40.68,0,0,0,0,101,0,0,0,0,0,0,1743177465061379,0,3084,15.884423,8.71,40.56,0,0,0,0,102,0,0,0,0,0,0,1743177465061379,0,3072,15.884423,8.68,40.48,0,0,0,0,103,0,0,0,0,0,0,1743177465061379,0,3072,15.884423,8.68,40.48,0,0,0,0,104,0,0,0,0,0,0,1743177465061379,0,0,15.884423,1.0,20.0,0,0,0,0,0,0,0,0,0,0,0,1743177465061379,0,0,15.884423,1.0,20.0,0,0,0,0,0,0,0,0,0,0,0,1743177465061379,0,0,15.884423,1.0,20.0,0,0,0,0,0,0,0,0,0,0,0,1743177465061379,0,0,15.884423,1.0,20.0,0,0,0,0,0,0,0,0,0,0,0
1743177465309379,0,4,0,15,15,0,0,1743177465309379,0,3090,15.876984,8.725,40.600002,0,0,0,0,101,0,0,0,0,0,0,1743177465309379,0,3114,15.876984,8.785001,40.760002,0,0,0,0,102,0,0,0,0,0,0,1743177465309379,0,3090,15.876984,8.725,40.600002,0,0,0,0,103,0,0,0,0,0,0,1743177465309379,0,3102,15.876984,8.755,40.68,0,0,0,0,104,0,0,0,0,0,0,1743177465309379,0,0,15.876984,1.0,20.0,0,0,0,0,0,0,0,0,0,0,0,1743177465309379,0,0,15.876984,1.0,20.0,0,0,0,0,0,0,0,0,0,0,0,1743177465309379,0,0,15.876984,1.0,20.0,0,0,0,0,0,0,0,0,0,0,0,1743177465309379,0,0,15.876984,1.0,20.0,0,0,0,0,0,0,0,0,0,0,0
1743177465561379,0,4,0,15,15,0,0,1743177465561379,0,3216,15.869784,9.04,41.440002,0,0,0,0,101,0,0,0,0,0,0,1743177465561379,0,3210,15.869784,9.025001,41.4,0,0,0,0,102,0,0,0,0,0,0,1743177465561379,0,3210,15.869784,9.025001,41.4,0,0,0,0,103,0,0,0,0,0,0,1743177465561379,0,3228,15.869784,9.070001,41.52,0,0,0,0,104,0,0,0,0,0,0,1743177465561379,0,0,15.869784,1.0,20.0,0,0,0,0,0,0,0,0,0,0,0,1743177465561379,0,0,15.869784,1.0,20.0,0,0,0,0,0,0,0,0,0,0,0,1743177465561379,0,0,15.869784,1.0,20.0,0,0,0,0,0,0,0,0,0,0,0,1743177465561379,0,0,15.869784,1.0,20.0,0,0,0,0,0,0,0,0,0,0,0
1743177465809379,0,4,0,15,15,0,0,1743177465809379,0,2970,15.861985,8.425001,39.800003,0,0,0,0,101,0,0,0,0,0,0,1743177465809379,0,2946,15.861985,8.365,39.64,0,0,0,0,102,0,0,0,0,0,0,1743177465809379,0,2976,15.861985,8.440001,39.84,0,0,0,0,103,0,0,0,0,0,0,1743177465809379,0,2994,15.861985,8.485001,39.96,0,0,0,0,104,0,0,0,0,0,0,1743177465809379,0,0,15.861985,1.0,20.0,0,0,0,0,0,0,0,0,0,0,0,1743177465809379,0,0,15.861985,1.0,20.0,0,0,0,0,0,0,0,0,0,0,0,1743177465809379,0,0,15.861985,1.0,20.0,0,0,0,0,0,0,0,0,0,0,0,1743177465809379,0,0,15.861985,1.0,20.0,0,0,0,0,0,0,0,0,0,0,0
1743177466061379,0,4,0,15,15,0,0,1743177466061379,0,2952,15.854425,8.38,39.68,0,0,0,0,101,0,0,0,0,0,0,1743177466061379,0,2940,15.854425,8.35,39.6,0,0,0,0,102,0,0,0,0,0,0,1743177466061379,0,2976,15.854425,8.440001,39.84,0,0,0,0,103,0,0,0,0,0,0,1743177466061379,0,2928,15.854425,8.320001,39.52,0,0,0,0,104,0,0,0,0,0,0,1743177466061379,0,0,15.854425,1.0,20.0,0,0,0,0,0,0,0,0,0,0,0,1743177466061379,0,0,15.854425,1.0,20.0,0,0,0,0,0,0,0,0,0,0,0,1743177466061379,0,0,15.854425,1.0,20.0,0,0,0,0,0,0,0,0,0,0,0,1743177466061379,0,0,15.854425,1.0,20.0,0,0,0,0,0,0,0,0,0,0,0
1743177466309379,0,4,0,15,15,0,0,1743177466309379,0,2958,15.846986,8.395,39.72,0,0,0,0,101,0,0,0,0,0,0,1743177466309379,0,2952,15.846986,8.38,39.68,0,0,0,0,102,0,0,0,0,0,0,1743177466309379,0,2940,15.846986,8.35,39.6,0,0,0,0,103,0,0,0,0,0,0,1743177466309379,0,2964,15.846986,8.41,39.760002,0,0,0,0,104,0,0,0,0,0,0,1743177466309379,0,0,15.846986,1.0,20.0,0,0,0,0,0,0,0,0,0,0,0,1743177466309379,0,0,15.846986,1.0,20.0,0,0,0,0,0,0,0,0,0,0,0,1743177466309379,0,0,15.846986,1.0,20.0,0,0,0,0,0,0,0,0,0,0,0,1743177466309379,0,0,15.846986,1.0,20.0,0,0,0,0,0,0,0,0,0,0,0
1743177466561379,0,4,0,15,15,0,0,1743177466561379,0,2970,15.839427,8.425001,39.800003,0,0,0,0,101,0,0,0,0,0,0,1743177466561379,0,2958,15.839427,8.395,39.72,0,0,0,0,102,0,0,0,0,0,0,1743177466561379,0,2976,15.839427,8.440001,39.84,0,0,0,0,103,0,0,0,0,0,0,1743177466561379,0,2952,15.839427,8.38,39.68,0,0,0,0,104,0,0,0,0,0,0,1743177466561379,0,0,15.839427,1.0,20.0,0,0,0,0,0,0,0,0,0,0,0,1743177466561379,0,0,15.839427,1.0,20.0,0,0,0,0,0,0,0,0,0,0,0,1743177466561379,0,0,15.839427,1.0,20.0,0,0,0,0,0,0,0,0,0,0,0,1743177466561379,0,0,15.839427,1.0,20.0,0,0,0,0,0,0,0,0,0,0,0
1743177466809379,0,4,0,15,15,0,0,1743177466809379,0,2988,15.831987,8.47,39.920002,0,0,0,0,101,0,0,0,0,0,0,1743177466809379,0,2994,15.831987,8.485001,39.96,0,0,0,0,102,0,0,0,0,0,0,1743177466809379,0,2988,15.831987,8.47,39.920002,0,0,0,0,103,0,0,0,0,0,0,1743177466809379,0,2994,15.831987,8.485001,39.96,0,0,0,0,104,0,0,0,0,0,0,1743177466809379,0,0,15.831987,1.0,20.0,0,0,0,0,0,0,0,0,0,0,0,1743177466809379,0,0,15.831987,1.0,20.0,0,0,0,0,0,0,0,0,0,0,0,1743177466809379,0,0,15.831987,1.0,20.0,0,0,0,0,0,0,0,0,0,0,0,1743177466809379,0,0,15.831987,1.0,20.0,0,0,0,0,0,0,0,0,0,0,0
1743177467061379,0,4,0,15,15,0,0,1743177467061379,0,2994,15.824428,8.485001,39.96,0,0,0,0,101,0,0,0,0,0,0,1743177467061379,0,3006,15.824428,8.515001,40.04,0,0,0,0,102,0,0,0,0,0,0,1743177467061379,0,2994,15.824428,8.485001,39.96,0,0,0,0,103,0,0,0,0,0,0,1743177467061379,0,3006,15.824428,8.515001,40.04,0,0,0,0,104,0,0,0,0,0,0,1743177467061379,0,0,15.824428,1.0,20.0,0,0,0,0,0,0,0,0,0,0,0,1743177467061379,0,0,15.824428,1.0,20.0,0,0,0,0,0,0,0,0,0,0,0,1743177467061379,0,0,15.824428,1.0,20.0,0,0,0,0,0,0,0,0,0,0,0,1743177467061379,0,0,15.824428,1.0,20.0,0,0,0,0,0,0,0,0,0,0,0
1743177467309379,0,4,0,15,15,0,0,1743177467309379,0,3030,15.816988,8.575,40.2,0,0,0,0,101,0,0,0,0,0,0,1743177467309379,0,2982,15.816988,8.455,39.88,0,0,0,0,102,0,0,0,0,0,0,1743177467309379,0,3000,15.816988,8.5,40.0,0,0,0,0,103,0,0,0,0,0,0,1743177467309379,0,3000,15.816988,8.5,40.0,0,0,0,0,104,0,0,0,0,0,0,1743177467309379,0,0,15.816988,1.0,20.0,0,0,0,0,0,0,0,0,0,0,0,1743177467309379,0,0,15.816988,1.0,20.0,0,0,0,0,0,0,0,0,0,0,0,1743177467309379,0,0,15.816988,1.0,20.0,0,0,0,0,0,0,0,0,0,0,0,1743177467309379,0,0,15.816988,1.0,20.0,0,0,0,0,0,0,0,0,0,0,0
1743177467561379,0,4,0,15,15,0,0,1743177467561379,0,3018,15.809429,8.545,40.120003,0,0,0,0,101,0,0,0,0,0,0,1743177467561379,0,2976,15.809429,8.440001,39.84,0,0,0,0,102,0,0,0,0,0,0,1743177467561379,0,2994,15.809429,8.485001,39.96,0,0,0,0,103,0,0,0,0,0,0,1743177467561379,0,2994,15.809429,8.485001,39.96,0,0,0,0,104,0,0,0,0,0,0,1743177467561379,0,0,15.809429,1.0,20.0,0,0,0,0,0,0,0,0,0,0,0,1743177467561379,0,0,15.809429,1.0,20.0,0,0,0,0,0,0,0,0,0,0,0,1743177467561379,0,0,15.809429,1.0,20.0,0,0,0,0,0,0,0,0,0,0,0,1743177467561379,0,0,15.809429,1.0,20.0,0,0,0,0,0,0,0,0,0,0,0
1743177467809379,0,4,0,15,15,0,0,1743177467809379,0,3036,15.80199,8.59,40.24,0,0,0,0,101,0,0,0,0,0,0,1743177467809379,0,3000,15.80199,8.5,40.0,0,0,0,0,102,0,0,0,0,0,0,1743177467809379,0,3024,15.80199,8.559999,40.16,0,0,0,0,103,0,0,0,0,0,0,1743177467809379,0,3000,15.80199,8.5,40.0,0,0,0,0,104,0,0,0,0,0,0,1743177467809379,0,0,15.80199,1.0,20.0,0,0,0,0,0,0,0,0,0,0,0,1743177467809379,0,0,15.80199,1.0,20.0,0,0,0,0,0,0,0,0,0,0,0,1743177467809379,0,0,15.80199,1.0,20.0,0,0,0,0,0,0,0,0,0,0,0,1743177467809379,0,0,15.80199,1.0,20.0,0,0,0,0,0,0,0,0,0,0,0
1743177468061379,0,4,0,15,15,0,0,1743177468061379,0,3024,15.79443,8.559999,40.16,0,0,0,0,101,0,0,0,0,0,0,1743177468061379,0,3012,15.79443,8.530001,40.08,0,0,0,0,102,0,0,0,0,0,0,1743177468061379,0,3024,15.79443,8.559999,40.16,0,0,0,0,103,0,0,0,0,0,0,1743177468061379,0,3018,15.79443,8.545,40.120003,0,0,0,0,104,0,0,0,0,0,0,1743177468061379,0,0,15.79443,1.0,20.0,0,0,0,0,0,0,0,0,0,0,0,1743177468061379,0,0,15.79443,1.0,20.0,0,0,0,0,0,0,0,0,0,0,0,1743177468061379,0,0,15.79443,1.0,20.0,0,0,0,0,0,0,0,0,0,0,0,1743177468061379,0,0,15.79443,1.0,20.0,0,0,0,0,0,0,0,0,0,0,0
1743177468309379,0,4,0,15,15,0,0,1743177468309379,0,3036,15.78699,8.59,40.24,0,0,0,0,101,0,0,0,0,0,0,1743177468309379,0,3000,15.78699,8.5,40.0,0,0,0,0,102,0,0,0,0,0,0,1743177468309379,0,3042,15.78699,8.6050005,40.280003,0,0,0,0,103,0,0,0,0,0,0,1743177468309379,0,3018,15.78699,8.545,40.120003,0,0,0,0,104,0,0,0,0,0,0,1743177468309379,0,0,15.78699,1.0,20.0,0,0,0,0,0,0,0,0,0,0,0,1743177468309379,0,0,15.78699,1.0,20.0,0,0,0,0,0,0,0,0,0,0,0,1743177468309379,0,0,15.78699,1.0,20.0,0,0,0,0,0,0,0,0,0,0,0,1743177468309379,0,0,15.78699,1.0,20.0,0,0,0,0,0,0,0,0,0,0,0
1743177468561379,0,4,0,15,15,0,0,1743177468561379,0,3036,15.779431,8.59,40.24,0,0,0,0,101,0,0,0,0,0,0,1743177468561379,0,3018,15.779431,8.545,40.120003,0,0,0,0,102,0,0,0,0,0,0,1743177468561379,0,3024,15.779431,8.559999,40.16,0,0,0,0,103,0,0,0,0,0,0,1743177468561379,0,3012,15.779431,8.530001,40.08,0,0,0,0,104,0,0,0,0,0,0,1743177468561379,0,0,15.779431,1.0,20.0,0,0,0,0,0,0,0,0,0,0,0,1743177468561379,0,0,15.779431,1.0,20.0,0,0,0,0,0,0,0,0,0,0,0,1743177468561379,0,0,15.779431,1.0,20.0,0,0,0,0,0,0,0,0,0,0,0,1743177468561379,0,0,15.779431,1.0,20.0,0,0,0,0,0,0,0,0,0,0,0
1743177468809379,0,4,0,15,15,0,0,1743177468809379,0,3054,15.771992,8.635,40.36,0,0,0,0,101,0,0,0,0,0,0,1743177468809379,0,3018,15.771992,8.545,40.120003,0,0,0,0,102,0,0,0,0,0,0,1743177468809379,0,3048,15.771992,8.620001,40.32,0,0,0,0,103,0,0,0,0,0,0,1743177468809379,0,3012,15.771992,8.530001,40.08,0,0,0,0,104,0,0,0,0,0,0,1743177468809379,0,0,15.771992,1.0,20.0,0,0,0,0,0,0,0,0,0,0,0,1743177468809379,0,0,15.771992,1.0,20.0,0,0,0,0,0,0,0,0,0,0,0,1743177468809379,0,0,15.771992,1.0,20.0,0,0,0,0,0,0,0,0,0,0,0,1743177468809379,0,0,15.771992,1.0,20.0,0,0,0,0,0,0,0,0,0,0,0
1743177469061379,0,4,0,15,15,0,0,1743177469061379,0,3030,15.764432,8.575,40.2,0,0,0,0,101,0,0,0,0,0,0,1743177469061379,0,3054,15.764432,8.635,40.36,0,0,0,0,102,0,0,0,0,0,0,1743177469061379,0,3036,15.764432,8.59,40.24,0,0,0,0,103,0,0,0,0,0,0,1743177469061379,0,3024,15.764432,8.559999,40.16,0,0,0,0,104,0,0,0,0,0,0,1743177469061379,0,0,15.764432,1.0,20.0,0,0,0,0,0,0,0,0,0,0,0,1743177469061379,0,0,15.764432,1.0,20.0,0,0,0,0,0,0,0,0,0,0,0,1743177469061379,0,0,15.764432,1.0,20.0,0,0,0,0,0,0,0,0,0,0,0,1743177469061379,0,0,15.764432,1.0,20.0,0,0,0,0,0,0,0,0,0,0,0
1743177469309379,0,4,0,15,15,0,0,1743177469309379,0,3060,15.756992,8.650001,40.4,0,0,0,0,101,0,0,0,0,0,0,1743177469309379,0,3018,15.756992,8.545,40.120003,0,0,0,0,102,0,0,0,0,0,0,1743177469309379,0,3048,15.756992,8.620001,40.32,0,0,0,0,103,0,0,0,0,0,0,1743177469309379,0,3030,15.756992,8.575,40.2,0,0,0,0,104,0,0,0,0,0,0,1743177469309379,0,0,15.756992,1.0,20.0,0,0,0,0,0,0,0,0,0,0,0,1743177469309379,0,0,15.756992,1.0,20.0,0,0,0,0,0,0,0,0,0,0,0,1743177469309379,0,0,15.756992,1.0,20.0,0,0,0,0,0,0,0,0,0,0,0,1743177469309379,0,0,15.756992,1.0,20.0,0,0,0,0,0,0,0,0,0,0,0
1743177469561379,0,4,0,15,15,0,0,1743177469561379,0,3018,15.7494335,8.545,40.120003,0,0,0,0,101,0,0,0,0,0,0,1743177469561379,0,3084,15.7494335,8.71,40.56,0,0,0,0,102,0,0,0,0,0,0,1743177469561379,0,3078,15.7494335,8.695,40.52,0,0,0,0,103,0,0,0,0,0,0,1743177469561379,0,3024,15.7494335,8.559999,40.16,0,0,0,0,104,0,0,0,0,0,0,1743177469561379,0,0,15.7494335,1.0,20.0,0,0,0,0,0,0,0,0,0,0,0,1743177469561379,0,0,15.7494335,1.0,20.0,0,0,0,0,0,0,0,0,0,0,0,1743177469561379,0,0,15.7494335,1.0,20.0,0,0,0,0,0,0,0,0,0,0,0,1743177469561379,0,0,15.7494335,1.0,20.0,0,0,0,0,0,0,0,0,0,0,0
1743177469809379,0,4,0,15,15,0,0,1743177469809379,0,3030,15.741994,8.575,40.2,0,0,0,0,101,0,0,0,0,0,0,1743177469809379,0,3030,15.741994,8.575,40.2,0,0,0,0,102,0,0,0,0,0,0,1743177469809379,0,3060,15.741994,8.650001,40.4,0,0,0,0,103,0,0,0,0,0,0,1743177469809379,0,3030,15.741994,8.575,40.2,0,0,0,0,104,0,0,0,0,0,0,1743177469809379,0,0,15.741994,1.0,20.0,0,0,0,0,0,0,0,0,0,0,0,1743177469809379,0,0,15.741994,1.0,20.0,0,0,0,0,0,0,0,0,0,0,0,1743177469809379,0,0,15.741994,1.0,20.0,0,0,0,0,0,0,0,0,0,0,0,1743177469809379,0,0,15.741994,1.0,20.0,0,0,0,0,0,0,0,0,0,0,0
1743177470061379,0,4,0,15,15,0,0,1743177470061379,0,3078,15.734434,8.695,40.52,0,0,0,0,101,0,0,0,0,0,0,1743177470061379,0,3198,15.734434,8.995001,41.320004,0,0,0,0,102,0,0,0,0,0,0,1743177470061379,0,2934,15.734434,8.335001,39.56,0,0,0,0,103,0,0,0,0,0,0,1743177470061379,0,3006,15.734434,8.515001,40.04,0,0,0,0,104,0,0,0,0,0,0,1743177470061379,0,0,15.734434,1.0,20.0,0,0,0,0,0,0,0,0,0,0,0,1743177470061379,0,0,15.734434,1.0,20.0,0,0,0,0,0,0,0,0,0,0,0,1743177470061379,0,0,15.734434,1.0,20.0,0,0,0,0,0,0,0,0,0,0,0,1743177470061379,0,0,15.734434,1.0,20.0,0,0,0,0,0,0,0,0,0,0,0
1743177470309379,0,4,0,15,15,0,0,1743177470309379,0,3288,15.7269945,9.22,41.920002,0,0,0,0,101,0,0,0,0,0,0,1743177470309379,0,3294,15.7269945,9.235001,41.96,0,0,0,0,102,0,0,0,0,0,0,1743177470309379,0,2820,15.7269945,8.05,38.800003,0,0,0,0,103,0,0,0,0,0,0,1743177470309379,0,2892,15.7269945,8.2300005,39.280003,0,0,0,0,104,0,0,0,0,0,0,1743177470309379,0,0,15.7269945,1.0,20.0,0,0,0,0,0,0,0,0,0,0,0,1743177470309379,0,0,15.7269945,1.0,20.0,0,0,0,0,0,0,0,0,0,0,0,1743177470309379,0,0,15.7269945,1.0,20.0,0,0,0,0,0,0,0,0,0,0,0,1743177470309379,0,0,15.7269945,1.0,20.0,0,0,0,0,0,0,0,0,0,0,0
1743177470561379,0,4,0,15,15,0,0,1743177470561379,0,3018,15.719436,8.545,40.120003,0,0,0,0,101,0,0,0,0,0,0,1743177470561379,0,2952,15.719436,8.38,39.68,0,0,0,0,102,0,0,0,0,0,0,1743177470561379,0,3240,15.719436,9.1,41.600002,0,0,0,0,103,0,0,0,0,0,0,1743177470561379,0,3198,15.719436,8.995001,41.320004,0,0,0,0,104,0,0,0,0,0,0,1743177470561379,0,0,15.719436,1.0,20.0,0,0,0,0,0,0,0,0,0,0,0,1743177470561379,0,0,15.719436,1.0,20.0,0,0,0,0,0,0,0,0,0,0,0,1743177470561379,0,0,15.719436,1.0,20.0,0,0,0,0,0,0,0,0,0,0,0,1743177470561379,0,0,15.719436,1.0,20.0,0,0,0,0,0,0,0,0,0,0,0
1743177470809379,0,4,0,15,15,0,0,1743177470809379,0,2964,15.711996,8.41,39.760002,0,0,0,0,101,0,0,0,0,0,0,1743177470809379,0,2826,15.711996,8.065001,38.84,0,0,0,0,102,0,0,0,0,0,0,1743177470809379,0,3432,15.711996,9.58,42.88,0,0,0,0,103,0,0,0,0,0,0,1743177470809379,0,3294,15.711996,9.235001,41.96,0,0,0,0,104,0,0,0,0,0,0,1743177470809379,0,0,15.711996,1.0,20.0,0,0,0,0,0,0,0,0,0,0,0,1743177470809379,0,0,15.711996,1.0,20.0,0,0,0,0,0,0,0,0,0,0,0,1743177470809379,0,0,15.711996,1.0,20.0,0,0,0,0,0,0,0,0,0,0,0,1743177470809379,0,0,15.711996,1.0,20.0,0,0,0,0,0,0,0,0,0,0,0
1743177471061379,0,4,0,15,15,0,0,1743177471061379,0,2892,15.704436,8.2300005,39.280003,0,0,0,0,101,0,0,0,0,0,0,1743177471061379,0,2892,15.704436,8.2300005,39.280003,0,0,0,0,102,0,0,0,0,0,0,1743177471061379,0,3252,15.704436,9.130001,41.68,0,0,0,0,103,0,0,0,0,0,0,1743177471061379,0,3234,15.704436,9.085001,41.56,0,0,0,0,104,0,0,0,0,0,0,1743177471061379,0,0,15.704436,1.0,20.0,0,0,0,0,0,0,0,0,0,0,0,1743177471061379,0,0,15.704436,1.0,20.0,0,0,0,0,0,0,0,0,0,0,0,1743177471061379,0,0,15.704436,1.0,20.0,0,0,0,0,0,0,0,0,0,0,0,1743177471061379,0,0,15.704436,1.0,20.0,0,0,0,0,0,0,0,0,0,0,0
1743177471309379,0,4,0,15,15,0,0,1743177471309379,0,3042,15.696997,8.6050005,40.280003,0,0,0,0,101,0,0,0,0,0,0,1743177471309379,0,3006,15.696997,8.515001,40.04,0,0,0,0,102,0,0,0,0,0,0,1743177471309379,0,3066,15.696997,8.665001,40.440002,0,0,0,0,103,0,0,0,0,0,0,1743177471309379,0,3084,15.696997,8.71,40.56,0,0,0,0,104,0,0,0,0,0,0,1743177471309379,0,0,15.696997,1.0,20.0,0,0,0,0,0,0,0,0,0,0,0,1743177471309379,0,0,15.696997,1.0,20.0,0,0,0,0,0,0,0,0,0,0,0,1743177471309379,0,0,15.696997,1.0,20.0,0,0,0,0,0,0,0,0,0,0,0,1743177471309379,0,0,15.696997,1.0,20.0,0,0,0,0,0,0,0,0,0,0,0
1743177471561379,0,4,0,15,15,0,0,1743177471561379,0,3138,15.689438,8.845,40.92,0,0,0,0,101,0,0,0,0,0,0,1743177471561379,0,3174,15.689438,8.935,41.160004,0,0,0,0,102,0,0,0,0,0,0,1743177471561379,0,2922,15.689438,8.305,39.48,0,0,0,0,103,0,0,0,0,0,0,1743177471561379,0,2946,15.689438,8.365,39.64,0,0,0,0,104,0,0,0,0,0,0,1743177471561379,0,0,15.689438,1.0,20.0,0,0,0,0,0,0,0,0,0,0,0,1743177471561379,0,0,15.689438,1.0,20.0,0,0,0,0,0,0,0,0,0,0,0,1743177471561379,0,0,15.689438,1.0,20.0,0,0,0,0,0,0,0,0,0,0,0,1743177471561379,0,0,15.689438,1.0,20.0,0,0,0,0,0,0,0,0,0,0,0
1743177471809379,0,4,0,15,15,0,0,1743177471809379,0,3228,15.681998,9.070001,41.52,0,0,0,0,101,0,0,0,0,0,0,1743177471809379,0,3192,15.681998,8.98,41.28,0,0,0,0,102,0,0,0,0,0,0,1743177471809379,0,2904,15.681998,8.26,39.36,0,0,0,0,103,0,0,0,0,0,0,1743177471809379,0,2874,15.681998,8.185,39.16,0,0,0,0,104,0,0,0,0,0,0,1743177471809379,0,0,15.681998,1.0,20.0,0,0,0,0,0,0,0,0,0,0,0,1743177471809379,0,0,15.681998,1.0,20.0,0,0,0,0,0,0,0,0,0,0,0,1743177471809379,0,0,15.681998,1.0,20.0,0,0,0,0,0,0,0,0,0,0,0,1743177471809379,0,0,15.681998,1.0,20.0,0,0,0,0,0,0,0,0,0,0,0
1743177472061379,0,4,0,15,15,0,0,1743177472061379,0,3138,15.674438,8.845,40.92,0,0,0,0,101,0,0,0,0,0,0,1743177472061379,0,3234,15.674438,9.085001,41.56,0,0,0,0,102,0,0,0,0,0,0,1743177472061379,0,2874,15.674438,8.185,39.16,0,0,0,0,103,0,0,0,0,0,0,1743177472061379,0,3018,15.674438,8.545,40.120003,0,0,0,0,104,0,0,0,0,0,0,1743177472061379,0,0,15.674438,1.0,20.0,0,0,0,0,0,0,0,0,0,0,0,1743177472061379,0,0,15.674438,1.0,20.0,0,0,0,0,0,0,0,0,0,0,0,1743177472061379,0,0,15.674438,1.0,20.0,0,0,0,0,0,0,0,0,0,0,0,1743177472061379,0,0,15.674438,1.0,20.0,0,0,0,0,0,0,0,0,0,0,0
1743177472309379,0,4,0,15,15,0,0,1743177472309379,0,3156,15.666999,8.89,41.04,0,0,0,0,101,0,0,0,0,0,0,1743177472309379,0,3114,15.666999,8.785001,40.760002,0,0,0,0,102,0,0,0,0,0,0,1743177472309379,0,3024,15.666999,8.559999,40.16,0,0,0,0,103,0,0,0,0,0,0,1743177472309379,0,3012,15.666999,8.530001,40.08,0,0,0,0,104,0,0,0,0,0,0,1743177472309379,0,0,15.666999,1.0,20.0,0,0,0,0,0,0,0,0,0,0,0,1743177472309379,0,0,15.666999,1.0,20.0,0,0,0,0,0,0,0,0,0,0,0,1743177472309379,0,0,15.666999,1.0,20.0,0,0,0,0,0,0,0,0,0,0,0,1743177472309379,0,0,15.666999,1.0,20.0,0,0,0,0,0,0,0,0,0,0,0
1743177472561379,0,4,0,15,15,0,0,1743177472561379,0,3042,15.659439,8.6050005,40.280003,0,0,0,0,101,0,0,0,0,0,0,1743177472561379,0,2994,15.659439,8.485001,39.96,0,0,0,0,102,0,0,0,0,0,0,1743177472561379,0,3132,15.659439,8.83,40.88,0,0,0,0,103,0,0,0,0,0,0,1743177472561379,0,3102,15.659439,8.755,40.68,0,0,0,0,104,0,0,0,0,0,0,1743177472561379,0,0,15.659439,1.0,20.0,0,0,0,0,0,0,0,0,0,0,0,1743177472561379,0,0,15.659439,1.0,20.0,0,0,0,0,0,0,0,0,0,0,0,1743177472561379,0,0,15.659439,1.0,20.0,0,0,0,0,0,0,0,0,0,0,0,1743177472561379,0,0,15.659439,1.0,20.0,0,0,0,0,0,0,0,0,0,0,0
1743177472809379,0,4,0,15,15,0,0,1743177472809379,0,2934,15.65224,8.335001,39.56,0,0,0,0,101,0,0,0,0,0,0,1743177472809379,0,2952,15.65224,8.38,39.68,0,0,0,0,102,0,0,0,0,0,0,1743177472809379,0,3192,15.65224,8.98,41.28,0,0,0,0,103,0,0,0,0,0,0,1743177472809379,0,3186,15.65224,8.965,41.24,0,0,0,0,104,0,0,0,0,0,0,1743177472809379,0,0,15.65224,1.0,20.0,0,0,0,0,0,0,0,0,0,0,0,1743177472809379,0,0,15.65224,1.0,20.0,0,0,0,0,0,0,0,0,0,0,0,1743177472809379,0,0,15.65224,1.0,20.0,0,0,0,0,0,0,0,0,0,0,0,1743177472809379,0,0,15.65224,1.0,20.0,0,0,0,0,0,0,0,0,0,0,0
1743177473061379,0,4,0,15,15,0,0,1743177473061379,0,2946,15.644441,8.365,39.64,0,0,0,0,101,0,0,0,0,0,0,1743177473061379,0,2916,15.644441,8.290001,39.440002,0,0,0,0,102,0,0,0,0,0,0,1743177473061379,0,3198,15.644441,8.995001,41.320004,0,0,0,0,103,0,0,0,0,0,0,1743177473061379,0,3156,15.644441,8.89,41.04,0,0,0,0,104,0,0,0,0,0,0,1743177473061379,0,0,15.644441,1.0,20.0,0,0,0,0,0,0,0,0,0,0,0,1743177473061379,0,0,15.644441,1.0,20.0,0,0,0,0,0,0,0,0,0,0,0,1743177473061379,0,0,15.644441,1.0,20.0,0,0,0,0,0,0,0,0,0,0,0,1743177473061379,0,0,15.644441,1.0,20.0,0,0,0,0,0,0,0,0,0,0,0
1743177473309379,0,4,0,15,15,0,0,1743177473309379,0,2994,15.637001,8.485001,39.96,0,0,0,0,101,0,0,0,0,0,0,1743177473309379,0,3024,15.637001,8.559999,40.16,0,0,0,0,102,0,0,0,0,0,0,1743177473309379,0,3120,15.637001,8.800001,40.800003,0,0,0,0,103,0,0,0,0,0,0,1743177473309379,0,3108,15.637001,8.77,40.72,0,0,0,0,104,0,0,0,0,0,0,1743177473309379,0,0,15.637001,1.0,20.0,0,0,0,0,0,0,0,0,0,0,0,1743177473309379,0,0,15.637001,1.0,20.0,0,0,0,0,0,0,0,0,0,0,0,1743177473309379,0,0,15.637001,1.0,20.0,0,0,0,0,0,0,0,0,0,0,0,1743177473309379,0,0,15.637001,1.0,20.0,0,0,0,0,0,0,0,0,0,0,0
1743177473561379,0,4,0,15,15,0,0,1743177473561379,0,2478,15.629442,7.195,36.52,0,0,0,0,101,0,0,0,0,0,0,1743177473561379,0,2466,15.629442,7.165,36.440002,0,0,0,0,102,0,0,0,0,0,0,1743177473561379,0,3582,15.629442,9.955,43.88,0,0,0,0,103,0,0,0,0,0,0,1743177473561379,0,3588,15.629442,9.970001,43.920002,0,0,0,0,104,0,0,0,0,0,0,1743177473561379,0,0,15.629442,1.0,20.0,0,0,0,0,0,0,0,0,0,0,0,1743177473561379,0,0,15.629442,1.0,20.0,0,0,0,0,0,0,0,0,0,0,0,1743177473561379,0,0,15.629442,1.0,20.0,0,0,0,0,0,0,0,0,0,0,0,1743177473561379,0,0,15.629442,1.0,20.0,0,0,0,0,0,0,0,0,0,0,0
1743177473809379,0,4,0,15,15,0,0,1743177473809379,0,1812,15.622003,5.53,32.08,0,0,0,0,101,0,0,0,0,0,0,1743177473809379,0,2046,15.622003,6.1150002,33.64,0,0,0,0,102,0,0,0,0,0,0,1743177473809379,0,4146,15.622003,11.365001,47.640003,0,0,0,0,103,0,0,0,0,0,0,1743177473809379,0,3978,15.622003,10.945001,46.52,0,0,0,0,104,0,0,0,0,0,0,1743177473809379,0,0,15.622003,1.0,20.0,0,0,0,0,0,0,0,0,0,0,0,1743177473809379,0,0,15.622003,1.0,20.0,0,0,0,0,0,0,0,0,0,0,0,1743177473809379,0,0,15.622003,1.0,20.0,0,0,0,0,0,0,0,0,0,0,0,1743177473809379,0,0,15.622003,1.0,20.0,0,0,0,0,0,0,0,0,0,0,0
1743177474061379,0,4,0,15,15,0,0,1743177474061379,0,2424,15.614443,7.0600004,36.16,0,0,0,0,101,0,0,0,0,0,0,1743177474061379,0,2424,15.614443,7.0600004,36.16,0,0,0,0,102,0,0,0,0,0,0,1743177474061379,0,3594,15.614443,9.985001,43.960003,0,0,0,0,103,0,0,0,0,0,0,1743177474061379,0,3696,15.614443,10.240001,44.640003,0,0,0,0,104,0,0,0,0,0,0,1743177474061379,0,0,15.614443,1.0,20.0,0,0,0,0,0,0,0,0,0,0,0,1743177474061379,0,0,15.614443,1.0,20.0,0,0,0,0,0,0,0,0,0,0,0,1743177474061379,0,0,15.614443,1.0,20.0,0,0,0,0,0,0,0,0,0,0,0,1743177474061379,0,0,15.614443,1.0,20.0,0,0,0,0,0,0,0,0,0,0,0
1743177474309379,0,4,0,15,15,0,0,1743177474309379,0,3180,15.607003,8.950001,41.2,0,0,0,0,101,0,0,0,0,0,0,1743177474309379,0,3246,15.607003,9.115,41.64,0,0,0,0,102,0,0,0,0,0,0,1743177474309379,0,3060,15.607003,8.650001,40.4,0,0,0,0,103,0,0,0,0,0,0,1743177474309379,0,3006,15.607003,8.515001,40.04,0,0,0,0,104,0,0,0,0,0,0,1743177474309379,0,0,15.607003,1.0,20.0,0,0,0,0,0,0,0,0,0,0,0,1743177474309379,0,0,15.607003,1.0,20.0,0,0,0,0,0,0,0,0,0,0,0,1743177474309379,0,0,15.607003,1.0,20.0,0,0,0,0,0,0,0,0,0,0,0,1743177474309379,0,0,15.607003,1.0,20.0,0,0,0,0,0,0,0,0,0,0,0
1743177474561379,0,4,0,15,15,0,0,1743177474561379,0,3870,15.599443,10.675,45.800003,0,0,0,0,101,0,0,0,0,0,0,1743177474561379,0,3738,15.599443,10.345,44.920002,0,0,0,0,102,0,0,0,0,0,0,1743177474561379,0,2628,15.599443,7.57,37.52,0,0,0,0,103,0,0,0,0,0,0,1743177474561379,0,2466,15.599443,7.165,36.440002,0,0,0,0,104,0,0,0,0,0,0,1743177474561379,0,0,15.599443,1.0,20.0,0,0,0,0,0,0,0,0,0,0,0,1743177474561379,0,0,15.599443,1.0,20.0,0,0,0,0,0,0,0,0,0,0,0,1743177474561379,0,0,15.599443,1.0,20.0,0,0,0,0,0,0,0,0,0,0,0,1743177474561379,0,0,15.599443,1.0,20.0,0,0,0,0,0,0,0,0,0,0,0
1743177474809379,0,4,0,15,15,0,0,1743177474809379,0,4584,15.592005,12.460001,50.56,0,0,0,0,101,0,0,0,0,0,0,1743177474809379,0,4488,15.592005,12.22,49.920002,0,0,0,0,102,0,0,0,0,0,0,1743177474809379,0,1584,15.592005,4.96,30.56,0,0,0,0,103,0,0,0,0,0,0,1743177474809379,0,1710,15.592005,5.2750006,31.400002,0,0,0,0,104,0,0,0,0,0,0,1743177474809379,0,0,15.592005,1.0,20.0,0,0,0,0,0,0,0,0,0,0,0,1743177474809379,0,0,15.592005,1.0,20.0,0,0,0,0,0,0,0,0,0,0,0,1743177474809379,0,0,15.592005,1.0,20.0,0,0,0,0,0,0,0,0,0,0,0,1743177474809379,0,0,15.592005,1.0,20.0,0,0,0,0,0,0,0,0,0,0,0
1743177475061379,0,4,0,15,15,0,0,1743177475061379,0,4008,15.584445,11.02,46.72,0,0,0,0,101,0,0,0,0,0,0,1743177475061379,0,4080,15.584445,11.2,47.2,0,0,0,0,102,0,0,0,0,0,0,1743177475061379,0,1998,15.584445,5.995,33.32,0,0,0,0,103,0,0,0,0,0,0,1743177475061379,0,2040,15.584445,6.1,33.6,0,0,0,0,104,0,0,0,0,0,0,1743177475061379,0,0,15.584445,1.0,20.0,0,0,0,0,0,0,0,0,0,0,0,1743177475061379,0,0,15.584445,1.0,20.0,0,0,0,0,0,0,0,0,0,0,0,1743177475061379,0,0,15.584445,1.0,20.0,0,0,0,0,0,0,0,0,0,0,0,1743177475061379,0,0,15.584445,1.0,20.0,0,0,0,0,0,0,0,0,0,0,0
