timestamp,timestamp_sample,time_last_fuse,device_id,observation[0],observation[1],observation[2],observation_variance[0],observation_variance[1],observation_variance[2],innovation[0],innovation[1],innovation[2],innovation_filtered[0],innovation_filtered[1],innovation_filtered[2],innovation_variance[0],innovation_variance[1],innovation_variance[2],test_ratio[0],test_ratio[1],test_ratio[2],test_ratio_filtered[0],test_ratio_filtered[1],test_ratio_filtered[2],estimator_instance,innovation_rejected,fused
1743177449789379,1743177449635217,0,0,0.0,0.0,0.0,0.09,0.09,0.20250002,-0.005080079,-0.0067109345,0.009036697,-0.0020978858,-0.0049051293,0.0034798174,0.09357157,0.09357158,0.20580223,1.103207e-05,1.9252275e-05,1.5871918e-05,-3.0257693e-06,-1.7966113e-05,6.6524663e-06,0,0,0
1743177449845379,1743177449687226,0,0,0.0,0.0,0.0,0.09,0.09,0.20250002,-0.00012742942,9.819325e-05,0.008548535,-0.001912234,-0.004433728,0.00395738,0.1299751,0.1299751,0.20592932,4.997344e-09,2.9673113e-09,1.41946675e-05,-2.7411593e-06,-1.6273108e-05,7.363075e-06,0,0,0
1743177449893379,1743177449739237,0,0,0.0,0.0,0.0,0.09,0.09,0.20250002,-0.0008236046,-0.00046510436,0.008931547,-0.0018096623,-0.0040598004,0.004426051,0.13006333,0.13006333,0.20628472,2.0861361e-07,6.652823e-08,1.5468435e-05,-2.5025404e-06,-1.4746109e-05,8.12677e-06,0,0,0
1743177449949379,1743177449791245,0,0,0.01,0.0,0.0,0.09,0.09,0.20250002,-0.010119184,-0.0005455203,0.009587742,-0.0025925525,-0.003728699,0.004912365,0.1302145,0.13021448,0.20672087,3.145514e-05,9.141606e-08,1.7787233e-05,-5.2303394e-06,-1.3365402e-05,9.03694e-06,0,0,0
1743177449997379,1743177449843254,0,0,0.0,0.0,0.0,0.09,0.09,0.20250002,0.0001934056,-0.00231804,0.011058018,-0.002330066,-0.00359579,0.0054913945,0.13036598,0.13036597,0.20711263,1.1477144e-08,1.6486847e-06,2.361609e-05,-4.7364674e-06,-1.226148e-05,1.0410554e-05,0,0,0
1743177450053379,1743177449895261,1743177449901379,0,0.0,0.0,0.0,0.09,0.09,0.20250002,0.0,0.0,0.0,0.0,0.0,0.0,0.09,0.09,0.20250002,0.0,0.0,0.0,0.0,0.0,0.0,0,0,1
1743177450101379,1743177449947269,1743177449949379,0,0.0,0.0,0.0,0.09,0.09,0.20250002,0.0005617634,-0.0007208946,0.00022276491,5.2927116e-05,-6.791983e-05,2.0988025e-05,0.18022662,0.18022661,0.40505156,7.0040294e-08,1.1534124e-07,4.900532e-09,6.5989183e-09,-1.0866993e-08,4.6170864e-10,0,0,1
1743177450157379,1743177449999276,1743177450005379,0,0.0,0.0,0.0,0.09,0.09,0.20250002,-0.0012443964,-0.0010585665,0.00070008636,-6.929941e-05,-0.00016125299,8.496885e-05,0.1355534,0.13555315,0.3037929,4.569483e-07,3.3066382e-07,6.453356e-08,-3.7073896e-08,-4.0996454e-08,6.498198e-09,0,0,1
1743177450205379,1743177450051283,1743177450053379,0,0.0,-0.01,0.0,0.09,0.09,0.20250002,-0.0009933694,0.010060728,0.0013952181,-0.00015636008,0.0008018046,0.00020841317,0.12084596,0.12084421,0.27000955,3.26625e-07,3.350371e-05,2.8837997e-07,-6.435377e-08,3.1193974e-06,3.3055514e-08,0,0,1
1743177450261379,1743177450103289,1743177450109379,0,0.0,0.0,0.0,0.09,0.09,0.20250002,-0.0016716783,-0.0038468204,0.0011638653,-0.00029912236,0.0003638449,0.00029842893,0.11390059,0.11389736,0.2531336,9.81385e-07,5.196969e-06,2.1405022e-07,-1.507498e-07,2.3358898e-06,5.0107523e-08,0,0,1
1743177450309379,1743177450155295,1743177450157379,0,0.0,0.0,0.0,0.09,0.09,0.20250002,-0.0018608846,-0.003164514,0.0007516816,-0.00044626027,3.1428557e-05,0.00034113112,0.10985488,0.10984949,0.24299233,1.2608967e-06,3.646498e-06,9.301122e-08,-2.5533978e-07,1.7722726e-06,5.41496e-08,0,0,1
1743177450365379,1743177450207300,1743177450213379,0,0.0,0.0,0.01,0.09,0.09,0.20250002,-0.0006707912,-0.0029927888,-0.007985355,-0.00046741357,-0.0002534863,-0.00044331636,0.107585266,0.10757792,0.23625737,1.6729459e-07,3.3303434e-06,1.0796006e-05,-2.4704494e-07,1.2915496e-06,-9.680555e-07,0,0,1
1743177450413379,1743177450259305,1743177450261379,0,0.0,0.0,0.0,0.09,0.09,0.20250002,-0.0010713924,-0.00332925,0.0036802068,-0.0005243151,-0.0005432574,-5.4834672e-05,0.10599449,0.10598519,0.23143494,4.3318545e-07,4.1831904e-06,2.3408604e-06,-2.6458144e-07,7.757683e-07,-6.563189e-07,0,0,1
1743177450469379,1743177450311309,1743177450317379,0,0.0,0.0,0.0,0.09,0.09,0.20250002,-0.002938005,-0.0026504651,0.0038999915,-0.0007517075,-0.0007417763,0.00031774738,0.10524644,0.105230264,0.22784947,3.2806329e-06,2.6703212e-06,2.6701723e-06,-5.48722e-07,4.5111403e-07,-3.4293194e-07,0,0,1
1743177450517379,1743177450363314,1743177450365379,0,-0.01,0.0,0.0,0.09,0.09,0.20250002,0.0073931296,-0.002431951,0.004302785,1.5626545e-05,-0.00090100954,0.00069318217,0.10457436,0.1045565,0.22504936,2.0906986e-05,2.2626564e-06,3.2906485e-06,1.4726438e-06,1.9544675e-07,-6.0830985e-10,0,0,1
1743177450573379,1743177450415318,1743177450421379,0,0.0,0.0,0.0,0.09,0.09,0.20250002,-0.0045062876,-0.0027133403,0.0041811466,-0.00041038057,-0.0010717482,0.0010217815,0.1044299,0.10440805,0.22284454,7.77809e-06,2.820555e-06,3.13797e-06,6.011372e-07,-8.868915e-08,2.9507547e-07,0,0,1
1743177450621379,1743177450467322,1743177450469379,0,0.0,0.0,0.0,0.09,0.09,0.20250002,-0.004177487,-0.0036560919,0.0037525296,-0.00076527765,-0.0013152178,0.0012790437,0.10412786,0.10410682,0.22102803,6.7038336e-06,5.1358816e-06,2.5483607e-06,-8.706019e-08,-5.641824e-07,5.073563e-07,0,0,1
1743177450677379,1743177450519326,1743177450525379,0,0.0,-0.01,0.0,0.09,0.09,0.20250002,-0.0039831605,0.0077518015,0.003854856,-0.0010684327,-0.00046101876,0.0015217096,0.10425175,0.104226306,0.21955274,6.087406e-06,2.306152e-05,2.7073063e-06,-6.523495e-07,1.6615824e-06,7.146124e-07,0,0,1
1743177450725379,1743177450571329,1743177450573379,0,0.0,0.0,0.0,0.09,0.09,0.20250002,-0.0042813914,-0.0038406937,0.0034650117,-0.0013711185,-0.0007794106,0.0017047839,0.10406988,0.10404418,0.21828994,7.045386e-06,5.6710246e-06,2.2000659e-06,-1.2546235e-06,9.707935e-07,8.545537e-07,0,0,1
1743177450781379,1743177450623332,1743177450629379,0,0.0,0.0,0.0,0.09,0.09,0.20250002,-0.0039863293,-0.0033348473,0.0029601008,-0.0016174917,-0.0010201527,0.0018230445,0.10422061,0.10419312,0.21724886,6.098917e-06,4.2694587e-06,1.6133013e-06,-1.7109938e-06,4.771208e-07,9.260337e-07,0,0,1
1743177450829379,1743177450675335,1743177450677379,0,0.0,0.0,0.0,0.09,0.09,0.20250002,-0.0036735653,-0.0026787387,0.0023855418,-0.0018111899,-0.0011764044,0.0018760362,0.104035005,0.10400805,0.21632974,5.18867e-06,2.7596484e-06,1.0522473e-06,-2.038618e-06,1.7219185e-07,9.3792397e-07,0,0,1
1743177450885379,1743177450727338,1743177450733379,0,0.0,0.0,0.0,0.09,0.09,0.20250002,-0.0037979488,-0.0016113135,0.0031727105,-0.0019983582,-0.0012173762,0.001998193,0.10416432,0.10413529,0.21556939,5.5391006e-06,9.972916e-07,1.8678146e-06,-2.3683908e-06,6.201736e-08,1.0255269e-06,0,0,1
1743177450933379,1743177450779341,1743177450781379,0,0.0,0.0,0.0,0.09,0.09,0.20250002,-0.0023398781,-0.0001778656,0.0038095936,-0.002030532,-0.0011194462,0.0021688412,0.10392594,0.10389875,0.21487904,2.107281e-06,1.2179617e-08,2.7016135e-06,-2.3437922e-06,5.502742e-08,1.1834273e-06,0,0,1
1743177450989379,1743177450831343,1743177450837379,0,0.0,0.0,0.0,0.09,0.09,0.20250002,-0.0012753825,0.00048667894,0.004445575,-0.0019593923,-0.0009681393,0.0023833236,0.10396145,0.103936076,0.2143116,6.258476e-07,9.115464e-08,3.6886736e-06,-2.1819512e-06,5.8430828e-08,1.419437e-06,0,0,1
1743177451037379,1743177450883346,1743177450885379,0,0.0,0.0,0.0,0.09,0.09,0.20250002,-0.0011531999,0.00055820827,0.003767714,-0.0018834427,-0.00082434545,0.002513744,0.10366529,0.103642315,0.21378164,5.131399e-07,1.202584e-07,2.656106e-06,-2.0247362e-06,6.425547e-08,1.5359409e-06,0,0,1
1743177451093379,1743177450935348,1743177450941379,0,0.0,0.0,0.0,0.09,0.09,0.20250002,-0.0011521359,0.0014597308,0.004082814,-0.0018145491,-0.00060917134,0.00266156,0.10364765,0.103624344,0.21335302,5.122807e-07,8.2251483e-07,3.1252184e-06,-1.8822535e-06,1.356882e-07,1.6856607e-06,0,0,1
1743177451141379,1743177450987350,1743177450989379,0,0.0,0.0,0.0,0.09,0.09,0.20250002,-0.0011248826,0.0016062489,0.004669504,-0.0017495783,-0.00040046504,0.0028507207,0.10330657,0.10328524,0.21294002,4.89944e-07,9.991885e-07,4.095851e-06,-1.7510894e-06,2.1703526e-07,1.9127156e-06,0,0,1
1743177451197379,1743177451039351,1743177451045379,0,0.0,0.0,0.0,0.09,0.09,0.20250002,-0.00028847935,0.0020640683,0.005149998,-0.0016119361,-0.00016829482,0.003067323,0.10321538,0.1031955,0.21261485,3.2251137e-08,1.6513814e-06,4.98977e-06,-1.589167e-06,3.5215717e-07,2.2025881e-06,0,0,1
1743177451245379,1743177451091353,1743177451093379,0,0.0,0.0,0.0,0.09,0.09,0.20250002,-0.0009681804,0.0015631735,0.004667565,-0.0015512904,-5.179798e-06,0.0032180757,0.102852,0.10283409,0.21228975,3.645523e-07,9.5046744e-07,4.1049866e-06,-1.4738007e-06,4.0852171e-07,2.3818059e-06,0,0,1
1743177451301379,1743177451143355,1743177451149379,0,0.0,0.0,0.0,0.09,0.09,0.20250002,-0.0016952844,0.0014807086,0.0038862824,-0.0015648556,0.00013480008,0.003281025,0.102736875,0.10271963,0.21204373,1.1189709e-06,8.537795e-07,2.849071e-06,-1.4403736e-06,4.5046775e-07,2.4258252e-06,0,0,1
1743177451349379,1743177451195357,1743177451197379,0,0.0,0.0,0.0,0.09,0.09,0.20250002,-0.0022950473,0.0011729333,0.0029705274,-0.0016336441,0.00023259864,0.0032517742,0.10236648,0.10235072,0.21178617,2.0581904e-06,5.3766985e-07,1.6665929e-06,-1.4985758e-06,4.5868273e-07,2.3543007e-06,0,0,1
1743177451405379,1743177451247358,1743177451253379,0,0.0,0.0,0.0,0.09,0.09,0.20250002,-0.0011406955,0.001250065,0.0031096563,-0.0015872061,0.0003284486,0.003238386,0.10221324,0.1022001,0.21160185,5.092046e-07,6.1160904e-07,1.8279542e-06,-1.4053726e-06,4.7308907e-07,2.3047164e-06,0,0,1
1743177451453379,1743177451299359,1743177451301379,0,0.0,0.0,0.0,0.09,0.09,0.20250002,-0.0012442967,0.0013018693,0.0048661157,-0.0015549025,0.00042014924,0.0033917255,0.10184534,0.10183358,0.21139698,6.080884e-07,6.657386e-07,4.4804956e-06,-1.3302648e-06,4.9123753e-07,2.5096847e-06,0,0,1
1743177451509379,1743177451351361,1743177451357379,0,0.0,0.0,0.0,0.09,0.09,0.20250002,3.0205498e-05,0.0018036943,0.0041798204,-0.0014055755,0.0005504878,0.0034659689,0.1016962,0.101686895,0.21126142,3.588618e-10,1.2797374e-06,3.3079202e-06,-1.2049118e-06,5.655191e-07,2.5848833e-06,0,0,1
1743177451557379,1743177451403362,1743177451405379,0,0.0,0.0,0.0,0.09,0.09,0.20250002,-0.0004550929,0.0011042869,0.0047365874,-0.0013160357,0.00060265814,0.003585667,0.10134226,0.101334564,0.21109803,8.174657e-08,4.813558e-07,4.251155e-06,-1.0991046e-06,5.575905e-07,2.7418537e-06,0,0,1
1743177451613379,1743177451455363,1743177451461379,0,0.0,0.0,0.0,0.09,0.09,0.20250002,-0.00012262829,0.00038469167,0.005534649,-0.0012036114,0.0005821247,0.00376927,0.10117411,0.10116872,0.21100125,5.945275e-09,5.851124e-08,5.807044e-06,-9.96124e-07,5.10575e-07,3.0306085e-06,0,0,1
1743177451661379,1743177451507364,1743177451509379,0,0.01,0.0,0.0,0.09,0.09,0.20250002,-0.00934922,0.00075176137,0.005134769,-0.0019709647,0.00059810525,0.003897906,0.10084119,0.10083732,0.21087068,3.4671513e-05,2.2418097e-07,5.001331e-06,-4.1684984e-06,4.835954e-07,3.2162595e-06,0,0,1
1743177451717379,1743177451559365,1743177451565379,0,0.0,0.0,0.0,0.09,0.09,0.20250002,0.0013750773,0.0011287341,0.0050714836,-0.0016557523,0.0006480929,0.004008462,0.10069156,0.10068746,0.21080478,7.511405e-07,5.061368e-07,4.880335e-06,-3.705046e-06,4.857189e-07,3.373023e-06,0,0,1
1743177451765379,1743177451611366,1743177451613379,0,0.0,0.0,0.0,0.09,0.09,0.20250002,0.0018223565,0.0020404917,0.004853897,-0.0013280987,0.00077926315,0.004088106,0.10036654,0.10036209,0.21070011,1.3235418e-06,1.6594338e-06,4.4727676e-06,-3.2313303e-06,5.9628815e-07,3.476624e-06,0,0,1
1743177451821379,1743177451663367,1743177451669379,0,0.0,0.0,0.0,0.09,0.09,0.20250002,0.0010780155,0.0018455433,0.0055458094,-0.0011014318,0.0008797116,0.004225428,0.10022184,0.100217596,0.2106587,4.6381805e-07,1.3594538e-06,5.839968e-06,-2.8832305e-06,6.681818e-07,3.6992617e-06,0,0,1
1743177451869379,1743177451715368,1743177451717379,0,0.0,0.0,0.0,0.09,0.09,0.20250002,0.0011602788,0.0011945067,0.0056750476,-0.0008883684,0.0009093667,0.004361989,0.09992994,0.0999272,0.21057434,5.388763e-07,5.711542e-07,6.1177757e-06,-2.5608526e-06,6.590414e-07,3.9270967e-06,0,0,1
1743177451925379,1743177451767368,1743177451773379,0,0.0,-0.01,0.0,0.09,0.09,0.20250002,0.0017444692,0.012048141,0.006713204,-0.0006403475,0.0019586717,0.0045834803,0.09979564,0.09979348,0.21055216,1.2197618e-06,5.818324e-05,8.5617e-06,-2.2047077e-06,6.077988e-06,4.3636896e-06,0,0,1
1743177451973379,1743177451819369,1743177451821379,0,0.0,0.0,0.0,0.09,0.09,0.20250002,0.0017137723,0.0010545322,0.005596496,-0.0004185787,0.0018734977,0.004678911,0.099511676,0.099509425,0.2104835,1.1805713e-06,4.470082e-07,5.9521567e-06,-1.8857991e-06,5.5475243e-06,4.5133306e-06,0,0,1
1743177452029379,1743177451871370,1743177451877379,0,0.0,0.0,0.0,0.09,0.09,0.20250002,0.0008795448,0.0015652962,0.005611637,-0.00029628957,0.0018444638,0.004766778,0.09938763,0.099384785,0.21047616,3.1134624e-07,9.861277e-07,5.9846157e-06,-1.678818e-06,5.11782e-06,4.651932e-06,0,0,1
1743177452077379,1743177451923370,1743177451925379,0,0.0,0.0,0.0,0.09,0.09,0.20250002,0.00034593677,0.001579306,0.006783724,-0.00023578998,0.0018194851,0.00495678,0.09913775,0.09913498,0.21041937,4.8285237e-08,1.0063884e-06,8.748037e-06,-1.5161198e-06,4.730511e-06,5.037797e-06,0,0,1
1743177452133379,1743177451975371,1743177451981379,0,0.0,0.0,0.0,0.09,0.09,0.20250002,-6.427366e-05,0.002214879,0.005813025,-0.00021963236,0.001856733,0.0050374423,0.09902582,0.099022776,0.21042319,1.6686976e-09,1.9816405e-06,6.4234864e-06,-1.3734516e-06,4.4715553e-06,5.1683355e-06,0,0,1
1743177452181379,1743177452027371,1743177452029379,0,0.0,0.0,0.0,0.09,0.09,0.20250002,0.00030373296,0.0024481742,0.006104484,-0.00017032982,0.0019124484,0.005137961,0.09877937,0.098777056,0.21037512,3.7357477e-08,2.4271048e-06,7.0853866e-06,-1.2405493e-06,4.278962e-06,5.3489275e-06,0,0,1
1743177452237379,1743177452079372,1743177452085379,0,0.0,0.0,0.0,0.09,0.09,0.20250002,-0.00042892387,0.0024919144,0.0064125657,-0.00019469055,0.0019670369,0.0052580344,0.098676115,0.09867376,0.21038699,7.457759e-08,2.5172394e-06,7.818164e-06,-1.1307095e-06,4.1129997e-06,5.581541e-06,0,0,1
1743177452285379,1743177452131372,1743177452133379,0,0.0,0.0,0.0,0.09,0.09,0.20250002,-0.00012918445,0.0023655288,0.0060190856,-0.00018851968,0.002004576,0.0053297277,0.09846576,0.09846416,0.21034497,6.7794614e-09,2.2732033e-06,6.8895188e-06,-1.024832e-06,3.9396855e-06,5.704756e-06,0,0,1
1743177452341379,1743177452183373,1743177452189379,0,0.0,0.0,0.0,0.09,0.09,0.20250002,-0.0014739368,0.002981076,0.005320944,-0.00030961182,0.0020965666,0.0053289,0.09837523,0.09837277,0.21036232,8.8334826e-07,3.6135261e-06,5.3835583e-06,-1.0115036e-06,3.9089596e-06,5.6744975e-06,0,0,1
1743177452389379,1743177452235373,1743177452237379,0,0.0,0.0,0.0,0.09,0.09,0.20250002,-0.0010913385,0.0018886165,0.0046290383,-0.00038325274,0.0020769772,0.005262971,0.09816222,0.09816114,0.21032418,4.853271e-07,1.4534763e-06,4.0752316e-06,-9.619363e-07,3.677646e-06,5.523842e-06,0,0,1
1743177452445379,1743177452287374,1743177452293379,0,0.0,0.0,0.0,0.09,0.09,0.20250002,-0.00085595367,0.0015570981,0.0040994287,-0.00042778332,0.0020280022,0.00515336,0.09808036,0.09808009,0.21034482,2.9879854e-07,9.88806e-07,3.195765e-06,-8.994657e-07,3.424345e-06,5.3045264e-06,0,0,1
1743177452493379,1743177452339374,1743177452341379,0,0.0,0.0,0.0,0.09,0.09,0.20250002,-0.0014814953,0.0017207876,0.0044606924,-0.00052704604,0.0019990616,0.0050881086,0.09790319,0.0979027,0.2103088,8.967341e-07,1.2098175e-06,3.7844875e-06,-8.992084e-07,3.2157302e-06,5.1613342e-06,0,0,1
1743177452549379,1743177452391374,1743177452397379,0,0.0,0.0,0.0,0.09,0.09,0.20250002,-0.0023287425,0.002895367,0.0051434264,-0.0006967711,0.0020834962,0.00509332,0.097832285,0.097831145,0.21033095,2.217281e-06,3.4276002e-06,5.0310873e-06,-1.0233747e-06,3.235689e-06,5.1490647e-06,0,0,1
1743177452597379,1743177452443375,1743177452445379,0,0.0,0.0,0.0,0.09,0.09,0.20250002,-0.0027455215,0.0033046536,0.0060400665,-0.00088977267,0.0021985348,0.0051825074,0.09764763,0.09764642,0.21029563,3.0877918e-06,4.473583e-06,6.9392604e-06,-1.2178522e-06,3.3523042e-06,5.317709e-06,0,0,1
1743177452653379,1743177452495375,1743177452501379,0,0.0,0.0,0.0,0.09,0.09,0.20250002,-0.0023749294,0.0041729887,0.0061071515,-0.0010296787,0.002384534,0.0052696117,0.097585656,0.09758471,0.21031785,2.3119337e-06,7.1379363e-06,7.0935116e-06,-1.3209178e-06,3.7089217e-06,5.4849947e-06,0,0,1
1743177452701379,1743177452547375,1743177452549379,0,0.0,0.0,0.0,0.09,0.09,0.20250002,-0.0019350703,0.0036943078,0.006408274,-0.0011149693,0.0025079185,0.0053768773,0.09743677,0.097436585,0.2102821,1.5372008e-06,5.602787e-06,7.811597e-06,-1.3412923e-06,3.8873295e-06,5.7041675e-06,0,0,1
1743177452757379,1743177452599376,1743177452605379,0,0.0,0.01,0.0,0.09,0.09,0.20250002,-0.0031018134,-0.007554353,0.0068297684,-0.001302139,0.0015600069,0.0055137463,0.09738369,0.09738391,0.21030326,3.9518923e-06,2.3440527e-05,8.872089e-06,-1.5872226e-06,1.3129215e-06,6.0026e-06,0,0,1
1743177452805379,1743177452651376,1743177452653379,0,0.0,-0.01,0.0,0.09,0.09,0.20250002,-0.0027386614,0.012072887,0.006167896,-0.0014374636,0.0025503507,0.005575369,0.09722341,0.09722434,0.21026623,3.0857864e-06,5.99663e-05,7.2370995e-06,-1.7283917e-06,6.83824e-06,6.1188935e-06,0,0,1
1743177452861379,1743177452703376,1743177452709379,0,0.0,0.0,0.0,0.09,0.09,0.20250002,-0.0029175302,0.0004510025,0.006422259,-0.0015768901,0.002352586,0.0056551485,0.09717881,0.097180165,0.21028545,3.5036373e-06,8.372213e-08,7.845604e-06,-1.895625e-06,6.201945e-06,6.2815548e-06,0,0,1
1743177452909379,1743177452755376,1743177452757379,0,0.0,0.0,0.0,0.09,0.09,0.20250002,-0.0028964959,-0.00050757104,0.005729426,-0.0017012008,0.002083151,0.0056621456,0.097053915,0.097055696,0.21024653,3.4577433e-06,1.0617754e-07,6.2453014e-06,-2.042781e-06,5.6077015e-06,6.2781396e-06,0,0,1
1743177452965379,1743177452807376,1743177452813379,0,0.0,0.0,0.0,0.09,0.09,0.20250002,-0.0035622923,-0.00057496387,0.0066199005,-0.001876521,0.0018327488,0.005752369,0.096993774,0.096995,0.21026316,5.2332957e-06,1.363301e-07,8.336807e-06,-2.3433367e-06,5.066597e-06,6.472072e-06,0,0,1
1743177453013379,1743177452859377,1743177452861379,0,0.0,0.0,0.0,0.09,0.09,0.20250002,-0.0036555568,-0.0017274524,0.007654831,-0.0020441143,0.0014973617,0.0059315893,0.09687813,0.096879564,0.21022193,5.5174864e-06,1.232083e-06,1.1149442e-05,-2.642356e-06,4.473233e-06,6.9127013e-06,0,0,1
1743177453069379,1743177452911377,1743177452917379,0,0.0,0.0,0.0,0.09,0.09,0.20250002,-0.004182392,-0.0021628854,0.0074107647,-0.0022455463,0.0011525558,0.006070932,0.096849695,0.0968513,0.21023552,7.2245557e-06,1.9320642e-06,1.04491255e-05,-3.0740125e-06,3.8698354e-06,7.245843e-06,0,0,1
1743177453117379,1743177452963377,1743177452965379,0,0.0,0.0,0.0,0.09,0.09,0.20250002,-0.0038343489,-0.001647841,0.0078013665,-0.0023952161,0.0008887503,0.006233944,0.09674397,0.09674605,0.21019173,6.07882e-06,1.1226834e-06,1.1582058e-05,-3.357074e-06,3.3995257e-06,7.6543265e-06,0,0,1
1743177453173379,1743177453015377,1743177453021379,0,0.0,0.0,0.0,0.09,0.09,0.20250002,-0.0040139854,-0.0011451246,0.006937638,-0.0025477088,0.0006971534,0.0063002342,0.09669719,0.0966992,0.210202,6.6649627e-06,5.424286e-07,9.158965e-06,-3.6686868e-06,3.0281822e-06,7.796068e-06,0,0,1
1743177453221379,1743177453067377,1743177453069379,0,0.0,0.0,0.0,0.09,0.09,0.20250002,-0.004053663,-0.001156696,0.0059652478,-0.0026895741,0.0005225154,0.0062686773,0.09660095,0.09660328,0.21015553,6.80415e-06,5.5399596e-07,6.772923e-06,-3.9640563e-06,2.6907305e-06,7.699685e-06,0,0,1
1743177453277379,1743177453119377,1743177453125379,0,0.0,0.0,0.0,0.09,0.09,0.20250002,-0.0043670344,-0.0013760473,0.0053255707,-0.0028475958,0.00034366525,0.006179834,0.096586294,0.096588954,0.21016231,7.89801e-06,7.841502e-07,5.3980566e-06,-4.3346463e-06,2.3633866e-06,7.482865e-06,0,0,1
1743177453325379,1743177453171378,1743177453173379,0,0.0,0.0,0.0,0.09,0.09,0.20250002,-0.004018915,-0.00058990123,0.005478628,-0.0029579394,0.00025571906,0.006113777,0.09649766,0.09650089,0.21011317,6.695158e-06,1.4424052e-07,5.714133e-06,-4.5570173e-06,2.1271567e-06,7.3162423e-06,0,0,1
1743177453381379,1743177453223378,1743177453229379,0,0.0,0.0,0.0,0.09,0.09,0.20250002,-0.0035668088,-5.4217217e-05,0.0063374266,-0.0030152968,0.00022652216,0.0061348453,0.09646064,0.09646364,0.21011645,5.2755713e-06,1.2189076e-09,7.645851e-06,-4.6247073e-06,1.9266574e-06,7.3472925e-06,0,0,1
1743177453429379,1743177453275378,1743177453277379,0,0.0,0.0,0.0,0.09,0.09,0.20250002,-0.004040323,-0.0013228052,0.0070113465,-0.0031118572,8.057103e-05,0.006217414,0.096378855,0.096381865,0.2100647,6.775018e-06,7.2620037e-07,9.360731e-06,-4.8272727e-06,1.6767506e-06,7.5369644e-06,0,0,1
1743177453485379,1743177453327378,1743177453333379,0,0.0,0.0,0.0,0.09,0.09,0.20250002,-0.00314438,-0.00092720264,0.007233478,-0.003114921,-1.4364181e-05,0.0063131303,0.09637488,0.09637873,0.21006452,4.103611e-06,3.568027e-07,9.963264e-06,-4.7591016e-06,1.4851839e-06,7.765529e-06,0,0,1
1743177453533379,1743177453379378,1743177453381379,0,0.0,0.0,0.0,0.09,0.09,0.20250002,-0.0031874918,-0.00026610444,0.0069767013,-0.0031217574,-3.8078848e-05,0.0063756406,0.09630011,0.09630452,0.21001033,4.2201837e-06,2.9411526e-08,9.270851e-06,-4.708334e-06,1.3425047e-06,7.907334e-06,0,0,1
1743177453589379,1743177453431378,1743177453437379,0,0.0,0.0,0.0,0.09,0.09,0.20250002,-0.0029440806,0.00068340753,0.007862655,-0.0031050197,2.988727e-05,0.006515722,0.096269615,0.09627433,0.21000682,3.60139e-06,1.9404793e-07,1.1775114e-05,-4.604057e-06,1.2343168e-06,8.271691e-06,0,0,1
1743177453637379,1743177453483378,1743177453485379,0,0.0,0.0,0.0,0.09,0.09,0.20250002,-0.0042182067,0.0010041425,0.005949691,-0.0032098852,0.00012166494,0.0064624,0.09620417,0.096208744,0.20995039,7.398128e-06,4.1921433e-07,6.744226e-06,-4.8672664e-06,1.1575318e-06,8.127799e-06,0,0,1
1743177453693379,1743177453535378,1743177453541379,0,0.0,0.0,0.0,0.09,0.09,0.20250002,-0.004061027,0.001520631,0.006104678,-0.0032900653,0.0002534516,0.0064287013,0.09620982,0.09621509,0.20994371,6.856656e-06,9.613123e-07,7.1003965e-06,-5.054673e-06,1.1390473e-06,8.031015e-06,0,0,1
1743177453741379,1743177453587378,1743177453589379,0,0.0,0.0,0.0,0.09,0.09,0.20250002,-0.004247699,0.002102023,0.0063738525,-0.0033802772,0.0004275924,0.0064235344,0.096145995,0.09615176,0.20988525,7.506479e-06,1.8381362e-06,7.742516e-06,-5.28564e-06,1.2049035e-06,8.003837e-06,0,0,1
1743177453797379,1743177453639378,1743177453645379,0,0.0,0.0,0.0,0.09,0.09,0.20250002,-0.0050645,0.002859531,0.0058534625,-0.003538936,0.0006566881,0.006369832,0.09612405,0.096129976,0.20987564,1.0673357e-05,3.4024422e-06,6.530157e-06,-5.7931784e-06,1.411918e-06,7.865012e-06,0,0,1
1743177453845379,1743177453691379,1743177453693379,0,0.0,0.0,0.0,0.09,0.09,0.20250002,-0.0062645636,0.0026428045,0.0045177415,-0.0037957025,0.0008437893,0.0061953566,0.096068755,0.0960746,0.20981543,1.634028e-05,2.9079135e-06,3.8910366e-06,-6.786763e-06,1.5528476e-06,7.490645e-06,0,0,1
1743177453901379,1743177453743379,1743177453749379,0,0.0,0.0,0.0,0.09,0.09,0.20250002,-0.006883755,0.002854602,0.0044224337,-0.004086606,0.0010332137,0.006028342,0.096082404,0.09608887,0.2098031,1.9727267e-05,3.3921733e-06,3.7288141e-06,-8.005796e-06,1.7261175e-06,7.1362697e-06,0,0,1
1743177453949379,1743177453795379,1743177453797379,0,-0.01,0.0,0.0,0.09,0.09,0.20250002,0.00413708,0.0027995675,0.0039556473,-0.0033119111,0.0011996094,0.0058330884,0.09602764,0.096034676,0.20974138,7.129377e-06,3.2644787e-06,2.9840835e-06,-6.5800186e-06,1.8710356e-06,6.7451215e-06,0,0,1
1743177454005379,1743177453847379,1743177453853379,0,0.0,0.0,0.0,0.09,0.09,0.20250002,-0.008003912,0.0019955446,0.005099334,-0.0037539112,0.0012745888,0.0057639666,0.09601062,0.09601769,0.2097266,2.6689802e-05,1.6589438e-06,4.9594482e-06,-8.474419e-06,1.8510559e-06,6.576906e-06,0,0,1
1743177454053379,1743177453899379,1743177453901379,0,0.0,0.0,0.0,0.09,0.09,0.20250002,-0.007665458,0.0005233304,0.0056655183,-0.0041223904,0.001203818,0.0057546925,0.095962234,0.095969036,0.20966363,2.4492654e-05,1.14151284e-07,6.1237324e-06,-9.983383e-06,1.6874344e-06,6.5342156e-06,0,0,1
1743177454109379,1743177453951379,1743177453957379,0,0.0,0.0,0.0,0.09,0.09,0.20250002,-0.0070331814,-0.00011099141,0.0056693256,-0.0043965955,0.0010799591,0.0057466505,0.095981844,0.09598908,0.20964666,2.0614581e-05,5.1335394e-09,6.1324613e-06,-1.0984873e-05,1.5279895e-06,6.496369e-06,0,0,1
1743177454157379,1743177454003379,1743177454005379,0,0.0,0.0,0.0,0.09,0.09,0.20250002,-0.007778295,0.00048643778,0.00446184,-0.0047151614,0.0010240476,0.0056256177,0.09593398,0.0959419,0.2095827,2.5226462e-05,9.865208e-08,3.799553e-06,-1.2326473e-05,1.3933418e-06,6.2423214e-06,0,0,1
1743177454213379,1743177454055379,1743177454061379,0,0.0,0.0,0.0,0.09,0.09,0.20250002,-0.007890369,0.000501413,0.0038404688,-0.005014275,0.00097481394,0.0054574516,0.095922835,0.09593099,0.20956378,2.5961668e-05,1.0483161e-07,2.8152197e-06,-1.36109475e-05,1.2719604e-06,5.9194786e-06,0,0,1
1743177454261379,1743177454107379,1743177454109379,0,0.0,0.01,0.01,0.09,0.09,0.20250002,-0.00705335,-0.008878666,-0.006095851,-0.005206362,4.6587433e-05,0.004369097,0.095880605,0.09588889,0.20949908,2.0754875e-05,3.288419e-05,7.094904e-06,-1.4283926e-05,-1.9456481e-06,4.693486e-06,0,0,1
1743177454317379,1743177454159379,1743177454165379,0,0.0,0.0,0.0,0.09,0.09,0.20250002,-0.007985839,0.0011889027,0.0036657006,-0.0054681967,0.00015419684,0.004302835,0.09590472,0.09591349,0.20947845,2.6598742e-05,5.894851e-07,2.5658696e-06,-1.5444017e-05,-1.7068312e-06,4.4930584e-06,0,0,1
1743177454365379,1743177454211379,1743177454213379,0,0.0,0.0,0.0,0.09,0.09,0.20250002,-0.008623492,0.001761327,0.002177231,-0.005765435,0.0003055932,0.004102597,0.09582925,0.095837995,0.20941326,3.104047e-05,1.2947988e-06,9.054508e-07,-1.6913247e-05,-1.424069e-06,4.155095e-06,0,0,1
1743177454421379,1743177454263379,1743177454269379,0,0.0,0.0,0.0,0.09,0.09,0.20250002,-0.009776414,0.0010139389,0.0027104989,-0.006143281,0.0003723214,0.0039714575,0.09585389,0.095863156,0.20939118,3.9884984e-05,4.289749e-07,1.4034601e-06,-1.9077252e-05,-1.2495068e-06,3.8958833e-06,0,0,1
1743177454469379,1743177454315379,1743177454317379,0,0.0,0.0,0.0,0.09,0.09,0.20250002,-0.008717451,-0.0002269003,0.002057217,-0.0063857753,0.00031587298,0.0037911304,0.09581709,0.09582581,0.2093257,3.1724594e-05,2.1490553e-08,8.087191e-07,-2.0268668e-05,-1.1338241e-06,3.6050635e-06,0,0,1
1743177454525379,1743177454367379,1743177454373379,0,0.0,0.0,0.0,0.09,0.09,0.20250002,-0.009393344,-0.00028344715,0.003533505,-0.006669097,0.00025941528,0.0037668613,0.09584275,0.09585211,0.20930237,3.6824862e-05,3.3527606e-08,2.3861473e-06,-2.182831e-05,-1.0301729e-06,3.490238e-06,0,0,1
1743177454573379,1743177454419379,1743177454421379,0,0.0,0.0,0.0,0.09,0.09,0.20250002,-0.0095302705,0.0008410031,0.0043657124,-0.006938628,0.00031420254,0.0038232747,0.09576976,0.095779054,0.20923682,3.793517e-05,2.953824e-07,3.6436122e-06,-2.3345623e-05,-9.0530176e-07,3.5046862e-06,0,0,1
1743177454629379,1743177454471379,1743177454477379,0,0.0,0.0,0.0,0.09,0.09,0.20250002,-0.008323115,0.0013168294,0.0045059174,-0.007069051,0.0004086529,0.0038875816,0.09579615,0.09580645,0.20921247,2.892569e-05,7.2397614e-07,3.881851e-06,-2.3871282e-05,-7.51819e-07,3.5402163e-06,0,0,1
1743177454677379,1743177454523379,1743177454525379,0,0.0,0.0,0.0,0.09,0.09,0.20250002,-0.00747845,0.001057614,0.0039553517,-0.0071076173,0.00046978693,0.0038939659,0.09575723,0.095768094,0.209147,2.3362085e-05,4.6719003e-07,2.9921166e-06,-2.3823313e-05,-6.3698485e-07,3.4885836e-06,0,0,1
1743177454733379,1743177454575379,1743177454581379,0,0.0,0.0,0.0,0.09,0.09,0.20250002,-0.0059478455,0.0007868494,0.003157407,-0.0069983634,0.00049965514,0.0038245798,0.09579026,0.09580151,0.20912182,1.4772636e-05,2.5850616e-07,1.906873e-06,-2.2970713e-05,-5.52627e-07,3.3395818e-06,0,0,1
1743177454781379,1743177454627379,1743177454629379,0,0.0,0.0,0.0,0.09,0.09,0.20250002,-0.0060042725,0.00046770208,0.001972273,-0.006904717,0.00049664505,0.0036500872,0.09572184,0.09573278,0.20905665,1.5065022e-05,9.139826e-08,7.4426924e-07,-2.2225973e-05,-4.9195796e-07,3.0950957e-06,0,0,1
1743177454837379,1743177454679379,1743177454685379,0,0.0,0.0,0.0,0.09,0.09,0.20250002,-0.006084035,0.00062563963,0.0037064776,-0.0068274066,0.0005087967,0.0036553992,0.09574845,0.09576023,0.20903082,1.546364e-05,1.635021e-07,2.62889e-06,-2.1588941e-05,-4.302117e-07,3.0511778e-06,0,0,1
1743177454885379,1743177454731379,1743177454733379,0,0.0,0.01,0.0,0.09,0.09,0.20250002,-0.0051193973,-0.008074637,0.003120277,-0.006666507,-0.0002997876,0.003604989,0.095710315,0.09572342,0.20896606,1.0953147e-05,2.7245058e-05,1.8636765e-06,-2.0587018e-05,-2.9562482e-06,2.9393118e-06,0,0,1
1743177454941379,1743177454783379,1743177454789379,0,0.0,0.0,0.0,0.09,0.09,0.20250002,-0.005593387,0.0026423626,0.0034769773,-0.006565416,-2.262852e-05,0.00359293,0.09574319,0.09575607,0.20893976,1.30707895e-05,2.916611e-06,2.3144225e-06,-1.9878968e-05,-2.4030078e-06,2.8804454e-06,0,0,1
1743177454989379,1743177454835379,1743177454837379,0,0.0,0.0,0.0,0.09,0.09,0.20250002,-0.00707185,0.0022880419,0.0034113303,-0.0066131237,0.00019504335,0.0035758228,0.09567624,0.09568894,0.20887555,2.0908456e-05,2.1883975e-06,2.2285371e-06,-1.9975949e-05,-1.970484e-06,2.8190339e-06,0,0,1
1743177455045379,1743177454887379,1743177454893379,0,0.0,0.0,0.0,0.09,0.09,0.20250002,-0.005488473,0.002584102,0.002624765,-0.0065071783,0.00042009962,0.0034862305,0.09570436,0.095718615,0.20884892,1.25901615e-05,2.790506e-06,1.3194976e-06,-1.9280185e-05,-1.5219848e-06,2.6777732e-06,0,0,1
1743177455093379,1743177454939379,1743177454941379,0,0.0,0.0,0.0,0.09,0.09,0.20250002,-0.0045851893,0.0021387837,0.00074876845,-0.0063261213,0.00058200466,0.0032283536,0.09566842,0.09568359,0.20878538,8.790345e-06,1.9123008e-06,1.0741254e-07,-1.8292012e-05,-1.1984652e-06,2.4356377e-06,0,0,1
1743177455149379,1743177454991379,1743177454997379,0,0.0,0.0,0.0,0.09,0.09,0.20250002,-0.0025907021,0.0009540811,0.0006528124,-0.005974234,0.00061705534,0.00298573,0.095701516,0.095717534,0.20875855,2.8052796e-06,3.8039872e-07,8.1656836e-08,-1.6833117e-05,-1.0497316e-06,2.2138859e-06,0,0,1
1743177455197379,1743177455043379,1743177455045379,0,0.0,-0.01,-0.01,0.09,0.09,0.20250002,-0.0021854686,0.010137074,0.012388321,-0.0056173215,0.0015138688,0.0038714814,0.095635496,0.09565171,0.2086958,1.9976987e-06,4.2972682e-05,2.9415158e-05,-1.5435577e-05,3.0973079e-06,4.7763247e-06,0,0,1
1743177455253379,1743177455095379,1743177455101379,0,0.0,-0.01,0.0,0.09,0.09,0.20250002,-0.0016245933,0.010006745,0.002201289,-0.0052411947,0.0023139224,0.0037141445,0.09566219,0.09567955,0.20866889,1.103593e-06,4.1862633e-05,9.288732e-07,-1.4085462e-05,6.7491146e-06,4.4138837e-06,0,0,1
1743177455301379,1743177455147379,1743177455149379,0,0.0,0.0,0.0,0.09,0.09,0.20250002,-0.0011726693,-0.0010105165,0.0022898093,-0.004857928,0.0020007505,0.003579968,0.09562502,0.09564288,0.20860699,5.7522743e-07,4.2706523e-07,1.0053789e-06,-1.28127585e-05,6.0730977e-06,4.0927926e-06,0,0,1
1743177455357379,1743177455199379,1743177455205379,0,0.0,0.0,0.0,0.09,0.09,0.20250002,-0.00038286243,-0.0026671942,0.0013102699,-0.004436364,0.0015610165,0.0033661558,0.095652916,0.09567137,0.2085801,6.129814e-08,2.9743173e-06,3.2923703e-07,-1.1611533e-05,5.2208047e-06,3.7382547e-06,0,0,1
1743177455405379,1743177455251379,1743177455253379,0,0.0,0.0,0.0,0.09,0.09,0.20250002,-1.0469884e-06,-0.0021243514,0.0016527995,-0.004018544,0.0012138442,0.0032047527,0.095594496,0.09561205,0.20851915,4.586811e-13,1.8879917e-06,5.240279e-07,-1.0517693e-05,4.5511356e-06,3.4354653e-06,0,0,1
1743177455461379,1743177455303379,1743177455309379,0,0.0,0.0,0.0,0.09,0.09,0.20250002,0.0009405292,-0.0032522194,0.00299564,-0.0035513851,0.00079312804,0.0031850536,0.09562008,0.09563842,0.2084924,3.700458e-07,4.4237167e-06,1.7216665e-06,-9.492036e-06,3.7056784e-06,3.2740204e-06,0,0,1
1743177455509379,1743177455355379,1743177455357379,0,0.0,0.0,0.0,0.09,0.09,0.20250002,0.0007907594,-0.003537677,0.0028240085,-0.0031423424,0.00038515363,0.0031510422,0.09558263,0.09560103,0.20843242,2.6167953e-07,5.236411e-06,1.5304765e-06,-8.573208e-06,2.8633076e-06,3.1097734e-06,0,0,1
1743177455565379,1743177455407379,1743177455413379,0,0.0,0.0,0.0,0.09,0.09,0.20250002,0.0027771867,-0.004811981,0.0053370097,-0.0025847056,-0.00010443159,0.0033569667,0.09558207,0.09560262,0.2084059,3.2277044e-06,9.688088e-06,5.466961e-06,-7.4615277e-06,1.6809297e-06,3.3318272e-06,0,0,1
1743177455613379,1743177455459379,1743177455461379,0,0.0,0.0,0.0,0.09,0.09,0.20250002,0.00396934,-0.0050316905,0.005119808,-0.0019672955,-0.00056859374,0.0035230315,0.09555005,0.0955711,0.20834696,6.595773e-06,1.0596471e-05,5.0324584e-06,-6.1372893e-06,5.243629e-07,3.4920315e-06,0,0,1
1743177455669379,1743177455511379,1743177455517379,0,0.0,0.0,0.0,0.09,0.09,0.20250002,0.005076397,-0.0046831174,0.0043504685,-0.0013037592,-0.0009561938,0.0036009785,0.0955743,0.095597476,0.20832072,1.0785247e-05,9.176639e-06,3.6341228e-06,-4.5431375e-06,-3.8949963e-07,3.505417e-06,0,0,1
1743177455717379,1743177455563379,1743177455565379,0,0.0,0.0,0.0,0.09,0.09,0.20250002,0.0073779984,-0.005566666,0.005034536,-0.00048591237,-0.0013905137,0.0037360238,0.09553593,0.09556185,0.20826288,2.2791368e-05,1.297077e-05,4.8681845e-06,-1.9681477e-06,-1.5746919e-06,3.6337938e-06,0,0,1
1743177455773379,1743177455615379,1743177455621379,0,0.0,0.0,0.01,0.09,0.09,0.20250002,0.007385832,-0.0057802643,-0.005305173,0.00025562878,-0.001804041,0.0028843167,0.095537215,0.095562704,0.20823699,2.2839482e-05,1.39851445e-05,5.406313e-06,3.6880328e-07,-2.7437927e-06,2.7821895e-06,0,0,1
1743177455821379,1743177455667379,1743177455669379,0,0.0,0.0,0.0,0.09,0.09,0.20250002,0.0075531676,-0.006067983,0.005066715,0.00094307814,-0.0022057167,0.003089905,0.09550419,0.09552865,0.20818026,2.3894383e-05,1.541754e-05,4.932572e-06,2.5849813e-06,-3.9376964e-06,2.9847617e-06,0,0,1
1743177455877379,1743177455719379,1743177455725379,0,0.0,0.0,0.0,0.09,0.09,0.20250002,0.00876127,-0.004829753,0.0053123906,0.0016795746,-0.0024529085,0.0032992696,0.09552529,0.09555288,0.20815478,3.2142216e-05,9.764863e-06,5.423175e-06,5.369359e-06,-4.4866324e-06,3.2144674e-06,0,0,1
1743177455925379,1743177455771379,1743177455773379,0,0.0,0.0,0.0,0.09,0.09,0.20250002,0.008734962,-0.0049267528,0.004925549,0.0023442125,-0.0026859518,0.0034524698,0.095486306,0.09551391,0.20809922,3.1962514e-05,1.0165177e-05,4.663359e-06,7.8745115e-06,-5.0215676e-06,3.3509573e-06,0,0,1
1743177455981379,1743177455823379,1743177455829379,0,0.0,0.0,0.0,0.09,0.09,0.20250002,0.01136166,-0.0059497994,0.0043401644,0.0031936823,-0.0029934156,0.0035360933,0.09548731,0.095516376,0.20807418,5.407518e-05,1.482473e-05,3.6212136e-06,1.2226748e-05,-5.945054e-06,3.3764163e-06,0,0,1
1743177456029379,1743177455875379,1743177455877379,0,0.0,-0.01,0.0,0.09,0.09,0.20250002,0.011841658,0.0049310955,0.004019752,0.0040083467,-0.0022469037,0.0035816554,0.0954529,0.09548228,0.20801976,5.8761907e-05,1.0186477e-05,3.1070906e-06,1.6610495e-05,-4.425417e-06,3.351045e-06,0,0,1
1743177456085379,1743177455927379,1743177455933379,0,0.0,0.01,0.0,0.09,0.09,0.20250002,0.012408427,-0.016566094,0.0050803944,0.004799659,-0.0035958132,0.003722841,0.095473304,0.09550357,0.20799522,6.450769e-05,0.0001149425,4.963654e-06,2.1122549e-05,-1.4836447e-05,3.5029575e-06,0,0,1
1743177456133379,1743177455979379,1743177455981379,0,0.0,0.0,0.0,0.09,0.09,0.20250002,0.011916789,-0.0059605613,0.0044998825,0.0054701134,-0.0038185793,0.0037960405,0.09543393,0.09546305,0.207942,5.9521753e-05,1.4886718e-05,3.895114e-06,2.4739866e-05,-1.4841183e-05,3.5398998e-06,0,0,1
1743177456189379,1743177456031379,1743177456037379,0,0.0,0.0,0.0,0.09,0.09,0.20250002,0.015945384,-0.008188549,0.0032474697,0.0064569144,-0.004230243,0.0037443636,0.09543608,0.095465824,0.20791797,0.00010656569,2.8094806e-05,2.0288885e-06,3.2448097e-05,-1.6089713e-05,3.3975582e-06,0,0,1
1743177456237379,1743177456083379,1743177456085379,0,0.0,0.0,-0.01,0.09,0.09,0.20250002,0.016064378,-0.007915251,0.013859952,0.0073619653,-0.0045773815,0.0046972814,0.095400706,0.09542992,0.20786592,0.00010820223,2.626061e-05,3.69658e-05,3.9584356e-05,-1.7047842e-05,6.559784e-06,0,0,1
1743177456293379,1743177456135379,1743177456141379,0,0.0,0.0,0.0,0.09,0.09,0.20250002,0.016416267,-0.007363033,0.003246367,0.008214907,-0.004839798,0.004560601,0.095418975,0.09544941,0.20784245,0.00011297284,2.2719578e-05,2.0282478e-06,4.6497764e-05,-1.7582135e-05,6.1329e-06,0,0,1
1743177456341379,1743177456187379,1743177456189379,0,0.0,0.0,0.0,0.09,0.09,0.20250002,0.018020405,-0.0080713555,0.0032944083,0.009138613,-0.00514422,0.004441322,0.0953791,0.095411874,0.2077916,0.00013618707,2.7311811e-05,2.0892328e-06,5.494676e-05,-1.8498698e-05,5.751975e-06,0,0,1
1743177456397379,1743177456239379,1743177456245379,0,0.0,0.0,0.0,0.09,0.09,0.20250002,0.021956151,-0.008895624,0.002737224,0.0103460625,-0.005497613,0.0042807907,0.09538012,0.09541484,0.20776871,0.00020216902,3.3173932e-05,1.4424494e-06,6.881552e-05,-1.9881149e-05,5.3460053e-06,0,0,1
1743177456445379,1743177456291379,1743177456293379,0,0.0,0.0,0.0,0.09,0.09,0.20250002,0.021883262,-0.010360685,0.00324662,0.0114329,-0.0059557287,0.0041833688,0.09534034,0.09537409,0.20771901,0.00020091272,4.5020108e-05,2.0297691e-06,8.125946e-05,-2.224931e-05,5.033606e-06,0,0,1
1743177456501379,1743177456343379,1743177456349379,0,0.0,0.0,0.0,0.09,0.09,0.20250002,0.02300958,-0.011280712,0.0020052567,0.012523457,-0.0064573577,0.0039781844,0.09536348,0.095397934,0.20769674,0.00022207275,5.3357326e-05,7.7440876e-07,9.452448e-05,-2.5179776e-05,4.6323776e-06,0,0,1
1743177456549379,1743177456395379,1743177456397379,0,0.0,0.0,0.0,0.09,0.09,0.20250002,0.02404921,-0.011645834,0.0012185872,0.013609217,-0.0069461274,0.0037182223,0.095323466,0.095359586,0.20764822,0.00024269552,5.689012e-05,2.8605197e-07,0.00010848262,-2.8166982e-05,4.2229412e-06,0,0,1
1743177456605379,1743177456447379,1743177456453379,0,0.0,0.0,0.0,0.09,0.09,0.20250002,0.024996987,-0.01167841,-0.00031476468,0.014681977,-0.007391922,0.0033383032,0.095340334,0.09537827,0.20762654,0.00026215528,5.7197616e-05,1.9087503e-08,0.00012295903,-3.0901752e-05,3.8233297e-06,0,0,1
1743177456653379,1743177456499379,1743177456501379,0,0.0,0.0,0.0,0.09,0.09,0.20250002,0.024866652,-0.010341249,-0.0005427112,0.015641402,-0.0076697576,0.0029727004,0.09529793,0.095336795,0.20757918,0.0002595441,4.4868902e-05,5.6756257e-08,0.00013582574,-3.22175e-05,3.4578143e-06,0,0,1
1743177456709379,1743177456551379,1743177456557379,0,0.0,0.0,0.0,0.09,0.09,0.20250002,0.024071762,-0.008995612,0.0002168715,0.016435567,-0.007794657,0.0027130933,0.09531586,0.09535306,0.20755811,0.00024317035,3.394586e-05,9.064111e-09,0.00014593791,-3.2380318e-05,3.1329319e-06,0,0,1
1743177456757379,1743177456603379,1743177456605379,0,0.0,-0.01,0.0,0.09,0.09,0.20250002,0.023768745,0.0014910791,-0.00083174556,0.017126374,-0.0069199135,0.0023791592,0.09527462,0.095311254,0.2075119,0.00023718941,9.3307636e-07,1.3335152e-07,0.00015453406,-2.92421e-05,2.8252384e-06,0,0,1
1743177456813379,1743177456655379,1743177456661379,0,0.0,0.0,0.0,0.09,0.09,0.20250002,0.0234639,-0.008471379,-0.00088302046,0.017723387,-0.007066066,0.0020718523,0.09528788,0.09532417,0.20749146,0.00023111208,3.0113773e-05,1.5031465e-07,0.00016174793,-2.9324214e-05,2.5449326e-06,0,0,1
1743177456861379,1743177456707379,1743177456709379,0,0.0,0.0,0.0,0.09,0.09,0.20250002,0.023072397,-0.008389809,-0.0023821369,0.01822728,-0.0071907663,0.0016522736,0.09524696,0.095282495,0.2074464,0.00022356011,2.954956e-05,1.0941768e-06,0.00016757082,-2.9345441e-05,2.202118e-06,0,0,1
1743177456917379,1743177456759379,1743177456765379,0,0.0,0.0,0.0,0.09,0.09,0.20250002,0.023845928,-0.009765837,-0.0028862208,0.018756572,-0.0074333455,0.0012247342,0.09526584,0.09530067,0.2074266,0.00023875429,4.0029765e-05,1.6064035e-06,0.0001742765,-3.0351935e-05,1.8433441e-06,0,0,1
1743177456965379,1743177456811379,1743177456813379,0,0.0,0.0,-0.01,0.09,0.09,0.20250002,0.023895714,-0.0097855525,0.007799009,0.019240694,-0.0076549305,0.00184405,0.09522326,0.09525776,0.20738263,0.00023985952,4.0209652e-05,1.1731848e-05,0.00018045462,-3.128056e-05,2.77487e-06,0,0,1
1743177457021379,1743177456863379,1743177456869379,0,0.0,0.0,-0.01,0.09,0.09,0.20250002,0.02485268,-0.009295691,0.008544052,0.01976936,-0.0078094946,0.0024752098,0.095234506,0.09527099,0.20736346,0.00025942517,3.6279613e-05,1.4081715e-05,0.00018789388,-3.1751486e-05,3.8400076e-06,0,0,1
1743177457069379,1743177456915379,1743177456917379,0,0.0,0.0,0.0,0.09,0.09,0.20250002,0.023609431,-0.008895984,-0.00048217177,0.020131106,-0.007911845,0.0021966158,0.095191345,0.095225245,0.2073206,0.00023422517,3.3242668e-05,4.485606e-08,0.00019225842,-3.189196e-05,3.4740422e-06,0,0,1
1743177457125379,1743177456967379,1743177456973379,0,0.0,0.0,0.0,0.09,0.09,0.20250002,0.024419466,-0.007748258,0.001063214,0.020535082,-0.0078964345,0.002089846,0.09520128,0.095237106,0.20730205,0.00025054716,2.5215171e-05,2.1812114e-07,0.0001977494,-3.1262985e-05,3.1673248e-06,0,0,1
1743177457173379,1743177457019379,1743177457021379,0,0.0,0.0,0.0,0.09,0.09,0.20250002,0.023631351,-0.0073762327,0.0010568202,0.020826759,-0.00784743,0.0019925318,0.09516352,0.09519644,0.20726027,0.00023472893,2.28617e-05,2.1554905e-07,0.00020123298,-3.047156e-05,2.8892591e-06,0,0,1
1743177457229379,1743177457071379,1743177457077379,0,0.0,0.0,0.0,0.09,0.09,0.20250002,0.023765327,-0.006298528,0.0013830811,0.021103581,-0.007701519,0.0019351197,0.095173836,0.09520694,0.20724234,0.0002373723,1.6667465e-05,3.6921287e-07,0.00020463741,-2.9171173e-05,2.6518635e-06,0,0,1
1743177457277379,1743177457123379,1743177457125379,0,0.0,0.0,0.0,0.09,0.09,0.20250002,0.023791611,-0.005587543,0.0017927885,0.021356802,-0.007502376,0.0019217117,0.09513124,0.09516435,0.20720161,0.00023800414,1.3122829e-05,6.20476e-07,0.00020778066,-2.7659373e-05,2.4605008e-06,0,0,1
1743177457333379,1743177457175379,1743177457181379,0,0.0,0.0,0.0,0.09,0.09,0.20250002,0.023210233,-0.005607573,0.0012001601,0.021531401,-0.00732388,0.0018537395,0.09514223,0.09517379,0.2071843,0.00022648825,1.321577e-05,2.7808755e-07,0.00020954297,-2.6298743e-05,2.2549111e-06,0,0,1
1743177457381379,1743177457227379,1743177457229379,0,0.0,0.0,0.0,0.09,0.09,0.20250002,0.021940125,-0.0058775777,0.002051279,0.021569904,-0.0071876342,0.0018723482,0.09510406,0.095131874,0.2071446,0.00020245994,1.4525487e-05,8.125233e-07,0.00020887572,-2.5189669e-05,2.119034e-06,0,0,1
1743177457437379,1743177457279379,1743177457285379,0,0.0,0.0,0.0,0.09,0.09,0.20250002,0.021749709,-0.0048949355,0.0021274313,0.021586843,-0.0069716554,0.0018963778,0.095113926,0.095141,0.2071279,0.0001989403,1.0073635e-05,8.7404237e-07,0.00020793977,-2.3765695e-05,2.0017521e-06,0,0,1
1743177457485379,1743177457331379,1743177457333379,0,0.0,0.0,0.0,0.09,0.09,0.20250002,0.021513972,-0.0051309294,0.0022476763,0.021579979,-0.006798254,0.0019294712,0.09507192,0.09509806,0.20708923,0.00019473722,1.10733845e-05,9.758206e-07,0.00020669604,-2.2570042e-05,1.9051064e-06,0,0,1
1743177457541379,1743177457383379,1743177457389379,0,0.0,0.0,0.0,0.09,0.09,0.20250002,0.021190368,-0.0037312396,0.0032998398,0.021543276,-0.006509332,0.0020585638,0.09508076,0.095106095,0.20707312,0.00018890537,5.8554183e-06,2.1034004e-06,0.00020502011,-2.0995476e-05,1.9237862e-06,0,0,1
1743177457589379,1743177457435379,1743177457437379,0,0.0,0.0,0.0,0.09,0.09,0.20250002,0.020210106,-0.004235163,0.0035191253,0.021417687,-0.0062950985,0.002196153,0.095043205,0.09506577,0.20703542,0.0001719001,7.5470293e-06,2.392681e-06,0.00020190011,-1.9728594e-05,1.9679574e-06,0,0,1
1743177457645379,1743177457487379,1743177457493379,0,0.0,0.0,0.0,0.09,0.09,0.20250002,0.02014105,-0.0034412094,0.003417395,0.021297423,-0.006026254,0.0023111976,0.09505244,0.0950746,0.20701993,0.00017071077,4.9821597e-06,2.256515e-06,0.00019896199,-1.8339437e-05,1.9951403e-06,0,0,1
1743177457693379,1743177457539379,1743177457541379,0,0.0,-0.01,0.0,0.09,0.09,0.20250002,0.019457597,0.006056453,0.002173163,0.021124106,-0.004888028,0.0022981942,0.095011696,0.09503264,0.2069832,0.0001593901,1.5439167e-05,9.1266105e-07,0.0001952342,-1.5157394e-05,1.8931677e-06,0,0,1
1743177457749379,1743177457591379,1743177457597379,0,0.0,0.0,0.0,0.09,0.09,0.20250002,0.019860767,-0.005719284,0.001465261,0.021005096,-0.0049663344,0.0022197296,0.09502136,0.09504218,0.2069683,0.0001660469,1.37666075e-05,4.149408e-07,0.00019248467,-1.5026378e-05,1.7539144e-06,0,0,1
1743177457797379,1743177457643379,1743177457645379,0,0.0,0.0,-0.01,0.09,0.09,0.20250002,0.019442908,-0.0057348562,0.011543067,0.020857934,-0.0050387313,0.0030980152,0.09498404,0.09500317,0.2069325,0.00015919589,1.3847359e-05,2.5755722e-05,0.00018934878,-1.4915311e-05,4.0149544e-06,0,0,1
1743177457853379,1743177457695379,1743177457701379,0,0.0,0.0,0.0,0.09,0.09,0.20250002,0.018399613,-0.005275265,0.001653485,0.020626353,-0.0050610136,0.0029619362,0.09499242,0.09501054,0.20691815,0.00014255696,1.171593e-05,5.285206e-07,0.00018494086,-1.461392e-05,3.6865222e-06,0,0,1
1743177457901379,1743177457747379,1743177457749379,0,0.0,0.0,0.0,0.09,0.09,0.20250002,0.017793905,-0.0048872666,0.0015050396,0.020359527,-0.005044646,0.0028246923,0.09495141,0.09496875,0.20688327,0.00013338319,1.0060309e-05,4.3795603e-07,0.00018008398,-1.4184957e-05,3.380498e-06,0,0,1
1743177457957379,1743177457799379,1743177457805379,0,0.0,0.0,0.0,0.09,0.09,0.20250002,0.016328508,-0.0046736295,0.0014140606,0.019979794,-0.0050096954,0.0026918068,0.09495998,0.09497604,0.20686948,0.00011230843,9.199294e-06,3.866336e-07,0.00017369933,-1.3715293e-05,3.0984672e-06,0,0,1
1743177458005379,1743177457851379,1743177457853379,0,-0.07,0.03,-0.01,0.09,0.09,0.20250002,0.0855973,-0.034978565,0.012115786,0.026161153,-0.007832849,0.003579573,0.09492276,0.09493739,0.2068355,0.00308752,0.00051549764,2.8388216e-05,0.00044818968,-6.0984647e-05,5.480835e-06,0,0,1
1743177458061379,1743177457903379,1743177457909379,0,-0.14,0.06,-0.03,0.09,0.09,0.20250002,0.15153655,-0.06410187,0.031947717,0.03797188,-0.013133555,0.0062519345,0.09493117,0.094945446,0.20682228,0.009675779,0.00173112,0.00019739782,0.0013174554,-0.00021831626,2.3559973e-05,0,0,1
1743177458109379,1743177457955379,1743177457957379,0,-0.17999999,0.07,-0.07,0.09,0.09,0.20250002,-0.006499946,0.0065514445,0.067268625,0.033782504,-0.01127917,0.011999885,0.09513113,0.096340925,0.2067898,1.7764658e-05,1.7820641e-05,0.00087529805,0.0011916738,-0.00019607147,0.00010379618,0,0,1
1743177458165379,1743177458007379,1743177458013379,0,-0.17999999,0.07,-0.11,0.09,0.09,0.20250002,-0.010087192,0.006942712,0.060888067,0.029649852,-0.009562616,0.016605293,0.09514463,0.096287966,0.20677711,4.2777585e-05,2.0023788e-05,0.00071716966,0.0010753849,-0.00017571467,0.00016157774,0,0,1
1743177458213379,1743177458059379,1743177458061379,0,-0.16,0.06,-0.14,0.09,0.09,0.20250002,-0.024780303,0.014225025,0.046107963,0.024522373,-0.0073217517,0.019384531,0.09509406,0.096077286,0.20674475,0.00025829728,8.424523e-05,0.00041131768,0.00094974815,-0.00015122569,0.00018510397,0,0,1
1743177458269379,1743177458111379,1743177458117379,0,-0.14,0.06,-0.19,0.09,0.09,0.20250002,-0.027163833,0.0057985224,0.046351165,0.019653384,-0.0060857837,0.021924866,0.095073625,0.095805496,0.20673236,0.00031044314,1.4037969e-05,0.00041569312,0.00083103444,-0.00013565736,0.00020682614,0,0,1
1743177458317379,1743177458163379,1743177458165379,0,-0.12,0.06,-0.22999999,0.09,0.09,0.20250002,-0.026049592,-0.0029534027,0.047076687,0.01534803,-0.0057907044,0.02429424,0.09500237,0.0954924,0.20670067,0.0002857113,3.6537303e-06,0.0004288742,0.00072583376,-0.00012322224,0.00022774372,0,0,1
1743177458373379,1743177458215379,1743177458221379,0,-0.099999994,0.04,-0.25,0.09,0.09,0.20250002,-0.020035237,0.009248342,0.025265679,0.012014823,-0.0043739825,0.024385752,0.094993,0.09525994,0.20668876,0.0001690275,3.591513e-05,0.00012353927,0.0006415352,-0.00010823104,0.00021792736,0,0,1
1743177458421379,1743177458267379,1743177458269379,0,-0.089999996,0.049999997,-0.29999998,0.09,0.09,0.20250002,-0.010111459,-0.0075743124,0.040512472,0.0099304635,-0.004675463,0.025904937,0.09494472,0.09508872,0.20665795,4.3074157e-05,2.413334e-05,0.00031767672,0.00057704304,-0.0001003088,0.00022732404,0,0,1
1743177458477379,1743177458319379,1743177458325379,0,-0.07,0.04,-0.34,0.09,0.09,0.20250002,-0.011729956,-0.0021243207,0.040498197,0.007889989,-0.004435138,0.027279664,0.09495784,0.09502292,0.20664671,5.7959132e-05,1.8996421e-06,0.00031747014,0.000517224,-9.103837e-05,0.00023581606,0,0,1
1743177458525379,1743177458371379,1743177458373379,0,-0.07,0.03,-0.38,0.09,0.09,0.20250002,0.0016102567,0.0031683575,0.04613018,0.0072984197,-0.0037188665,0.029055437,0.094919994,0.09495194,0.20661677,1.0926788e-06,4.2288716e-06,0.00041196917,0.00046860296,-8.206392e-05,0.0002524102,0,0,1
1743177458581379,1743177458423379,1743177458429379,0,-0.049999997,0.03,-0.41,0.09,0.09,0.20250002,-0.0055185594,-0.0011680666,0.037083954,0.006091023,-0.0034785736,0.029811747,0.09493435,0.09494993,0.20660609,1.2831814e-05,5.7477854e-07,0.0002662496,0.0004232504,-7.4387404e-05,0.0002537139,0,0,1
1743177458629379,1743177458475379,1743177458477379,0,-0.04,0.02,-0.42999998,0.09,0.09,0.20250002,-0.004757952,0.0038842335,0.02400121,0.005069018,-0.0027849758,0.029264377,0.09489982,0.09491339,0.20657694,9.541897e-06,6.358331e-06,0.000111543544,0.0003824801,-6.678092e-05,0.00024032104,0,0,1
1743177458685379,1743177458527379,1743177458533379,0,-0.02,0.02,-0.48999998,0.09,0.09,0.20250002,-0.012376167,-0.0015635621,0.045867592,0.0034256307,-0.002669915,0.030828448,0.09492023,0.094940044,0.20656675,6.454662e-05,1.0300085e-06,0.00040739102,0.0003403689,-6.0586994e-05,0.00025605952,0,0,1
1743177458733379,1743177458579379,1743177458581379,0,-0.02,0.02,-0.57,0.09,0.09,0.20250002,-0.0019931998,-0.0053002937,0.09267831,0.0029151612,-0.0029177044,0.036654886,0.094888404,0.09492015,0.20653836,1.6747445e-06,1.183863e-05,0.0016634717,0.0003081474,-5.5994755e-05,0.00038864184,0,0,1
1743177458789379,1743177458631379,1743177458637379,0,-0.02,0.01,-0.66999996,0.09,0.09,0.20250002,0.00911907,-0.00054994505,0.1158154,0.0034995875,-0.0026946545,0.044112034,0.09492841,0.09497874,0.20652866,3.5040062e-05,1.2737148e-07,0.0025978393,0.0002824199,-5.0731884e-05,0.00059675466,0,0,1
1743177458837379,1743177458683379,1743177458685379,0,-0.01,0.01,-0.78999996,0.09,0.09,0.20250002,0.007981477,-0.005249391,0.14208478,0.0039217947,-0.002935318,0.05334135,0.09493013,0.09499922,0.20650099,2.684247e-05,1.1602666e-05,0.003910506,0.00025834376,-4.7045796e-05,0.00090891967,0,0,1
1743177458893379,1743177458735379,1743177458741379,0,0.0,0.01,-0.90999997,0.09,0.09,0.20250002,0.00809089,-0.00976284,0.1363216,0.0043145358,-0.0035784906,0.061158333,0.094994634,0.09508948,0.20649177,2.7564718e-05,4.0094044e-05,0.0035998682,0.00023660371,-4.639092e-05,0.0011624149,0,0,1
1743177458941379,1743177458787379,1743177458789379,0,0.0,0.0,-1.03,0.09,0.09,0.20250002,0.015280981,-0.0047864206,0.14218897,0.0053476067,-0.0036922812,0.06879166,0.09500895,0.09511663,0.20646478,9.8310054e-05,9.634413e-06,0.00391693,0.00022357605,-4.292835e-05,0.0014218983,0,0,1
1743177458997379,1743177458839379,1743177458845379,0,0.01,0.0,-1.17,0.09,0.09,0.20250002,0.013823964,-0.008032683,0.14452565,0.006146104,-0.0041011595,0.07592602,0.0950729,0.09520712,0.20645602,8.040229e-05,2.7108897e-05,0.004046899,0.00021008866,-4.143811e-05,0.0016691809,0,0,1
1743177459045379,1743177458891379,1743177458893379,0,0.01,0.0,-1.29,0.09,0.09,0.20250002,0.01909571,-0.008785352,0.14314187,0.0073659946,-0.004542424,0.08225795,0.095072575,0.095221944,0.20642972,0.000153418,3.242211e-05,0.00397028,0.00020475012,-4.0588777e-05,0.0018859511,0,0,1
1743177459101379,1743177458943379,1743177458949379,0,0.02,0.0,-1.4399999,0.09,0.09,0.20250002,0.015376031,-0.011862803,0.1482631,0.008120564,-0.005232025,0.08847582,0.09513421,0.09529965,0.20642138,9.9405814e-05,5.9066784e-05,0.004259626,0.00019482638,-4.232946e-05,0.0021095583,0,0,1
1743177459149379,1743177458995379,1743177458997379,0,0.01,0.0,-1.5699999,0.09,0.09,0.20250002,0.029286755,-0.012182065,0.14785111,0.010114481,-0.005886739,0.094069146,0.09513487,0.09530625,0.20639573,0.00036063077,6.228457e-05,0.0042365124,0.00021044564,-4.420929e-05,0.0023099235,0,0,1
1743177459205379,1743177459047379,1743177459053379,0,0.03,0.0,-1.73,0.09,0.09,0.20250002,0.012987694,-0.0145679675,0.14785075,0.010385145,-0.0067045363,0.09913553,0.09519682,0.09537217,0.2063878,7.08764e-05,8.9009474e-05,0.0042366544,0.0001972978,-4.8429596e-05,0.0024914271,0,0,1
1743177459253379,1743177459099379,1743177459101379,0,0.03,-0.01,-1.9,0.09,0.09,0.20250002,0.018019376,-0.0059909113,0.17633331,0.011104312,-0.0066373106,0.10640779,0.09519616,0.095378675,0.20636278,0.0001364332,1.505201e-05,0.0060269465,0.00019156418,-4.528533e-05,0.0028244834,0,0,1
1743177459309379,1743177459151379,1743177459157379,0,0.04,0.0,-2.06,0.09,0.09,0.20250002,0.011371281,-0.016974125,0.16042209,0.011129461,-0.0076110684,0.1114961,0.09525539,0.095437996,0.20635527,5.429867e-05,0.00012075732,0.004988532,0.00017863337,-5.239501e-05,0.0030283432,0,0,1
1743177459357379,1743177459203379,1743177459205379,0,0.04,-0.01,-2.21,0.09,0.09,0.20250002,0.01247526,-0.0062665064,0.15252829,0.011256239,-0.0074844067,0.11536145,0.09525524,0.09542441,0.20633085,6.535372e-05,1.6460821e-05,0.004510208,0.0001679621,-4.9009905e-05,0.0031679391,0,0,1
1743177459413379,1743177459255379,1743177459261379,0,0.03,-0.01,-2.34,0.09,0.09,0.20250002,0.024739994,-0.007881854,0.10147047,0.012526448,-0.0075218473,0.114052884,0.0953113,0.09547159,0.20632373,0.00025687082,2.6028107e-05,0.0019961363,0.00017633756,-4.684495e-05,0.0030575518,0,0,1
1743177459461379,1743177459307379,1743177459309379,0,0.03,0.0,-2.44,0.09,0.09,0.20250002,0.02545075,-0.018098144,0.06715298,0.013743955,-0.008518165,0.10963478,0.095287815,0.09543821,0.20629989,0.00027190908,0.00013727952,0.00087436254,0.00018534067,-5.536415e-05,0.002851889,0,0,1
1743177459517379,1743177459359379,1743177459365379,0,0.02,0.0,-2.51,0.09,0.09,0.20250002,0.035484273,-0.017879011,0.01726389,0.015791956,-0.009399984,0.10093317,0.095299274,0.09543505,0.20629315,0.0005284967,0.00013397972,5.7789974e-05,0.00021766697,-6.276996e-05,0.0025886768,0,0,1
1743177459565379,1743177459411379,1743177459413379,0,0.04,-0.01,-2.57,0.09,0.09,0.20250002,0.014673501,-0.0071399137,0.0016698837,0.015686594,-0.009187079,0.09158228,0.09524126,0.095363066,0.20626989,9.042788e-05,2.1382857e-05,5.407501e-07,0.00020568067,-5.8871177e-05,0.0023448667,0,0,1
1743177459621379,1743177459463379,1743177459469379,0,0.04,0.0,-2.61,0.09,0.09,0.20250002,0.013501391,-0.01766779,-0.021342754,0.015480742,-0.009985987,0.08094442,0.095221534,0.09532646,0.20626353,7.6574084e-05,0.00013098182,8.833616e-05,0.00019351846,-6.566421e-05,0.002115652,0,0,1
1743177459669379,1743177459515379,1743177459517379,0,0.03,0.0,-2.62,0.09,0.09,0.20250002,0.023627086,-0.017914398,-0.05252433,0.016248152,-0.010732867,0.06837127,0.09514467,0.09523378,0.2062408,0.0002346907,0.00013479487,0.0005350648,0.000197397,-7.217652e-05,0.0018659467,0,0,1
1743177459725379,1743177459567379,1743177459573379,0,0.03,-0.01,-2.6599998,0.09,0.09,0.20250002,0.021169381,-0.006741019,-0.04771757,0.016711745,-0.010356823,0.057435367,0.09511204,0.095186874,0.2062348,0.00018846939,1.9095633e-05,0.00044162606,0.000196556,-6.7176145e-05,0.0016485666,0,0,1
1743177459773379,1743177459619379,1743177459621379,0,0.03,-0.01,-2.6699998,0.09,0.09,0.20250002,0.019107075,-0.0067976527,-0.06038642,0.016937392,-0.0100215385,0.04633621,0.09503297,0.095095776,0.20621261,0.00015366472,1.9436438e-05,0.00070733204,0.00019251551,-6.2678926e-05,0.001426634,0,0,1
1743177459829379,1743177459671379,1743177459677379,0,0.03,0.0,-2.69,0.09,0.09,0.20250002,0.0172009,-0.017251005,-0.06061554,0.016962215,-0.010702576,0.036261044,0.09499815,0.09504974,0.20620696,0.00012457967,0.0001252385,0.0007127293,0.00018611575,-6.857222e-05,0.0012250998,0,0,1
1743177459877379,1743177459723379,1743177459725379,0,0.03,0.0,-2.7,0.09,0.09,0.20250002,0.015883299,-0.01707705,-0.06349635,0.016860578,-0.011303069,0.026863609,0.094920956,0.094963424,0.2061853,0.00010631126,0.00012283702,0.0007821676,0.00017859794,-7.368412e-05,0.0010360094,0,0,1
1743177459933379,1743177459775379,1743177459781379,0,0.03,0.0,-2.69,0.09,0.09,0.20250002,0.0143312495,-0.017839111,-0.08017087,0.016622309,-0.011918783,0.01678065,0.09488587,0.09491941,0.20617998,8.6581786e-05,0.00013410697,0.0012469433,0.00016992976,-7.937613e-05,0.0008209486,0,0,1
1743177459981379,1743177459827379,1743177459829379,0,0.03,0.0,-2.69,0.09,0.09,0.20250002,0.013770463,-0.016201286,-0.07919073,0.016353656,-0.012322207,0.007739867,0.0948085,0.09483613,0.20615882,8.000365e-05,0.00011070956,0.0012167653,0.00016145846,-8.232783e-05,0.00062899006,0,0,1
1743177460037379,1743177459879379,1743177459885379,0,0.03,-0.01,-2.6699998,0.09,0.09,0.20250002,0.013343813,-0.004962734,-0.09212494,0.01607012,-0.011628923,-0.0016676877,0.09477246,0.09479454,0.20615384,7.515152e-05,1.0392468e-05,0.0016467324,0.0001533281,-7.555131e-05,0.00041461037,0,0,1
1743177460085379,1743177459931379,1743177459933379,0,0.02,0.0,-2.6499999,0.09,0.09,0.20250002,0.021430623,-0.014854185,-0.099527836,0.016575094,-0.011932752,-0.010886398,0.094697535,0.094714515,0.20613317,0.00019399518,9.3183946e-05,0.0019222117,0.00015715905,-7.721235e-05,0.00019447495,0,0,1
1743177460141379,1743177459983379,1743177459989379,0,0.01,-0.01,-2.6399999,0.09,0.09,0.20250002,0.028529128,-0.004552705,-0.085837126,0.0177012,-0.01123753,-0.017946973,0.09466079,0.09467296,0.20612851,0.00034392747,8.757357e-06,0.0014297902,0.00017475318,-7.0763694e-05,4.146446e-05,0,0,1
1743177460189379,1743177460035379,1743177460037379,0,0.01,-0.01,-2.6299999,0.09,0.09,0.20250002,0.026087565,-0.0039472114,-0.079163074,0.01849122,-0.010550761,-0.023713708,0.09459134,0.09460025,0.2061083,0.00028779,6.5879226e-06,0.0012162135,0.00018540157,-6.471815e-05,-7.701245e-05,0,0,1
1743177460245379,1743177460087379,1743177460093379,0,0.02,0.0,-2.6499999,0.09,0.09,0.20250002,0.012800816,-0.014730478,-0.051469803,0.017955167,-0.010944502,-0.026328413,0.09456835,0.09457386,0.20610395,6.930898e-05,9.177461e-05,0.00051413674,0.00017446531,-6.726695e-05,-0.00011819083,0,0,1
1743177460293379,1743177460139379,1743177460141379,0,0.01,0.0,-2.6599998,0.09,0.09,0.20250002,0.020026147,-0.014353346,-0.046449423,0.018150259,-0.011265625,-0.02822387,0.09451448,0.094517894,0.20608419,0.00016972916,8.718711e-05,0.0004187704,0.00017401915,-6.914348e-05,-0.0001465063,0,0,1
1743177460349379,1743177460191379,1743177460197379,0,0.02,0.0,-2.6599998,0.09,0.09,0.20250002,0.0075898655,-0.013036733,-0.057949305,0.017155439,-0.011432469,-0.031024093,0.09450324,0.09450509,0.20608015,2.4382682e-05,7.193534e-05,0.0006518089,0.00015992296,-6.940649e-05,-0.00019410727,0,0,1
1743177460397379,1743177460243379,1743177460245379,0,0.01,0.0,-2.6799998,0.09,0.09,0.20250002,0.016507331,-0.011692489,-0.05239606,0.017094385,-0.011456964,-0.033037394,0.094456986,0.094457634,0.20606084,0.00011539304,5.7894435e-05,0.0005329197,0.0001557281,-6.832202e-05,-0.0002260244,0,0,1
1743177460453379,1743177460295379,1743177460301379,0,0.01,-0.01,-2.69,0.09,0.09,0.20250002,0.01431147,0.0012368457,-0.06075239,0.016832227,-0.01026117,-0.035648227,0.094451465,0.09445147,0.20605709,8.6740074e-05,6.478617e-07,0.0007164719,0.00014922924,-6.182486e-05,-0.00027222597,0,0,1
1743177460501379,1743177460347379,1743177460349379,0,0.01,-0.01,-2.71,0.09,0.09,0.20250002,0.01193404,0.00081984885,-0.053242445,0.016370803,-0.009217305,-0.037305653,0.09440751,0.09440729,0.2060382,6.0343213e-05,2.8478823e-07,0.0005503364,0.00014085592,-5.597395e-05,-0.00029842477,0,0,1
