timestamp,data_rate,rate_multiplier,tx_rate_avg,tx_error_rate_avg,tx_message_count,tx_buffer_overruns,rx_rate_avg,rx_message_count,rx_message_lost_count,rx_buffer_overruns,rx_parse_errors,rx_packet_drop_count,rx_message_lost_rate,type,mode,flow_control,forwarding,mavlink_v2,ftp,streams,heartbeat_type_antenna_tracker,heartbeat_type_gcs,heartbeat_type_onboard_controller,heartbeat_type_gimbal,heartbeat_type_adsb,heartbeat_type_camera,heartbeat_type_parachute,heartbeat_type_open_drone_id,heartbeat_component_telemetry_radio,heartbeat_component_log,heartbeat_component_osd,heartbeat_component_vio,heartbeat_component_pairing_manager,heartbeat_component_udp_bridge,heartbeat_component_uart_bridge,open_drone_id_system_healthy,parachute_system_healthy
1743177450401379,4000000.0,1.0,12750.001,0.0,417,0,20.916336,6,0,0,0,0,0.0,0,0,0,1,1,1,59,0,1,0,0,0,0,0,0,0,0,0,0,0,0,0,0,0
1743177451261379,4000000.0,1.0,20244.025,0.0,812,0,648.4064,36,0,0,0,0,0.0,0,0,0,1,1,1,59,0,1,0,0,0,0,0,0,0,0,0,0,0,0,0,0,0
1743177452717379,4000000.0,1.0,17201.195,0.0,1378,0,220.11952,67,0,0,0,0,0.0,0,0,0,1,1,1,60,0,1,0,0,0,0,0,0,0,0,0,0,0,0,0,0,0
1743177453445379,4000000.0,1.0,18402.39,0.0,1656,0,457.17133,69,0,0,0,0,0.0,0,0,0,1,1,1,60,0,1,0,0,0,0,0,0,0,0,0,0,0,0,0,0,0
1743177454277379,4000000.0,1.0,17059.762,0.0,1970,0,64.741035,71,0,0,0,0,0.0,0,0,0,1,1,1,60,0,1,0,0,0,0,0,0,0,0,0,0,0,0,0,0,0
1743177455057379,4000000.0,1.0,17592.63,0.0,2273,0,64.741035,73,0,0,0,0,0.0,0,0,0,1,1,1,60,0,1,0,0,0,0,0,0,0,0,0,0,0,0,0,0,0
1743177456513379,4000000.0,1.0,17101.594,0.0,2811,0,129.48207,77,0,0,0,0,0.0,0,0,0,1,1,1,60,0,1,0,0,0,0,0,0,0,0,0,0,0,0,0,0,0
1743177457345379,4000000.0,1.0,17551.793,0.0,3130,0,64.741035,79,0,0,0,0,0.0,0,0,0,1,1,1,60,0,1,0,0,0,0,0,0,0,0,0,0,0,0,0,0,0
1743177458177379,4000000.0,1.0,17130.479,0.0,3444,0,20.916336,80,0,0,0,0,0.0,0,0,0,1,1,1,60,0,1,0,0,0,0,0,0,0,0,0,0,0,0,0,0,0
1743177459717379,4000000.0,1.0,17609.562,0.0,4025,0,111.55379,84,0,0,0,0,0.0,0,0,0,1,1,1,60,0,1,0,0,0,0,0,0,0,0,0,0,0,0,0,0,0
1743177460473379,4000000.0,1.0,17170.32,0.0,4307,0,64.741035,86,0,0,0,0,0.0,0,0,0,1,1,1,60,0,1,0,0,0,0,0,0,0,0,0,0,0,0,0,0,0
1743177461297379,4000000.0,1.0,17325.697,0.0,4625,0,64.741035,88,0,0,0,0,0.0,0,0,0,1,1,1,60,0,1,0,0,0,0,0,0,0,0,0,0,0,0,0,0,0
1743177462077379,4000000.0,1.0,17227.092,0.0,4918,0,41.832672,89,0,0,0,0,0.0,0,0,0,1,1,1,60,0,1,0,0,0,0,0,0,0,0,0,0,0,0,0,0,0
1743177463637379,4000000.0,1.0,17329.682,0.0,5499,0,20.916336,91,0,0,0,0,0.0,0,0,0,1,1,1,60,0,1,0,0,0,0,0,0,0,0,0,0,0,0,0,0,0
1743177464417379,4000000.0,1.0,17138.447,0.0,5791,0,20.916336,92,0,0,0,0,0.0,0,0,0,1,1,1,60,0,1,0,0,0,0,0,0,0,0,0,0,0,0,0,0,0
1743177465249379,4000000.0,1.0,17378.486,0.0,6108,0,20.916336,93,0,0,0,0,0.0,0,0,0,1,1,1,60,0,1,0,0,0,0,0,0,0,0,0,0,0,0,0,0,0
1743177466757379,4000000.0,1.0,17077.69,0.0,6665,0,41.832672,95,0,0,0,0,0.0,0,0,0,1,1,1,60,0,1,0,0,0,0,0,0,0,0,0,0,0,0,0,0,0
1743177467497379,4000000.0,1.0,17474.104,0.0,6949,0,20.916336,96,0,0,0,0,0.0,0,0,0,1,1,1,60,0,1,0,0,0,0,0,0,0,0,0,0,0,0,0,0,0
1743177468317379,4000000.0,1.0,17100.598,0.0,7257,0,20.916336,97,0,0,0,0,0.0,0,0,0,1,1,1,60,0,1,0,0,0,0,0,0,0,0,0,0,0,0,0,0,0
1743177469057379,4000000.0,1.0,17100.598,0.0,7542,0,20.916336,99,0,0,0,0,0.0,0,0,0,1,1,1,60,0,1,0,0,0,0,0,0,0,0,0,0,0,0,0,0,0
1743177470657379,4000000.0,1.0,17191.236,0.0,8136,0,20.916336,101,0,0,0,0,0.0,0,0,0,1,1,1,60,0,1,0,0,0,0,0,0,0,0,0,0,0,0,0,0,0
1743177471437379,4000000.0,1.0,17323.707,0.0,8434,0,20.916336,102,0,0,0,0,0.0,0,0,0,1,1,1,60,0,1,0,0,0,0,0,0,0,0,0,0,0,0,0,0,0
1743177472217379,4000000.0,1.0,17223.11,0.0,8725,0,20.916336,103,0,0,0,0,0.0,0,0,0,1,1,1,60,0,1,0,0,0,0,0,0,0,0,0,0,0,0,0,0,0
1743177472997379,4000000.0,1.0,17223.11,0.0,9010,0,20.916336,104,0,0,0,0,0.0,0,0,0,1,1,1,60,0,1,0,0,0,0,0,0,0,0,0,0,0,0,0,0,0
1743177474557379,4000000.0,1.0,17151.395,0.0,9606,0,20.916336,106,0,0,0,0,0.0,0,0,0,1,1,1,60,0,1,0,0,0,0,0,0,0,0,0,0,0,0,0,0,0
1743177475341379,4000000.0,1.0,17391.436,0.0,9905,0,20.916336,107,0,0,0,0,0.0,0,0,0,1,1,1,60,0,1,0,0,0,0,0,0,0,0,0,0,0,0,0,0,0
1743177476117379,4000000.0,1.0,17391.436,0.0,10197,0,20.916336,108,0,0,0,0,0.0,0,0,0,1,1,1,60,0,1,0,0,0,0,0,0,0,0,0,0,0,0,0,0,0
1743177477729379,4000000.0,1.0,17470.121,0.0,10799,0,20.916336,110,0,0,0,0,0.0,0,0,0,1,1,1,60,0,1,0,0,0,0,0,0,0,0,0,0,0,0,0,0,0
1743177478569379,4000000.0,1.0,17134.463,0.0,11115,0,20.916336,111,0,0,0,0,0.0,0,0,0,1,1,1,60,0,1,0,0,0,0,0,0,0,0,0,0,0,0,0,0,0
1743177479401379,4000000.0,1.0,17412.352,0.0,11434,0,46.81275,113,0,0,0,0,0.0,0,0,0,1,1,1,60,0,1,0,0,0,0,0,0,0,0,0,0,0,0,0,0,0
1743177480185379,4000000.0,1.0,17161.355,0.0,11727,0,20.916336,114,0,0,0,0,0.0,0,0,0,1,1,1,60,0,1,0,0,0,0,0,0,0,0,0,0,0,0,0,0,0
1743177481745379,4000000.0,1.0,17320.719,0.0,12312,0,41.832672,116,0,0,0,0,0.0,0,0,0,1,1,1,60,0,1,0,0,0,0,0,0,0,0,0,0,0,0,0,0,0
1743177482565379,4000000.0,1.0,17269.922,0.0,12622,0,20.916336,117,0,0,0,0,0.0,0,0,0,1,1,1,60,0,1,0,0,0,0,0,0,0,0,0,0,0,0,0,0,0
1743177483345379,4000000.0,1.0,17343.627,0.0,12918,0,20.916336,118,0,0,0,0,0.0,0,0,0,1,1,1,60,0,1,0,0,0,0,0,0,0,0,0,0,0,0,0,0,0
1743177484177379,4000000.0,1.0,17117.531,0.0,13231,0,20.916336,119,0,0,0,0,0.0,0,0,0,1,1,1,60,0,1,0,0,0,0,0,0,0,0,0,0,0,0,0,0,0
1743177485685379,4000000.0,1.0,17422.312,0.0,13797,0,41.832672,121,0,0,0,0,0.0,0,0,0,1,1,1,60,0,1,0,0,0,0,0,0,0,0,0,0,0,0,0,0,0
1743177486465379,4000000.0,1.0,17094.623,0.0,14090,0,20.916336,122,0,0,0,0,0.0,0,0,0,1,1,1,60,0,1,0,0,0,0,0,0,0,0,0,0,0,0,0,0,0
1743177487245379,4000000.0,1.0,17454.184,0.0,14387,0,20.916336,123,0,0,0,0,0.0,0,0,0,1,1,1,60,0,1,0,0,0,0,0,0,0,0,0,0,0,0,0,0,0
1743177488025379,4000000.0,1.0,17454.184,0.0,14682,0,20.916336,124,0,0,0,0,0.0,0,0,0,1,1,1,60,0,1,0,0,0,0,0,0,0,0,0,0,0,0,0,0,0
1743177489533379,4000000.0,1.0,17473.11,0.0,15250,0,46.81275,127,0,0,0,0,0.0,0,0,0,1,1,1,60,0,1,0,0,0,0,0,0,0,0,0,0,0,0,0,0,0
1743177490365379,4000000.0,1.0,17162.352,0.0,15561,0,20.916336,128,0,0,0,0,0.0,0,0,0,1,1,1,60,0,1,0,0,0,0,0,0,0,0,0,0,0,0,0,0,0
1743177491145379,4000000.0,1.0,17162.352,0.0,15861,0,20.916336,129,0,0,0,0,0.0,0,0,0,1,1,1,60,0,1,0,0,0,0,0,0,0,0,0,0,0,0,0,0,0
1743177492717379,4000000.0,1.0,17237.053,0.0,16445,0,20.916336,131,0,0,0,0,0.0,0,0,0,1,1,1,60,0,1,0,0,0,0,0,0,0,0,0,0,0,0,0,0,0
1743177493537379,4000000.0,1.0,17381.475,0.0,16759,0,20.916336,132,0,0,0,0,0.0,0,0,0,1,1,1,60,0,1,0,0,0,0,0,0,0,0,0,0,0,0,0,0,0
1743177494317379,4000000.0,1.0,17130.479,0.0,17052,0,20.916336,133,0,0,0,0,0.0,0,0,0,1,1,1,60,0,1,0,0,0,0,0,0,0,0,0,0,0,0,0,0,0
1743177495097379,4000000.0,1.0,17130.479,0.0,17351,0,20.916336,134,0,0,0,0,0.0,0,0,0,1,1,1,60,0,1,0,0,0,0,0,0,0,0,0,0,0,0,0,0,0
1743177496709379,4000000.0,1.0,17094.623,0.0,17947,0,20.916336,136,0,0,0,0,0.0,0,0,0,1,1,1,60,0,1,0,0,0,0,0,0,0,0,0,0,0,0,0,0,0
1743177497437379,4000000.0,1.0,17483.068,0.0,18227,0,20.916336,137,0,0,0,0,0.0,0,0,0,1,1,1,60,0,1,0,0,0,0,0,0,0,0,0,0,0,0,0,0,0
1743177498269379,4000000.0,1.0,17167.332,0.0,18539,0,20.916336,138,0,0,0,0,0.0,0,0,0,1,1,1,60,0,1,0,0,0,0,0,0,0,0,0,0,0,0,0,0,0
1743177499049379,4000000.0,1.0,17167.332,0.0,18840,0,20.916336,140,0,0,0,0,0.0,0,0,0,1,1,1,60,0,1,0,0,0,0,0,0,0,0,0,0,0,0,0,0,0
1743177500609379,4000000.0,1.0,17195.22,0.0,19419,0,20.916336,142,0,0,0,0,0.0,0,0,0,1,1,1,60,0,1,0,0,0,0,0,0,0,0,0,0,0,0,0,0,0
1743177501401379,4000000.0,1.0,17320.719,0.0,19720,0,20.916336,143,0,0,0,0,0.0,0,0,0,1,1,1,60,0,1,0,0,0,0,0,0,0,0,0,0,0,0,0,0,0
1743177502249379,4000000.0,1.0,17223.11,0.0,20039,0,20.916336,144,0,0,0,0,0.0,0,0,0,1,1,1,60,0,1,0,0,0,0,0,0,0,0,0,0,0,0,0,0,0
1743177503769379,4000000.0,1.0,17369.523,0.0,20609,0,41.832672,146,0,0,0,0,0.0,0,0,0,1,1,1,60,0,1,0,0,0,0,0,0,0,0,0,0,0,0,0,0,0
1743177504613379,4000000.0,1.0,17138.447,0.0,20925,0,20.916336,147,0,0,0,0,0.0,0,0,0,1,1,1,60,0,1,0,0,0,0,0,0,0,0,0,0,0,0,0,0,0
1743177505393379,4000000.0,1.0,17409.363,0.0,21222,0,20.916336,148,0,0,0,0,0.0,0,0,0,1,1,1,60,0,1,0,0,0,0,0,0,0,0,0,0,0,0,0,0,0
1743177506129379,4000000.0,1.0,17409.363,0.0,21503,0,20.916336,149,0,0,0,0,0.0,0,0,0,1,1,1,60,0,1,0,0,0,0,0,0,0,0,0,0,0,0,0,0,0
1743177507733379,4000000.0,1.0,17474.104,0.0,22100,0,20.916336,151,0,0,0,0,0.0,0,0,0,1,1,1,60,0,1,0,0,0,0,0,0,0,0,0,0,0,0,0,0,0
1743177508461379,4000000.0,1.0,17112.55,0.0,22374,0,20.916336,152,0,0,0,0,0.0,0,0,0,1,1,1,60,0,1,0,0,0,0,0,0,0,0,0,0,0,0,0,0,0
1743177509241379,4000000.0,1.0,17112.55,0.0,22678,0,20.916336,154,0,0,0,0,0.0,0,0,0,1,1,1,60,0,1,0,0,0,0,0,0,0,0,0,0,0,0,0,0,0
1743177510073379,4000000.0,1.0,17443.229,0.0,22990,0,67.72909,155,0,0,0,0,0.0,0,0,0,1,1,1,60,0,1,0,0,0,0,0,0,0,0,0,0,0,0,0,0,0
1743177511581379,4000000.0,1.0,17354.582,0.0,23553,0,20.916336,157,0,0,0,0,0.0,0,0,0,1,1,1,60,0,1,0,0,0,0,0,0,0,0,0,0,0,0,0,0,0
1743177512361379,4000000.0,1.0,17236.057,0.0,23847,0,20.916336,158,0,0,0,0,0.0,0,0,0,1,1,1,60,0,1,0,0,0,0,0,0,0,0,0,0,0,0,0,0,0
1743177513141379,4000000.0,1.0,17236.057,0.0,24147,0,20.916336,159,0,0,0,0,0.0,0,0,0,1,1,1,60,0,1,0,0,0,0,0,0,0,0,0,0,0,0,0,0,0
1743177514701379,4000000.0,1.0,17138.447,0.0,24726,0,20.916336,161,0,0,0,0,0.0,0,0,0,1,1,1,60,0,1,0,0,0,0,0,0,0,0,0,0,0,0,0,0,0
1743177515481379,4000000.0,1.0,17404.383,0.0,25023,0,20.916336,162,0,0,0,0,0.0,0,0,0,1,1,1,60,0,1,0,0,0,0,0,0,0,0,0,0,0,0,0,0,0
1743177516261379,4000000.0,1.0,17404.383,0.0,25317,0,20.916336,163,0,0,0,0,0.0,0,0,0,1,1,1,60,0,1,0,0,0,0,0,0,0,0,0,0,0,0,0,0,0
1743177517037379,4000000.0,1.0,17073.707,0.0,25618,0,41.832672,164,0,0,0,0,0.0,0,0,0,1,1,1,60,0,1,0,0,0,0,0,0,0,0,0,0,0,0,0,0,0
1743177518601379,4000000.0,1.0,17125.498,0.0,26196,0,20.916336,166,0,0,0,0,0.0,0,0,0,1,1,1,60,0,1,0,0,0,0,0,0,0,0,0,0,0,0,0,0,0
1743177519381379,4000000.0,1.0,17399.402,0.0,26496,0,46.81275,168,0,0,0,0,0.0,0,0,0,1,1,1,60,0,1,0,0,0,0,0,0,0,0,0,0,0,0,0,0,0
1743177520161379,4000000.0,1.0,17399.402,0.0,26790,0,46.81275,169,0,0,0,0,0.0,0,0,0,1,1,1,60,0,1,0,0,0,0,0,0,0,0,0,0,0,0,0,0,0
1743177521689379,4000000.0,1.0,17353.586,0.0,27362,0,20.916336,171,0,0,0,0,0.0,0,0,0,1,1,1,60,0,1,0,0,0,0,0,0,0,0,0,0,0,0,0,0,0
1743177522501379,4000000.0,1.0,17223.11,0.0,27666,0,20.916336,172,0,0,0,0,0.0,0,0,0,1,1,1,60,0,1,0,0,0,0,0,0,0,0,0,0,0,0,0,0,0
1743177523333379,4000000.0,1.0,17343.627,0.0,27983,0,20.916336,173,0,0,0,0,0.0,0,0,0,1,1,1,60,0,1,0,0,0,0,0,0,0,0,0,0,0,0,0,0,0
1743177524061379,4000000.0,1.0,17343.627,0.0,28260,0,20.916336,174,0,0,0,0,0.0,0,0,0,1,1,1,60,0,1,0,0,0,0,0,0,0,0,0,0,0,0,0,0,0
1743177525673379,4000000.0,1.0,17412.352,0.0,28860,0,20.916336,176,0,0,0,0,0.0,0,0,0,1,1,1,60,0,1,0,0,0,0,0,0,0,0,0,0,0,0,0,0,0
1743177526505379,4000000.0,1.0,17073.707,0.0,29172,0,20.916336,177,0,0,0,0,0.0,0,0,0,1,1,1,60,0,1,0,0,0,0,0,0,0,0,0,0,0,0,0,0,0
1743177527285379,4000000.0,1.0,17073.707,0.0,29471,0,20.916336,178,0,0,0,0,0.0,0,0,0,1,1,1,60,0,1,0,0,0,0,0,0,0,0,0,0,0,0,0,0,0
1743177528065379,4000000.0,1.0,17454.184,0.0,29767,0,41.832672,179,0,0,0,0,0.0,0,0,0,1,1,1,60,0,1,0,0,0,0,0,0,0,0,0,0,0,0,0,0,0
1743177529581379,4000000.0,1.0,17399.402,0.0,30335,0,46.81275,182,0,0,0,0,0.0,0,0,0,1,1,1,60,0,1,0,0,0,0,0,0,0,0,0,0,0,0,0,0,0
1743177530401379,4000000.0,1.0,17188.248,0.0,30644,0,20.916336,183,0,0,0,0,0.0,0,0,0,1,1,1,60,0,1,0,0,0,0,0,0,0,0,0,0,0,0,0,0,0
1743177531229379,4000000.0,1.0,17188.248,0.0,30960,0,20.916336,183,0,0,0,0,0.0,0,0,0,1,1,1,60,0,1,0,0,0,0,0,0,0,0,0,0,0,0,0,0,0
1743177532017379,4000000.0,1.0,17302.79,0.0,31247,0,41.832672,185,0,0,0,0,0.0,0,0,0,1,1,1,60,0,1,0,0,0,0,0,0,0,0,0,0,0,0,0,0,0
1743177533525379,4000000.0,1.0,17391.436,0.0,31823,0,20.916336,187,0,0,0,0,0.0,0,0,0,1,1,1,60,0,1,0,0,0,0,0,0,0,0,0,0,0,0,0,0,0
1743177534305379,4000000.0,1.0,17391.436,0.0,32117,0,20.916336,188,0,0,0,0,0.0,0,0,0,1,1,1,60,0,1,0,0,0,0,0,0,0,0,0,0,0,0,0,0,0
1743177535033379,4000000.0,1.0,17116.535,0.0,32397,0,41.832672,189,0,0,0,0,0.0,0,0,0,1,1,1,60,0,1,0,0,0,0,0,0,0,0,0,0,0,0,0,0,0
1743177536593379,4000000.0,1.0,17135.459,0.0,32975,0,20.916336,191,0,0,0,0,0.0,0,0,0,1,1,1,60,0,1,0,0,0,0,0,0,0,0,0,0,0,0,0,0,0
1743177537401379,4000000.0,1.0,17434.264,0.0,33285,0,20.916336,192,0,0,0,0,0.0,0,0,0,1,1,1,60,0,1,0,0,0,0,0,0,0,0,0,0,0,0,0,0,0
1743177538205379,4000000.0,1.0,17434.264,0.0,33587,0,20.916336,193,0,0,0,0,0.0,0,0,0,1,1,1,60,0,1,0,0,0,0,0,0,0,0,0,0,0,0,0,0,0
1743177538985379,4000000.0,1.0,17145.42,0.0,33871,0,41.832672,194,0,0,0,0,0.0,0,0,0,1,1,1,60,0,1,0,0,0,0,0,0,0,0,0,0,0,0,0,0,0
1743177540597379,4000000.0,1.0,17211.156,0.0,34487,0,20.916336,197,0,0,0,0,0.0,0,0,0,1,1,1,60,0,1,0,0,0,0,0,0,0,0,0,0,0,0,0,0,0
1743177541325379,4000000.0,1.0,17211.156,0.0,34765,0,20.916336,198,0,0,0,0,0.0,0,0,0,1,1,1,60,0,1,0,0,0,0,0,0,0,0,0,0,0,0,0,0,0
1743177542105379,4000000.0,1.0,17284.861,0.0,35060,0,41.832672,199,0,0,0,0,0.0,0,0,0,1,1,1,60,0,1,0,0,0,0,0,0,0,0,0,0,0,0,0,0,0
1743177543717379,4000000.0,1.0,17310.758,0.0,35661,0,20.916336,201,0,0,0,0,0.0,0,0,0,1,1,1,60,0,1,0,0,0,0,0,0,0,0,0,0,0,0,0,0,0
1743177544445379,4000000.0,1.0,17166.336,0.0,35936,0,20.916336,202,0,0,0,0,0.0,0,0,0,1,1,1,60,0,1,0,0,0,0,0,0,0,0,0,0,0,0,0,0,0
1743177545285379,4000000.0,1.0,17166.336,0.0,36258,0,20.916336,203,0,0,0,0,0.0,0,0,0,1,1,1,60,0,1,0,0,0,0,0,0,0,0,0,0,0,0,0,0,0
1743177546057379,4000000.0,1.0,17386.455,0.0,36551,0,41.832672,204,0,0,0,0,0.0,0,0,0,1,1,1,60,0,1,0,0,0,0,0,0,0,0,0,0,0,0,0,0,0
1743177547617379,4000000.0,1.0,17434.264,0.0,37132,0,20.916336,206,0,0,0,0,0.0,0,0,0,1,1,1,60,0,1,0,0,0,0,0,0,0,0,0,0,0,0,0,0,0
1743177548397379,4000000.0,1.0,17434.264,0.0,37427,0,20.916336,207,0,0,0,0,0.0,0,0,0,1,1,1,60,0,1,0,0,0,0,0,0,0,0,0,0,0,0,0,0,0
1743177549229379,4000000.0,1.0,17229.084,0.0,37746,0,41.832672,209,0,0,0,0,0.0,0,0,0,1,1,1,60,0,1,0,0,0,0,0,0,0,0,0,0,0,0,0,0,0
1743177550737379,4000000.0,1.0,17214.145,0.0,38304,0,20.916336,211,0,0,0,0,0.0,0,0,0,1,1,1,60,0,1,0,0,0,0,0,0,0,0,0,0,0,0,0,0,0
1743177551517379,4000000.0,1.0,17284.861,0.0,38603,0,20.916336,212,0,0,0,0,0.0,0,0,0,1,1,1,60,0,1,0,0,0,0,0,0,0,0,0,0,0,0,0,0,0
1743177552297379,4000000.0,1.0,17284.861,0.0,38899,0,20.916336,213,0,0,0,0,0.0,0,0,0,1,1,1,60,0,1,0,0,0,0,0,0,0,0,0,0,0,0,0,0,0
1743177553129379,4000000.0,1.0,17271.914,0.0,39215,0,41.832672,214,0,0,0,0,0.0,0,0,0,1,1,1,60,0,1,0,0,0,0,0,0,0,0,0,0,0,0,0,0,0
1743177554637379,4000000.0,1.0,17161.355,0.0,39775,0,20.916336,216,0,0,0,0,0.0,0,0,0,1,1,1,60,0,1,0,0,0,0,0,0,0,0,0,0,0,0,0,0,0
1743177555401379,4000000.0,1.0,17161.355,0.0,40065,0,20.916336,217,0,0,0,0,0.0,0,0,0,1,1,1,60,0,1,0,0,0,0,0,0,0,0,0,0,0,0,0,0,0
1743177556197379,4000000.0,1.0,17360.559,0.0,40368,0,41.832672,218,0,0,0,0,0.0,0,0,0,1,1,1,60,0,1,0,0,0,0,0,0,0,0,0,0,0,0,0,0,0
1743177557717379,4000000.0,1.0,17455.18,0.0,40936,0,20.916336,220,0,0,0,0,0.0,0,0,0,1,1,1,60,0,1,0,0,0,0,0,0,0,0,0,0,0,0,0,0,0
1743177558493379,4000000.0,1.0,17145.42,0.0,41226,0,20.916336,221,0,0,0,0,0.0,0,0,0,1,1,1,60,0,1,0,0,0,0,0,0,0,0,0,0,0,0,0,0,0
1743177559265379,4000000.0,1.0,17145.42,0.0,41524,0,20.916336,223,0,0,0,0,0.0,0,0,0,1,1,1,60,0,1,0,0,0,0,0,0,0,0,0,0,0,0,0,0,0
1743177560733379,4000000.0,1.0,17228.088,0.0,42069,0,20.916336,225,0,0,0,0,0.0,0,0,0,1,1,1,60,0,1,0,0,0,0,0,0,0,0,0,0,0,0,0,0,0
1743177561553379,4000000.0,1.0,17271.914,0.0,42381,0,20.916336,226,0,0,0,0,0.0,0,0,0,1,1,1,60,0,1,0,0,0,0,0,0,0,0,0,0,0,0,0,0,0
1743177562385379,4000000.0,1.0,17271.914,0.0,42695,0,20.916336,227,0,0,0,0,0.0,0,0,0,1,1,1,60,0,1,0,0,0,0,0,0,0,0,0,0,0,0,0,0,0
1743177563165379,4000000.0,1.0,17255.977,0.0,42991,0,41.832672,228,0,0,0,0,0.0,0,0,0,1,1,1,60,0,1,0,0,0,0,0,0,0,0,0,0,0,0,0,0,0
1743177564725379,4000000.0,1.0,17149.402,0.0,43572,0,20.916336,230,0,0,0,0,0.0,0,0,0,1,1,1,60,0,1,0,0,0,0,0,0,0,0,0,0,0,0,0,0,0
1743177565549379,4000000.0,1.0,17360.559,0.0,43886,0,20.916336,231,0,0,0,0,0.0,0,0,0,1,1,1,60,0,1,0,0,0,0,0,0,0,0,0,0,0,0,0,0,0
1743177566337379,4000000.0,1.0,17360.559,0.0,44184,0,20.916336,232,0,0,0,0,0.0,0,0,0,1,1,1,60,0,1,0,0,0,0,0,0,0,0,0,0,0,0,0,0,0
1743177567117379,4000000.0,1.0,17105.578,0.0,44480,0,41.832672,233,0,0,0,0,0.0,0,0,0,1,1,1,60,0,1,0,0,0,0,0,0,0,0,0,0,0,0,0,0,0
1743177568633379,4000000.0,1.0,17131.475,0.0,45041,0,20.916336,235,0,0,0,0,0.0,0,0,0,1,1,1,60,0,1,0,0,0,0,0,0,0,0,0,0,0,0,0,0,0
1743177569453379,4000000.0,1.0,17131.475,0.0,45354,0,20.916336,237,0,0,0,0,0.0,0,0,0,1,1,1,60,0,1,0,0,0,0,0,0,0,0,0,0,0,0,0,0,0
1743177570237379,4000000.0,1.0,17368.527,0.0,45650,0,67.72909,238,0,0,0,0,0.0,0,0,0,1,1,1,60,0,1,0,0,0,0,0,0,0,0,0,0,0,0,0,0,0
1743177571713379,4000000.0,1.0,17274.9,0.0,46211,0,20.916336,240,0,0,0,0,0.0,0,0,0,1,1,1,60,0,1,0,0,0,0,0,0,0,0,0,0,0,0,0,0,0
1743177572525379,4000000.0,1.0,17703.188,0.0,46517,0,20.916336,241,0,0,0,0,0.0,0,0,0,1,1,1,60,0,1,0,0,0,0,0,0,0,0,0,0,0,0,0,0,0
1743177573357379,4000000.0,1.0,17703.188,0.0,46837,0,20.916336,242,0,0,0,0,0.0,0,0,0,1,1,1,60,0,1,0,0,0,0,0,0,0,0,0,0,0,0,0,0,0
1743177574097379,4000000.0,1.0,17508.965,0.0,47118,0,41.832672,243,0,0,0,0,0.0,0,0,0,1,1,1,60,0,1,0,0,0,0,0,0,0,0,0,0,0,0,0,0,0
1743177575697379,4000000.0,1.0,17376.494,0.0,47714,0,20.916336,245,0,0,0,0,0.0,0,0,0,1,1,1,60,0,1,0,0,0,0,0,0,0,0,0,0,0,0,0,0,0
1743177576425379,4000000.0,1.0,17376.494,0.0,47988,0,20.916336,246,0,0,0,0,0.0,0,0,0,1,1,1,60,0,1,0,0,0,0,0,0,0,0,0,0,0,0,0,0,0
1743177577257379,4000000.0,1.0,17091.635,0.0,48303,0,41.832672,247,0,0,0,0,0.0,0,0,0,1,1,1,60,0,1,0,0,0,0,0,0,0,0,0,0,0,0,0,0,0
1743177578037379,4000000.0,1.0,17430.28,0.0,48598,0,20.916336,248,0,0,0,0,0.0,0,0,0,1,1,1,60,0,1,0,0,0,0,0,0,0,0,0,0,0,0,0,0,0
1743177579597379,4000000.0,1.0,17371.516,0.0,49181,0,46.81275,251,0,0,0,0,0.0,0,0,0,1,1,1,60,0,1,0,0,0,0,0,0,0,0,0,0,0,0,0,0,0
1743177580377379,4000000.0,1.0,17371.516,0.0,49473,0,46.81275,252,0,0,0,0,0.0,0,0,0,1,1,1,60,0,1,0,0,0,0,0,0,0,0,0,0,0,0,0,0,0
1743177581177379,4000000.0,1.0,17181.275,0.0,49777,0,41.832672,253,0,0,0,0,0.0,0,0,0,1,1,1,60,0,1,0,0,0,0,0,0,0,0,0,0,0,0,0,0,0
1743177582769379,4000000.0,1.0,17305.777,0.0,50366,0,20.916336,255,0,0,0,0,0.0,0,0,0,1,1,1,60,0,1,0,0,0,0,0,0,0,0,0,0,0,0,0,0,0
1743177583549379,4000000.0,1.0,17305.777,0.0,50664,0,20.916336,256,0,0,0,0,0.0,0,0,0,1,1,1,60,0,1,0,0,0,0,0,0,0,0,0,0,0,0,0,0,0
1743177584277379,4000000.0,1.0,17315.738,0.0,50940,0,41.832672,257,0,0,0,0,0.0,0,0,0,1,1,1,60,0,1,0,0,0,0,0,0,0,0,0,0,0,0,0,0,0
1743177585057379,4000000.0,1.0,17170.32,0.0,51237,0,20.916336,258,0,0,0,0,0.0,0,0,0,1,1,1,60,0,1,0,0,0,0,0,0,0,0,0,0,0,0,0,0,0
1743177586513379,4000000.0,1.0,17348.607,0.0,51773,0,20.916336,260,0,0,0,0,0.0,0,0,0,1,1,1,60,0,1,0,0,0,0,0,0,0,0,0,0,0,0,0,0,0
1743177587345379,4000000.0,1.0,17093.627,0.0,52091,0,41.832672,261,0,0,0,0,0.0,0,0,0,1,1,1,60,0,1,0,0,0,0,0,0,0,0,0,0,0,0,0,0,0
1743177588165379,4000000.0,1.0,17440.24,0.0,52399,0,20.916336,262,0,0,0,0,0.0,0,0,0,1,1,1,60,0,1,0,0,0,0,0,0,0,0,0,0,0,0,0,0,0
1743177589581379,4000000.0,1.0,17153.387,0.0,52930,0,20.916336,265,0,0,0,0,0.0,0,0,0,1,1,1,60,0,1,0,0,0,0,0,0,0,0,0,0,0,0,0,0,0
1743177590361379,4000000.0,1.0,17355.578,0.0,53223,0,67.72909,266,0,0,0,0,0.0,0,0,0,1,1,1,60,0,1,0,0,0,0,0,0,0,0,0,0,0,0,0,0,0
1743177591101379,4000000.0,1.0,17233.068,0.0,53507,0,20.916336,267,0,0,0,0,0.0,0,0,0,1,1,1,60,0,1,0,0,0,0,0,0,0,0,0,0,0,0,0,0,0
1743177592649379,4000000.0,1.0,17244.025,0.0,54080,0,20.916336,269,0,0,0,0,0.0,0,0,0,1,1,1,60,0,1,0,0,0,0,0,0,0,0,0,0,0,0,0,0,0
1743177593429379,4000000.0,1.0,17244.025,0.0,54376,0,20.916336,270,0,0,0,0,0.0,0,0,0,1,1,1,60,0,1,0,0,0,0,0,0,0,0,0,0,0,0,0,0,0
1743177594225379,4000000.0,1.0,17312.75,0.0,54675,0,41.832672,271,0,0,0,0,0.0,0,0,0,1,1,1,60,0,1,0,0,0,0,0,0,0,0,0,0,0,0,0,0,0
1743177594989379,4000000.0,1.0,17175.299,0.0,54953,0,20.916336,272,0,0,0,0,0.0,0,0,0,1,1,1,60,0,1,0,0,0,0,0,0,0,0,0,0,0,0,0,0,0
