timestamp,timestamp_sample,gps_hvel[0],gps_hvel[1],gps_vvel,gps_hpos[0],gps_hpos[1],gps_vpos,ev_hvel[0],ev_hvel[1],ev_vvel,ev_hpos[0],ev_hpos[1],ev_vpos,rng_vpos,baro_vpos,aux_hvel[0],aux_hvel[1],flow[0],flow[1],heading,mag_field[0],mag_field[1],mag_field[2],gravity[0],gravity[1],gravity[2],drag[0],drag[1],airspeed,beta,hagl,hagl_rate
1743177449813379,1743177449661379,0.09357157,0.09357158,0.20580223,0.7502635,0.7502635,0.6394282,0.0,0.0,0.0,0.0,0.0,0.0,0.0,12.333491,0.0,0.0,0.0,0.0,0.0,0.0075000003,0.0075000003,0.0075000003,1.0004401,1.0004401,1.0,0.0,0.0,0.0,0.0,0.0,0.0
1743177449821379,1743177449669379,0.09357157,0.09357158,0.20580223,0.7502635,0.7502635,0.6394282,0.0,0.0,0.0,0.0,0.0,0.0,0.0,12.333491,0.0,0.0,0.0,0.0,0.0,0.0075000003,0.0075000003,0.0075000003,1.0004406,1.0004406,1.0,0.0,0.0,0.0,0.0,0.0,0.0
1743177449829379,1743177449677379,0.09357157,0.09357158,0.20580223,0.7502635,0.7502635,0.6394282,0.0,0.0,0.0,0.0,0.0,0.0,0.0,12.324782,0.0,0.0,0.0,0.0,0.0,0.0075000003,0.0075000003,0.0075000003,1.0004411,1.0004411,1.0,0.0,0.0,0.0,0.0,0.0,0.0
1743177449837379,1743177449685379,0.09357157,0.09357158,0.20580223,0.7502635,0.7502635,0.6394282,0.0,0.0,0.0,0.0,0.0,0.0,0.0,12.324782,0.0,0.0,0.0,0.0,0.0,0.0075000003,0.0075000003,0.0075000003,1.0004416,1.0004416,1.0,0.0,0.0,0.0,0.0,0.0,0.0
1743177449845379,1743177449693379,0.1299751,0.1299751,0.20592932,100.25009,100.25009,0.62985724,0.0,0.0,0.0,0.0,0.0,0.0,0.0,12.324782,0.0,0.0,0.0,0.0,0.0,0.0075000003,0.0075000003,0.0075000003,1.000442,1.000442,1.0,0.0,0.0,0.0,0.0,0.0,0.0
1743177449853379,1743177449701379,0.1299751,0.1299751,0.20592932,100.25009,100.25009,0.62985724,0.0,0.0,0.0,0.0,0.0,0.0,0.0,12.324782,0.0,0.0,0.0,0.0,0.0,0.0075000003,0.0075000008,0.0075000008,1.0004425,1.0004425,1.0,0.0,0.0,0.0,0.0,0.0,0.0
1743177449861379,1743177449709379,0.1299751,0.1299751,0.20592932,100.25009,100.25009,0.62985724,0.0,0.0,0.0,0.0,0.0,0.0,0.0,12.324782,0.0,0.0,0.0,0.0,0.0,0.0075000003,0.0075000008,0.0075000008,1.000443,1.000443,1.0,0.0,0.0,0.0,0.0,0.0,0.0
1743177449869379,1743177449717379,0.1299751,0.1299751,0.20592932,100.25009,100.25009,0.62985724,0.0,0.0,0.0,0.0,0.0,0.0,0.0,12.324782,0.0,0.0,0.0,0.0,0.0,0.0075000003,0.0075000008,0.0075000008,1.0004435,1.0004435,1.0,0.0,0.0,0.0,0.0,0.0,0.0
1743177449885379,1743177449733379,0.1299751,0.1299751,0.20592932,100.25009,100.25009,0.62985724,0.0,0.0,0.0,0.0,0.0,0.0,0.0,12.318106,0.0,0.0,0.0,0.0,0.0,0.0075000003,0.0075000008,0.0075000008,1.0004444,1.0004444,1.0,0.0,0.0,0.0,0.0,0.0,0.0
1743177449893379,1743177449741379,0.13006333,0.13006333,0.20628472,100.25037,100.25037,0.6224257,0.0,0.0,0.0,0.0,0.0,0.0,0.0,12.318106,0.0,0.0,0.0,0.0,0.0,0.0075000003,0.0075000008,0.0075000008,1.000445,1.000445,1.0,0.0,0.0,0.0,0.0,0.0,0.0
1743177449901379,1743177449749379,0.13006333,0.13006333,0.20628472,100.25037,100.25037,0.6224257,0.0,0.0,0.0,0.0,0.0,0.0,0.0,12.318106,0.0,0.0,0.0,0.0,0.0,0.0075000003,0.0075000008,0.0075000008,1.0004455,1.0004455,1.0,0.0,0.0,0.0,0.0,0.0,0.0
1743177449909379,1743177449757379,0.13006333,0.13006333,0.20628472,100.25037,100.25037,0.6224257,0.0,0.0,0.0,0.0,0.0,0.0,0.0,12.318106,0.0,0.0,0.0,0.0,0.0,0.0075000003,0.0075000008,0.0075000008,1.000446,1.000446,1.0,0.0,0.0,0.0,0.0,0.0,0.0
1743177449925379,1743177449773379,0.13006333,0.13006333,0.20628472,100.25037,100.25037,0.6224257,0.0,0.0,0.0,0.0,0.0,0.0,0.0,12.318106,0.0,0.0,0.0,0.0,0.0,0.0075000003,0.0075000003,0.0075000003,1.000447,1.000447,1.0,0.0,0.0,0.0,0.0,0.0,0.0
1743177449933379,1743177449781379,0.13006333,0.13006333,0.20628472,100.25037,100.25037,0.6224257,0.0,0.0,0.0,0.0,0.0,0.0,0.0,12.313103,0.0,0.0,0.0,0.0,0.0,0.0075000003,0.0075000003,0.0075000003,1.0004476,1.0004476,1.0,0.0,0.0,0.0,0.0,0.0,0.0
1743177449941379,1743177449789379,0.13006333,0.13006333,0.20628472,100.25037,100.25037,0.6224257,0.0,0.0,0.0,0.0,0.0,0.0,0.0,12.313103,0.0,0.0,0.0,0.0,0.0,0.0075000003,0.0075000003,0.0075000003,1.0004481,1.0004481,1.0,0.0,0.0,0.0,0.0,0.0,0.0
1743177449949379,1743177449797379,0.1302145,0.13021448,0.20672087,100.250916,100.250916,0.6165111,0.0,0.0,0.0,0.0,0.0,0.0,0.0,12.313103,0.0,0.0,0.0,0.0,0.0,0.0075000003,0.0075000003,0.0075000003,1.0004487,1.0004487,1.0,0.0,0.0,0.0,0.0,0.0,0.0
1743177449965379,1743177449813379,0.1302145,0.13021448,0.20672087,100.250916,100.250916,0.6165111,0.0,0.0,0.0,0.0,0.0,0.0,0.0,12.313103,0.0,0.0,0.0,0.0,0.0,0.0075000003,0.0075000003,0.0075000003,1.0004418,1.0004418,1.0,0.0,0.0,0.0,0.0,0.0,0.0
1743177449973379,1743177449821379,0.1302145,0.13021448,0.20672087,100.250916,100.250916,0.6165111,0.0,0.0,0.0,0.0,0.0,0.0,0.0,12.313103,0.0,0.0,0.0,0.0,0.0,0.0075000003,0.0075000003,0.0075000003,1.0004423,1.0004423,1.0,0.0,0.0,0.0,0.0,0.0,0.0
1743177449981379,1743177449829379,0.1302145,0.13021448,0.20672087,100.250916,100.250916,0.6165111,0.0,0.0,0.0,0.0,0.0,0.0,0.0,12.309053,0.0,0.0,0.0,0.0,0.0,0.0075000003,0.0075000003,0.0075000003,1.0004426,1.0004426,1.0,0.0,0.0,0.0,0.0,0.0,0.0
1743177449989379,1743177449837379,0.1302145,0.13021448,0.20672087,100.250916,100.250916,0.6165111,0.0,0.0,0.0,0.0,0.0,0.0,0.0,12.309053,0.0,0.0,0.0,0.0,0.0,0.0075000008,0.0075000003,0.0075000008,1.0004431,1.0004431,1.0,0.0,0.0,0.0,0.0,0.0,0.0
1743177450005379,1743177449853379,0.13036598,0.13036597,0.20711263,100.25159,100.25159,0.611678,0.0,0.0,0.0,0.0,0.0,0.0,0.0,12.309053,0.0,0.0,0.0,0.0,0.0,0.0075000008,0.0075000003,0.0075000008,1.000444,1.000444,1.0,0.0,0.0,0.0,0.0,0.0,0.0
1743177450013379,1743177449861379,0.13036598,0.13036597,0.20711263,100.25159,100.25159,0.611678,0.0,0.0,0.0,0.0,0.0,0.0,0.0,12.309053,0.0,0.0,0.0,0.0,0.0,0.0075000008,0.0075000003,0.0075000008,1.0004445,1.0004445,1.0,0.0,0.0,0.0,0.0,0.0,0.0
1743177450021379,1743177449869379,0.13036598,0.13036597,0.20711263,100.25159,100.25159,0.611678,0.0,0.0,0.0,0.0,0.0,0.0,0.0,12.309053,0.0,0.0,0.0,0.0,0.0,0.0075000008,0.0075000003,0.0075000008,1.000445,1.000445,1.0,0.0,0.0,0.0,0.0,0.0,0.0
1743177450029379,1743177449877379,0.13036598,0.13036597,0.20711263,100.25159,100.25159,0.611678,0.0,0.0,0.0,0.0,0.0,0.0,0.0,12.309053,0.0,0.0,0.0,0.0,0.0,0.0075000008,0.0075000003,0.0075000008,1.0004451,1.0004451,1.0,0.0,0.0,0.0,0.0,0.0,0.0
1743177450045379,1743177449893379,0.13036598,0.13036597,0.20711263,100.25159,100.25159,0.611678,0.0,0.0,0.0,0.0,0.0,0.0,0.0,12.305961,0.0,0.0,0.0,0.0,0.0,0.0075000008,0.0075000003,0.0075000008,1.0004461,1.0004461,1.0,0.0,0.0,0.0,0.0,0.0,0.0
1743177450053379,1743177449901379,0.09,0.09,0.20250002,0.25,0.25,0.6076518,0.0,0.0,0.0,0.0,0.0,0.0,0.0,12.305961,0.0,0.0,0.0,0.0,0.0,0.0025000002,0.0025000002,0.0025000002,1.0004466,1.0004466,1.0,0.0,0.0,0.0,0.0,0.0,0.0
1743177450061379,1743177449909379,0.09,0.09,0.20250002,0.25,0.25,0.6076518,0.0,0.0,0.0,0.0,0.0,0.0,0.0,12.305961,0.0,0.0,0.0,0.0,0.0,0.0025000002,0.0025000002,0.0025000002,1.0004466,1.0004466,1.0,0.0,0.0,0.0,0.0,0.0,0.0
1743177450069379,1743177449917379,0.09,0.09,0.20250002,0.25,0.25,0.6076518,0.0,0.0,0.0,0.0,0.0,0.0,0.0,12.305961,0.0,0.0,0.0,0.0,0.0,0.0025000002,0.0025000002,0.0025000002,1.0004466,1.0004466,1.0,0.0,0.0,0.0,0.0,0.0,0.0
1743177450085379,1743177449933379,0.09,0.09,0.20250002,0.25,0.25,0.6076518,0.0,0.0,0.0,0.0,0.0,0.0,0.0,12.303508,0.0,0.0,0.0,0.0,0.0,0.0025000002,0.0025000002,0.0025000002,1.0004467,1.0004467,1.0,0.0,0.0,0.0,0.0,0.0,0.0
1743177450093379,1743177449941379,0.09,0.09,0.20250002,0.25,0.25,0.6076518,0.0,0.0,0.0,0.0,0.0,0.0,0.0,12.303508,0.0,0.0,0.0,0.0,0.0,0.0025000002,0.0025000002,0.0025000002,1.0004467,1.0004467,1.0,0.0,0.0,0.0,0.0,0.0,0.0
1743177450101379,1743177449949379,0.18022662,0.18022661,0.40505156,0.7502075,0.7502075,0.60438704,0.0,0.0,0.0,0.0,0.0,0.0,0.0,12.303508,0.0,0.0,0.0,0.0,0.0,0.0025000002,0.0025000002,0.0025000002,1.0004463,1.0004463,1.0,0.0,0.0,0.0,0.0,0.0,0.0
1743177450109379,1743177449957379,0.18022662,0.18022661,0.40505156,0.7502075,0.7502075,0.60438704,0.0,0.0,0.0,0.0,0.0,0.0,0.0,12.303508,0.0,0.0,0.0,0.0,0.0,0.0025000002,0.0025000002,0.0025000002,1.0004463,1.0004463,1.0,0.0,0.0,0.0,0.0,0.0,0.0
1743177450125379,1743177449973379,0.18022662,0.18022661,0.40505156,0.7502075,0.7502075,0.60438704,0.0,0.0,0.0,0.0,0.0,0.0,0.0,12.303508,0.0,0.0,0.0,0.0,0.010769952,0.010769952,0.0076109176,0.0075157657,1.0004463,1.0004464,1.0,0.0,0.0,0.0,0.0,0.0,0.0
1743177450133379,1743177449981379,0.18022662,0.18022661,0.40505156,0.7502075,0.7502075,0.60438704,0.0,0.0,0.0,0.0,0.0,0.0,0.0,12.303508,0.0,0.0,0.0,0.0,0.010769952,0.010769952,0.0076109176,0.0075157657,1.0004464,1.0004466,1.0,0.0,0.0,0.0,0.0,0.0,0.0
1743177450141379,1743177449989379,0.18022662,0.18022661,0.40505156,0.7502075,0.7502075,0.60438704,0.0,0.0,0.0,0.0,0.0,0.0,0.0,12.30197,0.0,0.0,0.0,0.0,0.010769952,0.010769952,0.0076109176,0.0075157657,1.0004464,1.0004466,1.0,0.0,0.0,0.0,0.0,0.0,0.0
1743177450149379,1743177449997379,0.18022662,0.18022661,0.40505156,0.7502075,0.7502075,0.60438704,0.0,0.0,0.0,0.0,0.0,0.0,0.0,12.30197,0.0,0.0,0.0,0.0,0.010769952,0.010769952,0.0076109176,0.0075157657,1.0004466,1.0004467,1.0,0.0,0.0,0.0,0.0,0.0,0.0
1743177450165379,1743177450013379,0.1355534,0.13555315,0.3037929,0.41690052,0.41690052,0.6018397,0.0,0.0,0.0,0.0,0.0,0.0,0.0,12.30197,0.0,0.0,0.0,0.0,0.010769952,0.010769952,0.0076109176,0.0075157657,1.0004387,1.0004389,1.0,0.0,0.0,0.0,0.0,0.0,0.0
1743177450173379,1743177450021379,0.1355534,0.13555315,0.3037929,0.41690052,0.41690052,0.6018397,0.0,0.0,0.0,0.0,0.0,0.0,0.0,12.30197,0.0,0.0,0.0,0.0,0.010769952,0.010769952,0.0076109176,0.0075157657,1.0004388,1.0004389,1.0,0.0,0.0,0.0,0.0,0.0,0.0
1743177450181379,1743177450029379,0.1355534,0.13555315,0.3037929,0.41690052,0.41690052,0.6018397,0.0,0.0,0.0,0.0,0.0,0.0,0.0,12.30197,0.0,0.0,0.0,0.0,0.010769952,0.010769952,0.0076109176,0.0075157657,1.0004388,1.000439,1.0,0.0,0.0,0.0,0.0,0.0,0.0
1743177450189379,1743177450037379,0.1355534,0.13555315,0.3037929,0.41690052,0.41690052,0.6018397,0.0,0.0,0.0,0.0,0.0,0.0,0.0,12.300523,0.0,0.0,0.0,0.0,0.004392057,0.004392057,0.0041798106,0.0041684015,1.0004388,1.0004392,1.0,0.0,0.0,0.0,0.0,0.0,0.0
1743177450205379,1743177450053379,0.12084596,0.12084421,0.27000955,0.35025072,0.35025072,0.59958047,0.0,0.0,0.0,0.0,0.0,0.0,0.0,12.300523,0.0,0.0,0.0,0.0,0.004392057,0.004392057,0.0041798106,0.0041684015,1.0004364,1.0004367,1.0,0.0,0.0,0.0,0.0,0.0,0.0
1743177450213379,1743177450061379,0.12084596,0.12084421,0.27000955,0.35025072,0.35025072,0.59958047,0.0,0.0,0.0,0.0,0.0,0.0,0.0,12.300523,0.0,0.0,0.0,0.0,0.004392057,0.004392057,0.0041798106,0.0041684015,1.0004364,1.0004368,1.0,0.0,0.0,0.0,0.0,0.0,0.0
1743177450221379,1743177450069379,0.12084596,0.12084421,0.27000955,0.35025072,0.35025072,0.59958047,0.0,0.0,0.0,0.0,0.0,0.0,0.0,12.300523,0.0,0.0,0.0,0.0,0.004392057,0.004392057,0.0041798106,0.0041684015,1.0004365,1.0004369,1.0,0.0,0.0,0.0,0.0,0.0,0.0
1743177450229379,1743177450077379,0.12084596,0.12084421,0.27000955,0.35025072,0.35025072,0.59958047,0.0,0.0,0.0,0.0,0.0,0.0,0.0,12.300523,0.0,0.0,0.0,0.0,0.004392057,0.004392057,0.0041798106,0.0041684015,1.0004367,1.000437,1.0,0.0,0.0,0.0,0.0,0.0,0.0
1743177450245379,1743177450093379,0.12084596,0.12084421,0.27000955,0.35025072,0.35025072,0.59958047,0.0,0.0,0.0,0.0,0.0,0.0,0.0,12.29964,0.0,0.0,0.0,0.0,0.004392057,0.004392057,0.0041798106,0.0041684015,1.0004369,1.0004373,1.0,0.0,0.0,0.0,0.0,0.0,0.0
1743177450253379,1743177450101379,0.12084596,0.12084421,0.27000955,0.35025072,0.35025072,0.59958047,0.0,0.0,0.0,0.0,0.0,0.0,0.0,12.29964,0.0,0.0,0.0,0.0,0.004392057,0.004392057,0.0041798106,0.0041684015,1.000437,1.0004373,1.0,0.0,0.0,0.0,0.0,0.0,0.0
1743177450261379,1743177450109379,0.11390059,0.11389736,0.2531336,0.3217622,0.3217622,0.59773684,0.0,0.0,0.0,0.0,0.0,0.0,0.0,12.29964,0.0,0.0,0.0,0.0,0.0035651978,0.0035651978,0.0035050716,0.0035006122,1.0004324,1.0004328,1.0,0.0,0.0,0.0,0.0,0.0,0.0
1743177450269379,1743177450117379,0.11390059,0.11389736,0.2531336,0.3217622,0.3217622,0.59773684,0.0,0.0,0.0,0.0,0.0,0.0,0.0,12.29964,0.0,0.0,0.0,0.0,0.0035651978,0.0035651978,0.0035050716,0.0035006122,1.0004325,1.000433,1.0,0.0,0.0,0.0,0.0,0.0,0.0
1743177450285379,1743177450133379,0.11390059,0.11389736,0.2531336,0.3217622,0.3217622,0.59773684,0.0,0.0,0.0,0.0,0.0,0.0,0.0,12.29964,0.0,0.0,0.0,0.0,0.0035651978,0.0035651978,0.0035050716,0.0035006122,1.0004327,1.0004332,1.0,0.0,0.0,0.0,0.0,0.0,0.0
1743177450293379,1743177450141379,0.11390059,0.11389736,0.2531336,0.3217622,0.3217622,0.59773684,0.0,0.0,0.0,0.0,0.0,0.0,0.0,12.298706,0.0,0.0,0.0,0.0,0.0035651978,0.0035651978,0.0035050716,0.0035006122,1.0004328,1.0004333,1.0,0.0,0.0,0.0,0.0,0.0,0.0
1743177450301379,1743177450149379,0.11390059,0.11389736,0.2531336,0.3217622,0.3217622,0.59773684,0.0,0.0,0.0,0.0,0.0,0.0,0.0,12.298706,0.0,0.0,0.0,0.0,0.0035651978,0.0035651978,0.0035050716,0.0035006122,1.000433,1.0004334,1.0,0.0,0.0,0.0,0.0,0.0,0.0
1743177450309379,1743177450157379,0.10985488,0.10984949,0.24299233,0.30592522,0.30592522,0.59600824,0.0,0.0,0.0,0.0,0.0,0.0,0.0,12.298706,0.0,0.0,0.0,0.0,0.0035651978,0.0035651978,0.0035050716,0.0035006122,1.0004268,1.0004272,1.0,0.0,0.0,0.0,0.0,0.0,0.0
1743177450325379,1743177450173379,0.10985488,0.10984949,0.24299233,0.30592522,0.30592522,0.59600824,0.0,0.0,0.0,0.0,0.0,0.0,0.0,12.298706,0.0,0.0,0.0,0.0,0.0032457928,0.0032457928,0.0032170163,0.0032146296,1.0004269,1.0004275,1.0,0.0,0.0,0.0,0.0,0.0,0.0
1743177450333379,1743177450181379,0.10985488,0.10984949,0.24299233,0.30592522,0.30592522,0.59600824,0.0,0.0,0.0,0.0,0.0,0.0,0.0,12.298706,0.0,0.0,0.0,0.0,0.0032457928,0.0032457928,0.0032170163,0.0032146296,1.000427,1.0004276,1.0,0.0,0.0,0.0,0.0,0.0,0.0
1743177450341379,1743177450189379,0.10985488,0.10984949,0.24299233,0.30592522,0.30592522,0.59600824,0.0,0.0,0.0,0.0,0.0,0.0,0.0,12.298706,0.0,0.0,0.0,0.0,0.0032457928,0.0032457928,0.0032170163,0.0032146296,1.0004272,1.0004277,1.0,0.0,0.0,0.0,0.0,0.0,0.0
1743177450349379,1743177450197379,0.10985488,0.10984949,0.24299233,0.30592522,0.30592522,0.59600824,0.0,0.0,0.0,0.0,0.0,0.0,0.0,12.298243,0.0,0.0,0.0,0.0,0.0032457928,0.0032457928,0.0032170163,0.0032146296,1.0004274,1.0004278,1.0,0.0,0.0,0.0,0.0,0.0,0.0
1743177450365379,1743177450213379,0.107585266,0.10757792,0.23625737,0.29591164,0.2959116,0.59460133,0.0,0.0,0.0,0.0,0.0,0.0,0.0,12.298243,0.0,0.0,0.0,0.0,0.0032457928,0.0032457928,0.0032170163,0.0032146296,1.0004137,1.0004144,1.0,0.0,0.0,0.0,0.0,0.0,0.0
1743177450373379,1743177450221379,0.107585266,0.10757792,0.23625737,0.29591164,0.2959116,0.59460133,0.0,0.0,0.0,0.0,0.0,0.0,0.0,12.298243,0.0,0.0,0.0,0.0,0.0032457928,0.0032457928,0.0032170163,0.0032146296,1.0004138,1.0004145,1.0,0.0,0.0,0.0,0.0,0.0,0.0
1743177450381379,1743177450229379,0.107585266,0.10757792,0.23625737,0.29591164,0.2959116,0.59460133,0.0,0.0,0.0,0.0,0.0,0.0,0.0,12.298243,0.0,0.0,0.0,0.0,0.0032457928,0.0032457928,0.0032170163,0.0032146296,1.000414,1.0004146,1.0,0.0,0.0,0.0,0.0,0.0,0.0
1743177450389379,1743177450237379,0.107585266,0.10757792,0.23625737,0.29591164,0.2959116,0.59460133,0.0,0.0,0.0,0.0,0.0,0.0,0.0,12.298243,0.0,0.0,0.0,0.0,0.0032457928,0.0032457928,0.0032170163,0.0032146296,1.0004141,1.0004147,1.0,0.0,0.0,0.0,0.0,0.0,0.0
1743177450405379,1743177450253379,0.107585266,0.10757792,0.23625737,0.29591164,0.2959116,0.59460133,0.0,0.0,0.0,0.0,0.0,0.0,0.0,12.297664,0.0,0.0,0.0,0.0,0.0030723633,0.0030723633,0.0030574051,0.0030557823,1.0004144,1.0004151,1.0,0.0,0.0,0.0,0.0,0.0,0.0
1743177450413379,1743177450261379,0.10599449,0.10598519,0.23143494,0.28896096,0.2889609,0.59323305,0.0,0.0,0.0,0.0,0.0,0.0,0.0,12.297664,0.0,0.0,0.0,0.0,0.0030723633,0.0030723633,0.0030574051,0.0030557823,1.0004036,1.0004044,1.0,0.0,0.0,0.0,0.0,0.0,0.0
1743177450421379,1743177450269379,0.10599449,0.10598519,0.23143494,0.28896096,0.2889609,0.59323305,0.0,0.0,0.0,0.0,0.0,0.0,0.0,12.297664,0.0,0.0,0.0,0.0,0.0030723633,0.0030723633,0.0030574051,0.0030557823,1.0004038,1.0004046,1.0,0.0,0.0,0.0,0.0,0.0,0.0
1743177450429379,1743177450277379,0.10599449,0.10598519,0.23143494,0.28896096,0.2889609,0.59323305,0.0,0.0,0.0,0.0,0.0,0.0,0.0,12.297664,0.0,0.0,0.0,0.0,0.0030723633,0.0030723633,0.0030574051,0.0030557823,1.000404,1.0004047,1.0,0.0,0.0,0.0,0.0,0.0,0.0
1743177450445379,1743177450293379,0.10599449,0.10598519,0.23143494,0.28896096,0.2889609,0.59323305,0.0,0.0,0.0,0.0,0.0,0.0,0.0,12.297664,0.0,0.0,0.0,0.0,0.0030723633,0.0030723633,0.0030574051,0.0030557823,1.0004042,1.0004051,1.0,0.0,0.0,0.0,0.0,0.0,0.0
1743177450453379,1743177450301379,0.10599449,0.10598519,0.23143494,0.28896096,0.2889609,0.59323305,0.0,0.0,0.0,0.0,0.0,0.0,0.0,12.297495,0.0,0.0,0.0,0.0,0.0030723633,0.0030723633,0.0030574051,0.0030557823,1.0004045,1.0004052,1.0,0.0,0.0,0.0,0.0,0.0,0.0
1743177450461379,1743177450309379,0.10599449,0.10598519,0.23143494,0.28896096,0.2889609,0.59323305,0.0,0.0,0.0,0.0,0.0,0.0,0.0,12.297495,0.0,0.0,0.0,0.0,0.0029660114,0.0029660114,0.0029559124,0.0029547312,1.0004046,1.0004053,1.0,0.0,0.0,0.0,0.0,0.0,0.0
1743177450469379,1743177450317379,0.10524644,0.105230264,0.22784947,0.2839257,0.28392562,0.5921294,0.0,0.0,0.0,0.0,0.0,0.0,0.0,12.297495,0.0,0.0,0.0,0.0,0.0029660114,0.0029660114,0.0029559124,0.0029547312,1.0003911,1.000392,1.0,0.0,0.0,0.0,0.0,0.0,0.0
1743177450485379,1743177450333379,0.10524644,0.105230264,0.22784947,0.2839257,0.28392562,0.5921294,0.0,0.0,0.0,0.0,0.0,0.0,0.0,12.297495,0.0,0.0,0.0,0.0,0.0029660114,0.0029660114,0.0029559124,0.0029547312,1.0003915,1.0003923,1.0,0.0,0.0,0.0,0.0,0.0,0.0
1743177450493379,1743177450341379,0.10524644,0.105230264,0.22784947,0.2839257,0.28392562,0.5921294,0.0,0.0,0.0,0.0,0.0,0.0,0.0,12.297495,0.0,0.0,0.0,0.0,0.0029660114,0.0029660114,0.0029559124,0.0029547312,1.0003917,1.0003924,1.0,0.0,0.0,0.0,0.0,0.0,0.0
1743177450501379,1743177450349379,0.10524644,0.105230264,0.22784947,0.2839257,0.28392562,0.5921294,0.0,0.0,0.0,0.0,0.0,0.0,0.0,12.297172,0.0,0.0,0.0,0.0,0.0029660114,0.0029660114,0.0029559124,0.0029547312,1.0003918,1.0003927,1.0,0.0,0.0,0.0,0.0,0.0,0.0
1743177450509379,1743177450357379,0.10524644,0.105230264,0.22784947,0.2839257,0.28392562,0.5921294,0.0,0.0,0.0,0.0,0.0,0.0,0.0,12.297172,0.0,0.0,0.0,0.0,0.0029660114,0.0029660114,0.0029559124,0.0029547312,1.0003921,1.0003928,1.0,0.0,0.0,0.0,0.0,0.0,0.0
1743177450525379,1743177450373379,0.10457436,0.1045565,0.22504936,0.28005144,0.28005132,0.5910204,0.0,0.0,0.0,0.0,0.0,0.0,0.0,12.297172,0.0,0.0,0.0,0.0,0.0029660114,0.0029660114,0.0029559124,0.0029547312,1.0003773,1.0003781,1.0,0.0,0.0,0.0,0.0,0.0,0.0
1743177450533379,1743177450381379,0.10457436,0.1045565,0.22504936,0.28005144,0.28005132,0.5910204,0.0,0.0,0.0,0.0,0.0,0.0,0.0,12.297172,0.0,0.0,0.0,0.0,0.0028932348,0.0028932348,0.002885746,0.0028847826,1.0003774,1.0003783,1.0,0.0,0.0,0.0,0.0,0.0,0.0
1743177450541379,1743177450389379,0.10457436,0.1045565,0.22504936,0.28005144,0.28005132,0.5910204,0.0,0.0,0.0,0.0,0.0,0.0,0.0,12.297172,0.0,0.0,0.0,0.0,0.0028932348,0.0028932348,0.002885746,0.0028847826,1.0003775,1.0003785,1.0,0.0,0.0,0.0,0.0,0.0,0.0
1743177450549379,1743177450397379,0.10457436,0.1045565,0.22504936,0.28005144,0.28005132,0.5910204,0.0,0.0,0.0,0.0,0.0,0.0,0.0,12.297172,0.0,0.0,0.0,0.0,0.0028932348,0.0028932348,0.002885746,0.0028847826,1.0003778,1.0003786,1.0,0.0,0.0,0.0,0.0,0.0,0.0
1743177450565379,1743177450413379,0.10457436,0.1045565,0.22504936,0.28005144,0.28005132,0.5910204,0.0,0.0,0.0,0.0,0.0,0.0,0.0,12.297216,0.0,0.0,0.0,0.0,0.0028932348,0.0028932348,0.002885746,0.0028847826,1.0003743,1.0003753,1.0,0.0,0.0,0.0,0.0,0.0,0.0
1743177450573379,1743177450421379,0.1044299,0.10440805,0.22284454,0.27705503,0.27705482,0.5901374,0.0,0.0,0.0,0.0,0.0,0.0,0.0,12.297216,0.0,0.0,0.0,0.0,0.0028932348,0.0028932348,0.002885746,0.0028847826,1.0003574,1.0003582,1.0,0.0,0.0,0.0,0.0,0.0,0.0
1743177450581379,1743177450429379,0.1044299,0.10440805,0.22284454,0.27705503,0.27705482,0.5901374,0.0,0.0,0.0,0.0,0.0,0.0,0.0,12.297216,0.0,0.0,0.0,0.0,0.0028932348,0.0028932348,0.002885746,0.0028847826,1.0003575,1.0003585,1.0,0.0,0.0,0.0,0.0,0.0,0.0
1743177450589379,1743177450437379,0.1044299,0.10440805,0.22284454,0.27705503,0.27705482,0.5901374,0.0,0.0,0.0,0.0,0.0,0.0,0.0,12.297216,0.0,0.0,0.0,0.0,0.0028932348,0.0028932348,0.002885746,0.0028847826,1.0003577,1.0003586,1.0,0.0,0.0,0.0,0.0,0.0,0.0
1743177450605379,1743177450453379,0.1044299,0.10440805,0.22284454,0.27705503,0.27705482,0.5901374,0.0,0.0,0.0,0.0,0.0,0.0,0.0,12.297081,0.0,0.0,0.0,0.0,0.0028398342,0.0028398342,0.0028343399,0.0028334854,1.000358,1.0003589,1.0,0.0,0.0,0.0,0.0,0.0,0.0
1743177450613379,1743177450461379,0.1044299,0.10440805,0.22284454,0.27705503,0.27705482,0.5901374,0.0,0.0,0.0,0.0,0.0,0.0,0.0,12.297081,0.0,0.0,0.0,0.0,0.0028398342,0.0028398342,0.0028343399,0.0028334854,1.0003582,1.0003592,1.0,0.0,0.0,0.0,0.0,0.0,0.0
1743177450621379,1743177450469379,0.10412786,0.10410682,0.22102803,0.27460033,0.2746001,0.58922166,0.0,0.0,0.0,0.0,0.0,0.0,0.0,12.297081,0.0,0.0,0.0,0.0,0.0028398342,0.0028398342,0.0028343399,0.0028334854,1.0003403,1.0003413,1.0,0.0,0.0,0.0,0.0,0.0,0.0
1743177450629379,1743177450477379,0.10412786,0.10410682,0.22102803,0.27460033,0.2746001,0.58922166,0.0,0.0,0.0,0.0,0.0,0.0,0.0,12.297081,0.0,0.0,0.0,0.0,0.0028398342,0.0028398342,0.0028343399,0.0028334854,1.0003406,1.0003415,1.0,0.0,0.0,0.0,0.0,0.0,0.0
1743177450645379,1743177450493379,0.10412786,0.10410682,0.22102803,0.27460033,0.2746001,0.58922166,0.0,0.0,0.0,0.0,0.0,0.0,0.0,12.297081,0.0,0.0,0.0,0.0,0.0028398342,0.0028398342,0.0028343399,0.0028334854,1.0003409,1.0003419,1.0,0.0,0.0,0.0,0.0,0.0,0.0
1743177450653379,1743177450501379,0.10412786,0.10410682,0.22102803,0.27460033,0.2746001,0.58922166,0.0,0.0,0.0,0.0,0.0,0.0,0.0,12.297081,0.0,0.0,0.0,0.0,0.0028398342,0.0028398342,0.0028343399,0.0028334854,1.0003412,1.000342,1.0,0.0,0.0,0.0,0.0,0.0,0.0
1743177450661379,1743177450509379,0.10412786,0.10410682,0.22102803,0.27460033,0.2746001,0.58922166,0.0,0.0,0.0,0.0,0.0,0.0,0.0,12.297285,0.0,0.0,0.0,0.0,0.0028398342,0.0028398342,0.0028343399,0.0028334854,1.0003413,1.0003422,1.0,0.0,0.0,0.0,0.0,0.0,0.0
1743177450669379,1743177450517379,0.10412786,0.10410682,0.22102803,0.27460033,0.2746001,0.58922166,0.0,0.0,0.0,0.0,0.0,0.0,0.0,12.297285,0.0,0.0,0.0,0.0,0.0027991934,0.0027991934,0.0027951268,0.0027942748,1.0003414,1.0003424,1.0,0.0,0.0,0.0,0.0,0.0,0.0
1743177450685379,1743177450533379,0.10425175,0.104226306,0.21955274,0.27263665,0.27263632,0.58850443,0.0,0.0,0.0,0.0,0.0,0.0,0.0,12.297285,0.0,0.0,0.0,0.0,0.0027991934,0.0027991934,0.0027951268,0.0027942748,1.0003225,1.0003234,1.0,0.0,0.0,0.0,0.0,0.0,0.0
1743177450693379,1743177450541379,0.10425175,0.104226306,0.21955274,0.27263665,0.27263632,0.58850443,0.0,0.0,0.0,0.0,0.0,0.0,0.0,12.297285,0.0,0.0,0.0,0.0,0.0027991934,0.0027991934,0.0027951268,0.0027942748,1.0003227,1.0003237,1.0,0.0,0.0,0.0,0.0,0.0,0.0
1743177450701379,1743177450549379,0.10425175,0.104226306,0.21955274,0.27263665,0.27263632,0.58850443,0.0,0.0,0.0,0.0,0.0,0.0,0.0,12.297285,0.0,0.0,0.0,0.0,0.0027991934,0.0027991934,0.0027951268,0.0027942748,1.0003229,1.0003238,1.0,0.0,0.0,0.0,0.0,0.0,0.0
1743177450709379,1743177450557379,0.10425175,0.104226306,0.21955274,0.27263665,0.27263632,0.58850443,0.0,0.0,0.0,0.0,0.0,0.0,0.0,12.297293,0.0,0.0,0.0,0.0,0.0027991934,0.0027991934,0.0027951268,0.0027942748,1.000323,1.000324,1.0,0.0,0.0,0.0,0.0,0.0,0.0
1743177450725379,1743177450573379,0.10406988,0.10404418,0.21828994,0.27095217,0.2709518,0.5877365,0.0,0.0,0.0,0.0,0.0,0.0,0.0,12.297293,0.0,0.0,0.0,0.0,0.0027991934,0.0027991934,0.0027951268,0.0027942748,1.0003042,1.000305,1.0,0.0,0.0,0.0,0.0,0.0,0.0
1743177450733379,1743177450581379,0.10406988,0.10404418,0.21828994,0.27095217,0.2709518,0.5877365,0.0,0.0,0.0,0.0,0.0,0.0,0.0,12.297293,0.0,0.0,0.0,0.0,0.0027674069,0.0027674069,0.0027641712,0.0027633184,1.0003043,1.0003053,1.0,0.0,0.0,0.0,0.0,0.0,0.0
1743177450741379,1743177450589379,0.10406988,0.10404418,0.21828994,0.27095217,0.2709518,0.5877365,0.0,0.0,0.0,0.0,0.0,0.0,0.0,12.297293,0.0,0.0,0.0,0.0,0.0027674069,0.0027674069,0.0027641712,0.0027633184,1.0003046,1.0003054,1.0,0.0,0.0,0.0,0.0,0.0,0.0
1743177450749379,1743177450597379,0.10406988,0.10404418,0.21828994,0.27095217,0.2709518,0.5877365,0.0,0.0,0.0,0.0,0.0,0.0,0.0,12.297293,0.0,0.0,0.0,0.0,0.0027674069,0.0027674069,0.0027641712,0.0027633184,1.0003047,1.0003057,1.0,0.0,0.0,0.0,0.0,0.0,0.0
1743177450765379,1743177450613379,0.10406988,0.10404418,0.21828994,0.27095217,0.2709518,0.5877365,0.0,0.0,0.0,0.0,0.0,0.0,0.0,12.297617,0.0,0.0,0.0,0.0,0.0027674069,0.0027674069,0.0027641712,0.0027633184,1.0003023,1.0003033,1.0,0.0,0.0,0.0,0.0,0.0,0.0
1743177450773379,1743177450621379,0.10406988,0.10404418,0.21828994,0.27095217,0.2709518,0.5877365,0.0,0.0,0.0,0.0,0.0,0.0,0.0,12.297617,0.0,0.0,0.0,0.0,0.0027674069,0.0027674069,0.0027641712,0.0027633184,1.0003026,1.0003035,1.0,0.0,0.0,0.0,0.0,0.0,0.0
1743177450781379,1743177450629379,0.10422061,0.10419312,0.21724886,0.269583,0.26958254,0.5871469,0.0,0.0,0.0,0.0,0.0,0.0,0.0,12.297617,0.0,0.0,0.0,0.0,0.0027674069,0.0027674069,0.0027641712,0.0027633184,1.0002832,1.0002841,1.0,0.0,0.0,0.0,0.0,0.0,0.0
1743177450789379,1743177450637379,0.10422061,0.10419312,0.21724886,0.269583,0.26958254,0.5871469,0.0,0.0,0.0,0.0,0.0,0.0,0.0,12.297617,0.0,0.0,0.0,0.0,0.0027674069,0.0027674069,0.0027641712,0.0027633184,1.0002834,1.0002842,1.0,0.0,0.0,0.0,0.0,0.0,0.0
1743177450805379,1743177450653379,0.10422061,0.10419312,0.21724886,0.269583,0.26958254,0.5871469,0.0,0.0,0.0,0.0,0.0,0.0,0.0,12.297617,0.0,0.0,0.0,0.0,0.0027419173,0.0027419173,0.0027391312,0.0027382616,1.0002837,1.0002846,1.0,0.0,0.0,0.0,0.0,0.0,0.0
1743177450813379,1743177450661379,0.10422061,0.10419312,0.21724886,0.269583,0.26958254,0.5871469,0.0,0.0,0.0,0.0,0.0,0.0,0.0,12.297734,0.0,0.0,0.0,0.0,0.0027419173,0.0027419173,0.0027391312,0.0027382616,1.000284,1.0002848,1.0,0.0,0.0,0.0,0.0,0.0,0.0
1743177450821379,1743177450669379,0.10422061,0.10419312,0.21724886,0.269583,0.26958254,0.5871469,0.0,0.0,0.0,0.0,0.0,0.0,0.0,12.297734,0.0,0.0,0.0,0.0,0.0027419173,0.0027419173,0.0027391312,0.0027382616,1.0002841,1.0002849,1.0,0.0,0.0,0.0,0.0,0.0,0.0
1743177450829379,1743177450677379,0.104035005,0.10400805,0.21632974,0.2683619,0.2683614,0.5864944,0.0,0.0,0.0,0.0,0.0,0.0,0.0,12.297734,0.0,0.0,0.0,0.0,0.0027419173,0.0027419173,0.0027391312,0.0027382616,1.0002656,1.0002663,1.0,0.0,0.0,0.0,0.0,0.0,0.0
1743177450845379,1743177450693379,0.104035005,0.10400805,0.21632974,0.2683619,0.2683614,0.5864944,0.0,0.0,0.0,0.0,0.0,0.0,0.0,12.297734,0.0,0.0,0.0,0.0,0.0027419173,0.0027419173,0.0027391312,0.0027382616,1.000266,1.0002667,1.0,0.0,0.0,0.0,0.0,0.0,0.0
1743177450853379,1743177450701379,0.104035005,0.10400805,0.21632974,0.2683619,0.2683614,0.5864944,0.0,0.0,0.0,0.0,0.0,0.0,0.0,12.297734,0.0,0.0,0.0,0.0,0.0027419173,0.0027419173,0.0027391312,0.0027382616,1.0002661,1.0002669,1.0,0.0,0.0,0.0,0.0,0.0,0.0
1743177450861379,1743177450709379,0.104035005,0.10400805,0.21632974,0.2683619,0.2683614,0.5864944,0.0,0.0,0.0,0.0,0.0,0.0,0.0,12.297734,0.0,0.0,0.0,0.0,0.0027419173,0.0027419173,0.0027391312,0.0027382616,1.0002663,1.000267,1.0,0.0,0.0,0.0,0.0,0.0,0.0
1743177450869379,1743177450717379,0.104035005,0.10400805,0.21632974,0.2683619,0.2683614,0.5864944,0.0,0.0,0.0,0.0,0.0,0.0,0.0,12.298152,0.0,0.0,0.0,0.0,0.0027207593,0.0027207593,0.0027184945,0.0027175702,1.0002664,1.0002673,1.0,0.0,0.0,0.0,0.0,0.0,0.0
1743177450885379,1743177450733379,0.10416432,0.10413529,0.21556939,0.26736638,0.2673658,0.586005,0.0,0.0,0.0,0.0,0.0,0.0,0.0,12.298152,0.0,0.0,0.0,0.0,0.0027207593,0.0027207593,0.0027184945,0.0027175702,1.0002484,1.0002491,1.0,0.0,0.0,0.0,0.0,0.0,0.0
1743177450893379,1743177450741379,0.10416432,0.10413529,0.21556939,0.26736638,0.2673658,0.586005,0.0,0.0,0.0,0.0,0.0,0.0,0.0,12.298152,0.0,0.0,0.0,0.0,0.0027207593,0.0027207593,0.0027184945,0.0027175702,1.0002486,1.0002494,1.0,0.0,0.0,0.0,0.0,0.0,0.0
1743177450901379,1743177450749379,0.10416432,0.10413529,0.21556939,0.26736638,0.2673658,0.586005,0.0,0.0,0.0,0.0,0.0,0.0,0.0,12.298152,0.0,0.0,0.0,0.0,0.0027207593,0.0027207593,0.0027184945,0.0027175702,1.0002488,1.0002495,1.0,0.0,0.0,0.0,0.0,0.0,0.0
1743177450909379,1743177450757379,0.10416432,0.10413529,0.21556939,0.26736638,0.2673658,0.586005,0.0,0.0,0.0,0.0,0.0,0.0,0.0,12.298152,0.0,0.0,0.0,0.0,0.0027207593,0.0027207593,0.0027184945,0.0027175702,1.0002489,1.0002497,1.0,0.0,0.0,0.0,0.0,0.0,0.0
1743177450925379,1743177450773379,0.10416432,0.10413529,0.21556939,0.26736638,0.2673658,0.586005,0.0,0.0,0.0,0.0,0.0,0.0,0.0,12.298354,0.0,0.0,0.0,0.0,0.0027207593,0.0027207593,0.0027184945,0.0027175702,1.0002494,1.0002501,1.0,0.0,0.0,0.0,0.0,0.0,0.0
1743177450933379,1743177450781379,0.10392594,0.10389875,0.21487904,0.26644462,0.26644403,0.5854444,0.0,0.0,0.0,0.0,0.0,0.0,0.0,12.298354,0.0,0.0,0.0,0.0,0.0027207593,0.0027207593,0.0027184945,0.0027175702,1.0002323,1.000233,1.0,0.0,0.0,0.0,0.0,0.0,0.0
1743177450941379,1743177450789379,0.10392594,0.10389875,0.21487904,0.26644462,0.26644403,0.5854444,0.0,0.0,0.0,0.0,0.0,0.0,0.0,12.298354,0.0,0.0,0.0,0.0,0.002703444,0.002703444,0.0027012182,0.0027001996,1.0002325,1.0002332,1.0,0.0,0.0,0.0,0.0,0.0,0.0
1743177450949379,1743177450797379,0.10392594,0.10389875,0.21487904,0.26644462,0.26644403,0.5854444,0.0,0.0,0.0,0.0,0.0,0.0,0.0,12.298354,0.0,0.0,0.0,0.0,0.002703444,0.002703444,0.0027012182,0.0027001996,1.0002327,1.0002334,1.0,0.0,0.0,0.0,0.0,0.0,0.0
1743177450965379,1743177450813379,0.10392594,0.10389875,0.21487904,0.26644462,0.26644403,0.5854444,0.0,0.0,0.0,0.0,0.0,0.0,0.0,12.298354,0.0,0.0,0.0,0.0,0.002703444,0.002703444,0.0027012182,0.0027001996,1.0002309,1.0002316,1.0,0.0,0.0,0.0,0.0,0.0,0.0
1743177450973379,1743177450821379,0.10392594,0.10389875,0.21487904,0.26644462,0.26644403,0.5854444,0.0,0.0,0.0,0.0,0.0,0.0,0.0,12.298844,0.0,0.0,0.0,0.0,0.002703444,0.002703444,0.0027012182,0.0027001996,1.000231,1.0002319,1.0,0.0,0.0,0.0,0.0,0.0,0.0
1743177450981379,1743177450829379,0.10392594,0.10389875,0.21487904,0.26644462,0.26644403,0.5854444,0.0,0.0,0.0,0.0,0.0,0.0,0.0,12.298844,0.0,0.0,0.0,0.0,0.002703444,0.002703444,0.0027012182,0.0027001996,1.0002313,1.000232,1.0,0.0,0.0,0.0,0.0,0.0,0.0
1743177450989379,1743177450837379,0.10396145,0.103936076,0.2143116,0.26569754,0.26569688,0.5850351,0.0,0.0,0.0,0.0,0.0,0.0,0.0,12.298844,0.0,0.0,0.0,0.0,0.002703444,0.002703444,0.0027012182,0.0027001996,1.000215,1.0002158,1.0,0.0,0.0,0.0,0.0,0.0,0.0
1743177451005379,1743177450853379,0.10396145,0.103936076,0.2143116,0.26569754,0.26569688,0.5850351,0.0,0.0,0.0,0.0,0.0,0.0,0.0,12.298844,0.0,0.0,0.0,0.0,0.002688278,0.002688278,0.0026864174,0.0026853876,1.0002154,1.0002161,1.0,0.0,0.0,0.0,0.0,0.0,0.0
1743177451013379,1743177450861379,0.10396145,0.103936076,0.2143116,0.26569754,0.26569688,0.5850351,0.0,0.0,0.0,0.0,0.0,0.0,0.0,12.298844,0.0,0.0,0.0,0.0,0.002688278,0.002688278,0.0026864174,0.0026853876,1.0002155,1.0002162,1.0,0.0,0.0,0.0,0.0,0.0,0.0
1743177451021379,1743177450869379,0.10396145,0.103936076,0.2143116,0.26569754,0.26569688,0.5850351,0.0,0.0,0.0,0.0,0.0,0.0,0.0,12.299114,0.0,0.0,0.0,0.0,0.002688278,0.002688278,0.0026864174,0.0026853876,1.0002158,1.0002165,1.0,0.0,0.0,0.0,0.0,0.0,0.0
1743177451029379,1743177450877379,0.10396145,0.103936076,0.2143116,0.26569754,0.26569688,0.5850351,0.0,0.0,0.0,0.0,0.0,0.0,0.0,12.299114,0.0,0.0,0.0,0.0,0.002688278,0.002688278,0.0026864174,0.0026853876,1.0002159,1.0002166,1.0,0.0,0.0,0.0,0.0,0.0,0.0
1743177451045379,1743177450893379,0.10366529,0.103642315,0.21378164,0.26497948,0.26497883,0.5845487,0.0,0.0,0.0,0.0,0.0,0.0,0.0,12.299114,0.0,0.0,0.0,0.0,0.002688278,0.002688278,0.0026864174,0.0026853876,1.0002012,1.000202,1.0,0.0,0.0,0.0,0.0,0.0,0.0
1743177451053379,1743177450901379,0.10366529,0.103642315,0.21378164,0.26497948,0.26497883,0.5845487,0.0,0.0,0.0,0.0,0.0,0.0,0.0,12.299114,0.0,0.0,0.0,0.0,0.002688278,0.002688278,0.0026864174,0.0026853876,1.0002015,1.0002021,1.0,0.0,0.0,0.0,0.0,0.0,0.0
1743177451061379,1743177450909379,0.10366529,0.103642315,0.21378164,0.26497948,0.26497883,0.5845487,0.0,0.0,0.0,0.0,0.0,0.0,0.0,12.299114,0.0,0.0,0.0,0.0,0.002688278,0.002688278,0.0026864174,0.0026853876,1.0002016,1.0002023,1.0,0.0,0.0,0.0,0.0,0.0,0.0
1743177451069379,1743177450917379,0.10366529,0.103642315,0.21378164,0.26497948,0.26497883,0.5845487,0.0,0.0,0.0,0.0,0.0,0.0,0.0,12.299114,0.0,0.0,0.0,0.0,0.002688278,0.002688278,0.0026864174,0.0026853876,1.0002018,1.0002024,1.0,0.0,0.0,0.0,0.0,0.0,0.0
1743177451085379,1743177450933379,0.10366529,0.103642315,0.21378164,0.26497948,0.26497883,0.5845487,0.0,0.0,0.0,0.0,0.0,0.0,0.0,12.299664,0.0,0.0,0.0,0.0,0.0026755075,0.0026755075,0.0026737915,0.002672642,1.0002022,1.0002029,1.0,0.0,0.0,0.0,0.0,0.0,0.0
1743177451093379,1743177450941379,0.10364765,0.103624344,0.21335302,0.26440632,0.26440564,0.5842043,0.0,0.0,0.0,0.0,0.0,0.0,0.0,12.299664,0.0,0.0,0.0,0.0,0.0026755075,0.0026755075,0.0026737915,0.002672642,1.0001882,1.0001888,1.0,0.0,0.0,0.0,0.0,0.0,0.0
1743177451101379,1743177450949379,0.10364765,0.103624344,0.21335302,0.26440632,0.26440564,0.5842043,0.0,0.0,0.0,0.0,0.0,0.0,0.0,12.299664,0.0,0.0,0.0,0.0,0.0026755075,0.0026755075,0.0026737915,0.002672642,1.0001885,1.0001891,1.0,0.0,0.0,0.0,0.0,0.0,0.0
1743177451109379,1743177450957379,0.10364765,0.103624344,0.21335302,0.26440632,0.26440564,0.5842043,0.0,0.0,0.0,0.0,0.0,0.0,0.0,12.299664,0.0,0.0,0.0,0.0,0.0026755075,0.0026755075,0.0026737915,0.002672642,1.0001886,1.0001892,1.0,0.0,0.0,0.0,0.0,0.0,0.0
1743177451125379,1743177450973379,0.10364765,0.103624344,0.21335302,0.26440632,0.26440564,0.5842043,0.0,0.0,0.0,0.0,0.0,0.0,0.0,12.299986,0.0,0.0,0.0,0.0,0.0026755075,0.0026755075,0.0026737915,0.002672642,1.000189,1.0001895,1.0,0.0,0.0,0.0,0.0,0.0,0.0
1743177451133379,1743177450981379,0.10364765,0.103624344,0.21335302,0.26440632,0.26440564,0.5842043,0.0,0.0,0.0,0.0,0.0,0.0,0.0,12.299986,0.0,0.0,0.0,0.0,0.0026755075,0.0026755075,0.0026737915,0.002672642,1.0001892,1.0001898,1.0,0.0,0.0,0.0,0.0,0.0,0.0
1743177451141379,1743177450989379,0.10330657,0.10328524,0.21294002,0.26383263,0.26383197,0.5837788,0.0,0.0,0.0,0.0,0.0,0.0,0.0,12.299986,0.0,0.0,0.0,0.0,0.0026642845,0.0026642845,0.0026627886,0.0026615383,1.0001765,1.0001771,1.0,0.0,0.0,0.0,0.0,0.0,0.0
1743177451149379,1743177450997379,0.10330657,0.10328524,0.21294002,0.26383263,0.26383197,0.5837788,0.0,0.0,0.0,0.0,0.0,0.0,0.0,12.299986,0.0,0.0,0.0,0.0,0.0026642845,0.0026642845,0.0026627886,0.0026615383,1.0001768,1.0001773,1.0,0.0,0.0,0.0,0.0,0.0,0.0
1743177451165379,1743177451013379,0.10330657,0.10328524,0.21294002,0.26383263,0.26383197,0.5837788,0.0,0.0,0.0,0.0,0.0,0.0,0.0,12.299986,0.0,0.0,0.0,0.0,0.0026642845,0.0026642845,0.0026627886,0.0026615383,1.0001754,1.0001758,1.0,0.0,0.0,0.0,0.0,0.0,0.0
1743177451173379,1743177451021379,0.10330657,0.10328524,0.21294002,0.26383263,0.26383197,0.5837788,0.0,0.0,0.0,0.0,0.0,0.0,0.0,12.299986,0.0,0.0,0.0,0.0,0.0026642845,0.0026642845,0.0026627886,0.0026615383,1.0001755,1.0001761,1.0,0.0,0.0,0.0,0.0,0.0,0.0
1743177451181379,1743177451029379,0.10330657,0.10328524,0.21294002,0.26383263,0.26383197,0.5837788,0.0,0.0,0.0,0.0,0.0,0.0,0.0,12.300579,0.0,0.0,0.0,0.0,0.0026642845,0.0026642845,0.0026627886,0.0026615383,1.0001757,1.0001763,1.0,0.0,0.0,0.0,0.0,0.0,0.0
1743177451189379,1743177451037379,0.10330657,0.10328524,0.21294002,0.26383263,0.26383197,0.5837788,0.0,0.0,0.0,0.0,0.0,0.0,0.0,12.300579,0.0,0.0,0.0,0.0,0.0026642845,0.0026642845,0.0026627886,0.0026615383,1.0001758,1.0001764,1.0,0.0,0.0,0.0,0.0,0.0,0.0
1743177451205379,1743177451053379,0.10321538,0.1031955,0.21261485,0.2633844,0.26338372,0.5834877,0.0,0.0,0.0,0.0,0.0,0.0,0.0,12.300579,0.0,0.0,0.0,0.0,0.0026642845,0.0026642845,0.0026627886,0.0026615383,1.0001644,1.0001649,1.0,0.0,0.0,0.0,0.0,0.0,0.0
1743177451213379,1743177451061379,0.10321538,0.1031955,0.21261485,0.2633844,0.26338372,0.5834877,0.0,0.0,0.0,0.0,0.0,0.0,0.0,12.300579,0.0,0.0,0.0,0.0,0.0026544267,0.0026544267,0.0026530663,0.0026517718,1.0001646,1.0001651,1.0,0.0,0.0,0.0,0.0,0.0,0.0
1743177451221379,1743177451069379,0.10321538,0.1031955,0.21261485,0.2633844,0.26338372,0.5834877,0.0,0.0,0.0,0.0,0.0,0.0,0.0,12.300579,0.0,0.0,0.0,0.0,0.0026544267,0.0026544267,0.0026530663,0.0026517718,1.0001647,1.0001652,1.0,0.0,0.0,0.0,0.0,0.0,0.0
1743177451229379,1743177451077379,0.10321538,0.1031955,0.21261485,0.2633844,0.26338372,0.5834877,0.0,0.0,0.0,0.0,0.0,0.0,0.0,12.300945,0.0,0.0,0.0,0.0,0.0026544267,0.0026544267,0.0026530663,0.0026517718,1.000165,1.0001655,1.0,0.0,0.0,0.0,0.0,0.0,0.0
1743177451245379,1743177451093379,0.102852,0.10283409,0.21228975,0.26291648,0.26291582,0.58311266,0.0,0.0,0.0,0.0,0.0,0.0,0.0,12.300945,0.0,0.0,0.0,0.0,0.0026544267,0.0026544267,0.0026530663,0.0026517718,1.0001546,1.0001551,1.0,0.0,0.0,0.0,0.0,0.0,0.0
1743177451253379,1743177451101379,0.102852,0.10283409,0.21228975,0.26291648,0.26291582,0.58311266,0.0,0.0,0.0,0.0,0.0,0.0,0.0,12.300945,0.0,0.0,0.0,0.0,0.0026544267,0.0026544267,0.0026530663,0.0026517718,1.0001549,1.0001553,1.0,0.0,0.0,0.0,0.0,0.0,0.0
1743177451261379,1743177451109379,0.102852,0.10283409,0.21228975,0.26291648,0.26291582,0.58311266,0.0,0.0,0.0,0.0,0.0,0.0,0.0,12.300945,0.0,0.0,0.0,0.0,0.0026544267,0.0026544267,0.0026530663,0.0026517718,1.0001551,1.0001554,1.0,0.0,0.0,0.0,0.0,0.0,0.0
1743177451269379,1743177451117379,0.102852,0.10283409,0.21228975,0.26291648,0.26291582,0.58311266,0.0,0.0,0.0,0.0,0.0,0.0,0.0,12.300945,0.0,0.0,0.0,0.0,0.0026544267,0.0026544267,0.0026530663,0.0026517718,1.0001552,1.0001557,1.0,0.0,0.0,0.0,0.0,0.0,0.0
1743177451285379,1743177451133379,0.102852,0.10283409,0.21228975,0.26291648,0.26291582,0.58311266,0.0,0.0,0.0,0.0,0.0,0.0,0.0,12.301576,0.0,0.0,0.0,0.0,0.0026457876,0.0026457876,0.002644541,0.0026431358,1.0001557,1.000156,1.0,0.0,0.0,0.0,0.0,0.0,0.0
1743177451293379,1743177451141379,0.102852,0.10283409,0.21228975,0.26291648,0.26291582,0.58311266,0.0,0.0,0.0,0.0,0.0,0.0,0.0,12.301576,0.0,0.0,0.0,0.0,0.0026457876,0.0026457876,0.002644541,0.0026431358,1.0001558,1.0001563,1.0,0.0,0.0,0.0,0.0,0.0,0.0
1743177451301379,1743177451149379,0.102736875,0.10271963,0.21204373,0.2625618,0.2625611,0.582866,0.0,0.0,0.0,0.0,0.0,0.0,0.0,12.301576,0.0,0.0,0.0,0.0,0.0026457876,0.0026457876,0.002644541,0.0026431358,1.0001462,1.0001465,1.0,0.0,0.0,0.0,0.0,0.0,0.0
1743177451309379,1743177451157379,0.102736875,0.10271963,0.21204373,0.2625618,0.2625611,0.582866,0.0,0.0,0.0,0.0,0.0,0.0,0.0,12.301576,0.0,0.0,0.0,0.0,0.0026457876,0.0026457876,0.002644541,0.0026431358,1.0001464,1.0001467,1.0,0.0,0.0,0.0,0.0,0.0,0.0
1743177451325379,1743177451173379,0.102736875,0.10271963,0.21204373,0.2625618,0.2625611,0.582866,0.0,0.0,0.0,0.0,0.0,0.0,0.0,12.301576,0.0,0.0,0.0,0.0,0.0026457876,0.0026457876,0.002644541,0.0026431358,1.0001467,1.0001471,1.0,0.0,0.0,0.0,0.0,0.0,0.0
1743177451333379,1743177451181379,0.102736875,0.10271963,0.21204373,0.2625618,0.2625611,0.582866,0.0,0.0,0.0,0.0,0.0,0.0,0.0,12.301976,0.0,0.0,0.0,0.0,0.0026457876,0.0026457876,0.002644541,0.0026431358,1.000147,1.0001473,1.0,0.0,0.0,0.0,0.0,0.0,0.0
1743177451341379,1743177451189379,0.102736875,0.10271963,0.21204373,0.2625618,0.2625611,0.582866,0.0,0.0,0.0,0.0,0.0,0.0,0.0,12.301976,0.0,0.0,0.0,0.0,0.0026457876,0.0026457876,0.002644541,0.0026431358,1.0001471,1.0001476,1.0,0.0,0.0,0.0,0.0,0.0,0.0
1743177451349379,1743177451197379,0.10236648,0.10235072,0.21178617,0.26217347,0.26217282,0.58253324,0.0,0.0,0.0,0.0,0.0,0.0,0.0,12.301976,0.0,0.0,0.0,0.0,0.0026381968,0.0026381968,0.002636998,0.002635444,1.0001385,1.0001389,1.0,0.0,0.0,0.0,0.0,0.0,0.0
1743177451365379,1743177451213379,0.10236648,0.10235072,0.21178617,0.26217347,0.26217282,0.58253324,0.0,0.0,0.0,0.0,0.0,0.0,0.0,12.301976,0.0,0.0,0.0,0.0,0.0026381968,0.0026381968,0.002636998,0.002635444,1.0001373,1.0001377,1.0,0.0,0.0,0.0,0.0,0.0,0.0
1743177451373379,1743177451221379,0.10236648,0.10235072,0.21178617,0.26217347,0.26217282,0.58253324,0.0,0.0,0.0,0.0,0.0,0.0,0.0,12.301976,0.0,0.0,0.0,0.0,0.0026381968,0.0026381968,0.002636998,0.002635444,1.0001374,1.0001378,1.0,0.0,0.0,0.0,0.0,0.0,0.0
1743177451381379,1743177451229379,0.10236648,0.10235072,0.21178617,0.26217347,0.26217282,0.58253324,0.0,0.0,0.0,0.0,0.0,0.0,0.0,12.301976,0.0,0.0,0.0,0.0,0.0026381968,0.0026381968,0.002636998,0.002635444,1.0001377,1.000138,1.0,0.0,0.0,0.0,0.0,0.0,0.0
1743177451389379,1743177451237379,0.10236648,0.10235072,0.21178617,0.26217347,0.26217282,0.58253324,0.0,0.0,0.0,0.0,0.0,0.0,0.0,12.302634,0.0,0.0,0.0,0.0,0.0026381968,0.0026381968,0.002636998,0.002635444,1.0001378,1.0001382,1.0,0.0,0.0,0.0,0.0,0.0,0.0
1743177451405379,1743177451253379,0.10221324,0.1022001,0.21160185,0.26188937,0.2618887,0.582324,0.0,0.0,0.0,0.0,0.0,0.0,0.0,12.302634,0.0,0.0,0.0,0.0,0.0026381968,0.0026381968,0.002636998,0.002635444,1.0001302,1.0001304,1.0,0.0,0.0,0.0,0.0,0.0,0.0
1743177451413379,1743177451261379,0.10221324,0.1022001,0.21160185,0.26188937,0.2618887,0.582324,0.0,0.0,0.0,0.0,0.0,0.0,0.0,12.302634,0.0,0.0,0.0,0.0,0.002631181,0.002631181,0.0026300799,0.0026285176,1.0001303,1.0001307,1.0,0.0,0.0,0.0,0.0,0.0,0.0
1743177451421379,1743177451269379,0.10221324,0.1022001,0.21160185,0.26188937,0.2618887,0.582324,0.0,0.0,0.0,0.0,0.0,0.0,0.0,12.302634,0.0,0.0,0.0,0.0,0.002631181,0.002631181,0.0026300799,0.0026285176,1.0001305,1.0001308,1.0,0.0,0.0,0.0,0.0,0.0,0.0
1743177451429379,1743177451277379,0.10221324,0.1022001,0.21160185,0.26188937,0.2618887,0.582324,0.0,0.0,0.0,0.0,0.0,0.0,0.0,12.302634,0.0,0.0,0.0,0.0,0.002631181,0.002631181,0.0026300799,0.0026285176,1.0001308,1.000131,1.0,0.0,0.0,0.0,0.0,0.0,0.0
1743177451445379,1743177451293379,0.10221324,0.1022001,0.21160185,0.26188937,0.2618887,0.582324,0.0,0.0,0.0,0.0,0.0,0.0,0.0,12.3030615,0.0,0.0,0.0,0.0,0.002631181,0.002631181,0.0026300799,0.0026285176,1.0001311,1.0001314,1.0,0.0,0.0,0.0,0.0,0.0,0.0
1743177451453379,1743177451301379,0.10184534,0.10183358,0.21139698,0.26156235,0.26156172,0.5820271,0.0,0.0,0.0,0.0,0.0,0.0,0.0,12.3030615,0.0,0.0,0.0,0.0,0.002631181,0.002631181,0.0026300799,0.0026285176,1.0001241,1.0001243,1.0,0.0,0.0,0.0,0.0,0.0,0.0
1743177451461379,1743177451309379,0.10184534,0.10183358,0.21139698,0.26156235,0.26156172,0.5820271,0.0,0.0,0.0,0.0,0.0,0.0,0.0,12.3030615,0.0,0.0,0.0,0.0,0.002631181,0.002631181,0.0026300799,0.0026285176,1.0001242,1.0001246,1.0,0.0,0.0,0.0,0.0,0.0,0.0
1743177451469379,1743177451317379,0.10184534,0.10183358,0.21139698,0.26156235,0.26156172,0.5820271,0.0,0.0,0.0,0.0,0.0,0.0,0.0,12.3030615,0.0,0.0,0.0,0.0,0.002631181,0.002631181,0.0026300799,0.0026285176,1.0001245,1.0001247,1.0,0.0,0.0,0.0,0.0,0.0,0.0
1743177451485379,1743177451333379,0.10184534,0.10183358,0.21139698,0.26156235,0.26156172,0.5820271,0.0,0.0,0.0,0.0,0.0,0.0,0.0,12.3030615,0.0,0.0,0.0,0.0,0.0026249762,0.0026249762,0.0026240163,0.0026222942,1.0001248,1.0001252,1.0,0.0,0.0,0.0,0.0,0.0,0.0
1743177451493379,1743177451341379,0.10184534,0.10183358,0.21139698,0.26156235,0.26156172,0.5820271,0.0,0.0,0.0,0.0,0.0,0.0,0.0,12.303743,0.0,0.0,0.0,0.0,0.0026249762,0.0026249762,0.0026240163,0.0026222942,1.000125,1.0001253,1.0,0.0,0.0,0.0,0.0,0.0,0.0
1743177451501379,1743177451349379,0.10184534,0.10183358,0.21139698,0.26156235,0.26156172,0.5820271,0.0,0.0,0.0,0.0,0.0,0.0,0.0,12.303743,0.0,0.0,0.0,0.0,0.0026249762,0.0026249762,0.0026240163,0.0026222942,1.0001253,1.0001255,1.0,0.0,0.0,0.0,0.0,0.0,0.0
1743177451509379,1743177451357379,0.1016962,0.101686895,0.21126142,0.26133367,0.26133305,0.5818497,0.0,0.0,0.0,0.0,0.0,0.0,0.0,12.303743,0.0,0.0,0.0,0.0,0.0026249762,0.0026249762,0.0026240163,0.0026222942,1.0001189,1.000119,1.0,0.0,0.0,0.0,0.0,0.0,0.0
1743177451525379,1743177451373379,0.1016962,0.101686895,0.21126142,0.26133367,0.26133305,0.5818497,0.0,0.0,0.0,0.0,0.0,0.0,0.0,12.303743,0.0,0.0,0.0,0.0,0.0026249762,0.0026249762,0.0026240163,0.0026222942,1.0001192,1.0001194,1.0,0.0,0.0,0.0,0.0,0.0,0.0
1743177451533379,1743177451381379,0.1016962,0.101686895,0.21126142,0.26133367,0.26133305,0.5818497,0.0,0.0,0.0,0.0,0.0,0.0,0.0,12.303743,0.0,0.0,0.0,0.0,0.0026249762,0.0026249762,0.0026240163,0.0026222942,1.0001194,1.0001197,1.0,0.0,0.0,0.0,0.0,0.0,0.0
1743177451541379,1743177451389379,0.1016962,0.101686895,0.21126142,0.26133367,0.26133305,0.5818497,0.0,0.0,0.0,0.0,0.0,0.0,0.0,12.3041935,0.0,0.0,0.0,0.0,0.0026249762,0.0026249762,0.0026240163,0.0026222942,1.0001197,1.0001198,1.0,0.0,0.0,0.0,0.0,0.0,0.0
1743177451549379,1743177451397379,0.1016962,0.101686895,0.21126142,0.26133367,0.26133305,0.5818497,0.0,0.0,0.0,0.0,0.0,0.0,0.0,12.3041935,0.0,0.0,0.0,0.0,0.0026193946,0.0026193946,0.0026184965,0.0026166462,1.0001198,1.00012,1.0,0.0,0.0,0.0,0.0,0.0,0.0
1743177451565379,1743177451413379,0.10134226,0.101334564,0.21109803,0.2610548,0.26105425,0.5815834,0.0,0.0,0.0,0.0,0.0,0.0,0.0,12.3041935,0.0,0.0,0.0,0.0,0.0026193946,0.0026193946,0.0026184965,0.0026166462,1.0001127,1.0001129,1.0,0.0,0.0,0.0,0.0,0.0,0.0
1743177451573379,1743177451421379,0.10134226,0.101334564,0.21109803,0.2610548,0.26105425,0.5815834,0.0,0.0,0.0,0.0,0.0,0.0,0.0,12.3041935,0.0,0.0,0.0,0.0,0.0026193946,0.0026193946,0.0026184965,0.0026166462,1.0001129,1.000113,1.0,0.0,0.0,0.0,0.0,0.0,0.0
1743177451581379,1743177451429379,0.10134226,0.101334564,0.21109803,0.2610548,0.26105425,0.5815834,0.0,0.0,0.0,0.0,0.0,0.0,0.0,12.3041935,0.0,0.0,0.0,0.0,0.0026193946,0.0026193946,0.0026184965,0.0026166462,1.0001131,1.0001132,1.0,0.0,0.0,0.0,0.0,0.0,0.0
1743177451589379,1743177451437379,0.10134226,0.101334564,0.21109803,0.2610548,0.26105425,0.5815834,0.0,0.0,0.0,0.0,0.0,0.0,0.0,12.3041935,0.0,0.0,0.0,0.0,0.0026193946,0.0026193946,0.0026184965,0.0026166462,1.0001132,1.0001135,1.0,0.0,0.0,0.0,0.0,0.0,0.0
1743177451605379,1743177451453379,0.10134226,0.101334564,0.21109803,0.2610548,0.26105425,0.5815834,0.0,0.0,0.0,0.0,0.0,0.0,0.0,12.3048935,0.0,0.0,0.0,0.0,0.0026193946,0.0026193946,0.0026184965,0.0026166462,1.0001137,1.0001138,1.0,0.0,0.0,0.0,0.0,0.0,0.0
1743177451613379,1743177451461379,0.10117411,0.10116872,0.21100125,0.26086935,0.26086882,0.5814335,0.0,0.0,0.0,0.0,0.0,0.0,0.0,12.3048935,0.0,0.0,0.0,0.0,0.0026193946,0.0026193946,0.0026184965,0.0026166462,1.0001084,1.0001086,1.0,0.0,0.0,0.0,0.0,0.0,0.0
1743177451621379,1743177451469379,0.10117411,0.10116872,0.21100125,0.26086935,0.26086882,0.5814335,0.0,0.0,0.0,0.0,0.0,0.0,0.0,12.3048935,0.0,0.0,0.0,0.0,0.0026142225,0.0026142225,0.002613379,0.0026114867,1.0001086,1.0001087,1.0,0.0,0.0,0.0,0.0,0.0,0.0
1743177451629379,1743177451477379,0.10117411,0.10116872,0.21100125,0.26086935,0.26086882,0.5814335,0.0,0.0,0.0,0.0,0.0,0.0,0.0,12.3048935,0.0,0.0,0.0,0.0,0.0026142225,0.0026142225,0.002613379,0.0026114867,1.0001088,1.000109,1.0,0.0,0.0,0.0,0.0,0.0,0.0
1743177451645379,1743177451493379,0.10117411,0.10116872,0.21100125,0.26086935,0.26086882,0.5814335,0.0,0.0,0.0,0.0,0.0,0.0,0.0,12.30536,0.0,0.0,0.0,0.0,0.0026142225,0.0026142225,0.002613379,0.0026114867,1.0001092,1.0001093,1.0,0.0,0.0,0.0,0.0,0.0,0.0
1743177451653379,1743177451501379,0.10117411,0.10116872,0.21100125,0.26086935,0.26086882,0.5814335,0.0,0.0,0.0,0.0,0.0,0.0,0.0,12.30536,0.0,0.0,0.0,0.0,0.0026142225,0.0026142225,0.002613379,0.0026114867,1.0001094,1.0001096,1.0,0.0,0.0,0.0,0.0,0.0,0.0
1743177451661379,1743177451509379,0.10084119,0.10083732,0.21087068,0.26062897,0.26062846,0.58119357,0.0,0.0,0.0,0.0,0.0,0.0,0.0,12.30536,0.0,0.0,0.0,0.0,0.0026142225,0.0026142225,0.002613379,0.0026114867,1.0001047,1.0001048,1.0,0.0,0.0,0.0,0.0,0.0,0.0
1743177451669379,1743177451517379,0.10084119,0.10083732,0.21087068,0.26062897,0.26062846,0.58119357,0.0,0.0,0.0,0.0,0.0,0.0,0.0,12.30536,0.0,0.0,0.0,0.0,0.0026142225,0.0026142225,0.002613379,0.0026114867,1.0001049,1.000105,1.0,0.0,0.0,0.0,0.0,0.0,0.0
1743177451685379,1743177451533379,0.10084119,0.10083732,0.21087068,0.26062897,0.26062846,0.58119357,0.0,0.0,0.0,0.0,0.0,0.0,0.0,12.30536,0.0,0.0,0.0,0.0,0.002609637,0.002609637,0.002608803,0.0026067845,1.0001054,1.0001054,1.0,0.0,0.0,0.0,0.0,0.0,0.0
1743177451693379,1743177451541379,0.10084119,0.10083732,0.21087068,0.26062897,0.26062846,0.58119357,0.0,0.0,0.0,0.0,0.0,0.0,0.0,12.30536,0.0,0.0,0.0,0.0,0.002609637,0.002609637,0.002608803,0.0026067845,1.0001056,1.0001056,1.0,0.0,0.0,0.0,0.0,0.0,0.0
1743177451701379,1743177451549379,0.10084119,0.10083732,0.21087068,0.26062897,0.26062846,0.58119357,0.0,0.0,0.0,0.0,0.0,0.0,0.0,12.306075,0.0,0.0,0.0,0.0,0.002609637,0.002609637,0.002608803,0.0026067845,1.0001057,1.0001059,1.0,0.0,0.0,0.0,0.0,0.0,0.0
1743177451709379,1743177451557379,0.10084119,0.10083732,0.21087068,0.26062897,0.26062846,0.58119357,0.0,0.0,0.0,0.0,0.0,0.0,0.0,12.306075,0.0,0.0,0.0,0.0,0.002609637,0.002609637,0.002608803,0.0026067845,1.000106,1.0001061,1.0,0.0,0.0,0.0,0.0,0.0,0.0
1743177451725379,1743177451573379,0.10069156,0.10068746,0.21080478,0.2604787,0.26047823,0.58106756,0.0,0.0,0.0,0.0,0.0,0.0,0.0,12.306075,0.0,0.0,0.0,0.0,0.002609637,0.002609637,0.002608803,0.0026067845,1.0001019,1.0001019,1.0,0.0,0.0,0.0,0.0,0.0,0.0
1743177451733379,1743177451581379,0.10069156,0.10068746,0.21080478,0.2604787,0.26047823,0.58106756,0.0,0.0,0.0,0.0,0.0,0.0,0.0,12.306075,0.0,0.0,0.0,0.0,0.002609637,0.002609637,0.002608803,0.0026067845,1.000102,1.0001022,1.0,0.0,0.0,0.0,0.0,0.0,0.0
1743177451741379,1743177451589379,0.10069156,0.10068746,0.21080478,0.2604787,0.26047823,0.58106756,0.0,0.0,0.0,0.0,0.0,0.0,0.0,12.306075,0.0,0.0,0.0,0.0,0.002609637,0.002609637,0.002608803,0.0026067845,1.0001023,1.0001024,1.0,0.0,0.0,0.0,0.0,0.0,0.0
1743177451749379,1743177451597379,0.10069156,0.10068746,0.21080478,0.2604787,0.26047823,0.58106756,0.0,0.0,0.0,0.0,0.0,0.0,0.0,12.306556,0.0,0.0,0.0,0.0,0.002609637,0.002609637,0.002608803,0.0026067845,1.0001025,1.0001025,1.0,0.0,0.0,0.0,0.0,0.0,0.0
1743177451765379,1743177451613379,0.10036654,0.10036209,0.21070011,0.26026922,0.26026878,0.58085054,0.0,0.0,0.0,0.0,0.0,0.0,0.0,12.306556,0.0,0.0,0.0,0.0,0.002605536,0.002605536,0.0026046687,0.0026024764,1.0000973,1.0000973,1.0,0.0,0.0,0.0,0.0,0.0,0.0
1743177451773379,1743177451621379,0.10036654,0.10036209,0.21070011,0.26026922,0.26026878,0.58085054,0.0,0.0,0.0,0.0,0.0,0.0,0.0,12.306556,0.0,0.0,0.0,0.0,0.002605536,0.002605536,0.0026046687,0.0026024764,1.0000975,1.0000975,1.0,0.0,0.0,0.0,0.0,0.0,0.0
1743177451781379,1743177451629379,0.10036654,0.10036209,0.21070011,0.26026922,0.26026878,0.58085054,0.0,0.0,0.0,0.0,0.0,0.0,0.0,12.306556,0.0,0.0,0.0,0.0,0.002605536,0.002605536,0.0026046687,0.0026024764,1.0000976,1.0000978,1.0,0.0,0.0,0.0,0.0,0.0,0.0
1743177451789379,1743177451637379,0.10036654,0.10036209,0.21070011,0.26026922,0.26026878,0.58085054,0.0,0.0,0.0,0.0,0.0,0.0,0.0,12.306556,0.0,0.0,0.0,0.0,0.002605536,0.002605536,0.0026046687,0.0026024764,1.0000979,1.0000979,1.0,0.0,0.0,0.0,0.0,0.0,0.0
1743177451805379,1743177451653379,0.10036654,0.10036209,0.21070011,0.26026922,0.26026878,0.58085054,0.0,0.0,0.0,0.0,0.0,0.0,0.0,12.3072815,0.0,0.0,0.0,0.0,0.002605536,0.002605536,0.0026046687,0.0026024764,1.0000983,1.0000983,1.0,0.0,0.0,0.0,0.0,0.0,0.0
1743177451813379,1743177451661379,0.10036654,0.10036209,0.21070011,0.26026922,0.26026878,0.58085054,0.0,0.0,0.0,0.0,0.0,0.0,0.0,12.3072815,0.0,0.0,0.0,0.0,0.002605536,0.002605536,0.0026046687,0.0026024764,1.0000986,1.0000986,1.0,0.0,0.0,0.0,0.0,0.0,0.0
1743177451821379,1743177451669379,0.10022184,0.100217596,0.2106587,0.26014727,0.26014683,0.5807454,0.0,0.0,0.0,0.0,0.0,0.0,0.0,12.3072815,0.0,0.0,0.0,0.0,0.0026015034,0.0026015034,0.0026006775,0.002598477,1.000095,1.000095,1.0,0.0,0.0,0.0,0.0,0.0,0.0
1743177451829379,1743177451677379,0.10022184,0.100217596,0.2106587,0.26014727,0.26014683,0.5807454,0.0,0.0,0.0,0.0,0.0,0.0,0.0,12.3072815,0.0,0.0,0.0,0.0,0.0026015034,0.0026015034,0.0026006775,0.002598477,1.0000951,1.0000951,1.0,0.0,0.0,0.0,0.0,0.0,0.0
1743177451845379,1743177451693379,0.10022184,0.100217596,0.2106587,0.26014727,0.26014683,0.5807454,0.0,0.0,0.0,0.0,0.0,0.0,0.0,12.3072815,0.0,0.0,0.0,0.0,0.0026015034,0.0026015034,0.0026006775,0.002598477,1.0000956,1.0000956,1.0,0.0,0.0,0.0,0.0,0.0,0.0
1743177451853379,1743177451701379,0.10022184,0.100217596,0.2106587,0.26014727,0.26014683,0.5807454,0.0,0.0,0.0,0.0,0.0,0.0,0.0,12.307774,0.0,0.0,0.0,0.0,0.0026015034,0.0026015034,0.0026006775,0.002598477,1.0000958,1.0000958,1.0,0.0,0.0,0.0,0.0,0.0,0.0
1743177451861379,1743177451709379,0.10022184,0.100217596,0.2106587,0.26014727,0.26014683,0.5807454,0.0,0.0,0.0,0.0,0.0,0.0,0.0,12.307774,0.0,0.0,0.0,0.0,0.0026015034,0.0026015034,0.0026006775,0.002598477,1.0000961,1.0000961,1.0,0.0,0.0,0.0,0.0,0.0,0.0
1743177451869379,1743177451717379,0.09992994,0.0999272,0.21057434,0.25996357,0.25996315,0.5805485,0.0,0.0,0.0,0.0,0.0,0.0,0.0,12.307774,0.0,0.0,0.0,0.0,0.0026015034,0.0026015034,0.0026006775,0.002598477,1.0000929,1.0000927,1.0,0.0,0.0,0.0,0.0,0.0,0.0
1743177451885379,1743177451733379,0.09992994,0.0999272,0.21057434,0.25996357,0.25996315,0.5805485,0.0,0.0,0.0,0.0,0.0,0.0,0.0,12.307774,0.0,0.0,0.0,0.0,0.0026015034,0.0026015034,0.0026006775,0.002598477,1.0000932,1.0000932,1.0,0.0,0.0,0.0,0.0,0.0,0.0
1743177451893379,1743177451741379,0.09992994,0.0999272,0.21057434,0.25996357,0.25996315,0.5805485,0.0,0.0,0.0,0.0,0.0,0.0,0.0,12.307774,0.0,0.0,0.0,0.0,0.0025979555,0.0025979555,0.0025971762,0.0025948093,1.0000935,1.0000935,1.0,0.0,0.0,0.0,0.0,0.0,0.0
1743177451901379,1743177451749379,0.09992994,0.0999272,0.21057434,0.25996357,0.25996315,0.5805485,0.0,0.0,0.0,0.0,0.0,0.0,0.0,12.307774,0.0,0.0,0.0,0.0,0.0025979555,0.0025979555,0.0025971762,0.0025948093,1.0000937,1.0000937,1.0,0.0,0.0,0.0,0.0,0.0,0.0
1743177451909379,1743177451757379,0.09992994,0.0999272,0.21057434,0.25996357,0.25996315,0.5805485,0.0,0.0,0.0,0.0,0.0,0.0,0.0,12.308508,0.0,0.0,0.0,0.0,0.0025979555,0.0025979555,0.0025971762,0.0025948093,1.0000939,1.0000939,1.0,0.0,0.0,0.0,0.0,0.0,0.0
1743177451925379,1743177451773379,0.09979564,0.09979348,0.21055216,0.25986484,0.25986442,0.5804618,0.0,0.0,0.0,0.0,0.0,0.0,0.0,12.308508,0.0,0.0,0.0,0.0,0.0025979555,0.0025979555,0.0025971762,0.0025948093,1.0000912,1.0000912,1.0,0.0,0.0,0.0,0.0,0.0,0.0
1743177451933379,1743177451781379,0.09979564,0.09979348,0.21055216,0.25986484,0.25986442,0.5804618,0.0,0.0,0.0,0.0,0.0,0.0,0.0,12.308508,0.0,0.0,0.0,0.0,0.0025979555,0.0025979555,0.0025971762,0.0025948093,1.0000914,1.0000913,1.0,0.0,0.0,0.0,0.0,0.0,0.0
1743177451941379,1743177451789379,0.09979564,0.09979348,0.21055216,0.25986484,0.25986442,0.5804618,0.0,0.0,0.0,0.0,0.0,0.0,0.0,12.308508,0.0,0.0,0.0,0.0,0.0025979555,0.0025979555,0.0025971762,0.0025948093,1.0000917,1.0000916,1.0,0.0,0.0,0.0,0.0,0.0,0.0
1743177451949379,1743177451797379,0.09979564,0.09979348,0.21055216,0.25986484,0.25986442,0.5804618,0.0,0.0,0.0,0.0,0.0,0.0,0.0,12.308508,0.0,0.0,0.0,0.0,0.0025979555,0.0025979555,0.0025971762,0.0025948093,1.0000919,1.0000918,1.0,0.0,0.0,0.0,0.0,0.0,0.0
1743177451965379,1743177451813379,0.09979564,0.09979348,0.21055216,0.25986484,0.25986442,0.5804618,0.0,0.0,0.0,0.0,0.0,0.0,0.0,12.309007,0.0,0.0,0.0,0.0,0.0025947194,0.0025947194,0.0025939126,0.0025914062,1.0000907,1.0000907,1.0,0.0,0.0,0.0,0.0,0.0,0.0
1743177451973379,1743177451821379,0.099511676,0.099509425,0.2104835,0.25970203,0.25970164,0.58028257,0.0,0.0,0.0,0.0,0.0,0.0,0.0,12.309007,0.0,0.0,0.0,0.0,0.0025947194,0.0025947194,0.0025939126,0.0025914062,1.0000881,1.000088,1.0,0.0,0.0,0.0,0.0,0.0,0.0
1743177451981379,1743177451829379,0.099511676,0.099509425,0.2104835,0.25970203,0.25970164,0.58028257,0.0,0.0,0.0,0.0,0.0,0.0,0.0,12.309007,0.0,0.0,0.0,0.0,0.0025947194,0.0025947194,0.0025939126,0.0025914062,1.0000883,1.0000882,1.0,0.0,0.0,0.0,0.0,0.0,0.0
1743177451989379,1743177451837379,0.099511676,0.099509425,0.2104835,0.25970203,0.25970164,0.58028257,0.0,0.0,0.0,0.0,0.0,0.0,0.0,12.309007,0.0,0.0,0.0,0.0,0.0025947194,0.0025947194,0.0025939126,0.0025914062,1.0000885,1.0000885,1.0,0.0,0.0,0.0,0.0,0.0,0.0
1743177452005379,1743177451853379,0.099511676,0.099509425,0.2104835,0.25970203,0.25970164,0.58028257,0.0,0.0,0.0,0.0,0.0,0.0,0.0,12.309007,0.0,0.0,0.0,0.0,0.0025947194,0.0025947194,0.0025939126,0.0025914062,1.0000889,1.0000889,1.0,0.0,0.0,0.0,0.0,0.0,0.0
1743177452013379,1743177451861379,0.099511676,0.099509425,0.2104835,0.25970203,0.25970164,0.58028257,0.0,0.0,0.0,0.0,0.0,0.0,0.0,12.309748,0.0,0.0,0.0,0.0,0.0025947194,0.0025947194,0.0025939126,0.0025914062,1.0000892,1.000089,1.0,0.0,0.0,0.0,0.0,0.0,0.0
1743177452021379,1743177451869379,0.099511676,0.099509425,0.2104835,0.25970203,0.25970164,0.58028257,0.0,0.0,0.0,0.0,0.0,0.0,0.0,12.309748,0.0,0.0,0.0,0.0,0.0025947194,0.0025947194,0.0025939126,0.0025914062,1.0000894,1.0000893,1.0,0.0,0.0,0.0,0.0,0.0,0.0
1743177452029379,1743177451877379,0.09938763,0.099384785,0.21047616,0.25962245,0.2596221,0.5802123,0.0,0.0,0.0,0.0,0.0,0.0,0.0,12.309748,0.0,0.0,0.0,0.0,0.0025915941,0.0025915941,0.002590777,0.002588226,1.0000869,1.0000868,1.0,0.0,0.0,0.0,0.0,0.0,0.0
1743177452045379,1743177451893379,0.09938763,0.099384785,0.21047616,0.25962245,0.2596221,0.5802123,0.0,0.0,0.0,0.0,0.0,0.0,0.0,12.309748,0.0,0.0,0.0,0.0,0.0025915941,0.0025915941,0.002590777,0.002588226,1.0000874,1.0000873,1.0,0.0,0.0,0.0,0.0,0.0,0.0
1743177452053379,1743177451901379,0.09938763,0.099384785,0.21047616,0.25962245,0.2596221,0.5802123,0.0,0.0,0.0,0.0,0.0,0.0,0.0,12.309748,0.0,0.0,0.0,0.0,0.0025915941,0.0025915941,0.002590777,0.002588226,1.0000876,1.0000875,1.0,0.0,0.0,0.0,0.0,0.0,0.0
1743177452061379,1743177451909379,0.09938763,0.099384785,0.21047616,0.25962245,0.2596221,0.5802123,0.0,0.0,0.0,0.0,0.0,0.0,0.0,12.310253,0.0,0.0,0.0,0.0,0.0025915941,0.0025915941,0.002590777,0.002588226,1.0000879,1.0000877,1.0,0.0,0.0,0.0,0.0,0.0,0.0
1743177452069379,1743177451917379,0.09938763,0.099384785,0.21047616,0.25962245,0.2596221,0.5802123,0.0,0.0,0.0,0.0,0.0,0.0,0.0,12.310253,0.0,0.0,0.0,0.0,0.0025915941,0.0025915941,0.002590777,0.002588226,1.0000881,1.000088,1.0,0.0,0.0,0.0,0.0,0.0,0.0
1743177452085379,1743177451933379,0.09913775,0.09913498,0.21041937,0.25947753,0.2594772,0.5800486,0.0,0.0,0.0,0.0,0.0,0.0,0.0,12.310253,0.0,0.0,0.0,0.0,0.0025915941,0.0025915941,0.002590777,0.002588226,1.0000861,1.000086,1.0,0.0,0.0,0.0,0.0,0.0,0.0
1743177452093379,1743177451941379,0.09913775,0.09913498,0.21041937,0.25947753,0.2594772,0.5800486,0.0,0.0,0.0,0.0,0.0,0.0,0.0,12.310253,0.0,0.0,0.0,0.0,0.0025887918,0.0025887918,0.0025879575,0.0025852772,1.0000863,1.0000862,1.0,0.0,0.0,0.0,0.0,0.0,0.0
1743177452101379,1743177451949379,0.09913775,0.09913498,0.21041937,0.25947753,0.2594772,0.5800486,0.0,0.0,0.0,0.0,0.0,0.0,0.0,12.310253,0.0,0.0,0.0,0.0,0.0025887918,0.0025887918,0.0025879575,0.0025852772,1.0000865,1.0000864,1.0,0.0,0.0,0.0,0.0,0.0,0.0
1743177452109379,1743177451957379,0.09913775,0.09913498,0.21041937,0.25947753,0.2594772,0.5800486,0.0,0.0,0.0,0.0,0.0,0.0,0.0,12.310253,0.0,0.0,0.0,0.0,0.0025887918,0.0025887918,0.0025879575,0.0025852772,1.0000868,1.0000867,1.0,0.0,0.0,0.0,0.0,0.0,0.0
1743177452125379,1743177451973379,0.09913775,0.09913498,0.21041937,0.25947753,0.2594772,0.5800486,0.0,0.0,0.0,0.0,0.0,0.0,0.0,12.310999,0.0,0.0,0.0,0.0,0.0025887918,0.0025887918,0.0025879575,0.0025852772,1.0000873,1.0000871,1.0,0.0,0.0,0.0,0.0,0.0,0.0
1743177452133379,1743177451981379,0.09902582,0.099022776,0.21042319,0.25941396,0.25941363,0.579993,0.0,0.0,0.0,0.0,0.0,0.0,0.0,12.310999,0.0,0.0,0.0,0.0,0.0025887918,0.0025887918,0.0025879575,0.0025852772,1.0000851,1.000085,1.0,0.0,0.0,0.0,0.0,0.0,0.0
1743177452141379,1743177451989379,0.09902582,0.099022776,0.21042319,0.25941396,0.25941363,0.579993,0.0,0.0,0.0,0.0,0.0,0.0,0.0,12.310999,0.0,0.0,0.0,0.0,0.0025887918,0.0025887918,0.0025879575,0.0025852772,1.0000854,1.0000852,1.0,0.0,0.0,0.0,0.0,0.0,0.0
1743177452149379,1743177451997379,0.09902582,0.099022776,0.21042319,0.25941396,0.25941363,0.579993,0.0,0.0,0.0,0.0,0.0,0.0,0.0,12.310999,0.0,0.0,0.0,0.0,0.0025887918,0.0025887918,0.0025879575,0.0025852772,1.0000856,1.0000855,1.0,0.0,0.0,0.0,0.0,0.0,0.0
1743177452165379,1743177452013379,0.09902582,0.099022776,0.21042319,0.25941396,0.25941363,0.579993,0.0,0.0,0.0,0.0,0.0,0.0,0.0,12.311506,0.0,0.0,0.0,0.0,0.0025860802,0.0025860802,0.0025852332,0.0025825081,1.0000845,1.0000843,1.0,0.0,0.0,0.0,0.0,0.0,0.0
1743177452173379,1743177452021379,0.09902582,0.099022776,0.21042319,0.25941396,0.25941363,0.579993,0.0,0.0,0.0,0.0,0.0,0.0,0.0,12.311506,0.0,0.0,0.0,0.0,0.0025860802,0.0025860802,0.0025852332,0.0025825081,1.0000846,1.0000845,1.0,0.0,0.0,0.0,0.0,0.0,0.0
