timestamp,timestamp_sample,latitude_deg,longitude_deg,altitude_msl_m,altitude_ellipsoid_m,time_utc_usec,device_id,s_variance_m_s,c_variance_rad,eph,epv,hdop,vdop,noise_per_ms,jamming_indicator,vel_m_s,vel_n_m_s,vel_e_m_s,vel_d_m_s,cog_rad,timestamp_time_relative,heading,heading_offset,heading_accuracy,rtcm_injection_rate,automatic_gain_control,fix_type,jamming_state,spoofing_state,vel_ned_valid,satellites_used,selected_rtcm_instance,rtcm_crc_failed,rtcm_msg_used
1743177450685379,0,52.5148588,13.325424199999999,-0.006,-0.006,1743177450685379,0,0.25,0.5,0.29999998,0.39999998,0.0,0.0,0,0,0.0,0.0,0.0,0.0,nan,0,nan,nan,0.0,0.0,0,3,0,0,1,9,0,0,0
1743177451725379,0,52.5148588,13.325424199999999,-0.007,-0.007,1743177451725379,0,0.25,0.5,0.29999998,0.39999998,0.0,0.0,0,0,0.0,0.0,0.0,0.0,nan,0,nan,nan,0.0,0.0,0,3,0,0,1,9,0,0,0
1743177452713379,0,52.5148588,13.325424199999999,-0.006,-0.006,1743177452713379,0,0.25,0.5,0.29999998,0.39999998,0.0,0.0,0,0,0.01,0.0,0.01,0.0,nan,0,nan,nan,0.0,0.0,0,3,0,0,1,9,0,0,0
1743177453701379,0,52.5148588,13.325424199999999,-0.006,-0.006,1743177453701379,0,0.25,0.5,0.29999998,0.39999998,0.0,0.0,0,0,0.0,0.0,0.0,0.0,nan,0,nan,nan,0.0,0.0,0,3,0,0,1,9,0,0,0
1743177454689379,0,52.5148588,13.325424199999999,-0.006,-0.006,1743177454689379,0,0.25,0.5,0.29999998,0.39999998,0.0,0.0,0,0,0.0,0.0,0.0,0.0,nan,0,nan,nan,0.0,0.0,0,3,0,0,1,9,0,0,0
1743177455729379,0,52.5148588,13.325424199999999,-0.007,-0.007,1743177455729379,0,0.25,0.5,0.29999998,0.39999998,0.0,0.0,0,0,0.0,0.0,0.0,0.01,nan,0,nan,nan,0.0,0.0,0,3,0,0,1,9,0,0,0
1743177456717379,0,52.5148588,13.325424199999999,-0.004,-0.004,1743177456717379,0,0.25,0.5,0.29999998,0.39999998,0.0,0.0,0,0,0.01,0.0,-0.01,0.0,nan,0,nan,nan,0.0,0.0,0,3,0,0,1,9,0,0,0
1743177457705379,0,52.5148588,13.325424199999999,0.0,0.0,1743177457705379,0,0.25,0.5,0.29999998,0.39999998,0.0,0.0,0,0,0.0,0.0,0.0,0.0,nan,0,nan,nan,0.0,0.0,0,3,0,0,1,9,0,0,0
1743177458693379,0,52.5148581,13.3254247,0.221,0.221,1743177458693379,0,0.25,0.5,0.29999998,0.39999998,0.0,0.0,0,0,0.03,-0.02,0.02,-0.57,nan,0,nan,nan,0.0,0.0,0,3,0,0,1,9,0,0,0
1743177459681379,0,52.5148583,13.3254247,2.069,2.069,1743177459681379,0,0.25,0.5,0.29999998,0.39999998,0.0,0.0,0,0,0.03,0.03,-0.01,-2.6599998,nan,0,nan,nan,0.0,0.0,0,3,0,0,1,9,0,0,0
1743177460721379,0,52.514858499999995,13.3254246,4.871,4.871,1743177460721379,0,0.25,0.5,0.29999998,0.39999998,0.0,0.0,0,0,0.01,-0.01,0.01,-2.74,nan,0,nan,nan,0.0,0.0,0,3,0,0,1,9,0,0,0
1743177461709379,0,52.514857,13.3254266,7.632000000000001,7.632000000000001,1743177461709379,0,0.25,0.5,0.29999998,0.39999998,0.0,0.0,0,0,0.34,-0.26,0.22,-2.81,nan,0,nan,nan,0.0,0.0,0,3,0,0,1,9,0,0,0
1743177462697379,0,52.514855,13.3254293,10.458,10.458,1743177462697379,0,0.25,0.5,0.29999998,0.39999998,0.0,0.0,0,0,0.17999999,-0.14999999,0.099999994,-2.8799999,nan,0,nan,nan,0.0,0.0,0,3,0,0,1,9,0,0,0
1743177463685379,0,52.5148546,13.3254296,13.33,13.33,1743177463685379,0,0.25,0.5,0.29999998,0.39999998,0.0,0.0,0,0,0.03,0.01,-0.03,-2.9099998,nan,0,nan,nan,0.0,0.0,0,3,0,0,1,9,0,0,0
1743177464725379,0,52.5148552,13.325428899999999,16.386,16.386,1743177464725379,0,0.25,0.5,0.29999998,0.39999998,0.0,0.0,0,0,0.08,0.06,-0.049999997,-2.95,nan,0,nan,nan,0.0,0.0,0,3,0,0,1,9,0,0,0
1743177465713379,0,52.5148558,13.325428299999999,19.198,19.198,1743177465713379,0,0.25,0.5,0.29999998,0.39999998,0.0,0.0,0,0,0.07,0.06,-0.03,-2.73,nan,0,nan,nan,0.0,0.0,0,3,0,0,1,9,0,0,0
1743177466701379,0,52.514856099999996,13.3254281,21.392,21.392,1743177466701379,0,0.25,0.5,0.29999998,0.39999998,0.0,0.0,0,0,0.01,0.01,0.0,-1.78,nan,0,nan,nan,0.0,0.0,0,3,0,0,1,9,0,0,0
1743177467689379,0,52.5148563,13.325427999999999,22.784,22.784,1743177467689379,0,0.25,0.5,0.29999998,0.39999998,0.0,0.0,0,0,0.04,0.03,-0.01,-1.14,nan,0,nan,nan,0.0,0.0,0,3,0,0,1,9,0,0,0
1743177468729379,0,52.514856699999996,13.325427699999999,23.709,23.709,1743177468729379,0,0.25,0.5,0.29999998,0.39999998,0.0,0.0,0,0,0.03,0.03,-0.01,-0.71,nan,0,nan,nan,0.0,0.0,0,3,0,0,1,9,0,0,0
1743177469717379,0,52.514857,13.3254275,24.252,24.252,1743177469717379,0,0.25,0.5,0.29999998,0.39999998,0.0,0.0,0,0,0.04,0.03,-0.02,-0.44,nan,0,nan,nan,0.0,0.0,0,3,0,0,1,9,0,0,0
1743177470705379,0,52.5148575,13.3254257,24.593,24.593,1743177470705379,0,0.25,0.5,0.29999998,0.39999998,0.0,0.0,0,0,0.45999998,0.06,-0.45999998,-0.29999998,nan,0,nan,nan,0.0,0.0,0,3,0,0,1,9,0,0,0
1743177471693379,0,52.514858,13.3254083,24.793,24.793,1743177471693379,0,0.25,0.5,0.29999998,0.39999998,0.0,0.0,0,0,1.39,0.01,-1.39,-0.13,nan,0,nan,nan,0.0,0.0,0,3,0,0,1,9,0,0,0
1743177472681379,0,52.514858,13.3253966,24.888,24.888,1743177472681379,0,0.25,0.5,0.29999998,0.39999998,0.0,0.0,0,0,0.39,0.0,-0.39,-0.089999996,nan,0,nan,nan,0.0,0.0,0,3,0,0,1,9,0,0,0
1743177473721379,0,52.5148581,13.3253908,24.956,24.956,1743177473721379,0,0.25,0.5,0.29999998,0.39999998,0.0,0.0,0,0,0.38,-0.01,-0.38,-0.01,nan,0,nan,nan,0.0,0.0,0,3,0,0,1,9,0,0,0
1743177474709379,0,52.514851699999994,13.3253817,24.992,24.992,1743177474709379,0,0.25,0.5,0.29999998,0.39999998,0.0,0.0,0,0,1.9399999,-1.5999999,-1.09,-0.089999996,nan,0,nan,nan,0.0,0.0,0,3,0,0,1,9,0,0,0
1743177475697379,0,52.5148288,13.3253474,25.047,25.047,1743177475697379,0,0.25,0.5,0.29999998,0.39999998,0.0,0.0,0,0,4.5899997,-3.27,-3.22,0.04,nan,0,nan,nan,0.0,0.0,0,3,0,0,1,9,0,0,0
1743177476685379,0,52.5148003,13.325297899999999,25.016000000000002,25.016000000000002,1743177476685379,0,0.25,0.5,0.29999998,0.39999998,0.0,0.0,0,0,4.65,-3.1499999,-3.4199998,0.02,nan,0,nan,nan,0.0,0.0,0,3,0,0,1,9,0,0,0
1743177477725379,0,52.5147749,13.3252499,24.964000000000002,24.964000000000002,1743177477725379,0,0.25,0.5,0.29999998,0.39999998,0.0,0.0,0,0,3.58,-2.23,-2.8,0.049999997,nan,0,nan,nan,0.0,0.0,0,3,0,0,1,9,0,0,0
1743177478713379,0,52.5147589,13.325215,24.926000000000002,24.926000000000002,1743177478713379,0,0.25,0.5,0.29999998,0.39999998,0.0,0.0,0,0,2.52,-1.4699999,-2.04,0.01,nan,0,nan,nan,0.0,0.0,0,3,0,0,1,9,0,0,0
1743177479701379,0,52.5147486,13.3251919,24.924,24.924,1743177479701379,0,0.25,0.5,0.29999998,0.39999998,0.0,0.0,0,0,1.52,-0.90999997,-1.22,-0.01,nan,0,nan,nan,0.0,0.0,0,3,0,0,1,9,0,0,0
1743177480689379,0,52.5147426,13.3251792,24.941,24.941,1743177480689379,0,0.25,0.5,0.29999998,0.39999998,0.0,0.0,0,0,0.81,-0.5,-0.64,-0.02,nan,0,nan,nan,0.0,0.0,0,3,0,0,1,9,0,0,0
1743177481729379,0,52.5147389,13.325172199999999,24.976,24.976,1743177481729379,0,0.25,0.5,0.29999998,0.39999998,0.0,0.0,0,0,0.45,-0.26999998,-0.35,-0.07,nan,0,nan,nan,0.0,0.0,0,3,0,0,1,9,0,0,0
1743177482717379,0,52.5147379,13.3251587,25.022000000000002,25.022000000000002,1743177482717379,0,0.25,0.5,0.29999998,0.39999998,0.0,0.0,0,0,1.9599999,-0.089999996,-1.9599999,-0.03,nan,0,nan,nan,0.0,0.0,0,3,0,0,1,9,0,0,0
1743177483705379,0,52.514737,13.3251081,25.044,25.044,1743177483705379,0,0.25,0.5,0.29999998,0.39999998,0.0,0.0,0,0,4.46,-0.14999999,-4.45,0.01,nan,0,nan,nan,0.0,0.0,0,3,0,0,1,9,0,0,0
1743177484693379,0,52.514736199999994,13.3250393,25.009,25.009,1743177484693379,0,0.25,0.5,0.29999998,0.39999998,0.0,0.0,0,0,4.7599998,-0.01,-4.7599998,0.04,nan,0,nan,nan,0.0,0.0,0,3,0,0,1,9,0,0,0
1743177485681379,0,52.514736299999996,13.3249736,24.971,24.971,1743177485681379,0,0.25,0.5,0.29999998,0.39999998,0.0,0.0,0,0,3.98,0.01,-3.98,0.03,nan,0,nan,nan,0.0,0.0,0,3,0,0,1,9,0,0,0
1743177486721379,0,52.5147364,13.324923499999999,24.955000000000002,24.955000000000002,1743177486721379,0,0.25,0.5,0.29999998,0.39999998,0.0,0.0,0,0,2.6799998,-0.01,-2.6799998,0.0,nan,0,nan,nan,0.0,0.0,0,3,0,0,1,9,0,0,0
1743177487709379,0,52.514736,13.3248929,24.964000000000002,24.964000000000002,1743177487709379,0,0.25,0.5,0.29999998,0.39999998,0.0,0.0,0,0,1.63,-0.06,-1.63,-0.01,nan,0,nan,nan,0.0,0.0,0,3,0,0,1,9,0,0,0
1743177488697379,0,52.5147353,13.324875599999999,24.981,24.981,1743177488697379,0,0.25,0.5,0.29999998,0.39999998,0.0,0.0,0,0,0.87,-0.08,-0.87,-0.02,nan,0,nan,nan,0.0,0.0,0,3,0,0,1,9,0,0,0
1743177489685379,0,52.5147337,13.324867,25.019000000000002,25.019000000000002,1743177489685379,0,0.25,0.5,0.29999998,0.39999998,0.0,0.0,0,0,0.63,-0.48999998,-0.39999998,-0.06,nan,0,nan,nan,0.0,0.0,0,3,0,0,1,9,0,0,0
1743177490725379,0,52.5147257,13.324851899999999,25.031,25.031,1743177490725379,0,0.25,0.5,0.29999998,0.39999998,0.0,0.0,0,0,1.48,-0.81,-1.24,0.089999996,nan,0,nan,nan,0.0,0.0,0,3,0,0,1,9,0,0,0
1743177491713379,0,52.514720999999994,13.324841999999999,24.990000000000002,24.990000000000002,1743177491713379,0,0.25,0.5,0.29999998,0.39999998,0.0,0.0,0,0,0.52,-0.32999998,-0.39999998,0.03,nan,0,nan,nan,0.0,0.0,0,3,0,0,1,9,0,0,0
1743177492701379,0,52.514719299999996,13.324835799999999,25.013,25.013,1743177492701379,0,0.25,0.5,0.29999998,0.39999998,0.0,0.0,0,0,0.71,-0.06,-0.71,-0.02,nan,0,nan,nan,0.0,0.0,0,3,0,0,1,9,0,0,0
1743177493689379,0,52.5147188,13.3248049,25.058,25.058,1743177493689379,0,0.25,0.5,0.29999998,0.39999998,0.0,0.0,0,0,3.33,-0.089999996,-3.33,-0.01,nan,0,nan,nan,0.0,0.0,0,3,0,0,1,9,0,0,0
1743177494729379,0,52.5147179,13.324740199999999,25.019000000000002,25.019000000000002,1743177494729379,0,0.25,0.5,0.29999998,0.39999998,0.0,0.0,0,0,4.41,-0.06,-4.41,0.049999997,nan,0,nan,nan,0.0,0.0,0,3,0,0,1,9,0,0,0
1743177495717379,0,52.5147173,13.3246758,24.991,24.991,1743177495717379,0,0.25,0.5,0.29999998,0.39999998,0.0,0.0,0,0,4.45,-0.049999997,-4.45,0.01,nan,0,nan,nan,0.0,0.0,0,3,0,0,1,9,0,0,0
1743177496705379,0,52.514716899999996,13.3246101,24.977,24.977,1743177496705379,0,0.25,0.5,0.29999998,0.39999998,0.0,0.0,0,0,4.5299997,-0.04,-4.5299997,0.01,nan,0,nan,nan,0.0,0.0,0,3,0,0,1,9,0,0,0
1743177497693379,0,52.5147165,13.324543499999999,24.969,24.969,1743177497693379,0,0.25,0.5,0.29999998,0.39999998,0.0,0.0,0,0,4.58,-0.04,-4.58,0.0,nan,0,nan,nan,0.0,0.0,0,3,0,0,1,9,0,0,0
1743177498681379,0,52.5147161,13.324478299999999,24.943,24.943,1743177498681379,0,0.25,0.5,0.29999998,0.39999998,0.0,0.0,0,0,4.1,-0.04,-4.1,0.049999997,nan,0,nan,nan,0.0,0.0,0,3,0,0,1,9,0,0,0
1743177499721379,0,52.514715699999996,13.3244253,24.92,24.92,1743177499721379,0,0.25,0.5,0.29999998,0.39999998,0.0,0.0,0,0,2.95,-0.04,-2.95,0.0,nan,0,nan,nan,0.0,0.0,0,3,0,0,1,9,0,0,0
1743177500709379,0,52.5147154,13.3243894,24.911,24.911,1743177500709379,0,0.25,0.5,0.29999998,0.39999998,0.0,0.0,0,0,2.05,-0.02,-2.05,0.0,nan,0,nan,nan,0.0,0.0,0,3,0,0,1,9,0,0,0
1743177501697379,0,52.514714999999995,13.3243657,24.914,24.914,1743177501697379,0,0.25,0.5,0.29999998,0.39999998,0.0,0.0,0,0,1.27,-0.03,-1.27,0.0,nan,0,nan,nan,0.0,0.0,0,3,0,0,1,9,0,0,0
1743177502685379,0,52.5147148,13.3243522,24.927,24.927,1743177502685379,0,0.25,0.5,0.29999998,0.39999998,0.0,0.0,0,0,0.65999997,-0.03,-0.65999997,-0.03,nan,0,nan,nan,0.0,0.0,0,3,0,0,1,9,0,0,0
1743177503725379,0,52.514708399999996,13.324342099999999,25.007,25.007,1743177503725379,0,0.25,0.5,0.29999998,0.39999998,0.0,0.0,0,0,1.9399999,-1.51,-1.1999999,-0.12,nan,0,nan,nan,0.0,0.0,0,3,0,0,1,9,0,0,0
1743177504713379,0,52.5146868,13.3243037,25.043,25.043,1743177504713379,0,0.25,0.5,0.29999998,0.39999998,0.0,0.0,0,0,4.49,-3.01,-3.33,0.03,nan,0,nan,nan,0.0,0.0,0,3,0,0,1,9,0,0,0
1743177505701379,0,52.514661399999994,13.324259399999999,24.972,24.972,1743177505701379,0,0.25,0.5,0.29999998,0.39999998,0.0,0.0,0,0,3.52,-2.44,-2.53,0.06,nan,0,nan,nan,0.0,0.0,0,3,0,0,1,9,0,0,0
1743177506689379,0,52.514644,13.3242292,24.95,24.95,1743177506689379,0,0.25,0.5,0.29999998,0.39999998,0.0,0.0,0,0,2.44,-1.68,-1.76,0.0,nan,0,nan,nan,0.0,0.0,0,3,0,0,1,9,0,0,0
1743177507729379,0,52.5146309,13.3242069,24.955000000000002,24.955000000000002,1743177507729379,0,0.25,0.5,0.29999998,0.39999998,0.0,0.0,0,0,1.67,-1.15,-1.1999999,-0.01,nan,0,nan,nan,0.0,0.0,0,3,0,0,1,9,0,0,0
1743177508717379,0,52.514623,13.3241932,24.97,24.97,1743177508717379,0,0.25,0.5,0.29999998,0.39999998,0.0,0.0,0,0,1.02,-0.69,-0.74,-0.02,nan,0,nan,nan,0.0,0.0,0,3,0,0,1,9,0,0,0
1743177509705379,0,52.5146188,13.3241848,24.997,24.997,1743177509705379,0,0.25,0.5,0.29999998,0.39999998,0.0,0.0,0,0,0.58,-0.17,-0.56,-0.07,nan,0,nan,nan,0.0,0.0,0,3,0,0,1,9,0,0,0
1743177510693379,0,52.5146179,13.3241639,25.047,25.047,1743177510693379,0,0.25,0.5,0.29999998,0.39999998,0.0,0.0,0,0,2.5,-0.16,-2.49,-0.07,nan,0,nan,nan,0.0,0.0,0,3,0,0,1,9,0,0,0
1743177511681379,0,52.514615899999995,13.3241255,25.008,25.008,1743177511681379,0,0.25,0.5,0.29999998,0.39999998,0.0,0.0,0,0,2.18,-0.17999999,-2.1699998,0.02,nan,0,nan,nan,0.0,0.0,0,3,0,0,1,9,0,0,0
1743177512721379,0,52.5146149,13.3241073,24.975,24.975,1743177512721379,0,0.25,0.5,0.29999998,0.39999998,0.0,0.0,0,0,0.7,-0.02,-0.7,0.0,nan,0,nan,nan,0.0,0.0,0,3,0,0,1,9,0,0,0
1743177513709379,0,52.5146138,13.3240986,24.994,24.994,1743177513709379,0,0.25,0.5,0.29999998,0.39999998,0.0,0.0,0,0,0.75,-0.48,-0.57,-0.04,nan,0,nan,nan,0.0,0.0,0,3,0,0,1,9,0,0,0
1743177514697379,0,52.514604299999995,13.324079099999999,25.034,25.034,1743177514697379,0,0.25,0.5,0.29999998,0.39999998,0.0,0.0,0,0,2.2,-1.25,-1.81,0.0,nan,0,nan,nan,0.0,0.0,0,3,0,0,1,9,0,0,0
1743177515685379,0,52.5145967,13.3240626,24.997,24.997,1743177515685379,0,0.25,0.5,0.29999998,0.39999998,0.0,0.0,0,0,0.76,-0.5,-0.57,0.04,nan,0,nan,nan,0.0,0.0,0,3,0,0,1,9,0,0,0
1743177516725379,0,52.5145929,13.324056599999999,24.989,24.989,1743177516725379,0,0.25,0.5,0.29999998,0.39999998,0.0,0.0,0,0,0.45,-0.28,-0.35,-0.03,nan,0,nan,nan,0.0,0.0,0,3,0,0,1,9,0,0,0
1743177517713379,0,52.5145924,13.324041999999999,25.042,25.042,1743177517713379,0,0.25,0.5,0.29999998,0.39999998,0.0,0.0,0,0,2.02,-0.03,-2.02,-0.089999996,nan,0,nan,nan,0.0,0.0,0,3,0,0,1,9,0,0,0
1743177518701379,0,52.5145912,13.3239927,25.055,25.055,1743177518701379,0,0.25,0.5,0.29999998,0.39999998,0.0,0.0,0,0,4.24,-0.06,-4.24,0.03,nan,0,nan,nan,0.0,0.0,0,3,0,0,1,9,0,0,0
1743177519689379,0,52.5145913,13.323927,24.990000000000002,24.990000000000002,1743177519689379,0,0.25,0.5,0.29999998,0.39999998,0.0,0.0,0,0,4.5899997,-0.03,-4.5899997,0.04,nan,0,nan,nan,0.0,0.0,0,3,0,0,1,9,0,0,0
1743177520729379,0,52.51459,13.32386,25.011,25.011,1743177520729379,0,0.25,0.5,0.29999998,0.39999998,0.0,0.0,0,0,3.85,-0.35999998,-3.83,-0.12,nan,0,nan,nan,0.0,0.0,0,3,0,0,1,9,0,0,0
1743177521717379,0,52.5145863,13.3238065,25.041,25.041,1743177521717379,0,0.25,0.5,0.29999998,0.39999998,0.0,0.0,0,0,3.9299998,-0.19,-3.9299998,0.049999997,nan,0,nan,nan,0.0,0.0,0,3,0,0,1,9,0,0,0
1743177522705379,0,52.5145876,13.323742099999999,24.963,24.963,1743177522705379,0,0.25,0.5,0.29999998,0.39999998,0.0,0.0,0,0,4.72,0.29999998,-4.71,0.06,nan,0,nan,nan,0.0,0.0,0,3,0,0,1,9,0,0,0
1743177523693379,0,52.5145899,13.3236736,24.908,24.908,1743177523693379,0,0.25,0.5,0.29999998,0.39999998,0.0,0.0,0,0,4.2999997,0.16,-4.2999997,0.049999997,nan,0,nan,nan,0.0,0.0,0,3,0,0,1,9,0,0,0
1743177524681379,0,52.514590399999996,13.323621999999999,24.894000000000002,24.894000000000002,1743177524681379,0,0.25,0.5,0.29999998,0.39999998,0.0,0.0,0,0,2.9299998,-0.01,-2.9299998,-0.01,nan,0,nan,nan,0.0,0.0,0,3,0,0,1,9,0,0,0
1743177525721379,0,52.5145901,13.3235868,24.916,24.916,1743177525721379,0,0.25,0.5,0.29999998,0.39999998,0.0,0.0,0,0,1.8299999,-0.03,-1.8299999,-0.02,nan,0,nan,nan,0.0,0.0,0,3,0,0,1,9,0,0,0
1743177526709379,0,52.5145899,13.3235659,24.936,24.936,1743177526709379,0,0.25,0.5,0.29999998,0.39999998,0.0,0.0,0,0,1.14,-0.02,-1.14,-0.01,nan,0,nan,nan,0.0,0.0,0,3,0,0,1,9,0,0,0
1743177527697379,0,52.514589699999995,13.3235535,24.952,24.952,1743177527697379,0,0.25,0.5,0.29999998,0.39999998,0.0,0.0,0,0,0.63,-0.049999997,-0.63,-0.03,nan,0,nan,nan,0.0,0.0,0,3,0,0,1,9,0,0,0
1743177528685379,0,52.514584899999996,13.323542999999999,25.011,25.011,1743177528685379,0,0.25,0.5,0.29999998,0.39999998,0.0,0.0,0,0,1.53,-0.9,-1.24,-0.07,nan,0,nan,nan,0.0,0.0,0,3,0,0,1,9,0,0,0
1743177529725379,0,52.5145785,13.3235262,24.981,24.981,1743177529725379,0,0.25,0.5,0.29999998,0.39999998,0.0,0.0,0,0,0.71999997,-0.39,-0.61,0.01,nan,0,nan,nan,0.0,0.0,0,3,0,0,1,9,0,0,0
1743177530713379,0,52.514576,13.323519399999999,25.008,25.008,1743177530713379,0,0.25,0.5,0.29999998,0.39999998,0.0,0.0,0,0,0.56,-0.08,-0.56,-0.089999996,nan,0,nan,nan,0.0,0.0,0,3,0,0,1,9,0,0,0
1743177531701379,0,52.5145748,13.3234982,25.031,25.031,1743177531701379,0,0.25,0.5,0.29999998,0.39999998,0.0,0.0,0,0,2.12,-0.31,-2.09,-0.06,nan,0,nan,nan,0.0,0.0,0,3,0,0,1,9,0,0,0
1743177532689379,0,52.514572199999996,13.323475,24.971,24.971,1743177532689379,0,0.25,0.5,0.29999998,0.39999998,0.0,0.0,0,0,0.95,-0.17,-0.94,0.03,nan,0,nan,nan,0.0,0.0,0,3,0,0,1,9,0,0,0
1743177533729379,0,52.514571,13.323464999999999,24.982,24.982,1743177533729379,0,0.25,0.5,0.29999998,0.39999998,0.0,0.0,0,0,0.64,-0.34,-0.53999996,-0.099999994,nan,0,nan,nan,0.0,0.0,0,3,0,0,1,9,0,0,0
1743177534717379,0,52.514565999999995,13.3234529,25.031,25.031,1743177534717379,0,0.25,0.5,0.29999998,0.39999998,0.0,0.0,0,0,0.90999997,-0.35,-0.84,0.02,nan,0,nan,nan,0.0,0.0,0,3,0,0,1,9,0,0,0
1743177535705379,0,52.5145647,13.3234438,24.978,24.978,1743177535705379,0,0.25,0.5,0.29999998,0.39999998,0.0,0.0,0,0,0.83,-0.02,-0.83,0.0,nan,0,nan,nan,0.0,0.0,0,3,0,0,1,9,0,0,0
1743177536693379,0,52.5145631,13.3234271,24.981,24.981,1743177536693379,0,0.25,0.5,0.29999998,0.39999998,0.0,0.0,0,0,0.87,-0.17999999,-0.84999996,0.049999997,nan,0,nan,nan,0.0,0.0,0,3,0,0,1,9,0,0,0
1743177537681379,0,52.5145614,13.323419999999999,24.997,24.997,1743177537681379,0,0.25,0.5,0.29999998,0.39999998,0.0,0.0,0,0,0.57,-0.42999998,-0.37,-0.089999996,nan,0,nan,nan,0.0,0.0,0,3,0,0,1,9,0,0,0
1743177538721379,0,52.5145513,13.3234018,25.029,25.029,1743177538721379,0,0.25,0.5,0.29999998,0.39999998,0.0,0.0,0,0,2.23,-1.3399999,-1.77,0.08,nan,0,nan,nan,0.0,0.0,0,3,0,0,1,9,0,0,0
1743177539709379,0,52.5145431,13.3233841,24.979,24.979,1743177539709379,0,0.25,0.5,0.29999998,0.39999998,0.0,0.0,0,0,0.88,-0.53999996,-0.7,0.04,nan,0,nan,nan,0.0,0.0,0,3,0,0,1,9,0,0,0
1743177540697379,0,52.5145395,13.323376699999999,24.968,24.968,1743177540697379,0,0.25,0.5,0.29999998,0.39999998,0.0,0.0,0,0,0.53999996,-0.34,-0.41,0.0,nan,0,nan,nan,0.0,0.0,0,3,0,0,1,9,0,0,0
1743177541685379,0,52.5145385,13.323364399999999,25.007,25.007,1743177541685379,0,0.25,0.5,0.29999998,0.39999998,0.0,0.0,0,0,1.68,-0.04,-1.68,-0.049999997,nan,0,nan,nan,0.0,0.0,0,3,0,0,1,9,0,0,0
1743177542725379,0,52.514536799999995,13.3233185,25.007,25.007,1743177542725379,0,0.25,0.5,0.29999998,0.39999998,0.0,0.0,0,0,3.48,-0.19999999,-3.48,0.049999997,nan,0,nan,nan,0.0,0.0,0,3,0,0,1,9,0,0,0
1743177543713379,0,52.5145353,13.3232789,24.983,24.983,1743177543713379,0,0.25,0.5,0.29999998,0.39999998,0.0,0.0,0,0,1.7099999,-0.16,-1.6999999,0.03,nan,0,nan,nan,0.0,0.0,0,3,0,0,1,9,0,0,0
1743177544701379,0,52.514533799999995,13.3232646,24.971,24.971,1743177544701379,0,0.25,0.5,0.29999998,0.39999998,0.0,0.0,0,0,0.7,-0.17999999,-0.66999996,0.0,nan,0,nan,nan,0.0,0.0,0,3,0,0,1,9,0,0,0
1743177545689379,0,52.5145299,13.3232562,25.01,25.01,1743177545689379,0,0.25,0.5,0.29999998,0.39999998,0.0,0.0,0,0,1.1,-0.90999997,-0.63,0.0,nan,0,nan,nan,0.0,0.0,0,3,0,0,1,9,0,0,0
1743177546729379,0,52.514522299999996,13.3232488,25.127,25.127,1743177546729379,0,0.25,0.5,0.29999998,0.39999998,0.0,0.0,0,0,0.7,-0.65,-0.26,0.099999994,nan,0,nan,nan,0.0,0.0,0,3,0,0,1,9,0,0,0
1743177547717379,0,52.5145197,13.323242599999999,25.052,25.052,1743177547717379,0,0.25,0.5,0.29999998,0.39999998,0.0,0.0,0,0,0.78999996,-0.19,-0.77,0.04,nan,0,nan,nan,0.0,0.0,0,3,0,0,1,9,0,0,0
1743177548705379,0,52.5145184,13.3232191,25.048000000000002,25.048000000000002,1743177548705379,0,0.25,0.5,0.29999998,0.39999998,0.0,0.0,0,0,2.3799999,0.0,-2.3799999,0.0,nan,0,nan,nan,0.0,0.0,0,3,0,0,1,9,0,0,0
1743177549693379,0,52.5145196,13.3231741,25.053,25.053,1743177549693379,0,0.25,0.5,0.29999998,0.39999998,0.0,0.0,0,0,3.3799999,0.14,-3.3799999,0.0,nan,0,nan,nan,0.0,0.0,0,3,0,0,1,9,0,0,0
1743177550681379,0,52.514520399999995,13.323127399999999,25.03,25.03,1743177550681379,0,0.25,0.5,0.29999998,0.39999998,0.0,0.0,0,0,2.8899999,0.07,-2.8899999,0.04,nan,0,nan,nan,0.0,0.0,0,3,0,0,1,9,0,0,0
1743177551721379,0,52.5145213,13.3230927,24.988,24.988,1743177551721379,0,0.25,0.5,0.29999998,0.39999998,0.0,0.0,0,0,1.8299999,0.11,-1.8299999,0.02,nan,0,nan,nan,0.0,0.0,0,3,0,0,1,9,0,0,0
1743177552709379,0,52.5145224,13.323068399999999,24.973,24.973,1743177552709379,0,0.25,0.5,0.29999998,0.39999998,0.0,0.0,0,0,1.54,0.12,-1.54,0.0,nan,0,nan,nan,0.0,0.0,0,3,0,0,1,9,0,0,0
1743177553697379,0,52.5145233,13.3230484,24.965,24.965,1743177553697379,0,0.25,0.5,0.29999998,0.39999998,0.0,0.0,0,0,1.2099999,0.07,-1.1999999,0.0,nan,0,nan,nan,0.0,0.0,0,3,0,0,1,9,0,0,0
1743177554685379,0,52.5145238,13.3230341,24.959,24.959,1743177554685379,0,0.25,0.5,0.29999998,0.39999998,0.0,0.0,0,0,0.78999996,0.049999997,-0.78,0.01,nan,0,nan,nan,0.0,0.0,0,3,0,0,1,9,0,0,0
1743177555725379,0,52.5145244,13.323025,24.961000000000002,24.961000000000002,1743177555725379,0,0.25,0.5,0.29999998,0.39999998,0.0,0.0,0,0,0.45,0.07,-0.44,0.0,nan,0,nan,nan,0.0,0.0,0,3,0,0,1,9,0,0,0
1743177556713379,0,52.5145288,13.323020099999999,25.045,25.045,1743177556713379,0,0.25,0.5,0.29999998,0.39999998,0.0,0.0,0,0,1.16,0.93,-0.69,-0.11,nan,0,nan,nan,0.0,0.0,0,3,0,0,1,9,0,0,0
1743177557701379,0,52.5145433,13.322991499999999,25.037,25.037,1743177557701379,0,0.25,0.5,0.29999998,0.39999998,0.0,0.0,0,0,3.56,2.37,-2.6499999,0.06,nan,0,nan,nan,0.0,0.0,0,3,0,0,1,9,0,0,0
1743177558689379,0,52.5145665,13.322953799999999,25.014,25.014,1743177558689379,0,0.25,0.5,0.29999998,0.39999998,0.0,0.0,0,0,3.46,2.47,-2.4199998,-0.01,nan,0,nan,nan,0.0,0.0,0,3,0,0,1,9,0,0,0
1743177559729379,0,52.5145907,13.3229151,24.973,24.973,1743177559729379,0,0.25,0.5,0.29999998,0.39999998,0.0,0.0,0,0,3.77,2.74,-2.58,0.03,nan,0,nan,nan,0.0,0.0,0,3,0,0,1,9,0,0,0
1743177560717379,0,52.5146156,13.3228759,24.943,24.943,1743177560717379,0,0.25,0.5,0.29999998,0.39999998,0.0,0.0,0,0,3.9399998,2.81,-2.75,0.02,nan,0,nan,nan,0.0,0.0,0,3,0,0,1,9,0,0,0
1743177561705379,0,52.5146411,13.3228344,24.912,24.912,1743177561705379,0,0.25,0.5,0.29999998,0.39999998,0.0,0.0,0,0,4.0899997,2.8999999,-2.8799999,0.03,nan,0,nan,nan,0.0,0.0,0,3,0,0,1,9,0,0,0
1743177562693379,0,52.5146671,13.3227914,24.902,24.902,1743177562693379,0,0.25,0.5,0.29999998,0.39999998,0.0,0.0,0,0,4.17,2.9299998,-2.97,0.0,nan,0,nan,nan,0.0,0.0,0,3,0,0,1,9,0,0,0
1743177563681379,0,52.5146935,13.3227475,24.892,24.892,1743177563681379,0,0.25,0.5,0.29999998,0.39999998,0.0,0.0,0,0,4.2599998,2.98,-3.04,0.01,nan,0,nan,nan,0.0,0.0,0,3,0,0,1,9,0,0,0
1743177564721379,0,52.514721599999994,13.3227,24.891000000000002,24.891000000000002,1743177564721379,0,0.25,0.5,0.29999998,0.39999998,0.0,0.0,0,0,4.3399997,3.03,-3.11,0.0,nan,0,nan,nan,0.0,0.0,0,3,0,0,1,9,0,0,0
1743177565709379,0,52.5147487,13.3226541,24.895,24.895,1743177565709379,0,0.25,0.5,0.29999998,0.39999998,0.0,0.0,0,0,4.4,3.06,-3.1599998,0.0,nan,0,nan,nan,0.0,0.0,0,3,0,0,1,9,0,0,0
1743177566697379,0,52.5147759,13.3226076,24.902,24.902,1743177566697379,0,0.25,0.5,0.29999998,0.39999998,0.0,0.0,0,0,4.43,3.08,-3.1899998,0.0,nan,0,nan,nan,0.0,0.0,0,3,0,0,1,9,0,0,0
1743177567685379,0,52.5148021,13.3225632,24.902,24.902,1743177567685379,0,0.25,0.5,0.29999998,0.39999998,0.0,0.0,0,0,3.77,2.6299999,-2.7,-0.02,nan,0,nan,nan,0.0,0.0,0,3,0,0,1,9,0,0,0
1743177568725379,0,52.514823,13.322527599999999,24.911,24.911,1743177568725379,0,0.25,0.5,0.29999998,0.39999998,0.0,0.0,0,0,2.82,1.9499999,-2.03,0.0,nan,0,nan,nan,0.0,0.0,0,3,0,0,1,9,0,0,0
1743177569713379,0,52.514837799999995,13.322502499999999,24.91,24.91,1743177569713379,0,0.25,0.5,0.29999998,0.39999998,0.0,0.0,0,0,2.04,1.42,-1.4599999,0.0,nan,0,nan,nan,0.0,0.0,0,3,0,0,1,9,0,0,0
1743177570701379,0,52.514848099999995,13.3224849,24.903000000000002,24.903000000000002,1743177570701379,0,0.25,0.5,0.29999998,0.39999998,0.0,0.0,0,0,1.37,0.93,-1.0,0.0,nan,0,nan,nan,0.0,0.0,0,3,0,0,1,9,0,0,0
1743177571689379,0,52.5148544,13.3224734,24.897000000000002,24.897000000000002,1743177571689379,0,0.25,0.5,0.29999998,0.39999998,0.0,0.0,0,0,0.83,0.52,-0.64,0.0,nan,0,nan,nan,0.0,0.0,0,3,0,0,1,9,0,0,0
1743177572729379,0,52.5148559,13.3224676,24.194,24.194,1743177572729379,0,0.25,0.5,0.29999998,0.39999998,0.0,0.0,0,0,0.17999999,-0.02,-0.17999999,1.37,nan,0,nan,nan,0.0,0.0,0,3,0,0,1,9,0,0,0
1743177573717379,0,52.5148568,13.3224656,22.867,22.867,1743177573717379,0,0.25,0.5,0.29999998,0.39999998,0.0,0.0,0,0,0.13,0.099999994,-0.08,1.38,nan,0,nan,nan,0.0,0.0,0,3,0,0,1,9,0,0,0
1743177574705379,0,52.5148574,13.3224649,21.457,21.457,1743177574705379,0,0.25,0.5,0.29999998,0.39999998,0.0,0.0,0,0,0.04,0.04,-0.02,1.4599999,nan,0,nan,nan,0.0,0.0,0,3,0,0,1,9,0,0,0
1743177575693379,0,52.5148576,13.3224649,20.004,20.004,1743177575693379,0,0.25,0.5,0.29999998,0.39999998,0.0,0.0,0,0,0.0,0.0,0.0,1.48,nan,0,nan,nan,0.0,0.0,0,3,0,0,1,9,0,0,0
1743177576681379,0,52.5148574,13.3224649,18.538,18.538,1743177576681379,0,0.25,0.5,0.29999998,0.39999998,0.0,0.0,0,0,0.02,-0.02,0.0,1.49,nan,0,nan,nan,0.0,0.0,0,3,0,0,1,9,0,0,0
1743177577721379,0,52.514857199999994,13.3224652,16.977,16.977,1743177577721379,0,0.25,0.5,0.29999998,0.39999998,0.0,0.0,0,0,0.03,-0.02,0.02,1.49,nan,0,nan,nan,0.0,0.0,0,3,0,0,1,9,0,0,0
1743177578709379,0,52.5148571,13.3224656,15.517,15.517,1743177578709379,0,0.25,0.5,0.29999998,0.39999998,0.0,0.0,0,0,0.02,0.0,0.02,1.4499999,nan,0,nan,nan,0.0,0.0,0,3,0,0,1,9,0,0,0
1743177579697379,0,52.514857199999994,13.322465999999999,14.084,14.084,1743177579697379,0,0.25,0.5,0.29999998,0.39999998,0.0,0.0,0,0,0.03,0.0,0.03,1.4499999,nan,0,nan,nan,0.0,0.0,0,3,0,0,1,9,0,0,0
1743177580685379,0,52.514857299999996,13.322466299999999,12.667,12.667,1743177580685379,0,0.25,0.5,0.29999998,0.39999998,0.0,0.0,0,0,0.02,0.01,0.01,1.42,nan,0,nan,nan,0.0,0.0,0,3,0,0,1,9,0,0,0
1743177581725379,0,52.514857299999996,13.322466499999999,11.185,11.185,1743177581725379,0,0.25,0.5,0.29999998,0.39999998,0.0,0.0,0,0,0.0,0.0,0.0,1.41,nan,0,nan,nan,0.0,0.0,0,3,0,0,1,9,0,0,0
1743177582713379,0,52.514857299999996,13.3224664,9.782,9.782,1743177582713379,0,0.25,0.5,0.29999998,0.39999998,0.0,0.0,0,0,0.03,0.01,-0.03,1.38,nan,0,nan,nan,0.0,0.0,0,3,0,0,1,9,0,0,0
1743177583701379,0,52.5148576,13.3224655,8.514,8.514,1743177583701379,0,0.25,0.5,0.29999998,0.39999998,0.0,0.0,0,0,0.07,0.03,-0.06,1.2099999,nan,0,nan,nan,0.0,0.0,0,3,0,0,1,9,0,0,0
1743177584689379,0,52.5148582,13.3224644,7.383,7.383,1743177584689379,0,0.25,0.5,0.29999998,0.39999998,0.0,0.0,0,0,0.11,0.08,-0.08,1.1,nan,0,nan,nan,0.0,0.0,0,3,0,0,1,9,0,0,0
1743177585729379,0,52.514859599999994,13.3224623,6.323,6.323,1743177585729379,0,0.25,0.5,0.29999998,0.39999998,0.0,0.0,0,0,0.28,0.21,-0.19,0.95,nan,0,nan,nan,0.0,0.0,0,3,0,0,1,9,0,0,0
1743177586717379,0,52.5148625,13.322458399999999,5.437,5.437,1743177586717379,0,0.25,0.5,0.29999998,0.39999998,0.0,0.0,0,0,0.52,0.39999998,-0.32999998,0.84,nan,0,nan,nan,0.0,0.0,0,3,0,0,1,9,0,0,0
1743177587705379,0,52.5148666,13.322453099999999,4.6690000000000005,4.6690000000000005,1743177587705379,0,0.25,0.5,0.29999998,0.39999998,0.0,0.0,0,0,0.57,0.45,-0.34,0.74,nan,0,nan,nan,0.0,0.0,0,3,0,0,1,9,0,0,0
1743177588693379,0,52.5148698,13.3224492,3.972,3.972,1743177588693379,0,0.25,0.5,0.29999998,0.39999998,0.0,0.0,0,0,0.28,0.22999999,-0.17,0.66999996,nan,0,nan,nan,0.0,0.0,0,3,0,0,1,9,0,0,0
1743177589681379,0,52.5148703,13.322448699999999,3.3200000000000003,3.3200000000000003,1743177589681379,0,0.25,0.5,0.29999998,0.39999998,0.0,0.0,0,0,0.099999994,-0.06,0.07,0.65,nan,0,nan,nan,0.0,0.0,0,3,0,0,1,9,0,0,0
1743177590721379,0,52.5148687,13.322451099999999,2.637,2.637,1743177590721379,0,0.25,0.5,0.29999998,0.39999998,0.0,0.0,0,0,0.29999998,-0.22999999,0.19,0.65999997,nan,0,nan,nan,0.0,0.0,0,3,0,0,1,9,0,0,0
1743177591709379,0,52.5148666,13.322453999999999,1.981,1.981,1743177591709379,0,0.25,0.5,0.29999998,0.39999998,0.0,0.0,0,0,0.28,-0.21,0.17999999,0.65999997,nan,0,nan,nan,0.0,0.0,0,3,0,0,1,9,0,0,0
1743177592697379,0,52.5148648,13.322456599999999,1.311,1.311,1743177592697379,0,0.25,0.5,0.29999998,0.39999998,0.0,0.0,0,0,0.22999999,-0.17,0.14999999,0.66999996,nan,0,nan,nan,0.0,0.0,0,3,0,0,1,9,0,0,0
1743177593685379,0,52.5148635,13.322458399999999,0.637,0.637,1743177593685379,0,0.25,0.5,0.29999998,0.39999998,0.0,0.0,0,0,0.17,-0.13,0.11,0.68,nan,0,nan,nan,0.0,0.0,0,3,0,0,1,9,0,0,0
1743177594725379,0,52.5148624,13.3224597,-0.002,-0.002,1743177594725379,0,0.25,0.5,0.29999998,0.39999998,0.0,0.0,0,0,0.0,0.0,0.0,0.04,nan,0,nan,nan,0.0,0.0,0,3,0,0,1,9,0,0,0
1743177595713379,0,52.5148624,13.3224597,-0.006,-0.006,1743177595713379,0,0.25,0.5,0.29999998,0.39999998,0.0,0.0,0,0,0.01,0.01,0.0,0.0,nan,0,nan,nan,0.0,0.0,0,3,0,0,1,9,0,0,0
