timestamp,timestamp_sample,states[0],states[1],states[2],states[3],states[4],states[5],states[6],states[7],states[8],states[9],states[10],states[11],states[12],states[13],states[14],states[15],states[16],states[17],states[18],states[19],states[20],states[21],states[22],states[23],covariances[0],covariances[1],covariances[2],covariances[3],covariances[4],covariances[5],covariances[6],covariances[7],covariances[8],covariances[9],covariances[10],covariances[11],covariances[12],covariances[13],covariances[14],covariances[15],covariances[16],covariances[17],covariances[18],covariances[19],covariances[20],covariances[21],covariances[22],covariances[23],n_states
21727136000,21727056000,0.86129713,0.0005072066,-0.003104234,-0.5080919,-0.00017486504,-4.2464235e-05,0.00038021008,-0.66583985,-1.1535271,0.13206117,8.472345e-06,7.77511e-07,-2.0022198e-06,-0.0001250074,-1.2047133e-05,-0.00024351514,0.19245486,-0.016763603,0.48977083,0.0121409055,-0.0051030065,-0.0013440406,0.0,0.0,2.1674572e-05,4.7696185e-06,4.803055e-06,5.9887858e-05,3.2876e-05,3.287599e-05,3.3203847e-05,0.0012035195,0.0012034861,0.0030631612,8.837895e-12,8.8380475e-12,2.2992969e-11,8.681913e-08,8.726322e-08,5.0000146e-08,0.0,0.0,0.0,0.0,0.0,0.0,0.0,0.0,24
21728136000,21728056000,0.8612406,0.0005228925,-0.0033020973,-0.50818664,-9.584433e-05,0.00032096432,0.0020261998,-0.6655359,-1.1535617,0.13260315,8.252323e-06,8.486509e-07,-2.003835e-06,-0.0001250488,-1.2033034e-05,-0.00025829877,0.19245486,-0.016763603,0.48977083,0.0121409055,-0.0051030065,-0.0013440406,0.0,0.0,2.168875e-05,4.8703705e-06,4.903665e-06,5.988987e-05,0.0002166725,0.00021667249,0.00022847898,0.001203481,0.0012034483,0.0030561,8.923766e-12,8.923996e-12,2.2996858e-11,8.682356e-08,8.72677e-08,5.000055e-08,0.0,0.0,0.0,0.0,0.0,0.0,0.0,0.0,24
21729136000,21729056000,0.8613471,0.00064815686,-0.0034717298,-0.5080048,-0.0012338066,-0.001017606,0.0017345359,-0.6657949,-1.1537008,0.13310653,7.952709e-06,8.570123e-07,-2.0174455e-06,-0.0001250789,-1.2052325e-05,-0.00026147388,0.19245486,-0.016763603,0.48977083,0.0121409055,-0.0051030065,-0.0013440406,0.0,0.0,2.160987e-05,4.846975e-06,4.8802744e-06,5.970105e-05,0.00017038712,0.00017038643,0.00017801684,0.0012002827,0.0012002507,0.00304491,8.903413e-12,8.903792e-12,2.2964679e-11,8.682807e-08,8.727215e-08,5.0000736e-08,0.0,0.0,0.0,0.0,0.0,0.0,0.0,0.0,24
21730136000,21730056000,0.86125606,0.0011120396,-0.0033400962,-0.50815916,-2.0191044e-05,-0.0025259126,0.00010139445,-0.66546,-1.1538135,0.13267508,7.704251e-06,7.267611e-07,-2.0375276e-06,-0.00012504637,-1.2035885e-05,-0.00027485396,0.19245486,-0.016763603,0.48977083,0.0121409055,-0.0051030065,-0.0013440406,0.0,0.0,2.1633108e-05,4.821681e-06,4.855306e-06,5.969739e-05,0.00012566452,0.00012566308,0.00013000975,0.0011962141,0.0011961823,0.0030358953,8.882501e-12,8.883019e-12,2.2968913e-11,8.6832145e-08,8.727621e-08,5.0000445e-08,0.0,0.0,0.0,0.0,0.0,0.0,0.0,0.0,24
21731136000,21731056000,0.86125296,0.0013327614,-0.003237011,-0.5081646,0.00037323352,-0.001097995,-0.0011248525,-0.6654925,-1.1539978,0.13268976,7.76438e-06,6.986541e-07,-2.0324658e-06,-0.00012505199,-1.2042272e-05,-0.00026447402,0.19245486,-0.016763603,0.48977083,0.0121409055,-0.0051030065,-0.0013440406,0.0,0.0,2.1638865e-05,4.799355e-06,4.833163e-06,5.9710044e-05,8.255633e-05,8.255612e-05,8.450925e-05,0.0011939969,0.0011939651,0.0030258726,8.862442e-12,8.862742e-12,2.2973054e-11,8.68365e-08,8.7280604e-08,5.000037e-08,0.0,0.0,0.0,0.0,0.0,0.0,0.0,0.0,24
21732136000,21732056000,0.86115575,0.0013002991,-0.003214438,-0.50832945,0.00078436465,0.0003981178,0.0033109332,-0.6656072,-1.1536229,0.13276872,7.793019e-06,6.5730177e-07,-1.9817621e-06,-0.00012505964,-1.2044461e-05,-0.0002549471,0.19245486,-0.016763603,0.48977083,0.0121409055,-0.0051030065,-0.0013440406,0.0,0.0,2.1648966e-05,4.7765116e-06,4.8103157e-06,5.971983e-05,4.0987175e-05,4.0987314e-05,4.150481e-05,0.0011920511,0.0011920197,0.0030169415,8.842118e-12,8.842309e-12,2.2977318e-11,8.684082e-08,8.728502e-08,5.0000185e-08,0.0,0.0,0.0,0.0,0.0,0.0,0.0,0.0,24
21733128000,21733048000,0.861331,0.0011746036,-0.0032936984,-0.5080323,0.0005298429,0.0034567125,0.00623469,-0.66571796,-1.1534727,0.13321486,7.8125095e-06,9.020548e-07,-2.0001753e-06,-0.00012510498,-1.2089319e-05,-0.00015818422,0.19245486,-0.016763603,0.48977083,0.0121409055,-0.0051030065,-0.0013440406,0.0,0.0,2.1628026e-05,4.879704e-06,4.913351e-06,5.9732785e-05,0.00021662156,0.00021661779,0.00022847885,0.0011921139,0.0011920825,0.0030102553,8.925335e-12,8.925315e-12,2.2978047e-11,8.684483e-08,8.728905e-08,5.000055e-08,0.0,0.0,0.0,0.0,0.0,0.0,0.0,0.0,24
21734136000,21734056000,0.8612091,0.0014592828,0.0023857143,-0.5082432,-0.018986559,0.014172991,-0.0208043,-0.6681232,-1.1454506,0.14313272,7.816617e-06,9.080556e-07,-2.0327218e-06,-0.00012510944,-1.2087586e-05,-0.00015621085,0.19245486,-0.016763603,0.48977083,0.0121409055,-0.0051030065,-0.0013440406,0.0,0.0,2.166901e-05,5.4979923e-06,5.532484e-06,5.9755886e-05,0.0019514585,0.0019514646,0.0022749035,0.0019907614,0.0019907095,0.003950421,9.4177955e-12,9.417767e-12,2.298762e-11,8.6849404e-08,8.729363e-08,5.000004e-08,0.0,0.0,0.0,0.0,0.0,0.0,0.0,0.0,24
21735136000,21735056000,0.861534,0.0015380823,-0.0044976426,-0.5076778,-0.008083337,-0.006289805,-1.4552906,-0.691447,-1.1366949,-0.78734064,7.801387e-06,9.417536e-07,-2.0363268e-06,-0.00012447713,-1.172281e-05,-0.00016430659,0.19245486,-0.016763603,0.48977083,0.0121409055,-0.0051030065,-0.0013440406,0.0,0.0,2.1632693e-05,5.9593494e-06,5.9915933e-06,5.9817674e-05,0.004967823,0.0049674273,0.00544977,0.0071094832,0.0071094465,0.010269331,9.776353e-12,9.776324e-12,2.29921e-11,8.678814e-08,8.723175e-08,5.0000075e-08,0.0,0.0,0.0,0.0,0.0,0.0,0.0,0.0,24
21736136000,21736056000,0.87089616,0.0037484623,-0.0016636518,-0.49145004,0.0024332711,-0.009057951,-0.53587925,-0.68197256,-1.1550934,-1.7282505,7.764232e-06,1.0320047e-06,-2.040338e-06,-0.00012641848,-1.2782776e-05,-0.00013824052,0.19265962,-0.016604997,0.48922727,0.0121409055,-0.0051030065,-0.0013440406,0.0,0.0,0.0002889953,6.389984e-06,6.4386245e-06,0.000982353,0.006446557,0.006436066,0.008909667,0.018478183,0.018477991,0.027091358,1.0024742e-11,1.0024739e-11,2.3322589e-11,8.6500094e-08,8.694084e-08,5.0000036e-08,0.0,0.0,0.0,0.0,0.0,0.0,0.0,0.0,24
21737136000,21737056000,0.8669866,0.00390769,0.00032331626,-0.49831623,-0.012303822,0.0013869251,-0.1933906,-0.6732703,-1.1581347,-2.081165,7.714934e-06,1.0570952e-06,-2.0318992e-06,-0.00012767191,-1.817557e-05,-0.00012267093,0.19265962,-0.016604997,0.48922727,0.0121409055,-0.0051030065,-0.0013440406,0.0,0.0,0.00016149502,6.3758916e-06,6.4150804e-06,0.0005498001,0.01057438,0.010525233,0.011723262,0.032626603,0.03261755,0.054919735,1.03412955e-11,1.0341206e-11,2.3833787e-11,8.286613e-08,8.327151e-08,5.0000036e-08,0.0,0.0,0.0,0.0,0.0,0.0,0.0,0.0,24
21738136000,21738056000,0.86533976,0.0113665415,0.004818984,-0.50103366,-0.012978179,0.026259491,-0.006579757,-0.6710312,-1.1524689,-2.112957,7.676214e-06,1.0735189e-06,-2.0214854e-06,-0.00012782945,-2.7728445e-05,-0.000115625655,0.19265962,-0.016604997,0.48922727,0.0121409055,-0.0051030065,-0.0013440406,0.0,0.0,0.00011235029,5.889282e-06,5.9609424e-06,0.00038198323,0.014161233,0.01409961,0.013366998,0.047591478,0.047564752,0.088019475,1.0729891e-11,1.0729571e-11,2.4343479e-11,7.581639e-08,7.6161136e-08,5.0000075e-08,0.0,0.0,0.0,0.0,0.0,0.0,0.0,0.0,24
21739136000,21739056000,0.853856,0.11453333,0.067439176,-0.50325334,-0.0078048026,0.9526114,-0.5615766,-0.6594449,-0.80017656,-2.435813,7.646445e-06,1.0967079e-06,-2.0099585e-06,-0.00013278495,-3.5664027e-05,-0.00010859189,0.19265962,-0.016604997,0.48922727,0.0121409055,-0.0051030065,-0.0013440406,0.0,0.0,8.461641e-05,6.7333162e-06,9.396663e-06,0.0002791271,0.013550389,0.012771587,0.013039812,0.05301418,0.05299591,0.11271965,1.1149041e-11,1.1148169e-11,2.48504e-11,6.831087e-08,6.86242e-08,5.0000036e-08,0.0,0.0,0.0,0.0,0.0,0.0,0.0,0.0,24
21740136000,21740056000,0.84839803,0.09643397,0.16473463,-0.49374482,-1.3218739,2.6622114,-2.0393226,-1.1972739,1.0953571,-3.6644664,7.543397e-06,1.1395872e-06,-1.9918916e-06,-0.00014262035,-6.306865e-05,-0.000119776596,0.1919133,-0.016545534,0.49151152,0.011426877,-0.0062348777,0.0018027286,0.0,0.0,6.938919e-05,1.1909661e-05,6.6225034e-06,0.00023803928,0.015241025,0.014230501,0.013032301,0.061043836,0.06099343,0.13626881,1.1606503e-11,1.1599825e-11,2.5360426e-11,6.53837e-08,6.602348e-08,5e-08,0.0012865867,2.4009145e-05,0.0012958699,0.0006954273,0.00095505326,0.0011901426,0.0,0.0,24
21741136000,21741056000,0.84801173,0.10091497,0.16603187,-0.49307784,-1.8382008,3.4301214,-3.326373,-2.7806714,4.230756,-6.374259,7.464711e-06,1.0828059e-06,-1.9897495e-06,-0.00013217544,-7.40334e-05,-0.00012821151,0.1915273,-0.016520802,0.49152926,0.012364456,-0.0073506553,0.0022280337,0.0,0.0,6.0799583e-05,9.826507e-06,6.246754e-06,0.00021196285,0.01325317,0.0131331105,0.012997728,0.066751614,0.06666813,0.15315443,1.20578755e-11,1.2031496e-11,2.5868535e-11,6.408817e-08,6.5216604e-08,5e-08,0.0012565183,2.347825e-05,0.0012655564,0.0006144541,0.00090167066,0.0011535102,0.0,0.0,24
21742136000,21742056000,0.8477352,0.10436462,0.17235182,-0.49066073,-2.1457977,3.9299617,-4.1536546,-4.7739477,7.959704,-10.143549,7.4221166e-06,1.0205375e-06,-1.9960755e-06,-0.00012499577,-7.680244e-05,-0.0001351196,0.19146162,-0.016516943,0.49171287,0.012395077,-0.0075574964,0.0023852484,0.0,0.0,5.761497e-05,9.481902e-06,6.318252e-06,0.00020405909,0.012164496,0.012238887,0.013165902,0.07131024,0.071245745,0.1645396,1.2482166e-11,1.2429189e-11,2.63623e-11,6.333079e-08,6.4873305e-08,5.0000036e-08,0.0012474013,2.3096842e-05,0.0012557398,0.00059313915,0.00088398875,0.001138813,0.0,0.0,24
21743136000,21743056000,0.84693325,0.10621398,0.17849983,-0.48944917,-2.378303,4.2926044,-4.6896486,-7.042542,12.12553,-14.598755,7.3711612e-06,9.286385e-07,-2.0221084e-06,-0.00011992053,-7.862892e-05,-0.00013417464,0.19150853,-0.016524369,0.49186137,0.012486833,-0.0078495825,0.0026769347,0.0,0.0,5.7054156e-05,9.597711e-06,6.4451065e-06,0.00020324676,0.010182812,0.010134459,0.012626518,0.06603175,0.06599961,0.1659151,1.2780093e-11,1.2695674e-11,2.679177e-11,6.240746e-08,6.463755e-08,5.0000036e-08,0.0012426386,2.2780403e-05,0.0012490945,0.00058547675,0.00087512186,0.0011285462,0.0,0.0,24
21744136000,21744056000,0.8460026,0.10891483,0.18214358,-0.48912275,-2.5279975,4.5448756,-5.028012,-9.504538,16.580944,-19.491276,7.338165e-06,8.461787e-07,-2.0470031e-06,-0.00011798472,-7.9358906e-05,-0.00012997685,0.19166566,-0.016540289,0.49181035,0.012558085,-0.007985426,0.0029705677,0.0,0.0,5.6923116e-05,1.0132429e-05,6.8920563e-06,0.00020237917,0.010327876,0.01007061,0.012941544,0.06789311,0.06788422,0.1707601,1.299271e-11,1.2891317e-11,2.7146821e-11,6.153431e-08,6.450413e-08,5.0000157e-08,0.0012387712,2.24806e-05,0.0012422976,0.0005813608,0.00086923514,0.0011189844,0.0,0.0,24
21745128000,21745048000,0.8452506,0.11015655,0.18595856,-0.48870888,-2.637409,4.7432957,-5.2422113,-12.078925,21.22152,-24.614159,7.32852e-06,7.6491074e-07,-2.052567e-06,-0.00011628649,-7.952422e-05,-0.0001274967,0.19199903,-0.016572967,0.4919151,0.01238406,-0.008144385,0.0032555975,0.0,0.0,5.6101457e-05,1.0879584e-05,7.3303113e-06,0.00019876866,0.010790362,0.010379918,0.013272499,0.069623195,0.06960709,0.17366497,1.3106114e-11,1.2981196e-11,2.7411748e-11,6.059582e-08,6.440428e-08,5.000011e-08,0.0012351996,2.2193128e-05,0.0012350028,0.0005783415,0.0008647529,0.0011095353,0.0,0.0,24
21746136000,21746056000,0.8448855,0.111044034,0.18857634,-0.48813578,-2.726192,4.880154,-5.3860664,-14.80312,26.094236,-29.985336,7.359149e-06,6.960558e-07,-2.0370062e-06,-0.000112553505,-7.954552e-05,-0.00013138473,0.19199991,-0.01657315,0.49185959,0.012413985,-0.008156247,0.0033077192,0.0,0.0,4.831273e-05,1.1005247e-05,7.534797e-06,0.00017006487,0.011331409,0.010894393,0.013534842,0.07180794,0.07174514,0.17407435,1.3172902e-11,1.2988138e-11,2.7569808e-11,5.9633926e-08,6.418996e-08,5e-08,0.0,0.0,0.0,0.0,0.0,0.0,0.0,0.0,24
21747136000,21747056000,0.8445508,0.112601146,0.19039886,-0.48765072,-2.792368,4.9862556,-5.492246,-17.587591,31.050428,-35.446514,7.379172e-06,6.147166e-07,-2.0371801e-06,-0.00011301205,-8.003627e-05,-0.00012685086,0.19199991,-0.01657315,0.49185959,0.012413985,-0.008156247,0.0033077192,0.0,0.0,4.1298543e-05,1.1045637e-05,7.6007723e-06,0.00014403275,0.010243331,0.009954759,0.01290237,0.066060945,0.066011205,0.17084199,1.3075969e-11,1.27555935e-11,2.7609573e-11,5.85136e-08,6.402597e-08,5e-08,0.0,0.0,0.0,0.0,0.0,0.0,0.0,0.0,24
21748136000,21748056000,0.8443796,0.11262372,0.19196203,-0.48732895,-2.8403122,5.061495,-5.5692425,-20.434395,36.098392,-40.98521,7.461984e-06,5.0671264e-07,-1.9915801e-06,-0.00011174785,-8.067586e-05,-0.00012721466,0.19199991,-0.01657315,0.49185959,0.012413985,-0.008156247,0.0033077192,0.0,0.0,3.6402398e-05,1.1206447e-05,7.715125e-06,0.00012587024,0.010501889,0.010296824,0.013033383,0.067604594,0.06752983,0.17228107,1.3053397e-11,1.2578002e-11,2.7704812e-11,5.769463e-08,6.3917724e-08,5.0000075e-08,0.0,0.0,0.0,0.0,0.0,0.0,0.0,0.0,24
21749136000,21749056000,0.84412307,0.11326231,0.19300453,-0.48721358,-2.877961,5.1124406,-5.6132107,-23.325512,41.20422,-46.55807,7.571832e-06,4.0085808e-07,-1.9103024e-06,-0.00010648642,-8.0992744e-05,-0.00013921707,0.19199991,-0.01657315,0.49185959,0.012413985,-0.008156247,0.0033077192,0.0,0.0,3.2746542e-05,1.1358109e-05,7.827523e-06,0.00011230134,0.010705222,0.01057449,0.013095927,0.06914055,0.069055244,0.17355336,1.3017043e-11,1.2363624e-11,2.7789543e-11,5.698485e-08,6.3832786e-08,5.000004e-08,0.0,0.0,0.0,0.0,0.0,0.0,0.0,0.0,24
21750136000,21750056000,0.8441366,0.1132395,0.19392458,-0.48683015,-2.9066947,5.1533227,-5.650494,-26.242918,46.37356,-52.176064,7.598809e-06,2.425446e-07,-1.9021179e-06,-0.00010261884,-8.127832e-05,-0.00014893961,0.19199991,-0.01657315,0.49185959,0.012413985,-0.008156247,0.0033077192,0.0,0.0,2.9986431e-05,1.1501056e-05,7.917241e-06,0.000102100756,0.011079966,0.010996839,0.013167728,0.07121829,0.07113047,0.17481758,1.2997933e-11,1.2168383e-11,2.7883824e-11,5.6400086e-08,6.375797e-08,5.000011e-08,0.0,0.0,0.0,0.0,0.0,0.0,0.0,0.0,24
21751136000,21751056000,0.84384817,0.11376802,0.19476065,-0.4868732,-2.921884,5.2012806,-5.6601667,-29.185076,51.58007,-57.812515,7.637662e-06,1.3143638e-07,-1.8769133e-06,-9.958721e-05,-8.146728e-05,-0.00015774477,0.19199991,-0.01657315,0.49185959,0.012413985,-0.008156247,0.0033077192,0.0,0.0,2.7739257e-05,1.1577343e-05,7.989679e-06,9.358917e-05,0.011437846,0.011396926,0.013206498,0.07339437,0.07331619,0.17598897,1.29795315e-11,1.1981337e-11,2.7970034e-11,5.5923984e-08,6.3682805e-08,5e-08,0.0,0.0,0.0,0.0,0.0,0.0,0.0,0.0,24
21752136000,21752056000,0.84369427,0.113876276,0.19521388,-0.48693296,-2.9455438,5.2206697,-5.6573625,-32.13823,56.80569,-63.463646,7.668426e-06,1.1388615e-07,-1.875378e-06,-9.758452e-05,-8.187503e-05,-0.00016425234,0.19199991,-0.01657315,0.49185959,0.012413985,-0.008156247,0.0033077192,0.0,0.0,2.6201818e-05,1.1455344e-05,7.824466e-06,8.765237e-05,0.010123828,0.01010228,0.012379091,0.06703826,0.06699504,0.17199038,1.2840902e-11,1.1621925e-11,2.7946593e-11,5.547658e-08,6.361005e-08,5e-08,0.0,0.0,0.0,0.0,0.0,0.0,0.0,0.0,24
21753136000,21753056000,0.84372157,0.11384567,0.19542137,-0.48680958,-2.9684925,5.23875,-5.659105,-35.09567,62.05551,-69.12673,7.6144124e-06,1.3260029e-07,-1.9637648e-06,-9.742099e-05,-8.1922706e-05,-0.00016352112,0.19199991,-0.01657315,0.49185959,0.012413985,-0.008156247,0.0033077192,0.0,0.0,2.488779e-05,1.14015465e-05,7.829768e-06,8.257276e-05,0.010385517,0.010367908,0.012444899,0.06874107,0.06870441,0.17500776,1.2836715e-11,1.146524e-11,2.8018352e-11,5.520205e-08,6.353873e-08,5.000022e-08,0.0,0.0,0.0,0.0,0.0,0.0,0.0,0.0,24
21754136000,21754056000,0.84357136,0.11442052,0.19541682,-0.48693702,-2.978942,5.249622,-5.6523395,-38.058796,67.30659,-74.80183,7.5346493e-06,2.6038356e-07,-2.0825405e-06,-9.7725664e-05,-8.18032e-05,-0.00015869038,0.19199991,-0.01657315,0.49185959,0.012413985,-0.008156247,0.0033077192,0.0,0.0,2.3834495e-05,1.12969865e-05,7.837933e-06,7.831686e-05,0.010634416,0.010619868,0.012438066,0.07044344,0.070411734,0.17553762,1.2844137e-11,1.1329536e-11,2.808684e-11,5.499039e-08,6.3469116e-08,5.0000185e-08,0.0,0.0,0.0,0.0,0.0,0.0,0.0,0.0,24
21755136000,21755056000,0.84343237,0.1142122,0.19606495,-0.48696613,-2.9895735,5.2623353,-5.6251235,-41.025497,72.56156,-80.46006,7.4726813e-06,4.263272e-07,-2.167375e-06,-9.7614604e-05,-8.160931e-05,-0.00015399411,0.19199991,-0.01657315,0.49185959,0.012413985,-0.008156247,0.0033077192,0.0,0.0,2.2946573e-05,1.1228469e-05,7.848319e-06,7.47467e-05,0.011078315,0.0110653145,0.012481493,0.07272071,0.07269128,0.1760419,1.2885189e-11,1.12433006e-11,2.817161e-11,5.483349e-08,6.3404045e-08,5.000011e-08,0.0,0.0,0.0,0.0,0.0,0.0,0.0,0.0,24
21756136000,21756056000,0.8433141,0.11416924,0.19612107,-0.48715836,-3.010845,5.2684374,-5.6298585,-44.001213,77.82446,-86.13676,7.367404e-06,6.9577624e-07,-2.3080638e-06,-9.798489e-05,-8.125193e-05,-0.00014001725,0.19199991,-0.01657315,0.49185959,0.012413985,-0.008156247,0.0033077192,0.0,0.0,2.2122584e-05,1.0842566e-05,7.615524e-06,7.139391e-05,0.009917804,0.0099097155,0.011787707,0.066661745,0.066643566,0.17189777,1.2816193e-11,1.1006566e-11,2.8149897e-11,5.469689e-08,6.333078e-08,5.000007e-08,0.0,0.0,0.0,0.0,0.0,0.0,0.0,0.0,24
21757136000,21757056000,0.84319943,0.115170226,0.195587,-0.48733592,-3.0059786,5.2782803,-5.6166387,-46.986404,83.09786,-91.80301,7.268772e-06,9.0263023e-07,-2.4640383e-06,-9.814473e-05,-8.100465e-05,-0.00012689373,0.19199991,-0.01657315,0.49185959,0.012413985,-0.008156247,0.0033077192,0.0,0.0,2.1537395e-05,1.06374855e-05,7.598338e-06,6.881991e-05,0.010096545,0.010091011,0.011810067,0.06803186,0.06801456,0.17237698,1.2859161e-11,1.092159e-11,2.821593e-11,5.461224e-08,6.327206e-08,5.000007e-08,0.0,0.0,0.0,0.0,0.0,0.0,0.0,0.0,24
21758136000,21758056000,0.8433175,0.1148078,0.19575213,-0.48715088,-3.0024102,5.2711935,-5.609228,-49.970375,88.3765,-97.47949,7.1624913e-06,1.0931536e-06,-2.613958e-06,-9.866443e-05,-8.059465e-05,-0.00010798798,0.19199991,-0.01657315,0.49185959,0.012413985,-0.008156247,0.0033077192,0.0,0.0,2.1018284e-05,1.04945075e-05,7.5714456e-06,6.666263e-05,0.010423214,0.010422893,0.011885742,0.06988276,0.06986522,0.17302628,1.2927838e-11,1.0868095e-11,2.8289742e-11,5.4548533e-08,6.321975e-08,5.0000075e-08,0.0,0.0,0.0,0.0,0.0,0.0,0.0,0.0,24
21759136000,21759056000,0.8431177,0.11479061,0.19592974,-0.48742914,-3.0013149,5.2757893,-5.594445,-52.96553,93.67328,-103.14142,7.0692486e-06,1.1191137e-06,-2.7287722e-06,-9.995342e-05,-8.007007e-05,-8.679883e-05,0.19199991,-0.01657315,0.49185959,0.012413985,-0.008156247,0.0033077192,0.0,0.0,2.0623253e-05,1.0359506e-05,7.551529e-06,6.478774e-05,0.010743155,0.010748544,0.011969577,0.07177496,0.071757466,0.17373946,1.3006508e-11,1.0824484e-11,2.8359388e-11,5.449906e-08,6.3173e-08,5.0000114e-08,0.0,0.0,0.0,0.0,0.0,0.0,0.0,0.0,24
21760136000,21760056000,0.8431604,0.1146765,0.19610396,-0.48731223,-2.9971647,5.2963085,-5.5927067,-55.962082,98.96694,-108.83026,7.0484894e-06,1.2352235e-06,-2.7899716e-06,-0.000101018646,-8.029578e-05,-5.3793687e-05,0.19199991,-0.01657315,0.49185959,0.012413985,-0.008156247,0.0033077192,0.0,0.0,2.0267747e-05,1.00444e-05,7.3449987e-06,6.321205e-05,0.009713136,0.009721135,0.011416322,0.06604909,0.0660377,0.17037185,1.3008398e-11,1.0667748e-11,2.8362658e-11,5.445313e-08,6.3125846e-08,5.000015e-08,0.0,0.0,0.0,0.0,0.0,0.0,0.0,0.0,24
21761136000,21761056000,0.8431076,0.11476305,0.19620584,-0.48734218,-2.988666,5.3045673,-5.6010046,-58.965164,104.26931,-114.51323,7.0990973e-06,1.3658878e-06,-2.7735784e-06,-0.000101428464,-8.100583e-05,-2.2869403e-05,0.19199991,-0.01657315,0.49185959,0.012413985,-0.008156247,0.0033077192,0.0,0.0,1.9999976e-05,9.92639e-06,7.3190386e-06,6.186856e-05,0.009965454,0.009977953,0.011509226,0.06759071,0.06757997,0.17118464,1.3093262e-11,1.0634291e-11,2.8427868e-11,5.4421516e-08,6.3088535e-08,5.000015e-08,0.0,0.0,0.0,0.0,0.0,0.0,0.0,0.0,24
21762136000,21762056000,0.8430405,0.11482467,0.19574231,-0.4876299,-2.9884393,5.3136516,-5.604986,-61.96452,109.57286,-120.19837,7.1653794e-06,1.5135441e-06,-2.7408346e-06,-0.00010130676,-8.177589e-05,2.448359e-06,0.19199991,-0.01657315,0.49185959,0.012413985,-0.008156247,0.0033077192,0.0,0.0,1.9743271e-05,9.787548e-06,7.2880243e-06,6.051167e-05,0.010202865,0.010220375,0.011601055,0.069129996,0.06912054,0.17196016,1.3174957e-11,1.0605222e-11,2.8474374e-11,5.4394445e-08,6.3053754e-08,5.000007e-08,0.0,0.0,0.0,0.0,0.0,0.0,0.0,0.0,24
21763136000,21763056000,0.84303284,0.1148881,0.19613165,-0.48747203,-2.9754872,5.320494,-5.6136994,-64.95603,114.87765,-125.89379,7.2454545e-06,1.6722828e-06,-2.7217113e-06,-0.00010092049,-8.268906e-05,2.6311656e-05,0.19199991,-0.01657315,0.49185959,0.012413985,-0.008156247,0.0033077192,0.0,0.0,1.9583378e-05,9.735396e-06,7.288974e-06,5.9575395e-05,0.010601098,0.010624726,0.011736522,0.07118363,0.07117572,0.17278866,1.32746765e-11,1.0600522e-11,2.8538236e-11,5.4371707e-08,6.302439e-08,5.000015e-08,0.0,0.0,0.0,0.0,0.0,0.0,0.0,0.0,24
21764136000,21764056000,0.8429452,0.114950396,0.19608594,-0.487627,-2.9750934,5.3289824,-5.6308155,-67.94814,120.201645,-131.5966,7.311645e-06,1.7438854e-06,-2.6665684e-06,-0.00010094202,-8.327722e-05,4.9066068e-05,0.19199991,-0.01657315,0.49185959,0.012413985,-0.008156247,0.0033077192,0.0,0.0,1.9483885e-05,9.680213e-06,7.291952e-06,5.8802703e-05,0.011002018,0.011032469,0.011870974,0.07330198,0.07329668,0.17355686,1.3373836e-11,1.0599603e-11,2.859375e-11,5.435172e-08,6.299826e-08,5.0000075e-08,0.0,0.0,0.0,0.0,0.0,0.0,0.0,0.0,24
21765136000,21765056000,0.8429933,0.11446362,0.1965177,-0.4874846,-2.9789696,5.3332,-5.6403,-70.94686,125.53522,-137.30232,7.391116e-06,1.7937238e-06,-2.6262173e-06,-0.00010086622,-8.3965264e-05,7.115988e-05,0.19199991,-0.01657315,0.49185959,0.012413985,-0.008156247,0.0033077192,0.0,0.0,1.9394907e-05,9.424532e-06,7.0635e-06,5.8179205e-05,0.009807057,0.009835981,0.011325217,0.06695816,0.06695505,0.17007421,1.3370689e-11,1.0458479e-11,2.8581746e-11,5.4328112e-08,6.297084e-08,5.000011e-08,0.0,0.0,0.0,0.0,0.0,0.0,0.0,0.0,24
21766136000,21766056000,0.8429288,0.114902124,0.19585507,-0.48775968,-2.9826531,5.3162475,-5.644936,-73.940735,130.86383,-143.00842,7.4272484e-06,1.8581297e-06,-2.6526468e-06,-0.00010065135,-8.4399486e-05,8.772476e-05,0.19199991,-0.01657315,0.49185959,0.012413985,-0.008156247,0.0033077192,0.0,0.0,1.9383058e-05,9.358742e-06,7.0726956e-06,5.76659e-05,0.010094837,0.010129064,0.011448373,0.06863412,0.06863331,0.17077036,1.3459474e-11,1.04553415e-11,2.8615214e-11,5.4312654e-08,6.295069e-08,5.0000036e-08,0.0,0.0,0.0,0.0,0.0,0.0,0.0,0.0,24
21767136000,21767056000,0.8429011,0.11499357,0.19590476,-0.48776594,-2.989692,5.313799,-5.652031,-76.93835,136.18686,-148.71336,7.445947e-06,1.90524e-06,-2.6573855e-06,-0.00010048977,-8.4603045e-05,0.00010238806,0.19199991,-0.01657315,0.49185959,0.012413985,-0.008156247,0.0033077192,0.0,0.0,1.937452e-05,9.322215e-06,7.0762862e-06,5.72764e-05,0.01037258,0.0104113305,0.011573705,0.070314854,0.07031691,0.17147689,1.354399e-11,1.0453529e-11,2.8637022e-11,5.4299367e-08,6.293328e-08,5.0000036e-08,0.0,0.0,0.0,0.0,0.0,0.0,0.0,0.0,24
21768136000,21768056000,0.84296787,0.11501731,0.19603536,-0.48759246,-2.9848235,5.3163614,-5.6543617,-79.93066,141.51709,-154.4223,7.4332934e-06,1.922374e-06,-2.6680896e-06,-0.00010041015,-8.457468e-05,0.000119524244,0.19199991,-0.01657315,0.49185959,0.012413985,-0.008156247,0.0033077192,0.0,0.0,1.9378256e-05,9.301419e-06,7.084935e-06,5.700112e-05,0.010661655,0.010704767,0.011696825,0.07202935,0.07203468,0.1721446,1.3626804e-11,1.0457206e-11,2.8648917e-11,5.4288186e-08,6.291836e-08,5.0000036e-08,0.0,0.0,0.0,0.0,0.0,0.0,0.0,0.0,24
21769128000,21769048000,0.84293306,0.11512593,0.19623184,-0.48754808,-2.9838483,5.3215146,-5.658374,-82.91142,146.82196,-160.09074,7.4385275e-06,1.884579e-06,-2.6607775e-06,-0.00010057485,-8.462172e-05,0.0001401003,0.19199991,-0.01657315,0.49185959,0.012413985,-0.008156247,0.0033077192,0.0,0.0,1.9397035e-05,9.115702e-06,6.9235816e-06,5.6770197e-05,0.0096095055,0.009647535,0.0111751985,0.06598343,0.06598688,0.1683588,1.3624821e-11,1.0350683e-11,2.8606064e-11,5.427619e-08,6.290402e-08,5e-08,0.0,0.0,0.0,0.0,0.0,0.0,0.0,0.0,24
21770128000,21770048000,0.84282905,0.11549776,0.19572806,-0.48784226,-2.9789526,5.313866,-5.6675215,-85.9136,152.16771,-165.7905,7.4324876e-06,1.8117336e-06,-2.6479706e-06,-0.0001009223,-8.456754e-05,0.00015331419,0.19199991,-0.01657315,0.49185959,0.012413985,-0.008156247,0.0033077192,0.0,0.0,1.9475448e-05,9.085952e-06,6.940759e-06,5.663617e-05,0.009854456,0.009895489,0.011305517,0.0674314,0.06743706,0.16922104,1.3696414e-11,1.03540995e-11,2.8591797e-11,5.4268906e-08,6.289347e-08,5.000011e-08,0.0,0.0,0.0,0.0,0.0,0.0,0.0,0.0,24
21771136000,21771056000,0.8428862,0.11556887,0.19587837,-0.48766616,-2.9760811,5.3032513,-5.6814675,-88.93651,157.55614,-171.54707,7.4084064e-06,1.6633853e-06,-2.6495875e-06,-0.000101615005,-8.444093e-05,0.0001630617,0.19199991,-0.01657315,0.49185959,0.012413985,-0.008156247,0.0033077192,0.0,0.0,1.9545281e-05,9.0868125e-06,6.9568755e-06,5.6609922e-05,0.010134374,0.010178035,0.011467826,0.06913865,0.06914688,0.1706837,1.3767506e-11,1.0361016e-11,2.856562e-11,5.4262745e-08,6.288436e-08,5.000011e-08,0.0,0.0,0.0,0.0,0.0,0.0,0.0,0.0,24
21772128000,21772048000,0.8428465,0.11512287,0.19607176,-0.48776263,-2.9688518,5.3068557,-5.700112,-91.909256,162.85942,-177.21696,7.3951574e-06,1.4921237e-06,-2.607619e-06,-0.000102381295,-8.430443e-05,0.00016914951,0.19199991,-0.01657315,0.49185959,0.012413985,-0.008156247,0.0033077192,0.0,0.0,1.9631014e-05,9.108652e-06,6.978942e-06,5.659221e-05,0.010486652,0.010534276,0.011612504,0.07086048,0.07087175,0.171398,1.38399864e-11,1.0380276e-11,2.8524363e-11,5.425795e-08,6.287667e-08,5.0000146e-08,0.0,0.0,0.0,0.0,0.0,0.0,0.0,0.0,24
21773136000,21773056000,0.84280866,0.11489401,0.19647396,-0.4877202,-2.9685035,5.296537,-5.7114344,-94.92019,168.24747,-182.9907,7.3366305e-06,1.3406977e-06,-2.5864845e-06,-0.000103021244,-8.3995146e-05,0.00017602419,0.19199991,-0.01657315,0.49185959,0.012413985,-0.008156247,0.0033077192,0.0,0.0,1.9672967e-05,9.147595e-06,7.0157957e-06,5.6474386e-05,0.010940929,0.010992818,0.011751997,0.07323578,0.07325114,0.17078258,1.3909723e-11,1.0409137e-11,2.8449102e-11,5.4254315e-08,6.286996e-08,5e-08,0.0,0.0,0.0,0.0,0.0,0.0,0.0,0.0,24
21774136000,21774056000,0.84283537,0.11503655,0.19622956,-0.48773888,-2.9626472,5.2918735,-5.720332,-97.8934,173.5974,-188.71133,7.231971e-06,1.1995975e-06,-2.6401228e-06,-0.00010358305,-8.361586e-05,0.00017589066,0.19199991,-0.01657315,0.49185959,0.012413985,-0.008156247,0.0033077192,0.0,0.0,1.9777795e-05,8.971599e-06,6.8528193e-06,5.6558463e-05,0.009781128,0.009824124,0.011309467,0.0669558,0.06696484,0.17007743,1.3877542e-11,1.0298106e-11,2.8343619e-11,5.4249856e-08,6.286367e-08,5.000018e-08,0.0,0.0,0.0,0.0,0.0,0.0,0.0,0.0,24
21775136000,21775056000,0.84268737,0.11537301,0.19633771,-0.48787147,-2.9749012,5.2826123,-5.737676,-100.88365,178.93365,-194.43512,7.193692e-06,9.921821e-07,-2.6801133e-06,-0.00010433843,-8.353366e-05,0.00017107827,0.19199991,-0.01657315,0.49185959,0.012413985,-0.008156247,0.0033077192,0.0,0.0,1.9915693e-05,8.990723e-06,6.8866257e-06,5.667332e-05,0.01007444,0.010120177,0.0114419935,0.068622366,0.068633564,0.17092088,1.3930278e-11,1.0313075e-11,2.826684e-11,5.424804e-08,6.285949e-08,5.0000075e-08,0.0,0.0,0.0,0.0,0.0,0.0,0.0,0.0,24
21776136000,21776056000,0.84263426,0.11533117,0.19640008,-0.48794812,-2.9738426,5.2750115,-5.744457,-103.8638,184.26434,-200.14966,7.069671e-06,8.2248755e-07,-2.6886717e-06,-0.000104907274,-8.309978e-05,0.00016032076,0.19199991,-0.01657315,0.49185959,0.012413985,-0.008156247,0.0033077192,0.0,0.0,2.0045565e-05,9.01156e-06,6.9116168e-06,5.6844026e-05,0.010352729,0.01040133,0.011564241,0.07029762,0.07031117,0.17159247,1.3976452e-11,1.0327611e-11,2.817945e-11,5.4247046e-08,6.285625e-08,5.000004e-08,0.0,0.0,0.0,0.0,0.0,0.0,0.0,0.0,24
21777136000,21777056000,0.8428595,0.11525802,0.19607216,-0.48770815,-2.9731567,5.267969,-5.7563705,-106.846855,189.58643,-205.87122,6.9996263e-06,6.553248e-07,-2.7824292e-06,-0.00010543117,-8.2992665e-05,0.00014984925,0.19199991,-0.01657315,0.49185959,0.012413985,-0.008156247,0.0033077192,0.0,0.0,2.017475e-05,9.052456e-06,6.9714715e-06,5.706269e-05,0.010821133,0.010874818,0.011742444,0.07254519,0.07256256,0.17253315,1.4033559e-11,1.0365649e-11,2.8088361e-11,5.4246907e-08,6.2853964e-08,5.0000075e-08,0.0,0.0,0.0,0.0,0.0,0.0,0.0,0.0,24
21778128000,21778048000,0.8428795,0.11475113,0.19642788,-0.48764998,-2.9754643,5.2652903,-5.752507,-109.81416,194.87848,-211.52296,6.911759e-06,4.2710295e-07,-2.8757572e-06,-0.00010607126,-8.2879844e-05,0.0001277515,0.19199991,-0.01657315,0.49185959,0.012413985,-0.008156247,0.0033077192,0.0,0.0,2.029795e-05,8.901191e-06,6.807514e-06,5.7239748e-05,0.009679832,0.009724589,0.011268416,0.066306405,0.066316664,0.17094475,1.3979072e-11,1.0261322e-11,2.7942848e-11,5.4246257e-08,6.285176e-08,5.0000224e-08,0.0,0.0,0.0,0.0,0.0,0.0,0.0,0.0,24
21779136000,21779056000,0.8428195,0.11564033,0.19600484,-0.4877139,-2.9764748,5.2623687,-5.7546587,-112.82152,200.24738,-217.30069,6.8185045e-06,1.9498827e-07,-3.0227432e-06,-0.00010667239,-8.279527e-05,0.00012093533,0.19199991,-0.01657315,0.49185959,0.012413985,-0.008156247,0.0033077192,0.0,0.0,2.040268e-05,8.898721e-06,6.848485e-06,5.7271754e-05,0.009936538,0.009983617,0.011344355,0.06796005,0.06797225,0.16963826,1.4001152e-11,1.027694e-11,2.7792624e-11,5.4247426e-08,6.285093e-08,5.0000036e-08,0.0,0.0,0.0,0.0,0.0,0.0,0.0,0.0,24
21780136000,21780056000,0.84270835,0.1152141,0.1965035,-0.4878062,-2.979003,5.2607946,-5.755442,-115.79641,205.5566,-223.0126,6.750653e-06,3.856338e-08,-3.1447626e-06,-0.00010702237,-8.278412e-05,0.000105313855,0.19199991,-0.01657315,0.49185959,0.012413985,-0.008156247,0.0033077192,0.0,0.0,2.0569492e-05,8.949992e-06,6.8805507e-06,5.749095e-05,0.010272321,0.010323171,0.011512017,0.06979091,0.06980597,0.17068878,1.4031626e-11,1.030177e-11,2.7669166e-11,5.424919e-08,6.285106e-08,5.0000075e-08,0.0,0.0,0.0,0.0,0.0,0.0,0.0,0.0,24
21781136000,21781056000,0.8428544,0.11428684,0.19700998,-0.48756763,-2.9746082,5.2527747,-5.7497334,-118.7641,210.8633,-228.72249,6.646168e-06,-1.10285285e-07,-3.2951432e-06,-0.00010732007,-8.271207e-05,9.0280795e-05,0.19199991,-0.01657315,0.49185959,0.012413985,-0.008156247,0.0033077192,0.0,0.0,2.0711912e-05,9.00248e-06,6.9025527e-06,5.775104e-05,0.010604137,0.010658209,0.011730739,0.07166712,0.07168539,0.17397293,1.4056611e-11,1.03264584e-11,2.7537642e-11,5.4251373e-08,6.285175e-08,5.0000256e-08,0.0,0.0,0.0,0.0,0.0,0.0,0.0,0.0,24
21782136000,21782056000,0.8426989,0.11529702,0.19646385,-0.48781875,-2.9635334,5.264003,-5.7337446,-121.73125,216.178,-234.43369,6.551891e-06,-2.769633e-07,-3.459895e-06,-0.00010762981,-8.267446e-05,8.0742735e-05,0.19199991,-0.01657315,0.49185959,0.012413985,-0.008156247,0.0033077192,0.0,0.0,2.0882568e-05,8.859239e-06,6.7963038e-06,5.795875e-05,0.009609484,0.009655976,0.011237284,0.06599403,0.06600557,0.1705089,1.3993882e-11,1.0242418e-11,2.737059e-11,5.425363e-08,6.285283e-08,5.000022e-08,0.0,0.0,0.0,0.0,0.0,0.0,0.0,0.0,24
21783128000,21783048000,0.8427689,0.115327,0.19656059,-0.48765194,-2.9571452,5.261265,-5.708668,-124.667336,221.44073,-240.08609,6.5034255e-06,-3.9309919e-07,-3.6479644e-06,-0.000107819564,-8.2762985e-05,7.396305e-05,0.19199991,-0.01657315,0.49185959,0.012413985,-0.008156247,0.0033077192,0.0,0.0,2.1097267e-05,8.896762e-06,6.824811e-06,5.838303e-05,0.009810916,0.009859527,0.011332661,0.067274,0.067287266,0.17073126,1.4008758e-11,1.0256912e-11,2.7257648e-11,5.425673e-08,6.285483e-08,5.000015e-08,0.0,0.0,0.0,0.0,0.0,0.0,0.0,0.0,24
21784136000,21784056000,0.84261274,0.11531817,0.19647893,-0.48795652,-2.9664085,5.2590036,-5.680715,-127.65227,226.77357,-245.82028,6.480467e-06,-4.469422e-07,-3.7995283e-06,-0.00010790379,-8.285854e-05,7.499643e-05,0.19199991,-0.01657315,0.49185959,0.012413985,-0.008156247,0.0033077192,0.0,0.0,2.1288444e-05,8.929497e-06,6.861957e-06,5.862232e-05,0.010091842,0.010143209,0.011478318,0.06905059,0.06906634,0.1717198,1.40159395e-11,1.0278295e-11,2.7109712e-11,5.426025e-08,6.285724e-08,5.000007e-08,0.0,0.0,0.0,0.0,0.0,0.0,0.0,0.0,24
21785128000,21785048000,0.8426672,0.11519522,0.19645847,-0.4878996,-2.9515078,5.2574944,-5.6462703,-130.5808,232.02158,-251.43607,6.4400233e-06,-4.8470383e-07,-4.0117047e-06,-0.00010793922,-8.298932e-05,7.814342e-05,0.19199991,-0.01657315,0.49185959,0.012413985,-0.008156247,0.0033077192,0.0,0.0,2.1437862e-05,8.975851e-06,6.9087832e-06,5.8827543e-05,0.010433069,0.010488249,0.011664538,0.07079449,0.07081358,0.17418954,1.4024609e-11,1.0309453e-11,2.6952659e-11,5.4264024e-08,6.286001e-08,5.000022e-08,0.0,0.0,0.0,0.0,0.0,0.0,0.0,0.0,24
21786136000,21786056000,0.8426377,0.11561348,0.19644715,-0.4878565,-2.9488976,5.254957,-5.625277,-133.5613,237.33894,-257.15903,6.4652513e-06,-4.340998e-07,-4.114193e-06,-0.000107891734,-8.31011e-05,9.570077e-05,0.19199991,-0.01657315,0.49185959,0.012413985,-0.008156247,0.0033077192,0.0,0.0,2.158941e-05,9.038984e-06,6.9800003e-06,5.9075206e-05,0.010885094,0.01094522,0.011846526,0.07317777,0.073201634,0.17515688,1.4037617e-11,1.0348852e-11,2.67985e-11,5.4268032e-08,6.2863165e-08,5.0000224e-08,0.0,0.0,0.0,0.0,0.0,0.0,0.0,0.0,24
21787136000,21787056000,0.84287703,0.114954166,0.19657467,-0.48754728,-2.947363,5.2558513,-5.6195216,-136.51305,242.62231,-262.84753,6.482522e-06,-4.187283e-07,-4.2630913e-06,-0.00010784989,-8.3224775e-05,0.00012215042,0.19199991,-0.01657315,0.49185959,0.012413985,-0.008156247,0.0033077192,0.0,0.0,2.1700844e-05,8.894402e-06,6.816695e-06,5.9308037e-05,0.009728961,0.009778219,0.011311442,0.06688366,0.06689791,0.17133951,1.39354335e-11,1.0247408e-11,2.6606235e-11,5.4271897e-08,6.2866405e-08,5.0000185e-08,0.0,0.0,0.0,0.0,0.0,0.0,0.0,0.0,24
21788128000,21788048000,0.8426266,0.115871795,0.19613098,-0.4879414,-2.9428437,5.2586665,-5.6145325,-139.453,247.85455,-268.48715,6.573273e-06,-3.9383303e-07,-4.329447e-06,-0.000107810636,-8.338074e-05,0.00014740451,0.19199991,-0.01657315,0.49185959,0.012413985,-0.008156247,0.0033077192,0.0,0.0,2.1855425e-05,8.907362e-06,6.864293e-06,5.9455073e-05,0.009980512,0.010032216,0.011412091,0.06830401,0.06832043,0.1713132,1.3923708e-11,1.0266558e-11,2.643509e-11,5.427586e-08,6.28698e-08,5.000007e-08,0.0,0.0,0.0,0.0,0.0,0.0,0.0,0.0,24
21789128000,21789048000,0.84261435,0.11585881,0.19601746,-0.48801124,-2.9264393,5.2664356,-5.617632,-142.39671,253.13565,-274.16708,6.6294333e-06,-3.6499586e-07,-4.460874e-06,-0.00010774418,-8.3541585e-05,0.00017028827,0.19199991,-0.01657315,0.49185959,0.012413985,-0.008156247,0.0033077192,0.0,0.0,2.1996555e-05,8.935762e-06,6.893549e-06,5.9641534e-05,0.010267131,0.010321373,0.011604753,0.069978796,0.06999779,0.1740909,1.3911865e-11,1.0287466e-11,2.626497e-11,5.42798e-08,6.287332e-08,5.0000253e-08,0.0,0.0,0.0,0.0,0.0,0.0,0.0,0.0,24
21790128000,21790048000,0.84269947,0.11482615,0.19680677,-0.4877907,-2.9295273,5.274774,-5.621694,-145.34348,258.42465,-279.85004,6.7125516e-06,-3.692687e-07,-4.5105085e-06,-0.00010772438,-8.370105e-05,0.00019239743,0.19199991,-0.01657315,0.49185959,0.012413985,-0.008156247,0.0033077192,0.0,0.0,2.2100803e-05,9.0207195e-06,6.930706e-06,5.9846887e-05,0.01073722,0.010795938,0.011767283,0.07221753,0.07224098,0.1744827,1.39159e-11,1.0330312e-11,2.6098297e-11,5.4283717e-08,6.287689e-08,5.0000146e-08,0.0,0.0,0.0,0.0,0.0,0.0,0.0,0.0,24
21791136000,21791056000,0.8425844,0.11533613,0.19646421,-0.48800713,-2.9400923,5.2655478,-5.624451,-148.32399,263.75638,-285.5824,6.811735e-06,-3.6361172e-07,-4.591556e-06,-0.00010768614,-8.388789e-05,0.00021629341,0.19199991,-0.01657315,0.49185959,0.012413985,-0.008156247,0.0033077192,0.0,0.0,2.2157807e-05,8.858963e-06,6.796805e-06,5.9800237e-05,0.009702548,0.009751643,0.0112897605,0.066524625,0.066539384,0.17122027,1.3804248e-11,1.0239477e-11,2.5863166e-11,5.4287494e-08,6.288046e-08,5.0000217e-08,0.0,0.0,0.0,0.0,0.0,0.0,0.0,0.0,24
21792136000,21792056000,0.8426642,0.115339,0.1960869,-0.4880205,-2.9512184,5.2710357,-5.627295,-151.26762,269.05618,-291.267,6.7678175e-06,-3.6355095e-07,-4.6827827e-06,-0.00010764133,-8.3881096e-05,0.00023617232,0.19199991,-0.01657315,0.49185959,0.012413985,-0.008156247,0.0033077192,0.0,0.0,2.225802e-05,8.865004e-06,6.816383e-06,5.9985145e-05,0.009922364,0.00997327,0.0113508785,0.067955054,0.067971356,0.16951327,1.3784115e-11,1.0254613e-11,2.568941e-11,5.429136e-08,6.288418e-08,5e-08,0.0,0.0,0.0,0.0,0.0,0.0,0.0,0.0,24
21793136000,21793056000,0.8425285,0.11566806,0.19620126,-0.48813093,-2.9402783,5.2696805,-5.622322,-154.19962,274.35382,-296.95303,6.6751563e-06,-3.574282e-07,-4.824257e-06,-0.0001075883,-8.380898e-05,0.00025360697,0.19199991,-0.01657315,0.49185959,0.012413985,-0.008156247,0.0033077192,0.0,0.0,2.236423e-05,8.904695e-06,6.8603244e-06,6.0123024e-05,0.0102576,0.010312027,0.011573954,0.06980532,0.06982432,0.17264794,1.3774207e-11,1.0282589e-11,2.55167e-11,5.4295267e-08,6.2888034e-08,5.000018e-08,0.0,0.0,0.0,0.0,0.0,0.0,0.0,0.0,24
21794128000,21794048000,0.8425223,0.11602458,0.19604252,-0.48812068,-2.9313045,5.2635455,-5.623981,-157.11302,279.6044,-302.60483,6.633611e-06,-3.754974e-07,-4.9524015e-06,-0.000107568834,-8.379228e-05,0.00027808364,0.19199991,-0.01657315,0.49185959,0.012413985,-0.008156247,0.0033077192,0.0,0.0,2.2441445e-05,8.927834e-06,6.9001258e-06,6.0233822e-05,0.010536445,0.010593852,0.011686568,0.071397446,0.07141913,0.17288788,1.3760842e-11,1.030543e-11,2.5337142e-11,5.429925e-08,6.289198e-08,5.000018e-08,0.0,0.0,0.0,0.0,0.0,0.0,0.0,0.0,24
21795136000,21795056000,0.84264666,0.11524449,0.19632328,-0.48797798,-2.9352603,5.2531233,-5.638208,-160.0656,284.9383,-308.3429,6.5442623e-06,-4.27559e-07,-5.02457e-06,-0.00010760505,-8.370917e-05,0.00030090712,0.19199991,-0.01657315,0.49185959,0.012413985,-0.008156247,0.0033077192,0.0,0.0,2.2497336e-05,8.819882e-06,6.7673323e-06,6.0403807e-05,0.009600075,0.009648901,0.011232885,0.0659802,0.065994196,0.17002669,1.36718145e-11,1.02275185e-11,2.5140853e-11,5.4303264e-08,6.2896014e-08,5.0000178e-08,0.0,0.0,0.0,0.0,0.0,0.0,0.0,0.0,24
21796136000,21796056000,0.8425627,0.115285404,0.19630028,-0.48812273,-2.9427152,5.2483444,-5.657895,-162.99681,290.24713,-314.04047,6.3688904e-06,-5.614359e-07,-5.1394854e-06,-0.000107738386,-8.350749e-05,0.00031589565,0.19199991,-0.01657315,0.49185959,0.012413985,-0.008156247,0.0033077192,0.0,0.0,2.2569026e-05,8.843825e-06,6.7967976e-06,6.0515908e-05,0.009863784,0.0099148145,0.011361609,0.06751359,0.06752943,0.17073601,1.3658578e-11,1.0247001e-11,2.4963786e-11,5.4307296e-08,6.290008e-08,5.0000146e-08,0.0,0.0,0.0,0.0,0.0,0.0,0.0,0.0,24
21797128000,21797048000,0.84270793,0.11454934,0.19654974,-0.48794472,-2.9557245,5.2486205,-5.671977,-165.8978,295.5026,-319.697,6.162192e-06,-6.3468616e-07,-5.338046e-06,-0.000107808,-8.326327e-05,0.0003248336,0.19199991,-0.01657315,0.49185959,0.012413985,-0.008156247,0.0033077192,0.0,0.0,2.2605953e-05,8.86362e-06,6.8023905e-06,6.0608945e-05,0.010055821,0.010108852,0.011465529,0.06876531,0.06878272,0.17118278,1.36377255e-11,1.02595935e-11,2.4784829e-11,5.4311272e-08,6.2904085e-08,5.0000185e-08,0.0,0.0,0.0,0.0,0.0,0.0,0.0,0.0,24
21798128000,21798048000,0.8425471,0.11534187,0.1961927,-0.48817924,-2.9620466,5.243164,-5.6772943,-168.82883,300.79575,-325.4014,5.9274544e-06,-6.8108795e-07,-5.473199e-06,-0.00010785293,-8.301109e-05,0.00033205104,0.19199991,-0.01657315,0.49185959,0.012413985,-0.008156247,0.0033077192,0.0,0.0,2.2667535e-05,8.895623e-06,6.8713134e-06,6.0687544e-05,0.010451178,0.010508719,0.011628211,0.07078082,0.070801705,0.17206046,1.3634539e-11,1.0294999e-11,2.4617414e-11,5.4315375e-08,6.290819e-08,5.0000075e-08,0.0,0.0,0.0,0.0,0.0,0.0,0.0,0.0,24
21799136000,21799056000,0.84261084,0.11538616,0.19614267,-0.48807904,-2.9534264,5.2323303,-5.6842337,-171.78075,306.1361,-331.16818,5.6971908e-06,-7.6540704e-07,-5.622488e-06,-0.00010792907,-8.277891e-05,0.00034240834,0.19199991,-0.01657315,0.49185959,0.012413985,-0.008156247,0.0033077192,0.0,0.0,2.2708551e-05,8.946327e-06,6.9327266e-06,6.080926e-05,0.01090522,0.010967344,0.0118291695,0.07317566,0.073201306,0.17355832,1.36361e-11,1.0334816e-11,2.4456544e-11,5.4319614e-08,6.2912505e-08,5.000018e-08,0.0,0.0,0.0,0.0,0.0,0.0,0.0,0.0,24
21800128000,21800048000,0.84250504,0.115714625,0.19638094,-0.48808804,-2.933703,5.2433558,-5.697158,-174.66643,311.40973,-336.83496,5.3884282e-06,-9.4163613e-07,-5.8162127e-06,-0.00010808164,-8.252883e-05,0.00034570068,0.19199991,-0.01657315,0.49185959,0.012413985,-0.008156247,0.0033077192,0.0,0.0,2.2723707e-05,8.79297e-06,6.7823225e-06,6.082448e-05,0.00970328,0.009753916,0.0112744775,0.06665426,0.066669166,0.16973624,1.3525008e-11,1.0230389e-11,2.425819e-11,5.4323742e-08,6.291675e-08,5.000011e-08,0.0,0.0,0.0,0.0,0.0,0.0,0.0,0.0,24
21801136000,21801056000,0.8426227,0.115487,0.1962637,-0.48798603,-2.9341304,5.22376,-5.70049,-177.61325,316.74066,-342.59525,5.221028e-06,-1.0749598e-06,-5.9335925e-06,-0.000108192944,-8.239954e-05,0.00035170742,0.19199991,-0.01657315,0.49185959,0.012413985,-0.008156247,0.0033077192,0.0,0.0,2.2749242e-05,8.831316e-06,6.8240956e-06,6.0919807e-05,0.010041821,0.010095473,0.011440454,0.06857722,0.068594925,0.17097239,1.3521674e-11,1.0258729e-11,2.4096435e-11,5.432812e-08,6.2921195e-08,5.0000114e-08,0.0,0.0,0.0,0.0,0.0,0.0,0.0,0.0,24
21802128000,21802048000,0.84260696,0.115885556,0.19605675,-0.4880018,-2.9203787,5.216865,-5.707835,-180.51491,321.9909,-348.24973,5.0418043e-06,-1.3032649e-06,-6.0833017e-06,-0.0001083497,-8.229712e-05,0.00035066338,0.19199991,-0.01657315,0.49185959,0.012413985,-0.008156247,0.0033077192,0.0,0.0,2.2765045e-05,8.851525e-06,6.862207e-06,6.092509e-05,0.010285571,0.010341339,0.011549401,0.07001656,0.07003636,0.17140785,1.3511447e-11,1.0277575e-11,2.3927757e-11,5.433244e-08,6.292559e-08,5.000011e-08,0.0,0.0,0.0,0.0,0.0,0.0,0.0,0.0,24
21803136000,21803056000,0.8425371,0.11568606,0.19638763,-0.488037,-2.9137278,5.206203,-5.7201986,-183.45888,327.31937,-354.01675,4.901467e-06,-1.5592667e-06,-6.199624e-06,-0.0001085295,-8.220892e-05,0.00035445092,0.19199991,-0.01657315,0.49185959,0.012413985,-0.008156247,0.0033077192,0.0,0.0,2.279839e-05,8.9361865e-06,6.9307994e-06,6.096865e-05,0.010814356,0.010875234,0.0117618125,0.07257813,0.07260291,0.17287433,1.3527931e-11,1.0326651e-11,2.3775917e-11,5.4336855e-08,6.293009e-08,5.000015e-08,0.0,0.0,0.0,0.0,0.0,0.0,0.0,0.0,24
21804136000,21804056000,0.8426908,0.11494208,0.1966215,-0.48785305,-2.927053,5.208321,-5.7232304,-186.38768,332.63107,-359.7217,4.7527246e-06,-1.914975e-06,-6.376123e-06,-0.00010873063,-8.213686e-05,0.0003517098,0.19199991,-0.01657315,0.49185959,0.012413985,-0.008156247,0.0033077192,0.0,0.0,2.2795812e-05,8.805006e-06,6.7757287e-06,6.0985763e-05,0.00971589,0.009765478,0.011256845,0.06656816,0.06658315,0.1695515,1.3430718e-11,1.02315725e-11,2.3593695e-11,5.4341186e-08,6.293455e-08,5.000011e-08,0.0,0.0,0.0,0.0,0.0,0.0,0.0,0.0,24
21805128000,21805048000,0.8425994,0.11582711,0.1963504,-0.48791066,-2.926348,5.203365,-5.720409,-189.28656,337.8643,-365.37918,4.6476816e-06,-2.157014e-06,-6.5414783e-06,-0.0001088244,-8.209728e-05,0.00034470533,0.19199991,-0.01657315,0.49185959,0.012413985,-0.008156247,0.0033077192,0.0,0.0,2.2728724e-05,8.800194e-06,6.8062714e-06,6.071197e-05,0.009869968,0.009920617,0.01133973,0.06769061,0.0677066,0.1698799,1.3404514e-11,1.024192e-11,2.339834e-11,5.4345573e-08,6.293904e-08,5.000004e-08,0.0,0.0,0.0,0.0,0.0,0.0,0.0,0.0,24
21806128000,21806048000,0.84247327,0.11584466,0.19640368,-0.48810303,-2.9166574,5.2196574,-5.7386117,-192.21094,343.1473,-371.10675,4.5253682e-06,-2.3743244e-06,-6.686169e-06,-0.00010892991,-8.203812e-05,0.00034561325,0.19199991,-0.01657315,0.49185959,0.012413985,-0.008156247,0.0033077192,0.0,0.0,2.2759436e-05,8.844097e-06,6.8489417e-06,6.069199e-05,0.0102169225,0.010271258,0.011553401,0.069528595,0.06954729,0.17299923,1.34006955e-11,1.0271375e-11,2.3259073e-11,5.435003e-08,6.29436e-08,5.0000214e-08,0.0,0.0,0.0,0.0,0.0,0.0,0.0,0.0,24
21807136000,21807056000,0.84473455,-0.08788452,0.009821899,-0.5278291,-1.0458899,2.8074362,-1.6992947,-194.68849,347.89407,-375.29776,4.5751035e-06,-2.8520897e-06,-6.933094e-06,-0.00010782391,-8.19886e-05,0.0003602092,0.19059086,-0.01647165,0.48719427,0.012232802,-0.009260294,0.0013472278,0.0,0.0,2.5635802e-05,5.9271742e-06,6.8688637e-06,6.035662e-05,0.010643893,0.010008199,0.010259641,0.07137153,0.07138334,0.17146266,1.3521473e-11,1.035075e-11,2.2899672e-11,5.4342525e-08,6.293495e-08,5.0000516e-08,0.0006399214,1.7450104e-05,0.0006820245,0.0003598632,0.00049323495,0.00066264876,0.0,0.0,24
21808128000,21808048000,0.86324584,0.010449628,0.03854791,-0.50320137,-0.25944722,0.27213275,-1.0277418,-195.49344,349.05444,-376.54578,4.526699e-06,-3.3083384e-06,-6.528247e-06,-0.000104864965,-7.3662886e-05,0.0003572568,0.19246684,-0.01667982,0.48500717,0.01432434,-0.008391568,0.0016713268,0.0,0.0,1.979664e-05,6.4057062e-06,6.0973175e-06,5.286855e-05,0.011951623,0.010326181,0.0087648,0.065559804,0.06549494,0.16660334,1.3952753e-11,1.0382258e-11,2.0753994e-11,5.397466e-08,6.2503545e-08,5.0000352e-08,0.00045985382,1.5701715e-05,0.00052453944,0.0002175059,0.00035374318,0.0005141598,0.0,0.0,24
21809128000,21809048000,0.8490293,-0.09349168,-0.14545073,-0.49925208,0.5108369,-0.9538228,0.099341705,-195.49309,348.8594,-376.93738,4.559863e-06,-3.3719305e-06,-6.1962246e-06,-0.000100527446,-5.688253e-05,0.0003568237,0.19390373,-0.016844645,0.48489696,0.015303755,-0.009150614,0.001016148,0.0,0.0,1.933975e-05,5.194697e-06,5.4228035e-06,5.132605e-05,0.012527606,0.011728816,0.0091799125,0.067227386,0.06702032,0.16496603,1.4438801e-11,1.048866e-11,2.022604e-11,5.20735e-08,6.033438e-08,5.0000036e-08,0.00043123684,1.5193398e-05,0.00048420846,0.00018817636,0.00032550897,0.00047592455,0.0,0.0,24
21810136000,21810056000,0.8566398,-0.06353232,-0.11204375,-0.49957803,0.8948996,-1.6605507,0.76706374,-194.73183,347.368,-376.42252,4.6321275e-06,-3.1943273e-06,-6.0405e-06,-0.000114890296,-4.090271e-05,0.00036861564,0.19456281,-0.016927056,0.48514682,0.015246648,-0.009736227,-0.0001190163,0.0,0.0,1.9275327e-05,4.86388e-06,4.9551873e-06,5.2155687e-05,0.012680326,0.012418721,0.010331598,0.069320716,0.06906112,0.16415283,1.4876394e-11,1.0661106e-11,2.0336552e-11,5.0000146e-08,5.7358267e-08,5.000011e-08,0.00041623006,1.4805311e-05,0.00045294673,0.00017655453,0.0003111475,0.00044295524,0.0,0.0,24
21811136000,21811056000,0.86499196,-0.013319784,-0.05065391,-0.4990448,0.71881425,-1.0465131,1.0079017,-193.85254,345.8947,-375.53983,4.586099e-06,-2.9001453e-06,-6.0165034e-06,-0.00013784875,-4.4060085e-05,0.00039308323,0.19447432,-0.016924672,0.48525357,0.015039185,-0.009878659,-9.18805e-05,0.0,0.0,1.9457833e-05,5.415537e-06,5.1515713e-06,5.3217434e-05,0.013685325,0.012943104,0.0117392065,0.07160253,0.07146839,0.1641582,1.5007329e-11,1.0888737e-11,2.0730835e-11,5.000004e-08,5.43585e-08,5.000004e-08,0.00041045362,1.4550023e-05,0.00044315425,0.00016972011,0.00030344288,0.00043503582,0.0,0.0,24
21812128000,21812048000,0.864881,0.008252396,-0.0068726297,-0.5018622,0.33914858,-0.5199416,1.068543,-193.27612,345.08517,-374.58368,4.3316345e-06,-2.6967505e-06,-5.839055e-06,-0.00014687589,-5.7744972e-05,0.0004370795,0.1946495,-0.016958004,0.48555493,0.014881816,-0.010268833,0.00026029206,0.0,0.0,1.9173096e-05,5.9684935e-06,5.3105223e-06,5.1520186e-05,0.014601428,0.013277391,0.013023652,0.073696055,0.07362075,0.16503687,1.469899e-11,1.1131899e-11,2.0768134e-11,5e-08,5.1920384e-08,5e-08,0.00040318142,1.426487e-05,0.0004252056,0.00016180522,0.00029653,0.0004191205,0.0,0.0,24
21813136000,21813056000,0.86464405,0.011674544,0.014943121,-0.5020271,0.033385202,-0.084974475,1.0553142,-193.02269,344.7942,-373.61996,3.917624e-06,-2.5042484e-06,-5.4973953e-06,-0.00014997403,-7.205848e-05,0.0005027737,0.19492215,-0.016998284,0.48568907,0.014729071,-0.010683347,0.00054728216,0.0,0.0,1.7363378e-05,5.7722505e-06,5.1164175e-06,4.6182282e-05,0.0123215765,0.0112923905,0.013149946,0.067391835,0.06735003,0.16413386,1.3939189e-11,1.1307828e-11,2.0141753e-11,5.000011e-08,5.0252382e-08,5.000011e-08,0.0,0.0,0.0,0.0,0.0,0.0,0.0,0.0,24
21814128000,21814048000,0.8652672,0.006056788,0.0102307815,-0.5011699,-0.071644045,0.010396679,1.070218,-193.02393,344.78802,-372.63342,3.7001923e-06,-2.4613416e-06,-5.343437e-06,-0.0001481328,-7.683877e-05,0.00054708106,0.19492215,-0.016998284,0.48568907,0.014729071,-0.010683347,0.00054728216,0.0,0.0,1.6152397e-05,5.6359627e-06,5.1961506e-06,4.291195e-05,0.011774563,0.011035244,0.013690839,0.06894188,0.06886411,0.16470104,1.3540107e-11,1.1515543e-11,1.9772685e-11,5.0000036e-08,5.0000466e-08,5.0000036e-08,0.0,0.0,0.0,0.0,0.0,0.0,0.0,0.0,24
21815136000,21815056000,0.86562294,0.004719254,0.0026986487,-0.500667,-0.05608585,-0.009140934,1.0621471,-193.1,344.80203,-371.61932,3.7492985e-06,-2.5207166e-06,-5.424123e-06,-0.00014517464,-7.620684e-05,0.00058505306,0.19492215,-0.016998284,0.48568907,0.014729071,-0.010683347,0.00054728216,0.0,0.0,1.5517404e-05,5.662951e-06,5.3932495e-06,4.1135812e-05,0.011459901,0.0109381145,0.014147492,0.07094762,0.070821546,0.16846025,1.3265632e-11,1.1681622e-11,1.9656487e-11,5e-08,5.000052e-08,5e-08,0.0,0.0,0.0,0.0,0.0,0.0,0.0,0.0,24
21816136000,21816056000,0.86558276,0.005480463,-0.0010754493,-0.50073475,0.0071676956,-0.035134304,1.0714371,-193.13129,344.79236,-370.6232,3.7898556e-06,-2.5927259e-06,-5.4949987e-06,-0.0001435812,-7.597799e-05,0.0006202344,0.19492215,-0.016998284,0.48568907,0.014729071,-0.010683347,0.00054728216,0.0,0.0,1.5249091e-05,5.8305063e-06,5.640727e-06,4.0383635e-05,0.011525902,0.0111388685,0.014553931,0.07318234,0.073011376,0.17393406,1.3074192e-11,1.1807907e-11,1.9706408e-11,5.0000317e-08,5.0001187e-08,5.000022e-08,0.0,0.0,0.0,0.0,0.0,0.0,0.0,0.0,24
21817136000,21817056000,0.8655224,0.0063142185,-0.0020847912,-0.50082624,0.02533095,-0.035666194,1.0559467,-193.12953,344.76935,-369.64026,3.8909047e-06,-2.695035e-06,-5.603705e-06,-0.00014325298,-7.6070864e-05,0.00065964885,0.19492215,-0.016998284,0.48568907,0.014729071,-0.010683347,0.00054728216,0.0,0.0,1.5114372e-05,5.775029e-06,5.643373e-06,4.0067607e-05,0.010103918,0.00988531,0.013760405,0.06691036,0.06680731,0.17136158,1.2691657e-11,1.1736706e-11,1.9814091e-11,5.0000267e-08,5.0000402e-08,5.0000185e-08,0.0,0.0,0.0,0.0,0.0,0.0,0.0,0.0,24
21818136000,21818056000,0.8655602,0.00867168,0.0011847223,-0.5007284,0.02436403,-0.01927448,1.0382247,-193.10356,344.7186,-368.6145,3.995016e-06,-2.6072091e-06,-5.693557e-06,-0.00014334485,-7.670343e-05,0.0006675553,0.19492215,-0.016998284,0.48568907,0.014729071,-0.010683347,0.00054728216,0.0,0.0,1.5179181e-05,5.881714e-06,5.77948e-06,4.034728e-05,0.010237967,0.010074073,0.01387402,0.06820464,0.06809824,0.17319487,1.2458817e-11,1.1706791e-11,2.0008037e-11,5.000038e-08,5.000046e-08,5.0000146e-08,0.0,0.0,0.0,0.0,0.0,0.0,0.0,0.0,24
21819128000,21819048000,0.8653709,0.010574915,0.0018808224,-0.50101686,0.004923427,0.013890533,1.0353857,-193.07695,344.69803,-367.63455,4.0176064e-06,-2.4742762e-06,-5.7457596e-06,-0.00014319162,-7.687245e-05,0.00068506243,0.19492215,-0.016998284,0.48568907,0.014729071,-0.010683347,0.00054728216,0.0,0.0,1.5334508e-05,5.9570025e-06,5.887992e-06,4.0803257e-05,0.01050402,0.0103772385,0.014014471,0.06972311,0.06961678,0.17442735,1.2240022e-11,1.1648602e-11,2.0219422e-11,5.0000477e-08,5.000051e-08,5.0000075e-08,0.0,0.0,0.0,0.0,0.0,0.0,0.0,0.0,24
21820136000,21820056000,0.8653789,0.009197222,0.003219845,-0.5010234,-0.011819849,0.024821136,1.0472741,-193.04552,344.7025,-366.63937,3.8959747e-06,-2.2863517e-06,-5.760764e-06,-0.00014217291,-7.535779e-05,0.00070350786,0.19492215,-0.016998284,0.48568907,0.014729071,-0.010683347,0.00054728216,0.0,0.0,1.5492968e-05,6.0151947e-06,5.969185e-06,4.1343777e-05,0.010880148,0.010785542,0.014260624,0.07185881,0.071756646,0.1765669,1.20348445e-11,1.1572016e-11,2.0429887e-11,5.0000622e-08,5.000061e-08,5.0000185e-08,0.0,0.0,0.0,0.0,0.0,0.0,0.0,0.0,24
21821128000,21821048000,0.8655457,0.008805793,0.0029436918,-0.50074416,-0.02837773,0.016254345,1.045143,-193.04115,344.7097,-365.63654,3.7866696e-06,-2.1309565e-06,-5.7728016e-06,-0.00014103552,-7.383878e-05,0.00071797555,0.19492215,-0.016998284,0.48568907,0.014729071,-0.010683347,0.00054728216,0.0,0.0,1.5683543e-05,5.805641e-06,5.7923253e-06,4.2024407e-05,0.009780912,0.009726649,0.013487142,0.06584611,0.06578695,0.17240594,1.16745814e-11,1.13314315e-11,2.0647388e-11,5.000037e-08,5.0000363e-08,5.0000075e-08,0.0,0.0,0.0,0.0,0.0,0.0,0.0,0.0,24
21822136000,21822056000,0.86549413,0.008676158,0.0020448947,-0.5008399,-0.025599832,0.014327708,1.0381808,-193.03938,344.7111,-364.62808,3.6548224e-06,-1.966628e-06,-5.811001e-06,-0.00013953884,-7.193374e-05,0.00073303696,0.19492215,-0.016998284,0.48568907,0.014729071,-0.010683347,0.00054728216,0.0,0.0,1.5942716e-05,5.7973407e-06,5.8044648e-06,4.2783337e-05,0.010078979,0.010037092,0.01370538,0.06761607,0.067563824,0.17390667,1.1493877e-11,1.122331e-11,2.0875572e-11,5.0000462e-08,5.000048e-08,5.000007e-08,0.0,0.0,0.0,0.0,0.0,0.0,0.0,0.0,24
21823136000,21823056000,0.86544317,0.0100041805,0.0034555898,-0.50089556,-0.032713834,0.010187656,1.0300422,-193.03375,344.71,-363.61752,3.5093947e-06,-1.8070251e-06,-5.872645e-06,-0.00013778829,-6.9860434e-05,0.00074341096,0.19492215,-0.016998284,0.48568907,0.014729071,-0.010683347,0.00054728216,0.0,0.0,1.6205435e-05,5.771998e-06,5.794506e-06,4.3537806e-05,0.010314879,0.01028356,0.013890534,0.06914962,0.06910479,0.17495927,1.1330353e-11,1.1114014e-11,2.1091498e-11,5.000049e-08,5.0000516e-08,5.0000146e-08,0.0,0.0,0.0,0.0,0.0,0.0,0.0,0.0,24
21824136000,21824056000,0.86554056,0.008741082,0.005061674,-0.5007369,-0.0327431,0.014476961,1.0268385,-193.03847,344.7155,-362.59845,3.3884971e-06,-1.6977999e-06,-5.9172567e-06,-0.00013634592,-6.821113e-05,0.00074460317,0.19492215,-0.016998284,0.48568907,0.014729071,-0.010683347,0.00054728216,0.0,0.0,1.6455564e-05,5.7767597e-06,5.806246e-06,4.4314023e-05,0.010709616,0.010685562,0.014139149,0.071210936,0.071170986,0.17609502,1.1213053e-11,1.1035852e-11,2.1296473e-11,5.0000544e-08,5.000059e-08,5.0000036e-08,0.0,0.0,0.0,0.0,0.0,0.0,0.0,0.0,24
21825128000,21825048000,0.86560565,0.007419411,0.002608464,-0.5006646,-0.03306165,0.0180786,1.0030023,-193.06091,344.72644,-361.59192,3.3433419e-06,-1.6409914e-06,-5.9878607e-06,-0.00013542635,-6.757681e-05,0.0007400476,0.19492215,-0.016998284,0.48568907,0.014729071,-0.010683347,0.00054728216,0.0,0.0,1.6706015e-05,5.7697744e-06,5.8062e-06,4.506052e-05,0.011056241,0.011038833,0.0144190835,0.073053196,0.07301817,0.17912745,1.1110842e-11,1.096289e-11,2.1485565e-11,5.0001223e-08,5.0001326e-08,5.0000256e-08,0.0,0.0,0.0,0.0,0.0,0.0,0.0,0.0,24
21826136000,21826056000,0.8655497,0.007475661,0.0009033154,-0.50076663,-0.013829385,0.0027728677,1.0060809,-193.0815,344.71915,-360.57977,3.383627e-06,-1.5387814e-06,-6.056777e-06,-0.00013405729,-6.798037e-05,0.0007376464,0.19492215,-0.016998284,0.48568907,0.014729071,-0.010683347,0.00054728216,0.0,0.0,1.697665e-05,5.529598e-06,5.569877e-06,4.5823897e-05,0.009872795,0.00986421,0.013673748,0.06698291,0.06696302,0.17525782,1.0871814e-11,1.07502245e-11,2.1670112e-11,5.0000416e-08,5.000044e-08,5.000026e-08,0.0,0.0,0.0,0.0,0.0,0.0,0.0,0.0,24
21827136000,21827056000,0.8655636,0.0082457485,0.0008379334,-0.50073045,0.0013994513,0.008069196,0.9902068,-193.09094,344.7017,-359.5586,3.477934e-06,-1.4331041e-06,-6.153814e-06,-0.00013252212,-6.890446e-05,0.00072377204,0.19492215,-0.016998284,0.48568907,0.014729071,-0.010683347,0.00054728216,0.0,0.0,1.7233111e-05,5.5267883e-06,5.5680084e-06,4.6560646e-05,0.010158693,0.010152986,0.013878852,0.0686655,0.06864843,0.17608376,1.0803012e-11,1.0696832e-11,2.1838717e-11,5.0000466e-08,5.0000516e-08,5.0000224e-08,0.0,0.0,0.0,0.0,0.0,0.0,0.0,0.0,24
21828136000,21828056000,0.86543775,0.009740607,0.00033886213,-0.5009217,0.00765405,0.027149143,0.9715905,-193.09023,344.683,-358.57156,3.596186e-06,-1.2652592e-06,-6.2324934e-06,-0.00013052931,-7.0042064e-05,0.00071824796,0.19492215,-0.016998284,0.48568907,0.014729071,-0.010683347,0.00054728216,0.0,0.0,1.7495258e-05,5.5251066e-06,5.566988e-06,4.726943e-05,0.010426063,0.010421267,0.014079861,0.07035267,0.07033818,0.17696953,1.0745305e-11,1.06518076e-11,2.1994373e-11,5.000051e-08,5.0000548e-08,5.0000185e-08,0.0,0.0,0.0,0.0,0.0,0.0,0.0,0.0,24
21829128000,21829048000,0.8654847,0.009971853,0.0019415902,-0.5008325,0.0019780118,0.039706048,0.98292893,-193.07895,344.6828,-357.57367,3.6516303e-06,-1.1037796e-06,-6.302993e-06,-0.00012870293,-7.05057e-05,0.0007052823,0.19492215,-0.016998284,0.48568907,0.014729071,-0.010683347,0.00054728216,0.0,0.0,1.7725108e-05,5.561737e-06,5.6007193e-06,4.7960108e-05,0.01082445,0.010820108,0.014302833,0.07232498,0.072312206,0.17749688,1.0721289e-11,1.0638345e-11,2.2133226e-11,5.0001187e-08,5.0001262e-08,5.0000146e-08,0.0,0.0,0.0,0.0,0.0,0.0,0.0,0.0,24
21830136000,21830056000,0.86547244,0.0104139345,0.001455993,-0.50084615,-0.004655271,0.042179078,0.97693336,-193.08284,344.6741,-356.56424,3.7690518e-06,-9.0588554e-07,-6.372372e-06,-0.00012671981,-7.148285e-05,0.00069427746,0.19492215,-0.016998284,0.48568907,0.014729071,-0.010683347,0.00054728216,0.0,0.0,1.7967473e-05,5.3768904e-06,5.4135735e-06,4.8666945e-05,0.009761569,0.00975862,0.013612678,0.066590875,0.066583514,0.17400374,1.0561528e-11,1.0490596e-11,2.2267785e-11,5.0000434e-08,5.0000434e-08,5.000015e-08,0.0,0.0,0.0,0.0,0.0,0.0,0.0,0.0,24
21831136000,21831056000,0.8654669,0.010673401,0.0022491682,-0.5008473,0.0011184734,0.037850507,0.96958035,-193.08026,344.68503,-355.5676,3.8238786e-06,-7.735728e-07,-6.4376773e-06,-0.00012549969,-7.1885166e-05,0.00068388716,0.19492215,-0.016998284,0.48568907,0.014729071,-0.010683347,0.00054728216,0.0,0.0,1.8195185e-05,5.3805943e-06,5.414993e-06,4.933609e-05,0.009953829,0.009951554,0.01377984,0.06795438,0.067948304,0.17491385,1.0527047e-11,1.04648555e-11,2.2387089e-11,5.0000466e-08,5.000047e-08,5.0000185e-08,0.0,0.0,0.0,0.0,0.0,0.0,0.0,0.0,24
21832136000,21832056000,0.8653689,0.010374837,0.0001688709,-0.50102806,-0.009978959,0.030377738,0.9874242,-193.07613,344.69785,-354.58374,3.8477974e-06,-6.4601363e-07,-6.4314854e-06,-0.00012443935,-7.209926e-05,0.00068136334,0.19492215,-0.016998284,0.48568907,0.014729071,-0.010683347,0.00054728216,0.0,0.0,1.8365177e-05,5.4132393e-06,5.4470493e-06,4.9839884e-05,0.010282305,0.010280689,0.014022617,0.06981382,0.06980863,0.17615269,1.0516749e-11,1.0462231e-11,2.2466773e-11,5.000054e-08,5.0000533e-08,5.000026e-08,0.0,0.0,0.0,0.0,0.0,0.0,0.0,0.0,24
21833136000,21833056000,0.8653359,0.011658269,0.00029898662,-0.50105673,-0.009461614,0.028024592,1.0045444,-193.0672,344.70642,-353.5895,3.797934e-06,-5.2712636e-07,-6.423988e-06,-0.0001235243,-7.1814604e-05,0.0006802656,0.19492215,-0.016998284,0.48568907,0.014729071,-0.010683347,0.00054728216,0.0,0.0,1.8569568e-05,5.4486363e-06,5.4830753e-06,5.047658e-05,0.010612746,0.010611288,0.014260546,0.07171504,0.07171072,0.17748137,1.0511091e-11,1.0463457e-11,2.2565227e-11,5.000062e-08,5.00006e-08,5.000022e-08,0.0,0.0,0.0,0.0,0.0,0.0,0.0,0.0,24
21834136000,21834056000,0.86540467,0.010472615,0.0019699687,-0.5009604,-0.0117544485,0.018279947,0.9958669,-193.04842,344.71597,-352.6026,3.6899564e-06,-3.8992508e-07,-6.432507e-06,-0.00012253658,-7.114403e-05,0.0006858727,0.19492215,-0.016998284,0.48568907,0.014729071,-0.010683347,0.00054728216,0.0,0.0,1.875973e-05,5.300127e-06,5.3309923e-06,5.1101535e-05,0.009633631,0.009632961,0.013557079,0.066065155,0.066062585,0.17366938,1.0393618e-11,1.0353499e-11,2.2653735e-11,5.0000438e-08,5.0000427e-08,5.0000185e-08,0.0,0.0,0.0,0.0,0.0,0.0,0.0,0.0,24
