timestamp,accel_device_id_primary,accel_device_ids[0],accel_device_ids[1],accel_device_ids[2],accel_device_ids[3],accel_inconsistency_m_s_s[0],accel_inconsistency_m_s_s[1],accel_inconsistency_m_s_s[2],accel_inconsistency_m_s_s[3],gyro_device_id_primary,gyro_device_ids[0],gyro_device_ids[1],gyro_device_ids[2],gyro_device_ids[3],gyro_inconsistency_rad_s[0],gyro_inconsistency_rad_s[1],gyro_inconsistency_rad_s[2],gyro_inconsistency_rad_s[3],accel_healthy[0],accel_healthy[1],accel_healthy[2],accel_healthy[3],accel_priority[0],accel_priority[1],accel_priority[2],accel_priority[3],gyro_healthy[0],gyro_healthy[1],gyro_healthy[2],gyro_healthy[3],gyro_priority[0],gyro_priority[1],gyro_priority[2],gyro_priority[3]
21726360000,1310988,1310988,1310996,1311004,0,0.0050836094,0.0040159253,0.0016480122,0.0,1310988,1310988,1310996,1311004,0,0.00022495419,0.00016105232,6.65537e-05,0.0,1,1,1,0,50,50,50,0,1,1,1,0,1,1,1,0
21726364000,1310988,1310988,1310996,1311004,0,0.0056116316,0.0041915965,0.001879988,0.0,1310988,1310988,1310996,1311004,0,0.00023701202,0.00016379543,7.635188e-05,0.0,1,1,1,0,50,50,50,0,1,1,1,0,1,1,1,0
21726560000,1310988,1310988,1310996,1311004,0,0.0060463874,0.0027672583,0.0040452555,0.0,1310988,1310988,1310996,1311004,0,0.00012983789,0.00022235452,0.00031433546,0.0,1,1,1,0,50,50,50,0,1,1,1,0,1,1,1,0
21726760000,1310988,1310988,1310996,1311004,0,0.004790461,0.003912803,0.0009881272,0.0,1310988,1310988,1310996,1311004,0,0.00021808241,0.00011734232,0.00023793204,0.0,1,1,1,0,50,50,50,0,1,1,1,0,1,1,1,0
21726956000,1310988,1310988,1310996,1311004,0,0.004504355,0.0024879328,0.0020918327,0.0,1310988,1310988,1310996,1311004,0,0.00021937948,0.000100896126,0.00012212993,0.0,1,1,1,0,50,50,50,0,1,1,1,0,1,1,1,0
21727156000,1310988,1310988,1310996,1311004,0,0.0047720456,0.0038931035,0.004195751,0.0,1310988,1310988,1310996,1311004,0,0.0002705352,0.0003130652,0.00014108169,0.0,1,1,1,0,50,50,50,0,1,1,1,0,1,1,1,0
21727356000,1310988,1310988,1310996,1311004,0,0.007647641,0.0035348025,0.004134842,0.0,1310988,1310988,1310996,1311004,0,0.00015161217,0.00021989417,6.872577e-05,0.0,1,1,1,0,50,50,50,0,1,1,1,0,1,1,1,0
21727556000,1310988,1310988,1310996,1311004,0,0.007004844,0.0039941617,0.0031130484,0.0,1310988,1310988,1310996,1311004,0,0.00049635913,0.00039989612,0.00020479663,0.0,1,1,1,0,50,50,50,0,1,1,1,0,1,1,1,0
21727756000,1310988,1310988,1310996,1311004,0,0.0037863161,0.0026009225,0.0016841319,0.0,1310988,1310988,1310996,1311004,0,0.00013384093,0.00016700763,0.00018524776,0.0,1,1,1,0,50,50,50,0,1,1,1,0,1,1,1,0
21727956000,1310988,1310988,1310996,1311004,0,0.004187001,0.0023724933,0.0020898741,0.0,1310988,1310988,1310996,1311004,0,5.238416e-05,8.2149345e-05,0.00012223994,0.0,1,1,1,0,50,50,50,0,1,1,1,0,1,1,1,0
21728160000,1310988,1310988,1310996,1311004,0,0.004001775,0.0018554832,0.0032213894,0.0,1310988,1310988,1310996,1311004,0,0.00018339824,0.0003276664,0.0001505752,0.0,1,1,1,0,50,50,50,0,1,1,1,0,1,1,1,0
21728356000,1310988,1310988,1310996,1311004,0,0.005568906,0.0013615531,0.004699482,0.0,1310988,1310988,1310996,1311004,0,0.00024894162,0.00022279329,0.00021697415,0.0,1,1,1,0,50,50,50,0,1,1,1,0,1,1,1,0
21728556000,1310988,1310988,1310996,1311004,0,0.0127341505,0.0046363343,0.012537915,0.0,1310988,1310988,1310996,1311004,0,0.00010881352,9.784736e-05,0.00015496938,0.0,1,1,1,0,50,50,50,0,1,1,1,0,1,1,1,0
21728756000,1310988,1310988,1310996,1311004,0,0.024200069,0.008280562,0.01605628,0.0,1310988,1310988,1310996,1311004,0,0.00026209475,0.00033238385,0.00032115963,0.0,1,1,1,0,50,50,50,0,1,1,1,0,1,1,1,0
21728956000,1310988,1310988,1310996,1311004,0,0.010978466,0.013757826,0.0073869643,0.0,1310988,1310988,1310996,1311004,0,0.00057931175,0.0005625656,0.00020436625,0.0,1,1,1,0,50,50,50,0,1,1,1,0,1,1,1,0
21729156000,1310988,1310988,1310996,1311004,0,0.0052135987,0.0036489093,0.0018154094,0.0,1310988,1310988,1310996,1311004,0,0.00028623207,0.00031767116,6.162663e-05,0.0,1,1,1,0,50,50,50,0,1,1,1,0,1,1,1,0
21729356000,1310988,1310988,1310996,1311004,0,0.006669689,0.004389812,0.0025980838,0.0,1310988,1310988,1310996,1311004,0,0.00015778981,6.746994e-05,0.00013192756,0.0,1,1,1,0,50,50,50,0,1,1,1,0,1,1,1,0
21729556000,1310988,1310988,1310996,1311004,0,0.013354335,0.0081687225,0.007138389,0.0,1310988,1310988,1310996,1311004,0,0.00015171475,9.613018e-05,0.00023550681,0.0,1,1,1,0,50,50,50,0,1,1,1,0,1,1,1,0
21729756000,1310988,1310988,1310996,1311004,0,0.008276371,0.008790687,0.0049741934,0.0,1310988,1310988,1310996,1311004,0,0.0004578055,0.0002692617,0.00031724342,0.0,1,1,1,0,50,50,50,0,1,1,1,0,1,1,1,0
21729956000,1310988,1310988,1310996,1311004,0,0.013066632,0.007362447,0.005774838,0.0,1310988,1310988,1310996,1311004,0,0.00016900644,0.00019750046,0.0001691862,0.0,1,1,1,0,50,50,50,0,1,1,1,0,1,1,1,0
21730160000,1310988,1310988,1310996,1311004,0,0.00863297,0.007998775,0.0019701219,0.0,1310988,1310988,1310996,1311004,0,0.0002997671,0.0002533889,9.757859e-05,0.0,1,1,1,0,50,50,50,0,1,1,1,0,1,1,1,0
21730360000,1310988,1310988,1310996,1311004,0,0.010404714,0.029597865,0.03731273,0.0,1310988,1310988,1310996,1311004,0,0.0003511509,0.0011024295,0.0012721309,0.0,1,1,1,0,50,50,50,0,1,1,1,0,1,1,1,0
21730560000,1310988,1310988,1310996,1311004,0,0.021236053,0.0088738855,0.012647966,0.0,1310988,1310988,1310996,1311004,0,0.0002400708,6.450256e-05,0.00022682507,0.0,1,1,1,0,50,50,50,0,1,1,1,0,1,1,1,0
21730760000,1310988,1310988,1310996,1311004,0,0.00840809,0.008040692,0.00399059,0.0,1310988,1310988,1310996,1311004,0,0.00050958816,0.0012056155,0.00073556777,0.0,1,1,1,0,50,50,50,0,1,1,1,0,1,1,1,0
21730960000,1310988,1310988,1310996,1311004,0,0.0050803274,0.01617337,0.016765038,0.0,1310988,1310988,1310996,1311004,0,0.00037760168,0.00059159036,0.00022509253,0.0,1,1,1,0,50,50,50,0,1,1,1,0,1,1,1,0
21731160000,1310988,1310988,1310996,1311004,0,0.007868213,0.00618516,0.0019782712,0.0,1310988,1310988,1310996,1311004,0,0.00041063342,0.00035443992,9.2734095e-05,0.0,1,1,1,0,50,50,50,0,1,1,1,0,1,1,1,0
21731360000,1310988,1310988,1310996,1311004,0,0.01398827,0.005535941,0.019292628,0.0,1310988,1310988,1310996,1311004,0,0.0003634264,0.00015501912,0.0003201389,0.0,1,1,1,0,50,50,50,0,1,1,1,0,1,1,1,0
21731556000,1310988,1310988,1310996,1311004,0,0.012041004,0.005489289,0.01003194,0.0,1310988,1310988,1310996,1311004,0,0.00077186123,0.00050862116,0.0002644675,0.0,1,1,1,0,50,50,50,0,1,1,1,0,1,1,1,0
21731760000,1310988,1310988,1310996,1311004,0,0.014645595,0.006108274,0.016867563,0.0,1310988,1310988,1310996,1311004,0,0.00047449913,0.000813604,0.000529923,0.0,1,1,1,0,50,50,50,0,1,1,1,0,1,1,1,0
21731956000,1310988,1310988,1310996,1311004,0,0.010421607,0.010943664,0.0034450188,0.0,1310988,1310988,1310996,1311004,0,0.00025323374,0.00032468783,0.00012354327,0.0,1,1,1,0,50,50,50,0,1,1,1,0,1,1,1,0
21732156000,1310988,1310988,1310996,1311004,0,0.0064248447,0.008709399,0.015094429,0.0,1310988,1310988,1310996,1311004,0,0.00040474485,0.0004885458,0.00069386564,0.0,1,1,1,0,50,50,50,0,1,1,1,0,1,1,1,0
21732360000,1310988,1310988,1310996,1311004,0,0.007714129,0.010258859,0.005462048,0.0,1310988,1310988,1310996,1311004,0,0.00018419173,0.00042982615,0.00026044858,0.0,1,1,1,0,50,50,50,0,1,1,1,0,1,1,1,0
21732556000,1310988,1310988,1310996,1311004,0,0.0042692777,0.0024807781,0.003484317,0.0,1310988,1310988,1310996,1311004,0,0.00038624552,0.00013289106,0.0002542278,0.0,1,1,1,0,50,50,50,0,1,1,1,0,1,1,1,0
21732756000,1310988,1310988,1310996,1311004,0,0.009860156,0.010317733,0.004580802,0.0,1310988,1310988,1310996,1311004,0,0.0005004441,0.00044437702,0.0002747506,0.0,1,1,1,0,50,50,50,0,1,1,1,0,1,1,1,0
21732956000,1310988,1310988,1310996,1311004,0,0.015121011,0.017159697,0.0041887937,0.0,1310988,1310988,1310996,1311004,0,0.0009284954,0.00050521735,0.0012434406,0.0,1,1,1,0,50,50,50,0,1,1,1,0,1,1,1,0
21733156000,1310988,1310988,1310996,1311004,0,0.008191606,0.009005316,0.01651246,0.0,1310988,1310988,1310996,1311004,0,0.00065238075,0.000976796,0.0016104404,0.0,1,1,1,0,50,50,50,0,1,1,1,0,1,1,1,0
21733360000,1310988,1310988,1310996,1311004,0,0.017838242,0.005277407,0.015735347,0.0,1310988,1310988,1310996,1311004,0,0.00035870654,0.0013945247,0.0017077983,0.0,1,1,1,0,50,50,50,0,1,1,1,0,1,1,1,0
21733556000,1310988,1310988,1310996,1311004,0,0.038362518,0.058881197,0.02245255,0.0,1310988,1310988,1310996,1311004,0,0.00035967375,0.0010859788,0.0008521717,0.0,1,1,1,0,50,50,50,0,1,1,1,0,1,1,1,0
21733760000,1310988,1310988,1310996,1311004,0,0.0040173987,0.021325981,0.023597246,0.0,1310988,1310988,1310996,1311004,0,0.0010677519,0.0020096549,0.0009856571,0.0,1,1,1,0,50,50,50,0,1,1,1,0,1,1,1,0
21733956000,1310988,1310988,1310996,1311004,0,0.041332215,0.02646392,0.067423515,0.0,1310988,1310988,1310996,1311004,0,0.0021674728,0.003940716,0.005408982,0.0,1,1,1,0,50,50,50,0,1,1,1,0,1,1,1,0
21734156000,1310988,1310988,1310996,1311004,0,0.008955235,0.007979285,0.0023441154,0.0,1310988,1310988,1310996,1311004,0,0.0006264129,0.0007617352,0.0002969471,0.0,1,1,1,0,50,50,50,0,1,1,1,0,1,1,1,0
21734356000,1310988,1310988,1310996,1311004,0,0.0067651607,0.0055353674,0.0016774359,0.0,1310988,1310988,1310996,1311004,0,0.0033393016,0.0015905304,0.001770705,0.0,1,1,1,0,50,50,50,0,1,1,1,0,1,1,1,0
21734556000,1310988,1310988,1310996,1311004,0,0.012212274,0.0050724046,0.0072807427,0.0,1310988,1310988,1310996,1311004,0,0.001417487,0.0008215492,0.0006321592,0.0,1,1,1,0,50,50,50,0,1,1,1,0,1,1,1,0
21734756000,1310988,1310988,1310996,1311004,0,0.0073898477,0.0029468972,0.005741999,0.0,1310988,1310988,1310996,1311004,0,0.00540374,0.0023483178,0.0030680948,0.0,1,1,1,0,50,50,50,0,1,1,1,0,1,1,1,0
21734960000,1310988,1310988,1310996,1311004,0,0.023902448,0.030371198,0.00910507,0.0,1310988,1310988,1310996,1311004,0,0.0029943935,0.008495627,0.011463883,0.0,1,1,1,0,50,50,50,0,1,1,1,0,1,1,1,0
21735156000,1310988,1310988,1310996,1311004,0,0.021429054,0.0071932953,0.027986603,0.0,1310988,1310988,1310996,1311004,0,0.0014865346,0.0050662016,0.0035912707,0.0,1,1,1,0,50,50,50,0,1,1,1,0,1,1,1,0
21735360000,1310988,1310988,1310996,1311004,0,0.008881014,0.008755031,0.017428134,0.0,1310988,1310988,1310996,1311004,0,0.0028930907,0.0047503887,0.0019402513,0.0,1,1,1,0,50,50,50,0,1,1,1,0,1,1,1,0
21735556000,1310988,1310988,1310996,1311004,0,0.008871733,0.008861381,0.0070911148,0.0,1310988,1310988,1310996,1311004,0,0.0028767085,0.0017857453,0.004577068,0.0,1,1,1,0,50,50,50,0,1,1,1,0,1,1,1,0
21735756000,1310988,1310988,1310996,1311004,0,0.0075464575,0.007583542,0.0013855702,0.0,1310988,1310988,1310996,1311004,0,0.0016643485,0.0011137507,0.0006748076,0.0,1,1,1,0,50,50,50,0,1,1,1,0,1,1,1,0
21735960000,1310988,1310988,1310996,1311004,0,0.0087090535,0.008645529,0.0019902266,0.0,1310988,1310988,1310996,1311004,0,0.0014942111,0.0015187281,0.00032552393,0.0,1,1,1,0,50,50,50,0,1,1,1,0,1,1,1,0
21736156000,1310988,1310988,1310996,1311004,0,0.01067972,0.0061995187,0.004551725,0.0,1310988,1310988,1310996,1311004,0,0.0023877022,0.0010968191,0.0012912196,0.0,1,1,1,0,50,50,50,0,1,1,1,0,1,1,1,0
21736360000,1310988,1310988,1310996,1311004,0,0.03119607,0.019072076,0.012250058,0.0,1310988,1310988,1310996,1311004,0,0.003915861,0.0020383294,0.0018787837,0.0,1,1,1,0,50,50,50,0,1,1,1,0,1,1,1,0
21736560000,1310988,1310988,1310996,1311004,0,0.013008312,0.022060826,0.009845668,0.0,1310988,1310988,1310996,1311004,0,0.0021170753,0.0031837174,0.0010772464,0.0,1,1,1,0,50,50,50,0,1,1,1,0,1,1,1,0
21736760000,1310988,1310988,1310996,1311004,0,0.00440896,0.0018222487,0.005289398,0.0,1310988,1310988,1310996,1311004,0,0.00024629777,0.000357796,0.00043600844,0.0,1,1,1,0,50,50,50,0,1,1,1,0,1,1,1,0
21736956000,1310988,1310988,1310996,1311004,0,0.0049171196,0.002280826,0.0026522712,0.0,1310988,1310988,1310996,1311004,0,0.00027806943,0.00012910487,0.00015453495,0.0,1,1,1,0,50,50,50,0,1,1,1,0,1,1,1,0
21737156000,1310988,1310988,1310996,1311004,0,0.0045966725,0.004506046,0.005291473,0.0,1310988,1310988,1310996,1311004,0,0.00025974124,0.00022902476,0.00019087977,0.0,1,1,1,0,50,50,50,0,1,1,1,0,1,1,1,0
21737360000,1310988,1310988,1310996,1311004,0,0.011196093,0.0030384061,0.011396365,0.0,1310988,1310988,1310996,1311004,0,0.0002851534,0.0001423001,0.00019809366,0.0,1,1,1,0,50,50,50,0,1,1,1,0,1,1,1,0
21737556000,1310988,1310988,1310996,1311004,0,0.0024342483,0.0047869175,0.00352949,0.0,1310988,1310988,1310996,1311004,0,0.0010424384,0.00097593945,0.00022910774,0.0,1,1,1,0,50,50,50,0,1,1,1,0,1,1,1,0
21737756000,1310988,1310988,1310996,1311004,0,0.019335175,0.0543503,0.07351397,0.0,1310988,1310988,1310996,1311004,0,0.0025768543,0.0016792101,0.0042378455,0.0,1,1,1,0,50,50,50,0,1,1,1,0,1,1,1,0
21737960000,1310988,1310988,1310996,1311004,0,0.017513046,0.008587325,0.024971288,0.0,1310988,1310988,1310996,1311004,0,0.0007137524,2.049886e-05,0.0006939235,0.0,1,1,1,0,50,50,50,0,1,1,1,0,1,1,1,0
21738156000,1310988,1310988,1310996,1311004,0,0.020311916,0.018011905,0.0031093196,0.0,1310988,1310988,1310996,1311004,0,0.005316307,0.0032859882,0.002046099,0.0,1,1,1,0,50,50,50,0,1,1,1,0,1,1,1,0
21738356000,1310988,1310988,1310996,1311004,0,0.0072738733,0.00854484,0.010443704,0.0,1310988,1310988,1310996,1311004,0,0.0026714837,0.00025703752,0.0025506145,0.0,1,1,1,0,50,50,50,0,1,1,1,0,1,1,1,0
21738560000,1310988,1310988,1310996,1311004,0,0.0041751442,0.0014714312,0.003525009,0.0,1310988,1310988,1310996,1311004,0,0.0007700388,0.000439027,0.00037283325,0.0,1,1,1,0,50,50,50,0,1,1,1,0,1,1,1,0
21738756000,1310988,1310988,1310996,1311004,0,0.009246998,0.013456844,0.004224064,0.0,1310988,1310988,1310996,1311004,0,0.0005561429,0.00069375464,0.00059124746,0.0,1,1,1,0,50,50,50,0,1,1,1,0,1,1,1,0
21738960000,1310988,1310988,1310996,1311004,0,0.029290827,0.020328816,0.04958455,0.0,1310988,1310988,1310996,1311004,0,0.0010842432,0.004777406,0.005789024,0.0,1,1,1,0,50,50,50,0,1,1,1,0,1,1,1,0
21739156000,1310988,1310988,1310996,1311004,0,0.012361713,0.0050690407,0.0080157975,0.0,1310988,1310988,1310996,1311004,0,0.0019555227,0.00053514325,0.0014457746,0.0,1,1,1,0,50,50,50,0,1,1,1,0,1,1,1,0
21739356000,1310988,1310988,1310996,1311004,0,0.011392945,0.0062128077,0.005417378,0.0,1310988,1310988,1310996,1311004,0,0.02526173,0.013145563,0.01211612,0.0,1,1,1,0,50,50,50,0,1,1,1,0,1,1,1,0
21739560000,1310988,1310988,1310996,1311004,0,0.0029669818,0.003785142,0.0008405129,0.0,1310988,1310988,1310996,1311004,0,0.002881859,0.0015448672,0.0013407937,0.0,1,1,1,0,50,50,50,0,1,1,1,0,1,1,1,0
21739756000,1310988,1310988,1310996,1311004,0,0.01894931,0.010196168,0.009438554,0.0,1310988,1310988,1310996,1311004,0,0.003282316,0.0019409831,0.0013435949,0.0,1,1,1,0,50,50,50,0,1,1,1,0,1,1,1,0
21739956000,1310988,1310988,1310996,1311004,0,0.014088043,0.006556641,0.007664825,0.0,1310988,1310988,1310996,1311004,0,0.0036496161,0.0018357722,0.001820773,0.0,1,1,1,0,50,50,50,0,1,1,1,0,1,1,1,0
21740156000,1310988,1310988,1310996,1311004,0,0.0058212755,0.0052116076,0.0037620172,0.0,1310988,1310988,1310996,1311004,0,0.00041943308,0.0004356263,0.00016013496,0.0,1,1,1,0,50,50,50,0,1,1,1,0,1,1,1,0
21740356000,1310988,1310988,1310996,1311004,0,0.0064574685,0.0031988085,0.0046147797,0.0,1310988,1310988,1310996,1311004,0,0.0016637205,0.0012207099,0.0028837472,0.0,1,1,1,0,50,50,50,0,1,1,1,0,1,1,1,0
21740556000,1310988,1310988,1310996,1311004,0,0.0072864853,0.004598537,0.011304806,0.0,1310988,1310988,1310996,1311004,0,0.0011470384,0.00075863,0.0016764508,0.0,1,1,1,0,50,50,50,0,1,1,1,0,1,1,1,0
21740760000,1310988,1310988,1310996,1311004,0,0.0060895355,0.0037869439,0.006379268,0.0,1310988,1310988,1310996,1311004,0,0.0018133114,0.0002508665,0.0016559266,0.0,1,1,1,0,50,50,50,0,1,1,1,0,1,1,1,0
21740960000,1310988,1310988,1310996,1311004,0,0.021092169,0.0344353,0.013938064,0.0,1310988,1310988,1310996,1311004,0,0.004023625,0.0044603017,0.00049011427,0.0,1,1,1,0,50,50,50,0,1,1,1,0,1,1,1,0
21741156000,1310988,1310988,1310996,1311004,0,0.0040482245,0.012238333,0.009127291,0.0,1310988,1310988,1310996,1311004,0,0.0011108624,0.0016423567,0.00070241,0.0,1,1,1,0,50,50,50,0,1,1,1,0,1,1,1,0
21741360000,1310988,1310988,1310996,1311004,0,0.007444936,0.0031015081,0.008011496,0.0,1310988,1310988,1310996,1311004,0,0.0061920374,0.0038153727,0.0023767105,0.0,1,1,1,0,50,50,50,0,1,1,1,0,1,1,1,0
21741556000,1310988,1310988,1310996,1311004,0,0.008165316,0.003824264,0.0043820003,0.0,1310988,1310988,1310996,1311004,0,0.0006482044,0.00036359677,0.00028766532,0.0,1,1,1,0,50,50,50,0,1,1,1,0,1,1,1,0
21741760000,1310988,1310988,1310996,1311004,0,0.014399632,0.0069195484,0.007641546,0.0,1310988,1310988,1310996,1311004,0,0.001658429,0.0007895927,0.00087220775,0.0,1,1,1,0,50,50,50,0,1,1,1,0,1,1,1,0
21741960000,1310988,1310988,1310996,1311004,0,0.0043028314,0.008024697,0.004057959,0.0,1310988,1310988,1310996,1311004,0,0.0018409771,0.00046196824,0.0021695464,0.0,1,1,1,0,50,50,50,0,1,1,1,0,1,1,1,0
21742160000,1310988,1310988,1310996,1311004,0,0.0032388947,0.0032243032,0.0016663867,0.0,1310988,1310988,1310996,1311004,0,0.0012535733,0.0010724976,0.0022555445,0.0,1,1,1,0,50,50,50,0,1,1,1,0,1,1,1,0
21742360000,1310988,1310988,1310996,1311004,0,0.0070175487,0.003328723,0.0037202847,0.0,1310988,1310988,1310996,1311004,0,0.0042781965,0.001952984,0.0023256098,0.0,1,1,1,0,50,50,50,0,1,1,1,0,1,1,1,0
21742556000,1310988,1310988,1310996,1311004,0,0.013836265,0.013511736,0.02644885,0.0,1310988,1310988,1310996,1311004,0,0.0022034948,0.002305129,0.0044853967,0.0,1,1,1,0,50,50,50,0,1,1,1,0,1,1,1,0
21742756000,1310988,1310988,1310996,1311004,0,0.019782605,0.016776133,0.035905775,0.0,1310988,1310988,1310996,1311004,0,0.00060331257,0.00031955348,0.0002948294,0.0,1,1,1,0,50,50,50,0,1,1,1,0,1,1,1,0
21742956000,1310988,1310988,1310996,1311004,0,0.011726867,0.0054280325,0.0076367497,0.0,1310988,1310988,1310996,1311004,0,0.004311464,0.002416754,0.0019160176,0.0,1,1,1,0,50,50,50,0,1,1,1,0,1,1,1,0
21743156000,1310988,1310988,1310996,1311004,0,0.0065509034,0.0025451449,0.008620652,0.0,1310988,1310988,1310996,1311004,0,0.00066247844,0.00026826237,0.00084522663,0.0,1,1,1,0,50,50,50,0,1,1,1,0,1,1,1,0
21743356000,1310988,1310988,1310996,1311004,0,0.008731936,0.0033157617,0.005800313,0.0,1310988,1310988,1310996,1311004,0,0.00054713106,0.0005224315,0.0006649586,0.0,1,1,1,0,50,50,50,0,1,1,1,0,1,1,1,0
21743560000,1310988,1310988,1310996,1311004,0,0.004254812,0.004141978,0.0026727319,0.0,1310988,1310988,1310996,1311004,0,0.00043118073,0.00026635194,0.00032023902,0.0,1,1,1,0,50,50,50,0,1,1,1,0,1,1,1,0
21743760000,1310988,1310988,1310996,1311004,0,0.03121777,0.017044924,0.048245575,0.0,1310988,1310988,1310996,1311004,0,0.0014813143,0.005055168,0.0065128063,0.0,1,1,1,0,50,50,50,0,1,1,1,0,1,1,1,0
21743960000,1310988,1310988,1310996,1311004,0,0.009828763,0.012192473,0.0029220209,0.0,1310988,1310988,1310996,1311004,0,0.0011955834,0.0014287293,0.00034689205,0.0,1,1,1,0,50,50,50,0,1,1,1,0,1,1,1,0
21744156000,1310988,1310988,1310996,1311004,0,0.038255796,0.018846788,0.019582061,0.0,1310988,1310988,1310996,1311004,0,0.00042234003,0.00022386589,0.00022342213,0.0,1,1,1,0,50,50,50,0,1,1,1,0,1,1,1,0
21744356000,1310988,1310988,1310996,1311004,0,0.00790723,0.014985125,0.018460156,0.0,1310988,1310988,1310996,1311004,0,0.00046397615,0.000534712,0.00018995928,0.0,1,1,1,0,50,50,50,0,1,1,1,0,1,1,1,0
21744556000,1310988,1310988,1310996,1311004,0,0.007064364,0.0017253209,0.005715329,0.0,1310988,1310988,1310996,1311004,0,0.0009344019,0.00030815823,0.0007322701,0.0,1,1,1,0,50,50,50,0,1,1,1,0,1,1,1,0
21744760000,1310988,1310988,1310996,1311004,0,0.006315058,0.016590208,0.016405705,0.0,1310988,1310988,1310996,1311004,0,0.0014998507,0.0012655095,0.0002775072,0.0,1,1,1,0,50,50,50,0,1,1,1,0,1,1,1,0
21744960000,1310988,1310988,1310996,1311004,0,0.010039885,0.0027083438,0.01120569,0.0,1310988,1310988,1310996,1311004,0,0.0013316665,0.0011670608,0.0024629356,0.0,1,1,1,0,50,50,50,0,1,1,1,0,1,1,1,0
21745160000,1310988,1310988,1310996,1311004,0,0.007297791,0.0034487771,0.005635909,0.0,1310988,1310988,1310996,1311004,0,0.0022217794,0.001311287,0.00093171874,0.0,1,1,1,0,50,50,50,0,1,1,1,0,1,1,1,0
21745360000,1310988,1310988,1310996,1311004,0,0.005669458,0.0045498204,0.0038801613,0.0,1310988,1310988,1310996,1311004,0,0.00026561777,0.00018490448,0.00013322908,0.0,1,1,1,0,50,50,50,0,1,1,1,0,1,1,1,0
21745556000,1310988,1310988,1310996,1311004,0,0.01282476,0.027350292,0.039160527,0.0,1310988,1310988,1310996,1311004,0,0.005799359,0.0032202038,0.0025998936,0.0,1,1,1,0,50,50,50,0,1,1,1,0,1,1,1,0
21745760000,1310988,1310988,1310996,1311004,0,0.0105899945,0.021553077,0.011097151,0.0,1310988,1310988,1310996,1311004,0,0.0026190488,0.006035982,0.0034249336,0.0,1,1,1,0,50,50,50,0,1,1,1,0,1,1,1,0
21745960000,1310988,1310988,1310996,1311004,0,0.0129912505,0.010001286,0.019888818,0.0,1310988,1310988,1310996,1311004,0,0.003937689,0.004032355,0.0003194189,0.0,1,1,1,0,50,50,50,0,1,1,1,0,1,1,1,0
21746156000,1310988,1310988,1310996,1311004,0,0.00591911,0.0043332176,0.002213405,0.0,1310988,1310988,1310996,1311004,0,0.00036727442,0.0004435914,0.00031747067,0.0,1,1,1,0,50,50,50,0,1,1,1,0,1,1,1,0
21746356000,1310988,1310988,1310996,1311004,0,0.0056045773,0.01101091,0.0056916336,0.0,1310988,1310988,1310996,1311004,0,0.0019615074,0.0009427196,0.0010256633,0.0,1,1,1,0,50,50,50,0,1,1,1,0,1,1,1,0
21746556000,1310988,1310988,1310996,1311004,0,0.0031941608,0.0062941145,0.005036177,0.0,1310988,1310988,1310996,1311004,0,0.00034314275,0.000100318095,0.00035103533,0.0,1,1,1,0,50,50,50,0,1,1,1,0,1,1,1,0
21746756000,1310988,1310988,1310996,1311004,0,0.010666321,0.006113911,0.0049620103,0.0,1310988,1310988,1310996,1311004,0,0.0055356864,0.0034881409,0.0020511681,0.0,1,1,1,0,50,50,50,0,1,1,1,0,1,1,1,0
21746956000,1310988,1310988,1310996,1311004,0,0.005365882,0.0051083555,0.008526757,0.0,1310988,1310988,1310996,1311004,0,0.00066624157,0.00011565599,0.00066405395,0.0,1,1,1,0,50,50,50,0,1,1,1,0,1,1,1,0
21747156000,1310988,1310988,1310996,1311004,0,0.004522269,0.0036895887,0.0070888344,0.0,1310988,1310988,1310996,1311004,0,0.007654458,0.004991426,0.0027006774,0.0,1,1,1,0,50,50,50,0,1,1,1,0,1,1,1,0
21747356000,1310988,1310988,1310996,1311004,0,0.011558827,0.0077337977,0.019028198,0.0,1310988,1310988,1310996,1311004,0,0.0010011025,0.00020917761,0.0010662699,0.0,1,1,1,0,50,50,50,0,1,1,1,0,1,1,1,0
21747556000,1310988,1310988,1310996,1311004,0,0.0045450376,0.003434104,0.006471506,0.0,1310988,1310988,1310996,1311004,0,0.0021845123,0.004470588,0.0022895336,0.0,1,1,1,0,50,50,50,0,1,1,1,0,1,1,1,0
21747756000,1310988,1310988,1310996,1311004,0,0.011814266,0.0066715525,0.0055191773,0.0,1310988,1310988,1310996,1311004,0,0.00023121819,0.00023959191,0.0004363211,0.0,1,1,1,0,50,50,50,0,1,1,1,0,1,1,1,0
21747956000,1310988,1310988,1310996,1311004,0,0.004758709,0.00838843,0.004132428,0.0,1310988,1310988,1310996,1311004,0,0.0026220442,0.0013229412,0.0013170515,0.0,1,1,1,0,50,50,50,0,1,1,1,0,1,1,1,0
21748156000,1310988,1310988,1310996,1311004,0,0.019737743,0.0096901525,0.0100505045,0.0,1310988,1310988,1310996,1311004,0,0.0034778079,0.0017811656,0.0016967872,0.0,1,1,1,0,50,50,50,0,1,1,1,0,1,1,1,0
21748356000,1310988,1310988,1310996,1311004,0,0.022854058,0.055502765,0.03574185,0.0,1310988,1310988,1310996,1311004,0,0.0057361065,0.006956864,0.01268815,0.0,1,1,1,0,50,50,50,0,1,1,1,0,1,1,1,0
21748556000,1310988,1310988,1310996,1311004,0,0.014694304,0.038895715,0.024453806,0.0,1310988,1310988,1310996,1311004,0,0.0053983335,0.002895769,0.0025025792,0.0,1,1,1,0,50,50,50,0,1,1,1,0,1,1,1,0
21748756000,1310988,1310988,1310996,1311004,0,0.039077953,0.011732039,0.027800342,0.0,1310988,1310988,1310996,1311004,0,0.0009901731,0.0021413083,0.0031194172,0.0,1,1,1,0,50,50,50,0,1,1,1,0,1,1,1,0
21748956000,1310988,1310988,1310996,1311004,0,0.006596188,0.0100492,0.014722812,0.0,1310988,1310988,1310996,1311004,0,0.0010839882,0.00072455883,0.0018082147,0.0,1,1,1,0,50,50,50,0,1,1,1,0,1,1,1,0
21749156000,1310988,1310988,1310996,1311004,0,0.0074578263,0.0039267023,0.011361045,0.0,1310988,1310988,1310996,1311004,0,0.00028190087,0.0002340788,0.00016055001,0.0,1,1,1,0,50,50,50,0,1,1,1,0,1,1,1,0
21749360000,1310988,1310988,1310996,1311004,0,0.005805947,0.0028583687,0.0029810024,0.0,1310988,1310988,1310996,1311004,0,0.0013247444,0.0010395778,0.0023420393,0.0,1,1,1,0,50,50,50,0,1,1,1,0,1,1,1,0
21749556000,1310988,1310988,1310996,1311004,0,0.009577405,0.0044850414,0.005972689,0.0,1310988,1310988,1310996,1311004,0,0.00024257039,0.00024562574,0.000137067,0.0,1,1,1,0,50,50,50,0,1,1,1,0,1,1,1,0
21749760000,1310988,1310988,1310996,1311004,0,0.027728012,0.04856133,0.029454133,0.0,1310988,1310988,1310996,1311004,0,0.014578184,0.0074922224,0.0070860824,0.0,1,1,1,0,50,50,50,0,1,1,1,0,1,1,1,0
21749956000,1310988,1310988,1310996,1311004,0,0.019707337,0.011106618,0.027839608,0.0,1310988,1310988,1310996,1311004,0,0.00807122,0.0085441815,0.00049143704,0.0,1,1,1,0,50,50,50,0,1,1,1,0,1,1,1,0
21750156000,1310988,1310988,1310996,1311004,0,0.001800739,0.0054458394,0.003762114,0.0,1310988,1310988,1310996,1311004,0,0.0041559814,0.0031295277,0.0072719315,0.0,1,1,1,0,50,50,50,0,1,1,1,0,1,1,1,0
21750356000,1310988,1310988,1310996,1311004,0,0.006684732,0.0018276764,0.0049203876,0.0,1310988,1310988,1310996,1311004,0,0.004561623,0.0017096746,0.0028555056,0.0,1,1,1,0,50,50,50,0,1,1,1,0,1,1,1,0
21750560000,1310988,1310988,1310996,1311004,0,0.02527993,0.012540989,0.012741507,0.0,1310988,1310988,1310996,1311004,0,0.00090696354,0.0004970163,0.00040996794,0.0,1,1,1,0,50,50,50,0,1,1,1,0,1,1,1,0
21750756000,1310988,1310988,1310996,1311004,0,0.0070567993,0.0034436923,0.0041393326,0.0,1310988,1310988,1310996,1311004,0,0.0008110958,0.001765218,0.0009644375,0.0,1,1,1,0,50,50,50,0,1,1,1,0,1,1,1,0
21750960000,1310988,1310988,1310996,1311004,0,0.0058274125,0.0044349697,0.008819432,0.0,1310988,1310988,1310996,1311004,0,0.0008279084,0.0025301334,0.0018017604,0.0,1,1,1,0,50,50,50,0,1,1,1,0,1,1,1,0
21751156000,1310988,1310988,1310996,1311004,0,0.013097708,0.0064869234,0.0071338033,0.0,1310988,1310988,1310996,1311004,0,0.005919611,0.0027328285,0.0031911246,0.0,1,1,1,0,50,50,50,0,1,1,1,0,1,1,1,0
21751360000,1310988,1310988,1310996,1311004,0,0.028150752,0.018966686,0.013662396,0.0,1310988,1310988,1310996,1311004,0,0.005179557,0.0014473511,0.0037458388,0.0,1,1,1,0,50,50,50,0,1,1,1,0,1,1,1,0
21751560000,1310988,1310988,1310996,1311004,0,0.0034701643,0.015098756,0.016646167,0.0,1310988,1310988,1310996,1311004,0,0.0022164893,0.00054016826,0.0026933786,0.0,1,1,1,0,50,50,50,0,1,1,1,0,1,1,1,0
21751756000,1310988,1310988,1310996,1311004,0,0.02272727,0.01127529,0.012239005,0.0,1310988,1310988,1310996,1311004,0,0.006561656,0.0033081719,0.0032812064,0.0,1,1,1,0,50,50,50,0,1,1,1,0,1,1,1,0
21751956000,1310988,1310988,1310996,1311004,0,0.008900712,0.0066504627,0.015461005,0.0,1310988,1310988,1310996,1311004,0,0.0021303778,0.0056854915,0.003555766,0.0,1,1,1,0,50,50,50,0,1,1,1,0,1,1,1,0
21752156000,1310988,1310988,1310996,1311004,0,0.021752523,0.009137456,0.012686282,0.0,1310988,1310988,1310996,1311004,0,0.001091997,0.00016880265,0.0009983378,0.0,1,1,1,0,50,50,50,0,1,1,1,0,1,1,1,0
21752356000,1310988,1310988,1310996,1311004,0,0.005746592,0.0061744065,0.01099869,0.0,1310988,1310988,1310996,1311004,0,0.00033155526,0.0016599832,0.0019342819,0.0,1,1,1,0,50,50,50,0,1,1,1,0,1,1,1,0
21752560000,1310988,1310988,1310996,1311004,0,0.02273234,0.04780458,0.02539713,0.0,1310988,1310988,1310996,1311004,0,0.0007345385,0.005048948,0.004355251,0.0,1,1,1,0,50,50,50,0,1,1,1,0,1,1,1,0
21752760000,1310988,1310988,1310996,1311004,0,0.009353463,0.004435156,0.0058560767,0.0,1310988,1310988,1310996,1311004,0,0.0012872181,0.00092268747,0.0006547987,0.0,1,1,1,0,50,50,50,0,1,1,1,0,1,1,1,0
21752956000,1310988,1310988,1310996,1311004,0,0.0034835024,0.008233029,0.009340044,0.0,1310988,1310988,1310996,1311004,0,0.0033910805,0.0022804223,0.0056673978,0.0,1,1,1,0,50,50,50,0,1,1,1,0,1,1,1,0
21753160000,1310988,1310988,1310996,1311004,0,0.01812122,0.009400106,0.0099839335,0.0,1310988,1310988,1310996,1311004,0,0.0022274547,0.0014102972,0.0008342518,0.0,1,1,1,0,50,50,50,0,1,1,1,0,1,1,1,0
21753360000,1310988,1310988,1310996,1311004,0,0.009901635,0.010318276,0.002440878,0.0,1310988,1310988,1310996,1311004,0,0.0007431424,0.0010945218,0.00035596735,0.0,1,1,1,0,50,50,50,0,1,1,1,0,1,1,1,0
21753556000,1310988,1310988,1310996,1311004,0,0.005148211,0.0044200276,0.001418883,0.0,1310988,1310988,1310996,1311004,0,0.0014572635,0.0022149088,0.0036642747,0.0,1,1,1,0,50,50,50,0,1,1,1,0,1,1,1,0
21753756000,1310988,1310988,1310996,1311004,0,0.008763571,0.0027978476,0.009300713,0.0,1310988,1310988,1310996,1311004,0,0.001166277,0.0017097873,0.0028584832,0.0,1,1,1,0,50,50,50,0,1,1,1,0,1,1,1,0
21753956000,1310988,1310988,1310996,1311004,0,0.0073866127,0.0035583775,0.0041792328,0.0,1310988,1310988,1310996,1311004,0,0.00028260372,0.0001568116,0.0003972337,0.0,1,1,1,0,50,50,50,0,1,1,1,0,1,1,1,0
21754156000,1310988,1310988,1310996,1311004,0,0.06782031,0.033559002,0.034275837,0.0,1310988,1310988,1310996,1311004,0,0.004502524,0.0022192616,0.0022840542,0.0,1,1,1,0,50,50,50,0,1,1,1,0,1,1,1,0
21754360000,1310988,1310988,1310996,1311004,0,0.013139539,0.017585626,0.030563204,0.0,1310988,1310988,1310996,1311004,0,0.0017270697,0.012214476,0.010496559,0.0,1,1,1,0,50,50,50,0,1,1,1,0,1,1,1,0
21754556000,1310988,1310988,1310996,1311004,0,0.004455401,0.0004939124,0.004013778,0.0,1310988,1310988,1310996,1311004,0,0.0014430758,0.00020675396,0.0016407534,0.0,1,1,1,0,50,50,50,0,1,1,1,0,1,1,1,0
21754756000,1310988,1310988,1310996,1311004,0,0.018119257,0.008825514,0.009482701,0.0,1310988,1310988,1310996,1311004,0,0.0029044095,0.0012988462,0.0016060919,0.0,1,1,1,0,50,50,50,0,1,1,1,0,1,1,1,0
21754956000,1310988,1310988,1310996,1311004,0,0.00672693,0.020455204,0.017524533,0.0,1310988,1310988,1310996,1311004,0,0.00068640057,0.0010355857,0.0015442983,0.0,1,1,1,0,50,50,50,0,1,1,1,0,1,1,1,0
21755160000,1310988,1310988,1310996,1311004,0,0.010766829,0.0074146283,0.0071555567,0.0,1310988,1310988,1310996,1311004,0,0.00036537883,0.00033787498,0.00030431338,0.0,1,1,1,0,50,50,50,0,1,1,1,0,1,1,1,0
21755356000,1310988,1310988,1310996,1311004,0,0.0012788113,0.0020456295,0.0017486233,0.0,1310988,1310988,1310996,1311004,0,0.00088716426,0.000529934,0.00069185335,0.0,1,1,1,0,50,50,50,0,1,1,1,0,1,1,1,0
21755560000,1310988,1310988,1310996,1311004,0,0.025496697,0.04278142,0.017335216,0.0,1310988,1310988,1310996,1311004,0,0.0062555014,0.007609547,0.0013713448,0.0,1,1,1,0,50,50,50,0,1,1,1,0,1,1,1,0
21755756000,1310988,1310988,1310996,1311004,0,0.0068942583,0.0048554447,0.006595978,0.0,1310988,1310988,1310996,1311004,0,0.0006938467,0.00025075814,0.00052427,0.0,1,1,1,0,50,50,50,0,1,1,1,0,1,1,1,0
21755960000,1310988,1310988,1310996,1311004,0,0.019996686,0.022030272,0.008909372,0.0,1310988,1310988,1310996,1311004,0,0.0015801609,0.0070021544,0.008581509,0.0,1,1,1,0,50,50,50,0,1,1,1,0,1,1,1,0
21756156000,1310988,1310988,1310996,1311004,0,0.00410972,0.002458475,0.0025045853,0.0,1310988,1310988,1310996,1311004,0,0.0005311601,0.00033092787,0.00079731125,0.0,1,1,1,0,50,50,50,0,1,1,1,0,1,1,1,0
21756356000,1310988,1310988,1310996,1311004,0,0.014072651,0.0071241544,0.0069613,0.0,1310988,1310988,1310996,1311004,0,0.001476995,0.0007197913,0.0007578614,0.0,1,1,1,0,50,50,50,0,1,1,1,0,1,1,1,0
21756556000,1310988,1310988,1310996,1311004,0,0.0095542865,0.0042755324,0.005384156,0.0,1310988,1310988,1310996,1311004,0,0.00082156196,0.00034256314,0.0004949545,0.0,1,1,1,0,50,50,50,0,1,1,1,0,1,1,1,0
21756760000,1310988,1310988,1310996,1311004,0,0.010398733,0.0029303683,0.009231958,0.0,1310988,1310988,1310996,1311004,0,0.00080178486,0.0011818223,0.0003933755,0.0,1,1,1,0,50,50,50,0,1,1,1,0,1,1,1,0
21756956000,1310988,1310988,1310996,1311004,0,0.005959267,0.03202522,0.027370134,0.0,1310988,1310988,1310996,1311004,0,0.000399823,0.005865288,0.0061571226,0.0,1,1,1,0,50,50,50,0,1,1,1,0,1,1,1,0
21757156000,1310988,1310988,1310996,1311004,0,0.004503827,0.004590203,0.0020617077,0.0,1310988,1310988,1310996,1311004,0,0.00030747493,0.000456885,0.00015337302,0.0,1,1,1,0,50,50,50,0,1,1,1,0,1,1,1,0
21757356000,1310988,1310988,1310996,1311004,0,0.004063227,0.002918117,0.0014319074,0.0,1310988,1310988,1310996,1311004,0,0.00043403034,0.00020015764,0.00041298484,0.0,1,1,1,0,50,50,50,0,1,1,1,0,1,1,1,0
21757556000,1310988,1310988,1310996,1311004,0,0.0041738204,0.0037229601,0.0013611151,0.0,1310988,1310988,1310996,1311004,0,0.00024247631,0.000321168,0.00011327601,0.0,1,1,1,0,50,50,50,0,1,1,1,0,1,1,1,0
21757756000,1310988,1310988,1310996,1311004,0,0.009994958,0.007821038,0.015205694,0.0,1310988,1310988,1310996,1311004,0,0.0009065172,0.0011546719,0.002008429,0.0,1,1,1,0,50,50,50,0,1,1,1,0,1,1,1,0
21757960000,1310988,1310988,1310996,1311004,0,0.004220928,0.0018387332,0.00260036,0.0,1310988,1310988,1310996,1311004,0,0.00015646676,0.00018056408,7.822889e-05,0.0,1,1,1,0,50,50,50,0,1,1,1,0,1,1,1,0
21758160000,1310988,1310988,1310996,1311004,0,0.0019404518,0.0009439082,0.0010003757,0.0,1310988,1310988,1310996,1311004,0,0.00025948035,0.00013322088,0.00012678302,0.0,1,1,1,0,50,50,50,0,1,1,1,0,1,1,1,0
21758356000,1310988,1310988,1310996,1311004,0,0.006120987,0.0026570058,0.0035392828,0.0,1310988,1310988,1310996,1311004,0,0.00031688195,0.00019526143,0.00015382482,0.0,1,1,1,0,50,50,50,0,1,1,1,0,1,1,1,0
21758560000,1310988,1310988,1310996,1311004,0,0.0054067182,0.0039034984,0.003415825,0.0,1310988,1310988,1310996,1311004,0,0.00038354986,7.597082e-05,0.00038640882,0.0,1,1,1,0,50,50,50,0,1,1,1,0,1,1,1,0
21758756000,1310988,1310988,1310996,1311004,0,0.003648625,0.0016685446,0.0019834777,0.0,1310988,1310988,1310996,1311004,0,0.0003523282,0.00015545402,0.00019912422,0.0,1,1,1,0,50,50,50,0,1,1,1,0,1,1,1,0
21758956000,1310988,1310988,1310996,1311004,0,0.005630622,0.0038882236,0.008750082,0.0,1310988,1310988,1310996,1311004,0,0.0006689899,0.00055152486,0.0011481652,0.0,1,1,1,0,50,50,50,0,1,1,1,0,1,1,1,0
21759156000,1310988,1310988,1310996,1311004,0,0.02549323,0.025221819,0.0033235594,0.0,1310988,1310988,1310996,1311004,0,0.002318446,0.0028868883,0.00056956906,0.0,1,1,1,0,50,50,50,0,1,1,1,0,1,1,1,0
21759356000,1310988,1310988,1310996,1311004,0,0.003321774,0.0015416233,0.0018355269,0.0,1310988,1310988,1310996,1311004,0,0.00057248597,0.00022326467,0.00042154337,0.0,1,1,1,0,50,50,50,0,1,1,1,0,1,1,1,0
21759560000,1310988,1310988,1310996,1311004,0,0.005152675,0.0024358504,0.0050981194,0.0,1310988,1310988,1310996,1311004,0,0.00037391824,0.00021610821,0.0003212104,0.0,1,1,1,0,50,50,50,0,1,1,1,0,1,1,1,0
21759760000,1310988,1310988,1310996,1311004,0,0.0056352885,0.0022010813,0.0036813049,0.0,1310988,1310988,1310996,1311004,0,0.001156607,0.0020692495,0.0009158643,0.0,1,1,1,0,50,50,50,0,1,1,1,0,1,1,1,0
21759956000,1310988,1310988,1310996,1311004,0,0.0034766304,0.0034830084,0.0058398186,0.0,1310988,1310988,1310996,1311004,0,0.009688623,0.0046861833,0.005004092,0.0,1,1,1,0,50,50,50,0,1,1,1,0,1,1,1,0
21760156000,1310988,1310988,1310996,1311004,0,0.0048850086,0.004152069,0.0017365005,0.0,1310988,1310988,1310996,1311004,0,0.0024973557,0.0008469376,0.001683115,0.0,1,1,1,0,50,50,50,0,1,1,1,0,1,1,1,0
21760356000,1310988,1310988,1310996,1311004,0,0.010325226,0.0060336413,0.004294723,0.0,1310988,1310988,1310996,1311004,0,0.0013077679,0.0009011564,0.0006536914,0.0,1,1,1,0,50,50,50,0,1,1,1,0,1,1,1,0
21760556000,1310988,1310988,1310996,1311004,0,0.028558852,0.031221436,0.005651774,0.0,1310988,1310988,1310996,1311004,0,0.0024367482,0.0016749135,0.00078548625,0.0,1,1,1,0,50,50,50,0,1,1,1,0,1,1,1,0
21760760000,1310988,1310988,1310996,1311004,0,0.008149622,0.010135208,0.004781207,0.0,1310988,1310988,1310996,1311004,0,0.0012323416,0.0026327202,0.0014222302,0.0,1,1,1,0,50,50,50,0,1,1,1,0,1,1,1,0
21760956000,1310988,1310988,1310996,1311004,0,0.00867946,0.004946799,0.003816201,0.0,1310988,1310988,1310996,1311004,0,0.0002150036,9.1938215e-05,0.00024245807,0.0,1,1,1,0,50,50,50,0,1,1,1,0,1,1,1,0
21761160000,1310988,1310988,1310996,1311004,0,0.008880627,0.0025777612,0.009383731,0.0,1310988,1310988,1310996,1311004,0,0.0005582367,0.0005126716,0.0008190243,0.0,1,1,1,0,50,50,50,0,1,1,1,0,1,1,1,0
21761360000,1310988,1310988,1310996,1311004,0,0.013656836,0.0061861766,0.0075943274,0.0,1310988,1310988,1310996,1311004,0,0.002472261,0.0012811518,0.0012105531,0.0,1,1,1,0,50,50,50,0,1,1,1,0,1,1,1,0
21761556000,1310988,1310988,1310996,1311004,0,0.04179778,0.02096137,0.020899175,0.0,1310988,1310988,1310996,1311004,0,0.0064721457,0.0032491437,0.003223846,0.0,1,1,1,0,50,50,50,0,1,1,1,0,1,1,1,0
21761756000,1310988,1310988,1310996,1311004,0,0.010745613,0.038291477,0.03947949,0.0,1310988,1310988,1310996,1311004,0,0.00530243,0.0011703674,0.0041761366,0.0,1,1,1,0,50,50,50,0,1,1,1,0,1,1,1,0
21761960000,1310988,1310988,1310996,1311004,0,0.0045211394,0.004466648,0.0076842625,0.0,1310988,1310988,1310996,1311004,0,0.0005498721,0.0003348954,0.00036029844,0.0,1,1,1,0,50,50,50,0,1,1,1,0,1,1,1,0
21762156000,1310988,1310988,1310996,1311004,0,0.02320801,0.016056146,0.009766418,0.0,1310988,1310988,1310996,1311004,0,0.00037793914,0.0005592174,0.0004667504,0.0,1,1,1,0,50,50,50,0,1,1,1,0,1,1,1,0
21762360000,1310988,1310988,1310996,1311004,0,0.007287918,0.0038709992,0.0034351833,0.0,1310988,1310988,1310996,1311004,0,0.00033004512,0.00018598847,0.00015839134,0.0,1,1,1,0,50,50,50,0,1,1,1,0,1,1,1,0
21762560000,1310988,1310988,1310996,1311004,0,0.0017597078,0.0022285213,0.0019947875,0.0,1310988,1310988,1310996,1311004,0,0.00023767588,0.0001545574,0.00015943218,0.0,1,1,1,0,50,50,50,0,1,1,1,0,1,1,1,0
21762756000,1310988,1310988,1310996,1311004,0,0.0057092793,0.0020759718,0.003773718,0.0,1310988,1310988,1310996,1311004,0,0.00017345192,9.107606e-05,0.00012884657,0.0,1,1,1,0,50,50,50,0,1,1,1,0,1,1,1,0
21762960000,1310988,1310988,1310996,1311004,0,0.023591971,0.028335484,0.05137682,0.0,1310988,1310988,1310996,1311004,0,0.0011759123,0.0009604751,0.00026452122,0.0,1,1,1,0,50,50,50,0,1,1,1,0,1,1,1,0
21763156000,1310988,1310988,1310996,1311004,0,0.0045004,0.0048633465,0.006707688,0.0,1310988,1310988,1310996,1311004,0,0.0010085693,0.0005619698,0.00048242,0.0,1,1,1,0,50,50,50,0,1,1,1,0,1,1,1,0
21763356000,1310988,1310988,1310996,1311004,0,0.016289348,0.011983887,0.028017484,0.0,1310988,1310988,1310996,1311004,0,0.00077718066,0.0005519812,0.0013107482,0.0,1,1,1,0,50,50,50,0,1,1,1,0,1,1,1,0
21763556000,1310988,1310988,1310996,1311004,0,0.036888644,0.018608501,0.018371208,0.0,1310988,1310988,1310996,1311004,0,0.0018916009,0.00082616863,0.0010801331,0.0,1,1,1,0,50,50,50,0,1,1,1,0,1,1,1,0
21763756000,1310988,1310988,1310996,1311004,0,0.0061230483,0.0026164537,0.003722451,0.0,1310988,1310988,1310996,1311004,0,0.00014658492,0.00016006763,0.0001410179,0.0,1,1,1,0,50,50,50,0,1,1,1,0,1,1,1,0
21763956000,1310988,1310988,1310996,1311004,0,0.0069820615,0.003534656,0.003915724,0.0,1310988,1310988,1310996,1311004,0,0.00032148446,0.00022606725,0.000101167265,0.0,1,1,1,0,50,50,50,0,1,1,1,0,1,1,1,0
21764160000,1310988,1310988,1310996,1311004,0,0.004135923,0.0017723573,0.0027044618,0.0,1310988,1310988,1310996,1311004,0,0.00016448738,7.694266e-05,0.00012596662,0.0,1,1,1,0,50,50,50,0,1,1,1,0,1,1,1,0
21764360000,1310988,1310988,1310996,1311004,0,0.0022290281,0.0071005607,0.006799921,0.0,1310988,1310988,1310996,1311004,0,0.00053049746,0.005262743,0.0057870713,0.0,1,1,1,0,50,50,50,0,1,1,1,0,1,1,1,0
21764556000,1310988,1310988,1310996,1311004,0,0.006341337,0.0044624833,0.0054523814,0.0,1310988,1310988,1310996,1311004,0,0.0004433204,0.00030769606,0.0006508384,0.0,1,1,1,0,50,50,50,0,1,1,1,0,1,1,1,0
21764756000,1310988,1310988,1310996,1311004,0,0.027717803,0.051667232,0.024625396,0.0,1310988,1310988,1310996,1311004,0,0.002555289,0.0042147604,0.0016761619,0.0,1,1,1,0,50,50,50,0,1,1,1,0,1,1,1,0
21764956000,1310988,1310988,1310996,1311004,0,0.025163788,0.044128805,0.01923691,0.0,1310988,1310988,1310996,1311004,0,0.0019224399,0.0035661059,0.0016533454,0.0,1,1,1,0,50,50,50,0,1,1,1,0,1,1,1,0
21765156000,1310988,1310988,1310996,1311004,0,0.0047012763,0.0039928523,0.0026517967,0.0,1310988,1310988,1310996,1311004,0,0.00020628439,0.00013696161,0.00028819044,0.0,1,1,1,0,50,50,50,0,1,1,1,0,1,1,1,0
21765360000,1310988,1310988,1310996,1311004,0,0.0060337675,0.0033516188,0.0041629635,0.0,1310988,1310988,1310996,1311004,0,0.00036909917,0.00011568914,0.00045639518,0.0,1,1,1,0,50,50,50,0,1,1,1,0,1,1,1,0
21765560000,1310988,1310988,1310996,1311004,0,0.005059764,0.0029701265,0.0021282507,0.0,1310988,1310988,1310996,1311004,0,0.00029470373,0.00015567569,0.00016509065,0.0,1,1,1,0,50,50,50,0,1,1,1,0,1,1,1,0
21765756000,1310988,1310988,1310996,1311004,0,0.021677727,0.008575465,0.013134611,0.0,1310988,1310988,1310996,1311004,0,0.005188053,0.0024557076,0.002737364,0.0,1,1,1,0,50,50,50,0,1,1,1,0,1,1,1,0
21765956000,1310988,1310988,1310996,1311004,0,0.005723896,0.0020011994,0.004098073,0.0,1310988,1310988,1310996,1311004,0,0.00095215935,0.0014713225,0.00052746176,0.0,1,1,1,0,50,50,50,0,1,1,1,0,1,1,1,0
21766160000,1310988,1310988,1310996,1311004,0,0.02598248,0.013003025,0.012985586,0.0,1310988,1310988,1310996,1311004,0,0.0051836404,0.0025611117,0.002623294,0.0,1,1,1,0,50,50,50,0,1,1,1,0,1,1,1,0
21766360000,1310988,1310988,1310996,1311004,0,0.009335523,0.0160509,0.0076063275,0.0,1310988,1310988,1310996,1311004,0,0.0014467719,0.0024975373,0.0010600196,0.0,1,1,1,0,50,50,50,0,1,1,1,0,1,1,1,0
21766560000,1310988,1310988,1310996,1311004,0,0.0060684653,0.00087556354,0.005198167,0.0,1310988,1310988,1310996,1311004,0,0.00029066816,5.906623e-05,0.00029287176,0.0,1,1,1,0,50,50,50,0,1,1,1,0,1,1,1,0
21766756000,1310988,1310988,1310996,1311004,0,0.010778243,0.005164519,0.006176152,0.0,1310988,1310988,1310996,1311004,0,0.0021751216,0.0010616034,0.0011419528,0.0,1,1,1,0,50,50,50,0,1,1,1,0,1,1,1,0
21766956000,1310988,1310988,1310996,1311004,0,0.0046686344,0.0068100463,0.0030117198,0.0,1310988,1310988,1310996,1311004,0,0.0010190149,0.0013487014,0.00036498823,0.0,1,1,1,0,50,50,50,0,1,1,1,0,1,1,1,0
21767156000,1310988,1310988,1310996,1311004,0,0.0032750822,0.0026379388,0.0036852658,0.0,1310988,1310988,1310996,1311004,0,0.0003353535,0.00023506163,0.00018596648,0.0,1,1,1,0,50,50,50,0,1,1,1,0,1,1,1,0
21767360000,1310988,1310988,1310996,1311004,0,0.0045280764,0.015115875,0.010910485,0.0,1310988,1310988,1310996,1311004,0,0.0044206893,0.005767039,0.0013735351,0.0,1,1,1,0,50,50,50,0,1,1,1,0,1,1,1,0
21767560000,1310988,1310988,1310996,1311004,0,0.0041429996,0.0026745484,0.0024486752,0.0,1310988,1310988,1310996,1311004,0,0.0006879695,0.0006135668,0.00013441741,0.0,1,1,1,0,50,50,50,0,1,1,1,0,1,1,1,0
21767756000,1310988,1310988,1310996,1311004,0,0.011834297,0.01442758,0.025922501,0.0,1310988,1310988,1310996,1311004,0,0.0013346627,0.0014463902,0.0027637854,0.0,1,1,1,0,50,50,50,0,1,1,1,0,1,1,1,0
21767956000,1310988,1310988,1310996,1311004,0,0.005116864,0.002100327,0.00350365,0.0,1310988,1310988,1310996,1311004,0,0.00017331606,0.00020732809,0.00016489848,0.0,1,1,1,0,50,50,50,0,1,1,1,0,1,1,1,0
21768156000,1310988,1310988,1310996,1311004,0,0.0032531312,0.0015877025,0.0016711883,0.0,1310988,1310988,1310996,1311004,0,0.00031648506,0.00015826705,0.00015924659,0.0,1,1,1,0,50,50,50,0,1,1,1,0,1,1,1,0
21768360000,1310988,1310988,1310996,1311004,0,0.0071733226,0.004301501,0.0059753633,0.0,1310988,1310988,1310996,1311004,0,0.0019184136,0.0023651917,0.0005369212,0.0,1,1,1,0,50,50,50,0,1,1,1,0,1,1,1,0
21768556000,1310988,1310988,1310996,1311004,0,0.015040784,0.0054470897,0.009840422,0.0,1310988,1310988,1310996,1311004,0,0.002248361,0.001218957,0.0010403843,0.0,1,1,1,0,50,50,50,0,1,1,1,0,1,1,1,0
21768756000,1310988,1310988,1310996,1311004,0,0.010420598,0.009017134,0.0015037511,0.0,1310988,1310988,1310996,1311004,0,0.009220761,0.0053175255,0.0039047725,0.0,1,1,1,0,50,50,50,0,1,1,1,0,1,1,1,0
21768956000,1310988,1310988,1310996,1311004,0,0.025947863,0.01181644,0.014453411,0.0,1310988,1310988,1310996,1311004,0,0.0036618803,0.0021626623,0.0015172343,0.0,1,1,1,0,50,50,50,0,1,1,1,0,1,1,1,0
21769160000,1310988,1310988,1310996,1311004,0,0.015137793,0.019416675,0.03294118,0.0,1310988,1310988,1310996,1311004,0,0.0036580143,0.0077014025,0.0040605413,0.0,1,1,1,0,50,50,50,0,1,1,1,0,1,1,1,0
21769360000,1310988,1310988,1310996,1311004,0,0.01566334,0.0051322323,0.011199666,0.0,1310988,1310988,1310996,1311004,0,0.00054032874,0.0038393445,0.003545839,0.0,1,1,1,0,50,50,50,0,1,1,1,0,1,1,1,0
21769556000,1310988,1310988,1310996,1311004,0,0.004021837,0.0024066216,0.0019462062,0.0,1310988,1310988,1310996,1311004,0,0.00055075006,0.0005411433,0.0001301154,0.0,1,1,1,0,50,50,50,0,1,1,1,0,1,1,1,0
21769756000,1310988,1310988,1310996,1311004,0,0.005006304,0.0025333392,0.0024762521,0.0,1310988,1310988,1310996,1311004,0,0.00020956309,0.00011954279,9.275703e-05,0.0,1,1,1,0,50,50,50,0,1,1,1,0,1,1,1,0
21769960000,1310988,1310988,1310996,1311004,0,0.0041832193,0.0030996723,0.0020870105,0.0,1310988,1310988,1310996,1311004,0,0.00023002211,0.00020343704,5.933999e-05,0.0,1,1,1,0,50,50,50,0,1,1,1,0,1,1,1,0
21770160000,1310988,1310988,1310996,1311004,0,0.007933374,0.004067735,0.008102442,0.0,1310988,1310988,1310996,1311004,0,0.0018451752,0.0009643663,0.00089332444,0.0,1,1,1,0,50,50,50,0,1,1,1,0,1,1,1,0
21770356000,1310988,1310988,1310996,1311004,0,0.02728225,0.042904668,0.016376939,0.0,1310988,1310988,1310996,1311004,0,0.0042844936,0.0076604444,0.0033877003,0.0,1,1,1,0,50,50,50,0,1,1,1,0,1,1,1,0
21770560000,1310988,1310988,1310996,1311004,0,0.0040331827,0.0022201496,0.0037438874,0.0,1310988,1310988,1310996,1311004,0,0.00044463607,0.00067548663,0.00023743798,0.0,1,1,1,0,50,50,50,0,1,1,1,0,1,1,1,0
21770756000,1310988,1310988,1310996,1311004,0,0.009159283,0.01271936,0.020665051,0.0,1310988,1310988,1310996,1311004,0,0.0021338363,0.001981396,0.0040701064,0.0,1,1,1,0,50,50,50,0,1,1,1,0,1,1,1,0
21770956000,1310988,1310988,1310996,1311004,0,0.009262216,0.011882661,0.0029803233,0.0,1310988,1310988,1310996,1311004,0,0.0043453844,0.0011082789,0.0032398421,0.0,1,1,1,0,50,50,50,0,1,1,1,0,1,1,1,0
21771156000,1310988,1310988,1310996,1311004,0,0.0016750579,0.002865849,0.0031900264,0.0,1310988,1310988,1310996,1311004,0,0.000400214,0.0001986089,0.00029844115,0.0,1,1,1,0,50,50,50,0,1,1,1,0,1,1,1,0
21771356000,1310988,1310988,1310996,1311004,0,0.0051397383,0.012101319,0.010956784,0.0,1310988,1310988,1310996,1311004,0,0.0013282252,0.0007498106,0.00065103313,0.0,1,1,1,0,50,50,50,0,1,1,1,0,1,1,1,0
21771556000,1310988,1310988,1310996,1311004,0,0.006155713,0.0035370244,0.007073825,0.0,1310988,1310988,1310996,1311004,0,0.00051935465,0.00035256796,0.00084542995,0.0,1,1,1,0,50,50,50,0,1,1,1,0,1,1,1,0
21771756000,1310988,1310988,1310996,1311004,0,0.043591984,0.015510394,0.055330742,0.0,1310988,1310988,1310996,1311004,0,0.009072108,0.010753733,0.0016943335,0.0,1,1,1,0,50,50,50,0,1,1,1,0,1,1,1,0
21771960000,1310988,1310988,1310996,1311004,0,0.005160795,0.00459176,0.00674748,0.0,1310988,1310988,1310996,1311004,0,0.0006943864,0.0007531977,0.0002487678,0.0,1,1,1,0,50,50,50,0,1,1,1,0,1,1,1,0
21772156000,1310988,1310988,1310996,1311004,0,0.004343942,0.00286147,0.0039053122,0.0,1310988,1310988,1310996,1311004,0,0.000254219,0.00013520198,0.00021833299,0.0,1,1,1,0,50,50,50,0,1,1,1,0,1,1,1,0
21772356000,1310988,1310988,1310996,1311004,0,0.025397789,0.0056035374,0.02599298,0.0,1310988,1310988,1310996,1311004,0,0.0038474505,0.0023549683,0.0015244047,0.0,1,1,1,0,50,50,50,0,1,1,1,0,1,1,1,0
21772560000,1310988,1310988,1310996,1311004,0,0.01119073,0.008705153,0.014398572,0.0,1310988,1310988,1310996,1311004,0,0.0007677133,0.0006844802,0.00012349352,0.0,1,1,1,0,50,50,50,0,1,1,1,0,1,1,1,0
21772756000,1310988,1310988,1310996,1311004,0,0.007442739,0.0063417754,0.011188834,0.0,1310988,1310988,1310996,1311004,0,0.00075567357,0.0008969465,0.0016524522,0.0,1,1,1,0,50,50,50,0,1,1,1,0,1,1,1,0
21772960000,1310988,1310988,1310996,1311004,0,0.0038813653,0.0012967932,0.0049337843,0.0,1310988,1310988,1310996,1311004,0,0.0012709226,0.0020437583,0.0007981905,0.0,1,1,1,0,50,50,50,0,1,1,1,0,1,1,1,0
21773156000,1310988,1310988,1310996,1311004,0,0.021379426,0.018635726,0.03762332,0.0,1310988,1310988,1310996,1311004,0,0.0002779009,0.014887397,0.015164964,0.0,1,1,1,0,50,50,50,0,1,1,1,0,1,1,1,0
21773356000,1310988,1310988,1310996,1311004,0,0.0054969722,0.0018376746,0.0037129857,0.0,1310988,1310988,1310996,1311004,0,0.00047677857,0.00090712216,0.0013770722,0.0,1,1,1,0,50,50,50,0,1,1,1,0,1,1,1,0
21773556000,1310988,1310988,1310996,1311004,0,0.005116984,0.0019848987,0.0032339422,0.0,1310988,1310988,1310996,1311004,0,0.0005034121,0.00040910326,0.00010948444,0.0,1,1,1,0,50,50,50,0,1,1,1,0,1,1,1,0
21773756000,1310988,1310988,1310996,1311004,0,0.03324015,0.0059665595,0.031736422,0.0,1310988,1310988,1310996,1311004,0,0.00068876054,0.0046044122,0.003952413,0.0,1,1,1,0,50,50,50,0,1,1,1,0,1,1,1,0
21773956000,1310988,1310988,1310996,1311004,0,0.026975147,0.01567451,0.011435853,0.0,1310988,1310988,1310996,1311004,0,0.0021387793,0.0013218677,0.00081765885,0.0,1,1,1,0,50,50,50,0,1,1,1,0,1,1,1,0
21774156000,1310988,1310988,1310996,1311004,0,0.0063203573,0.00409569,0.0056657917,0.0,1310988,1310988,1310996,1311004,0,0.00034203232,0.00022922858,0.00030612134,0.0,1,1,1,0,50,50,50,0,1,1,1,0,1,1,1,0
21774356000,1310988,1310988,1310996,1311004,0,0.012772493,0.009425433,0.004000495,0.0,1310988,1310988,1310996,1311004,0,0.00070586766,0.0015409642,0.00218226,0.0,1,1,1,0,50,50,50,0,1,1,1,0,1,1,1,0
21774556000,1310988,1310988,1310996,1311004,0,0.02310982,0.01880434,0.0050591165,0.0,1310988,1310988,1310996,1311004,0,0.0021513014,0.00094243546,0.0012479906,0.0,1,1,1,0,50,50,50,0,1,1,1,0,1,1,1,0
21774756000,1310988,1310988,1310996,1311004,0,0.020514525,0.023558086,0.043879535,0.0,1310988,1310988,1310996,1311004,0,0.0023832242,0.002797232,0.0051636617,0.0,1,1,1,0,50,50,50,0,1,1,1,0,1,1,1,0
21774960000,1310988,1310988,1310996,1311004,0,0.015004323,0.016566014,0.030614356,0.0,1310988,1310988,1310996,1311004,0,0.00066948874,0.00047278573,0.0010999407,0.0,1,1,1,0,50,50,50,0,1,1,1,0,1,1,1,0
21775160000,1310988,1310988,1310996,1311004,0,0.028398206,0.0056900103,0.031644758,0.0,1310988,1310988,1310996,1311004,0,0.002223851,0.0014427964,0.00085794774,0.0,1,1,1,0,50,50,50,0,1,1,1,0,1,1,1,0
21775356000,1310988,1310988,1310996,1311004,0,0.017954806,0.008419066,0.009567502,0.0,1310988,1310988,1310996,1311004,0,0.0033159247,0.0017754312,0.0016130676,0.0,1,1,1,0,50,50,50,0,1,1,1,0,1,1,1,0
21775556000,1310988,1310988,1310996,1311004,0,0.0038291847,0.0031808142,0.0031154435,0.0,1310988,1310988,1310996,1311004,0,0.002492246,0.0033493328,0.00096307957,0.0,1,1,1,0,50,50,50,0,1,1,1,0,1,1,1,0
21775756000,1310988,1310988,1310996,1311004,0,0.0064571127,0.006917404,0.0041839713,0.0,1310988,1310988,1310996,1311004,0,0.00020369577,0.0006837233,0.0005621905,0.0,1,1,1,0,50,50,50,0,1,1,1,0,1,1,1,0
21775956000,1310988,1310988,1310996,1311004,0,0.006121149,0.0020722328,0.004815049,0.0,1310988,1310988,1310996,1311004,0,0.00037806694,0.00045764993,0.00012286386,0.0,1,1,1,0,50,50,50,0,1,1,1,0,1,1,1,0
21776156000,1310988,1310988,1310996,1311004,0,0.021171954,0.009874044,0.0113016,0.0,1310988,1310988,1310996,1311004,0,0.0013467495,0.0008857279,0.000521716,0.0,1,1,1,0,50,50,50,0,1,1,1,0,1,1,1,0
21776356000,1310988,1310988,1310996,1311004,0,0.009334409,0.022546839,0.014071545,0.0,1310988,1310988,1310996,1311004,0,0.0014547195,0.0037106154,0.002278796,0.0,1,1,1,0,50,50,50,0,1,1,1,0,1,1,1,0
21776556000,1310988,1310988,1310996,1311004,0,0.010018327,0.021926692,0.029714685,0.0,1310988,1310988,1310996,1311004,0,0.0017425356,0.00076772063,0.0009822825,0.0,1,1,1,0,50,50,50,0,1,1,1,0,1,1,1,0
21776756000,1310988,1310988,1310996,1311004,0,0.006404633,0.015871836,0.009620153,0.0,1310988,1310988,1310996,1311004,0,0.0031321254,0.0011576267,0.0020338306,0.0,1,1,1,0,50,50,50,0,1,1,1,0,1,1,1,0
21776956000,1310988,1310988,1310996,1311004,0,0.01347733,0.0060659763,0.008988503,0.0,1310988,1310988,1310996,1311004,0,0.0017614178,0.0011275172,0.00065783464,0.0,1,1,1,0,50,50,50,0,1,1,1,0,1,1,1,0
21777156000,1310988,1310988,1310996,1311004,0,0.011271895,0.006831965,0.014226276,0.0,1310988,1310988,1310996,1311004,0,0.003154185,0.0019392001,0.0013082951,0.0,1,1,1,0,50,50,50,0,1,1,1,0,1,1,1,0
21777356000,1310988,1310988,1310996,1311004,0,0.003732804,0.0028899913,0.0010817967,0.0,1310988,1310988,1310996,1311004,0,0.0007481471,0.0005284015,0.00024159058,0.0,1,1,1,0,50,50,50,0,1,1,1,0,1,1,1,0
21777556000,1310988,1310988,1310996,1311004,0,0.014230652,0.0091055,0.005241487,0.0,1310988,1310988,1310996,1311004,0,0.0060673873,0.0030181669,0.0030519017,0.0,1,1,1,0,50,50,50,0,1,1,1,0,1,1,1,0
21777760000,1310988,1310988,1310996,1311004,0,0.028403413,0.01445277,0.013975232,0.0,1310988,1310988,1310996,1311004,0,0.0031891854,0.001611901,0.001579179,0.0,1,1,1,0,50,50,50,0,1,1,1,0,1,1,1,0
21777960000,1310988,1310988,1310996,1311004,0,0.035136484,0.01802412,0.017198682,0.0,1310988,1310988,1310996,1311004,0,0.0004277114,0.00031426872,0.0001229071,0.0,1,1,1,0,50,50,50,0,1,1,1,0,1,1,1,0
21778160000,1310988,1310988,1310996,1311004,0,0.0039658304,0.003027856,0.0038091931,0.0,1310988,1310988,1310996,1311004,0,0.00026052416,0.00032589107,0.00015572451,0.0,1,1,1,0,50,50,50,0,1,1,1,0,1,1,1,0
21778360000,1310988,1310988,1310996,1311004,0,0.020842072,0.011114164,0.010191692,0.0,1310988,1310988,1310996,1311004,0,0.004537281,0.0022588985,0.0022898472,0.0,1,1,1,0,50,50,50,0,1,1,1,0,1,1,1,0
21778556000,1310988,1310988,1310996,1311004,0,0.006310217,0.005880428,0.0025931178,0.0,1310988,1310988,1310996,1311004,0,0.00092290476,0.00043001564,0.0005033721,0.0,1,1,1,0,50,50,50,0,1,1,1,0,1,1,1,0
21778756000,1310988,1310988,1310996,1311004,0,0.004705819,0.009971203,0.008836539,0.0,1310988,1310988,1310996,1311004,0,0.002689563,0.0015143362,0.0011933947,0.0,1,1,1,0,50,50,50,0,1,1,1,0,1,1,1,0
21778960000,1310988,1310988,1310996,1311004,0,0.0067403414,0.011998337,0.015869383,0.0,1310988,1310988,1310996,1311004,0,0.00022731734,0.003746698,0.0035427124,0.0,1,1,1,0,50,50,50,0,1,1,1,0,1,1,1,0
21779156000,1310988,1310988,1310996,1311004,0,0.008092187,0.0052634045,0.0036545333,0.0,1310988,1310988,1310996,1311004,0,0.00082922797,0.00023080257,0.0006432123,0.0,1,1,1,0,50,50,50,0,1,1,1,0,1,1,1,0
21779360000,1310988,1310988,1310996,1311004,0,0.020919677,0.009370578,0.030087413,0.0,1310988,1310988,1310996,1311004,0,0.0009292143,0.0012130431,0.00033573052,0.0,1,1,1,0,50,50,50,0,1,1,1,0,1,1,1,0
21779560000,1310988,1310988,1310996,1311004,0,0.006329563,0.0023699573,0.0043896115,0.0,1310988,1310988,1310996,1311004,0,0.0005190229,0.00029284463,0.00023329133,0.0,1,1,1,0,50,50,50,0,1,1,1,0,1,1,1,0
21779760000,1310988,1310988,1310996,1311004,0,0.002299254,0.003948848,0.0047533815,0.0,1310988,1310988,1310996,1311004,0,0.002418167,0.0045426604,0.0021416955,0.0,1,1,1,0,50,50,50,0,1,1,1,0,1,1,1,0
21779960000,1310988,1310988,1310996,1311004,0,0.0063875164,0.0067339553,0.012393475,0.0,1310988,1310988,1310996,1311004,0,0.0002915334,0.00049903756,0.00052172906,0.0,1,1,1,0,50,50,50,0,1,1,1,0,1,1,1,0
21780156000,1310988,1310988,1310996,1311004,0,0.005997851,0.005226789,0.0019771538,0.0,1310988,1310988,1310996,1311004,0,0.00058576174,0.0002954361,0.00042729275,0.0,1,1,1,0,50,50,50,0,1,1,1,0,1,1,1,0
21780356000,1310988,1310988,1310996,1311004,0,0.0059295953,0.0060563935,0.0060374327,0.0,1310988,1310988,1310996,1311004,0,0.00040583764,0.00031628823,0.00031207336,0.0,1,1,1,0,50,50,50,0,1,1,1,0,1,1,1,0
21780560000,1310988,1310988,1310996,1311004,0,0.023648098,0.018565258,0.041496824,0.0,1310988,1310988,1310996,1311004,0,0.008042569,0.0055474453,0.013578847,0.0,1,1,1,0,50,50,50,0,1,1,1,0,1,1,1,0
21780756000,1310988,1310988,1310996,1311004,0,0.0037774937,0.0066237696,0.0063958126,0.0,1310988,1310988,1310996,1311004,0,0.0012516069,0.0011210787,0.0023643575,0.0,1,1,1,0,50,50,50,0,1,1,1,0,1,1,1,0
21780960000,1310988,1310988,1310996,1311004,0,0.011295138,0.0063781305,0.0053606313,0.0,1310988,1310988,1310996,1311004,0,0.0045973905,0.0026687637,0.0019429185,0.0,1,1,1,0,50,50,50,0,1,1,1,0,1,1,1,0
21781160000,1310988,1310988,1310996,1311004,0,0.038006965,0.016646946,0.021823455,0.0,1310988,1310988,1310996,1311004,0,0.0004425241,0.0031264073,0.0028635056,0.0,1,1,1,0,50,50,50,0,1,1,1,0,1,1,1,0
21781356000,1310988,1310988,1310996,1311004,0,0.008470168,0.027171984,0.02441378,0.0,1310988,1310988,1310996,1311004,0,0.0021295194,0.0017125469,0.0038054897,0.0,1,1,1,0,50,50,50,0,1,1,1,0,1,1,1,0
21781556000,1310988,1310988,1310996,1311004,0,0.014588389,0.008956613,0.005875136,0.0,1310988,1310988,1310996,1311004,0,0.0033862863,0.0014336493,0.0019972634,0.0,1,1,1,0,50,50,50,0,1,1,1,0,1,1,1,0
21781756000,1310988,1310988,1310996,1311004,0,0.00625644,0.0023953165,0.004209491,0.0,1310988,1310988,1310996,1311004,0,0.00032203962,0.00014137756,0.0004562444,0.0,1,1,1,0,50,50,50,0,1,1,1,0,1,1,1,0
21781956000,1310988,1310988,1310996,1311004,0,0.025919491,0.0159256,0.04057301,0.0,1310988,1310988,1310996,1311004,0,0.008070267,0.0005793071,0.008600634,0.0,1,1,1,0,50,50,50,0,1,1,1,0,1,1,1,0
21782156000,1310988,1310988,1310996,1311004,0,0.0043836525,0.0010378718,0.004706862,0.0,1310988,1310988,1310996,1311004,0,0.0002978076,0.00031066278,0.00036497958,0.0,1,1,1,0,50,50,50,0,1,1,1,0,1,1,1,0
21782360000,1310988,1310988,1310996,1311004,0,0.012029075,0.02872928,0.016967999,0.0,1310988,1310988,1310996,1311004,0,0.0008768224,0.009475124,0.01034905,0.0,1,1,1,0,50,50,50,0,1,1,1,0,1,1,1,0
21782556000,1310988,1310988,1310996,1311004,0,0.018098153,0.0060449294,0.012407611,0.0,1310988,1310988,1310996,1311004,0,0.002953371,0.0016529622,0.001305103,0.0,1,1,1,0,50,50,50,0,1,1,1,0,1,1,1,0
21782760000,1310988,1310988,1310996,1311004,0,0.0161092,0.0093620885,0.007391544,0.0,1310988,1310988,1310996,1311004,0,0.0016427394,0.0008299734,0.00086856785,0.0,1,1,1,0,50,50,50,0,1,1,1,0,1,1,1,0
21782956000,1310988,1310988,1310996,1311004,0,0.02129372,0.0022943632,0.019130655,0.0,1310988,1310988,1310996,1311004,0,0.00075595,0.0007822858,0.0014858816,0.0,1,1,1,0,50,50,50,0,1,1,1,0,1,1,1,0
21783156000,1310988,1310988,1310996,1311004,0,0.0032101688,0.004741283,0.0033199943,0.0,1310988,1310988,1310996,1311004,0,0.00062025717,0.00025485392,0.00038385738,0.0,1,1,1,0,50,50,50,0,1,1,1,0,1,1,1,0
21783356000,1310988,1310988,1310996,1311004,0,0.015659994,0.0038675952,0.012986676,0.0,1310988,1310988,1310996,1311004,0,0.0022954198,0.0003699442,0.002663465,0.0,1,1,1,0,50,50,50,0,1,1,1,0,1,1,1,0
21783560000,1310988,1310988,1310996,1311004,0,0.0040223333,0.0008202412,0.0038773955,0.0,1310988,1310988,1310996,1311004,0,0.00022437665,0.00013642984,9.1097434e-05,0.0,1,1,1,0,50,50,50,0,1,1,1,0,1,1,1,0
21783756000,1310988,1310988,1310996,1311004,0,0.022322955,0.02001129,0.03802274,0.0,1310988,1310988,1310996,1311004,0,0.00066249754,0.0005391788,0.0002518424,0.0,1,1,1,0,50,50,50,0,1,1,1,0,1,1,1,0
21783960000,1310988,1310988,1310996,1311004,0,0.0050638313,0.0021550145,0.0039772647,0.0,1310988,1310988,1310996,1311004,0,0.00040196403,0.00018540048,0.00022050914,0.0,1,1,1,0,50,50,50,0,1,1,1,0,1,1,1,0
21784156000,1310988,1310988,1310996,1311004,0,0.021147784,0.011463616,0.009708382,0.0,1310988,1310988,1310996,1311004,0,0.00014912644,0.00012743482,7.406381e-05,0.0,1,1,1,0,50,50,50,0,1,1,1,0,1,1,1,0
21784356000,1310988,1310988,1310996,1311004,0,0.006775919,0.0030577506,0.0039202985,0.0,1310988,1310988,1310996,1311004,0,0.00016053084,0.00012222615,0.00014136497,0.0,1,1,1,0,50,50,50,0,1,1,1,0,1,1,1,0
21784556000,1310988,1310988,1310996,1311004,0,0.0060211397,0.0072375196,0.005072468,0.0,1310988,1310988,1310996,1311004,0,0.00071712205,0.001217783,0.0005040993,0.0,1,1,1,0,50,50,50,0,1,1,1,0,1,1,1,0
21784760000,1310988,1310988,1310996,1311004,0,0.005075522,0.001630912,0.0034962369,0.0,1310988,1310988,1310996,1311004,0,0.0001192985,6.3890715e-05,0.00010782613,0.0,1,1,1,0,50,50,50,0,1,1,1,0,1,1,1,0
21784956000,1310988,1310988,1310996,1311004,0,0.025161877,0.012571101,0.01259202,0.0,1310988,1310988,1310996,1311004,0,0.00057559717,0.00028926862,0.00028641784,0.0,1,1,1,0,50,50,50,0,1,1,1,0,1,1,1,0
21785156000,1310988,1310988,1310996,1311004,0,0.022491273,0.035088602,0.014067129,0.0,1310988,1310988,1310996,1311004,0,0.000729657,0.0003176552,0.0010192442,0.0,1,1,1,0,50,50,50,0,1,1,1,0,1,1,1,0
21785356000,1310988,1310988,1310996,1311004,0,0.025564257,0.011143964,0.014447288,0.0,1310988,1310988,1310996,1311004,0,0.0038644706,0.0021365944,0.001728142,0.0,1,1,1,0,50,50,50,0,1,1,1,0,1,1,1,0
