timestamp,timestamp_sample,output_tracking_error[0],output_tracking_error[1],output_tracking_error[2],control_mode_flags,filter_fault_flags,pos_horiz_accuracy,pos_vert_accuracy,mag_test_ratio,vel_test_ratio,pos_test_ratio,hgt_test_ratio,tas_test_ratio,hagl_test_ratio,beta_test_ratio,time_slip,accel_device_id,gyro_device_id,baro_device_id,mag_device_id,gps_check_fail_flags,innovation_check_flags,solution_status_flags,reset_count_vel_ne,reset_count_vel_d,reset_count_pos_ne,reset_count_pod_d,reset_count_quat,pre_flt_fail_innov_heading,pre_flt_fail_innov_vel_horiz,pre_flt_fail_innov_vel_vert,pre_flt_fail_innov_height,pre_flt_fail_mag_field_disturbed,health_flags,timeout_flags
21726360000,21726280000,0.00023227267,0.0049829404,0.0016523222,67109399,0,0.04909069,0.055409804,0.018453704,0.007958658,0.00046921064,0.00018395434,0.0,0.0,0.0,0.0,1311004,1311004,6620172,197644,0,0,895,2,1,2,0,47,0,0,0,0,0,0,0
21726368000,21726288000,0.00021821535,0.0047673867,0.0016283521,67109399,0,0.049091995,0.05541042,0.018453704,0.007958658,0.00046921064,0.00018395434,0.0,0.0,0.0,0.0,1311004,1311004,6620172,197644,0,0,895,2,1,2,0,47,0,0,0,0,0,0,0
21726552000,21726472000,0.00023992204,0.0047867713,0.0014592002,67109399,0,0.04910456,0.055388134,0.014413751,0.007958658,0.00046921064,0.00010810588,0.0,0.0,0.0,0.0,1311004,1311004,6620172,197644,0,0,895,2,1,2,0,47,0,0,0,0,0,0,0
21726760000,21726680000,0.00020446799,0.004080118,0.0011432611,67109399,0,0.04909079,0.055374354,0.009326318,0.0021514131,0.00039698987,0.00019615988,0.0,0.0,0.0,0.0,1311004,1311004,6620172,197644,0,0,895,2,1,2,0,47,0,0,0,0,0,0,0
21726960000,21726880000,0.00018898735,0.004353174,0.0015456087,67109399,0,0.049076363,0.05536026,0.008161976,0.007984893,0.0019905134,0.0023713552,0.0,0.0,0.0,0.0,1311004,1311004,6620172,197644,0,0,895,2,1,2,0,47,0,0,0,0,0,0,0
21727152000,21727072000,0.000119398675,0.0013306077,0.0013066251,67109399,0,0.049061723,0.055339146,0.023912907,0.00023509048,0.0019661386,0.0017654392,0.0,0.0,0.0,0.0,1311004,1311004,6620172,197644,0,0,895,2,1,2,0,47,0,0,0,0,0,0,0
21727360000,21727280000,0.00016782746,0.0023223478,0.001090296,67109399,0,0.049048055,0.05532542,0.0039153057,0.001234052,0.0019737403,0.006301529,0.0,0.0,0.0,0.0,1311004,1311004,6620172,197644,0,0,895,2,1,2,0,47,0,0,0,0,0,0,0
21727560000,21727480000,0.00022410459,0.0023492142,0.0010599353,67109399,0,0.049034122,0.055304673,0.06205955,0.004109379,0.0019558463,0.0026843399,0.0,0.0,0.0,0.0,1311004,1311004,6620172,197644,0,0,895,2,1,2,0,47,0,0,0,0,0,0,0
21727752000,21727672000,0.00016170589,0.0034357056,0.0011547758,67109399,0,0.049049668,0.055290833,0.006587553,0.004109379,0.0019558463,0.0031507644,0.0,0.0,0.0,0.0,1311004,1311004,6620172,197644,0,0,895,2,1,2,0,47,0,0,0,0,0,0,0
21727952000,21727872000,0.00019049413,0.0021465493,0.0008959908,67109399,0,0.049035955,0.055277135,0.015588312,0.014136466,0.0019567881,0.0009363368,0.0,0.0,0.0,0.0,1311004,1311004,6620172,197644,0,0,895,2,1,2,0,47,0,0,0,0,0,0,0
21728152000,21728072000,8.544319e-05,0.0010321523,0.00053460547,67109399,0,0.049022302,0.055256583,0.0054914085,0.005357858,0.00042108024,0.0016451282,0.0,0.0,0.0,0.0,1311004,1311004,6620172,197644,0,0,895,2,1,2,0,47,0,0,0,0,0,0,0
21728352000,21728272000,0.00018322309,0.0025808068,0.0005363934,67109399,0,0.049008682,0.05524295,0.019496912,0.012717239,0.0012541866,0.0010854185,0.0,0.0,0.0,0.0,1311004,1311004,6620172,197644,0,0,895,2,1,2,0,47,0,0,0,0,0,0,0
21728552000,21728472000,6.551631e-05,0.0012513717,0.0006440118,67109399,0,0.049033348,0.055241026,0.023245621,0.000114973016,0.0018878212,0.0013809664,0.0,0.0,0.0,0.0,1311004,1311004,6620172,197644,0,0,895,2,1,2,0,47,0,0,0,0,0,0,0
21728752000,21728672000,8.7754175e-05,0.0020412912,0.0009283602,67109399,0,0.049013402,0.055224407,0.0015016524,0.0066305767,0.0018836402,0.00016738988,0.0,0.0,0.0,0.0,1311004,1311004,6620172,197644,0,0,895,2,1,2,0,47,0,0,0,0,0,0,0
21728960000,21728880000,9.768515e-05,0.0013195201,0.0008125351,67109399,0,0.048999913,0.05520398,0.02196885,0.008893854,0.0012212343,0.0092047,0.0,0.0,0.0,0.0,1311004,1311004,6620172,197644,0,0,895,2,1,2,0,47,0,0,0,0,0,0,0
21729160000,21729080000,3.9031966e-05,0.0011145159,0.0006600937,67109399,0,0.04900993,0.05518766,0.0067358455,0.008893854,0.0012212343,0.001345222,0.0,0.0,0.0,0.0,1311004,1311004,6620172,197644,0,0,895,2,1,2,0,47,0,0,0,0,0,0,0
21729360000,21729280000,3.645687e-05,0.0024665967,0.00095917366,67109399,0,0.048991054,0.055171594,0.014005506,0.0071456623,0.001242441,0.00438178,0.0,0.0,0.0,0.0,1311004,1311004,6620172,197644,0,0,895,2,1,2,0,47,0,0,0,0,0,0,0
21729552000,21729472000,9.098586e-05,0.0025688973,0.001090814,67109399,0,0.04896827,0.055146847,0.00622813,0.013168621,0.0012661498,0.00031995887,0.0,0.0,0.0,0.0,1311004,1311004,6620172,197644,0,0,895,2,1,2,0,47,0,0,0,0,0,0,0
21729760000,21729680000,7.395428e-05,0.0015806039,0.0007213103,67109399,0,0.048954867,0.055133376,0.012412474,0.0005045683,0.00041183596,0.00074976747,0.0,0.0,0.0,0.0,1311004,1311004,6620172,197644,0,0,895,2,1,2,0,47,0,0,0,0,0,0,0
21729952000,21729872000,0.000118202915,0.002640398,0.00095950934,67109399,0,0.04893389,0.055116363,0.014008863,0.0066273054,0.00041090685,0.004057463,0.0,0.0,0.0,0.0,1311004,1311004,6620172,197644,0,0,895,2,1,2,0,47,0,0,0,0,0,0,0
21730160000,21730080000,5.7602574e-05,0.0045807217,0.0014346287,67109399,0,0.04892055,0.0550961,0.008431404,0.017593013,0.00040709454,0.0066537512,0.0,0.0,0.0,0.0,1311004,1311004,6620172,197644,0,0,895,2,1,2,0,47,0,0,0,0,0,0,0
21730360000,21730280000,7.190222e-05,0.0028749816,0.0013243456,67109399,0,0.048933275,0.055081192,0.004593596,0.017593013,0.00040709454,0.000442886,0.0,0.0,0.0,0.0,1311004,1311004,6620172,197644,0,0,895,2,1,2,0,47,0,0,0,0,0,0,0
21730560000,21730480000,0.00015889405,0.0043496466,0.0013236348,67109399,0,0.0489171,0.055059664,0.008925403,0.015149087,0.00039477542,0.001344351,0.0,0.0,0.0,0.0,1311004,1311004,6620172,197644,0,0,895,2,1,2,0,47,0,0,0,0,0,0,0
21730752000,21730672000,9.58058e-05,0.0036482727,0.0014567786,67109399,0,0.048899166,0.055044137,0.0040939646,0.008297822,0.0019014537,0.0008840285,0.0,0.0,0.0,0.0,1311004,1311004,6620172,197644,0,0,895,2,1,2,0,47,0,0,0,0,0,0,0
21730960000,21730880000,0.00010992494,0.003028674,0.0013634684,67109399,0,0.048885856,0.05502399,0.021345211,0.0136534115,0.0018551335,0.0018247258,0.0,0.0,0.0,0.0,1311004,1311004,6620172,197644,0,0,895,2,1,2,0,47,0,0,0,0,0,0,0
21731160000,21731080000,5.315113e-05,0.0032217335,0.0012820003,67109399,0,0.04887073,0.055009797,0.0055420673,0.006757912,0.00034870513,0.0015195876,0.0,0.0,0.0,0.0,1311004,1311004,6620172,197644,0,0,895,2,1,2,0,47,0,0,0,0,0,0,0
21731352000,21731272000,9.8750796e-05,0.0037698033,0.0013004487,67109399,0,0.048854604,0.054995134,0.010362368,0.012544503,0.0003451549,0.0030165082,0.0,0.0,0.0,0.0,1311004,1311004,6620172,197644,0,0,895,2,1,2,0,47,0,0,0,0,0,0,0
21731552000,21731472000,0.00022072023,0.0057581114,0.001684382,67109399,0,0.04884028,0.054974545,0.019338444,0.018176245,0.00039651553,0.0004507326,0.0,0.0,0.0,0.0,1311004,1311004,6620172,197644,0,0,895,2,1,2,0,47,0,0,0,0,0,0,0
21731760000,21731680000,0.00012662231,0.0022018848,0.0011613455,67109399,0,0.048856206,0.054954503,0.003715005,0.018176245,0.00039651553,0.0009075681,0.0,0.0,0.0,0.0,1311004,1311004,6620172,197644,0,0,895,2,1,2,0,47,0,0,0,0,0,0,0
21731960000,21731880000,0.00019218882,0.0017953026,0.0005940671,67109399,0,0.04884208,0.05494084,0.037608817,0.0037963842,0.00040995452,0.003919718,0.0,0.0,0.0,0.0,1311004,1311004,6620172,197644,0,0,895,2,1,2,0,47,0,0,0,0,0,0,0
21732160000,21732080000,0.00021182162,0.0042016325,0.00081978046,67109399,0,0.048828177,0.054927282,0.0030069717,0.022664163,0.00044047783,0.0012127064,0.0,0.0,0.0,0.0,1311004,1311004,6620172,197644,0,0,895,2,1,2,0,47,0,0,0,0,0,0,0
21732360000,21732280000,0.00016046042,0.0057002045,0.0014039632,67109399,0,0.048814476,0.054907054,0.005863216,0.0082448805,0.000427754,0.007241366,0.0,0.0,0.0,0.0,1311004,1311004,6620172,197644,0,0,895,2,1,2,0,47,0,0,0,0,0,0,0
21732560000,21732480000,0.00020554762,0.008809741,0.002167351,67109399,0,0.048800915,0.054893672,0.008830222,0.015781762,0.0019741573,0.0016564648,0.0,0.0,0.0,0.0,1311004,1311004,6620172,197644,0,0,895,2,1,2,0,47,0,0,0,0,0,0,0
21732760000,21732680000,0.00025786727,0.009055128,0.0027352562,67109399,0,0.048787482,0.054880366,7.460229e-05,0.007389983,0.001228364,0.0002885736,0.0,0.0,0.0,0.0,1311004,1311004,6620172,197644,0,0,895,2,1,2,0,47,0,0,0,0,0,0,0
21732960000,21732880000,0.00014931793,0.0068210294,0.0026116332,67109399,0,0.048803233,0.054860372,0.021558853,0.007389983,0.001228364,0.000904953,0.0,0.0,0.0,0.0,1311004,1311004,6620172,197644,0,0,895,2,1,2,0,47,0,0,0,0,0,0,0
21733160000,21733080000,0.00016628456,0.0023555588,0.0017290261,1049239,0,0.048860144,0.054881036,0.0071593802,0.006782576,0.001931888,1.1754944e-38,0.0,0.0,0.0,0.0,1311004,1311004,6620172,197644,0,0,895,2,1,2,0,47,0,0,0,0,0,0,0
21733360000,21733280000,0.00012035649,0.00071460323,0.000741306,1049239,0,0.049348515,0.05510759,0.05007003,0.013281666,0.0019428544,0.0022240197,0.0,0.0,0.0,0.0,1311004,1311004,6620172,197644,0,0,895,2,1,2,0,47,0,0,0,0,0,0,0
21733560000,21733480000,0.00012858513,0.0011185871,0.00025881443,1049239,0,0.05071489,0.0557986,0.031094344,0.010132225,0.0019641707,1.1754944e-38,0.0,0.0,0.0,0.0,1311004,1311004,6620172,197644,0,0,895,2,1,2,0,47,0,0,0,0,0,0,0
21733760000,21733680000,4.6508645e-05,0.0015736604,0.0005785084,1049239,0,0.053405855,0.05723012,0.008685898,0.012761319,0.0009390089,0.0042474866,0.0,0.0,0.0,0.0,1311004,1311004,6620172,197644,0,0,895,2,1,2,0,47,0,0,0,0,0,0,0
21733960000,21733880000,2.2036826e-05,0.0012760849,0.0005797473,1049239,0,0.057769164,0.059675217,0.004569043,0.030231196,0.0013330191,1.1754944e-38,0.0,0.0,0.0,0.0,1311004,1311004,6620172,197644,0,0,895,2,1,2,0,47,0,0,0,0,0,0,0
21734152000,21734072000,2.863691e-05,0.0011372891,0.0006072656,1049239,0,0.06368155,0.063202634,0.0058828946,0.008843329,0.0017918097,0.00029466534,0.0,0.0,0.0,0.0,1311004,1311004,6620172,197644,0,0,895,2,1,2,0,47,0,0,0,0,0,0,0
21734352000,21734272000,1.75706e-05,0.0012922663,0.000678898,1049239,0,0.07219649,0.06836952,0.008767206,0.008843329,0.0017918097,0.00043588222,0.0,0.0,0.0,0.0,1311004,1311004,6620172,197644,0,0,895,2,1,2,0,47,0,0,0,0,0,0,0
21734552000,21734472000,2.5530297e-05,0.0014735318,0.00086030544,1049239,0,0.0822258,0.07490907,0.0017565833,0.014276426,0.0016183137,0.0009894184,0.0,0.0,0.0,0.0,1311004,1311004,6620172,197644,0,0,895,2,1,2,0,47,0,0,0,0,0,0,0
21734760000,21734680000,3.637018e-05,0.002092355,0.0016463354,1049239,0,0.09441242,0.08319839,0.008452773,0.042013645,0.0036673327,0.0034824293,0.0,0.0,0.0,0.0,1311004,1311004,6620172,197644,0,0,895,2,1,2,0,47,0,0,0,0,0,0,0
21734960000,21734880000,5.15519e-05,0.0021840078,0.001929278,663,0,0.107416466,0.09241247,0.013874928,0.0317178,0.003994653,0.0054137083,0.0,0.0,0.0,0.0,1311004,1311004,6620172,197644,0,0,895,2,1,2,0,47,0,0,0,0,0,0,0
21735152000,21735072000,0.00010722906,0.00095626095,0.001004712,663,0,0.12058444,0.10227503,0.03779749,0.013440091,0.003875106,0.003719869,0.0,0.0,0.0,0.0,1311004,1311004,6620172,197644,0,0,895,2,1,2,0,47,0,0,0,0,0,0,0
21735360000,21735280000,2.7458094e-05,0.0011830883,0.0021521251,663,0,0.1354985,0.113943845,0.003806232,0.042471863,0.00526687,0.0018971963,0.0,0.0,0.0,0.0,1311004,1311004,6620172,197644,0,0,895,2,1,2,0,47,0,0,0,0,0,0,0
21735552000,21735472000,0.0077338708,0.00042360058,0.0010463096,8389271,0,0.15352014,0.12684508,0.091732025,0.042471863,0.00526687,0.00054983655,0.0,0.0,0.0,0.0,1311004,1311004,6620172,197644,0,0,895,2,1,2,0,48,0,0,0,0,0,0,0
21735760000,21735680000,0.011960885,0.0014185567,0.0030213804,8389271,0,0.16846474,0.14020298,0.063920766,0.024868926,0.005858358,0.004211704,0.0,0.0,0.0,0.0,1311004,1311004,6620172,197644,0,0,895,2,1,2,0,48,0,0,0,0,0,0,0
21735960000,21735880000,0.008829364,0.0017707291,0.0038353854,8389271,0,0.1818516,0.15323627,0.0595077,0.032914173,0.004822736,0.0042954027,0.0,0.0,0.0,0.0,1311004,1311004,6620172,197644,0,0,895,2,1,2,0,48,0,0,0,0,0,0,0
21736160000,21736080000,0.0039040188,0.0035322753,0.006972812,8389271,0,0.19449818,0.16661642,0.04623154,0.05004147,0.0060235723,0.00041022873,0.0,0.0,0.0,0.0,1311004,1311004,6620172,197644,0,0,895,2,1,2,0,48,0,0,0,0,0,0,0
21736360000,21736280000,0.0043696817,0.0017234612,0.0037980203,8389271,0,0.20645168,0.17985761,0.046954174,0.019140948,0.006551798,0.0046203523,0.0,0.0,0.0,0.0,1311004,1311004,6620172,197644,0,0,895,2,1,2,0,48,0,0,0,0,0,0,0
21736560000,21736480000,0.0032065595,0.0028516718,0.0060056737,8389271,0,0.2177525,0.1932514,0.060491998,0.037780326,0.0064933468,0.0046831206,0.0,0.0,0.0,0.0,1311004,1311004,6620172,197644,0,0,895,2,1,2,0,48,0,0,0,0,0,0,0
21736760000,21736680000,0.0021261438,0.002334893,0.0047615175,8389271,0,0.22842497,0.20649368,0.029957745,0.020563435,0.0063815964,0.0011342171,0.0,0.0,0.0,0.0,1311004,1311004,6620172,197644,0,0,895,2,1,2,0,48,0,0,0,0,0,0,0
21736960000,21736880000,0.001275593,0.00067851925,0.0015020627,8389271,0,0.2484546,0.22394371,0.0003341318,0.020563435,0.0063815964,0.004969464,0.0,0.0,0.0,0.0,1311004,1311004,6620172,197644,0,0,895,2,1,2,0,48,0,0,0,0,0,0,0
21737152000,21737072000,0.0009251994,0.0017444219,0.0037306617,8389271,0,0.25710818,0.23593265,0.020566361,0.024575701,0.006240309,0.0019174519,0.0,0.0,0.0,0.0,1311004,1311004,6620172,197644,0,0,895,2,1,2,0,48,0,0,0,0,0,0,0
21737360000,21737280000,0.0015371495,0.0013371235,0.0025580176,8389271,0,0.26672205,0.2484566,0.024304433,0.02089692,0.006085024,0.0011393663,0.0,0.0,0.0,0.0,1311004,1311004,6620172,197644,0,0,895,2,1,2,0,48,0,0,0,0,0,0,0
21737560000,21737480000,0.00094998186,0.001272265,0.0020830454,8389271,0,0.27475256,0.2602659,0.027835188,0.008212571,0.0073073446,0.0041312864,0.0,0.0,0.0,0.0,1311004,1311004,6620172,197644,0,0,895,2,1,2,0,48,0,0,0,0,0,0,0
21737752000,21737672000,0.0007375607,0.0018573712,0.0025414133,8389271,0,0.28122523,0.27075717,0.03213202,0.014523447,0.0070977174,0.0051955986,0.0,0.0,0.0,0.0,1311004,1311004,6620172,197644,0,0,895,2,1,2,0,48,0,0,0,0,0,0,0
21737960000,21737880000,0.00092308846,0.001696426,0.0026563471,8389271,0,0.28871337,0.2814592,0.021397855,0.0071253492,0.0072183604,0.0024031706,0.0,0.0,0.0,0.0,1311004,1311004,6620172,197644,0,0,895,2,1,2,0,48,0,0,0,0,0,0,0
21738152000,21738072000,0.0010686305,0.0011853663,0.0016254026,8389271,0,0.3103755,0.29836518,0.02286513,0.0071253492,0.0072183604,0.0039505614,0.0,0.0,0.0,0.0,1311004,1311004,6620172,197644,0,0,831,2,1,2,0,48,0,0,0,0,0,0,0
21738352000,21738272000,0.0008640268,0.0005826889,0.0011381172,8389271,0,0.3147897,0.30786347,0.022023058,0.008832322,0.0074483184,0.0042607803,0.0,0.0,0.0,0.0,1311004,1311004,6620172,197644,0,0,831,2,1,2,0,48,0,0,0,0,0,0,0
21738560000,21738480000,0.0006995613,0.0023756668,0.004371964,8389271,0,0.3194975,0.31633672,0.02285006,0.02223168,0.007122092,0.0039798757,0.0,0.0,0.0,0.0,1311004,1311004,6620172,197644,0,0,831,2,1,2,0,48,0,0,0,0,0,0,0
21738760000,21738680000,0.00015617389,0.0014778863,0.0018354697,8389271,0,0.32278296,0.32462597,0.004014369,0.009598612,0.007586188,0.005017718,0.0,0.0,0.0,0.0,1311004,1311004,6620172,197644,0,0,831,2,1,2,0,48,0,0,0,0,0,0,0
21738960000,21738880000,0.0005276234,0.0037871406,0.007204709,8389271,0,0.32563668,0.3309125,0.0006840436,0.026767602,0.007174358,0.014992861,0.0,0.0,0.0,0.0,1311004,1311004,6620172,197644,0,0,831,2,1,2,0,48,0,0,0,0,0,0,0
21739160000,21739080000,0.00027346038,0.003368845,0.0061088195,8389271,0,0.32817712,0.3381681,0.01461339,0.015481381,0.007650808,0.004483723,0.0,0.0,0.0,0.0,1311004,1311004,6620172,197644,0,0,831,2,1,2,0,48,0,0,0,0,0,0,0
21739352000,21739272000,0.0007292987,0.0065313615,0.006523723,8389351,0,0.32951957,0.34417793,0.031805396,0.024084173,0.007323576,0.005879624,0.0,0.0,0.0,0.0,1311004,1311004,6620172,197644,0,0,831,2,1,2,0,48,0,0,0,0,0,0,0
21739552000,21739472000,5.6011744e-05,0.0030315123,0.0019364863,8389351,0,0.35212302,0.3574431,0.002610581,0.024084173,0.007323576,0.0027922045,0.0,0.0,0.0,0.0,1311004,1311004,6620172,197644,0,0,831,2,1,2,0,48,0,0,0,0,0,0,0
21739760000,21739680000,0.0014872014,0.01458687,0.021531668,8389351,0,0.3526939,0.36373347,0.033305682,0.09363919,0.011885024,0.0069922856,0.0,0.0,0.0,0.0,1311004,1311004,6620172,197644,0,0,831,2,1,2,0,48,0,0,0,0,0,0,0
21739952000,21739872000,0.0015479773,0.016756507,0.024745649,8389351,0,0.3514171,0.36803213,0.011174128,0.067149304,0.009015615,0.002332014,0.0,0.0,0.0,0.0,1311004,1311004,6620172,197644,0,0,831,2,1,2,0,48,0,0,0,0,0,0,0
21740152000,21740072000,0.0012829957,0.014810975,0.02321169,8389351,0,0.3510708,0.3707077,0.009327104,0.04696759,0.0097686695,0.014099386,0.0,0.0,0.0,0.0,1311004,1311004,6620172,197644,0,0,831,2,1,2,0,48,0,0,0,0,0,0,0
21740352000,21740272000,0.0011959615,0.012888263,0.020531036,8389351,0,0.35070804,0.3751023,0.023278795,0.040747244,0.0052540065,0.0046594287,0.0,0.0,0.0,0.0,1311004,1311004,6620172,197644,0,0,831,2,1,2,0,48,0,0,0,0,0,0,0
21740560000,21740480000,0.000864696,0.009695617,0.015676374,8389351,0,0.351144,0.37779564,0.0042188866,0.03520079,0.003997662,0.0073261503,0.0,0.0,0.0,0.0,1311004,1311004,6620172,197644,0,0,831,2,1,2,0,48,0,0,0,0,0,0,0
21740760000,21740680000,0.00013061368,0.0044260756,0.0070579406,8389351,0,0.37310156,0.39007255,0.008010762,0.03520079,0.003997662,0.0012609432,0.0,0.0,0.0,0.0,1311004,1311004,6620172,197644,0,0,831,2,1,2,0,48,0,0,0,0,0,0,0
21740960000,21740880000,0.00075255206,0.00747193,0.0129292905,8389351,0,0.37027755,0.39072576,0.009968702,0.049689744,0.0064931987,0.0050872318,0.0,0.0,0.0,0.0,1311004,1311004,6620172,197644,0,0,831,2,1,2,0,48,0,0,0,0,0,0,0
21741160000,21741080000,0.00043566068,0.0063786297,0.011467404,8389351,0,0.3678161,0.3935881,0.02698833,0.031179832,0.0045465794,0.0026314482,0.0,0.0,0.0,0.0,1311004,1311004,6620172,197644,0,0,831,2,1,2,0,48,0,0,0,0,0,0,0
21741360000,21741280000,0.00024814595,0.006396496,0.011487508,8389351,0,0.36562335,0.39626464,0.015018641,0.040523786,0.003751802,0.015739903,0.0,0.0,0.0,0.0,1311004,1311004,6620172,197644,0,0,831,2,1,2,0,48,0,0,0,0,0,0,0
21741552000,21741472000,0.0003881038,0.0064445515,0.011539864,8389351,0,0.3628366,0.39548546,0.004939733,0.03451135,0.0048422837,0.0070633227,0.0,0.0,0.0,0.0,1311004,1311004,6620172,197644,0,0,831,2,1,2,0,48,0,0,0,0,0,0,0
21741760000,21741680000,0.0002721295,0.0049273996,0.008226349,8389351,0,0.36180776,0.39854172,0.010616213,0.034782242,0.004040853,0.012524967,0.0,0.0,0.0,0.0,1311004,1311004,6620172,197644,0,0,831,2,1,2,0,48,0,0,0,0,0,0,0
21741952000,21741872000,9.64404e-05,0.006359145,0.010760844,8389351,0,0.3593523,0.39746872,0.010685938,0.015589561,0.0011976345,0.0035725806,0.0,0.0,0.0,0.0,1311004,1311004,6620172,197644,0,0,831,2,1,2,0,48,0,0,0,0,0,0,0
21742160000,21742080000,1.748738e-05,0.007213999,0.014075798,8389351,0,0.38006842,0.407779,0.031328537,0.015589561,0.0011976345,0.017838564,0.0,0.0,0.0,0.0,1311004,1311004,6620172,197644,0,0,831,2,1,2,0,48,0,0,0,0,0,0,0
21742352000,21742272000,0.000193378,0.007488353,0.014458621,8389351,0,0.37572226,0.40863824,0.0053771553,0.04482885,0.010435141,0.011319796,0.0,0.0,0.0,0.0,1311004,1311004,6620172,197644,0,0,831,2,1,2,0,48,0,0,0,0,0,0,0
21742560000,21742480000,3.315925e-05,0.0065671518,0.012248336,8389351,0,0.37336937,0.408055,0.0247738,0.011570452,0.0080624595,0.011339992,0.0,0.0,0.0,0.0,1311004,1311004,6620172,197644,0,0,831,2,1,2,0,48,0,0,0,0,0,0,0
21742752000,21742672000,0.0001355627,0.004278205,0.009784486,8389351,0,0.3697568,0.40877277,0.049813222,0.03164369,0.0022737007,0.007693924,0.0,0.0,0.0,0.0,1311004,1311004,6620172,197644,0,0,831,2,1,2,0,48,0,0,0,0,0,0,0
21742952000,21742872000,3.7225876e-05,0.005190392,0.011366186,8389351,0,0.36717236,0.40736002,0.013931529,0.0046910476,0.008213226,0.012533971,0.0,0.0,0.0,0.0,1311004,1311004,6620172,197644,0,0,831,2,1,2,0,48,0,0,0,0,0,0,0
21743152000,21743072000,4.43634e-05,0.0037095563,0.0070881345,8389351,0,0.36479548,0.40864173,0.042453427,0.017874515,0.0062153754,0.0069732335,0.0,0.0,0.0,0.0,1311004,1311004,6620172,197644,0,0,831,2,1,2,0,48,0,0,0,0,0,0,0
21743360000,21743280000,2.6157131e-05,0.0052836845,0.011846065,8389351,0,0.38452017,0.4145844,0.0025914388,0.017874515,0.0062153754,0.009446878,0.0,0.0,0.0,0.0,1311004,1311004,6620172,197644,0,0,831,2,1,2,0,48,0,0,0,0,0,0,0
21743560000,21743480000,4.5940702e-05,0.0038876894,0.007331671,8389351,0,0.38044316,0.41545177,0.03733974,0.022009948,0.007973682,0.0049831658,0.0,0.0,0.0,0.0,1311004,1311004,6620172,197644,0,0,831,2,1,2,0,48,0,0,0,0,0,0,0
21743760000,21743680000,9.6013704e-05,0.0021828546,0.0034812887,8389351,0,0.3768624,0.41342515,0.017172197,0.025181295,0.009815567,0.0049561025,0.0,0.0,0.0,0.0,1311004,1311004,6620172,197644,0,0,831,2,1,2,0,48,0,0,0,0,0,0,0
21743960000,21743880000,1.5629399e-05,0.0037475433,0.0060262005,8389351,0,0.37362304,0.41428575,0.005888152,0.0059140516,0.010426681,0.0011932055,0.0,0.0,0.0,0.0,1311004,1311004,6620172,197644,0,0,831,2,1,2,0,48,0,0,0,0,0,0,0
21744160000,21744080000,9.8032106e-05,0.0061546913,0.012872296,8389351,0,0.37060806,0.4122812,0.03098329,0.018096674,0.0032562288,0.009269438,0.0,0.0,0.0,0.0,1311004,1311004,6620172,197644,0,0,831,2,1,2,0,48,0,0,0,0,0,0,0
21744360000,21744280000,7.454053e-05,0.0045053908,0.0095218485,8389351,0,0.36790884,0.41312388,0.020287042,0.022747276,0.011480447,0.0047287336,0.0,0.0,0.0,0.0,1311004,1311004,6620172,197644,0,0,831,2,1,2,0,48,0,0,0,0,0,0,0
21744560000,21744480000,4.0999563e-05,0.0037079984,0.007933296,8389351,0,0.36542293,0.41111177,0.067542106,0.008819019,0.014558215,0.011203186,0.0,0.0,0.0,0.0,1311004,1311004,6620172,197644,0,0,831,2,1,2,0,48,0,0,0,0,0,0,0
21744760000,21744680000,1.3039943e-05,0.003960004,0.007267359,8389351,0,0.3835482,0.41821545,0.00807299,0.008819019,0.014558215,0.0050559314,0.0,0.0,0.0,0.0,1311004,1311004,6620172,197644,0,0,831,2,1,2,0,48,0,0,0,0,0,0,0
21744960000,21744880000,4.320086e-05,0.0043554297,0.0085924,8389351,0,0.37958294,0.41576287,0.027741704,0.012038646,0.008373524,0.008450654,0.0,0.0,0.0,0.0,1311004,1311004,6620172,197644,0,0,831,2,1,2,0,48,0,0,0,0,0,0,0
21745152000,21745072000,1.26168425e-05,0.0037294058,0.006606532,8389351,0,0.37528646,0.41568086,0.034352,0.014893607,0.0077417963,0.010400818,0.0,0.0,0.0,0.0,1311004,1311004,6620172,197644,0,0,831,2,1,2,0,48,0,0,0,0,0,0,0
21745360000,21745280000,2.1522497e-05,0.0037646806,0.00711814,8389271,0,0.3727669,0.41687742,0.0026499543,0.004565009,0.0076154456,0.008259197,0.0,0.0,0.0,0.0,1311004,1311004,6620172,197644,0,0,831,2,1,2,0,48,0,0,0,0,0,0,0
21745560000,21745480000,0.00015191697,0.0053219125,0.009548814,8389271,0,0.3698093,0.41450655,0.021335315,0.015823869,0.007926604,0.0071723927,0.0,0.0,0.0,0.0,1311004,1311004,6620172,197644,0,0,831,2,1,2,0,48,0,0,0,0,0,0,0
21745760000,21745680000,0.00012216653,0.0034357929,0.0075814556,8389271,0,0.36709887,0.41506356,0.0010023274,0.03237585,0.009550955,0.003988106,0.0,0.0,0.0,0.0,1311004,1311004,6620172,197644,0,0,831,2,1,2,0,48,0,0,0,0,0,0,0
21745952000,21745872000,4.8331265e-05,0.0025161447,0.005049699,8389271,0,0.38443044,0.4211564,0.003845559,0.03237585,0.009550955,0.0023253455,0.0,0.0,0.0,0.0,1311004,1311004,6620172,197644,0,0,831,2,1,2,0,48,0,0,0,0,0,0,0
21746160000,21746080000,5.4312422e-05,0.0027172295,0.005762868,8389271,0,0.38109878,0.4191009,0.004253551,0.018119141,0.01791412,0.005088664,0.0,0.0,0.0,0.0,1311004,1311004,6620172,197644,0,0,831,2,1,2,0,48,0,0,0,0,0,0,0
21746360000,21746280000,6.5717824e-05,0.002512356,0.004546957,8389271,0,0.37734565,0.41942954,0.0034761105,0.0056538004,0.008889387,0.004236932,0.0,0.0,0.0,0.0,1311004,1311004,6620172,197644,0,0,831,2,1,2,0,48,0,0,0,0,0,0,0
21746552000,21746472000,9.601075e-05,0.0027904513,0.004863293,8389271,0,0.37323877,0.4161949,0.0066383136,0.0068056653,0.0104811005,0.0064196284,0.0,0.0,0.0,0.0,1311004,1311004,6620172,197644,0,0,831,2,1,2,0,48,0,0,0,0,0,0,0
21746760000,21746680000,0.00014694245,0.0017893388,0.0030605174,8389271,0,0.37085614,0.4172015,0.005476298,0.004844341,0.007944632,0.006463096,0.0,0.0,0.0,0.0,1311004,1311004,6620172,197644,0,0,831,2,1,2,0,48,0,0,0,0,0,0,0
21746952000,21746872000,7.2027964e-05,0.0027888436,0.0045748134,8389271,0,0.36734402,0.41406846,0.0005572487,0.0152232945,0.012565167,0.0040000305,0.0,0.0,0.0,0.0,1311004,1311004,6620172,197644,0,0,831,2,1,2,0,48,0,0,0,0,0,0,0
21747160000,21747080000,0.00015146616,0.0024881065,0.0056865625,8389271,0,0.3654351,0.4151191,0.0016903821,0.02391395,0.00844294,0.004962068,0.0,0.0,0.0,0.0,1311004,1311004,6620172,197644,0,0,831,2,1,2,0,48,0,0,0,0,0,0,0
21747352000,21747272000,7.329608e-05,0.0017968529,0.004947901,8389271,0,0.3825943,0.4208607,0.009827284,0.02391395,0.00844294,0.011198661,0.0,0.0,0.0,0.0,1311004,1311004,6620172,197644,0,0,831,2,1,2,0,48,0,0,0,0,0,0,0
21747552000,21747472000,0.000116204144,0.0014076694,0.0023962404,8389271,0,0.37867045,0.41814244,0.0053833886,0.013636762,0.012683119,0.0022266388,0.0,0.0,0.0,0.0,1311004,1311004,6620172,197644,0,0,831,2,1,2,0,48,0,0,0,0,0,0,0
21747752000,21747672000,0.0002217553,0.0032240332,0.008108542,8389271,0,0.37512997,0.41846666,0.012820304,0.032099873,0.012214367,0.0077607348,0.0,0.0,0.0,0.0,1311004,1311004,6620172,197644,0,0,831,2,1,2,0,48,0,0,0,0,0,0,0
21747952000,21747872000,0.0001416774,0.002415327,0.004303692,8389271,0,0.37191692,0.41586322,0.014836725,0.011280806,0.011002038,0.0013826664,0.0,0.0,0.0,0.0,1311004,1311004,6620172,197644,0,0,831,2,1,2,0,48,0,0,0,0,0,0,0
21748160000,21748080000,8.047236e-05,0.0031366623,0.0053653186,8389271,0,0.3696817,0.41686416,0.009857664,0.016656041,0.01277718,0.005351591,0.0,0.0,0.0,0.0,1311004,1311004,6620172,197644,0,0,831,2,1,2,0,48,0,0,0,0,0,0,0
21748352000,21748272000,8.6935266e-05,0.0039733704,0.009018701,8389271,0,0.36630276,0.41379237,0.0033268228,0.03034679,0.012758188,0.0010364023,0.0,0.0,0.0,0.0,1311004,1311004,6620172,197644,0,0,831,2,1,2,0,48,0,0,0,0,0,0,0
21748560000,21748480000,0.00013472723,0.0020122803,0.00476409,8389271,0,0.3851438,0.42064655,0.013039125,0.03034679,0.012758188,0.0064588757,0.0,0.0,0.0,0.0,1311004,1311004,6620172,197644,0,0,831,2,1,2,0,48,0,0,0,0,0,0,0
21748760000,21748680000,5.805681e-05,0.00327798,0.008481964,8389271,0,0.38098982,0.42088082,0.0020582085,0.027504867,0.013845962,0.0015877525,0.0,0.0,0.0,0.0,1311004,1311004,6620172,197644,0,0,831,2,1,2,0,48,0,0,0,0,0,0,0
21748952000,21748872000,0.00010215634,0.0027232582,0.007971978,8389271,0,0.37652716,0.41752025,0.008145759,0.023151852,0.014163,0.0026785461,0.0,0.0,0.0,0.0,1311004,1311004,6620172,197644,0,0,831,2,1,2,0,48,0,0,0,0,0,0,0
21749160000,21749080000,7.135438e-05,0.0025089334,0.0059346813,8389271,0,0.3738764,0.4184036,0.009902217,0.018024899,0.010831428,0.00066749327,0.0,0.0,0.0,0.0,1311004,1311004,6620172,197644,0,0,831,2,1,2,0,48,0,0,0,0,0,0,0
21749360000,21749280000,9.195245e-05,0.002488784,0.0069965147,8389271,0,0.37080327,0.4157495,0.015160478,0.018943233,0.014643578,0.0010605747,0.0,0.0,0.0,0.0,1311004,1311004,6620172,197644,0,0,831,2,1,2,0,48,0,0,0,0,0,0,0
21749552000,21749472000,0.0002533434,0.00324164,0.008115945,8389271,0,0.36730644,0.41550872,0.020932106,0.034917,0.0110590225,0.005901291,0.0,0.0,0.0,0.0,1311004,1311004,6620172,197644,0,0,831,2,1,2,0,48,0,0,0,0,0,0,0
21749760000,21749680000,5.9211714e-05,0.0024133096,0.0055049835,8389271,0,0.3654194,0.41358143,0.0014895514,0.017375415,0.013635231,0.0016831579,0.0,0.0,0.0,0.0,1311004,1311004,6620172,197644,0,0,831,2,1,2,0,48,0,0,0,0,0,0,0
21749952000,21749872000,1.262467e-05,0.0022618347,0.005522169,8389271,0,0.38269117,0.41906726,0.003974471,0.017375415,0.013635231,0.0018837914,0.0,0.0,0.0,0.0,1311004,1311004,6620172,197644,0,0,831,2,1,2,0,48,0,0,0,0,0,0,0
21750152000,21750072000,7.357388e-05,0.0007352191,0.0018643921,8389271,0,0.37876263,0.41932404,0.007026496,0.019658944,0.018887667,0.0037244174,0.0,0.0,0.0,0.0,1311004,1311004,6620172,197644,0,0,831,2,1,2,0,48,0,0,0,0,0,0,0
21750352000,21750272000,7.9385485e-05,0.0025142923,0.0074100285,8389271,0,0.37522176,0.41661572,0.014294284,0.03135473,0.01580407,0.002205884,0.0,0.0,0.0,0.0,1311004,1311004,6620172,197644,0,0,831,2,1,2,0,48,0,0,0,0,0,0,0
21750560000,21750480000,6.3213454e-05,0.0012335723,0.0045860233,8389271,0,0.3727198,0.41751567,0.008892592,0.019338906,0.01396331,0.0065166936,0.0,0.0,0.0,0.0,1311004,1311004,6620172,197644,0,0,831,2,1,2,0,48,0,0,0,0,0,0,0
21750752000,21750672000,0.00014844401,0.0013230558,0.0035014667,8389271,0,0.3690792,0.4172705,0.026655588,0.019447468,0.013515806,0.0074946634,0.0,0.0,0.0,0.0,1311004,1311004,6620172,197644,0,0,831,2,1,2,0,48,0,0,0,0,0,0,0
21750960000,21750880000,7.954167e-05,0.0012139814,0.0016555698,8389271,0,0.36708537,0.41528863,0.007840059,0.0068252524,0.017972931,0.0013662693,0.0,0.0,0.0,0.0,1311004,1311004,6620172,197644,0,0,831,2,1,2,0,48,0,0,0,0,0,0,0
21751160000,21751080000,0.0001223114,0.0026548798,0.006445258,8389271,0,0.38532224,0.4213441,0.0023419769,0.0068252524,0.017972931,0.0010180413,0.0,0.0,0.0,0.0,1311004,1311004,6620172,197644,0,0,831,2,1,2,0,48,0,0,0,0,0,0,0
21751352000,21751272000,5.118057e-05,0.002412914,0.005844221,8389271,0,0.38040382,0.42090547,0.0053568855,0.025048856,0.0094068125,0.00021296942,0.0,0.0,0.0,0.0,1311004,1311004,6620172,197644,0,0,831,2,1,2,0,48,0,0,0,0,0,0,0
21751552000,21751472000,8.046581e-05,0.0024322935,0.005460534,8389271,0,0.37667415,0.41809627,0.015020821,0.008632662,0.012769459,0.005486953,0.0,0.0,0.0,0.0,1311004,1311004,6620172,197644,0,0,831,2,1,2,0,48,0,0,0,0,0,0,0
21751752000,21751672000,3.782452e-05,0.0025119614,0.0045221364,8389271,0,0.37336677,0.41832793,0.007363533,0.012170333,0.016559362,0.00017055299,0.0,0.0,0.0,0.0,1311004,1311004,6620172,197644,0,0,831,2,1,2,0,48,0,0,0,0,0,0,0
21751960000,21751880000,0.00013343441,0.0027951533,0.0062488387,8389271,0,0.37099394,0.41619873,0.016741142,0.009567509,0.010132337,0.0020544524,0.0,0.0,0.0,0.0,1311004,1311004,6620172,197644,0,0,831,2,1,2,0,48,0,0,0,0,0,0,0
21752160000,21752080000,0.00013274566,0.0023113035,0.005441446,8389271,0,0.36817175,0.41646948,0.013801652,0.007968408,0.009395955,0.0017177238,0.0,0.0,0.0,0.0,1311004,1311004,6620172,197644,0,0,831,2,1,2,0,48,0,0,0,0,0,0,0
21752352000,21752272000,3.8935395e-05,0.002196585,0.0049061175,8389271,0,0.3649011,0.41616794,0.008675925,0.008526699,0.013457628,0.003809581,0.0,0.0,0.0,0.0,1311004,1311004,6620172,197644,0,0,831,2,1,2,0,48,0,0,0,0,0,0,0
21752552000,21752472000,0.00020618776,0.00250648,0.006802358,8389271,0,0.38288575,0.42206365,0.0319839,0.008526699,0.013457628,0.0076285014,0.0,0.0,0.0,0.0,1311004,1311004,6620172,197644,0,0,831,2,1,2,0,48,0,0,0,0,0,0,0
21752752000,21752672000,0.00012820127,0.003008785,0.005870044,8389271,0,0.37893713,0.4191491,0.0037915728,0.017328138,0.017545717,0.0001333165,0.0,0.0,0.0,0.0,1311004,1311004,6620172,197644,0,0,831,2,1,2,0,48,0,0,0,0,0,0,0
21752952000,21752872000,5.7616766e-05,0.003695709,0.0067871814,8389271,0,0.37537718,0.4193137,0.008418023,0.019641954,0.016023237,0.0004346099,0.0,0.0,0.0,0.0,1311004,1311004,6620172,197644,0,0,831,2,1,2,0,48,0,0,0,0,0,0,0
21753160000,21753080000,7.628987e-05,0.0044552507,0.010079373,8389271,0,0.37286088,0.41713318,0.007161144,0.019086504,0.012002207,0.0056862542,0.0,0.0,0.0,0.0,1311004,1311004,6620172,197644,0,0,831,2,1,2,0,48,0,0,0,0,0,0,0
21753352000,21753272000,0.0001436329,0.0059456467,0.011759687,8389271,0,0.3692072,0.4167838,0.008936619,0.033440206,0.014156683,0.0010043032,0.0,0.0,0.0,0.0,1311004,1311004,6620172,197644,0,0,831,2,1,2,0,48,0,0,0,0,0,0,0
21753560000,21753480000,0.00014748552,0.00440239,0.009693265,8389271,0,0.36720094,0.41762388,0.023815526,0.013986559,0.01220851,0.002075375,0.0,0.0,0.0,0.0,1311004,1311004,6620172,197644,0,0,831,2,1,2,0,48,0,0,0,0,0,0,0
21753760000,21753680000,9.617488e-05,0.0025846886,0.00790171,8389271,0,0.3854253,0.4204756,0.013740149,0.013986559,0.01220851,0.002112235,0.0,0.0,0.0,0.0,1311004,1311004,6620172,197644,0,0,831,2,1,2,0,48,0,0,0,0,0,0,0
21753960000,21753880000,8.0675476e-05,0.0021509384,0.0054320004,8389271,0,0.38124308,0.42060387,0.01331191,0.012036974,0.012889693,0.003929498,0.0,0.0,0.0,0.0,1311004,1311004,6620172,197644,0,0,831,2,1,2,0,48,0,0,0,0,0,0,0
21754160000,21754080000,0.00010107301,0.004487388,0.010097852,8389271,0,0.37748536,0.41775054,0.011744224,0.03315121,0.012228841,0.008401767,0.0,0.0,0.0,0.0,1311004,1311004,6620172,197644,0,0,831,2,1,2,0,48,0,0,0,0,0,0,0
21754352000,21754272000,0.00011002207,0.0037041025,0.00781259,8389271,0,0.37337136,0.41734806,0.018883055,0.019967275,0.008281854,0.0009350042,0.0,0.0,0.0,0.0,1311004,1311004,6620172,197644,0,0,831,2,1,2,0,48,0,0,0,0,0,0,0
21754552000,21754472000,0.00011441985,0.0048746783,0.0094731245,8389271,0,0.37029344,0.41755834,0.007409612,0.031664897,0.012297521,5.1947387e-05,0.0,0.0,0.0,0.0,1311004,1311004,6620172,197644,0,0,831,2,1,2,0,48,0,0,0,0,0,0,0
21754752000,21754672000,9.8038814e-05,0.003746564,0.007835233,8389271,0,0.36747983,0.41483736,0.005548145,0.019027198,0.0066958223,0.0037064238,0.0,0.0,0.0,0.0,1311004,1311004,6620172,197644,0,0,831,2,1,2,0,48,0,0,0,0,0,0,0
21754952000,21754872000,0.00011599943,0.0045255194,0.010571902,8389271,0,0.3648979,0.41509333,0.011118488,0.029562144,0.011224095,0.0026502472,0.0,0.0,0.0,0.0,1311004,1311004,6620172,197644,0,0,831,2,1,2,0,48,0,0,0,0,0,0,0
21755160000,21755080000,0.00011374061,0.0016195882,0.0055115195,8389271,0,0.38359347,0.42136073,0.014110506,0.029562144,0.011224095,0.001968593,0.0,0.0,0.0,0.0,1311004,1311004,6620172,197644,0,0,831,2,1,2,0,48,0,0,0,0,0,0,0
21755352000,21755272000,9.1598544e-05,0.0037890773,0.010027036,8389271,0,0.3788923,0.4178582,0.0073083774,0.03562223,0.013046692,0.003298363,0.0,0.0,0.0,0.0,1311004,1311004,6620172,197644,0,0,831,2,1,2,0,48,0,0,0,0,0,0,0
21755560000,21755480000,5.9373953e-05,0.0021814916,0.0063083894,8389271,0,0.37606007,0.4186225,0.0014302202,0.01460408,0.013851099,0.0038967796,0.0,0.0,0.0,0.0,1311004,1311004,6620172,197644,0,0,831,2,1,2,0,48,0,0,0,0,0,0,0
21755752000,21755672000,0.00014095812,0.00434578,0.010455022,8389271,0,0.37211093,0.41823098,0.0018271905,0.039042935,0.009095146,0.008912408,0.0,0.0,0.0,0.0,1311004,1311004,6620172,197644,0,0,831,2,1,2,0,48,0,0,0,0,0,0,0
21755960000,21755880000,0.0001402458,0.0038474505,0.007686084,8389271,0,0.36986753,0.41607204,0.010844864,0.033208914,0.015012696,0.002057964,0.0,0.0,0.0,0.0,1311004,1311004,6620172,197644,0,0,831,2,1,2,0,48,0,0,0,0,0,0,0
21756152000,21756072000,0.0001503755,0.004505734,0.009776675,8389271,0,0.36647555,0.41574636,0.0024892625,0.035217635,0.01892623,0.00357759,0.0,0.0,0.0,0.0,1311004,1311004,6620172,197644,0,0,831,2,1,2,0,48,0,0,0,0,0,0,0
21756360000,21756280000,9.911928e-05,0.0009082418,0.004152383,8389271,0,0.38533956,0.4190179,0.007129816,0.035217635,0.01892623,0.0020292308,0.0,0.0,0.0,0.0,1311004,1311004,6620172,197644,0,0,831,2,1,2,0,48,0,0,0,0,0,0,0
21756552000,21756472000,0.00014038383,0.0016712906,0.0036531757,8389271,0,0.38042253,0.41859567,0.015285163,0.028943479,0.013269909,0.003501062,0.0,0.0,0.0,0.0,1311004,1311004,6620172,197644,0,0,831,2,1,2,0,48,0,0,0,0,0,0,0
21756752000,21756672000,0.000118092816,0.0032263955,0.007914964,8389271,0,0.37668902,0.41878882,0.0031564394,0.035915785,0.01056595,0.006399903,0.0,0.0,0.0,0.0,1311004,1311004,6620172,197644,0,0,831,2,1,2,0,48,0,0,0,0,0,0,0
21756952000,21756872000,8.9819085e-05,0.0021256604,0.0054129087,8389271,0,0.37331012,0.41604993,0.014749652,0.026947787,0.0140696345,0.0048588687,0.0,0.0,0.0,0.0,1311004,1311004,6620172,197644,0,0,831,2,1,2,0,48,0,0,0,0,0,0,0
21757152000,21757072000,0.00020111314,0.0034282298,0.008755707,8389271,0,0.37023598,0.41632888,0.007518375,0.037546244,0.008822565,0.0012173736,0.0,0.0,0.0,0.0,1311004,1311004,6620172,197644,0,0,831,2,1,2,0,48,0,0,0,0,0,0,0
21757352000,21757272000,0.00014692188,0.004212696,0.010737076,8389271,0,0.3674262,0.41370505,0.0068230177,0.038388055,0.013576234,0.0024433865,0.0,0.0,0.0,0.0,1311004,1311004,6620172,197644,0,0,831,2,1,2,0,48,0,0,0,0,0,0,0
21757552000,21757472000,0.0001529461,0.004221653,0.011877162,8389271,0,0.36484662,0.4140206,0.0018282129,0.04059479,0.008802419,0.007848145,0.0,0.0,0.0,0.0,1311004,1311004,6620172,197644,0,0,831,2,1,2,0,48,0,0,0,0,0,0,0
21757760000,21757680000,5.8640824e-05,0.0020593558,0.0048945122,8389271,0,0.38350195,0.4172376,0.00829136,0.04059479,0.008802419,0.0098953005,0.0,0.0,0.0,0.0,1311004,1311004,6620172,197644,0,0,831,2,1,2,0,48,0,0,0,0,0,0,0
21757960000,21757880000,9.6468604e-05,0.00094136765,0.0013123668,8389271,0,0.37954956,0.4174573,0.0006541574,0.03269115,0.013026176,0.0071218708,0.0,0.0,0.0,0.0,1311004,1311004,6620172,197644,0,0,831,2,1,2,0,48,0,0,0,0,0,0,0
21758152000,21758072000,0.00012157835,0.0016765842,0.005966934,8389271,0,0.37526318,0.41711816,0.012231483,0.03518412,0.017570237,0.008606074,0.0,0.0,0.0,0.0,1311004,1311004,6620172,197644,0,0,831,2,1,2,0,48,0,0,0,0,0,0,0
21758360000,21758280000,8.0421e-05,0.002197284,0.0051572463,8389271,0,0.372751,0.41501623,0.0022443873,0.035838977,0.014117135,0.00010216596,0.0,0.0,0.0,0.0,1311004,1311004,6620172,197644,0,0,831,2,1,2,0,48,0,0,0,0,0,0,0
21758560000,21758480000,2.930541e-05,0.003862937,0.0085275,8389271,0,0.36980203,0.41532817,0.0044298014,0.045740403,0.015104314,0.0031075503,0.0,0.0,0.0,0.0,1311004,1311004,6620172,197644,0,0,831,2,1,2,0,48,0,0,0,0,0,0,0
21758760000,21758680000,0.00012150736,0.0041548708,0.009299862,8389271,0,0.36710143,0.41277906,0.021805478,0.038317703,0.014393723,0.0007766785,0.0,0.0,0.0,0.0,1311004,1311004,6620172,197644,0,0,831,2,1,2,0,48,0,0,0,0,0,0,0
21758952000,21758872000,8.5237116e-05,0.0032187214,0.0047414782,8389271,0,0.38447398,0.41777205,0.02155702,0.038317703,0.014393723,0.0011029647,0.0,0.0,0.0,0.0,1311004,1311004,6620172,197644,0,0,831,2,1,2,0,48,0,0,0,0,0,0,0
21759152000,21759072000,6.57374e-05,0.0040341835,0.007036636,8389271,0,0.380333,0.41798303,0.005319799,0.018873349,0.009330002,0.003392115,0.0,0.0,0.0,0.0,1311004,1311004,6620172,197644,0,0,831,2,1,2,0,48,0,0,0,0,0,0,0
21759360000,21759280000,7.877591e-05,0.0020445152,0.004348547,8389271,0,0.3773336,0.4158841,0.0042252885,0.037682325,0.009246589,0.0068225414,0.0,0.0,0.0,0.0,1311004,1311004,6620172,197644,0,0,831,2,1,2,0,48,0,0,0,0,0,0,0
21759560000,21759480000,0.00012444767,0.0018339163,0.0051728715,8389271,0,0.3739468,0.41619632,0.021591581,0.034350123,0.009578474,0.010341861,0.0,0.0,0.0,0.0,1311004,1311004,6620172,197644,0,0,831,2,1,2,0,48,0,0,0,0,0,0,0
21759760000,21759680000,0.00016623684,0.0024795178,0.0071145976,8389271,0,0.37086517,0.41365194,0.028866043,0.038885985,0.010684856,0.006497489,0.0,0.0,0.0,0.0,1311004,1311004,6620172,197644,0,0,831,2,1,2,0,48,0,0,0,0,0,0,0
21759960000,21759880000,3.3637232e-05,0.0044646077,0.01010424,8389271,0,0.36804825,0.41404706,0.005263123,0.04412267,0.010936954,0.011227359,0.0,0.0,0.0,0.0,1311004,1311004,6620172,197644,0,0,831,2,1,2,0,48,0,0,0,0,0,0,0
21760152000,21760072000,8.193735e-05,0.0047830055,0.012599663,8389271,0,0.3647852,0.4110193,0.011668664,0.04983249,0.012743748,0.0053980057,0.0,0.0,0.0,0.0,1311004,1311004,6620172,197644,0,0,831,2,1,2,0,48,0,0,0,0,0,0,0
21760360000,21760280000,6.431835e-05,0.0031707627,0.005628437,8389271,0,0.38340098,0.41710827,0.019755326,0.04983249,0.012743748,0.004142704,0.0,0.0,0.0,0.0,1311004,1311004,6620172,197644,0,0,831,2,1,2,0,48,0,0,0,0,0,0,0
21760560000,21760480000,6.0501705e-05,0.0036202,0.0069803344,8389271,0,0.37945992,0.41443694,0.0032663462,0.05478725,0.016927734,0.009583502,0.0,0.0,0.0,0.0,1311004,1311004,6620172,197644,0,0,831,2,1,2,0,48,0,0,0,0,0,0,0
21760760000,21760680000,0.000105927626,0.0041034394,0.010756291,8389271,0,0.37590358,0.4147604,0.0062943264,0.062176585,0.011766207,0.01361763,0.0,0.0,0.0,0.0,1311004,1311004,6620172,197644,0,0,831,2,1,2,0,48,0,0,0,0,0,0,0
21760960000,21760880000,7.889724e-05,0.003552131,0.0091079315,8389271,0,0.37267578,0.4150984,0.01548891,0.040562257,0.012665565,0.007471514,0.0,0.0,0.0,0.0,1311004,1311004,6620172,197644,0,0,831,2,1,2,0,48,0,0,0,0,0,0,0
21761160000,21761080000,7.271953e-05,0.0036815566,0.007783636,8389271,0,0.36973187,0.4125545,0.0006567026,0.034726523,0.011944535,0.003027078,0.0,0.0,0.0,0.0,1311004,1311004,6620172,197644,0,0,831,2,1,2,0,48,0,0,0,0,0,0,0
21761360000,21761280000,9.5540294e-05,0.0034571248,0.0071795085,8389271,0,0.36703566,0.412959,0.0041280184,0.04758525,0.0140424585,0.0015430452,0.0,0.0,0.0,0.0,1311004,1311004,6620172,197644,0,0,831,2,1,2,0,48,0,0,0,0,0,0,0
21761560000,21761480000,8.546281e-05,0.0028804743,0.006264857,8389271,0,0.3851405,0.41853142,0.011096966,0.04758525,0.0140424585,0.00813572,0.0,0.0,0.0,0.0,1311004,1311004,6620172,197644,0,0,831,2,1,2,0,48,0,0,0,0,0,0,0
21761752000,21761672000,5.6728324e-05,0.0021155647,0.00470816,8389271,0,0.38024876,0.4152499,0.009801919,0.030044444,0.011320788,0.0025445553,0.0,0.0,0.0,0.0,1311004,1311004,6620172,197644,0,0,831,2,1,2,0,48,0,0,0,0,0,0,0
21761960000,21761880000,0.000118596756,0.00374815,0.0067862305,8389271,0,0.37725738,0.41610107,0.00899959,0.03541032,0.011487589,0.012041756,0.0,0.0,0.0,0.0,1311004,1311004,6620172,197644,0,0,831,2,1,2,0,48,0,0,0,0,0,0,0
21762152000,21762072000,8.778074e-05,0.0023482405,0.0045984066,8389271,0,0.3732332,0.41581982,0.027759267,0.038254432,0.015840255,0.010401332,0.0,0.0,0.0,0.0,1311004,1311004,6620172,197644,0,0,831,2,1,2,0,48,0,0,0,0,0,0,0
21762360000,21762280000,8.5452855e-05,0.0030556154,0.006604593,8389271,0,0.37086126,0.41377732,0.01995665,0.040426757,0.011043414,0.011813424,0.0,0.0,0.0,0.0,1311004,1311004,6620172,197644,0,0,831,2,1,2,0,48,0,0,0,0,0,0,0
21762560000,21762480000,0.00014907277,0.0047620004,0.010552139,8389271,0,0.36804333,0.41411874,0.00040243065,0.060521428,0.01003648,0.007914224,0.0,0.0,0.0,0.0,1311004,1311004,6620172,197644,0,0,831,2,1,2,0,48,0,0,0,0,0,0,0
21762752000,21762672000,0.00012901156,0.0033262777,0.0070728655,8389271,0,0.36483836,0.41107857,0.00955739,0.031974263,0.011463254,0.002320645,0.0,0.0,0.0,0.0,1311004,1311004,6620172,197644,0,0,831,2,1,2,0,48,0,0,0,0,0,0,0
21762960000,21762880000,1.2673574e-05,0.0025027299,0.0059195054,8389271,0,0.3834521,0.4171325,0.0014268283,0.031974263,0.011463254,0.010252628,0.0,0.0,0.0,0.0,1311004,1311004,6620172,197644,0,0,831,2,1,2,0,48,0,0,0,0,0,0,0
21763160000,21763080000,0.000170903,0.0034771643,0.008203817,8389271,0,0.3795038,0.41740507,0.048671104,0.007210318,0.011936988,0.016114779,0.0,0.0,0.0,0.0,1311004,1311004,6620172,197644,0,0,831,2,1,2,0,48,0,0,0,0,0,0,0
21763352000,21763272000,9.697751e-05,0.002589325,0.0044266926,8389271,0,0.3752224,0.41418982,0.015286589,0.034734722,0.011266199,0.006187155,0.0,0.0,0.0,0.0,1311004,1311004,6620172,197644,0,0,831,2,1,2,0,48,0,0,0,0,0,0,0
21763552000,21763472000,0.00013855405,0.002788887,0.0047952672,8389271,0,0.37200347,0.41450045,0.04103176,0.036393546,0.012308437,0.005357848,0.0,0.0,0.0,0.0,1311004,1311004,6620172,197644,0,0,831,2,1,2,0,48,0,0,0,0,0,0,0
21763760000,21763680000,8.282972e-05,0.0020428493,0.0036011226,8389271,0,0.36976147,0.41249716,0.003169811,0.02493549,0.00997855,0.011372127,0.0,0.0,0.0,0.0,1311004,1311004,6620172,197644,0,0,831,2,1,2,0,48,0,0,0,0,0,0,0
21763952000,21763872000,0.00012242542,0.0010334812,0.002837499,8389271,0,0.36637613,0.4122938,0.0019492153,0.028210131,0.010246454,0.016585864,0.0,0.0,0.0,0.0,1311004,1311004,6620172,197644,0,0,831,2,1,2,0,48,0,0,0,0,0,0,0
21764152000,21764072000,2.7674267e-05,0.0027575172,0.005867143,8389271,0,0.38439405,0.4177614,0.006146225,0.028210131,0.010246454,0.008029118,0.0,0.0,0.0,0.0,1311004,1311004,6620172,197644,0,0,831,2,1,2,0,48,0,0,0,0,0,0,0
21764360000,21764280000,6.942733e-05,0.002018224,0.0036569717,8389271,0,0.38100195,0.41561794,0.009461332,0.034488272,0.006268158,0.0075324215,0.0,0.0,0.0,0.0,1311004,1311004,6620172,197644,0,0,831,2,1,2,0,48,0,0,0,0,0,0,0
21764560000,21764480000,6.411243e-05,0.0012237898,0.0034493809,8389271,0,0.37726626,0.4159154,0.0035886334,0.03686264,0.010262394,0.0037880372,0.0,0.0,0.0,0.0,1311004,1311004,6620172,197644,0,0,831,2,1,2,0,48,0,0,0,0,0,0,0
21764752000,21764672000,7.550137e-05,0.0018771106,0.0041921283,8389271,0,0.37317497,0.4127743,0.00067598914,0.010901273,0.007972256,0.0052097943,0.0,0.0,0.0,0.0,1311004,1311004,6620172,197644,0,0,831,2,1,2,0,48,0,0,0,0,0,0,0
21764960000,21764880000,6.045793e-05,0.0022111493,0.008230589,8389271,0,0.37080655,0.41370735,0.0013249785,0.026711257,0.010203846,0.009865023,0.0,0.0,0.0,0.0,1311004,1311004,6620172,197644,0,0,831,2,1,2,0,48,0,0,0,0,0,0,0
21765160000,21765080000,7.514267e-05,0.0029825736,0.0071009705,8389271,0,0.367992,0.41408017,0.015254772,0.019149583,0.008346304,0.010418582,0.0,0.0,0.0,0.0,1311004,1311004,6620172,197644,0,0,831,2,1,2,0,48,0,0,0,0,0,0,0
21765360000,21765280000,0.00012146481,0.0017743021,0.0033068827,8389271,0,0.3654083,0.41159797,0.0063637523,0.027369367,0.009669339,0.009285878,0.0,0.0,0.0,0.0,1311004,1311004,6620172,197644,0,0,831,2,1,2,0,48,0,0,0,0,0,0,0
21765560000,21765480000,8.5045605e-05,0.0030393337,0.0075498363,8389271,0,0.38330764,0.41704974,0.021854192,0.027369367,0.009669339,0.012927071,0.0,0.0,0.0,0.0,1311004,1311004,6620172,197644,0,0,831,2,1,2,0,48,0,0,0,0,0,0,0
21765760000,21765680000,9.983417e-05,0.0019999552,0.0058812737,8389271,0,0.37937516,0.4173015,0.0044773687,0.025439607,0.013450908,0.006707456,0.0,0.0,0.0,0.0,1311004,1311004,6620172,197644,0,0,831,2,1,2,0,48,0,0,0,0,0,0,0
21765960000,21765880000,3.4710378e-05,0.0017349048,0.0031815672,8389271,0,0.37582585,0.41463926,0.003273666,0.02817409,0.013382515,0.008011316,0.0,0.0,0.0,0.0,1311004,1311004,6620172,197644,0,0,831,2,1,2,0,48,0,0,0,0,0,0,0
21766160000,21766080000,4.679445e-05,0.002467248,0.006099089,8389271,0,0.37260315,0.41493747,0.0055389144,0.012832698,0.014776836,0.010930472,0.0,0.0,0.0,0.0,1311004,1311004,6620172,197644,0,0,831,2,1,2,0,48,0,0,0,0,0,0,0
21766352000,21766272000,4.8103357e-05,0.0020877267,0.0059776925,8389271,0,0.36897,0.414697,0.0010996691,0.019857738,0.013064841,0.0071160025,0.0,0.0,0.0,0.0,1311004,1311004,6620172,197644,0,0,831,2,1,2,0,48,0,0,0,0,0,0,0
21766560000,21766480000,4.993033e-05,0.0021354493,0.0053612227,8389271,0,0.36697033,0.41273856,0.0002788847,0.023053495,0.012809715,0.0029821463,0.0,0.0,0.0,0.0,1311004,1311004,6620172,197644,0,0,831,2,1,2,0,48,0,0,0,0,0,0,0
21766752000,21766672000,5.949238e-05,0.0026154441,0.0060195727,8389271,0,0.38427475,0.4176444,0.020537263,0.023053495,0.012809715,0.009155696,0.0,0.0,0.0,0.0,1311004,1311004,6620172,197644,0,0,831,2,1,2,0,48,0,0,0,0,0,0,0
21766960000,21766880000,5.6671153e-05,0.0023527443,0.004838077,8389271,0,0.38089466,0.41552535,0.010501546,0.031718303,0.006392046,0.012896931,0.0,0.0,0.0,0.0,1311004,1311004,6620172,197644,0,0,831,2,1,2,0,48,0,0,0,0,0,0,0
21767152000,21767072000,8.2038445e-05,0.00248303,0.0064579165,8389271,0,0.3764464,0.41523504,0.028818812,0.016522631,0.0067493203,0.0059005865,0.0,0.0,0.0,0.0,1311004,1311004,6620172,197644,0,0,831,2,1,2,0,48,0,0,0,0,0,0,0
21767352000,21767272000,1.98012e-05,0.0026294389,0.0075929766,8389271,0,0.37308806,0.41553527,0.0016045144,0.013323383,0.008118399,0.008446504,0.0,0.0,0.0,0.0,1311004,1311004,6620172,197644,0,0,831,2,1,2,0,48,0,0,0,0,0,0,0
21767560000,21767480000,7.7816934e-05,0.0008742324,0.002815164,8389271,0,0.370726,0.41350955,0.0019204784,0.041870516,0.007387006,0.0033569285,0.0,0.0,0.0,0.0,1311004,1311004,6620172,197644,0,0,831,2,1,2,0,48,0,0,0,0,0,0,0
21767752000,21767672000,0.00011426541,0.0016403156,0.0026682382,8389271,0,0.36723265,0.41328177,0.0075675063,0.033616796,0.012358707,0.004647179,0.0,0.0,0.0,0.0,1311004,1311004,6620172,197644,0,0,831,2,1,2,0,48,0,0,0,0,0,0,0
21767952000,21767872000,1.1783358e-05,0.0017933338,0.0045348457,8389271,0,0.385274,0.41580725,0.0069751046,0.033616796,0.012358707,0.0049573174,0.0,0.0,0.0,0.0,1311004,1311004,6620172,197644,0,0,831,2,1,2,0,48,0,0,0,0,0,0,0
21768160000,21768080000,1.0744567e-05,0.0026477308,0.0066188327,8389271,0,0.38177267,0.41662514,0.0054779975,0.007125499,0.01404305,0.00854804,0.0,0.0,0.0,0.0,1311004,1311004,6620172,197644,0,0,831,2,1,2,0,48,0,0,0,0,0,0,0
21768352000,21768272000,5.2598247e-05,0.001136028,0.0035016595,8389271,0,0.3772868,0.416334,0.0014884254,0.02888164,0.016352408,0.0042711953,0.0,0.0,0.0,0.0,1311004,1311004,6620172,197644,0,0,831,2,1,2,0,48,0,0,0,0,0,0,0
21768552000,21768472000,5.074528e-05,0.0006107452,0.0023331481,8389271,0,0.37389654,0.41372976,0.0029553417,0.02095117,0.022266058,0.007138803,0.0,0.0,0.0,0.0,1311004,1311004,6620172,197644,0,0,831,2,1,2,0,48,0,0,0,0,0,0,0
21768752000,21768672000,3.4013938e-05,0.0018673841,0.0037003506,8389271,0,0.37074745,0.41408023,0.0017830317,0.03747178,0.01033982,0.004222079,0.0,0.0,0.0,0.0,1311004,1311004,6620172,197644,0,0,831,2,1,2,0,48,0,0,0,0,0,0,0
21768952000,21768872000,9.3102804e-05,0.0040410617,0.008023646,8389271,0,0.36787015,0.41157666,0.009471112,0.026578275,0.01400741,7.966107e-05,0.0,0.0,0.0,0.0,1311004,1311004,6620172,197644,0,0,831,2,1,2,0,48,0,0,0,0,0,0,0
21769160000,21769080000,7.2879615e-05,0.0043010465,0.009856827,8389271,0,0.3659685,0.41253218,0.0074738874,0.019778047,0.019141098,0.008182063,0.0,0.0,0.0,0.0,1311004,1311004,6620172,197644,0,0,831,2,1,2,0,48,0,0,0,0,0,0,0
21769360000,21769280000,5.191664e-05,0.0026709912,0.0057813697,8389271,0,0.38387144,0.41507334,0.012087327,0.019778047,0.019141098,0.00964303,0.0,0.0,0.0,0.0,1311004,1311004,6620172,197644,0,0,831,2,1,2,0,48,0,0,0,0,0,0,0
21769552000,21769472000,2.8425959e-05,0.0019513086,0.005285034,8389271,0,0.3791346,0.41479966,0.008296378,0.018525355,0.011297892,0.004744692,0.0,0.0,0.0,0.0,1311004,1311004,6620172,197644,0,0,831,2,1,2,0,48,0,0,0,0,0,0,0
21769760000,21769680000,2.6953428e-05,0.0021628009,0.0060470304,8389271,0,0.37625885,0.41570184,0.004394358,0.022091199,0.013642357,0.0065434272,0.0,0.0,0.0,0.0,1311004,1311004,6620172,197644,0,0,831,2,1,2,0,48,0,0,0,0,0,0,0
21769960000,21769880000,9.659969e-05,0.004368007,0.010428229,8389271,0,0.37298423,0.4131841,0.0022746085,0.024067933,0.01710065,0.0025907236,0.0,0.0,0.0,0.0,1311004,1311004,6620172,197644,0,0,831,2,1,2,0,48,0,0,0,0,0,0,0
21770160000,21770080000,6.3309424e-05,0.0018450122,0.0050870385,8389271,0,0.36999905,0.4107446,0.015007323,0.0204316,0.016393414,0.008104011,0.0,0.0,0.0,0.0,1311004,1311004,6620172,197644,0,0,831,2,1,2,0,48,0,0,0,0,0,0,0
21770360000,21770280000,9.3884715e-05,0.0024685266,0.0059438027,8389271,0,0.3672648,0.41120216,0.019496277,0.011021744,0.017152429,0.0032861852,0.0,0.0,0.0,0.0,1311004,1311004,6620172,197644,0,0,831,2,1,2,0,48,0,0,0,0,0,0,0
21770560000,21770480000,1.7995377e-05,0.0023664287,0.007190274,8389271,0,0.38531297,0.4167141,0.0077015394,0.011021744,0.017152429,0.0040139155,0.0,0.0,0.0,0.0,1311004,1311004,6620172,197644,0,0,831,2,1,2,0,48,0,0,0,0,0,0,0
21770752000,21770672000,6.672583e-05,0.0023119294,0.004546863,8389271,0,0.38039985,0.41352558,0.010727689,0.02320705,0.009035034,0.0048867078,0.0,0.0,0.0,0.0,1311004,1311004,6620172,197644,0,0,831,2,1,2,0,48,0,0,0,0,0,0,0
21770960000,21770880000,5.743048e-05,0.0030867746,0.0052548144,8389271,0,0.37738326,0.41446453,0.008466053,0.025300056,0.013993364,0.00838848,0.0,0.0,0.0,0.0,1311004,1311004,6620172,197644,0,0,831,2,1,2,0,48,0,0,0,0,0,0,0
21771160000,21771080000,7.648016e-05,0.0033326386,0.007894153,8389271,0,0.373983,0.41483572,0.016731488,0.016753327,0.008935195,0.0019309231,0.0,0.0,0.0,0.0,1311004,1311004,6620172,197644,0,0,831,2,1,2,0,48,0,0,0,0,0,0,0
21771352000,21771272000,6.0991613e-05,0.0022694496,0.0042965687,8389271,0,0.37019324,0.41179758,0.00017880765,0.010777887,0.012731298,0.009722411,0.0,0.0,0.0,0.0,1311004,1311004,6620172,197644,0,0,831,2,1,2,0,48,0,0,0,0,0,0,0
21771552000,21771472000,6.6944645e-05,0.0029122718,0.007220068,8389271,0,0.36737514,0.41223148,0.0020398113,0.017552033,0.010214964,0.006577584,0.0,0.0,0.0,0.0,1311004,1311004,6620172,197644,0,0,831,2,1,2,0,48,0,0,0,0,0,0,0
21771760000,21771680000,0.000105457395,0.0033154625,0.0066002025,8389271,0,0.36546326,0.41040453,0.0021106012,0.028363783,0.013963336,0.006966553,0.0,0.0,0.0,0.0,1311004,1311004,6620172,197644,0,0,831,2,1,2,0,48,0,0,0,0,0,0,0
21771960000,21771880000,6.057994e-05,0.002073627,0.0070249783,8389271,0,0.3833245,0.41591755,0.016124269,0.028363783,0.013963336,0.0008476716,0.0,0.0,0.0,0.0,1311004,1311004,6620172,197644,0,0,831,2,1,2,0,48,0,0,0,0,0,0,0
21772152000,21772072000,8.622196e-05,0.0028923377,0.0072782026,8389271,0,0.37865403,0.41282192,0.015042576,0.021071186,0.018364757,0.0029551843,0.0,0.0,0.0,0.0,1311004,1311004,6620172,197644,0,0,831,2,1,2,0,48,0,0,0,0,0,0,0
21772360000,21772280000,8.077319e-05,0.0023768996,0.005274671,8389271,0,0.3758333,0.41382143,0.0017429157,0.0192819,0.009903725,0.0035181448,0.0,0.0,0.0,0.0,1311004,1311004,6620172,197644,0,0,831,2,1,2,0,48,0,0,0,0,0,0,0
21772552000,21772472000,5.8254624e-05,0.0023606059,0.006951802,8389271,0,0.37190259,0.41368622,0.01046283,0.0149345705,0.02004952,0.0014253013,0.0,0.0,0.0,0.0,1311004,1311004,6620172,197644,0,0,831,2,1,2,0,48,0,0,0,0,0,0,0
21772760000,21772680000,0.00010498093,0.0032982696,0.0089192195,8389271,0,0.36966306,0.41183373,0.0102127725,0.03279064,0.015500025,0.0006191349,0.0,0.0,0.0,0.0,1311004,1311004,6620172,197644,0,0,831,2,1,2,0,48,0,0,0,0,0,0,0
21772960000,21772880000,8.032781e-05,0.0020246543,0.0052782455,8389271,0,0.3669663,0.41231793,0.0010670469,0.019183734,0.01816326,0.0019535995,0.0,0.0,0.0,0.0,1311004,1311004,6620172,197644,0,0,831,2,1,2,0,48,0,0,0,0,0,0,0
21773160000,21773080000,4.9283037e-05,0.002089018,0.005840694,8389271,0,0.38500106,0.41498542,0.024969088,0.019183734,0.01816326,0.0019870833,0.0,0.0,0.0,0.0,1311004,1311004,6620172,197644,0,0,831,2,1,2,0,48,0,0,0,0,0,0,0
21773360000,21773280000,5.518947e-05,0.0019674902,0.0055289324,8389271,0,0.38093603,0.41536632,0.0019066167,0.014728527,0.015276165,0.0035032441,0.0,0.0,0.0,0.0,1311004,1311004,6620172,197644,0,0,831,2,1,2,0,48,0,0,0,0,0,0,0
21773552000,21773472000,6.802824e-05,0.0035310606,0.008422589,8389271,0,0.37648195,0.4151785,0.0024936881,0.019441532,0.01074159,0.0011862719,0.0,0.0,0.0,0.0,1311004,1311004,6620172,197644,0,0,831,2,1,2,0,48,0,0,0,0,0,0,0
21773752000,21773672000,0.00010654892,0.0042038457,0.009369642,8389271,0,0.37311777,0.4126847,0.006749814,0.027444772,0.016431345,0.000118625794,0.0,0.0,0.0,0.0,1311004,1311004,6620172,197644,0,0,831,2,1,2,0,48,0,0,0,0,0,0,0
21773952000,21773872000,6.7251676e-05,0.003520384,0.008884301,8389271,0,0.37005466,0.41309178,0.004758522,0.021337058,0.016140314,0.0012538269,0.0,0.0,0.0,0.0,1311004,1311004,6620172,197644,0,0,831,2,1,2,0,48,0,0,0,0,0,0,0
21774160000,21774080000,5.5409968e-05,0.0015181563,0.0041321185,8389271,0,0.36799952,0.41121697,0.018974578,0.010481812,0.021327365,0.0012027237,0.0,0.0,0.0,0.0,1311004,1311004,6620172,197644,0,0,831,2,1,2,0,48,0,0,0,0,0,0,0
21774352000,21774272000,7.121375e-05,0.0012441368,0.0025388924,8389271,0,0.36473605,0.4110932,0.00039361892,0.020908574,0.015428354,0.0034256114,0.0,0.0,0.0,0.0,1311004,1311004,6620172,197644,0,0,831,2,1,2,0,48,0,0,0,0,0,0,0
21774560000,21774480000,3.54457e-05,0.0024804177,0.0066265673,8389271,0,0.38328978,0.41713762,0.005671004,0.020908574,0.015428354,0.0015844174,0.0,0.0,0.0,0.0,1311004,1311004,6620172,197644,0,0,831,2,1,2,0,48,0,0,0,0,0,0,0
21774760000,21774680000,6.4437925e-05,0.0022701381,0.0066669034,8389271,0,0.37935737,0.41448745,0.00879736,0.01170026,0.016770124,0.0011411178,0.0,0.0,0.0,0.0,1311004,1311004,6620172,197644,0,0,831,2,1,2,0,48,0,0,0,0,0,0,0
21774960000,21774880000,9.0684145e-05,0.0035976213,0.011716199,8389271,0,0.37580726,0.4148005,0.00693514,0.026568893,0.022842417,0.006256533,0.0,0.0,0.0,0.0,1311004,1311004,6620172,197644,0,0,831,2,1,2,0,48,0,0,0,0,0,0,0
21775160000,21775080000,0.0001235928,0.0044128112,0.012680414,8389271,0,0.37258518,0.41512117,0.0095346905,0.04122447,0.018211374,0.00022512354,0.0,0.0,0.0,0.0,1311004,1311004,6620172,197644,0,0,831,2,1,2,0,48,0,0,0,0,0,0,0
21775360000,21775280000,8.3282466e-05,0.0029355194,0.008257162,8389271,0,0.36964557,0.4125608,0.012700086,0.023613937,0.020990504,0.00464876,0.0,0.0,0.0,0.0,1311004,1311004,6620172,197644,0,0,831,2,1,2,0,48,0,0,0,0,0,0,0
21775560000,21775480000,0.000103735474,0.0019481417,0.0065740463,8389271,0,0.36695164,0.41292015,0.025398953,0.018009387,0.016465403,0.0019898172,0.0,0.0,0.0,0.0,1311004,1311004,6620172,197644,0,0,831,2,1,2,0,48,0,0,0,0,0,0,0
21775752000,21775672000,1.2531943e-05,0.0027027382,0.008122167,8389271,0,0.38423648,0.41780773,0.005220294,0.018009387,0.016465403,0.003561757,0.0,0.0,0.0,0.0,1311004,1311004,6620172,197644,0,0,831,2,1,2,0,48,0,0,0,0,0,0,0
21775960000,21775880000,9.479359e-05,0.0040139635,0.012466029,8389271,0,0.38085878,0.41567525,0.012004821,0.037767883,0.014920688,0.0010779132,0.0,0.0,0.0,0.0,1311004,1311004,6620172,197644,0,0,831,2,1,2,0,48,0,0,0,0,0,0,0
21776152000,21776072000,0.00013279707,0.003515692,0.011448204,8389271,0,0.37641418,0.4153749,0.0009692388,0.023945356,0.018732408,0.0026745158,0.0,0.0,0.0,0.0,1311004,1311004,6620172,197644,0,0,831,2,1,2,0,48,0,0,0,0,0,0,0
21776352000,21776272000,0.00013915954,0.0040021394,0.013474342,8389271,0,0.37305683,0.41277277,0.0009774762,0.033777867,0.014581873,0.0051535144,0.0,0.0,0.0,0.0,1311004,1311004,6620172,197644,0,0,831,2,1,2,0,48,0,0,0,0,0,0,0
21776552000,21776472000,0.00020332438,0.0030064022,0.009350239,8389271,0,0.37000072,0.4131579,0.05130696,0.028986007,0.018224066,0.0030774104,0.0,0.0,0.0,0.0,1311004,1311004,6620172,197644,0,0,831,2,1,2,0,48,0,0,0,0,0,0,0
21776752000,21776672000,6.74731e-05,0.0028452228,0.008557147,8389271,0,0.3672046,0.4135476,0.008411271,0.026412215,0.012258348,0.0026930152,0.0,0.0,0.0,0.0,1311004,1311004,6620172,197644,0,0,831,2,1,2,0,48,0,0,0,0,0,0,0
21776952000,21776872000,7.38821e-05,0.0020198638,0.0045812274,8389271,0,0.3646369,0.41109213,0.0074185287,0.01725008,0.017209528,0.0022894708,0.0,0.0,0.0,0.0,1311004,1311004,6620172,197644,0,0,831,2,1,2,0,48,0,0,0,0,0,0,0
21777152000,21777072000,1.4894753e-05,0.0034348557,0.008379577,8389271,0,0.3824228,0.4165216,0.0060500307,0.01725008,0.017209528,0.0038736018,0.0,0.0,0.0,0.0,1311004,1311004,6620172,197644,0,0,831,2,1,2,0,48,0,0,0,0,0,0,0
21777360000,21777280000,0.00011387116,0.0024979897,0.005646314,8389271,0,0.37925476,0.41442946,0.019363103,0.034613196,0.01960922,0.0060276766,0.0,0.0,0.0,0.0,1311004,1311004,6620172,197644,0,0,831,2,1,2,0,48,0,0,0,0,0,0,0
21777552000,21777472000,8.554937e-05,0.0018263769,0.005425696,8389271,0,0.37499937,0.41415608,0.0028134051,0.022303019,0.019448062,0.0012260035,0.0,0.0,0.0,0.0,1311004,1311004,6620172,197644,0,0,831,2,1,2,0,48,0,0,0,0,0,0,0
21777760000,21777680000,0.00010610758,0.002684379,0.008635656,8389271,0,0.3725041,0.41503516,0.0077930302,0.038104564,0.025399497,0.0042730295,0.0,0.0,0.0,0.0,1311004,1311004,6620172,197644,0,0,831,2,1,2,0,48,0,0,0,0,0,0,0
21777960000,21777880000,7.1834984e-05,0.003436637,0.011085647,8389271,0,0.36957276,0.4124608,0.021564933,0.041152775,0.024137465,0.006338925,0.0,0.0,0.0,0.0,1311004,1311004,6620172,197644,0,0,831,2,1,2,0,48,0,0,0,0,0,0,0
21778160000,21778080000,0.0001342101,0.0026485173,0.0075214263,8389271,0,0.36688593,0.41280535,0.0049205706,0.030033616,0.024128465,0.0007247397,0.0,0.0,0.0,0.0,1311004,1311004,6620172,197644,0,0,831,2,1,2,0,48,0,0,0,0,0,0,0
21778360000,21778280000,0.00010659666,0.002851583,0.0069323997,8389271,0,0.38491765,0.41824886,0.011864399,0.030033616,0.024128465,0.0072871773,0.0,0.0,0.0,0.0,1311004,1311004,6620172,197644,0,0,831,2,1,2,0,48,0,0,0,0,0,0,0
21778552000,21778472000,0.00014672293,0.001702009,0.0039827265,8389271,0,0.3800516,0.41493842,0.029928554,0.027757768,0.02112438,0.0066362163,0.0,0.0,0.0,0.0,1311004,1311004,6620172,197644,0,0,831,2,1,2,0,48,0,0,0,0,0,0,0
21778752000,21778672000,0.00011935427,0.0013896785,0.0037245592,8389271,0,0.37635347,0.41520977,0.007173417,0.026989177,0.010753628,0.003219134,0.0,0.0,0.0,0.0,1311004,1311004,6620172,197644,0,0,831,2,1,2,0,48,0,0,0,0,0,0,0
21778960000,21778880000,9.73406e-05,0.0012159741,0.002520115,8389271,0,0.37377647,0.41319525,0.0060706995,0.03304178,0.025340768,0.0019923209,0.0,0.0,0.0,0.0,1311004,1311004,6620172,197644,0,0,831,2,1,2,0,48,0,0,0,0,0,0,0
