timestamp,timestamp_sample,control[0],control[1],control[2],control[3],control[4],control[5],control[6],control[7]
21726360000,21726360000,-0.0031448829,0.0028716705,-0.00024646232,0.001,0.0,0.0,0.0,-1.0
21726368000,21726368000,-0.0029860965,0.0029358945,-0.0004959805,0.001,0.0,0.0,0.0,-1.0
21726408000,21726408000,-0.00334984,0.0018262807,-1.08224775e-07,0.001,0.0,0.0,0.0,-1.0
21726460000,21726460000,-0.0032763404,0.0029614072,-0.000117530326,0.001,0.0,0.0,0.0,-1.0
21726512000,21726512000,-0.0028142522,0.0025812064,-0.0010264501,0.001,0.0,0.0,0.0,-1.0
21726560000,21726560000,-0.003247662,0.0026730658,-0.00014345447,0.001,0.0,0.0,0.0,-1.0
21726612000,21726612000,-0.0020730388,0.0029637371,-0.00010960999,0.001,0.0,0.0,0.0,-1.0
21726660000,21726660000,-0.0026983137,0.0023381957,-0.001054955,0.001,0.0,0.0,0.0,-1.0
21726712000,21726712000,-0.0026083256,0.0028798692,-0.00043083355,0.001,0.0,0.0,0.0,-1.0
21726760000,21726760000,-0.0027304306,0.0023627733,0.00013789501,0.001,0.0,0.0,0.0,-1.0
21726808000,21726808000,-0.0035634467,0.0016180024,1.06258485e-05,0.001,0.0,0.0,0.0,-1.0
21726856000,21726856000,-0.003696935,0.00241555,-0.00035782575,0.001,0.0,0.0,0.0,-1.0
21726912000,21726912000,-0.0021261054,0.0025944277,-0.0010143912,0.001,0.0,0.0,0.0,-1.0
21726960000,21726960000,-0.0031213197,0.0027184074,0.00060894765,0.001,0.0,0.0,0.0,-1.0
21727012000,21727012000,-0.0023135738,0.0031769928,-0.0009457729,0.001,0.0,0.0,0.0,-1.0
21727060000,21727060000,-0.003124199,0.0025263063,-0.0002796008,0.001,0.0,0.0,0.0,-1.0
21727112000,21727112000,-0.0030690609,0.003201261,0.00028021363,0.001,0.0,0.0,0.0,-1.0
21727156000,21727156000,-0.0028254185,0.0021641352,-0.0006493362,0.001,0.0,0.0,0.0,-1.0
21727212000,21727212000,-0.0032193623,0.0026549844,-0.00035507896,0.001,0.0,0.0,0.0,-1.0
21727256000,21727256000,-0.0022534896,0.0022915632,-0.00015722711,0.001,0.0,0.0,0.0,-1.0
21727312000,21727312000,-0.0033492346,0.002528281,-1.6084632e-05,0.001,0.0,0.0,0.0,-1.0
21727356000,21727356000,-0.0024436223,0.0031785944,0.00021985824,0.001,0.0,0.0,0.0,-1.0
21727412000,21727412000,-0.0029460283,0.002966751,-0.00055674603,0.001,0.0,0.0,0.0,-1.0
21727460000,21727460000,-0.0023436362,0.0030106716,0.0004345507,0.001,0.0,0.0,0.0,-1.0
21727512000,21727512000,-0.0028429085,0.0027400118,0.0006011566,0.001,0.0,0.0,0.0,-1.0
21727560000,21727560000,-0.0031325626,0.0029841983,0.000108923065,0.001,0.0,0.0,0.0,-1.0
21727612000,21727612000,-0.0034285292,0.0029220642,-0.00027019647,0.001,0.0,0.0,0.0,-1.0
21727660000,21727660000,-0.0019876885,0.003310402,0.0009831021,0.001,0.0,0.0,0.0,-1.0
21727712000,21727712000,-0.0021215242,0.003184709,-0.00034465906,0.001,0.0,0.0,0.0,-1.0
21727760000,21727760000,-0.0033155007,0.002997316,0.00011333724,0.001,0.0,0.0,0.0,-1.0
21727812000,21727812000,-0.0028815498,0.003732681,0.000636334,0.001,0.0,0.0,0.0,-1.0
21727860000,21727860000,-0.003574045,0.003224369,-0.00048039455,0.001,0.0,0.0,0.0,-1.0
21727912000,21727912000,-0.0026781731,0.0019417674,0.0006793833,0.001,0.0,0.0,0.0,-1.0
21727956000,21727956000,-0.0031789446,0.0032930123,-1.0265294e-05,0.001,0.0,0.0,0.0,-1.0
21728012000,21728012000,-0.002967086,0.0037436879,0.0011186296,0.001,0.0,0.0,0.0,-1.0
21728060000,21728060000,-0.0033612521,0.0028178124,0.0010833951,0.001,0.0,0.0,0.0,-1.0
21728112000,21728112000,-0.0037320575,0.0028208937,-0.0006972991,0.001,0.0,0.0,0.0,-1.0
21728156000,21728156000,-0.0023918084,0.0024743136,-0.0005952552,0.001,0.0,0.0,0.0,-1.0
21728212000,21728212000,-0.0026912706,0.0021723872,-0.0008868839,0.001,0.0,0.0,0.0,-1.0
21728260000,21728260000,-0.0028484825,0.0026378555,0.00017731672,0.001,0.0,0.0,0.0,-1.0
21728312000,21728312000,-0.0031847155,0.0025164636,0.0005790936,0.001,0.0,0.0,0.0,-1.0
21728356000,21728356000,-0.0038008138,0.003018278,-0.00048974797,0.001,0.0,0.0,0.0,-1.0
21728412000,21728412000,-0.0028946362,0.0033733991,0.00036758173,0.001,0.0,0.0,0.0,-1.0
21728460000,21728460000,-0.0039261496,0.0034175387,0.0004340198,0.001,0.0,0.0,0.0,-1.0
21728512000,21728512000,-0.0041119726,0.0028225211,-0.0004268258,0.001,0.0,0.0,0.0,-1.0
21728560000,21728560000,-0.0031079114,0.00330953,0.00040842756,0.001,0.0,0.0,0.0,-1.0
21728608000,21728608000,-0.003415594,0.0023211143,0.00088765594,0.001,0.0,0.0,0.0,-1.0
21728660000,21728660000,-0.004292912,0.0034465815,0.0005397224,0.001,0.0,0.0,0.0,-1.0
21728712000,21728712000,-0.0045756423,0.00459664,0.00014168493,0.001,0.0,0.0,0.0,-1.0
21728756000,21728756000,-0.0026992222,0.0032175398,0.000659377,0.001,0.0,0.0,0.0,-1.0
21728812000,21728812000,-0.0028943794,0.0027620017,-0.0006632993,0.001,0.0,0.0,0.0,-1.0
21728860000,21728860000,-0.0029418052,0.0031954462,0.0008662183,0.001,0.0,0.0,0.0,-1.0
21728912000,21728912000,-0.0025386198,0.0032730426,-0.00051696826,0.001,0.0,0.0,0.0,-1.0
21728960000,21728960000,-0.003897343,0.00288369,0.0016047275,0.001,0.0,0.0,0.0,-1.0
21729008000,21729008000,-0.0043957704,0.0033112809,9.612325e-05,0.001,0.0,0.0,0.0,-1.0
21729060000,21729060000,-0.0015432831,0.0032982342,0.0005211047,0.001,0.0,0.0,0.0,-1.0
21729108000,21729108000,-0.0044195056,0.0031627836,-0.0014924405,0.001,0.0,0.0,0.0,-1.0
21729160000,21729160000,-0.0015781767,0.0036604307,0.00075029896,0.001,0.0,0.0,0.0,-1.0
21729212000,21729212000,-0.005183298,0.00304688,8.397287e-05,0.001,0.0,0.0,0.0,-1.0
21729260000,21729260000,-0.002864911,0.0034723831,-0.00022219439,0.001,0.0,0.0,0.0,-1.0
21729312000,21729312000,-0.005352007,0.0023518216,0.0010380693,0.001,0.0,0.0,0.0,-1.0
21729360000,21729360000,-0.0026266524,0.0029486646,-8.666362e-05,0.001,0.0,0.0,0.0,-1.0
21729412000,21729412000,-0.0045662653,0.0035569333,-0.0002116318,0.001,0.0,0.0,0.0,-1.0
21729460000,21729460000,-0.0034558182,0.0026822304,0.0007774068,0.001,0.0,0.0,0.0,-1.0
21729512000,21729512000,-0.0020507032,0.0033034415,0.000108598324,0.001,0.0,0.0,0.0,-1.0
21729556000,21729556000,-0.0036400189,0.0030983218,2.9995577e-05,0.001,0.0,0.0,0.0,-1.0
21729608000,21729608000,-0.0045894813,0.0027907155,0.0020921421,0.001,0.0,0.0,0.0,-1.0
21729660000,21729660000,-0.0023082595,0.0026079977,-4.2042786e-05,0.001,0.0,0.0,0.0,-1.0
21729712000,21729712000,-0.0029083227,0.003379908,-0.00040896292,0.001,0.0,0.0,0.0,-1.0
21729760000,21729760000,-0.0053878715,0.002497547,8.910716e-05,0.001,0.0,0.0,0.0,-1.0
21729812000,21729812000,-0.0055225566,0.0029606177,-0.00048274454,0.001,0.0,0.0,0.0,-1.0
21729860000,21729860000,-0.0055725425,0.0028478114,0.00021411381,0.001,0.0,0.0,0.0,-1.0
21729912000,21729912000,-0.0041720364,0.0019688723,-0.00046189988,0.001,0.0,0.0,0.0,-1.0
21729960000,21729960000,-0.0042523816,0.0029592584,-0.00080625573,0.001,0.0,0.0,0.0,-1.0
21730012000,21730012000,-0.0035681943,0.0032262187,-0.0007486787,0.001,0.0,0.0,0.0,-1.0
21730060000,21730060000,-0.0030967474,0.0034634976,0.0008484063,0.001,0.0,0.0,0.0,-1.0
21730112000,21730112000,-0.004376104,0.0028799411,0.00014339242,0.001,0.0,0.0,0.0,-1.0
21730160000,21730160000,-0.0031714223,0.0032808275,0.00028803482,0.001,0.0,0.0,0.0,-1.0
21730212000,21730212000,-0.002857134,0.0023009237,-0.0007058659,0.001,0.0,0.0,0.0,-1.0
21730260000,21730260000,-0.0034783036,0.0020686297,0.0012071506,0.001,0.0,0.0,0.0,-1.0
21730312000,21730312000,-0.0038814915,0.0030082066,0.00067803793,0.001,0.0,0.0,0.0,-1.0
21730360000,21730360000,-0.0059168926,0.0028221034,-0.0012355758,0.001,0.0,0.0,0.0,-1.0
21730412000,21730412000,-0.00457706,0.003350762,0.000419212,0.001,0.0,0.0,0.0,-1.0
21730460000,21730460000,-0.005458707,0.002504372,-0.00021034005,0.001,0.0,0.0,0.0,-1.0
21730512000,21730512000,-0.004840348,0.002119912,-0.00055543164,0.001,0.0,0.0,0.0,-1.0
21730560000,21730560000,-0.005018115,0.0011258876,0.00018616908,0.001,0.0,0.0,0.0,-1.0
21730608000,21730608000,-0.0048677106,0.002094674,0.00018015118,0.001,0.0,0.0,0.0,-1.0
21730660000,21730660000,-0.0034796428,0.002098176,-0.00036377236,0.001,0.0,0.0,0.0,-1.0
21730708000,21730708000,-0.005666419,0.0028792608,-0.00031156768,0.001,0.0,0.0,0.0,-1.0
21730760000,21730760000,-0.0037019486,0.0025996012,0.00034689202,0.001,0.0,0.0,0.0,-1.0
21730812000,21730812000,-0.0035472189,0.0024075971,0.0002961785,0.001,0.0,0.0,0.0,-1.0
21730860000,21730860000,-0.0032104012,0.002621414,0.00061773934,0.001,0.0,0.0,0.0,-1.0
21730908000,21730908000,-0.0033919946,0.0025312894,-0.00017975968,0.001,0.0,0.0,0.0,-1.0
21730960000,21730960000,-0.002953308,0.0027925533,0.00022935269,0.001,0.0,0.0,0.0,-1.0
21731012000,21731012000,-0.0059499918,0.0021700454,-1.0039316e-05,0.001,0.0,0.0,0.0,-1.0
21731060000,21731060000,-0.0030901255,0.0028150426,0.0005780983,0.001,0.0,0.0,0.0,-1.0
21731112000,21731112000,-0.0037804227,0.002066273,-0.00014184495,0.001,0.0,0.0,0.0,-1.0
21731160000,21731160000,-0.002924119,0.0028275074,-0.0013227479,0.001,0.0,0.0,0.0,-1.0
21731212000,21731212000,-0.0042495574,0.0035553342,-7.0544406e-06,0.001,0.0,0.0,0.0,-1.0
21731260000,21731260000,-0.004774813,0.0031596844,-9.9755845e-05,0.001,0.0,0.0,0.0,-1.0
21731308000,21731308000,-0.0049297414,0.002516925,0.0001775923,0.001,0.0,0.0,0.0,-1.0
21731360000,21731360000,-0.0040499773,0.0029862523,7.106143e-05,0.001,0.0,0.0,0.0,-1.0
21731412000,21731412000,-0.002820601,0.0027171192,-0.00026522615,0.001,0.0,0.0,0.0,-1.0
21731460000,21731460000,-0.002346099,0.002639729,0.0008186604,0.001,0.0,0.0,0.0,-1.0
21731512000,21731512000,-0.0045688264,0.0029854607,-0.00014813912,0.001,0.0,0.0,0.0,-1.0
21731556000,21731556000,-0.0023662164,0.00190912,-0.00033056323,0.001,0.0,0.0,0.0,-1.0
21731608000,21731608000,-0.005142766,0.0021486953,-0.00051629683,0.001,0.0,0.0,0.0,-1.0
21731660000,21731660000,-0.0030524964,0.0020572052,0.00019791003,0.001,0.0,0.0,0.0,-1.0
21731708000,21731708000,-0.0027798535,0.0022624598,0.0003429933,0.001,0.0,0.0,0.0,-1.0
21731760000,21731760000,-0.005195501,0.0022544987,-0.00015087584,0.001,0.0,0.0,0.0,-1.0
21731812000,21731812000,-0.0038983633,0.0026071803,-0.0008755277,0.001,0.0,0.0,0.0,-1.0
21731856000,21731856000,-0.005477927,0.0024514531,3.825104e-06,0.001,0.0,0.0,0.0,-1.0
21731912000,21731912000,-0.0033248938,0.0013457799,-0.00016309659,0.001,0.0,0.0,0.0,-1.0
21731960000,21731960000,-0.004034024,0.0015736076,0.00035464353,0.001,0.0,0.0,0.0,-1.0
21732012000,21732012000,-0.0033660317,0.0024047229,-0.00061789487,0.001,0.0,0.0,0.0,-1.0
21732060000,21732060000,-0.0037549485,0.0019986208,-0.00031918444,0.001,0.0,0.0,0.0,-1.0
21732112000,21732112000,-0.0027572517,0.0014776969,-0.00041412967,0.001,0.0,0.0,0.0,-1.0
21732160000,21732160000,-0.0036721998,0.0023336285,0.0006463331,0.001,0.0,0.0,0.0,-1.0
21732212000,21732212000,-0.003941417,0.0030843734,0.0014390603,0.001,0.0,0.0,0.0,-1.0
21732260000,21732260000,-0.0033849373,0.0027963335,-0.00030985876,0.001,0.0,0.0,0.0,-1.0
21732312000,21732312000,-0.003654668,0.0019028845,-0.001113533,0.001,0.0,0.0,0.0,-1.0
21732360000,21732360000,-0.0068859193,0.0037390648,-0.00037497983,0.0064819437,0.0,0.0,0.0,-1.0
21732412000,21732412000,-0.0028828282,0.0018764448,-0.0006424629,0.013717135,0.0,0.0,0.0,-1.0
21732460000,21732460000,-0.0040575652,0.0014903619,0.00047685835,0.020791862,0.0,0.0,0.0,-1.0
21732512000,21732512000,-0.0045685135,0.0017315772,0.0001263043,0.027976185,0.0,0.0,0.0,-1.0
21732556000,21732556000,-0.003781068,0.0021417746,-0.00036653865,0.035477914,0.0,0.0,0.0,-1.0
21732612000,21732612000,-0.0043522925,0.002146863,0.00010660612,0.044600736,0.0,0.0,0.0,-1.0
21732660000,21732660000,-0.005515868,0.0026288154,-0.00061404,0.052874394,0.0,0.0,0.0,-1.0
21732712000,21732712000,-0.0030333227,0.0009896166,0.0007278227,0.062113862,0.0,0.0,0.0,-1.0
21732760000,21732760000,-0.0060850745,0.003248494,-0.0011579822,0.071568884,0.0,0.0,0.0,-1.0
21732812000,21732812000,-0.0045570303,0.001595708,-0.00028198384,0.083139054,0.0,0.0,0.0,-1.0
21732860000,21732860000,-0.0058788005,0.002655281,-0.00033001145,0.0931991,0.0,0.0,0.0,-1.0
21732912000,21732912000,-0.0058769835,0.0035522461,-0.00038622608,0.10366217,0.0,0.0,0.0,-1.0
21732960000,21732960000,-0.0052789995,0.0022564193,0.00043205643,0.11455964,0.0,0.0,0.0,-1.0
21733012000,21733012000,-0.0048543,0.00239508,0.00042704502,0.1278375,0.0,0.0,0.0,-1.0
21733056000,21733056000,-0.00740437,0.0016526324,0.000612013,0.1405461,0.0,0.0,0.0,-1.0
21733112000,21733112000,-0.004829889,0.0028417015,0.0007594825,0.15284066,0.0,0.0,0.0,-1.0
21733160000,21733160000,-0.0062994543,0.0025655893,-0.00013280561,0.16601728,0.0,0.0,0.0,-1.0
21733212000,21733212000,-0.003124962,0.004306406,-0.0016724593,0.1806229,0.0,0.0,0.0,-1.0
21733260000,21733260000,-0.0058707525,0.0034694546,-0.0017772887,0.19502589,0.0,0.0,0.0,-1.0
21733312000,21733312000,-0.0019311439,0.001940274,2.4033268e-05,0.20945984,0.0,0.0,0.0,-1.0
21733360000,21733360000,-0.011763737,0.0036579296,2.0810563e-05,0.22429533,0.0,0.0,0.0,-1.0
21733412000,21733412000,-0.009202582,0.003828511,-0.000911391,0.24261057,0.0,0.0,0.0,-1.0
21733460000,21733460000,-0.005323426,0.0021835528,0.0006027524,0.25759208,0.0,0.0,0.0,-1.0
21733512000,21733512000,-0.00024200708,0.0026965549,-0.00014093544,0.27369922,0.0,0.0,0.0,-1.0
21733560000,21733560000,-0.0066243145,0.0022569092,0.00027659547,0.2903182,0.0,0.0,0.0,-1.0
21733612000,21733612000,-0.0063718557,0.0039143334,-0.0030691018,0.3104505,0.0,0.0,0.0,-1.0
21733660000,21733660000,-0.0144316135,0.003194689,0.00039435117,0.32844773,0.0,0.0,0.0,-1.0
21733708000,21733708000,-0.008716417,0.0021493123,0.0010819264,0.34655043,0.0,0.0,0.0,-1.0
21733760000,21733760000,-0.008425331,0.0027066276,-0.00030284477,0.3651706,0.0,0.0,0.0,-1.0
21733812000,21733812000,-0.009464428,0.0022849294,-0.00050858705,0.38652554,0.0,0.0,0.0,-1.0
21733860000,21733860000,-0.008574496,0.00045598927,9.415392e-05,0.4058176,0.0,0.0,0.0,-1.0
21733912000,21733912000,-0.009373113,0.0020187646,0.00067403726,0.42580187,0.0,0.0,0.0,-1.0
21733956000,21733956000,0.0075282766,-0.013881246,0.0008196244,0.44292593,0.0,0.0,0.0,-1.0
21734012000,21734012000,-0.004027364,-0.012253612,0.0063688774,0.46758938,0.0,0.0,0.0,-1.0
21734060000,21734060000,-0.005511947,-0.0133494465,0.0008944866,0.48379815,0.0,0.0,0.0,-1.0
21734108000,21734108000,-0.0018822539,-0.01345623,-0.0014382733,0.49255684,0.0,0.0,0.0,-1.0
21734160000,21734160000,0.0033648887,-0.013756594,-0.0010656819,0.49739096,0.0,0.0,0.0,-1.0
21734212000,21734212000,-0.0014191949,-0.013075338,0.0020488945,0.50073147,0.0,0.0,0.0,-1.0
21734260000,21734260000,0.0003223738,-0.012103383,-6.215551e-05,0.5022781,0.0,0.0,0.0,-1.0
21734312000,21734312000,0.00073356624,-0.012739261,0.0005778713,0.5023619,0.0,0.0,0.0,-1.0
21734360000,21734360000,-0.0020381638,-0.012154619,0.00039183116,0.5032156,0.0,0.0,0.0,-1.0
21734412000,21734412000,-0.0027083715,-0.010656245,0.0007953779,0.5038845,0.0,0.0,0.0,-1.0
21734456000,21734456000,0.0039783814,-0.010377984,-0.0015318246,0.50522196,0.0,0.0,0.0,-1.0
21734512000,21734512000,-0.0021400822,-0.013157832,-0.0003089911,0.5060493,0.0,0.0,0.0,-1.0
21734560000,21734560000,-0.0013849175,-0.011920043,0.0014136435,0.50770557,0.0,0.0,0.0,-1.0
21734612000,21734612000,0.00034124864,-0.013090598,0.00046715286,0.50928915,0.0,0.0,0.0,-1.0
21734660000,21734660000,-0.0012205581,-0.012965317,-0.0009789219,0.51005137,0.0,0.0,0.0,-1.0
21734712000,21734712000,-0.00053699524,-0.013165396,5.719462e-05,0.5116574,0.0,0.0,0.0,-1.0
21734760000,21734760000,-0.02923251,-0.012857402,0.0011836486,0.51227325,0.0,0.0,0.0,-1.0
21734812000,21734812000,0.0019523446,-0.012958128,-9.815076e-05,0.48601705,0.0,0.0,0.0,-1.0
21734860000,21734860000,-0.00050180947,-0.013354345,6.65406e-05,0.46041197,0.0,0.0,0.0,-1.0
21734912000,21734912000,-0.00013720804,-0.011265025,0.00067797,0.44489628,0.0,0.0,0.0,-1.0
21734960000,21734960000,-0.0009815624,-0.011491983,-0.0006905988,0.4345425,0.0,0.0,0.0,-1.0
21735012000,21735012000,0.0007217043,-0.012975702,-0.0007489619,0.42725512,0.0,0.0,0.0,-1.0
21735060000,21735060000,-0.00028550526,-0.010848473,-0.00084772304,0.42517138,0.0,0.0,0.0,-1.0
21735112000,21735112000,-0.028399348,-0.011047862,0.0024089052,0.42379072,0.0,0.0,0.0,-1.0
21735156000,21735156000,0.0009992237,-0.012154346,-0.0007100381,0.42449433,0.0,0.0,0.0,-1.0
21735212000,21735212000,-0.00024686,-0.0112673445,-0.00026970432,0.42450443,0.0,0.0,0.0,-1.0
21735256000,21735256000,-0.00024460815,-0.011623915,-8.832252e-05,0.42489013,0.0,0.0,0.0,-1.0
21735312000,21735312000,-0.00074290496,-0.012241065,0.00014999848,0.426291,0.0,0.0,0.0,-1.0
21735360000,21735360000,1.8198765e-05,-0.013325599,0.00020106367,0.4265279,0.0,0.0,0.0,-1.0
21735412000,21735412000,0.0006841364,-0.01197564,0.0005057956,0.42727116,0.0,0.0,0.0,-1.0
21735460000,21735460000,-0.032137673,-0.01054249,0.0028341487,0.42739585,0.0,0.0,0.0,-1.0
21735512000,21735512000,0.0016841464,-0.012668271,0.00062681985,0.42963913,0.0,0.0,0.0,-1.0
21735556000,21735556000,-0.00015000485,-0.013219564,0.00049292576,0.43010852,0.0,0.0,0.0,-1.0
21735608000,21735608000,0.00027759623,-0.013226836,0.00030045363,0.43143663,0.0,0.0,0.0,-1.0
21735660000,21735660000,0.00031965334,-0.010663164,0.0051076384,0.43238774,0.0,0.0,0.0,-1.0
21735712000,21735712000,0.003017094,-0.012344611,-0.0013478026,0.43212017,0.0,0.0,0.0,-1.0
21735760000,21735760000,-0.00014553108,-0.011266371,-0.0014395167,0.43297282,0.0,0.0,0.0,-1.0
21735812000,21735812000,-0.03343373,-0.012609527,0.001909809,0.43319896,0.0,0.0,0.0,-1.0
21735860000,21735860000,0.0025709055,-0.01270212,0.001865578,0.43424666,0.0,0.0,0.0,-1.0
21735912000,21735912000,-0.00128553,-0.012452437,0.0006151229,0.43456054,0.0,0.0,0.0,-1.0
21735960000,21735960000,0.0012155629,-0.012701457,-5.413731e-05,0.43522155,0.0,0.0,0.0,-1.0
21736012000,21736012000,0.0011249229,-0.011758417,0.00077522744,0.43628582,0.0,0.0,0.0,-1.0
21736060000,21736060000,4.5649223e-05,-0.01222717,0.0008427239,0.43571767,0.0,0.0,0.0,-1.0
21736112000,21736112000,0.0003817728,-0.0111774085,-0.0006097493,0.43619806,0.0,0.0,0.0,-1.0
21736160000,21736160000,0.0018281688,-0.010993647,-0.0009548527,0.436683,0.0,0.0,0.0,-1.0
21736212000,21736212000,0.0030940012,-0.011663436,-0.000117262214,0.43714768,0.0,0.0,0.0,-1.0
21736256000,21736256000,0.0007450365,-0.01198364,0.0015665654,0.43757495,0.0,0.0,0.0,-1.0
21736308000,21736308000,0.00050225033,-0.011317387,0.0002787664,0.4385104,0.0,0.0,0.0,-1.0
21736356000,21736356000,0.00977356,-0.013067411,-0.00065146893,0.4401454,0.0,0.0,0.0,-1.0
21736408000,21736408000,0.0012657989,-0.011735703,0.00088433706,0.43974558,0.0,0.0,0.0,-1.0
21736460000,21736460000,6.655016e-05,-0.012410488,0.0017986166,0.43987897,0.0,0.0,0.0,-1.0
21736508000,21736508000,0.025531063,-0.0106925145,-0.0023498633,0.44029373,0.0,0.0,0.0,-1.0
21736556000,21736556000,0.003631541,-0.012565265,0.00034893962,0.4405222,0.0,0.0,0.0,-1.0
21736612000,21736612000,0.00093532127,-0.0121999,6.46539e-05,0.43989855,0.0,0.0,0.0,-1.0
21736660000,21736660000,7.2830764e-05,-0.010608027,0.0015710877,0.440128,0.0,0.0,0.0,-1.0
21736712000,21736712000,0.0040317937,-0.0125351995,-0.0008144719,0.44151744,0.0,0.0,0.0,-1.0
21736760000,21736760000,0.00084386364,-0.011736121,1.8011198e-05,0.44063544,0.0,0.0,0.0,-1.0
21736812000,21736812000,0.0010699936,-0.012386299,0.00081207725,0.44052628,0.0,0.0,0.0,-1.0
21736860000,21736860000,0.02677668,-0.011645105,-0.0014910556,0.4410998,0.0,0.0,0.0,-1.0
21736912000,21736912000,0.0031546287,-0.0108482065,0.0003864474,0.44175828,0.0,0.0,0.0,-1.0
21736960000,21736960000,-0.000480316,-0.012223874,0.00091087894,0.44155824,0.0,0.0,0.0,-1.0
21737012000,21737012000,0.0005936755,-0.010407156,0.0003065097,0.4423189,0.0,0.0,0.0,-1.0
21737060000,21737060000,0.010356876,-0.011194978,0.000351816,0.4433164,0.0,0.0,0.0,-1.0
21737112000,21737112000,0.0016434942,-0.011957869,-0.00069684593,0.4421484,0.0,0.0,0.0,-1.0
21737156000,21737156000,-0.00010406788,-0.010781683,0.00028893223,0.44209984,0.0,0.0,0.0,-1.0
21737208000,21737208000,0.012967724,-0.010407928,-0.00092948315,0.44292426,0.0,0.0,0.0,-1.0
21737260000,21737260000,0.0029078068,-0.011345041,-0.00041460647,0.4429589,0.0,0.0,0.0,-1.0
21737312000,21737312000,0.0003073324,-0.011466091,0.0007130176,0.44255868,0.0,0.0,0.0,-1.0
21737360000,21737360000,0.0002689664,-0.013504661,0.0014252831,0.39967057,0.0,0.0,0.0,-1.0
21737412000,21737412000,0.009707689,-0.0065081646,-0.0012264762,0.41396552,0.0,0.0,0.0,-1.0
21737456000,21737456000,0.0007623217,-0.009916758,-0.0002545963,0.425142,0.0,0.0,0.0,-1.0
21737512000,21737512000,0.0017283789,-0.008264455,-5.183593e-05,0.43333253,0.0,0.0,0.0,-1.0
21737560000,21737560000,0.0038042616,-0.012462356,-0.00034292016,0.4390903,0.0,0.0,0.0,-1.0
21737612000,21737612000,0.00019041517,-0.011266677,0.001711518,0.44381273,0.0,0.0,0.0,-1.0
21737660000,21737660000,0.0010064774,-0.011425135,0.0012695241,0.44627383,0.0,0.0,0.0,-1.0
21737712000,21737712000,-0.00034149393,-0.011728102,0.00041394448,0.44854236,0.0,0.0,0.0,-1.0
21737760000,21737760000,-0.0019429282,-0.009961647,0.0005558124,0.45026955,0.0,0.0,0.0,-1.0
21737808000,21737808000,0.003204649,-0.0105882995,-0.00011964999,0.45200858,0.0,0.0,0.0,-1.0
21737856000,21737856000,0.0013285492,-0.009626669,-0.00057711016,0.45293072,0.0,0.0,0.0,-1.0
21737912000,21737912000,0.0004980162,-0.010194462,-0.00024422468,0.45386449,0.0,0.0,0.0,-1.0
21737960000,21737960000,0.0026077228,-0.008716249,-0.00063677895,0.45798323,0.0,0.0,0.0,-1.0
21738012000,21738012000,0.0024812175,-0.007561404,-0.00067512225,0.45758,0.0,0.0,0.0,-1.0
21738060000,21738060000,0.00039020163,-0.010233461,-0.0009926911,0.45811394,0.0,0.0,0.0,-1.0
21738112000,21738112000,0.0018589348,-0.008270223,-0.00070997654,0.46276772,0.0,0.0,0.0,-1.0
21738160000,21738160000,0.0047575287,-0.0060811546,-8.5888074e-05,0.46347922,0.0,0.0,0.0,-1.0
21738212000,21738212000,0.0014270642,-0.008055017,0.00012520299,0.461844,0.0,0.0,0.0,-1.0
21738260000,21738260000,0.0010511543,-0.00982774,-0.00072765857,0.46128017,0.0,0.0,0.0,-1.0
21738308000,21738308000,0.001450615,-0.0012110564,-0.00035732705,0.4670005,0.0,0.0,0.0,-1.0
21738356000,21738356000,0.0024535134,-0.00648212,0.00032485233,0.464955,0.0,0.0,0.0,-1.0
21738412000,21738412000,0.0055435714,-0.0043900893,0.00012962378,0.4629412,0.0,0.0,0.0,-1.0
21738460000,21738460000,0.0004918373,-0.0077746697,0.0006582682,0.46171218,0.0,0.0,0.0,-1.0
21738512000,21738512000,0.010279347,0.0018444797,-0.0010971825,0.4675769,0.0,0.0,0.0,-1.0
21738560000,21738560000,0.006512492,0.00046718077,-0.0003516259,0.46637318,0.0,0.0,0.0,-1.0
21738612000,21738612000,0.01590638,-0.0016486199,-0.0009931101,0.464119,0.0,0.0,0.0,-1.0
21738660000,21738660000,0.00696535,-0.0033686073,-0.0012379801,0.46240515,0.0,0.0,0.0,-1.0
21738712000,21738712000,0.012873133,0.008415605,-0.0004019014,0.46803916,0.0,0.0,0.0,-1.0
21738760000,21738760000,0.010367433,0.0067462116,-0.0018699133,0.46640304,0.0,0.0,0.0,-1.0
21738812000,21738812000,0.01622603,0.0027088819,-0.0011536703,0.46356344,0.0,0.0,0.0,-1.0
21738860000,21738860000,0.0003587604,-0.00016377305,3.33683e-05,0.4604243,0.0,0.0,0.0,-1.0
21738912000,21738912000,0.017669944,0.015506371,-0.00085124065,0.46720856,0.0,0.0,0.0,-1.0
21738960000,21738960000,0.04112238,0.013669608,-0.00089647714,0.46497527,0.0,0.0,0.0,-1.0
21739012000,21739012000,0.015604215,0.01177727,-8.5624415e-05,0.4614302,0.0,0.0,0.0,-1.0
21739060000,21739060000,0.014004881,0.011326928,0.00017783092,0.45897245,0.0,0.0,0.0,-1.0
21739112000,21739112000,0.009382979,0.005161325,0.0018511331,0.4564048,0.0,0.0,0.0,-1.0
21739160000,21739160000,0.025113529,0.02551596,-0.0018529145,0.4644384,0.0,0.0,0.0,-1.0
21739212000,21739212000,-0.07087282,0.11008435,-0.0017785683,0.51000005,0.0,0.0,0.0,-1.0
21739260000,21739260000,0.07536795,-0.036472786,0.010122649,0.51000005,0.0,0.0,0.0,-1.0
21739312000,21739312000,0.083869755,-0.012721479,-0.0056574484,0.51000005,0.0,0.0,0.0,-1.0
21739360000,21739360000,0.029112095,0.021413494,-0.011381578,0.51000005,0.0,0.0,0.0,-1.0
21739412000,21739412000,0.024626363,0.028206704,-0.0006290214,0.51000005,0.0,0.0,0.0,-1.0
21739460000,21739460000,0.020889781,0.031748153,0.005294098,0.51000005,0.0,0.0,0.0,-1.0
21739512000,21739512000,-0.016985942,0.039411526,0.0048220255,0.51000005,0.0,0.0,0.0,-1.0
21739560000,21739560000,0.018116891,0.042350847,0.0011580338,0.51000005,0.0,0.0,0.0,-1.0
21739612000,21739612000,0.0140256435,0.0474818,0.0012829694,0.51000005,0.0,0.0,0.0,-1.0
21739660000,21739660000,0.012175346,0.05028457,0.0006716711,0.51000005,0.0,0.0,0.0,-1.0
21739712000,21739712000,0.021450492,0.054408137,0.0021975182,0.51000005,0.0,0.0,0.0,-1.0
21739760000,21739760000,0.010902938,0.05656603,0.0011552002,0.51000005,0.0,0.0,0.0,-1.0
21739808000,21739808000,0.007900076,0.059880927,0.0010323724,0.51000005,0.0,0.0,0.0,-1.0
21739860000,21739860000,0.0086036725,0.06157529,0.0014292791,0.51000005,0.0,0.0,0.0,-1.0
21739912000,21739912000,0.0072375606,0.06410582,0.0015520235,0.51000005,0.0,0.0,0.0,-1.0
21739956000,21739956000,0.006476336,0.06556575,0.001801133,0.51000005,0.0,0.0,0.0,-1.0
21740012000,21740012000,0.008142678,0.067388624,0.00050558563,0.51000005,0.0,0.0,0.0,-1.0
21740060000,21740060000,0.03137865,0.06917605,-0.001045485,0.51000005,0.0,0.0,0.0,-1.0
21740112000,21740112000,0.008861259,0.071478486,0.001795857,0.51000005,0.0,0.0,0.0,-1.0
21740156000,21740156000,0.00684169,0.07284846,0.0022978173,0.51000005,0.0,0.0,0.0,-1.0
21740212000,21740212000,0.004649689,0.073675424,-0.0005813076,0.51000005,0.0,0.0,0.0,-1.0
21740260000,21740260000,0.011716172,0.07666006,0.00078088656,0.51000005,0.0,0.0,0.0,-1.0
21740312000,21740312000,0.0063356757,0.077788204,0.0019852838,0.51000005,0.0,0.0,0.0,-1.0
21740360000,21740360000,0.0032772147,0.0784852,0.0005511456,0.51000005,0.0,0.0,0.0,-1.0
21740412000,21740412000,0.01313048,0.078528225,1.6843927e-05,0.51000005,0.0,0.0,0.0,-1.0
21740460000,21740460000,0.003847832,0.08067607,0.0015624055,0.51000005,0.0,0.0,0.0,-1.0
21740512000,21740512000,0.0024693788,0.08074286,0.0020839286,0.51000005,0.0,0.0,0.0,-1.0
21740560000,21740560000,0.0015880475,0.08117893,-0.00023972546,0.51000005,0.0,0.0,0.0,-1.0
21740612000,21740612000,0.0121650845,0.08281536,0.001585843,0.51000005,0.0,0.0,0.0,-1.0
21740660000,21740660000,0.0034072285,0.08451178,0.0014397172,0.51000005,0.0,0.0,0.0,-1.0
21740712000,21740712000,0.0023557078,0.083093405,0.0010880915,0.51000005,0.0,0.0,0.0,-1.0
21740760000,21740760000,0.001650408,0.085215464,9.6725365e-05,0.51000005,0.0,0.0,0.0,-1.0
21740812000,21740812000,0.0047179763,0.08462127,0.0003376605,0.51000005,0.0,0.0,0.0,-1.0
21740860000,21740860000,0.0024035359,0.086861774,0.0010254419,0.51000005,0.0,0.0,0.0,-1.0
21740912000,21740912000,0.00097462855,0.0867413,0.0003655281,0.51000005,0.0,0.0,0.0,-1.0
21740960000,21740960000,-0.0011358686,0.08837983,0.0025475803,0.51000005,0.0,0.0,0.0,-1.0
21741012000,21741012000,0.0017810741,0.088530235,0.0019101962,0.51000005,0.0,0.0,0.0,-1.0
21741060000,21741060000,0.0023787592,0.08913471,0.0010046586,0.51000005,0.0,0.0,0.0,-1.0
21741112000,21741112000,0.001449018,0.08976996,0.000105549516,0.51000005,0.0,0.0,0.0,-1.0
21741160000,21741160000,0.0016745889,0.09052217,0.0005285168,0.51000005,0.0,0.0,0.0,-1.0
21741212000,21741212000,0.0016566194,0.09069628,0.00017987097,0.51000005,0.0,0.0,0.0,-1.0
21741260000,21741260000,0.0014483242,0.09187463,0.00030274468,0.51000005,0.0,0.0,0.0,-1.0
21741312000,21741312000,0.0009839247,0.092254944,0.0013594395,0.51000005,0.0,0.0,0.0,-1.0
21741360000,21741360000,0.0021419425,0.093062945,0.00073989807,0.51000005,0.0,0.0,0.0,-1.0
21741412000,21741412000,0.00059048616,0.09413716,0.0006121825,0.51000005,0.0,0.0,0.0,-1.0
21741456000,21741456000,0.0010483577,0.09389709,-0.00036411718,0.51000005,0.0,0.0,0.0,-1.0
21741508000,21741508000,0.0011808658,0.09492609,0.00026434488,0.51000005,0.0,0.0,0.0,-1.0
21741560000,21741560000,0.0015602497,0.09616692,0.00034182682,0.51000005,0.0,0.0,0.0,-1.0
21741608000,21741608000,0.0010034583,0.09548282,-0.0013271429,0.51000005,0.0,0.0,0.0,-1.0
21741660000,21741660000,-0.026967831,0.09679743,0.0019403838,0.51000005,0.0,0.0,0.0,-1.0
21741712000,21741712000,0.00090880395,0.0966646,0.00021617825,0.51000005,0.0,0.0,0.0,-1.0
21741760000,21741760000,0.0005964319,0.09716711,0.000707367,0.51000005,0.0,0.0,0.0,-1.0
21741812000,21741812000,0.0013687265,0.097201765,-0.0001995567,0.51000005,0.0,0.0,0.0,-1.0
21741860000,21741860000,0.00023625695,0.098310195,0.00014588523,0.51000005,0.0,0.0,0.0,-1.0
21741912000,21741912000,0.0015729709,0.09860962,0.00020367773,0.51000005,0.0,0.0,0.0,-1.0
21741960000,21741960000,0.0013119746,0.098904006,0.0008243243,0.51000005,0.0,0.0,0.0,-1.0
21742012000,21742012000,-0.026639659,0.10045695,0.000449654,0.51000005,0.0,0.0,0.0,-1.0
21742060000,21742060000,-0.0023681407,0.09941621,-0.0018955751,0.51000005,0.0,0.0,0.0,-1.0
21742112000,21742112000,-0.0006950276,0.09901287,0.0014493418,0.51000005,0.0,0.0,0.0,-1.0
21742160000,21742160000,0.0012253984,0.1012074,0.0017241896,0.51000005,0.0,0.0,0.0,-1.0
21742212000,21742212000,0.000109503686,0.10162972,1.3965245e-05,0.51000005,0.0,0.0,0.0,-1.0
21742260000,21742260000,0.00093653717,0.101749785,-0.00022827435,0.51000005,0.0,0.0,0.0,-1.0
21742312000,21742312000,0.0018943596,0.10187806,-0.00059234025,0.51000005,0.0,0.0,0.0,-1.0
21742360000,21742360000,-0.033300478,0.10179828,0.002104406,0.51000005,0.0,0.0,0.0,-1.0
21742412000,21742412000,0.0014613946,0.10349014,0.00040540937,0.51000005,0.0,0.0,0.0,-1.0
21742460000,21742460000,0.0010548938,0.103379965,0.00072986376,0.51000005,0.0,0.0,0.0,-1.0
21742512000,21742512000,0.0008579334,0.10456199,4.313092e-05,0.51000005,0.0,0.0,0.0,-1.0
21742560000,21742560000,0.0018892507,0.10448691,0.0002589702,0.51000005,0.0,0.0,0.0,-1.0
21742612000,21742612000,0.0016403056,0.10577579,-0.0009821295,0.51000005,0.0,0.0,0.0,-1.0
21742660000,21742660000,0.00042079395,0.10527055,-0.0019165277,0.51000005,0.0,0.0,0.0,-1.0
21742712000,21742712000,-0.0324303,0.10482103,0.0019986902,0.51000005,0.0,0.0,0.0,-1.0
21742756000,21742756000,0.0015135289,0.10626346,0.0021083609,0.51000005,0.0,0.0,0.0,-1.0
21742812000,21742812000,-8.6703e-05,0.106586695,-0.00066136307,0.51000005,0.0,0.0,0.0,-1.0
21742856000,21742856000,-0.0005369048,0.10693981,-0.00026220153,0.51000005,0.0,0.0,0.0,-1.0
21742912000,21742912000,0.00027293322,0.10772395,-0.00011192477,0.51000005,0.0,0.0,0.0,-1.0
21742956000,21742956000,0.00065783295,0.10788113,-0.0004483882,0.51000005,0.0,0.0,0.0,-1.0
21743012000,21743012000,-0.0006150137,0.107917815,-0.00026587115,0.51000005,0.0,0.0,0.0,-1.0
21743060000,21743060000,0.0015172329,0.10731429,-0.0014412132,0.51000005,0.0,0.0,0.0,-1.0
21743112000,21743112000,0.0007116116,0.10926535,-0.000787979,0.51000005,0.0,0.0,0.0,-1.0
21743160000,21743160000,-0.0004218883,0.109496005,0.0009846425,0.51000005,0.0,0.0,0.0,-1.0
21743212000,21743212000,-0.0002665504,0.10915946,-0.00028531614,0.51000005,0.0,0.0,0.0,-1.0
21743260000,21743260000,0.0030861218,0.110679165,-3.877463e-05,0.51000005,0.0,0.0,0.0,-1.0
21743312000,21743312000,0.00035941627,0.10909881,0.00044805757,0.51000005,0.0,0.0,0.0,-1.0
21743360000,21743360000,1.0512546e-05,0.111021444,-0.00029062654,0.51000005,0.0,0.0,0.0,-1.0
21743412000,21743412000,0.00060199574,0.11063421,0.0001624839,0.51000005,0.0,0.0,0.0,-1.0
21743460000,21743460000,0.002747397,0.110509366,0.002790663,0.51000005,0.0,0.0,0.0,-1.0
21743508000,21743508000,0.0012784997,0.111676045,0.0015996378,0.51000005,0.0,0.0,0.0,-1.0
21743560000,21743560000,0.0003176369,0.11105384,-0.0005172279,0.51000005,0.0,0.0,0.0,-1.0
21743612000,21743612000,0.002876414,0.11213239,-0.0022864584,0.51000005,0.0,0.0,0.0,-1.0
21743660000,21743660000,0.0019635146,0.11215006,0.0016336594,0.51000005,0.0,0.0,0.0,-1.0
21743712000,21743712000,0.0020781558,0.112759076,-0.00040219803,0.51000005,0.0,0.0,0.0,-1.0
21743760000,21743760000,0.025559584,0.113469414,-0.0023544452,0.51000005,0.0,0.0,0.0,-1.0
21743812000,21743812000,-8.3386294e-05,0.112625115,-0.000908023,0.51000005,0.0,0.0,0.0,-1.0
21743860000,21743860000,-0.00049392437,0.11387203,-0.00025121085,0.51000005,0.0,0.0,0.0,-1.0
21743912000,21743912000,-0.001150276,0.114415705,0.0007465993,0.51000005,0.0,0.0,0.0,-1.0
21743960000,21743960000,0.007693648,0.11474728,-0.0016223928,0.51000005,0.0,0.0,0.0,-1.0
21744012000,21744012000,8.888246e-05,0.11462875,0.0014840958,0.51000005,0.0,0.0,0.0,-1.0
21744060000,21744060000,-0.0013049918,0.11471635,1.2404443e-05,0.51000005,0.0,0.0,0.0,-1.0
21744112000,21744112000,0.024009556,0.11404346,-0.0011602095,0.51000005,0.0,0.0,0.0,-1.0
21744160000,21744160000,0.00023825814,0.11581696,-1.1361242e-05,0.51000005,0.0,0.0,0.0,-1.0
21744212000,21744212000,-0.00087808765,0.115764976,0.0007341015,0.51000005,0.0,0.0,0.0,-1.0
21744260000,21744260000,-0.001816103,0.11556394,-0.0010341351,0.51000005,0.0,0.0,0.0,-1.0
21744312000,21744312000,0.007807206,0.11672918,-0.00082680926,0.51000005,0.0,0.0,0.0,-1.0
21744360000,21744360000,-0.00010387566,0.11589205,0.00081834564,0.51000005,0.0,0.0,0.0,-1.0
21744412000,21744412000,-0.00041256638,0.11665648,-0.0002710832,0.51000005,0.0,0.0,0.0,-1.0
21744460000,21744460000,0.010473132,0.11672968,-0.00077633455,0.51000005,0.0,0.0,0.0,-1.0
21744512000,21744512000,0.0011657107,0.117190845,0.0014435626,0.51000005,0.0,0.0,0.0,-1.0
21744560000,21744560000,8.07954e-05,0.11697565,-0.0005644155,0.51000005,0.0,0.0,0.0,-1.0
21744612000,21744612000,-0.00025215847,0.11829853,-0.00020737683,0.51000005,0.0,0.0,0.0,-1.0
21744660000,21744660000,0.008758644,0.11835061,0.0011223952,0.51000005,0.0,0.0,0.0,-1.0
21744712000,21744712000,-0.00040541752,0.11818888,0.0023624196,0.51000005,0.0,0.0,0.0,-1.0
21744760000,21744760000,0.0002971553,0.11859532,-0.00017161215,0.51000005,0.0,0.0,0.0,-1.0
21744808000,21744808000,-0.0013469692,0.11896601,-0.00069053855,0.51000005,0.0,0.0,0.0,-1.0
21744860000,21744860000,0.00057369936,0.11851572,-0.00061139936,0.51000005,0.0,0.0,0.0,-1.0
21744908000,21744908000,-0.0005032062,0.11918331,0.0010396293,0.51000005,0.0,0.0,0.0,-1.0
21744956000,21744956000,-0.00044484486,0.11949744,-0.00018900761,0.51000005,0.0,0.0,0.0,-1.0
21745012000,21745012000,0.008904232,0.12005859,-0.00039479526,0.51000005,0.0,0.0,0.0,-1.0
21745060000,21745060000,-0.0003238166,0.11990341,0.00025032152,0.51000005,0.0,0.0,0.0,-1.0
21745112000,21745112000,-0.00080309954,0.11935573,0.00013128879,0.51000005,0.0,0.0,0.0,-1.0
21745156000,21745156000,-0.0012629962,0.12021219,0.0006802504,0.51000005,0.0,0.0,0.0,-1.0
21745212000,21745212000,-0.0007170277,0.12116024,0.00028019364,0.51000005,0.0,0.0,0.0,-1.0
21745256000,21745256000,-0.0010720214,0.12081346,-0.0005448438,0.51000005,0.0,0.0,0.0,-1.0
21745312000,21745312000,-0.0007761077,0.12029698,0.00043715324,0.51000005,0.0,0.0,0.0,-1.0
21745360000,21745360000,-0.0035662819,0.12172735,0.0005146462,0.51000005,0.0,0.0,0.0,-1.0
21745412000,21745412000,0.0013677474,0.1228123,0.0009105265,0.51000005,0.0,0.0,0.0,-1.0
21745460000,21745460000,-0.00058990926,0.12216556,-0.00030843556,0.51000005,0.0,0.0,0.0,-1.0
21745512000,21745512000,-0.0004679619,0.12123936,0.00019886142,0.51000005,0.0,0.0,0.0,-1.0
21745556000,21745556000,-0.0026363288,0.12218625,0.0002603485,0.51000005,0.0,0.0,0.0,-1.0
21745612000,21745612000,-0.0011987945,0.12201413,-0.0001001282,0.51000005,0.0,0.0,0.0,-1.0
21745656000,21745656000,-0.0013369645,0.12301035,-0.0003330323,0.51000005,0.0,0.0,0.0,-1.0
21745712000,21745712000,-0.0026549406,0.12272487,0.000117351374,0.51000005,0.0,0.0,0.0,-1.0
21745760000,21745760000,-0.0004513991,0.123018056,0.0014382455,0.51000005,0.0,0.0,0.0,-1.0
21745812000,21745812000,-0.0016148351,0.12249089,3.018913e-05,0.51000005,0.0,0.0,0.0,-1.0
21745860000,21745860000,-0.00063228776,0.122684784,-0.00035005494,0.51000005,0.0,0.0,0.0,-1.0
21745912000,21745912000,-0.00097391056,0.12298092,-0.0012191958,0.51000005,0.0,0.0,0.0,-1.0
21745960000,21745960000,0.00023306298,0.12440822,0.00025697084,0.51000005,0.0,0.0,0.0,-1.0
21746012000,21746012000,-8.868614e-05,0.1238906,-0.0009732169,0.51000005,0.0,0.0,0.0,-1.0
21746060000,21746060000,-0.029449556,0.124107644,0.0014723884,0.51000005,0.0,0.0,0.0,-1.0
21746112000,21746112000,-8.0634454e-05,0.124159195,0.00061564,0.51000005,0.0,0.0,0.0,-1.0
21746160000,21746160000,-0.0014843927,0.12435663,0.0013167835,0.51000005,0.0,0.0,0.0,-1.0
21746212000,21746212000,-0.0018424086,0.12416137,-0.00034864017,0.51000005,0.0,0.0,0.0,-1.0
21746256000,21746256000,-0.0010074992,0.123916335,-0.00022287508,0.51000005,0.0,0.0,0.0,-1.0
21746308000,21746308000,-0.0011058925,0.12520795,0.00096857117,0.51000005,0.0,0.0,0.0,-1.0
21746360000,21746360000,-0.0006808019,0.124440804,-0.0007548475,0.51000005,0.0,0.0,0.0,-1.0
21746412000,21746412000,-0.03040321,0.12445731,0.0012220056,0.51000005,0.0,0.0,0.0,-1.0
21746460000,21746460000,-0.0006013301,0.12423438,0.0016389656,0.51000005,0.0,0.0,0.0,-1.0
21746508000,21746508000,-0.0010664905,0.12536992,0.0004801464,0.51000005,0.0,0.0,0.0,-1.0
21746560000,21746560000,-0.0015811198,0.12469917,-0.00016093989,0.51000005,0.0,0.0,0.0,-1.0
21746612000,21746612000,-0.0016729815,0.12516181,7.14825e-05,0.51000005,0.0,0.0,0.0,-1.0
21746660000,21746660000,-0.00083020417,0.12539537,0.0005618651,0.51000005,0.0,0.0,0.0,-1.0
21746712000,21746712000,-0.0007631744,0.1259091,-0.00049484486,0.51000005,0.0,0.0,0.0,-1.0
21746760000,21746760000,-0.036448497,0.12611263,0.002159637,0.51000005,0.0,0.0,0.0,-1.0
21746812000,21746812000,0.002343746,0.12563355,0.0019118018,0.51000005,0.0,0.0,0.0,-1.0
21746860000,21746860000,0.00078457344,0.1265048,8.679435e-06,0.51000005,0.0,0.0,0.0,-1.0
21746912000,21746912000,8.0987185e-05,0.12737805,-0.00110007,0.51000005,0.0,0.0,0.0,-1.0
21746956000,21746956000,0.0012300508,0.12636398,-0.0022620442,0.51000005,0.0,0.0,0.0,-1.0
21747012000,21747012000,-0.002490351,0.126189,-0.00026881808,0.51000005,0.0,0.0,0.0,-1.0
21747060000,21747060000,-0.0027053854,0.12561853,-0.00022725257,0.51000005,0.0,0.0,0.0,-1.0
21747108000,21747108000,-0.0015119214,0.12574191,-0.001098833,0.51000005,0.0,0.0,0.0,-1.0
21747160000,21747160000,-0.0012566799,0.12716442,0.0006444663,0.51000005,0.0,0.0,0.0,-1.0
21747212000,21747212000,-0.00089119544,0.1263401,-2.7265738e-05,0.51000005,0.0,0.0,0.0,-1.0
21747260000,21747260000,-0.001439989,0.12755229,0.0003421504,0.51000005,0.0,0.0,0.0,-1.0
21747308000,21747308000,0.0018393124,0.12678875,-0.0003641619,0.51000005,0.0,0.0,0.0,-1.0
21747356000,21747356000,-0.00054458744,0.12730896,-0.00034702427,0.51000005,0.0,0.0,0.0,-1.0
21747412000,21747412000,-0.00045009592,0.12772126,-0.0001557567,0.51000005,0.0,0.0,0.0,-1.0
21747456000,21747456000,0.023171822,0.12762608,-0.0020259323,0.51000005,0.0,0.0,0.0,-1.0
21747512000,21747512000,-0.0005310938,0.12774539,-0.00021956374,0.51000005,0.0,0.0,0.0,-1.0
21747560000,21747560000,-0.0013170012,0.12825996,0.0002387096,0.51000005,0.0,0.0,0.0,-1.0
21747612000,21747612000,-0.0012628032,0.12841232,-0.00060997705,0.51000005,0.0,0.0,0.0,-1.0
21747660000,21747660000,0.0021085392,0.12775268,-0.00064290635,0.51000005,0.0,0.0,0.0,-1.0
21747712000,21747712000,-0.0016431004,0.12843001,0.00018105804,0.51000005,0.0,0.0,0.0,-1.0
21747760000,21747760000,-0.0007754587,0.12876369,-0.0010266156,0.51000005,0.0,0.0,0.0,-1.0
21747808000,21747808000,0.023298405,0.12772517,-0.0013718284,0.51000005,0.0,0.0,0.0,-1.0
21747860000,21747860000,-0.0002509167,0.12875952,0.001100572,0.51000005,0.0,0.0,0.0,-1.0
21747912000,21747912000,-0.00037886266,0.12914209,-0.00072773127,0.51000005,0.0,0.0,0.0,-1.0
21747960000,21747960000,-0.0015846009,0.12898348,0.00029551864,0.51000005,0.0,0.0,0.0,-1.0
21748008000,21748008000,0.008159868,0.12896597,-0.0022535513,0.51000005,0.0,0.0,0.0,-1.0
21748056000,21748056000,-0.0009965706,0.12903221,0.00045803527,0.51000005,0.0,0.0,0.0,-1.0
21748112000,21748112000,-0.001209869,0.128869,-0.00018782812,0.51000005,0.0,0.0,0.0,-1.0
21748156000,21748156000,0.009567751,0.12883812,6.500441e-05,0.51000005,0.0,0.0,0.0,-1.0
21748212000,21748212000,-0.0011162483,0.12937023,0.0002190782,0.51000005,0.0,0.0,0.0,-1.0
21748260000,21748260000,-0.0009379096,0.12832907,-0.00069836964,0.51000005,0.0,0.0,0.0,-1.0
21748308000,21748308000,-0.0013868067,0.12980704,0.00036120036,0.51000005,0.0,0.0,0.0,-1.0
21748360000,21748360000,0.0067076096,0.12974373,-0.00069929555,0.51000005,0.0,0.0,0.0,-1.0
21748412000,21748412000,-0.0009499055,0.12943348,0.0010513176,0.51000005,0.0,0.0,0.0,-1.0
21748456000,21748456000,-0.0018200403,0.13067344,-0.0008940742,0.51000005,0.0,0.0,0.0,-1.0
21748512000,21748512000,0.023606207,0.12870528,-0.0011447133,0.51000005,0.0,0.0,0.0,-1.0
21748560000,21748560000,3.951028e-05,0.12875159,0.0010074916,0.51000005,0.0,0.0,0.0,-1.0
21748612000,21748612000,-0.0019821024,0.12876183,-6.277443e-05,0.51000005,0.0,0.0,0.0,-1.0
21748660000,21748660000,-0.0027839297,0.13006051,-0.000374126,0.51000005,0.0,0.0,0.0,-1.0
21748712000,21748712000,0.006690054,0.12924923,-0.0007748064,0.51000005,0.0,0.0,0.0,-1.0
21748760000,21748760000,-0.0018227138,0.13064247,9.508664e-05,0.51000005,0.0,0.0,0.0,-1.0
21748812000,21748812000,-0.0010121376,0.13094628,0.00042206186,0.51000005,0.0,0.0,0.0,-1.0
21748856000,21748856000,-0.002154798,0.12996438,-0.0001561112,0.51000005,0.0,0.0,0.0,-1.0
21748912000,21748912000,-0.00046775807,0.1309467,0.0003238401,0.51000005,0.0,0.0,0.0,-1.0
21748956000,21748956000,-0.0018087677,0.130705,-0.0004170751,0.51000005,0.0,0.0,0.0,-1.0
21749012000,21749012000,-0.001108306,0.13107793,0.00086432404,0.51000005,0.0,0.0,0.0,-1.0
21749060000,21749060000,0.0081610875,0.13008362,-0.00056002603,0.51000005,0.0,0.0,0.0,-1.0
21749108000,21749108000,-0.0003259844,0.13024631,0.000579083,0.51000005,0.0,0.0,0.0,-1.0
21749160000,21749160000,-0.0006651746,0.13043535,-0.0003161442,0.51000005,0.0,0.0,0.0,-1.0
21749212000,21749212000,0.008921893,0.1317954,-0.0022069616,0.51000005,0.0,0.0,0.0,-1.0
21749256000,21749256000,-0.0018073505,0.13008267,-0.0015544153,0.51000005,0.0,0.0,0.0,-1.0
21749312000,21749312000,-0.0035655887,0.13096674,-0.0002948232,0.51000005,0.0,0.0,0.0,-1.0
21749360000,21749360000,-0.0029418927,0.13053705,0.0018023764,0.51000005,0.0,0.0,0.0,-1.0
21749412000,21749412000,0.0072130985,0.13206178,-0.00017484864,0.51000005,0.0,0.0,0.0,-1.0
21749460000,21749460000,-0.0014411559,0.13052732,0.00011033872,0.51000005,0.0,0.0,0.0,-1.0
21749508000,21749508000,-0.0014189761,0.13082443,-0.00029265316,0.51000005,0.0,0.0,0.0,-1.0
21749560000,21749560000,-0.0025732426,0.13102263,-0.00039913107,0.51000005,0.0,0.0,0.0,-1.0
21749612000,21749612000,0.00033013642,0.13072874,-0.0002771333,0.51000005,0.0,0.0,0.0,-1.0
21749660000,21749660000,-0.001530121,0.13069998,-0.00024635807,0.51000005,0.0,0.0,0.0,-1.0
21749712000,21749712000,-0.0017388946,0.13164455,-0.00032825465,0.51000005,0.0,0.0,0.0,-1.0
21749760000,21749760000,-0.003804567,0.13127683,0.00059564994,0.51000005,0.0,0.0,0.0,-1.0
21749812000,21749812000,0.0037833154,0.13197795,0.0016045764,0.51000005,0.0,0.0,0.0,-1.0
21749860000,21749860000,0.00063096307,0.13172628,-0.0012319505,0.51000005,0.0,0.0,0.0,-1.0
21749912000,21749912000,-0.0013440385,0.13118194,-0.002917562,0.51000005,0.0,0.0,0.0,-1.0
21749960000,21749960000,-0.0023723673,0.13222897,-0.00049760076,0.51000005,0.0,0.0,0.0,-1.0
21750012000,21750012000,-0.001546854,0.13274033,0.00045948825,0.51000005,0.0,0.0,0.0,-1.0
21750060000,21750060000,-0.0023787208,0.13228537,0.00053977716,0.51000005,0.0,0.0,0.0,-1.0
21750112000,21750112000,-0.0042887693,0.13204487,0.0010725305,0.51000005,0.0,0.0,0.0,-1.0
21750160000,21750160000,-0.0011421238,0.13114657,0.00033677404,0.51000005,0.0,0.0,0.0,-1.0
21750212000,21750212000,-0.0014637255,0.13223328,0.00013421576,0.51000005,0.0,0.0,0.0,-1.0
21750260000,21750260000,-0.0023825488,0.13273129,-0.0009037032,0.51000005,0.0,0.0,0.0,-1.0
21750312000,21750312000,-0.001821061,0.13178751,0.00078544836,0.51000005,0.0,0.0,0.0,-1.0
21750360000,21750360000,-0.0023633465,0.13201658,0.0002357385,0.51000005,0.0,0.0,0.0,-1.0
21750412000,21750412000,-0.001547979,0.13189803,-0.00021889608,0.51000005,0.0,0.0,0.0,-1.0
21750460000,21750460000,-0.029652998,0.13246112,0.001047737,0.51000005,0.0,0.0,0.0,-1.0
21750508000,21750508000,-0.0012864033,0.13263783,-0.00011266653,0.51000005,0.0,0.0,0.0,-1.0
21750560000,21750560000,-0.00071689027,0.13236482,0.0005113625,0.51000005,0.0,0.0,0.0,-1.0
21750612000,21750612000,-0.0026810141,0.13187642,0.00010526301,0.51000005,0.0,0.0,0.0,-1.0
21750656000,21750656000,-0.0007138862,0.13287243,-0.0031421778,0.51000005,0.0,0.0,0.0,-1.0
21750712000,21750712000,-0.00081380614,0.13220814,-0.00025054291,0.51000005,0.0,0.0,0.0,-1.0
21750756000,21750756000,-0.0013910681,0.13278747,-0.00010460607,0.51000005,0.0,0.0,0.0,-1.0
21750812000,21750812000,-0.030500632,0.13368806,0.0026833476,0.51000005,0.0,0.0,0.0,-1.0
21750856000,21750856000,-0.00074711005,0.13290934,0.00036997008,0.51000005,0.0,0.0,0.0,-1.0
21750912000,21750912000,-0.0014510428,0.13243656,9.76804e-05,0.51000005,0.0,0.0,0.0,-1.0
21750960000,21750960000,-0.0013213832,0.13236736,-0.00092283107,0.51000005,0.0,0.0,0.0,-1.0
21751012000,21751012000,-0.0018180159,0.13139057,-0.0006949343,0.51000005,0.0,0.0,0.0,-1.0
21751060000,21751060000,-0.00224145,0.1327046,0.000355286,0.51000005,0.0,0.0,0.0,-1.0
21751112000,21751112000,-0.0006725973,0.13291441,-0.0007852907,0.51000005,0.0,0.0,0.0,-1.0
21751160000,21751160000,-0.036364447,0.13289028,0.0025592796,0.51000005,0.0,0.0,0.0,-1.0
21751212000,21751212000,0.0015685095,0.13292423,0.00045179273,0.51000005,0.0,0.0,0.0,-1.0
21751260000,21751260000,-0.00049604836,0.13266584,-0.0006915781,0.51000005,0.0,0.0,0.0,-1.0
21751312000,21751312000,-0.0020843884,0.13271953,0.0011542332,0.51000005,0.0,0.0,0.0,-1.0
21751360000,21751360000,-0.0009866675,0.13251959,-0.000938505,0.51000005,0.0,0.0,0.0,-1.0
21751412000,21751412000,-0.001799763,0.13376056,3.363163e-05,0.51000005,0.0,0.0,0.0,-1.0
21751460000,21751460000,-0.001743218,0.13315421,0.00041284735,0.51000005,0.0,0.0,0.0,-1.0
21751512000,21751512000,-0.036356155,0.13269535,0.001604164,0.51000005,0.0,0.0,0.0,-1.0
21751560000,21751560000,-0.0018590584,0.13296933,0.001203787,0.51000005,0.0,0.0,0.0,-1.0
21751612000,21751612000,-0.0022032214,0.13205434,-0.00012623955,0.51000005,0.0,0.0,0.0,-1.0
21751660000,21751660000,-0.0024724978,0.13274242,0.0002510787,0.51000005,0.0,0.0,0.0,-1.0
21751712000,21751712000,-0.0013936163,0.13338825,-0.001112455,0.51000005,0.0,0.0,0.0,-1.0
21751760000,21751760000,-0.0016057977,0.13195755,-0.0008764357,0.51000005,0.0,0.0,0.0,-1.0
21751812000,21751812000,-0.0014778118,0.13389541,6.922801e-05,0.51000005,0.0,0.0,0.0,-1.0
21751860000,21751860000,0.00040534695,0.13263884,-0.000114482544,0.51000005,0.0,0.0,0.0,-1.0
21751908000,21751908000,-0.00046684855,0.134667,0.0002932959,0.51000005,0.0,0.0,0.0,-1.0
21751956000,21751956000,-0.0007985701,0.13243097,-0.0005031596,0.51000005,0.0,0.0,0.0,-1.0
21752012000,21752012000,-0.0014518838,0.13236432,-3.004146e-07,0.51000005,0.0,0.0,0.0,-1.0
21752060000,21752060000,0.0021705069,0.13338971,-0.00096266693,0.51000005,0.0,0.0,0.0,-1.0
21752108000,21752108000,-0.0009950551,0.13321091,-0.00050538406,0.51000005,0.0,0.0,0.0,-1.0
21752160000,21752160000,-0.001923955,0.13319026,-0.00028944784,0.51000005,0.0,0.0,0.0,-1.0
21752212000,21752212000,-0.00043507267,0.13339463,-0.0010130459,0.51000005,0.0,0.0,0.0,-1.0
21752260000,21752260000,0.0012739245,0.13323402,-0.0001770678,0.51000005,0.0,0.0,0.0,-1.0
21752312000,21752312000,-0.0019105803,0.13339198,0.00042279906,0.51000005,0.0,0.0,0.0,-1.0
21752360000,21752360000,-0.0020990418,0.13275748,6.466012e-05,0.51000005,0.0,0.0,0.0,-1.0
21752412000,21752412000,0.0009484484,0.13284598,-0.0012348973,0.51000005,0.0,0.0,0.0,-1.0
21752460000,21752460000,-0.003179744,0.1330103,-0.00049907813,0.51000005,0.0,0.0,0.0,-1.0
21752508000,21752508000,-0.0026305083,0.1332305,-0.00033844396,0.51000005,0.0,0.0,0.0,-1.0
21752560000,21752560000,0.022558637,0.13300622,-0.0017389631,0.51000005,0.0,0.0,0.0,-1.0
21752612000,21752612000,3.6942856e-05,0.1324973,-3.6438174e-05,0.51000005,0.0,0.0,0.0,-1.0
21752660000,21752660000,-0.0015607959,0.13274921,-0.00050419435,0.51000005,0.0,0.0,0.0,-1.0
21752712000,21752712000,-0.0010621335,0.13388988,-0.0006155941,0.51000005,0.0,0.0,0.0,-1.0
21752760000,21752760000,0.007818805,0.13457432,-0.0012277392,0.51000005,0.0,0.0,0.0,-1.0
21752812000,21752812000,-0.00026728326,0.13416524,-0.00012282518,0.51000005,0.0,0.0,0.0,-1.0
21752856000,21752856000,-0.0014170536,0.1342449,-0.00070232566,0.51000005,0.0,0.0,0.0,-1.0
21752912000,21752912000,0.024059124,0.13343345,-0.0021170864,0.51000005,0.0,0.0,0.0,-1.0
21752960000,21752960000,0.0004725798,0.13443346,0.00015464955,0.51000005,0.0,0.0,0.0,-1.0
21753012000,21753012000,-0.0012412351,0.13415992,-0.000541892,0.51000005,0.0,0.0,0.0,-1.0
21753060000,21753060000,-0.0019258191,0.13266446,-0.00013955667,0.51000005,0.0,0.0,0.0,-1.0
21753112000,21753112000,0.007892201,0.13355935,-0.0011272115,0.51000005,0.0,0.0,0.0,-1.0
21753160000,21753160000,-0.0009335487,0.13319544,-0.0011197114,0.51000005,0.0,0.0,0.0,-1.0
21753212000,21753212000,-0.002158608,0.13335116,0.00056334503,0.51000005,0.0,0.0,0.0,-1.0
21753260000,21753260000,0.010287392,0.13423404,-0.00070435513,0.51000005,0.0,0.0,0.0,-1.0
21753312000,21753312000,-0.00095287804,0.13385534,0.00019992607,0.51000005,0.0,0.0,0.0,-1.0
21753360000,21753360000,-0.0019038258,0.13375232,-0.00033977896,0.51000005,0.0,0.0,0.0,-1.0
21753412000,21753412000,-0.00057992875,0.13336372,-0.0005271964,0.51000005,0.0,0.0,0.0,-1.0
21753456000,21753456000,-0.003667536,0.13357463,0.00073028007,0.51000005,0.0,0.0,0.0,-1.0
21753512000,21753512000,-0.001420109,0.13395405,0.0003520759,0.51000005,0.0,0.0,0.0,-1.0
21753560000,21753560000,-0.0010503469,0.13389613,-0.00051307667,0.51000005,0.0,0.0,0.0,-1.0
21753608000,21753608000,-0.00075092807,0.13385397,-0.00078424375,0.51000005,0.0,0.0,0.0,-1.0
21753660000,21753660000,0.0012380922,0.13414814,-0.00054134155,0.51000005,0.0,0.0,0.0,-1.0
21753712000,21753712000,-0.00032565245,0.13422951,-0.00075053994,0.51000005,0.0,0.0,0.0,-1.0
21753760000,21753760000,-0.001689769,0.13338673,-4.4204466e-05,0.51000005,0.0,0.0,0.0,-1.0
21753808000,21753808000,-0.004131591,0.13427444,0.0010496479,0.51000005,0.0,0.0,0.0,-1.0
21753860000,21753860000,-0.000591143,0.13325314,0.0008592526,0.51000005,0.0,0.0,0.0,-1.0
21753912000,21753912000,-0.0013732295,0.13394004,-0.0003400324,0.51000005,0.0,0.0,0.0,-1.0
21753960000,21753960000,-0.0019352708,0.13457225,-0.00091572636,0.51000005,0.0,0.0,0.0,-1.0
21754012000,21754012000,-0.0005649559,0.13449751,0.0003209922,0.51000005,0.0,0.0,0.0,-1.0
21754056000,21754056000,-0.0014262248,0.13450344,-0.00011550435,0.51000005,0.0,0.0,0.0,-1.0
21754112000,21754112000,-0.001203399,0.1330211,0.00054486206,0.51000005,0.0,0.0,0.0,-1.0
21754160000,21754160000,-0.0027399817,0.1342304,0.00075594825,0.51000005,0.0,0.0,0.0,-1.0
21754212000,21754212000,-0.0016699556,0.13349414,0.0003164784,0.51000005,0.0,0.0,0.0,-1.0
21754260000,21754260000,-0.001920865,0.13385822,5.822247e-06,0.51000005,0.0,0.0,0.0,-1.0
21754312000,21754312000,-0.0026339523,0.13469015,-0.0013083597,0.51000005,0.0,0.0,0.0,-1.0
21754356000,21754356000,-0.0031779492,0.1340131,-0.00017652036,0.51000005,0.0,0.0,0.0,-1.0
21754408000,21754408000,-0.00125593,0.13363028,-0.0008433034,0.51000005,0.0,0.0,0.0,-1.0
21754456000,21754456000,-0.00048161615,0.1335514,-0.00017298375,0.51000005,0.0,0.0,0.0,-1.0
21754508000,21754508000,-0.03033426,0.13345681,0.0017958668,0.51000005,0.0,0.0,0.0,-1.0
21754556000,21754556000,-0.0008121578,0.13351522,-0.0005286963,0.51000005,0.0,0.0,0.0,-1.0
21754612000,21754612000,-0.0010556387,0.13360739,-0.0007801937,0.51000005,0.0,0.0,0.0,-1.0
21754656000,21754656000,-0.0014436268,0.13364424,0.0007298881,0.51000005,0.0,0.0,0.0,-1.0
21754712000,21754712000,-0.0018559775,0.13368584,-0.00065011374,0.51000005,0.0,0.0,0.0,-1.0
21754760000,21754760000,-0.00016314897,0.13366905,0.0008669715,0.51000005,0.0,0.0,0.0,-1.0
21754812000,21754812000,6.039565e-06,0.13324706,0.0003031073,0.51000005,0.0,0.0,0.0,-1.0
21754860000,21754860000,-0.02782673,0.13310009,0.0009632506,0.51000005,0.0,0.0,0.0,-1.0
21754912000,21754912000,-0.000996315,0.13391738,0.00014109952,0.51000005,0.0,0.0,0.0,-1.0
21754960000,21754960000,-0.0017574587,0.13251798,0.00016054044,0.51000005,0.0,0.0,0.0,-1.0
21755012000,21755012000,-7.285375e-05,0.13394853,0.0006942143,0.51000005,0.0,0.0,0.0,-1.0
21755060000,21755060000,-0.0040867743,0.13409941,-0.0017568122,0.51000005,0.0,0.0,0.0,-1.0
21755112000,21755112000,-0.00183005,0.13491926,0.00014099904,0.51000005,0.0,0.0,0.0,-1.0
21755160000,21755160000,-0.0023088525,0.13480324,0.0013077635,0.51000005,0.0,0.0,0.0,-1.0
21755208000,21755208000,-0.036245808,0.1332575,0.0023027493,0.51000005,0.0,0.0,0.0,-1.0
21755256000,21755256000,-8.7985776e-05,0.13447423,0.00011492153,0.51000005,0.0,0.0,0.0,-1.0
21755312000,21755312000,-0.00057230156,0.13490866,-0.00062148634,0.51000005,0.0,0.0,0.0,-1.0
21755356000,21755356000,-0.00015412111,0.13484696,-0.0002396777,0.51000005,0.0,0.0,0.0,-1.0
21755412000,21755412000,-0.00022723696,0.13414511,-0.00073339307,0.51000005,0.0,0.0,0.0,-1.0
21755456000,21755456000,-0.00026483394,0.13373668,0.00041322826,0.51000005,0.0,0.0,0.0,-1.0
21755508000,21755508000,-0.0012939019,0.1333611,0.0005203482,0.51000005,0.0,0.0,0.0,-1.0
21755560000,21755560000,-0.033738073,0.13363743,0.0024586983,0.51000005,0.0,0.0,0.0,-1.0
21755608000,21755608000,0.0026842477,0.13402964,0.0007259351,0.51000005,0.0,0.0,0.0,-1.0
21755656000,21755656000,0.0005079546,0.13378881,-0.0002927128,0.51000005,0.0,0.0,0.0,-1.0
21755712000,21755712000,-8.52993e-05,0.13441958,-0.0023078732,0.51000005,0.0,0.0,0.0,-1.0
21755756000,21755756000,0.0028167912,0.13426138,-0.0016473805,0.51000005,0.0,0.0,0.0,-1.0
21755812000,21755812000,-0.0010127282,0.13411175,0.0013795685,0.51000005,0.0,0.0,0.0,-1.0
21755860000,21755860000,-0.0031830256,0.13450938,0.00016472858,0.51000005,0.0,0.0,0.0,-1.0
21755908000,21755908000,-0.0018453088,0.13343263,-0.0010644346,0.51000005,0.0,0.0,0.0,-1.0
21755960000,21755960000,0.0018615421,0.1344319,0.0007697893,0.51000005,0.0,0.0,0.0,-1.0
21756008000,21756008000,0.00043901612,0.13444176,0.0006643415,0.51000005,0.0,0.0,0.0,-1.0
21756060000,21756060000,-0.0013922444,0.13425916,-0.0015110323,0.51000005,0.0,0.0,0.0,-1.0
21756112000,21756112000,-0.0032630134,0.13380189,-0.0021264364,0.51000005,0.0,0.0,0.0,-1.0
21756160000,21756160000,-0.002595948,0.13446045,0.0022231615,0.51000005,0.0,0.0,0.0,-1.0
21756208000,21756208000,-0.0013630006,0.13418394,0.0010560824,0.51000005,0.0,0.0,0.0,-1.0
21756256000,21756256000,0.023132624,0.13378997,-0.0011114883,0.51000005,0.0,0.0,0.0,-1.0
21756312000,21756312000,-0.0001745808,0.1338619,0.0010514117,0.51000005,0.0,0.0,0.0,-1.0
21756360000,21756360000,-0.0010899258,0.13414541,0.00011876992,0.51000005,0.0,0.0,0.0,-1.0
21756412000,21756412000,-0.0015703302,0.13475172,-0.0008671846,0.51000005,0.0,0.0,0.0,-1.0
21756460000,21756460000,0.0020332213,0.1341953,-0.0013640448,0.51000005,0.0,0.0,0.0,-1.0
21756512000,21756512000,-0.00087210344,0.13495338,0.001105857,0.51000005,0.0,0.0,0.0,-1.0
21756560000,21756560000,-0.00048167605,0.13447046,-0.0003854223,0.51000005,0.0,0.0,0.0,-1.0
21756612000,21756612000,0.0014290004,0.1338674,-0.0010451772,0.51000005,0.0,0.0,0.0,-1.0
21756656000,21756656000,0.00059012295,0.13435808,-0.0009869348,0.51000005,0.0,0.0,0.0,-1.0
21756708000,21756708000,-0.0020854508,0.13431267,-0.000470059,0.51000005,0.0,0.0,0.0,-1.0
21756756000,21756756000,-0.0022470779,0.1349323,-0.00024406212,0.51000005,0.0,0.0,0.0,-1.0
21756808000,21756808000,0.006498975,0.13451435,-0.0008848078,0.51000005,0.0,0.0,0.0,-1.0
21756860000,21756860000,-0.0040672305,0.13425486,-0.00052225933,0.51000005,0.0,0.0,0.0,-1.0
21756912000,21756912000,-0.0030369377,0.13503444,0.00012583329,0.51000005,0.0,0.0,0.0,-1.0
21756960000,21756960000,0.022323033,0.13440563,-0.0020908208,0.51000005,0.0,0.0,0.0,-1.0
21757012000,21757012000,-0.0008453086,0.13363989,0.0004034449,0.51000005,0.0,0.0,0.0,-1.0
21757056000,21757056000,-0.0010622822,0.13391457,0.001413036,0.51000005,0.0,0.0,0.0,-1.0
21757112000,21757112000,-0.0017155068,0.13434078,-0.0006346937,0.51000005,0.0,0.0,0.0,-1.0
21757160000,21757160000,0.0069598453,0.13499108,-0.0013241871,0.51000005,0.0,0.0,0.0,-1.0
21757212000,21757212000,-0.0012881407,0.13336486,0.00023648134,0.51000005,0.0,0.0,0.0,-1.0
21757260000,21757260000,-0.0019829602,0.13488162,0.00067353627,0.51000005,0.0,0.0,0.0,-1.0
21757312000,21757312000,0.02257781,0.13401212,-0.0018601774,0.51000005,0.0,0.0,0.0,-1.0
21757360000,21757360000,0.0010154444,0.13544978,0.0016141491,0.51000005,0.0,0.0,0.0,-1.0
21757412000,21757412000,-0.00032998557,0.13425383,-0.00053679163,0.51000005,0.0,0.0,0.0,-1.0
21757460000,21757460000,-0.0008553976,0.1349629,-0.0006899179,0.51000005,0.0,0.0,0.0,-1.0
21757512000,21757512000,0.006178858,0.13489723,-0.0011281122,0.51000005,0.0,0.0,0.0,-1.0
21757556000,21757556000,-0.0016952857,0.13391899,0.0012223637,0.51000005,0.0,0.0,0.0,-1.0
21757612000,21757612000,-0.0022935115,0.13503748,-0.00038252672,0.51000005,0.0,0.0,0.0,-1.0
21757660000,21757660000,0.008393793,0.13454948,-0.0013042658,0.51000005,0.0,0.0,0.0,-1.0
21757712000,21757712000,-0.00047431514,0.13472661,0.0007304186,0.51000005,0.0,0.0,0.0,-1.0
21757760000,21757760000,-0.0019776719,0.13488351,0.00044831279,0.51000005,0.0,0.0,0.0,-1.0
21757808000,21757808000,-0.002759448,0.13442323,-0.000910958,0.51000005,0.0,0.0,0.0,-1.0
21757856000,21757856000,-0.0038852084,0.13475387,0.00088875275,0.51000005,0.0,0.0,0.0,-1.0
21757912000,21757912000,-0.001839079,0.134892,0.00022489826,0.51000005,0.0,0.0,0.0,-1.0
21757960000,21757960000,-0.0012848867,0.13435058,-0.0016650859,0.51000005,0.0,0.0,0.0,-1.0
21758012000,21758012000,0.0101272855,0.13484126,-0.001032321,0.51000005,0.0,0.0,0.0,-1.0
21758060000,21758060000,-0.0014303416,0.1351725,0.00046703083,0.51000005,0.0,0.0,0.0,-1.0
21758112000,21758112000,-0.0018589693,0.134401,0.00037670636,0.51000005,0.0,0.0,0.0,-1.0
21758160000,21758160000,-0.0017568734,0.13418621,0.00052809075,0.51000005,0.0,0.0,0.0,-1.0
21758212000,21758212000,0.008198342,0.13474688,-0.0016353356,0.51000005,0.0,0.0,0.0,-1.0
21758260000,21758260000,-0.0016059646,0.13537031,-0.00016530718,0.51000005,0.0,0.0,0.0,-1.0
21758312000,21758312000,-0.002233535,0.1344872,-0.00053897855,0.51000005,0.0,0.0,0.0,-1.0
21758360000,21758360000,-0.0015849624,0.1347601,3.6712445e-05,0.51000005,0.0,0.0,0.0,-1.0
21758412000,21758412000,-0.00057364063,0.13569438,0.00046253196,0.51000005,0.0,0.0,0.0,-1.0
21758460000,21758460000,0.00011492423,0.13438506,-0.0009957321,0.51000005,0.0,0.0,0.0,-1.0
21758512000,21758512000,-0.0017201507,0.13482709,0.00032802805,0.51000005,0.0,0.0,0.0,-1.0
21758560000,21758560000,-0.0034724185,0.13475576,0.0011901848,0.51000005,0.0,0.0,0.0,-1.0
21758612000,21758612000,-0.0013730933,0.13463718,8.301891e-05,0.51000005,0.0,0.0,0.0,-1.0
21758660000,21758660000,-0.0011002551,0.13457602,0.00015064834,0.51000005,0.0,0.0,0.0,-1.0
21758712000,21758712000,-0.0021291657,0.13590539,-0.00096282386,0.51000005,0.0,0.0,0.0,-1.0
21758760000,21758760000,-1.8611832e-05,0.13508683,0.0006009149,0.51000005,0.0,0.0,0.0,-1.0
21758812000,21758812000,-0.00025461716,0.13489136,0.00050344464,0.51000005,0.0,0.0,0.0,-1.0
21758860000,21758860000,-0.0017280368,0.13475479,3.9113187e-05,0.51000005,0.0,0.0,0.0,-1.0
21758912000,21758912000,-0.004534905,0.13540204,-0.00034849683,0.51000005,0.0,0.0,0.0,-1.0
21758960000,21758960000,-0.0008181923,0.13407551,0.0002291148,0.51000005,0.0,0.0,0.0,-1.0
21759012000,21759012000,-0.0011580589,0.13451728,0.0001428677,0.51000005,0.0,0.0,0.0,-1.0
21759060000,21759060000,-0.0012409718,0.13514796,-0.0016497409,0.51000005,0.0,0.0,0.0,-1.0
21759112000,21759112000,-0.0025963888,0.1355676,0.00033139015,0.51000005,0.0,0.0,0.0,-1.0
21759156000,21759156000,-8.18703e-05,0.13495523,0.0022444008,0.51000005,0.0,0.0,0.0,-1.0
21759212000,21759212000,-0.0011466229,0.13505445,-0.00032460707,0.51000005,0.0,0.0,0.0,-1.0
21759260000,21759260000,-0.030251216,0.13529807,0.0013364035,0.51000005,0.0,0.0,0.0,-1.0
21759308000,21759308000,-0.0012913897,0.13464755,0.000110237794,0.51000005,0.0,0.0,0.0,-1.0
21759360000,21759360000,-0.0013402124,0.13525055,0.0008893991,0.51000005,0.0,0.0,0.0,-1.0
21759412000,21759412000,-0.0012895752,0.13456589,-0.00055469136,0.51000005,0.0,0.0,0.0,-1.0
21759460000,21759460000,-0.0025938933,0.13495494,-0.0006923519,0.51000005,0.0,0.0,0.0,-1.0
