timestamp,timestamp_sample,yaw_composite,yaw_variance,yaw[0],yaw[1],yaw[2],yaw[3],yaw[4],innov_vn[0],innov_vn[1],innov_vn[2],innov_vn[3],innov_vn[4],innov_ve[0],innov_ve[1],innov_ve[2],innov_ve[3],innov_ve[4],weight[0],weight[1],weight[2],weight[3],weight[4]
21733228000,21733148000,3.0079389,3.7977512,-2.5132742,-1.2566371,0.0,1.2566371,2.5132742,0.0,0.0,0.0,0.0,0.0,0.0,0.0,0.0,0.0,0.0,0.2,0.2,0.2,0.2,0.2
21733236000,21733156000,1.4764632,3.6013794,-2.5132682,-1.256631,6.0528632e-06,1.256643,2.5132802,0.0,0.0,0.0,0.0,0.0,0.0,0.0,0.0,0.0,0.0,0.2,0.2,0.2,0.2,0.2
21734228000,21734148000,-2.8864963,3.691633,-2.513452,-1.2568729,-0.00016820306,1.2565689,2.5132003,-0.004227196,-0.023618083,-0.024099221,-0.00500506,0.007276246,0.0062254965,0.00043080654,-0.019802012,-0.026511647,-0.010425458,0.20004305,0.19999725,0.19995515,0.19997497,0.20002961
21735228000,21735148000,-0.868077,3.7008476,-2.5126824,-1.25629,-0.00010290729,1.2565011,2.5135677,-0.040332586,-0.024909206,-0.008373278,-0.013571921,-0.03333192,-0.003263439,-0.015635237,-0.0047956207,0.014287499,0.015234994,0.19998467,0.20018676,0.20013048,0.19989398,0.19980417
21736228000,21736148000,-0.6895893,3.8603613,-2.5085254,-1.2524765,0.0025762974,1.2588227,2.5168042,-0.053728234,-0.040854905,-0.030160952,-0.0364056,-0.050988887,0.017195076,0.010137988,0.02018486,0.03347534,0.03163433,0.19982944,0.20058148,0.20052922,0.19974574,0.19931418
21737228000,21737148000,-0.7422325,3.803262,-2.5071802,-1.2511529,0.0040459363,1.2604047,2.5183098,-0.016121728,-0.033700462,-0.024460098,-0.0011438541,0.0040347017,0.004065348,-0.011394008,-0.03288479,-0.030759087,-0.007897142,0.19987693,0.20054874,0.20046149,0.19973671,0.19937617
21738228000,21738148000,-1.1929784,3.5440202,-2.5074625,-1.2524074,0.0024954837,1.2596438,2.518335,0.028848866,-0.011655546,-0.029816072,-0.0005397556,0.035773702,-0.01584112,-0.009947807,-0.04661731,-0.07526852,-0.05623216,0.20022327,0.20088528,0.20032218,0.19931509,0.19925421
21739228000,21739148000,-1.1290629,1.9705797,-2.3157945,-1.246202,-0.21823409,1.074896,2.5982563,0.6560898,0.11165322,-0.5594052,-0.50520164,0.3287424,-0.53634846,-0.032935858,-0.33059072,-1.1286876,-1.2794079,0.2074528,0.3395874,0.24836393,0.10958262,0.09501336
21740220000,21740140000,-1.1482188,0.09042924,-1.4522158,-1.1707565,-0.89870197,0.3343455,-3.0011132,1.168853,0.15890634,-0.64509785,-0.8698646,3.1847186,0.15737653,-0.25735712,-0.56322336,-3.2615635,-2.0184584,0.04917601,0.8165287,0.13411635,8.950638e-05,8.950638e-05
21741228000,21741148000,-1.1589786,0.035160888,-1.1469502,-1.1701216,-1.1038254,-0.040365048,-2.5860572,0.5910914,0.3513657,-0.06705773,-0.91652834,3.0524316,-0.19714308,-0.66077757,-0.5149505,-2.705544,-1.1489096,0.035633292,0.8084051,0.15578042,9.05997e-05,9.05997e-05
21742228000,21742148000,-1.1734786,0.028769795,-1.0546873,-1.1810373,-1.1803114,-0.16924797,-2.427911,0.5488677,0.4845562,0.21533823,-0.5012932,2.3888083,-0.64250684,-0.97053814,-0.7738309,-2.3380547,-1.0441177,0.05840232,0.65759367,0.28378227,0.000110875844,0.000110875844
21743228000,21743148000,-1.203916,0.029545464,-1.0031625,-1.1999794,-1.2420954,-0.24042083,-2.3507857,0.5197798,0.49963427,0.31089258,-0.15733147,1.7026049,-0.8209729,-1.0468385,-0.8574693,-1.9175389,-0.9550998,0.08420113,0.4314606,0.48411286,0.000112708585,0.000112708585
21744228000,21744148000,-1.2533545,0.03297654,-0.96904343,-1.2248808,-1.299233,-0.27325454,-2.3361182,0.6313486,0.5818391,0.42837715,0.2631321,1.1696483,-1.016031,-1.1886163,-1.029948,-1.6514361,-1.0308356,0.08820464,0.22965665,0.6818799,0.000129429,0.000129429
21745228000,21745148000,-1.3183403,0.03471357,-0.9369643,-1.2539958,-1.3567593,-0.27756763,-2.370425,0.68503785,0.5657275,0.425447,0.5767727,0.60163593,-1.1161063,-1.268245,-1.1555054,-1.358264,-1.0766048,0.06874145,0.0990942,0.8318772,0.0001410872,0.00014616341
21746228000,21746148000,-1.3640699,0.03358563,-0.91796875,-1.2754114,-1.3936609,-0.26561546,-2.418367,0.7409222,0.5531714,0.41078162,0.7826618,0.25375986,-1.1513414,-1.3064289,-1.2267787,-1.1649017,-1.0677848,0.050459534,0.054339536,0.8947721,0.00015002757,0.00027883035
21747228000,21747148000,-1.4005218,0.032052282,-0.9048859,-1.2941093,-1.4228114,-0.25017193,-2.4675643,0.72467184,0.4958837,0.3567338,0.8452357,0.0089354515,-1.1204453,-1.2773476,-1.2237976,-0.9930496,-1.0126729,0.037222188,0.03354516,0.9282771,0.00014574408,0.0008098369
21748228000,21748148000,-1.4287199,0.032121703,-0.8940147,-1.3082626,-1.4443426,-0.23263977,-2.5113935,0.7595351,0.48815012,0.347646,0.9375205,-0.16895342,-1.0341406,-1.2049708,-1.1738322,-0.7827697,-0.91144943,0.028140772,0.02285322,0.94607675,0.00015469288,0.0027746253
21749228000,21749148000,-1.4526328,0.037374612,-0.88621086,-1.3185874,-1.4596158,-0.2173718,-2.545487,0.7546537,0.45636415,0.31693363,0.96463585,-0.3079965,-0.9659734,-1.1471019,-1.1326888,-0.63037825,-0.83433485,0.02224936,0.017120082,0.95173526,0.00017304964,0.00872224
21750228000,21750148000,-1.4857852,0.05924493,-0.8791338,-1.3275019,-1.4727263,-0.20251563,-2.5769856,0.7222636,0.4151435,0.2823136,0.9438468,-0.3974433,-0.8821659,-1.0657163,-1.0649824,-0.49556398,-0.74826527,0.018065203,0.013206562,0.9404777,0.0002172194,0.028033221
21751228000,21751148000,-1.5176495,0.08983095,-0.87435704,-1.3310614,-1.4784975,-0.19336839,-2.5929894,0.6652913,0.3706851,0.24717784,0.87197423,-0.43534064,-0.7707677,-0.9545021,-0.96262693,-0.37144327,-0.6652837,0.016084792,0.01136961,0.91779995,0.0002598968,0.05448571
21752228000,21752148000,-1.5542498,0.125679,-0.8715421,-1.3338966,-1.4828483,-0.18751188,-2.6045833,0.5727787,0.3069613,0.19819355,0.75948167,-0.42493248,-0.6802969,-0.8455148,-0.856256,-0.3103571,-0.583972,0.014770688,0.010143555,0.888118,0.00030176513,0.086666025
21753228000,21753148000,-1.5908192,0.15955186,-0.8698796,-1.3361027,-1.4860947,-0.18376738,-2.6129875,0.50220895,0.25693727,0.15883899,0.6766186,-0.41855216,-0.59233665,-0.74225235,-0.7542119,-0.24592018,-0.49711847,0.013877541,0.009299216,0.8575486,0.00033919254,0.118935436
21754228000,21754148000,-1.6275705,0.19063781,-0.86889136,-1.3378584,-1.4885554,-0.18105572,-2.6190424,0.42327785,0.21714449,0.13573599,0.5679498,-0.3588462,-0.4676633,-0.5961814,-0.6088166,-0.16812086,-0.3946209,0.013033768,0.00862042,0.8269587,0.00036430196,0.15102273
21755228000,21755148000,-1.6488955,0.2064637,-0.86955696,-1.3397361,-1.4907439,-0.1808819,-2.6228132,0.36990738,0.19427752,0.12524986,0.49114037,-0.30369878,-0.3732319,-0.48547888,-0.49796343,-0.11205101,-0.31848717,0.012587176,0.008291183,0.8102628,0.0003745168,0.16848437
21756228000,21756148000,-1.6644067,0.21777822,-0.8695462,-1.3404958,-1.4916755,-0.18021335,-2.6247134,0.28411746,0.14349222,0.08890581,0.38430738,-0.248492,-0.30287313,-0.3889122,-0.39814186,-0.09706545,-0.24903822,0.012222358,0.00806129,0.7977606,0.0003773037,0.18157843
21757228000,21757148000,-1.6770895,0.22599836,-0.8705827,-1.3421376,-1.4934595,-0.18080501,-2.627343,0.23826742,0.1281898,0.08465433,0.3090129,-0.19837928,-0.24541616,-0.32249832,-0.33295488,-0.071772575,-0.22901201,0.011999991,0.007906464,0.7884407,0.00038164598,0.1912712
21758228000,21758148000,-1.684835,0.23146048,-0.8704291,-1.3424441,-1.4938941,-0.1804151,-2.6284847,0.20177102,0.11781788,0.084157705,0.25093675,-0.1440692,-0.18917894,-0.25412655,-0.26424932,-0.048537254,-0.1929946,0.011900713,0.0078092725,0.7821669,0.00038842004,0.19773473
21759228000,21759148000,-1.6919911,0.2357418,-0.87130713,-1.3436613,-1.4951916,-0.18106715,-2.6303034,0.17668366,0.1112864,0.08447075,0.20980549,-0.10592008,-0.117284775,-0.17442942,-0.18442869,0.0004901886,-0.13750744,0.011803741,0.0077365115,0.777191,0.00039167766,0.20287712
21760228000,21760148000,-1.6953405,0.23824076,-0.87101483,-1.3435913,-1.4951833,-0.18066852,-2.630668,0.15071821,0.11082792,0.09287,0.15879464,-0.051392794,-0.077153206,-0.12719202,-0.13785267,0.012697697,-0.12933493,0.011768315,0.0076973704,0.7743232,0.0003952399,0.20581582
21761228000,21761148000,-1.6973962,0.23951022,-0.8712771,-1.3439786,-1.4956119,-0.18089263,-2.6313252,0.13780642,0.11908364,0.108113766,0.12243533,-0.0040671825,-0.037325382,-0.08481741,-0.097020626,0.033297062,-0.12484074,0.011761975,0.007679239,0.772923,0.00039805612,0.20723781
21762228000,21762148000,-1.6986451,0.23985197,-0.87215513,-1.3449184,-1.4965812,-0.18179472,-2.6324344,0.0873332,0.08757329,0.08329821,0.05458331,0.008609772,0.0044322014,-0.036180496,-0.04831505,0.05215311,-0.10262108,0.01178586,0.007677804,0.77264977,0.00040093253,0.20748568
21763228000,21763148000,-1.6976297,0.23923513,-0.87224793,-1.3450222,-1.4967128,-0.18199362,-2.632653,0.082882404,0.10257578,0.104604244,0.027955294,0.058227062,0.02024126,-0.018777847,-0.03249502,0.05098772,-0.121225834,0.011852875,0.0076942854,0.773554,0.00040496656,0.2064939
21764228000,21764148000,-1.6962332,0.23812236,-0.87271273,-1.3454642,-1.4971759,-0.18260063,-2.6331568,0.060535192,0.09254122,0.09918213,-0.0034365654,0.082570076,0.041623592,0.009904385,-0.0028676987,0.053993225,-0.10506725,0.0119377,0.007719611,0.7750525,0.00040912733,0.20488104
21765228000,21765148000,-1.6938823,0.2365945,-0.87282723,-1.3455194,-1.497245,-0.18288262,-2.6332083,0.05865097,0.094276905,0.10256624,-0.0058214664,0.09966779,0.04808569,0.021206856,0.00950861,0.051896572,-0.09308672,0.0120312665,0.007751114,0.77702785,0.00041297096,0.20277683
21766228000,21766148000,-1.6937838,0.2360313,-0.8736806,-1.3463289,-1.4980505,-0.18378462,-2.6339574,0.02899623,0.063559294,0.07254243,-0.026254416,0.08685446,0.07859039,0.061701298,0.05314064,0.071306705,-0.034235,0.012052079,0.0077613243,0.77778685,0.00041324785,0.20198646
21767228000,21767148000,-1.6932262,0.23554185,-0.8739714,-1.3465941,-1.4983182,-0.18413,-2.6342082,-0.002247572,0.03874874,0.050513744,-0.059289217,0.0873909,0.070911884,0.061552525,0.05464077,0.04951954,-0.03485632,0.01208021,0.007771699,0.7784674,0.00041429308,0.20126633
21768228000,21768148000,-1.6923554,0.23526865,-0.87361515,-1.3462188,-1.4979433,-0.18380466,-2.6338148,-0.00031757355,0.0459342,0.059627295,-0.061498404,0.108662605,0.104665756,0.09809685,0.09150791,0.07578564,-0.0041747093,0.012094528,0.0077776313,0.7788803,0.00041473814,0.20083278
21769228000,21769148000,-1.6913851,0.23436037,-0.87410283,-1.346643,-1.498362,-0.18437311,-2.6341553,-0.02611208,0.022245407,0.03669095,-0.08915877,0.090073586,0.061135292,0.0554142,0.04886675,0.029601574,-0.049655914,0.012130405,0.0077938815,0.7800428,0.00041540148,0.19961752
21770228000,21770148000,-1.6905102,0.2336862,-0.874338,-1.3468359,-1.4985538,-0.18467504,-2.6343036,-0.016356468,0.028101683,0.041409254,-0.074110985,0.09097409,0.101433754,0.09644508,0.090500355,0.07214928,0.00027799606,0.012162352,0.007806848,0.78093046,0.00041629438,0.198684
21771228000,21771148000,-1.6890472,0.23296027,-0.8740619,-1.3465137,-1.4982308,-0.1844712,-2.633933,0.0031867027,0.04410553,0.05641055,-0.04950738,0.10310054,0.077926636,0.073917866,0.06862068,0.0502944,-0.013648987,0.0121969925,0.0078207925,0.78187907,0.0004172478,0.19768602
21772228000,21772148000,-1.6882693,0.23234014,-0.8743157,-1.3467377,-1.4984584,-0.18479614,-2.6341438,0.0066370964,0.047346592,0.059301615,-0.048068523,0.10031915,0.08385277,0.076984406,0.07081938,0.05986786,-0.014857292,0.012234271,0.007833836,0.7827068,0.00041867394,0.19680643
21773228000,21773148000,-1.6882997,0.23246045,-0.87424517,-1.346643,-1.4983511,-0.18469876,-2.6339703,-0.007945776,0.030736208,0.04247141,-0.05693531,0.08851385,0.089636326,0.0868907,0.082191944,0.062302113,0.005789757,0.0122097945,0.007829795,0.7826211,0.00041692486,0.19692236
21774220000,21774140000,-1.6896745,0.23314789,-0.8746352,-1.3470038,-1.4986836,-0.18497837,-2.6341746,-0.02342701,0.011832714,0.022802591,-0.06591964,0.069915056,0.091082096,0.09132242,0.087889194,0.0628562,0.021877766,0.012130546,0.007811518,0.7818207,0.00041219982,0.19782494
21775228000,21775148000,-1.6904923,0.23328234,-0.8753732,-1.3477546,-1.499439,-0.18571992,-2.6349583,-0.013573408,0.017510653,0.027798891,-0.046132803,0.080939054,0.04482174,0.05123043,0.050112247,0.0124640465,0.000111579895,0.012134888,0.0078113745,0.78176033,0.0004127245,0.19788066
21776228000,21776148000,-1.690516,0.23378044,-0.87474847,-1.3471442,-1.4988257,-0.18504831,-2.6343436,-0.03746319,-0.0045142174,0.0065977573,-0.070381165,0.066709995,0.055968285,0.06477547,0.064216614,0.019237995,0.01388216,0.012107242,0.0078024794,0.78124225,0.00041160407,0.19843648
21777228000,21777148000,-1.6913675,0.23422848,-0.875069,-1.3475146,-1.4992111,-0.18535924,-2.6348248,-0.017877579,0.012878656,0.02342844,-0.047199965,0.08287716,0.0877924,0.09780121,0.097830296,0.051354885,0.053198338,0.012112463,0.0077988314,0.78082764,0.00041292305,0.19884807
21778228000,21778148000,-1.6919135,0.23474266,-0.8749664,-1.3474488,-1.4991528,-0.18522665,-2.6348226,-0.056821346,-0.027522326,-0.017522097,-0.085139036,0.038191795,0.05814123,0.067187786,0.06706858,0.024018288,0.023898602,0.0121015385,0.007792145,0.78031516,0.00041312774,0.19937801
21779228000,21779148000,-1.6937416,0.23487678,-0.8767034,-1.3491873,-1.5008905,-0.18695743,-2.6365597,-0.05463195,-0.028170347,-0.01854372,-0.075464725,0.042997837,0.027688503,0.04184866,0.043587685,-0.010351181,0.012524605,0.012097271,0.0077907816,0.7802423,0.00041296883,0.19945665
21780228000,21780148000,-1.6949606,0.23566604,-0.8768645,-1.3494103,-1.5011257,-0.18706933,-2.6368902,-0.064760685,-0.03572321,-0.02520895,-0.088003635,0.041389227,0.07888603,0.09392834,0.09567976,0.03774309,0.060945034,0.012080469,0.00778005,0.7794074,0.00041336124,0.20031886
21781228000,21781148000,-1.6961768,0.23625043,-0.8773117,-1.3498895,-1.5016079,-0.18747152,-2.6374083,-0.066470146,-0.039943695,-0.029859304,-0.083868265,0.040040493,0.06820631,0.08678627,0.08987713,0.024782658,0.06454754,0.012058952,0.0077710277,0.77879727,0.0004128939,0.20095985
21782228000,21782148000,-1.6976455,0.23669238,-0.8782283,-1.3508322,-1.5025544,-0.18835832,-2.638389,-0.020266294,0.008953333,0.019275188,-0.045654774,0.08150768,0.051710606,0.06430626,0.06528139,0.013371468,0.026969433,0.012045847,0.0077648317,0.7783603,0.00041275923,0.20141622
21783228000,21783148000,-1.699794,0.23740885,-0.879396,-1.3520342,-1.5037569,-0.189463,-2.6396198,-0.070889235,-0.040546417,-0.02982235,-0.09722304,0.034849167,0.07161665,0.08472824,0.08574343,0.03177309,0.04599905,0.012013642,0.0077527356,0.7775811,0.0004117595,0.2022408
21784228000,21784148000,-1.7015461,0.23800066,-0.8803845,-1.3530799,-1.5048171,-0.19042522,-2.6407795,-0.07264948,-0.040477276,-0.028516293,-0.0959146,0.0510664,0.07645416,0.09622145,0.09910488,0.02712059,0.06473541,0.012010067,0.007746078,0.7769843,0.0004127419,0.2028468
21785228000,21785148000,-1.7036227,0.23910975,-0.8808878,-1.353659,-1.5054071,-0.1908421,-2.6414688,-0.05802536,-0.026214838,-0.01474452,-0.0837965,0.057360888,0.10215092,0.11819935,0.11997223,0.057597637,0.081357956,0.011973729,0.007728711,0.7757421,0.00041235978,0.20414306
21786228000,21786148000,-1.7051463,0.23978244,-0.88153565,-1.3543856,-1.5061572,-0.19146931,-2.6423676,-0.037170887,-0.0013349056,0.011369228,-0.067947865,0.08845425,0.07981062,0.09567881,0.09699297,0.032282352,0.050558567,0.011979363,0.0077223964,0.775063,0.00041427065,0.204821
21787228000,21787148000,-1.7070906,0.24051651,-0.8824582,-1.3553487,-1.507123,-0.1923297,-2.6433742,-0.064510584,-0.028778315,-0.01616311,-0.095620155,0.059700966,0.086610794,0.101899624,0.103043556,0.039862156,0.056032658,0.011949454,0.0077102855,0.7742549,0.00041351406,0.20567182
21788228000,21788148000,-1.7088523,0.24085806,-0.8838522,-1.3568052,-1.508603,-0.19373713,-2.644992,-0.060920954,-0.02188158,-0.008620977,-0.09905982,0.06442785,0.110524654,0.121984005,0.121620655,0.065778255,0.06331396,0.011972126,0.007710218,0.77398026,0.00041602444,0.20592141
21789228000,21789148000,-1.7102962,0.2414161,-0.8845003,-1.3574542,-1.5092404,-0.19431451,-2.6455824,-0.043122053,0.0005943775,0.014582634,-0.09262037,0.08029485,0.090213776,0.09446859,0.09142494,0.05044365,0.0147948265,0.011926999,0.0076978975,0.7733429,0.00041368045,0.20661856
21790228000,21790148000,-1.7108209,0.2412965,-0.8852922,-1.3582151,-1.5099919,-0.19510975,-2.6462712,-0.046043158,-0.0024333,0.011725187,-0.093822,0.0810771,0.080818176,0.08708668,0.08467913,0.038698673,0.010915756,0.011919797,0.007698933,0.7735493,0.00041274715,0.2064192
21791228000,21791148000,-1.7118345,0.24134874,-0.8863487,-1.3592843,-1.5110679,-0.19618076,-2.6473832,-0.017765284,0.019694328,0.03222251,-0.055880547,0.09872031,0.08725357,0.09633589,0.09540987,0.046613216,0.03693199,0.011930708,0.0077006025,0.773589,0.00041363554,0.2063661
21792228000,21792148000,-1.7122896,0.24133119,-0.8868883,-1.3597759,-1.511539,-0.19669425,-2.6477354,-0.038608074,-0.0011126995,0.012082338,-0.07161212,0.09086609,0.06706524,0.08266258,0.083741665,0.018523693,0.033811092,0.011901332,0.007697275,0.77364266,0.00041116946,0.20634748
21793228000,21793148000,-1.7140112,0.24165161,-0.8881596,-1.361007,-1.5127445,-0.19789587,-2.6488078,-0.05164075,-0.018078327,-0.0061211586,-0.07998586,0.06723404,0.031607628,0.047087193,0.04852581,-0.01367712,0.0058369637,0.011847477,0.007686533,0.7732683,0.00040754362,0.20679016
21794220000,21794140000,-1.7155977,0.24186628,-0.8894917,-1.3623198,-1.5140449,-0.19919199,-2.6500418,-0.05449605,-0.028363466,-0.019251585,-0.0780673,0.03433132,0.054330826,0.06451082,0.06506014,0.02133274,0.029325485,0.011819539,0.0076807616,0.7730579,0.00040571464,0.20703606
21795228000,21795148000,-1.715511,0.2420341,-0.8892549,-1.3620808,-1.5138036,-0.1989412,-2.649786,-0.0467999,-0.027028799,-0.019483328,-0.059423923,0.03339243,0.028972626,0.043264866,0.045711517,-0.003941536,0.027373314,0.011809913,0.007678276,0.77293706,0.0004051845,0.20716962
21796228000,21796148000,-1.7167331,0.24228631,-0.8901688,-1.3629755,-1.5146848,-0.1998135,-2.650597,-0.071845055,-0.05937624,-0.05358982,-0.0715642,-0.0007326603,0.006632328,0.026070118,0.030831337,-0.026697159,0.03302622,0.011779302,0.007671775,0.7726827,0.00040320173,0.20746297
21797228000,21797148000,-1.717729,0.24280892,-0.8904503,-1.3632715,-1.514977,-0.20004028,-2.6508803,-0.083987474,-0.07222867,-0.065806866,-0.0760839,0.0021224022,0.0036306381,0.031604767,0.03906536,-0.039444923,0.053888798,0.011749034,0.007662138,0.7721142,0.00040188115,0.20807269
21798228000,21798148000,-1.7191571,0.2432094,-0.8913658,-1.3642124,-1.5159214,-0.20092689,-2.651856,-0.0931685,-0.08423281,-0.07801151,-0.07648158,-0.0011131763,-0.005598545,0.029153347,0.038975716,-0.054611206,0.06806946,0.011736709,0.007656396,0.7717126,0.00040172995,0.20849258
21799228000,21799148000,-1.7205324,0.2434971,-0.89239836,-1.3652527,-1.5169604,-0.20193394,-2.6528933,-0.092360735,-0.092176676,-0.08893633,-0.06711316,-0.028407335,-0.02057314,0.011641502,0.021548748,-0.05955839,0.063718796,0.011722601,0.0076517942,0.7714408,0.0004011556,0.20878364
21800228000,21800148000,-1.7209154,0.24382101,-0.8923889,-1.3652577,-1.5169666,-0.20189957,-2.652912,-0.044792175,-0.04595542,-0.04369068,-0.022322416,0.004641056,-0.040680885,-0.01402092,-0.005690098,-0.071890354,0.03166294,0.011710453,0.0076471088,0.7711313,0.0004008048,0.20911027
21801220000,21801140000,-1.7206706,0.2436133,-0.8926098,-1.3654832,-1.5172024,-0.20216855,-2.6531916,-0.032208443,-0.04005027,-0.03977704,-0.000982523,0.0013360977,-0.038497925,-0.0109677315,-0.0017089844,-0.06544399,0.04933977,0.011739354,0.007654555,0.77150875,0.00040246666,0.20869486
21802228000,21802148000,-1.7212968,0.24344413,-0.89362437,-1.3664914,-1.518214,-0.20321578,-2.654212,-0.02839446,-0.042161703,-0.044318676,0.0053830147,-0.02196455,-0.029220581,-0.0075006485,0.0005569458,-0.044440746,0.055045605,0.011756087,0.007659824,0.77181995,0.00040327548,0.20836085
21803228000,21803148000,-1.7223314,0.24345899,-0.8947496,-1.3676103,-1.5193317,-0.20434575,-2.655319,-0.012783289,-0.03143382,-0.035261393,0.025743246,-0.022106886,-0.039287567,-0.019022465,-0.010926247,-0.048872948,0.050813675,0.011756474,0.0076606246,0.77189124,0.000403203,0.20828845
21804228000,21804148000,-1.7223618,0.24345025,-0.89491534,-1.3677759,-1.5194999,-0.20452504,-2.6554966,-0.059957504,-0.081830025,-0.08637643,-0.01531291,-0.072229385,-0.04861164,-0.025548458,-0.016268253,-0.059022427,0.05523157,0.011763749,0.0076626986,0.77200085,0.00040362563,0.20816901
21805228000,21805148000,-1.7234505,0.24294803,-0.8969152,-1.3697519,-1.5214792,-0.206595,-2.6574745,-0.027401924,-0.048750877,-0.053140163,0.01656723,-0.038376093,-0.032336235,-0.009322643,-0.000102996826,-0.04311514,0.070355415,0.011798164,0.007674395,0.7727258,0.0004050602,0.20739661
21806228000,21806148000,-1.7235821,0.24290763,-0.8972266,-1.3700573,-1.5217856,-0.20692044,-2.6577778,-0.04611516,-0.061761856,-0.064668894,-0.011348009,-0.04780245,-0.020641327,-0.00053215027,0.0072255135,-0.032443047,0.063123226,0.011804022,0.007676615,0.77286935,0.00040529287,0.20724474
21807228000,21807148000,-1.430145,0.026719112,-0.9623521,-1.3231032,-1.4543669,-0.38477334,-2.4496531,0.37189943,-0.80466497,-1.2563474,1.3682246,-4.296462,0.1000154,-0.55534697,-0.6528652,1.8631804,0.5697522,0.04596817,0.018071739,0.9356378,0.0001611922,0.0001611922
21808228000,21808148000,-1.2069776,0.020083832,-1.0047674,-1.1910173,-1.2674463,-0.6631039,-1.9514095,0.13741037,-0.587297,-0.9139382,1.3781364,-4.102542,0.4232193,0.058923483,-0.066060096,1.3827053,0.0065128356,0.2166599,0.050131965,0.7330153,9.642851e-05,9.642851e-05
21809228000,21809148000,-1.1592927,0.012462047,-1.0400915,-1.1606457,-1.2139828,-0.7942384,-1.7751385,-0.18746103,-0.56474876,-0.7521678,0.7327664,-3.2715201,0.67437017,0.44354862,0.32381883,1.1589115,-0.2051372,0.2954375,0.06360137,0.64077574,9.272617e-05,9.272617e-05
21810228000,21810148000,-1.1270491,0.008271598,-1.0444663,-1.125592,-1.1644256,-0.8594623,-1.6345565,-0.5427247,-0.7172867,-0.8120003,0.06828821,-2.49149,1.1525556,1.0300388,0.9430276,1.3351824,0.3066212,0.29039666,0.06652273,0.6427958,0.00014245126,0.00014245126
21811228000,21811148000,-1.1162726,0.006645921,-1.0495872,-1.1067559,-1.1382787,-0.8944074,-1.5843484,-0.89264745,-0.89390403,-0.8942816,-0.693714,-1.2712306,1.4407077,1.4172711,1.3774582,1.371547,0.9787354,0.22740242,0.05997206,0.7120644,0.0002945849,0.00026653803
21812228000,21812148000,-1.1179435,0.006303874,-1.0575289,-1.1045097,-1.133838,-0.91050917,-1.5865223,-0.89783275,-0.86184406,-0.83440626,-0.8561565,-0.6403719,1.3980608,1.4111133,1.3975284,1.2405217,1.2558467,0.18996714,0.053693246,0.7550195,0.0006161311,0.0007038689
21813228000,21813148000,-1.1151587,0.006267909,-1.0585876,-1.0996017,-1.1277442,-0.916429,-1.5832062,-0.74403334,-0.7063754,-0.6739794,-0.76303834,-0.28472173,1.0604947,1.0816245,1.079934,0.89365494,1.0713066,0.17014086,0.04944041,0.7775378,0.0010732824,0.0018074821
21814228000,21814148000,-1.1107022,0.0063290964,-1.0563427,-1.0941855,-1.1216676,-0.9173034,-1.5764484,-0.5579434,-0.5299301,-0.5038664,-0.5822617,-0.15432774,0.77407634,0.792767,0.794771,0.63498026,0.8358257,0.16184406,0.04722862,0.7866556,0.001513846,0.0027579316
21815228000,21815148000,-1.0990077,0.006392478,-1.0493306,-1.080661,-1.108536,-0.92089427,-1.5843995,-0.2829957,-0.26732954,-0.25207448,-0.2922864,-0.052251823,0.4632792,0.47322187,0.47347486,0.37933692,0.49168533,0.1585008,0.04612503,0.7902408,0.0018760737,0.0032572804
21816228000,21816148000,-1.0996007,0.0065019284,-1.0502592,-1.0810554,-1.1088195,-0.9223574,-1.5846461,-0.1856158,-0.17641439,-0.16734979,-0.18578419,-0.060970064,0.28605863,0.2903466,0.28870592,0.23740292,0.27842754,0.15693648,0.045728732,0.79181725,0.0019979428,0.0035196273
21817228000,21817148000,-1.1005358,0.006601947,-1.0513198,-1.0818841,-1.1096039,-0.9236398,-1.5854976,-0.13166465,-0.12650186,-0.12139038,-0.12678161,-0.06912895,0.18562376,0.18776497,0.18603212,0.15522355,0.17393151,0.15613566,0.045553125,0.79261065,0.0020463865,0.0036542243
21818228000,21818148000,-1.1013466,0.006690105,-1.052187,-1.0826505,-1.110355,-0.9246116,-1.5863347,-0.09743295,-0.09500821,-0.09260564,-0.08919155,-0.07599328,0.08624487,0.0873273,0.08583617,0.067020856,0.07712597,0.15580174,0.045481812,0.79294366,0.0020683913,0.003704406
21819228000,21819148000,-1.1021888,0.0067705973,-1.0530471,-1.0834799,-1.1111846,-0.92552364,-1.5872407,-0.06302529,-0.06262924,-0.062230323,-0.051767837,-0.070402384,-0.011361206,-0.010415291,-0.011309177,-0.02505237,-0.010149358,0.15570684,0.04546466,0.7930427,0.002075429,0.0037102946
21820228000,21820148000,-1.1025057,0.006844967,-1.053357,-1.083805,-1.1115206,-0.925846,-1.5876919,-0.024099957,-0.026681488,-0.029213335,-0.0050799325,-0.07738755,-0.12125949,-0.12022183,-0.12042259,-0.13048194,-0.10329749,0.15576203,0.04548138,0.7929952,0.0020756454,0.003685799
21821228000,21821148000,-1.1026318,0.0069210124,-1.053457,-1.0839323,-1.1116589,-0.9259311,-1.5879104,0.0038778624,-0.0006563701,-0.0051184716,0.028369097,-0.08240192,-0.16668946,-0.16618668,-0.1664214,-0.17107543,-0.14614606,0.15578842,0.04549728,0.79297024,0.0020693014,0.0036748205
21822228000,21822148000,-1.1032543,0.006992301,-1.0540614,-1.0845618,-1.1122999,-0.9265317,-1.588622,0.009402992,0.0031426512,-0.0030335225,0.03903149,-0.10806769,-0.22103935,-0.2214194,-0.2220276,-0.2198758,-0.20407565,0.15584622,0.045514166,0.7929206,0.0020648632,0.0036540993
21823228000,21823148000,-1.1039482,0.007060737,-1.0547426,-1.0852637,-1.113012,-0.9272124,-1.5893891,0.034290925,0.026554836,0.018923681,0.06864537,-0.10886718,-0.2689293,-0.26970962,-0.2704152,-0.26460996,-0.25043234,0.15590127,0.045526154,0.7928777,0.0020623165,0.0036326987
21824228000,21824148000,-1.1044248,0.0071311216,-1.0551827,-1.0857272,-1.113485,-0.92763025,-1.5899327,0.070380524,0.061341044,0.052421123,0.1088855,-0.09646343,-0.32911992,-0.33052087,-0.33150837,-0.32101235,-0.31290025,0.15583952,0.04551827,0.79294413,0.002056531,0.00364153
21825228000,21825148000,-1.1052831,0.007207438,-1.0559995,-1.0865529,-1.1143157,-0.9284368,-1.5907998,0.101477206,0.09168976,0.082016364,0.142237,-0.08134924,-0.34113008,-0.34353423,-0.34514785,-0.32834953,-0.33494854,0.15566391,0.04548905,0.79311883,0.0020487725,0.003679474
21826228000,21826148000,-1.1060297,0.0072770645,-1.0567262,-1.0872822,-1.1150458,-0.92917126,-1.5915043,0.11169189,0.10173662,0.0918818,0.1525177,-0.07684268,-0.3182331,-0.32155672,-0.32377058,-0.30149418,-0.32341167,0.15555094,0.04545857,0.79324514,0.0020457234,0.0036996326
21827220000,21827140000,-1.1070734,0.0073407367,-1.0577695,-1.0883226,-1.1160866,-0.93024135,-1.5925001,0.11116604,0.101158164,0.091234975,0.15172814,-0.08071585,-0.3261113,-0.3302177,-0.3329534,-0.3060809,-0.34141433,0.15552808,0.045431044,0.7932909,0.0020482861,0.0037016666
21828228000,21828148000,-1.1078589,0.007396972,-1.0585752,-1.0891277,-1.1168939,-0.93107545,-1.593281,0.11055991,0.10115134,0.09181033,0.14836,-0.07121924,-0.33110815,-0.3354386,-0.33832237,-0.31028703,-0.35172093,0.15566276,0.04541208,0.7931892,0.002060227,0.0036756466
21829228000,21829148000,-1.1082492,0.007457914,-1.0589815,-1.089538,-1.1173087,-0.9314901,-1.5937234,0.12308792,0.11360427,0.10420067,0.16118014,-0.057965018,-0.330979,-0.33480537,-0.3373141,-0.3119939,-0.34443587,0.15582155,0.045403875,0.79305154,0.0020729196,0.003650104
21830228000,21830148000,-1.1089838,0.0075242133,-1.0597147,-1.0902725,-1.118049,-0.93222815,-1.5945133,0.102111734,0.0929451,0.08386183,0.1389059,-0.071918786,-0.31580365,-0.31927094,-0.32152134,-0.29829475,-0.32563522,0.15587617,0.045385096,0.7930079,0.00208136,0.0036495032
21831228000,21831148000,-1.1097969,0.0075871274,-1.0605333,-1.0910932,-1.1188769,-0.9330527,-1.5954094,0.10852157,0.098859996,0.08928885,0.14723854,-0.07466639,-0.34824732,-0.3518666,-0.35420376,-0.32987988,-0.35805047,0.1559871,0.045370366,0.79291034,0.0020933335,0.003638885
21832228000,21832148000,-1.1101217,0.007648726,-1.060865,-1.0914282,-1.119216,-0.9333855,-1.5957928,0.098100625,0.08801309,0.07803552,0.13862842,-0.09077485,-0.3367775,-0.33992407,-0.34190822,-0.32003087,-0.33845735,0.15608266,0.045356065,0.7928305,0.0021045378,0.0036262318
21833228000,21833148000,-1.1104896,0.007701155,-1.061249,-1.0918162,-1.11961,-0.93377274,-1.5962461,0.07891899,0.06850289,0.058215246,0.12086912,-0.11391693,-0.3864461,-0.38911262,-0.39074183,-0.37139735,-0.38030392,0.15623195,0.04534554,0.79270464,0.0021202033,0.003597597
21834220000,21834140000,-1.1104487,0.0077558397,-1.0612292,-1.0917984,-1.1195934,-0.9337628,-1.5962222,0.05567388,0.045500252,0.03546551,0.096763,-0.13061078,-0.3462522,-0.3483011,-0.34949476,-0.33370757,-0.33276454,0.15634649,0.045341693,0.79261565,0.0021315203,0.0035646819
21835228000,21835148000,-1.1108294,0.007825577,-1.0615846,-1.0921496,-1.1199434,-0.93411595,-1.5965582,0.083480254,0.07321189,0.063092105,0.12502842,-0.10318568,-0.33935606,-0.3410597,-0.34200352,-0.32810056,-0.3208375,0.15613958,0.045304723,0.7928286,0.0021276502,0.0035994572
21836228000,21836148000,-1.1115339,0.007888126,-1.0622867,-1.0928456,-1.120639,-0.9348353,-1.5972285,0.07124774,0.06112183,0.05113156,0.11209745,-0.11444144,-0.33727464,-0.33940226,-0.3406503,-0.32441905,-0.3250368,0.1560545,0.04528119,0.79292977,0.0021292814,0.0036052465
21837228000,21837148000,-1.112239,0.00794873,-1.0629864,-1.09354,-1.1213334,-0.9355485,-1.5979091,0.071678996,0.061815627,0.052088715,0.111511774,-0.10832668,-0.31919587,-0.32103735,-0.32208827,-0.3075627,-0.3041887,0.155963,0.045253124,0.7930375,0.0021317885,0.0036145728
21838228000,21838148000,-1.1127084,0.008009021,-1.0634698,-1.0940161,-1.1218066,-0.9360599,-1.5983175,0.049432144,0.039956376,0.030609163,0.08767758,-0.12359189,-0.30216315,-0.30396336,-0.3049954,-0.29085386,-0.288205,0.15594533,0.045239862,0.7930783,0.0021352705,0.003601215
21839228000,21839148000,-1.1130356,0.008070213,-1.0638121,-1.0943557,-1.122146,-0.93642056,-1.5986307,0.05096012,0.042561248,0.034278538,0.08489024,-0.101625934,-0.27983385,-0.28122494,-0.28199488,-0.2705963,-0.26476392,0.15598562,0.045235008,0.7930576,0.0021411984,0.0035805902
21840228000,21840148000,-1.1137042,0.0081378305,-1.0644802,-1.0950193,-1.1228112,-0.93710226,-1.5992931,0.041436903,0.03331827,0.025316082,0.07428649,-0.1051077,-0.28203386,-0.28312296,-0.2836859,-0.27409136,-0.26406518,0.15593855,0.045223445,0.7931143,0.0021425134,0.0035812685
21841228000,21841148000,-1.114217,0.008209577,-1.064971,-1.0955077,-1.1233009,-0.9375899,-1.5997995,0.052432742,0.04473331,0.037144482,0.083598316,-0.086200655,-0.26518756,-0.26613036,-0.2666008,-0.25799552,-0.2469706,0.15578334,0.045198116,0.7932703,0.002139564,0.00360867
21842228000,21842148000,-1.1148249,0.008278769,-1.0655745,-1.0961118,-1.1239108,-0.9381926,-1.6004722,0.03428874,0.02631119,0.018446963,0.066562496,-0.10962294,-0.28962,-0.29067147,-0.2912117,-0.28187785,-0.27173617,0.15578564,0.04519178,0.79327095,0.0021435232,0.0036081865
21843228000,21843148000,-1.1149255,0.0083344355,-1.0657082,-1.0962527,-1.1240597,-0.93832606,-1.6007086,-0.024367953,-0.03236652,-0.040235423,0.0081505515,-0.16634169,-0.29323086,-0.2936491,-0.29373804,-0.28795373,-0.26672134,0.15604544,0.04521717,0.79302824,0.002159754,0.003549333
21844228000,21844148000,-1.1151712,0.0083953785,-1.0659659,-1.0965092,-1.1243172,-0.9385947,-1.6009588,-0.020103512,-0.028420981,-0.036575824,0.014003001,-0.16346465,-0.284019,-0.28328183,-0.28254047,-0.28310153,-0.24068595,0.15605895,0.0452226,0.79302895,0.0021627755,0.0035268185
21845228000,21845148000,-1.1157362,0.008467048,-1.0665097,-1.0970455,-1.1248506,-0.9391486,-1.6014497,0.010230262,0.0018625706,-0.006329233,0.04468049,-0.1319576,-0.2769301,-0.27562982,-0.2744867,-0.27818105,-0.22583593,0.15581132,0.04520241,0.79327846,0.0021525403,0.0035552967
21846228000,21846148000,-1.1161824,0.008534681,-1.0669371,-1.0974683,-1.1252729,-0.93957907,-1.6018578,0.005036842,-0.002979163,-0.01084673,0.037834264,-0.1341332,-0.29750767,-0.29707485,-0.29655826,-0.29553226,-0.2595093,0.15560964,0.045185186,0.7934834,0.002145587,0.0035762943
21847228000,21847148000,-1.116837,0.00860499,-1.0675793,-1.098106,-1.125911,-0.9402297,-1.6024905,0.02278662,0.014958531,0.0072663296,0.054717544,-0.11464438,-0.25831926,-0.25831252,-0.2581037,-0.25477034,-0.22678907,0.15547559,0.045171056,0.79362047,0.002141641,0.003591293
21848228000,21848148000,-1.1173952,0.008669183,-1.068144,-1.0986655,-1.1264696,-0.9408142,-1.603018,0.0335243,0.025803758,0.018206913,0.06491096,-0.10348581,-0.23683591,-0.23723377,-0.23731594,-0.2317559,-0.2111931,0.15543467,0.04516633,0.7936741,0.002142075,0.0035828492
21849228000,21849148000,-1.1177055,0.008732365,-1.0684701,-1.0989859,-1.1267872,-0.94116485,-1.6032739,0.010347881,0.0031137562,-0.004005852,0.039758526,-0.11778304,-0.21727853,-0.21758863,-0.217622,-0.21275257,-0.19246115,0.15543224,0.045165624,0.7936939,0.0021438086,0.0035645291
21850228000,21850148000,-1.1183909,0.008799644,-1.0691576,-1.0996681,-1.1274692,-0.94187254,-1.6039315,0.017235342,0.010896245,0.0046440964,0.04289033,-0.09635247,-0.20133354,-0.20197424,-0.20226751,-0.19591016,-0.18463475,0.1553794,0.045157656,0.7937565,0.0021436452,0.0035628404
