timestamp,timestamp_sample,xyz[0],xyz[1],xyz[2]
21726360000,21726360000,0.001872753,0.0011443836,0.0011700502
21726368000,21726368000,0.0007910556,-0.0007977739,0.002443524
21726372000,21726372000,0.0014509037,-0.0009222223,0.0027849
21726380000,21726380000,0.0036222264,-0.0007892873,-0.0027992418
21726388000,21726388000,-0.0028698996,0.0002964108,0.0011646887
21726396000,21726396000,-0.0049963593,-0.003355696,0.0028521703
21726408000,21726408000,-5.5327546e-06,0.0052922,-1.0303294e-05
21726420000,21726420000,-0.0020193774,-0.0036259254,-0.0045601157
21726428000,21726428000,0.001266967,-0.0049002566,-0.00060175936
21726440000,21726440000,-0.0025765346,-0.0014224087,-0.0019452745
21726452000,21726452000,-0.00042311422,0.0028094125,-0.0024052928
21726460000,21726460000,0.0014181039,-0.00046833002,0.0005795726
21726472000,21726472000,0.0015146097,0.00038993466,0.00019871895
21726480000,21726480000,0.0012492032,-0.00063195213,-0.0010946715
21726492000,21726492000,0.00064924953,0.0017739872,0.00080709724
21726500000,21726500000,-0.0044575897,-0.005325261,-0.0037407218
21726512000,21726512000,-0.0032881931,-0.0010535463,0.005083187
21726520000,21726520000,-0.0020004725,-0.0017168022,0.0025882558
21726532000,21726532000,0.00082621665,0.003847408,0.0028613424
21726540000,21726540000,0.0020058122,0.0016692239,0.0031321417
21726552000,21726552000,-0.0051630344,-0.0003186545,0.0010358458
21726560000,21726560000,-0.00067120197,0.00078891416,0.00065578334
21726572000,21726572000,-0.00077293394,-0.00216956,-0.0015760756
21726580000,21726580000,0.0015657316,-0.004587859,-0.0014277496
21726592000,21726592000,-0.004487388,-0.0031834445,0.0018978033
21726600000,21726600000,-0.00095469266,-0.0017942947,0.0015165902
21726612000,21726612000,-0.005947847,-0.0015537329,0.0005462427
21726620000,21726620000,0.00032847794,0.001098312,0.0039794627
21726632000,21726632000,-0.0013248089,0.0043016216,-0.0005616855
21726640000,21726640000,-0.0046345047,0.00042267088,-0.0010078902
21726652000,21726652000,-0.004507149,0.0021497975,-0.00094877626
21726660000,21726660000,-0.0036300127,0.0040013995,0.0052046804
21726672000,21726672000,0.00084221165,-0.0011353949,0.0020443127
21726680000,21726680000,-0.0026679127,-0.0026384857,-0.0060426467
21726692000,21726692000,0.0015356978,-0.0012219117,-0.001966476
21726700000,21726700000,0.0003340519,-0.00088875863,-0.0027441154
21726712000,21726712000,-0.002108106,-0.0005804141,0.0021563787
21726720000,21726720000,-0.0020004606,0.0034541269,0.0024598192
21726732000,21726732000,0.005129016,-0.00045147148,0.00035893737
21726740000,21726740000,0.0012335887,-0.0033419137,0.0018706163
21726752000,21726752000,-0.0036212576,-0.0054926923,-0.00031987525
21726760000,21726760000,-0.002432364,0.0006846807,-0.0006980367
21726772000,21726772000,-0.00037406845,-0.003052179,0.00025382885
21726780000,21726780000,0.0016282869,-0.0057093357,-0.0025714433
21726792000,21726792000,0.0017263733,-0.007439995,-0.0016991997
21726800000,21726800000,0.0015333875,-0.005626054,-0.0035423567
21726808000,21726808000,0.004110324,0.005527308,-8.5731575e-05
21726820000,21726820000,-0.0035322986,-0.0015387267,0.0010646526
21726828000,21726828000,-9.3258976e-05,0.0005439891,-0.0011515366
21726840000,21726840000,-3.202347e-05,0.00170076,-0.0013494815
21726848000,21726848000,-0.0036149467,0.004351603,-0.0027870436
21726856000,21726856000,0.0028815023,0.0048773605,0.0017219426
21726872000,21726872000,-0.0043153837,-0.0023822405,-0.0019593204
21726880000,21726880000,0.00118266,7.562125e-05,-0.0010563481
21726892000,21726892000,-0.0009255585,0.00063457934,-0.00069203
21726900000,21726900000,-0.0024439495,0.0024687552,0.0021956433
21726912000,21726912000,-0.0077664815,0.0029969555,0.0049366895
21726920000,21726920000,-0.00031927146,0.0024518436,-2.3586254e-05
21726932000,21726932000,-0.0021776035,0.0015514763,-0.00073197373
21726940000,21726940000,0.0002625964,1.4997364e-05,-0.0015135651
21726952000,21726952000,0.0028858297,0.0050738743,-0.0029251808
21726960000,21726960000,0.0021086042,0.002515856,-0.003001279
21726972000,21726972000,-0.00097272446,0.00060638215,-0.0028873289
21726980000,21726980000,-0.0011805368,-0.0027106497,0.0017064804
21726992000,21726992000,0.0005496951,-0.0010363001,0.00032655368
21727000000,21727000000,-0.001690156,0.0020638958,-0.0010603849
21727012000,21727012000,-0.0056826025,-0.0013746625,0.0046469686
21727020000,21727020000,-0.0007398919,-0.0016098582,0.0012805215
21727032000,21727032000,3.8343016e-05,-0.002068131,0.0023734597
21727040000,21727040000,0.003946705,-0.007770399,0.0056046285
21727052000,21727052000,-0.0042717624,-0.0056218826,0.0020405576
21727060000,21727060000,-0.00071486493,-0.0010476814,0.0013753178
21727072000,21727072000,0.0019901928,0.0014745255,-0.003819841
21727080000,21727080000,0.00029388943,0.000970137,0.0031046378
21727092000,21727092000,-0.0020061878,0.0037205673,0.0010499804
21727096000,21727096000,-0.003987402,0.002152317,0.0018440977
21727112000,21727112000,-0.001457998,-0.00038584718,-0.0013821104
21727120000,21727120000,0.0009705601,-0.0050788294,0.0024064884
21727132000,21727132000,-0.000722337,0.005141853,0.0036433062
21727140000,21727140000,0.0004666684,0.009842292,-0.0012504135
21727152000,21727152000,-0.0037864123,0.0046370807,0.000863948
21727156000,21727156000,-0.0021019694,0.006091351,0.003198495
21727172000,21727172000,0.00071603456,0.001953717,-4.8335307e-05
21727176000,21727176000,-0.0008735351,-0.00076898397,0.00035025392
21727192000,21727192000,-0.00081881735,-0.00083767524,-0.0011753971
21727196000,21727196000,0.0006561958,-0.003953268,0.0014770213
21727212000,21727212000,0.0018760753,0.0002479499,0.0017348045
21727216000,21727216000,0.00045732257,-0.0011748933,0.00013022318
21727228000,21727228000,-0.0011939554,-0.0004594277,0.0005388973
21727240000,21727240000,0.0015771536,0.0005343137,-0.0017434868
21727252000,21727252000,-0.00072541926,-0.004089384,-0.0014966328
21727256000,21727256000,-0.0034807143,0.0007433578,0.00080571056
21727272000,21727272000,0.002714581,-0.0014296983,-0.004725874
21727280000,21727280000,-0.0021548495,-0.001232792,-0.0052343113
21727292000,21727292000,0.0025286274,0.000114557486,0.0027117378
21727300000,21727300000,0.00077701,-0.0052343714,0.003680388
21727312000,21727312000,0.001724554,0.0005831027,3.380832e-05
21727320000,21727320000,0.0034230244,-0.00037595088,-0.0011949796
21727332000,21727332000,0.0012084396,0.00053301273,-0.00067537674
21727340000,21727340000,-0.0015920008,0.002332616,-0.001187509
21727352000,21727352000,0.0005934159,0.00033868937,-0.00082896784
21727356000,21727356000,-0.002857203,-0.0009139981,-0.001117153
21727372000,21727372000,-0.00503981,-0.0058367737,-0.0010155526
21727380000,21727380000,-0.007076665,-0.00093734486,0.0022126215
21727392000,21727392000,-4.7907815e-06,0.000638196,-0.0033366678
21727400000,21727400000,0.0011691618,-0.0010989518,0.0014228105
21727412000,21727412000,-0.00030478305,0.0004687645,0.0027165918
21727420000,21727420000,-0.0022579504,-0.0019215129,0.00027159555
21727432000,21727432000,-0.00016235717,-0.0028808406,-0.0016657553
21727440000,21727440000,0.003520342,0.0038752086,-0.0030617707
21727452000,21727452000,-0.0011410121,-0.0015832583,-0.0031470712
21727460000,21727460000,-0.0043816366,-0.00075516396,-0.0021617438
21727472000,21727472000,0.0025776406,-0.0025685157,0.0022006058
21727476000,21727476000,0.0015009692,-0.0043424247,0.0021948272
21727492000,21727492000,0.002552458,0.0028914143,-0.004739963
21727500000,21727500000,0.0038828393,0.0018777624,-0.005552973
21727512000,21727512000,0.0011170778,0.0015980449,-0.0030249457
21727520000,21727520000,-0.003013732,0.005109716,0.0030838666
21727532000,21727532000,0.00045867992,0.0013218962,0.009919027
21727540000,21727540000,6.188912e-05,-0.002411975,-0.0004998591
21727552000,21727552000,0.000802759,0.0036337995,0.0020735092
21727560000,21727560000,0.0003197983,0.00090444554,-0.0006147607
21727572000,21727572000,0.0011142183,-0.004783364,-0.0013721706
21727580000,21727580000,-0.00013802527,-0.0038010569,-0.0031666397
21727592000,21727592000,-0.0015460385,0.0027516251,0.0005708142
21727600000,21727600000,0.0023285584,-0.0032209049,8.2113635e-05
21727612000,21727612000,0.0015664476,-0.0010315552,0.0013019687
21727620000,21727620000,0.0053592674,0.0016268498,-0.00089868985
21727632000,21727632000,-0.0032831773,-0.0022505182,0.00054856786
21727640000,21727640000,-0.0042565563,-4.5983157e-05,0.0017619594
21727648000,21727648000,-0.0016743637,-0.002500595,-0.0034822896
21727660000,21727660000,-0.007871067,-0.0027536328,-0.0049235257
21727672000,21727672000,0.00018596038,-0.0051872428,0.00028335868
21727680000,21727680000,-0.0011704037,0.001182305,0.0054520927
21727692000,21727692000,0.004079907,-0.0072411196,9.814926e-05
21727700000,21727700000,0.0048600985,-0.000118054566,-0.002114248
21727712000,21727712000,-0.0053624935,0.00015067612,0.0016655236
21727720000,21727720000,-0.0051972186,0.00036112283,0.004406739
21727732000,21727732000,-0.0016059033,-0.0023326816,0.0024976877
21727740000,21727740000,0.0007719813,0.00227085,-0.0044243587
21727752000,21727752000,-0.0010081747,0.0032167013,-0.0019801345
21727760000,21727760000,0.001342067,0.0019514103,-0.0005483999
21727772000,21727772000,-0.00019939517,0.004456739,0.0065749846
21727780000,21727780000,0.0018903946,0.0005106742,0.004162817
21727792000,21727792000,0.0036672996,-0.0027243579,-0.005316184
21727800000,21727800000,0.0012795217,-0.00019234352,-0.0020443294
21727812000,21727812000,-0.00068570784,-0.0032517978,-0.0031610643
21727820000,21727820000,-0.0026884545,-0.002888861,-0.0003104059
21727832000,21727832000,-0.00067231356,-0.0023313258,-0.0053608334
21727840000,21727840000,0.0005569932,-0.0039364286,-0.002835597
21727852000,21727852000,0.0077594663,-0.0001409952,-0.0035310374
21727860000,21727860000,0.0053130225,-0.0013735936,0.0023501005
21727872000,21727872000,0.0027970285,-0.00090628385,0.0013585654
21727880000,21727880000,-0.001283726,0.0028030279,3.0700932e-05
21727888000,21727888000,-0.0033979593,0.0022324997,0.002952443
21727896000,21727896000,-0.0016776798,0.0010481641,0.005537041
21727912000,21727912000,-0.0058059054,0.0074148,-0.0033773028
21727920000,21727920000,0.00017021166,0.0021392717,-0.00156223
21727928000,21727928000,-0.0015215556,-0.0070820707,-0.0011193531
21727936000,21727936000,-0.0039432216,-0.0029747097,0.0020741585
21727948000,21727948000,-0.0041989773,-0.00097467704,0.003198494
21727956000,21727956000,-0.0017657677,-0.0021618796,2.2014443e-05
21727972000,21727972000,-0.0055140834,0.0007949328,-0.00038344605
21727976000,21727976000,-0.007133715,0.0033200474,-0.0021391886
21727992000,21727992000,-0.0010387849,5.8444042e-05,-0.0026642368
21728000000,21728000000,0.0016076056,0.0008327431,-0.0014850255
21728012000,21728012000,-0.00092133356,-0.0035773946,-0.0055649118
21728020000,21728020000,0.003294086,0.00053594715,-0.002385316
21728032000,21728032000,0.0029031015,-0.00015769244,-0.0034900391
21728036000,21728036000,0.0058687003,-0.0020145187,-0.00012777458
21728052000,21728052000,0.00078106695,-0.0034463652,-0.0020376628
21728060000,21728060000,0.002229007,0.00030238766,-0.005370038
21728072000,21728072000,-0.004259903,-0.005421138,0.00068683946
21728080000,21728080000,-0.0042465297,-0.0015398138,0.0005914951
21728092000,21728092000,-0.0009766048,0.0042775734,-0.0010120976
21728100000,21728100000,0.0024938118,-0.0035350583,0.0037979903
21728112000,21728112000,0.004790181,0.0023177234,0.0033540477
21728120000,21728120000,0.00035719236,-0.003903733,0.0042673303
21728132000,21728132000,-0.0023161639,0.0023560452,-0.0012815527
21728140000,21728140000,-7.6481374e-05,0.00729751,-0.00090557436
21728152000,21728152000,-0.0065769665,0.0007724259,-0.00017860971
21728156000,21728156000,-0.0060478374,0.0043301824,0.0028813535
21728172000,21728172000,-0.00023996655,0.0047399686,0.0008995422
21728180000,21728180000,0.001934429,-0.0014112417,-0.00042647572
21728192000,21728192000,-0.0017075425,-0.0006617161,0.0009494556
21728200000,21728200000,0.002825811,0.0010466188,0.00023889562
21728212000,21728212000,-0.0018441933,0.0065798694,0.0043597925
21728220000,21728220000,-0.0020019514,-0.0005668239,0.004344741
21728232000,21728232000,0.0050030453,-0.0007121826,0.0012659396
21728240000,21728240000,0.0038954564,-0.0022920202,0.005116554
21728252000,21728252000,-0.0005457959,-0.0015687223,-0.0023728914
21728260000,21728260000,-0.0019038017,0.002207136,-0.00089432317
21728272000,21728272000,0.0030752048,0.00481286,0.003353956
21728280000,21728280000,0.0017282154,0.002740196,0.0047906116
21728292000,21728292000,-0.00522912,-0.00045300106,0.0015156346
21728300000,21728300000,0.0037176819,-0.0011694202,-4.2216416e-05
21728312000,21728312000,0.0013485443,0.0030994297,-0.0028827372
21728316000,21728316000,-0.0008416185,0.0042516408,-0.005221302
21728332000,21728332000,-0.00080091873,0.004038361,0.0034891309
21728340000,21728340000,-0.0074995365,0.0024271908,0.0014058589
21728348000,21728348000,-0.0020285393,0.0026932524,-0.0032150266
21728356000,21728356000,0.0028037159,0.0013351374,0.0023698574
21728368000,21728368000,0.0019936585,0.0017285745,0.0006657432
21728380000,21728380000,-0.0050487933,-0.0015277115,0.0015509692
21728388000,21728388000,-0.0076732053,0.000553409,-0.0040191305
21728400000,21728400000,0.0029171384,0.0054068244,-0.003924809
21728412000,21728412000,-0.0016255181,-0.00051006087,-0.001814299
21728420000,21728420000,-0.002401871,-0.0005274706,0.0035535654
21728432000,21728432000,0.0015557717,0.0024955603,0.0015347279
21728436000,21728436000,0.000941379,0.005257086,-0.003071952
21728452000,21728452000,-0.010934364,-0.008545389,0.0028535833
21728460000,21728460000,0.000251338,-0.0057869665,-0.0021482466
21728468000,21728468000,0.0024724985,-0.0011059683,0.0012210798
21728476000,21728476000,-0.0007192992,0.0042213006,0.00079873356
21728492000,21728492000,0.0017836284,-0.00017456683,0.004710546
21728496000,21728496000,-0.0015640878,-0.0021567137,0.0048291185
21728512000,21728512000,0.0020710817,-3.590968e-05,0.0020292306
21728520000,21728520000,-0.0004517298,-0.003983647,0.0016961466
21728532000,21728532000,-6.159354e-05,-0.0034654136,0.00011524585
21728540000,21728540000,0.0039659804,0.00029997533,-0.00079685304
21728548000,21728548000,-0.0015167275,-0.0004047181,-0.0022878356
21728560000,21728560000,0.0005434946,-0.0016470988,-0.0020039303
21728572000,21728572000,0.0018731424,0.00073681085,-0.005239119
21728580000,21728580000,0.0030147927,-0.003093593,-0.0023488028
21728588000,21728588000,0.0032719253,-0.003654503,-0.0024566199
21728596000,21728596000,-0.009853383,-0.003957983,0.00064515416
21728608000,21728608000,-0.001092233,0.0037007118,-0.0044219256
21728620000,21728620000,-0.0030744364,-0.0025546541,-0.0020598555
21728632000,21728632000,0.0074767657,-0.00327432,0.0062080855
21728640000,21728640000,-0.0072777867,-0.0025185733,0.0039272443
21728652000,21728652000,0.0010088532,0.009447148,-0.0023559777
21728660000,21728660000,0.0058767544,0.00092835445,-0.0027051552
21728672000,21728672000,0.0048743896,0.0044940934,-0.0008086932
21728680000,21728680000,-0.008213391,0.00421108,0.0018175177
21728692000,21728692000,0.003876532,-0.00026302325,0.0013207595
21728700000,21728700000,0.0016011769,0.0014380193,-0.00019888746
21728712000,21728712000,0.008590582,-0.010221552,-0.00074136315
21728720000,21728720000,-0.005265659,-0.008670071,-0.0037310543
21728728000,21728728000,-0.005586551,-0.001304311,-0.0073042386
21728736000,21728736000,0.002249891,-0.0013021302,0.0020937137
21728752000,21728752000,0.0063732304,-0.0022769677,-0.0041997638
21728756000,21728756000,0.00017281214,-0.0020198936,-0.0032755537
21728772000,21728772000,0.0017510428,0.00060344767,-9.040296e-05
21728780000,21728780000,0.0078047756,0.000689107,0.0022581306
21728788000,21728788000,0.0036118352,-0.00030788215,0.0018078282
21728800000,21728800000,-0.001838496,-0.0064119296,-0.00072041596
21728812000,21728812000,-0.0038862391,0.0006546738,0.0032105024
21728820000,21728820000,0.0054904567,0.0018698267,-0.0015396001
21728832000,21728832000,-0.0010214468,0.0011419085,-0.004707698
21728836000,21728836000,-0.0060221977,7.288941e-05,-0.0047177714
21728852000,21728852000,0.0018970383,0.0037805545,0.0012354038
21728860000,21728860000,-0.0024388921,0.0012320852,-0.0043192566
21728872000,21728872000,0.009967572,0.0003909761,0.0026535045
21728876000,21728876000,0.0027811313,-0.0015418162,0.0048024287
21728888000,21728888000,-0.0057296897,0.00225092,0.0011266808
21728900000,21728900000,0.0015878953,-0.0041239066,-0.00082575524
21728912000,21728912000,-0.0032814657,-0.0027723352,0.0025552083
21728920000,21728920000,-0.007841097,-0.0025139498,-0.0017392777
21728928000,21728928000,-0.0003410182,-0.0007269749,0.0002276671
21728940000,21728940000,0.0072165336,-0.0029447498,0.0028274267
21728952000,21728952000,-0.016161814,-0.0019386067,0.00043968722
21728960000,21728960000,-0.0028232026,0.0014063977,-0.007940455
21728972000,21728972000,0.0034798803,-0.002648378,0.0007644813
21728980000,21728980000,0.003749947,0.006012615,-0.0007699269
21728992000,21728992000,-0.008071079,0.0030615597,0.0015942418
21729000000,21729000000,0.0011310217,0.00286073,0.0029001585
21729008000,21729008000,0.005293044,0.0011590626,-0.0005315953
21729020000,21729020000,0.0051611527,-0.003979605,-0.00071036926
21729032000,21729032000,-5.955744e-05,-0.0015678772,0.0026058126
21729040000,21729040000,-0.0016121037,-1.970632e-05,0.0007606186
21729052000,21729052000,0.0011000417,-0.0011777086,0.0017401972
21729060000,21729060000,-0.011135783,-0.0005342944,-0.002609375
21729068000,21729068000,-0.004197636,-0.0031168973,0.00043493026
21729080000,21729080000,0.0069675897,0.00016802945,0.0015752101
21729088000,21729088000,0.00633956,-0.000489773,0.0015748219
21729100000,21729100000,-0.008438261,0.0021483318,0.0034034976
21729108000,21729108000,0.002549364,0.0015945613,0.0073387586
21729116000,21729116000,0.0058379783,-0.00086996215,-0.003633893
21729128000,21729128000,-0.0005139725,0.0010959643,-0.0031927633
21729136000,21729136000,0.0041602706,0.0037800942,-0.0005505247
21729152000,21729152000,0.0036165188,0.0054482385,-0.0051151193
21729160000,21729160000,-0.0098394565,-0.00039419494,-0.00366961
21729172000,21729172000,0.00011646014,-0.005084548,-0.005080632
21729180000,21729180000,0.0059593474,0.003080785,-0.0040500667
21729192000,21729192000,-0.00085179077,0.00023973346,-0.0035146219
21729200000,21729200000,-0.0043617324,-0.0003902318,-0.004873095
21729212000,21729212000,0.010154532,0.0018509275,-0.00043163286
21729220000,21729220000,-0.0055046743,-0.0017258052,-4.3843524e-05
21729232000,21729232000,-0.006621771,-0.0011751009,-0.004400424
21729240000,21729240000,0.002500695,0.0002476738,0.00032875926
21729252000,21729252000,0.008828103,0.0050570224,-0.0033667504
21729260000,21729260000,-0.0008378236,0.0006173257,0.001085026
21729272000,21729272000,0.005887748,-0.0038131215,0.0008384124
21729280000,21729280000,0.01196314,0.0045651738,0.00025942252
21729292000,21729292000,-0.0007531264,-0.0057645384,-0.0047898428
21729300000,21729300000,-0.010153107,-0.0064915437,-0.0008612471
21729312000,21729312000,0.0072295517,0.0028825607,-0.005129148
21729320000,21729320000,-0.004671906,0.0073906304,-0.0019781196
21729332000,21729332000,-0.0008054443,-0.0024577165,-0.0033238982
21729340000,21729340000,-0.00036995357,0.0007985672,-0.0011100699
21729352000,21729352000,0.0062112566,0.0057765315,0.0011831974
21729360000,21729360000,-0.003929223,0.003854273,0.00038148052
21729372000,21729372000,0.0003608422,0.0015212728,-0.004197905
21729380000,21729380000,0.0026314678,0.003650754,0.0036789123
21729392000,21729392000,-0.00861223,0.004554744,0.0021769283
21729400000,21729400000,-0.001416859,0.004086599,-0.0004566299
21729412000,21729412000,0.004717378,-0.0015500691,0.001020422
21729420000,21729420000,-0.0013501607,-7.761978e-05,-0.0002150264
21729432000,21729432000,-0.0010246027,0.0003495673,-6.85876e-05
21729440000,21729440000,-0.005601794,-0.0021002353,-0.004295621
21729452000,21729452000,-0.0011872932,-0.0027615756,0.0013940153
21729460000,21729460000,-0.0020526124,0.00080053264,-0.0038830803
21729472000,21729472000,0.004810804,0.0021959331,0.002545387
21729480000,21729480000,-0.005642152,-0.00026998288,-0.00131041
21729492000,21729492000,-0.0019665463,-0.00015877104,-0.0004138986
21729500000,21729500000,0.013742972,0.0033482544,-0.00030845427
21729512000,21729512000,-0.0064190775,-0.0009784272,-0.0005359999
21729520000,21729520000,0.0024105774,-0.0013077289,0.002020046
21729532000,21729532000,0.007819943,-0.0032962873,0.0015889399
21729540000,21729540000,-0.007611497,-0.0013990016,-0.00016073426
21729548000,21729548000,-0.0054780114,0.0011515066,-0.003012173
21729556000,21729556000,-0.002294065,0.00017383182,-0.0001938614
21729568000,21729568000,-0.0015294077,-0.007913099,-0.0008156476
21729580000,21729580000,-0.0060981256,0.002447364,0.004093972
21729592000,21729592000,0.005851017,-0.00037515943,-0.00052597496
21729600000,21729600000,-0.0053300424,-0.002669061,-0.0029108324
21729608000,21729608000,0.004680154,0.0011216879,-0.010385651
21729616000,21729616000,0.01370246,0.006209344,-0.0035904702
21729632000,21729632000,-0.007911513,-0.0037742257,0.00039841724
21729636000,21729636000,-0.0056829667,-0.0069546495,-0.0010631124
21729652000,21729652000,0.005836467,-0.0027874561,-0.0036113919
21729660000,21729660000,-0.006665335,0.0016245935,0.00016497195
21729668000,21729668000,-0.002471651,0.0014199978,-0.0028877538
21729680000,21729680000,0.0056520104,-0.00735208,-0.0017272236
21729692000,21729692000,0.0005294308,-0.0029665902,-0.00018454687
21729700000,21729700000,0.006029759,0.0004407966,-0.0020560948
21729712000,21729712000,-0.0014578043,-0.00087731227,0.0020079364
21729720000,21729720000,-0.007978812,0.002933152,0.000899585
21729732000,21729732000,0.011967003,0.0011569145,-0.0031670055
21729740000,21729740000,0.0020297351,-0.0009360862,0.0049722535
21729752000,21729752000,-0.0028094188,0.0012050278,0.0013711294
21729760000,21729760000,0.008433442,0.0042061764,-0.00048334524
21729772000,21729772000,-0.0046916287,-0.0015923532,-0.0016833427
21729776000,21729776000,-0.00232674,0.00023526972,0.0005215757
21729792000,21729792000,0.00068512384,0.0056429994,-0.0021241764
21729800000,21729800000,-0.00661604,0.001381363,-0.00040689617
21729812000,21729812000,0.008331738,0.0013679687,0.00235809
21729820000,21729820000,-0.0048976857,0.0016658516,-0.00038737187
21729832000,21729832000,-0.002274282,-0.0022308188,-5.9905724e-05
21729840000,21729840000,0.006597051,0.0042470293,-0.00067838543
21729852000,21729852000,-0.0045677796,-8.466816e-05,-0.002237707
21729860000,21729860000,0.008337344,0.0010897173,-0.0010907091
21729868000,21729868000,0.009619272,0.00078102876,0.00052142394
21729876000,21729876000,-0.00853071,-0.001329673,-0.0012958567
21729892000,21729892000,0.008307962,-0.00036432428,0.0050317873
21729900000,21729900000,-0.008457281,-0.0021561848,0.003138534
21729912000,21729912000,-0.001385432,0.005934484,0.0022333914
21729920000,21729920000,0.0042132055,0.0016581372,0.006623141
21729932000,21729932000,0.0013693753,0.0006405279,3.0107098e-05
21729940000,21729940000,0.0022179817,0.004650181,0.0032076729
21729952000,21729952000,-0.0030524766,0.0018774397,-0.0010850425
21729960000,21729960000,0.0009456789,0.00047661527,0.0039828774
21729972000,21729972000,0.0074731978,0.004402022,-0.00018465906
21729980000,21729980000,-0.008557885,0.005289326,-0.005433354
21729992000,21729992000,0.005750834,-0.0036932428,-0.0028867433
21730000000,21730000000,-0.0020536464,-0.0005961188,-0.002495493
21730012000,21730012000,-0.0055513466,-0.0026934734,0.0036680049
21730020000,21730020000,0.007270512,-0.0014364535,-7.0578826e-05
21730032000,21730032000,-0.0069128536,-0.0020008676,0.0019882435
21730036000,21730036000,-0.0037914044,0.00023264263,-0.00078492134
21730052000,21730052000,-0.0043702293,-0.0035682276,-0.006069132
21730060000,21730060000,-0.007592097,-0.005094283,-0.004209968
21730068000,21730068000,0.0057607763,-0.0012317677,-0.0034364767
21730080000,21730080000,-0.0025676102,0.0017138713,-0.002514824
21730092000,21730092000,-0.0023597134,-0.0016961067,0.0052199042
21730100000,21730100000,0.0036101183,-0.0029348026,-0.0010459293
21730112000,21730112000,0.0014146147,-0.0012397866,-0.0007623859
21730120000,21730120000,0.0047531775,-0.003200226,-0.0004406253
21730132000,21730132000,0.0014914561,0.00072016736,-0.0032571421
21730140000,21730140000,-0.0026209024,0.0021721805,-0.00545767
21730152000,21730152000,0.0046717348,0.0014672764,-0.0019824496
21730160000,21730160000,-0.003670592,-0.002015675,-0.0014466639
21730172000,21730172000,0.008101655,-0.001806017,-0.00116325
21730180000,21730180000,0.006452454,0.0027589633,0.0012086688
21730192000,21730192000,0.0010205208,0.00058714283,-0.00015692697
21730200000,21730200000,0.00956311,0.0013369143,9.224904e-05
21730212000,21730212000,-0.0033990974,0.003922159,0.0034849185
21730220000,21730220000,-0.0063950624,0.0011531066,0.008508918
21730232000,21730232000,-0.00065792527,-0.0067986622,-0.0012795927
21730240000,21730240000,-0.0065460335,-0.008308839,-0.0001277092
21730252000,21730252000,0.0022929744,0.001794548,-0.0024701685
21730260000,21730260000,-0.0023253108,0.0045278063,-0.0060066744
21730268000,21730268000,-0.008423593,0.003397982,-0.0033720024
21730276000,21730276000,-0.0013388993,0.001258136,0.00084891246
21730292000,21730292000,-0.0098744035,0.006491568,-0.0015482105
21730300000,21730300000,-0.0056535797,0.0045654573,0.00092610315
21730312000,21730312000,-0.00025570835,-0.00062159204,-0.0033109523
21730320000,21730320000,-0.0076852283,-0.0002668614,0.0033730215
21730332000,21730332000,0.010245355,0.007605107,0.010187785
21730336000,21730336000,0.010055345,0.005739586,0.008247242
21730352000,21730352000,0.00023561064,0.004904959,0.0064223087
21730360000,21730360000,0.011684626,0.0005876537,0.0059773684
21730372000,21730372000,-0.0050132256,0.0027147655,-0.0016327578
21730380000,21730380000,0.0027510396,0.0011814015,-0.0027395436
21730392000,21730392000,-0.0023730863,0.0020643934,0.0037899332
21730400000,21730400000,-0.001792273,6.4879554e-05,0.0006647455
21730412000,21730412000,0.0029835142,-0.004862861,-0.0020866864
21730420000,21730420000,-0.0044348463,-0.003853157,0.0031947622
21730432000,21730432000,0.005083176,0.002187411,-0.005185048
21730440000,21730440000,0.003944037,-0.001593497,0.0013780813
21730448000,21730448000,-0.012186054,0.0033623239,0.008604034
21730460000,21730460000,0.004998092,0.0025087108,0.0009971375
21730472000,21730472000,-0.0022668277,-0.002997901,-0.00375394
21730480000,21730480000,0.0078706,-0.0023017416,-0.0010254715
21730492000,21730492000,0.0024030611,0.00023440165,0.0037834195
21730500000,21730500000,-0.0020544082,-0.0034309663,0.0039082626
21730512000,21730512000,0.005239006,0.0034492495,0.0027327277
21730520000,21730520000,0.002312766,-0.0030341863,0.004431706
21730532000,21730532000,0.0008388934,0.0013677833,-0.00042314673
21730540000,21730540000,0.006940783,-0.0008840317,-0.0018435741
21730548000,21730548000,-0.0038693172,-0.0026245764,0.0008853632
21730560000,21730560000,0.0056035863,0.008056763,-0.0009044679
21730572000,21730572000,0.0019683405,0.00029285537,0.005244594
21730580000,21730580000,-0.005566316,0.0045814,-0.0031370907
21730592000,21730592000,-0.0019618548,-0.00015693995,-0.0025347085
21730600000,21730600000,-0.008050807,0.0013354778,-0.0040995833
21730608000,21730608000,0.0015186849,0.0038820892,-0.0008301054
21730616000,21730616000,0.0053207413,-0.00026788065,-0.0011342635
21730632000,21730632000,-0.0009850904,0.0006882658,-0.0013739443
21730640000,21730640000,0.011201054,-0.0040280577,0.0010896805
21730652000,21730652000,-0.006903712,0.0031240974,0.0028066577
21730660000,21730660000,-0.0045471434,0.0034237124,0.0017601572
21730672000,21730672000,-0.0056919986,0.0027540145,-0.002216484
21730676000,21730676000,-0.0042841267,0.0025759505,-0.0012375673
21730692000,21730692000,-0.0065338807,-0.0019821138,0.0050508627
21730696000,21730696000,-0.0062926747,-0.0003606156,0.0026668822
21730708000,21730708000,0.009209333,-0.002635101,0.001521649
21730716000,21730716000,-0.00068706204,0.0020242794,0.002108944
21730732000,21730732000,0.0030684457,-0.0019795198,5.5313983e-05
21730740000,21730740000,-0.0049523865,-0.00164497,-0.0012305824
21730752000,21730752000,0.009997538,-0.0015688128,0.0026134409
21730760000,21730760000,0.0018601348,-0.0006259789,-0.001790764
21730772000,21730772000,0.005229888,-0.0044352654,-0.0011946226
21730780000,21730780000,0.005302017,-0.001899709,0.00043034318
21730792000,21730792000,-0.008918694,0.008176057,-0.0019248128
21730800000,21730800000,-0.0011015907,-0.0042771385,0.0001885762
21730812000,21730812000,-0.0044528404,0.0002756955,-0.00149075
21730820000,21730820000,-0.00014418288,-0.0012389539,0.0073202243
21730832000,21730832000,7.8288314e-05,-0.0079169,-0.005027345
21730840000,21730840000,0.007478675,1.5884347e-05,-0.0038283125
21730852000,21730852000,-0.00126019,-0.0012611992,-0.0074921474
21730860000,21730860000,-0.0048871003,-0.00010912899,-0.003072057
21730872000,21730872000,-0.00090397336,0.0016854574,0.001788567
21730880000,21730880000,-0.004704194,-0.00017394828,0.0014142117
21730892000,21730892000,0.0075605875,0.0021030155,7.3817995e-05
21730900000,21730900000,-0.0006750267,0.0002001801,-0.0009167908
21730908000,21730908000,-0.003933614,0.0010899986,0.00085895695
21730916000,21730916000,0.0055028335,0.0042936504,-0.0017307505
21730932000,21730932000,-0.005966347,-0.0021855568,0.0001886247
21730936000,21730936000,-0.004380048,-0.0041433186,-0.0024445953
21730948000,21730948000,0.0069400277,-0.0003696368,0.0018667221
21730960000,21730960000,-0.0063345847,-0.00116029,-0.0011728174
21730972000,21730972000,0.0026601607,0.0016474441,-0.0040441602
21730980000,21730980000,-0.0018285858,0.0014411575,-0.0046693543
21730992000,21730992000,-0.0009026618,0.0027208044,8.601855e-06
21731000000,21731000000,-0.0029009383,0.0020386332,-0.0011159868
21731012000,21731012000,0.012582789,0.004521936,-3.3450488e-07
21731020000,21731020000,0.00053190836,-0.00018833185,-0.0026563164
21731032000,21731032000,-0.001064243,-0.0027285605,0.005399812
21731040000,21731040000,0.008026484,0.0028832012,0.0010811479
21731048000,21731048000,0.0065486454,-0.0011580826,-0.0057779243
21731060000,21731060000,-0.002096395,-0.0019324645,-0.002869713
21731072000,21731072000,-0.0032932053,-0.0038179539,0.003769253
21731080000,21731080000,0.008721917,-0.0021623557,0.0019092852
21731092000,21731092000,-0.0071593802,-0.0011525468,0.00078286487
21731100000,21731100000,0.0025240073,-0.004678719,-0.0014324104
21731112000,21731112000,-0.00057965633,0.0016146688,0.00066879066
21731120000,21731120000,-0.00060416124,0.0031113948,0.0056265085
21731132000,21731132000,0.0008561411,0.0033062098,-7.0193084e-05
21731140000,21731140000,-0.00035376835,-0.0020026949,-0.0028853188
21731152000,21731152000,-0.000993703,-0.0010906447,0.007851644
21731160000,21731160000,-0.0073774536,-0.0022564055,0.0063782637
21731172000,21731172000,0.0069331713,0.0015436987,-0.0076058456
21731180000,21731180000,8.635479e-05,-0.0041372045,-0.000887429
21731192000,21731192000,-0.0022841082,-0.0025192609,-0.0014580437
21731200000,21731200000,0.004439032,0.0008241226,0.0014726501
21731212000,21731212000,0.00056187285,-0.0064672814,4.445872e-06
21731216000,21731216000,0.00060355663,-0.0061218273,8.3458406e-05
21731228000,21731228000,-0.008052826,-0.003101094,0.00039222965
21731236000,21731236000,0.006622239,0.0017920623,0.0035939992
21731252000,21731252000,-0.007687054,-0.00033883768,-0.0019142851
21731260000,21731260000,0.0022108147,-0.0027263584,0.00046570698
21731272000,21731272000,0.0019047679,-0.004081496,0.0007190914
21731280000,21731280000,-0.0032773016,-0.0038032506,0.00020022053
21731292000,21731292000,0.0029540705,-0.0024670213,-0.0017017977
21731296000,21731296000,-0.005066117,-0.0013026079,-0.002722125
21731308000,21731308000,0.0062705628,0.0012006669,-0.00089597685
21731320000,21731320000,-0.00280202,-0.0018837767,0.0017154015
21731332000,21731332000,0.0049050716,0.00030594046,-0.0051468015
21731340000,21731340000,-0.006285285,-0.004067247,-0.0005446208
21731352000,21731352000,0.0036126794,-5.9607446e-05,-0.0011491813
21731360000,21731360000,0.0014751186,-0.0015852466,-0.00037657144
21731372000,21731372000,-0.004345039,0.0014792965,-0.00091798574
21731380000,21731380000,0.006418406,0.0017027946,-4.4419532e-05
21731392000,21731392000,-0.0023027929,0.0046467814,0.0009260724
21731400000,21731400000,0.011769878,-0.0006947285,0.00096887205
21731412000,21731412000,-0.0065288018,-0.0007092837,0.0012704823
21731420000,21731420000,0.0014091672,-0.00031841174,0.0030813394
21731432000,21731432000,-0.0038522966,0.001576534,-0.0018567668
21731436000,21731436000,0.0006909912,0.0016049766,-0.0010379348
21731452000,21731452000,0.007167995,9.608171e-05,-0.0011812375
21731460000,21731460000,-0.006984808,0.0008093999,-0.004057144
21731472000,21731472000,0.00217022,-0.00091232324,-0.0037433938
21731480000,21731480000,-0.006991936,0.005060329,-0.005592968
21731492000,21731492000,0.014429333,-0.0008463587,0.0014926686
21731500000,21731500000,-0.0047838436,0.0008179987,-0.0011298711
21731512000,21731512000,0.0007609873,-0.0011800999,0.0007365316
21731516000,21731516000,0.0029952775,-0.0022751077,0.00280326
21731528000,21731528000,-0.006152771,0.0061399173,0.00027799365
21731540000,21731540000,0.009614553,-0.0031027358,-0.0004705516
21731548000,21731548000,-0.0034960043,-0.0014445389,-0.0019864598
21731556000,21731556000,-0.011586856,0.0038051242,0.0015870576
21731568000,21731568000,0.0052276403,-0.004978753,-0.0036744578
21731576000,21731576000,-5.9731712e-05,-0.0016114794,-0.0018498265
21731592000,21731592000,-0.0052883793,-0.0009180811,0.0039451653
21731600000,21731600000,-0.0059128446,0.0031634374,0.0054816436
21731608000,21731608000,0.004552311,0.003965833,0.0024725215
21731620000,21731620000,-0.0064213807,0.00084724807,0.0012807063
21731632000,21731632000,0.0071466556,0.0035124759,-0.0014566892
21731640000,21731640000,-0.0034861926,0.0026844048,0.0018469171
21731652000,21731652000,0.0066049574,-0.0029988172,0.00044567883
21731660000,21731660000,-0.0030473564,0.002072502,-0.0010093123
21731668000,21731668000,0.0001701318,0.0019729475,0.0013809684
21731676000,21731676000,0.0028140629,0.0007440169,0.0021552814
21731692000,21731692000,0.007549528,-0.0022434366,-0.00371968
21731700000,21731700000,0.007414909,-0.001416994,-0.004388385
21731708000,21731708000,-0.004529047,0.0009785795,-0.0016956682
21731716000,21731716000,0.0049944194,0.0024149632,0.0021742708
21731732000,21731732000,-0.0041699056,0.006356175,-0.003397974
21731740000,21731740000,-0.0031291635,0.0016257736,-0.0028865
21731752000,21731752000,-0.006600835,0.0021268285,0.0022762646
21731760000,21731760000,0.0036159037,0.00227581,0.00073451106
21731772000,21731772000,0.0016693368,0.0027277097,-0.0036379208
21731776000,21731776000,-0.006056899,0.0035537588,-0.0048688403
21731792000,21731792000,-0.0062600486,0.003995831,0.001935311
21731800000,21731800000,-0.0019533206,-0.00022618719,0.0037537292
21731812000,21731812000,0.0009878009,-0.0015319348,0.004304471
21731820000,21731820000,-0.0025675725,-0.0001676369,0.0045857946
21731828000,21731828000,0.011115699,0.0029852088,-0.0030750402
21731836000,21731836000,0.0018474588,0.002364329,-0.0033760574
21731848000,21731848000,-0.0023279674,-0.0011278327,-0.0013521514
21731856000,21731856000,0.007234296,-0.0006916018,-3.3694945e-05
21731872000,21731872000,0.0045543713,-0.00086603843,-0.0019401315
21731880000,21731880000,0.0018895715,0.0011514496,0.0010388413
21731892000,21731892000,-0.0008353996,0.0058779186,-0.0024532136
21731900000,21731900000,0.0041269637,0.0020544662,0.0036750617
21731912000,21731912000,-0.0062946994,0.007917005,0.000772435
21731920000,21731920000,0.0032325932,0.004611603,-0.003377786
21731932000,21731932000,-0.009238379,0.0015920283,0.00027171755
21731940000,21731940000,0.0010845154,-0.0032190057,0.0023413957
21731952000,21731952000,-0.00543856,-0.0020343964,-0.0032095572
21731960000,21731960000,-0.0020057377,0.003013422,-0.0016746861
21731972000,21731972000,-0.002746805,-0.0033521052,0.00091312977
21731980000,21731980000,0.0031290026,0.0006908907,-0.0012926877
21731992000,21731992000,0.0060431184,-0.0027201714,-0.0025634093
21732000000,21732000000,-0.006364854,-0.0009707181,0.0042666947
21732012000,21732012000,-0.004006381,0.0005076154,0.0030385496
21732020000,21732020000,-0.0078044143,-0.0014698226,0.0009845048
21732032000,21732032000,0.003514092,-0.0038382758,-0.004840269
21732040000,21732040000,-0.0035885172,-0.00051264133,-0.002587425
21732052000,21732052000,0.0036724843,-0.00501271,-0.0036140874
21732060000,21732060000,0.00056038273,-0.00012632144,0.0015763463
21732072000,21732072000,-0.0039310786,-0.0016468616,-9.199392e-05
21732080000,21732080000,0.008178351,5.5955607e-05,-0.004829044
21732092000,21732092000,-0.00575155,0.00032011772,-0.0031740537
21732096000,21732096000,0.0035855765,0.0011061293,2.4708046e-05
21732112000,21732112000,-0.007887649,0.00565005,0.0019238638
21732120000,21732120000,0.0026012897,0.00025653985,-0.008674419
21732128000,21732128000,-0.0026063109,-0.0020806647,-0.003433533
21732140000,21732140000,0.0077949334,0.004741383,0.0016535567
21732152000,21732152000,-0.004439671,-0.0022775785,0.0011681854
21732160000,21732160000,-0.0034151794,-0.00021223258,-0.0032154399
21732168000,21732168000,-0.0014471427,0.00075981644,0.00024640298
21732180000,21732180000,-0.002516356,0.0006913315,-0.0070581143
21732192000,21732192000,0.004207891,0.00086894,-0.0022786523
21732200000,21732200000,-0.00473682,0.0027546803,0.0034097813
21732212000,21732212000,0.0007080026,-0.0027826484,-0.007163345
21732220000,21732220000,-0.009399444,-0.00096282,-0.0043371106
21732232000,21732232000,0.0013252787,0.0006591623,0.0028525146
21732240000,21732240000,-0.007575741,0.00059807824,0.0008738923
21732252000,21732252000,0.010464886,0.0019398143,-0.00015631525
21732260000,21732260000,0.000633901,-0.0014372917,0.0015328727
21732272000,21732272000,0.0029730378,0.0048953625,0.0030500072
21732280000,21732280000,-0.007353991,0.001064998,-0.0009766906
21732292000,21732292000,0.0029939492,-0.0028829635,8.825667e-05
21732300000,21732300000,-0.0024434356,-0.0054817945,0.002537634
21732312000,21732312000,-0.00434573,0.0016875988,0.0054795574
21732320000,21732320000,0.008074601,0.002901964,0.0032318938
21732332000,21732332000,-0.0025613874,0.00041051235,0.004734281
21732340000,21732340000,0.0028364484,0.00066810334,0.0039027708
21732352000,21732352000,-0.007179667,0.0021534553,-0.0019234406
21732360000,21732360000,0.002207682,7.4505806e-06,0.0016446986
21732372000,21732372000,0.0031327275,-0.0014284113,-0.0021273156
21732380000,21732380000,0.0067225923,0.0036225417,-0.0019319785
21732392000,21732392000,-0.0013827874,0.0045607253,0.0054036696
21732400000,21732400000,0.008878964,-0.0045436462,0.0038651759
21732412000,21732412000,-0.0051736273,0.0021244604,0.0030107333
21732420000,21732420000,0.008901992,0.0045867884,0.0035948576
21732432000,21732432000,-0.0003244757,0.0020799441,0.0032448384
21732440000,21732440000,0.0075845104,-0.0006926594,0.0024622798
21732452000,21732452000,-0.0012982425,-0.00047026918,-0.00085400697
21732460000,21732460000,0.003978696,0.0027345899,-0.0023780505
21732472000,21732472000,-0.0036634225,4.3530992e-05,0.000830611
21732480000,21732480000,0.008570064,0.0023452288,0.00093095296
21732492000,21732492000,-0.0013988361,0.004086172,0.003072372
21732500000,21732500000,0.003414222,0.0001837216,2.1451648e-05
21732512000,21732512000,-0.0054247743,0.005678119,-0.0008942904
21732520000,21732520000,0.008342108,0.00612785,0.00036746805
21732532000,21732532000,-0.0026896999,0.00034508572,0.00036798813
21732540000,21732540000,0.0022422762,0.0015964969,-0.0016588708
21732548000,21732548000,-0.0013381082,4.712795e-05,8.453849e-05
21732556000,21732556000,0.005768722,-0.0037389253,0.0017247384
21732568000,21732568000,-0.0020257963,-0.0010003715,-0.0010253856
21732576000,21732576000,0.003797385,9.5428695e-05,-0.0012600538
21732592000,21732592000,0.004812535,-0.0045866184,0.00507018
21732600000,21732600000,-0.0043703383,-0.004485891,0.004282874
21732612000,21732612000,0.005686989,-0.0045315363,-0.0007919204
21732620000,21732620000,-0.008937014,0.002488423,-0.0016301902
21732632000,21732632000,-0.00050146005,0.0019806777,-0.0013648889
21732640000,21732640000,0.0010397125,-0.00036820312,0.00094559696
21732652000,21732652000,-0.006671044,0.002411751,-0.00082029036
21732660000,21732660000,0.0017064565,0.0004202684,0.0030434637
21732672000,21732672000,-0.010754918,-0.0014479151,-0.00027689023
21732676000,21732676000,-0.007691728,-0.00049721973,-0.00095061056
21732688000,21732688000,0.00020770956,-0.0007961535,0.00061142823
21732700000,21732700000,0.013814824,-0.003825695,0.0062583033
21732712000,21732712000,0.0003855513,0.0051685655,-0.0039220387
21732720000,21732720000,0.014263942,0.0040172767,-0.0018636036
21732732000,21732732000,-0.00040526025,0.00091007433,0.007240874
21732740000,21732740000,-0.002303086,-0.0007109035,5.3510303e-05
21732752000,21732752000,0.008002195,0.005190638,-0.004537324
21732760000,21732760000,0.0087255975,0.00016287334,0.005634063
21732772000,21732772000,-0.0035353422,0.0010830448,0.0011316545
21732780000,21732780000,0.0014909657,-0.0022535739,-0.0012836675
21732792000,21732792000,-0.006840589,-0.0006906517,0.0008422246
21732796000,21732796000,-0.002394635,-0.0055588526,0.00019852826
21732812000,21732812000,0.006386127,-0.0005903345,0.0012257993
21732820000,21732820000,-0.00542776,0.00014283232,-0.0012802524
21732832000,21732832000,-0.003973936,0.00078592176,0.00029992606
21732840000,21732840000,0.0046538813,0.0012963142,-0.0012517567
21732852000,21732852000,-0.0007453971,0.0011936806,0.0017865141
21732860000,21732860000,0.013603626,-0.0025841228,0.0015870357
21732872000,21732872000,0.0024495511,0.0020732693,-0.0016767901
21732880000,21732880000,0.00033200713,-0.00024837884,-0.0017861984
21732892000,21732892000,-0.0044982047,0.0008865034,-0.0037645348
21732900000,21732900000,-0.0013032308,-0.0040609315,0.0017585054
21732912000,21732912000,-0.0011350531,-0.0030284042,0.0020013554
21732916000,21732916000,-0.0011830147,-0.00093021273,0.003344907
21732932000,21732932000,-0.0035955976,0.007909588,0.001326129
21732940000,21732940000,-0.0034404742,-0.00029311172,0.002028994
21732952000,21732952000,-0.009112188,0.00022987674,0.0008232651
21732960000,21732960000,0.0060276813,0.0021644426,-0.0024457197
21732972000,21732972000,0.004080924,-0.0023482887,0.0015337901
21732980000,21732980000,-0.0075759687,-0.0057920734,-0.0024997143
21732992000,21732992000,-0.00931725,-0.0026516337,-0.003951207
21733000000,21733000000,0.010371164,-0.002502408,-0.009800659
21733012000,21733012000,0.003893618,-0.0007919075,-0.0018685957
21733020000,21733020000,-0.0082516195,0.00010383273,-0.0003366483
21733032000,21733032000,0.0030440907,-0.00079216564,0.0011830233
21733036000,21733036000,0.0011517751,-0.0013564875,0.003916272
21733048000,21733048000,-0.004313778,-0.00020023322,0.0032119174
21733056000,21733056000,0.01725517,0.0036193198,-0.0031516755
21733072000,21733072000,-0.0019318917,0.003941798,-0.0013629169
21733080000,21733080000,-0.001659326,7.674063e-05,-0.0014111211
21733092000,21733092000,0.0031501018,0.0027411757,0.00921556
21733100000,21733100000,-0.0038175937,0.005643988,0.002519068
21733112000,21733112000,0.0019402435,0.0014411352,-0.0040303003
21733120000,21733120000,-0.005987685,-0.0003098346,0.00047451304
21733132000,21733132000,-0.009634155,0.0010420402,0.0017502249
21733140000,21733140000,0.009906427,-7.3399955e-05,0.0009792533
21733152000,21733152000,-0.012163286,-0.0007795151,0.00050264236
21733160000,21733160000,0.010625443,-0.00064330833,0.0005194617
21733172000,21733172000,0.0031161266,0.0010817568,0.0028499828
21733180000,21733180000,-0.013048635,0.0026690185,0.0027858436
21733192000,21733192000,0.0023804265,0.004209447,-0.0022415768
21733200000,21733200000,2.7947244e-05,-0.002170308,-0.0048684278
21733212000,21733212000,-0.017277597,-0.0030577697,0.008039668
21733220000,21733220000,-0.00070867455,-0.00014833696,0.00023651835
21733232000,21733232000,-0.0062459265,0.002508022,0.0025715532
21733240000,21733240000,0.012046404,-0.00046966603,0.004387606
21733252000,21733252000,-0.0062741,0.00013407486,0.0021432387
21733260000,21733260000,0.0070706382,-0.0034627605,0.008540066
21733268000,21733268000,-0.005596754,0.0002320115,-0.0017430376
21733276000,21733276000,-0.0071161683,0.0021484944,0.0031326746
21733292000,21733292000,-0.017725052,0.003036522,0.0021562316
21733300000,21733300000,0.018700108,-0.006944017,-0.002369939
21733312000,21733312000,-0.014693369,0.00404586,-0.0005368323
21733320000,21733320000,0.023104653,0.00067091297,-0.003193044
21733332000,21733332000,-0.0073772063,-0.0017727971,0.0031767208
21733340000,21733340000,0.011704466,0.0027864943,0.005375182
21733352000,21733352000,-0.019317482,-0.0012884373,0.0013185065
21733360000,21733360000,0.021912359,0.0014544119,-0.00050143857
21733372000,21733372000,-0.025612747,0.004285947,0.0009293314
21733380000,21733380000,0.024992712,0.0025884118,0.0070955767
21733392000,21733392000,-0.0300484,0.002749186,3.8511644e-05
21733400000,21733400000,0.0115618035,0.0030510852,0.00604433
21733412000,21733412000,0.017820112,0.002171277,0.0038345277
21733420000,21733420000,-0.023240788,-0.0030391652,0.011688703
21733432000,21733432000,0.028729776,0.0062343865,0.0034709158
21733440000,21733440000,-0.0050919894,0.0035737776,0.0031003966
21733452000,21733452000,0.014857871,-0.0018116678,0.008788446
21733460000,21733460000,0.0028996877,0.00091748784,-0.0037200483
21733472000,21733472000,0.013450789,0.0012007628,0.005603805
21733480000,21733480000,-0.028020408,0.0021813775,0.029421534
21733492000,21733492000,0.014500956,-0.0013041396,-0.002228333
21733500000,21733500000,0.03306958,0.0033529953,0.005044858
21733512000,21733512000,-0.044194575,0.003979515,-0.0006475485
21733520000,21733520000,0.036534112,0.004901168,0.00531263
21733532000,21733532000,0.0019251861,0.005149801,-0.0030695475
21733540000,21733540000,-0.043468192,0.0010891582,-0.0035650006
21733552000,21733552000,0.043471023,0.00182248,0.009189063
21733560000,21733560000,0.016513001,0.00093048933,-0.0022297997
21733572000,21733572000,-0.044816364,0.006121277,-0.00202677
21733580000,21733580000,0.0054515265,0.00058479566,0.0057440456
21733592000,21733592000,0.018152224,0.00074547395,-0.0033672564
21733600000,21733600000,-0.010935112,0.0041469373,-0.006567075
21733612000,21733612000,-0.021484436,-0.0015066022,0.014876269
21733620000,21733620000,0.04969428,0.00770188,0.013851257
21733632000,21733632000,-0.0076189507,0.0024634143,-0.013317859
21733640000,21733640000,-0.022057503,0.003695843,-0.0043129832
21733652000,21733652000,-0.010909754,0.000517534,0.010669127
21733660000,21733660000,0.026921332,0.0011581688,-0.0030266598
21733672000,21733672000,0.016317127,0.005403284,-0.0036564772
21733680000,21733680000,-0.022649422,0.0058166264,-0.0017470893
21733688000,21733688000,-0.04592531,0.0047341557,0.008583156
21733700000,21733700000,0.008131878,0.0030078078,-0.008986198
21733708000,21733708000,0.0072421683,0.0028775963,-0.0059992974
21733720000,21733720000,0.009311518,-0.0018225132,-0.0074504865
21733732000,21733732000,0.019756759,0.0024439003,0.041060094
21733740000,21733740000,0.035050828,0.021978375,0.020213453
21733752000,21733752000,-0.00795391,0.0015446902,-0.007856785
21733760000,21733760000,-0.0040259166,0.00018366425,-0.00029330456
21733772000,21733772000,-0.0015962597,0.00023189183,0.0025869394
21733776000,21733776000,-0.0045443536,0.0018849502,-0.0002398923
21733792000,21733792000,-0.00425446,-0.00015638993,-0.006128622
21733800000,21733800000,-0.0071772155,-0.002172463,-0.0017670515
21733812000,21733812000,-0.0019738027,-0.001527425,0.0018603087
21733820000,21733820000,0.0006913713,0.0029475002,0.001910117
21733832000,21733832000,0.0006981399,0.0056374692,-0.0006607976
21733836000,21733836000,0.0016293655,0.0020287365,-0.002851723
21733852000,21733852000,-0.001259595,0.003671244,0.00076986855
21733860000,21733860000,-0.0032372638,0.0049259965,-0.0013409782
21733872000,21733872000,-0.0065477886,0.002327832,0.00010447853
21733880000,21733880000,-0.0056170896,-0.0010177073,-0.00031508488
21733888000,21733888000,-0.0015600863,-0.00089883973,-0.0048242793
21733900000,21733900000,-0.0024873265,0.0012443085,-0.0018302748
21733912000,21733912000,-0.002797633,-0.0013078242,-0.0039982907
21733920000,21733920000,0.024233673,-0.0008650465,0.0024899172
21733932000,21733932000,0.07128716,0.028709985,0.04404251
21733940000,21733940000,-0.091744795,0.029656544,0.017858023
21733948000,21733948000,-0.16344728,0.041369393,-0.00346526
21733956000,21733956000,-0.14056976,0.08610332,-0.006961275
21733972000,21733972000,-0.10434017,0.11355238,-0.047013775
21733980000,21733980000,-0.022002224,0.073073626,-0.04205115
21733992000,21733992000,0.013874743,0.05399991,-0.04865512
21733996000,21733996000,0.018476423,0.05461609,-0.043059643
21734012000,21734012000,0.016825493,0.059589528,-0.026413465
21734020000,21734020000,0.0036143488,0.05702723,-0.02522729
21734032000,21734032000,0.041575674,0.060593393,-0.020886274
21734040000,21734040000,0.011211751,0.062301163,-0.017711245
21734052000,21734052000,-0.10237031,0.057856064,0.0010379963
21734060000,21734060000,-0.02597839,0.058081344,-0.0011392658
21734068000,21734068000,-0.052716944,0.05506844,0.0038437203
21734076000,21734076000,-0.033437118,0.056741994,0.0073822383
21734088000,21734088000,-0.0030801797,0.05382953,0.010466757
21734100000,21734100000,-0.0039495463,0.045029256,0.008652623
21734108000,21734108000,-0.0029620528,0.037590407,0.006488123
21734120000,21734120000,-0.00693677,0.028339127,0.007969172
21734132000,21734132000,-0.02284763,0.014817891,0.0031152258
21734140000,21734140000,-0.026393062,0.010463418,0.003550399
21734152000,21734152000,-0.023403395,0.003372694,0.000455175
21734160000,21734160000,-0.03150674,0.0018950093,0.0050140973
21734172000,21734172000,-0.019436276,-0.0037821995,0.0010263657
21734180000,21734180000,-0.0137492595,-0.008730419,0.0010493976
21734192000,21734192000,-0.005200584,-0.004168183,-7.978476e-05
21734200000,21734200000,0.005303365,-0.013417569,-0.0047679753
21734212000,21734212000,0.020813378,-0.023102714,-0.010093494
21734220000,21734220000,-0.12198547,-0.019760655,0.006672994
21734228000,21734228000,0.17113143,-0.025644334,-0.005386017
21734240000,21734240000,0.013336301,-0.03689621,-0.007022234
21734248000,21734248000,0.014253066,-0.042876452,0.00017446483
21734260000,21734260000,0.0157865,-0.04391121,0.0010737912
21734268000,21734268000,0.003926912,-0.046837397,-0.001375957
21734280000,21734280000,0.0006432321,-0.051792633,0.005234063
21734292000,21734292000,-0.00062211254,-0.04248589,0.0037694694
21734296000,21734296000,0.0031197597,-0.041101992,0.005468692
21734312000,21734312000,0.011211207,-0.03908183,-0.0031144132
21734316000,21734316000,0.016090188,-0.04103516,-0.0038103194
21734332000,21734332000,0.030199073,-0.040101923,-0.0054802597
21734340000,21734340000,0.035039134,-0.03580805,-0.0048475284
21734352000,21734352000,0.038784187,-0.03791643,-0.0016304456
21734360000,21734360000,0.040231563,-0.039928466,-0.0011096942
21734372000,21734372000,0.03789229,-0.036226135,0.0017735591
21734380000,21734380000,0.03422613,-0.035995614,4.2581756e-05
21734392000,21734392000,-0.030501531,-0.0390254,-0.001664709
21734400000,21734400000,-0.023960646,-0.042208817,0.00097389333
21734412000,21734412000,0.079468355,-0.05005882,-0.0032217372
21734416000,21734416000,0.010598272,-0.045535948,0.00225713
21734428000,21734428000,0.025496718,-0.04196715,0.0047781263
21734440000,21734440000,-0.0051921746,-0.03967343,0.008303868
21734448000,21734448000,-0.018771531,-0.03858487,0.0047961907
21734456000,21734456000,-0.019658467,-0.040131085,0.007542332
21734468000,21734468000,-0.020693988,-0.02913404,0.0067068427
21734480000,21734480000,-0.013149791,-0.025309538,-0.00017486144
21734492000,21734492000,-0.004505855,-0.01610133,0.0012080813
21734500000,21734500000,0.003948742,-0.014102785,0.0051688314
21734512000,21734512000,0.027562452,-0.011179352,0.0015834167
21734520000,21734520000,0.039663848,-0.012854497,0.0002785362
21734532000,21734532000,0.04499332,-0.011829327,-0.0029480215
21734540000,21734540000,0.048176076,-0.016844988,-0.0032108356
21734548000,21734548000,0.04430931,-0.02028457,-0.00179785
21734560000,21734560000,0.035846803,-0.01525187,-0.006338147
21734572000,21734572000,-0.1264048,-0.012160891,0.0062385695
21734580000,21734580000,0.16599222,-0.015435504,-0.010838163
21734592000,21734592000,0.0006004185,-0.012052917,0.0047183945
21734600000,21734600000,0.006652812,-0.008790858,0.0016978325
21734612000,21734612000,0.00944506,-0.004693732,-0.0016475891
21734616000,21734616000,0.0017470084,-0.0024350192,-0.0009228521
21734632000,21734632000,0.004923271,-0.00024354827,0.0037346117
21734640000,21734640000,0.008876056,-0.0016098055,0.0057109967
21734648000,21734648000,0.0035054754,-0.00083084876,0.007747913
21734660000,21734660000,0.013728511,0.0017838083,0.0047559296
21734668000,21734668000,0.010604478,-0.0024440284,0.004201159
21734680000,21734680000,0.017918145,-0.0005558961,0.0025025678
21734692000,21734692000,0.016974155,-0.002840237,0.0014896985
21734700000,21734700000,0.0127042625,-0.00036095112,-0.0018080855
21734712000,21734712000,0.0069717695,-0.0024009265,-6.033895e-05
21734720000,21734720000,0.0037707142,-0.0038373782,0.0020183485
21734732000,21734732000,0.006525345,-0.005384106,-0.0018265403
21734740000,21734740000,0.00060848397,-0.0075093242,0.00054839195
21734752000,21734752000,-0.0444308,-0.007290098,0.0006171142
21734760000,21734760000,0.1724189,-0.0045568896,-0.00558794
21734772000,21734772000,-0.016384106,-0.002741675,-0.0042845597
21734776000,21734776000,0.0003218174,-4.5064353e-05,-0.005349743
21734792000,21734792000,-0.0038706358,-0.00090396224,0.00035372656
21734796000,21734796000,-0.010862796,0.00046046433,-0.0019437962
21734812000,21734812000,-0.015758447,0.00012133503,0.0011196922
21734820000,21734820000,-0.018696561,-0.00047281588,0.00079821306
21734832000,21734832000,-0.012288541,7.36817e-05,0.0028500536
21734840000,21734840000,-0.011460735,-0.00071044563,-0.0010039508
21734852000,21734852000,-0.0069336193,-0.0026944932,0.0020025724
21734860000,21734860000,-0.0035095662,-0.0027907107,-0.00011142934
21734872000,21734872000,0.0030508123,-0.0051051904,0.00279465
21734880000,21734880000,0.0037383565,-0.008408202,0.00716173
21734892000,21734892000,0.009374421,-0.013327631,-0.001097895
21734900000,21734900000,0.008578674,-0.016872521,0.0005941044
21734912000,21734912000,0.0044035017,-0.017793883,-0.0033794257
21734916000,21734916000,0.0038740917,-0.020503761,-0.0032038935
21734928000,21734928000,-0.04145895,-0.020279549,0.010997094
21734936000,21734936000,0.16934453,-0.020727761,-0.008020505
21734952000,21734952000,-0.01890419,-0.019763134,0.004663727
21734960000,21734960000,0.0027930203,-0.009694368,0.0031954513
21734968000,21734968000,-0.008591751,-0.010235733,-0.0017339827
21734980000,21734980000,-0.004983104,-0.002065967,-0.0027857162
21734992000,21734992000,-0.015024648,-0.0039018109,0.0012029372
21735000000,21735000000,-0.008734638,0.00073592894,0.0023864293
21735012000,21735012000,-0.004975631,0.009071267,0.0037145733
21735020000,21735020000,0.0016073042,0.0060406164,0.0021682968
21735032000,21735032000,0.0008175957,0.0046976116,-0.0021621676
21735040000,21735040000,0.005231956,0.002038686,-0.0001666015
21735052000,21735052000,0.00051831926,9.593964e-05,0.004201037
21735060000,21735060000,0.008173842,-0.0019865322,0.00396387
21735072000,21735072000,0.010897785,-0.005866161,-0.0028657292
21735080000,21735080000,0.014761702,-0.0053699994,-0.0036221736
21735092000,21735092000,0.013769274,0.0006769828,-0.0002882802
21735096000,21735096000,-0.043767948,0.0019046455,0.0013080402
21735112000,21735112000,0.18011276,0.0033013206,-0.011608927
21735116000,21735116000,0.074296646,0.0025757668,-0.001952016
21735128000,21735128000,0.0035505516,0.0023735587,-0.0014345071
21735140000,21735140000,0.010806387,0.005855646,-0.0025078126
21735152000,21735152000,0.0018042007,0.015908357,0.0023967533
21735156000,21735156000,-0.0029683837,0.01399033,0.0037886822
21735172000,21735172000,-0.0057965773,0.014891284,-0.0032922006
21735176000,21735176000,-0.0071531725,0.017992446,-0.00010730495
21735192000,21735192000,-0.005152284,0.011578659,-0.0019832077
21735200000,21735200000,-0.004309051,0.010923409,-0.0040707565
21735212000,21735212000,0.0030029325,0.0075876396,0.0014990172
21735220000,21735220000,-0.0031975375,0.010203813,0.00028494568
21735232000,21735232000,0.0009968812,0.0062749973,0.0030834337
21735240000,21735240000,0.0024371925,0.010173109,-0.0037528123
21735252000,21735252000,0.0034734278,0.012786584,0.00016338294
21735256000,21735256000,0.0035372295,0.01449536,0.000484842
21735268000,21735268000,0.0007919983,0.012809107,0.0056431745
21735280000,21735280000,-0.05092541,0.017374452,0.005661873
21735292000,21735292000,0.058697324,0.014321961,-8.726973e-05
21735296000,21735296000,-0.011169962,0.015439999,0.0023663267
21735312000,21735312000,0.0039651045,0.019047132,-0.0011167617
21735320000,21735320000,-0.011434064,0.022080163,0.0016037591
21735328000,21735328000,-0.012013567,0.020193445,0.0026023672
21735340000,21735340000,-0.015878674,0.02206674,0.0074144923
21735348000,21735348000,-0.016898232,0.023608971,0.0045382325
21735360000,21735360000,-0.009355724,0.018867122,-0.001236818
21735372000,21735372000,-0.008672686,0.016451005,0.0013043694
21735380000,21735380000,-0.006320902,0.018185237,-0.0023155902
21735392000,21735392000,-0.0032776594,0.011201105,-0.0020950276
21735400000,21735400000,-0.0025620777,0.007824352,-0.0003593531
21735412000,21735412000,-0.0051730284,0.0038644748,-0.0022941567
21735420000,21735420000,-0.004444878,-0.0002593531,-0.0044495193
21735432000,21735432000,-0.007541315,-0.0040619196,3.3018732e-06
21735440000,21735440000,-0.0066436594,-0.003997668,0.0020357303
21735452000,21735452000,-0.14933868,-0.0053328313,0.0047099204
21735460000,21735460000,0.14139412,-0.007570532,-0.014016748
21735472000,21735472000,-0.0059483466,-0.00496388,-0.0015477135
21735480000,21735480000,-0.007985539,-0.0004272433,-0.0015961656
21735492000,21735492000,-0.0005048957,0.00015025934,-0.005734213
21735500000,21735500000,-0.0041199853,0.0021299922,0.0014648859
21735512000,21735512000,-0.0071423757,0.00939134,-0.0029313667
21735520000,21735520000,-0.007661808,0.011826381,0.0010250546
21735532000,21735532000,0.0051737432,0.019793438,0.0014828192
21735540000,21735540000,0.0012875854,0.023548853,0.001386479
21735552000,21735552000,0.0019923912,0.016668255,-0.0013078207
21735556000,21735556000,0.0049327896,0.015831266,-0.0022973919
21735572000,21735572000,-9.900058e-05,0.0074386992,-0.0006014989
21735576000,21735576000,0.0013551274,0.0092459265,0.00022687946
21735592000,21735592000,0.00037522294,0.004155027,0.0047042095
21735600000,21735600000,-0.0018205463,0.0015038091,0.0036595697
21735608000,21735608000,-0.0046583023,0.0021937268,0.0011519613
21735620000,21735620000,0.0036670454,-0.0058716526,-0.023366258
21735628000,21735628000,-0.1474772,-0.00525006,-0.03803004
21735640000,21735640000,0.1587654,-0.008025749,-0.03842339
21735652000,21735652000,-0.027061382,-0.005999624,-0.015999233
21735660000,21735660000,-0.0070204125,-0.011679475,-0.015520301
21735668000,21735668000,-0.018963877,-0.0036965734,-0.005911885
21735676000,21735676000,-0.028276436,0.0020367038,-0.0005540724
21735692000,21735692000,-0.033091668,0.0024272269,0.006716198
21735700000,21735700000,-0.032325424,0.0055018193,0.009385585
21735712000,21735712000,-0.025259664,0.0038063112,0.019774504
21735720000,21735720000,-0.018857118,0.0043365955,0.02622975
21735728000,21735728000,-0.0115808565,0.0004608982,0.02058588
21735740000,21735740000,-0.003407552,0.0028518941,0.019944701
21735752000,21735752000,0.013272905,0.0016821895,0.023845352
