timestamp,timestamp_sample,gps_hvel[0],gps_hvel[1],gps_vvel,gps_hpos[0],gps_hpos[1],gps_vpos,ev_hvel[0],ev_hvel[1],ev_vvel,ev_hpos[0],ev_hpos[1],ev_vpos,rng_vpos,baro_vpos,aux_hvel[0],aux_hvel[1],aux_vvel,flow[0],flow[1],heading,mag_field[0],mag_field[1],mag_field[2],drag[0],drag[1],airspeed,beta,hagl,hagl_rate
21726688000,21726608000,4.628578e-06,0.0,5.063844e-07,1.5760095e-07,0.0,0.0,0.0,0.0,0.0,0.0,0.0,0.0,0.0,2.8514607e-05,0.0,0.0,nan,0.0,0.0,0.0005510861,0.0,0.0,0.0,0.0,0.0,0.0,0.0,0.0,0.0
21727192000,21727112000,5.5267535e-08,0.0,3.032844e-08,3.8657013e-06,0.0,0.0,0.0,0.0,0.0,0.0,0.0,0.0,0.0,3.1167756e-06,0.0,0.0,nan,0.0,0.0,0.0005718271,0.0,0.0,0.0,0.0,0.0,0.0,0.0,0.0,0.0
21727688000,21727608000,1.708743e-06,0.0,1.6886994e-05,3.825335e-06,0.0,0.0,0.0,0.0,0.0,0.0,0.0,0.0,0.0,2.6749844e-06,0.0,0.0,nan,0.0,0.0,0.0013918079,0.0,0.0,0.0,0.0,0.0,0.0,0.0,0.0,0.0
21728184000,21728104000,2.870664e-05,0.0,6.1766843e-07,1.7730858e-07,0.0,0.0,0.0,0.0,0.0,0.0,0.0,0.0,0.0,2.7064468e-06,0.0,0.0,nan,0.0,0.0,3.0155568e-05,0.0,0.0,0.0,0.0,0.0,0.0,0.0,0.0,0.0
21728688000,21728608000,4.396455e-05,0.0,1.780074e-05,3.5481003e-06,0.0,0.0,0.0,0.0,0.0,0.0,0.0,0.0,0.0,3.432373e-07,0.0,0.0,nan,0.0,0.0,0.00074725226,0.0,0.0,0.0,0.0,0.0,0.0,0.0,0.0,0.0
21729192000,21729112000,4.171339e-06,0.0,7.9100646e-05,1.4914134e-06,0.0,0.0,0.0,0.0,0.0,0.0,0.0,0.0,0.0,1.7893599e-05,0.0,0.0,nan,0.0,0.0,4.5371613e-05,0.0,0.0,0.0,0.0,0.0,0.0,0.0,0.0,0.0
21729688000,21729608000,7.0874435e-08,0.0,2.5458917e-07,1.6960885e-07,0.0,0.0,0.0,0.0,0.0,0.0,0.0,0.0,0.0,1.3134582e-05,0.0,0.0,nan,0.0,0.0,0.0010084098,0.0,0.0,0.0,0.0,0.0,0.0,0.0,0.0,0.0
21730184000,21730104000,0.00017487619,0.0,0.0003095141,1.6572596e-07,0.0,0.0,0.0,0.0,0.0,0.0,0.0,0.0,0.0,4.4272405e-05,0.0,0.0,nan,0.0,0.0,7.1088565e-05,0.0,0.0,0.0,0.0,0.0,0.0,0.0,0.0,0.0
21730688000,21730608000,6.885386e-05,0.0,2.092975e-05,3.6155263e-06,0.0,0.0,0.0,0.0,0.0,0.0,0.0,0.0,0.0,5.452848e-07,0.0,0.0,nan,0.0,0.0,2.3869648e-06,0.0,0.0,0.0,0.0,0.0,0.0,0.0,0.0,0.0
21731192000,21731112000,4.5669378e-05,0.0,2.4832165e-05,1.2159526e-07,0.0,0.0,0.0,0.0,0.0,0.0,0.0,0.0,0.0,2.3091466e-06,0.0,0.0,nan,0.0,0.0,0.0001234506,0.0,0.0,0.0,0.0,0.0,0.0,0.0,0.0,0.0
21731688000,21731608000,3.4612436e-05,0.0,0.00033037586,1.5722456e-07,0.0,0.0,0.0,0.0,0.0,0.0,0.0,0.0,0.0,1.1294429e-06,0.0,0.0,nan,0.0,0.0,0.00012467428,0.0,0.0,0.0,0.0,0.0,0.0,0.0,0.0,0.0
21732192000,21732112000,5.1205487e-05,0.0,0.00051366433,1.9402073e-07,0.0,0.0,0.0,0.0,0.0,0.0,0.0,0.0,0.0,1.4622108e-06,0.0,0.0,nan,0.0,0.0,1.4160369e-08,0.0,0.0,0.0,0.0,0.0,0.0,0.0,0.0,0.0
21732688000,21732608000,5.4611854e-05,0.0,4.7563656e-08,1.508878e-06,0.0,0.0,0.0,0.0,0.0,0.0,0.0,0.0,0.0,8.06365e-07,0.0,0.0,nan,0.0,0.0,8.156398e-06,0.0,0.0,0.0,0.0,0.0,0.0,0.0,0.0,0.0
21733184000,21733104000,4.6003337e-05,0.0,6.892493e-06,3.7321915e-06,0.0,0.0,0.0,0.0,0.0,0.0,0.0,0.0,0.0,0.0,0.0,0.0,nan,0.0,0.0,5.1256724e-05,0.0,0.0,0.0,0.0,0.0,0.0,0.0,0.0,0.0
21733688000,21733608000,0.00016285127,0.0,9.4242474e-05,8.8173766e-07,0.0,0.0,0.0,0.0,0.0,0.0,0.0,0.0,0.0,0.0,0.0,0.0,nan,0.0,0.0,0.00092317007,0.0,0.0,0.0,0.0,0.0,0.0,0.0,0.0,0.0
21734184000,21734104000,7.820446e-05,0.0,1.7505286e-05,3.210582e-06,0.0,0.0,0.0,0.0,0.0,0.0,0.0,0.0,0.0,4.4546005e-06,0.0,0.0,nan,0.0,0.0,3.460845e-05,0.0,0.0,0.0,0.0,0.0,0.0,0.0,0.0,0.0
21734688000,21734608000,8.52104e-05,0.0,0.0017651464,1.3449329e-05,0.0,0.0,0.0,0.0,0.0,0.0,0.0,0.0,0.0,2.7850263e-05,0.0,0.0,nan,0.0,0.0,3.517794e-05,0.0,0.0,0.0,0.0,0.0,0.0,0.0,0.0,0.0
21735192000,21735112000,0.00018063605,0.0,9.922553e-05,1.5016447e-05,0.0,0.0,0.0,0.0,0.0,0.0,0.0,0.0,0.0,5.719363e-06,0.0,0.0,nan,0.0,0.0,1.0597217e-05,0.0,0.0,0.0,0.0,0.0,0.0,0.0,0.0,0.0
21735688000,21735608000,0.0006184635,0.0,0.0005170658,3.432036e-05,0.0,0.0,0.0,0.0,0.0,0.0,0.0,0.0,0.0,2.4363877e-05,0.0,0.0,nan,0.0,0.0,0.0036553566,0.0,0.0,0.0,0.0,0.0,0.0,0.0,0.0,0.0
21736184000,21736104000,0.0006061742,0.0,0.0025041488,3.6283425e-05,0.0,0.0,0.0,0.0,0.0,0.0,0.0,0.0,0.0,5.1776806e-05,0.0,0.0,nan,0.0,0.0,0.0017573383,0.0,0.0,0.0,0.0,0.0,0.0,0.0,0.0,0.0
21736688000,21736608000,0.00042285488,0.0,0.000101982936,4.072477e-05,0.0,0.0,0.0,0.0,0.0,0.0,0.0,0.0,0.0,5.099431e-06,0.0,0.0,nan,0.0,0.0,0.00033786517,0.0,0.0,0.0,0.0,0.0,0.0,0.0,0.0,0.0
21737184000,21737104000,6.294175e-05,0.0,0.0006039651,3.8941456e-05,0.0,0.0,0.0,0.0,0.0,0.0,0.0,0.0,0.0,8.184804e-09,0.0,0.0,nan,0.0,0.0,0.0011536787,0.0,0.0,0.0,0.0,0.0,0.0,0.0,0.0,0.0
21737688000,21737608000,0.0002109305,0.0,7.106831e-05,5.0377592e-05,0.0,0.0,0.0,0.0,0.0,0.0,0.0,0.0,0.0,4.0442297e-05,0.0,0.0,nan,0.0,0.0,9.082282e-06,0.0,0.0,0.0,0.0,0.0,0.0,0.0,0.0,0.0
21738192000,21738112000,5.07706e-05,0.0,2.5064977e-05,5.2104726e-05,0.0,0.0,0.0,0.0,0.0,0.0,0.0,0.0,0.0,2.7258176e-05,0.0,0.0,nan,0.0,0.0,0.00052281417,0.0,0.0,0.0,0.0,0.0,0.0,0.0,0.0,0.0
21738688000,21738608000,9.2133356e-05,0.0,1.5077616e-05,5.7550253e-05,0.0,0.0,0.0,0.0,0.0,0.0,0.0,0.0,0.0,1.41052005e-05,0.0,0.0,nan,0.0,0.0,7.102811e-05,0.0,0.0,0.0,0.0,0.0,0.0,0.0,0.0,0.0
21739184000,21739104000,0.00023967314,0.0,0.00012806214,5.853486e-05,0.0,0.0,0.0,0.0,0.0,0.0,0.0,0.0,0.0,3.1625675e-07,0.0,0.0,nan,0.0,0.0,0.00021355117,0.0,0.0,0.0,0.0,0.0,0.0,0.0,0.0,0.0
21739688000,21739608000,0.008768298,0.0,0.0010575122,0.0001412538,0.0,0.0,0.0,0.0,0.0,0.0,0.0,0.0,0.0,0.00010275426,0.0,0.0,nan,0.0,0.0,0.0,0.00012730395,0.0,0.0,0.0,0.0,0.0,0.0,0.0,0.0
21740192000,21740112000,0.0022059544,0.0,0.0013385986,9.5426905e-05,0.0,0.0,0.0,0.0,0.0,0.0,0.0,0.0,0.0,0.00019879267,0.0,0.0,nan,0.0,0.0,0.0,8.699487e-05,0.0,0.0,0.0,0.0,0.0,0.0,0.0,0.0
21740688000,21740608000,0.0012390957,0.0,0.00022933808,1.5981303e-05,0.0,0.0,0.0,0.0,0.0,0.0,0.0,0.0,0.0,5.084303e-05,0.0,0.0,nan,0.0,0.0,0.0,0.00022776592,0.0,0.0,0.0,0.0,0.0,0.0,0.0,0.0
21741192000,21741112000,0.00097218197,0.0,0.000268157,2.0671385e-05,0.0,0.0,0.0,0.0,0.0,0.0,0.0,0.0,0.0,2.484346e-05,0.0,0.0,nan,0.0,0.0,0.0,0.0007283699,0.0,0.0,0.0,0.0,0.0,0.0,0.0,0.0
21741688000,21741608000,0.0005119576,0.0,0.0012098044,1.6328495e-05,0.0,0.0,0.0,0.0,0.0,0.0,0.0,0.0,0.0,0.00017718067,0.0,0.0,nan,0.0,0.0,0.0,6.3917556e-05,0.0,0.0,0.0,0.0,0.0,0.0,0.0,0.0
21742192000,21742112000,0.00024303442,0.0,7.970812e-05,1.4343283e-06,0.0,0.0,0.0,0.0,0.0,0.0,0.0,0.0,0.0,4.5605084e-05,0.0,0.0,nan,0.0,0.0,0.0,0.0009814771,0.0,0.0,0.0,0.0,0.0,0.0,0.0,0.0
21742688000,21742608000,0.0010013231,0.0,1.7133327e-05,5.169715e-06,0.0,0.0,0.0,0.0,0.0,0.0,0.0,0.0,0.0,7.9816666e-05,0.0,0.0,nan,0.0,0.0,0.0,7.221745e-05,0.0,0.0,0.0,0.0,0.0,0.0,0.0,0.0
21743192000,21743112000,0.0003194983,0.0,0.00027084057,3.8630893e-05,0.0,0.0,0.0,0.0,0.0,0.0,0.0,0.0,0.0,7.929533e-05,0.0,0.0,nan,0.0,0.0,0.0,0.0018022936,0.0,0.0,0.0,0.0,0.0,0.0,0.0,0.0
21743688000,21743608000,0.0006340976,0.0,0.0006189063,9.6345364e-05,0.0,0.0,0.0,0.0,0.0,0.0,0.0,0.0,0.0,3.848234e-05,0.0,0.0,nan,0.0,0.0,0.0,0.0008377512,0.0,0.0,0.0,0.0,0.0,0.0,0.0,0.0
21744192000,21744112000,0.00032748963,0.0,0.00026046424,1.0603026e-05,0.0,0.0,0.0,0.0,0.0,0.0,0.0,0.0,0.0,8.592248e-05,0.0,0.0,nan,0.0,0.0,0.0,0.00023599758,0.0,0.0,0.0,0.0,0.0,0.0,0.0,0.0
21744688000,21744608000,7.77751e-05,0.0,1.0052794e-05,0.0002119416,0.0,0.0,0.0,0.0,0.0,0.0,0.0,0.0,0.0,2.4974323e-05,0.0,0.0,nan,0.0,0.0,0.0,0.0012448521,0.0,0.0,0.0,0.0,0.0,0.0,0.0,0.0
21745184000,21745104000,1.6194186e-05,0.0,0.00022181953,5.9935413e-05,0.0,0.0,0.0,0.0,0.0,0.0,0.0,0.0,0.0,0.00010817702,0.0,0.0,nan,0.0,0.0,0.0,0.00014571554,0.0,0.0,0.0,0.0,0.0,0.0,0.0,0.0
21745688000,21745608000,0.0005786126,0.0,0.0010481958,9.122074e-05,0.0,0.0,0.0,0.0,0.0,0.0,0.0,0.0,0.0,7.143542e-05,0.0,0.0,nan,0.0,0.0,3.8184313e-05,0.0,0.0,0.0,0.0,0.0,0.0,0.0,0.0,0.0
21746192000,21746112000,6.285575e-05,0.0,0.0003283033,0.0003209157,0.0,0.0,0.0,0.0,0.0,0.0,0.0,0.0,0.0,2.5894502e-05,0.0,0.0,nan,0.0,0.0,1.8092695e-05,0.0,0.0,0.0,0.0,0.0,0.0,0.0,0.0,0.0
21746688000,21746608000,1.4418532e-05,0.0,2.3467639e-05,6.3117186e-05,0.0,0.0,0.0,0.0,0.0,0.0,0.0,0.0,0.0,3.7007827e-05,0.0,0.0,nan,0.0,0.0,0.00012997242,0.0,0.0,0.0,0.0,0.0,0.0,0.0,0.0,0.0
21747184000,21747104000,0.000571877,0.0,0.0002746333,7.128324e-05,0.0,0.0,0.0,0.0,0.0,0.0,0.0,0.0,0.0,2.4622119e-05,0.0,0.0,nan,0.0,0.0,2.8573918e-06,0.0,0.0,0.0,0.0,0.0,0.0,0.0,0.0,0.0
21747688000,21747608000,0.00028692317,0.0,0.0010304019,0.00014919076,0.0,0.0,0.0,0.0,0.0,0.0,0.0,0.0,0.0,1.4049601e-06,0.0,0.0,nan,0.0,0.0,0.0007863687,0.0,0.0,0.0,0.0,0.0,0.0,0.0,0.0,0.0
21748192000,21748112000,0.00027742374,0.0,8.6776035e-09,0.00016325635,0.0,0.0,0.0,0.0,0.0,0.0,0.0,0.0,0.0,3.9618477e-05,0.0,0.0,nan,0.0,0.0,9.717354e-05,0.0,0.0,0.0,0.0,0.0,0.0,0.0,0.0,0.0
21748688000,21748608000,0.00031449232,0.0,0.0007565177,0.00019171066,0.0,0.0,0.0,0.0,0.0,0.0,0.0,0.0,0.0,1.2051547e-06,0.0,0.0,nan,0.0,0.0,7.532049e-05,0.0,0.0,0.0,0.0,0.0,0.0,0.0,0.0,0.0
21749192000,21749112000,0.00032489697,0.0,0.000100248864,0.000117319825,0.0,0.0,0.0,0.0,0.0,0.0,0.0,0.0,0.0,9.002629e-07,0.0,0.0,nan,0.0,0.0,9.805392e-05,0.0,0.0,0.0,0.0,0.0,0.0,0.0,0.0,0.0
21749688000,21749608000,4.5164237e-05,0.0,0.00030190506,0.00018591953,0.0,0.0,0.0,0.0,0.0,0.0,0.0,0.0,0.0,1.4775628e-07,0.0,0.0,nan,0.0,0.0,2.092251e-05,0.0,0.0,0.0,0.0,0.0,0.0,0.0,0.0,0.0
21750184000,21750104000,0.00038647404,0.0,0.00017978335,0.00035674399,0.0,0.0,0.0,0.0,0.0,0.0,0.0,0.0,0.0,1.9185752e-06,0.0,0.0,nan,0.0,0.0,4.9371647e-05,0.0,0.0,0.0,0.0,0.0,0.0,0.0,0.0,0.0
21750688000,21750608000,9.899529e-06,0.0,0.00037820401,0.00018267702,0.0,0.0,0.0,0.0,0.0,0.0,0.0,0.0,0.0,1.5337595e-05,0.0,0.0,nan,0.0,0.0,2.0938864e-05,0.0,0.0,0.0,0.0,0.0,0.0,0.0,0.0,0.0
21751192000,21751112000,4.658407e-05,0.0,1.3139055e-06,0.00032302627,0.0,0.0,0.0,0.0,0.0,0.0,0.0,0.0,0.0,2.499096e-05,0.0,0.0,nan,0.0,0.0,5.484856e-06,0.0,0.0,0.0,0.0,0.0,0.0,0.0,0.0,0.0
21751688000,21751608000,9.3742965e-05,0.0,0.00014811702,0.00027421248,0.0,0.0,0.0,0.0,0.0,0.0,0.0,0.0,0.0,1.8411984e-05,0.0,0.0,nan,0.0,0.0,3.227618e-05,0.0,0.0,0.0,0.0,0.0,0.0,0.0,0.0,0.0
21752192000,21752112000,6.349553e-05,0.0,2.756907e-08,8.8283974e-05,0.0,0.0,0.0,0.0,0.0,0.0,0.0,0.0,0.0,2.950575e-06,0.0,0.0,nan,0.0,0.0,0.00019048559,0.0,0.0,0.0,0.0,0.0,0.0,0.0,0.0,0.0
21752688000,21752608000,0.00030026434,0.0,3.7518905e-05,0.0003078522,0.0,0.0,0.0,0.0,0.0,0.0,0.0,0.0,0.0,1.9265345e-07,0.0,0.0,nan,0.0,0.0,0.00014987402,0.0,0.0,0.0,0.0,0.0,0.0,0.0,0.0,0.0
21753192000,21753112000,0.0002548581,0.0,0.00036429465,0.00014405299,0.0,0.0,0.0,0.0,0.0,0.0,0.0,0.0,0.0,3.2333486e-05,0.0,0.0,nan,0.0,0.0,5.1281982e-05,0.0,0.0,0.0,0.0,0.0,0.0,0.0,0.0,0.0
21753688000,21753608000,0.00019562381,0.0,0.00014743781,0.00014904772,0.0,0.0,0.0,0.0,0.0,0.0,0.0,0.0,0.0,5.3489057e-05,0.0,0.0,nan,0.0,0.0,2.461418e-05,0.0,0.0,0.0,0.0,0.0,0.0,0.0,0.0,0.0
21754192000,21754112000,0.0010990027,0.0,0.000457203,0.00014954456,0.0,0.0,0.0,0.0,0.0,0.0,0.0,0.0,0.0,7.05897e-05,0.0,0.0,nan,0.0,0.0,0.00013792678,0.0,0.0,0.0,0.0,0.0,0.0,0.0,0.0,0.0
21754688000,21754608000,0.00036203428,0.0,7.452107e-05,4.483404e-05,0.0,0.0,0.0,0.0,0.0,0.0,0.0,0.0,0.0,2.1531346e-07,0.0,0.0,nan,0.0,0.0,2.2930752e-05,0.0,0.0,0.0,0.0,0.0,0.0,0.0,0.0,0.0
21755184000,21755104000,0.00070236006,0.0,0.00087392033,0.0001259803,0.0,0.0,0.0,0.0,0.0,0.0,0.0,0.0,0.0,3.0501474e-07,0.0,0.0,nan,0.0,0.0,0.00019910636,0.0,0.0,0.0,0.0,0.0,0.0,0.0,0.0,0.0
21755688000,21755608000,0.0015243508,0.0,0.00032365412,8.272168e-05,0.0,0.0,0.0,0.0,0.0,0.0,0.0,0.0,0.0,1.9209432e-05,0.0,0.0,nan,0.0,0.0,1.4238778e-06,0.0,0.0,0.0,0.0,0.0,0.0,0.0,0.0,0.0
21756192000,21756112000,0.0012223758,0.0,0.0012402817,0.00035820217,0.0,0.0,0.0,0.0,0.0,0.0,0.0,0.0,0.0,0.00010161914,0.0,0.0,nan,0.0,0.0,0.00021157789,0.0,0.0,0.0,0.0,0.0,0.0,0.0,0.0,0.0
21756688000,21756608000,0.0012867321,0.0,0.0012899436,0.00011163928,0.0,0.0,0.0,0.0,0.0,0.0,0.0,0.0,0.0,2.6919881e-06,0.0,0.0,nan,0.0,0.0,3.783337e-05,0.0,0.0,0.0,0.0,0.0,0.0,0.0,0.0,0.0
21757192000,21757112000,0.001045044,0.0,0.0014097204,7.783765e-05,0.0,0.0,0.0,0.0,0.0,0.0,0.0,0.0,0.0,2.6985537e-11,0.0,0.0,nan,0.0,0.0,5.652596e-05,0.0,0.0,0.0,0.0,0.0,0.0,0.0,0.0,0.0
21757688000,21757608000,0.00061534723,0.0,0.001647937,7.7482575e-05,0.0,0.0,0.0,0.0,0.0,0.0,0.0,0.0,0.0,2.8815843e-05,0.0,0.0,nan,0.0,0.0,1.411826e-05,0.0,0.0,0.0,0.0,0.0,0.0,0.0,0.0,0.0
21758192000,21758112000,0.00086622813,0.0,0.0012379221,0.0003087132,0.0,0.0,0.0,0.0,0.0,0.0,0.0,0.0,0.0,4.5766824e-06,0.0,0.0,nan,0.0,0.0,3.284995e-05,0.0,0.0,0.0,0.0,0.0,0.0,0.0,0.0,0.0
21758688000,21758608000,0.00043840788,0.0,0.0014682463,0.00020717924,0.0,0.0,0.0,0.0,0.0,0.0,0.0,0.0,0.0,2.218926e-05,0.0,0.0,nan,0.0,0.0,0.00036083072,0.0,0.0,0.0,0.0,0.0,0.0,0.0,0.0,0.0
21759192000,21759112000,0.00035620332,0.0,0.0002023932,8.704893e-05,0.0,0.0,0.0,0.0,0.0,0.0,0.0,0.0,0.0,0.0001072159,0.0,0.0,nan,0.0,0.0,2.3725883e-05,0.0,0.0,0.0,0.0,0.0,0.0,0.0,0.0,0.0
21759688000,21759608000,0.00031553837,0.0,0.0015121199,0.000114166156,0.0,0.0,0.0,0.0,0.0,0.0,0.0,0.0,0.0,3.8482587e-05,0.0,0.0,nan,0.0,0.0,8.178433e-05,0.0,0.0,0.0,0.0,0.0,0.0,0.0,0.0,0.0
21760184000,21760104000,0.0002052043,0.0,0.0024832769,0.0001624031,0.0,0.0,0.0,0.0,0.0,0.0,0.0,0.0,0.0,2.9138468e-05,0.0,0.0,nan,0.0,0.0,6.2454914e-05,0.0,0.0,0.0,0.0,0.0,0.0,0.0,0.0,0.0
21760688000,21760608000,0.00050114916,0.0,0.003865928,0.00013844363,0.0,0.0,0.0,0.0,0.0,0.0,0.0,0.0,0.0,7.071668e-05,0.0,0.0,nan,0.0,0.0,0.00018020612,0.0,0.0,0.0,0.0,0.0,0.0,0.0,0.0,0.0
21761192000,21761112000,0.0002279465,0.0,0.0012059313,0.00014267191,0.0,0.0,0.0,0.0,0.0,0.0,0.0,0.0,0.0,9.163201e-06,0.0,0.0,nan,0.0,0.0,4.312583e-07,0.0,0.0,0.0,0.0,0.0,0.0,0.0,0.0,0.0
21761688000,21761608000,0.0001392031,0.0,0.00090266863,0.00012816025,0.0,0.0,0.0,0.0,0.0,0.0,0.0,0.0,0.0,7.1746515e-05,0.0,0.0,nan,0.0,0.0,4.8947586e-05,0.0,0.0,0.0,0.0,0.0,0.0,0.0,0.0,0.0
21762184000,21762104000,0.00042005404,0.0,0.0014634016,0.00025091367,0.0,0.0,0.0,0.0,0.0,0.0,0.0,0.0,0.0,0.00015715229,0.0,0.0,nan,0.0,0.0,0.00077057694,0.0,0.0,0.0,0.0,0.0,0.0,0.0,0.0,0.0
21762688000,21762608000,0.0008973565,0.0,0.0010223534,0.0001314062,0.0,0.0,0.0,0.0,0.0,0.0,0.0,0.0,0.0,9.887855e-05,0.0,0.0,nan,0.0,0.0,9.134369e-05,0.0,0.0,0.0,0.0,0.0,0.0,0.0,0.0,0.0
21763192000,21763112000,2.2602964e-05,0.0,5.1988685e-05,0.00014249168,0.0,0.0,0.0,0.0,0.0,0.0,0.0,0.0,0.0,5.1775034e-05,0.0,0.0,nan,0.0,0.0,2.3005987e-05,0.0,0.0,0.0,0.0,0.0,0.0,0.0,0.0,0.0
21763688000,21763608000,0.00047723786,0.0,0.0006217786,9.957144e-05,0.0,0.0,0.0,0.0,0.0,0.0,0.0,0.0,0.0,0.00010957984,0.0,0.0,nan,0.0,0.0,5.842554e-05,0.0,0.0,0.0,0.0,0.0,0.0,0.0,0.0,0.0
21764192000,21764112000,0.00024132819,0.0,0.0007958115,0.00010498981,0.0,0.0,0.0,0.0,0.0,0.0,0.0,0.0,0.0,6.654728e-05,0.0,0.0,nan,0.0,0.0,0.00014942914,0.0,0.0,0.0,0.0,0.0,0.0,0.0,0.0,0.0
21764688000,21764608000,6.9257774e-05,0.0,0.00011883775,6.3556865e-05,0.0,0.0,0.0,0.0,0.0,0.0,0.0,0.0,0.0,0.00036312017,0.0,0.0,nan,0.0,0.0,0.00044772917,0.0,0.0,0.0,0.0,0.0,0.0,0.0,0.0,0.0
21765192000,21765112000,0.00031333198,0.0,0.00036670655,6.966079e-05,0.0,0.0,0.0,0.0,0.0,0.0,0.0,0.0,0.0,0.00025773738,0.0,0.0,nan,0.0,0.0,0.00019313519,0.0,0.0,0.0,0.0,0.0,0.0,0.0,0.0,0.0
21765688000,21765608000,0.00022338399,0.0,0.0006471736,0.00018092692,0.0,0.0,0.0,0.0,0.0,0.0,0.0,0.0,0.0,4.5682857e-05,0.0,0.0,nan,0.0,0.0,0.000613023,0.0,0.0,0.0,0.0,0.0,0.0,0.0,0.0,0.0
21766192000,21766112000,0.00016467815,0.0,2.051678e-05,0.00021835488,0.0,0.0,0.0,0.0,0.0,0.0,0.0,0.0,0.0,2.327333e-05,0.0,0.0,nan,0.0,0.0,1.0645163e-05,0.0,0.0,0.0,0.0,0.0,0.0,0.0,0.0,0.0
21766688000,21766608000,6.7428623e-06,0.0,0.00053146365,0.00016408881,0.0,0.0,0.0,0.0,0.0,0.0,0.0,0.0,0.0,5.0528903e-05,0.0,0.0,nan,0.0,0.0,0.00042177914,0.0,0.0,0.0,0.0,0.0,0.0,0.0,0.0,0.0
21767184000,21767104000,0.00027299736,0.0,1.73208e-06,4.5553326e-05,0.0,0.0,0.0,0.0,0.0,0.0,0.0,0.0,0.0,1.4462113e-06,0.0,0.0,nan,0.0,0.0,0.0001280267,0.0,0.0,0.0,0.0,0.0,0.0,0.0,0.0,0.0
21767688000,21767608000,1.2113298e-05,0.0,0.001130089,0.00015273764,0.0,0.0,0.0,0.0,0.0,0.0,0.0,0.0,0.0,6.015706e-05,0.0,0.0,nan,0.0,0.0,0.00044547222,0.0,0.0,0.0,0.0,0.0,0.0,0.0,0.0,0.0
21768184000,21768104000,1.2189903e-05,0.0,5.0772738e-05,0.00019720725,0.0,0.0,0.0,0.0,0.0,0.0,0.0,0.0,0.0,7.3068986e-05,0.0,0.0,nan,0.0,0.0,1.6844062e-05,0.0,0.0,0.0,0.0,0.0,0.0,0.0,0.0,0.0
21768688000,21768608000,0.00011089567,0.0,0.0014041341,0.000106911866,0.0,0.0,0.0,0.0,0.0,0.0,0.0,0.0,0.0,4.93189e-05,0.0,0.0,nan,0.0,0.0,0.00066346227,0.0,0.0,0.0,0.0,0.0,0.0,0.0,0.0,0.0
21769192000,21769112000,0.00039117117,0.0,4.190531e-05,0.00036638163,0.0,0.0,0.0,0.0,0.0,0.0,0.0,0.0,0.0,1.166222e-05,0.0,0.0,nan,0.0,0.0,2.4123305e-05,0.0,0.0,0.0,0.0,0.0,0.0,0.0,0.0,0.0
21769688000,21769608000,9.5476884e-05,0.0,0.0004880211,0.0001861139,0.0,0.0,0.0,0.0,0.0,0.0,0.0,0.0,0.0,9.898424e-07,0.0,0.0,nan,0.0,0.0,7.980125e-06,0.0,0.0,0.0,0.0,0.0,0.0,0.0,0.0,0.0
21770192000,21770112000,2.3553646e-06,0.0,0.0004174503,0.000268744,0.0,0.0,0.0,0.0,0.0,0.0,0.0,0.0,0.0,6.5675005e-05,0.0,0.0,nan,0.0,0.0,0.00022521973,0.0,0.0,0.0,0.0,0.0,0.0,0.0,0.0,0.0
21770688000,21770608000,0.00053856714,0.0,0.0002834018,8.163184e-05,0.0,0.0,0.0,0.0,0.0,0.0,0.0,0.0,0.0,1.2881632e-05,0.0,0.0,nan,0.0,0.0,1.9072406e-06,0.0,0.0,0.0,0.0,0.0,0.0,0.0,0.0,0.0
21771192000,21771112000,0.00028067396,0.0,5.5159885e-06,7.9837715e-05,0.0,0.0,0.0,0.0,0.0,0.0,0.0,0.0,0.0,4.2002255e-05,0.0,0.0,nan,0.0,0.0,0.00027994267,0.0,0.0,0.0,0.0,0.0,0.0,0.0,0.0,0.0
21771688000,21771608000,0.0008045042,0.0,0.00012295344,0.00019497477,0.0,0.0,0.0,0.0,0.0,0.0,0.0,0.0,0.0,9.139316e-06,0.0,0.0,nan,0.0,0.0,0.0005226944,0.0,0.0,0.0,0.0,0.0,0.0,0.0,0.0,0.0
21772184000,21772104000,0.00044399485,0.0,1.4462071e-05,0.0003372643,0.0,0.0,0.0,0.0,0.0,0.0,0.0,0.0,0.0,8.733115e-06,0.0,0.0,nan,0.0,0.0,0.0002262791,0.0,0.0,0.0,0.0,0.0,0.0,0.0,0.0,0.0
21772688000,21772608000,0.001075226,0.0,7.4904856e-06,0.00024025078,0.0,0.0,0.0,0.0,0.0,0.0,0.0,0.0,0.0,2.1463313e-07,0.0,0.0,nan,0.0,0.0,3.924642e-06,0.0,0.0,0.0,0.0,0.0,0.0,0.0,0.0,0.0
21773184000,21773104000,0.0003680157,0.0,0.00020427402,0.00032990403,0.0,0.0,0.0,0.0,0.0,0.0,0.0,0.0,0.0,3.9485e-06,0.0,0.0,nan,0.0,0.0,0.00062345533,0.0,0.0,0.0,0.0,0.0,0.0,0.0,0.0,0.0
21773688000,21773608000,0.0007532155,0.0,2.8846009e-05,0.00026998908,0.0,0.0,0.0,0.0,0.0,0.0,0.0,0.0,0.0,1.6711534e-05,0.0,0.0,nan,0.0,0.0,6.658182e-06,0.0,0.0,0.0,0.0,0.0,0.0,0.0,0.0,0.0
21774192000,21774112000,0.000109868386,0.0,1.6577327e-05,0.00045485652,0.0,0.0,0.0,0.0,0.0,0.0,0.0,0.0,0.0,1.4465444e-06,0.0,0.0,nan,0.0,0.0,1.993742e-05,0.0,0.0,0.0,0.0,0.0,0.0,0.0,0.0,0.0
21774688000,21774608000,0.0001368961,0.0,0.00012491702,0.00028123707,0.0,0.0,0.0,0.0,0.0,0.0,0.0,0.0,0.0,5.07213e-06,0.0,0.0,nan,0.0,0.0,0.00032467922,0.0,0.0,0.0,0.0,0.0,0.0,0.0,0.0,0.0
21775192000,21775112000,0.001699457,0.0,0.00027837156,0.00033165413,0.0,0.0,0.0,0.0,0.0,0.0,0.0,0.0,0.0,1.1755863e-05,0.0,0.0,nan,0.0,0.0,0.00025554854,0.0,0.0,0.0,0.0,0.0,0.0,0.0,0.0,0.0
21775688000,21775608000,0.00032433803,0.0,9.564918e-05,0.00027110951,0.0,0.0,0.0,0.0,0.0,0.0,0.0,0.0,0.0,1.5724595e-07,0.0,0.0,nan,0.0,0.0,6.5615723e-06,0.0,0.0,0.0,0.0,0.0,0.0,0.0,0.0,0.0
21776192000,21776112000,0.00057338004,0.0,0.000559796,0.0003509031,0.0,0.0,0.0,0.0,0.0,0.0,0.0,0.0,0.0,6.163766e-05,0.0,0.0,nan,0.0,0.0,9.394239e-07,0.0,0.0,0.0,0.0,0.0,0.0,0.0,0.0,0.0
21776688000,21776608000,0.00020647339,0.0,0.0006976051,0.00015026711,0.0,0.0,0.0,0.0,0.0,0.0,0.0,0.0,0.0,9.092013e-06,0.0,0.0,nan,0.0,0.0,0.0002019344,0.0,0.0,0.0,0.0,0.0,0.0,0.0,0.0,0.0
21777184000,21777104000,0.00029756528,0.0,9.484791e-05,0.00029616788,0.0,0.0,0.0,0.0,0.0,0.0,0.0,0.0,0.0,1.441922e-06,0.0,0.0,nan,0.0,0.0,7.591919e-05,0.0,0.0,0.0,0.0,0.0,0.0,0.0,0.0,0.0
21777688000,21777608000,0.0009071545,0.0,0.0014519579,0.0006451344,0.0,0.0,0.0,0.0,0.0,0.0,0.0,0.0,0.0,5.4489956e-05,0.0,0.0,nan,0.0,0.0,3.091169e-05,0.0,0.0,0.0,0.0,0.0,0.0,0.0,0.0,0.0
21778192000,21778112000,0.0009020181,0.0,0.0005541594,0.00058218284,0.0,0.0,0.0,0.0,0.0,0.0,0.0,0.0,0.0,5.2524763e-07,0.0,0.0,nan,0.0,0.0,2.4212015e-05,0.0,0.0,0.0,0.0,0.0,0.0,0.0,0.0,0.0
21778688000,21778608000,0.0007284157,0.0,4.8768405e-05,0.000115640505,0.0,0.0,0.0,0.0,0.0,0.0,0.0,0.0,0.0,5.5384585e-06,0.0,0.0,nan,0.0,0.0,0.00053272385,0.0,0.0,0.0,0.0,0.0,0.0,0.0,0.0,0.0
21779192000,21779112000,0.002311241,0.0,0.00040522468,0.0005852184,0.0,0.0,0.0,0.0,0.0,0.0,0.0,0.0,0.0,2.2366448e-05,0.0,0.0,nan,0.0,0.0,6.380932e-07,0.0,0.0,0.0,0.0,0.0,0.0,0.0,0.0,0.0
21779688000,21779608000,4.2393858e-05,0.0,0.0016527685,0.00014784282,0.0,0.0,0.0,0.0,0.0,0.0,0.0,0.0,0.0,5.493739e-07,0.0,0.0,nan,0.0,0.0,0.00010161143,0.0,0.0,0.0,0.0,0.0,0.0,0.0,0.0,0.0
21780184000,21780104000,0.0006803948,0.0,0.0011934234,0.0004917748,0.0,0.0,0.0,0.0,0.0,0.0,0.0,0.0,0.0,2.3992534e-06,0.0,0.0,nan,0.0,0.0,7.793105e-05,0.0,0.0,0.0,0.0,0.0,0.0,0.0,0.0,0.0
21780688000,21780608000,0.00027235658,0.0,0.00075563847,0.00017814744,0.0,0.0,0.0,0.0,0.0,0.0,0.0,0.0,0.0,2.267686e-06,0.0,0.0,nan,0.0,0.0,0.0022192516,0.0,0.0,0.0,0.0,0.0,0.0,0.0,0.0,0.0
21781184000,21781104000,0.0013935781,0.0,0.00089838385,0.0001924217,0.0,0.0,0.0,0.0,0.0,0.0,0.0,0.0,0.0,9.109145e-06,0.0,0.0,nan,0.0,0.0,0.00018818406,0.0,0.0,0.0,0.0,0.0,0.0,0.0,0.0,0.0
21781688000,21781608000,0.0004930719,0.0,0.00013629161,0.0003199629,0.0,0.0,0.0,0.0,0.0,0.0,0.0,0.0,0.0,4.780439e-06,0.0,0.0,nan,0.0,0.0,2.119847e-05,0.0,0.0,0.0,0.0,0.0,0.0,0.0,0.0,0.0
21782192000,21782112000,0.00070998847,0.0,1.566033e-07,0.00015211232,0.0,0.0,0.0,0.0,0.0,0.0,0.0,0.0,0.0,5.5996014e-05,0.0,0.0,nan,0.0,0.0,0.00010399506,0.0,0.0,0.0,0.0,0.0,0.0,0.0,0.0,0.0
21782688000,21782608000,0.0009218799,0.0,0.00021433459,0.00030331325,0.0,0.0,0.0,0.0,0.0,0.0,0.0,0.0,0.0,2.8190743e-05,0.0,0.0,nan,0.0,0.0,0.0006397124,0.0,0.0,0.0,0.0,0.0,0.0,0.0,0.0,0.0
21783184000,21783104000,0.00031558686,0.0,0.00019611596,0.00022967026,0.0,0.0,0.0,0.0,0.0,0.0,0.0,0.0,0.0,3.6977133e-05,0.0,0.0,nan,0.0,0.0,0.0002500734,0.0,0.0,0.0,0.0,0.0,0.0,0.0,0.0,0.0
21783688000,21783608000,0.00014401457,0.0,9.994619e-07,0.00040572105,0.0,0.0,0.0,0.0,0.0,0.0,0.0,0.0,0.0,1.9960679e-07,0.0,0.0,nan,0.0,0.0,2.0085413e-06,0.0,0.0,0.0,0.0,0.0,0.0,0.0,0.0,0.0
21784184000,21784104000,0.00031167784,0.0,0.00038582314,0.0001193307,0.0,0.0,0.0,0.0,0.0,0.0,0.0,0.0,0.0,2.8425971e-05,0.0,0.0,nan,0.0,0.0,1.9084056e-05,0.0,0.0,0.0,0.0,0.0,0.0,0.0,0.0,0.0
21784688000,21784608000,0.00012530794,0.0,2.4463858e-05,0.00017868045,0.0,0.0,0.0,0.0,0.0,0.0,0.0,0.0,0.0,1.1422661e-05,0.0,0.0,nan,0.0,0.0,3.4899946e-05,0.0,0.0,0.0,0.0,0.0,0.0,0.0,0.0,0.0
21785192000,21785112000,0.00082815945,0.0,0.00018872322,0.00021768405,0.0,0.0,0.0,0.0,0.0,0.0,0.0,0.0,0.0,3.2429632e-06,0.0,0.0,nan,0.0,0.0,0.00010922781,0.0,0.0,0.0,0.0,0.0,0.0,0.0,0.0,0.0
21785688000,21785608000,4.8156173e-05,0.0,0.001783928,0.00038614895,0.0,0.0,0.0,0.0,0.0,0.0,0.0,0.0,0.0,9.658322e-07,0.0,0.0,nan,0.0,0.0,0.00042968558,0.0,0.0,0.0,0.0,0.0,0.0,0.0,0.0,0.0
21786192000,21786112000,0.00030817004,0.0,0.00065079203,0.00036220753,0.0,0.0,0.0,0.0,0.0,0.0,0.0,0.0,0.0,3.3053684e-06,0.0,0.0,nan,0.0,0.0,0.0004955448,0.0,0.0,0.0,0.0,0.0,0.0,0.0,0.0,0.0
21786688000,21786608000,6.959788e-05,0.0,0.0005340571,0.00014204322,0.0,0.0,0.0,0.0,0.0,0.0,0.0,0.0,0.0,6.0405535e-05,0.0,0.0,nan,0.0,0.0,4.1182193e-05,0.0,0.0,0.0,0.0,0.0,0.0,0.0,0.0,0.0
21787192000,21787112000,0.00013133725,0.0,0.0009900392,0.00013224366,0.0,0.0,0.0,0.0,0.0,0.0,0.0,0.0,0.0,5.936733e-06,0.0,0.0,nan,0.0,0.0,3.414498e-06,0.0,0.0,0.0,0.0,0.0,0.0,0.0,0.0,0.0
21787688000,21787608000,0.0006127255,0.0,0.0014384846,0.00041218154,0.0,0.0,0.0,0.0,0.0,0.0,0.0,0.0,0.0,3.9515046e-05,0.0,0.0,nan,0.0,0.0,0.00022003958,0.0,0.0,0.0,0.0,0.0,0.0,0.0,0.0,0.0
21788192000,21788112000,0.00038575247,0.0,0.00056996103,0.00035562602,0.0,0.0,0.0,0.0,0.0,0.0,0.0,0.0,0.0,1.3924791e-05,0.0,0.0,nan,0.0,0.0,0.0013297027,0.0,0.0,0.0,0.0,0.0,0.0,0.0,0.0,0.0
21788688000,21788608000,0.00019691394,0.0,0.00075619575,0.00022778742,0.0,0.0,0.0,0.0,0.0,0.0,0.0,0.0,0.0,1.0261881e-07,0.0,0.0,nan,0.0,0.0,7.368826e-05,0.0,0.0,0.0,0.0,0.0,0.0,0.0,0.0,0.0
21789184000,21789104000,5.1642386e-05,0.0,0.0013341205,0.00012641004,0.0,0.0,0.0,0.0,0.0,0.0,0.0,0.0,0.0,3.1107156e-05,0.0,0.0,nan,0.0,0.0,8.606265e-06,0.0,0.0,0.0,0.0,0.0,0.0,0.0,0.0,0.0
21789688000,21789608000,0.0002785229,0.0,0.0027668858,0.00012934074,0.0,0.0,0.0,0.0,0.0,0.0,0.0,0.0,0.0,1.8106371e-06,0.0,0.0,nan,0.0,0.0,0.000160853,0.0,0.0,0.0,0.0,0.0,0.0,0.0,0.0,0.0
21790192000,21790112000,0.00022130198,0.0,0.0006057345,0.0002442868,0.0,0.0,0.0,0.0,0.0,0.0,0.0,0.0,0.0,4.240703e-05,0.0,0.0,nan,0.0,0.0,0.0001820137,0.0,0.0,0.0,0.0,0.0,0.0,0.0,0.0,0.0
21790688000,21790608000,2.3071692e-05,0.0,0.00038997148,0.00022116571,0.0,0.0,0.0,0.0,0.0,0.0,0.0,0.0,0.0,1.6845064e-05,0.0,0.0,nan,0.0,0.0,0.00022466778,0.0,0.0,0.0,0.0,0.0,0.0,0.0,0.0,0.0
21791184000,21791104000,0.00022009657,0.0,0.0009156183,0.00022876919,0.0,0.0,0.0,0.0,0.0,0.0,0.0,0.0,0.0,3.5923855e-05,0.0,0.0,nan,0.0,0.0,0.00022931366,0.0,0.0,0.0,0.0,0.0,0.0,0.0,0.0,0.0
21791688000,21791608000,5.693458e-05,0.0,0.0021534427,0.00052286906,0.0,0.0,0.0,0.0,0.0,0.0,0.0,0.0,0.0,6.9009904e-05,0.0,0.0,nan,0.0,0.0,4.8842416e-05,0.0,0.0,0.0,0.0,0.0,0.0,0.0,0.0,0.0
21792192000,21792112000,1.059537e-06,0.0,3.2606575e-05,0.00018450471,0.0,0.0,0.0,0.0,0.0,0.0,0.0,0.0,0.0,0.00019168083,0.0,0.0,nan,0.0,0.0,0.001628094,0.0,0.0,0.0,0.0,0.0,0.0,0.0,0.0,0.0
21792688000,21792608000,0.00022252006,0.0,0.0013551973,0.0002074256,0.0,0.0,0.0,0.0,0.0,0.0,0.0,0.0,0.0,7.5427624e-06,0.0,0.0,nan,0.0,0.0,3.6509468e-07,0.0,0.0,0.0,0.0,0.0,0.0,0.0,0.0,0.0
21793192000,21793112000,0.0004111109,0.0,0.00034339563,0.00016932035,0.0,0.0,0.0,0.0,0.0,0.0,0.0,0.0,0.0,5.7525587e-05,0.0,0.0,nan,0.0,0.0,0.0036000032,0.0,0.0,0.0,0.0,0.0,0.0,0.0,0.0,0.0
21793688000,21793608000,1.969242e-05,0.0,0.0014177662,2.9456973e-05,0.0,0.0,0.0,0.0,0.0,0.0,0.0,0.0,0.0,9.599561e-06,0.0,0.0,nan,0.0,0.0,0.00029429264,0.0,0.0,0.0,0.0,0.0,0.0,0.0,0.0,0.0
21794184000,21794104000,0.00013788645,0.0,0.0014168714,0.00013291027,0.0,0.0,0.0,0.0,0.0,0.0,0.0,0.0,0.0,5.0846393e-05,0.0,0.0,nan,0.0,0.0,5.3993677e-05,0.0,0.0,0.0,0.0,0.0,0.0,0.0,0.0,0.0
21794688000,21794608000,0.0002310562,0.0,0.00033693048,8.284094e-05,0.0,0.0,0.0,0.0,0.0,0.0,0.0,0.0,0.0,6.730236e-06,0.0,0.0,nan,0.0,0.0,0.00040465657,0.0,0.0,0.0,0.0,0.0,0.0,0.0,0.0,0.0
21795192000,21795112000,0.00033361698,0.0,0.0008990027,0.00010527073,0.0,0.0,0.0,0.0,0.0,0.0,0.0,0.0,0.0,4.5079698e-05,0.0,0.0,nan,0.0,0.0,0.000503125,0.0,0.0,0.0,0.0,0.0,0.0,0.0,0.0,0.0
21795688000,21795608000,0.00045506933,0.0,0.0010405265,0.00035296805,0.0,0.0,0.0,0.0,0.0,0.0,0.0,0.0,0.0,5.2523505e-05,0.0,0.0,nan,0.0,0.0,4.024391e-05,0.0,0.0,0.0,0.0,0.0,0.0,0.0,0.0,0.0
21796184000,21796104000,0.0007754854,0.0,2.874467e-05,0.00023326527,0.0,0.0,0.0,0.0,0.0,0.0,0.0,0.0,0.0,2.6167889e-05,0.0,0.0,nan,0.0,0.0,0.0002569692,0.0,0.0,0.0,0.0,0.0,0.0,0.0,0.0,0.0
21796688000,21796608000,0.0005765615,0.0,9.697348e-05,8.121752e-05,0.0,0.0,0.0,0.0,0.0,0.0,0.0,0.0,0.0,1.8574389e-06,0.0,0.0,nan,0.0,0.0,0.00033177383,0.0,0.0,0.0,0.0,0.0,0.0,0.0,0.0,0.0
21797192000,21797112000,0.001194725,0.0,0.00017866737,0.00013688667,0.0,0.0,0.0,0.0,0.0,0.0,0.0,0.0,0.0,4.22832e-05,0.0,0.0,nan,0.0,0.0,0.00023037553,0.0,0.0,0.0,0.0,0.0,0.0,0.0,0.0,0.0
21797688000,21797608000,0.0012245704,0.0,4.8925405e-05,0.00021911788,0.0,0.0,0.0,0.0,0.0,0.0,0.0,0.0,0.0,2.2848755e-05,0.0,0.0,nan,0.0,0.0,6.113531e-06,0.0,0.0,0.0,0.0,0.0,0.0,0.0,0.0,0.0
21798184000,21798104000,0.001094572,0.0,0.00021569697,0.00043954994,0.0,0.0,0.0,0.0,0.0,0.0,0.0,0.0,0.0,9.5106116e-05,0.0,0.0,nan,0.0,0.0,2.3509849e-05,0.0,0.0,0.0,0.0,0.0,0.0,0.0,0.0,0.0
21798688000,21798608000,0.00048383512,0.0,0.00016893522,0.00021075542,0.0,0.0,0.0,0.0,0.0,0.0,0.0,0.0,0.0,2.0937023e-05,0.0,0.0,nan,0.0,0.0,0.00017506398,0.0,0.0,0.0,0.0,0.0,0.0,0.0,0.0,0.0
21799192000,21799112000,0.0011631056,0.0,5.73168e-06,0.00023343597,0.0,0.0,0.0,0.0,0.0,0.0,0.0,0.0,0.0,5.188801e-05,0.0,0.0,nan,0.0,0.0,1.2376814e-05,0.0,0.0,0.0,0.0,0.0,0.0,0.0,0.0,0.0
21799688000,21799608000,0.00085967494,0.0,9.820768e-06,0.00016136088,0.0,0.0,0.0,0.0,0.0,0.0,0.0,0.0,0.0,5.295579e-05,0.0,0.0,nan,0.0,0.0,0.00035748264,0.0,0.0,0.0,0.0,0.0,0.0,0.0,0.0,0.0
21800184000,21800104000,0.0022045064,0.0,1.6649219e-06,0.00014954548,0.0,0.0,0.0,0.0,0.0,0.0,0.0,0.0,0.0,1.863922e-05,0.0,0.0,nan,0.0,0.0,2.9054228e-05,0.0,0.0,0.0,0.0,0.0,0.0,0.0,0.0,0.0
21800688000,21800608000,0.0006385401,0.0,3.9780425e-05,0.00040371926,0.0,0.0,0.0,0.0,0.0,0.0,0.0,0.0,0.0,8.731956e-05,0.0,0.0,nan,0.0,0.0,3.633268e-05,0.0,0.0,0.0,0.0,0.0,0.0,0.0,0.0,0.0
21801184000,21801104000,0.0019923663,0.0,0.00010587684,0.00056533224,0.0,0.0,0.0,0.0,0.0,0.0,0.0,0.0,0.0,1.2639121e-05,0.0,0.0,nan,0.0,0.0,2.174032e-06,0.0,0.0,0.0,0.0,0.0,0.0,0.0,0.0,0.0
21801688000,21801608000,0.0025996726,0.0,0.00021512495,0.00060593704,0.0,0.0,0.0,0.0,0.0,0.0,0.0,0.0,0.0,2.6552204e-06,0.0,0.0,nan,0.0,0.0,8.9433495e-05,0.0,0.0,0.0,0.0,0.0,0.0,0.0,0.0,0.0
21802192000,21802112000,0.0018689723,0.0,2.8637261e-05,0.00031299324,0.0,0.0,0.0,0.0,0.0,0.0,0.0,0.0,0.0,1.0229168e-05,0.0,0.0,nan,0.0,0.0,0.00015213886,0.0,0.0,0.0,0.0,0.0,0.0,0.0,0.0,0.0
21802688000,21802608000,0.001480067,0.0,0.00024100594,0.0003220065,0.0,0.0,0.0,0.0,0.0,0.0,0.0,0.0,0.0,2.683525e-06,0.0,0.0,nan,0.0,0.0,0.00014021619,0.0,0.0,0.0,0.0,0.0,0.0,0.0,0.0,0.0
21803192000,21803112000,0.002815832,0.0,8.67338e-05,0.000647965,0.0,0.0,0.0,0.0,0.0,0.0,0.0,0.0,0.0,2.6324904e-06,0.0,0.0,nan,0.0,0.0,6.487684e-05,0.0,0.0,0.0,0.0,0.0,0.0,0.0,0.0,0.0
21803688000,21803608000,0.0009945744,0.0,0.00052720704,0.0004731563,0.0,0.0,0.0,0.0,0.0,0.0,0.0,0.0,0.0,1.6004637e-07,0.0,0.0,nan,0.0,0.0,4.253499e-05,0.0,0.0,0.0,0.0,0.0,0.0,0.0,0.0,0.0
21804184000,21804104000,0.0016640197,0.0,3.98109e-05,0.00044502315,0.0,0.0,0.0,0.0,0.0,0.0,0.0,0.0,0.0,2.8765518e-05,0.0,0.0,nan,0.0,0.0,4.8918104e-05,0.0,0.0,0.0,0.0,0.0,0.0,0.0,0.0,0.0
21804688000,21804608000,0.0008838434,0.0,0.0003946941,0.00028505176,0.0,0.0,0.0,0.0,0.0,0.0,0.0,0.0,0.0,1.1528556e-06,0.0,0.0,nan,0.0,0.0,0.00060788606,0.0,0.0,0.0,0.0,0.0,0.0,0.0,0.0,0.0
21805192000,21805112000,0.0009651934,0.0,0.0005391405,0.00046491035,0.0,0.0,0.0,0.0,0.0,0.0,0.0,0.0,0.0,2.0178319e-05,0.0,0.0,nan,0.0,0.0,0.00040159273,0.0,0.0,0.0,0.0,0.0,0.0,0.0,0.0,0.0
21805688000,21805608000,0.0012433245,0.0,1.130674e-05,0.00039506127,0.0,0.0,0.0,0.0,0.0,0.0,0.0,0.0,0.0,2.7234134e-06,0.0,0.0,nan,0.0,0.0,0.00021463705,0.0,0.0,0.0,0.0,0.0,0.0,0.0,0.0,0.0
21806192000,21806112000,0.0005005918,0.0,0.0002636634,0.00036480164,0.0,0.0,0.0,0.0,0.0,0.0,0.0,0.0,0.0,8.71635e-06,0.0,0.0,nan,0.0,0.0,4.5167268e-05,0.0,0.0,0.0,0.0,0.0,0.0,0.0,0.0,0.0
21806688000,21806608000,0.005293443,0.0,0.015151466,0.00050814106,0.0,0.0,0.0,0.0,0.0,0.0,0.0,0.0,0.0,3.234866e-05,0.0,0.0,nan,0.0,0.0,0.0011803206,0.0,0.0,0.0,0.0,0.0,0.0,0.0,0.0,0.0
21807192000,21807112000,0.028700635,0.0,0.0026730835,0.00085679354,0.0,0.0,0.0,0.0,0.0,0.0,0.0,0.0,0.0,5.181845e-05,0.0,0.0,nan,0.0,0.0,0.0,0.0016200149,0.0,0.0,0.0,0.0,0.0,0.0,0.0,0.0
21807688000,21807608000,0.004473464,0.0,3.0447557e-06,0.0004576504,0.0,0.0,0.0,0.0,0.0,0.0,0.0,0.0,0.0,2.0985104e-05,0.0,0.0,nan,0.0,0.0,0.0,0.00048788643,0.0,0.0,0.0,0.0,0.0,0.0,0.0,0.0
21808192000,21808112000,0.0015823146,0.0,0.001033268,0.00025126763,0.0,0.0,0.0,0.0,0.0,0.0,0.0,0.0,0.0,2.708622e-05,0.0,0.0,nan,0.0,0.0,0.0,0.0010473185,0.0,0.0,0.0,0.0,0.0,0.0,0.0,0.0
21808688000,21808608000,0.0014497184,0.0,3.7298567e-05,0.00016907052,0.0,0.0,0.0,0.0,0.0,0.0,0.0,0.0,0.0,0.0,0.0,0.0,nan,0.0,0.0,0.0,2.5532272e-05,0.0,0.0,0.0,0.0,0.0,0.0,0.0,0.0
21809184000,21809104000,0.00061769685,0.0,6.60809e-06,0.00012572577,0.0,0.0,0.0,0.0,0.0,0.0,0.0,0.0,0.0,0.0,0.0,0.0,nan,0.0,0.0,0.0,0.00154483,0.0,0.0,0.0,0.0,0.0,0.0,0.0,0.0
21809688000,21809608000,0.0029730008,0.0,0.00014632879,4.236075e-05,0.0,0.0,0.0,0.0,0.0,0.0,0.0,0.0,0.0,0.0,0.0,0.0,nan,0.0,0.0,0.0,3.9153118e-05,0.0,0.0,0.0,0.0,0.0,0.0,0.0,0.0
21810192000,21810112000,0.0023347707,0.0,0.0002548983,5.73076e-05,0.0,0.0,0.0,0.0,0.0,0.0,0.0,0.0,0.0,0.0,0.0,0.0,nan,0.0,0.0,0.0,0.00057943404,0.0,0.0,0.0,0.0,0.0,0.0,0.0,0.0
21810688000,21810608000,0.0033597064,0.0,0.00069266337,7.9720785e-06,0.0,0.0,0.0,0.0,0.0,0.0,0.0,0.0,0.0,0.0,0.0,0.0,nan,0.0,0.0,0.0,0.00033141638,0.0,0.0,0.0,0.0,0.0,0.0,0.0,0.0
21811192000,21811112000,0.003097323,0.0,0.00094411074,1.1488562e-05,0.0,0.0,0.0,0.0,0.0,0.0,0.0,0.0,0.0,0.0,0.0,0.0,nan,0.0,0.0,0.0,0.0005029366,0.0,0.0,0.0,0.0,0.0,0.0,0.0,0.0
21811688000,21811608000,0.002000385,0.0,0.00342809,8.485968e-06,0.0,0.0,0.0,0.0,0.0,0.0,0.0,0.0,0.0,0.0,0.0,0.0,nan,0.0,0.0,0.0,0.0020588636,0.0,0.0,0.0,0.0,0.0,0.0,0.0,0.0
21812184000,21812104000,0.0021307543,0.0,0.0021134224,2.080849e-05,0.0,0.0,0.0,0.0,0.0,0.0,0.0,0.0,0.0,0.0,0.0,0.0,nan,0.0,0.0,0.0,0.000792062,0.0,0.0,0.0,0.0,0.0,0.0,0.0,0.0
21812688000,21812608000,0.0022913767,0.0,0.0056334566,3.9578743e-05,0.0,0.0,0.0,0.0,0.0,0.0,0.0,0.0,0.0,0.0,0.0,0.0,nan,0.0,0.0,0.00022408785,0.0,0.0,0.0,0.0,0.0,0.0,0.0,0.0,0.0
21813192000,21813112000,0.0014157809,0.0,0.0052099167,2.2502314e-05,0.0,0.0,0.0,0.0,0.0,0.0,0.0,0.0,0.0,0.0,0.0,0.0,nan,0.0,0.0,0.00012516107,0.0,0.0,0.0,0.0,0.0,0.0,0.0,0.0,0.0
21813688000,21813608000,0.0013813624,0.0,0.004861659,2.9086073e-05,0.0,0.0,0.0,0.0,0.0,0.0,0.0,0.0,0.0,0.0,0.0,0.0,nan,0.0,0.0,7.757214e-06,0.0,0.0,0.0,0.0,0.0,0.0,0.0,0.0,0.0
21814184000,21814104000,0.0007460074,0.0,0.0018245451,1.8448696e-05,0.0,0.0,0.0,0.0,0.0,0.0,0.0,0.0,0.0,0.0,0.0,0.0,nan,0.0,0.0,0.00039055897,0.0,0.0,0.0,0.0,0.0,0.0,0.0,0.0,0.0
21814688000,21814608000,0.00024987894,0.0,0.001807894,1.597944e-05,0.0,0.0,0.0,0.0,0.0,0.0,0.0,0.0,0.0,0.0,0.0,0.0,nan,0.0,0.0,8.178521e-05,0.0,0.0,0.0,0.0,0.0,0.0,0.0,0.0,0.0
21815192000,21815112000,9.910918e-05,0.0,0.0025175887,1.5743302e-05,0.0,0.0,0.0,0.0,0.0,0.0,0.0,0.0,0.0,1.0342703e-05,0.0,0.0,nan,0.0,0.0,2.0126508e-06,0.0,0.0,0.0,0.0,0.0,0.0,0.0,0.0,0.0
21815688000,21815608000,9.866333e-05,0.0,0.0032961927,9.753762e-06,0.0,0.0,0.0,0.0,0.0,0.0,0.0,0.0,0.0,9.678273e-07,0.0,0.0,nan,0.0,0.0,0.00025765924,0.0,0.0,0.0,0.0,0.0,0.0,0.0,0.0,0.0
21816192000,21816112000,0.00018106625,0.0,0.0007038398,6.508872e-06,0.0,0.0,0.0,0.0,0.0,0.0,0.0,0.0,0.0,8.4323565e-06,0.0,0.0,nan,0.0,0.0,0.0004061348,0.0,0.0,0.0,0.0,0.0,0.0,0.0,0.0,0.0
21816688000,21816608000,0.0003073578,0.0,0.00069086364,1.624221e-06,0.0,0.0,0.0,0.0,0.0,0.0,0.0,0.0,0.0,1.3866855e-06,0.0,0.0,nan,0.0,0.0,3.0150768e-05,0.0,0.0,0.0,0.0,0.0,0.0,0.0,0.0,0.0
21817184000,21817104000,0.00010258771,0.0,0.0017406048,8.37181e-06,0.0,0.0,0.0,0.0,0.0,0.0,0.0,0.0,0.0,4.990401e-08,0.0,0.0,nan,0.0,0.0,1.2411567e-05,0.0,0.0,0.0,0.0,0.0,0.0,0.0,0.0,0.0
21817688000,21817608000,0.00035586843,0.0,4.2550405e-06,8.761234e-06,0.0,0.0,0.0,0.0,0.0,0.0,0.0,0.0,0.0,2.5010362e-05,0.0,0.0,nan,0.0,0.0,0.00025325577,0.0,0.0,0.0,0.0,0.0,0.0,0.0,0.0,0.0
21818184000,21818104000,0.0001374848,0.0,8.0582744e-05,8.294862e-06,0.0,0.0,0.0,0.0,0.0,0.0,0.0,0.0,0.0,2.5338528e-05,0.0,0.0,nan,0.0,0.0,1.2020862e-05,0.0,0.0,0.0,0.0,0.0,0.0,0.0,0.0,0.0
21818688000,21818608000,0.0008619139,0.0,0.00039825038,5.707638e-06,0.0,0.0,0.0,0.0,0.0,0.0,0.0,0.0,0.0,7.357477e-05,0.0,0.0,nan,0.0,0.0,0.00074264134,0.0,0.0,0.0,0.0,0.0,0.0,0.0,0.0,0.0
21819192000,21819112000,0.00018757045,0.0,0.000118451084,3.880828e-06,0.0,0.0,0.0,0.0,0.0,0.0,0.0,0.0,0.0,0.0,0.0,0.0,nan,0.0,0.0,0.000103086175,0.0,0.0,0.0,0.0,0.0,0.0,0.0,0.0,0.0
21819688000,21819608000,0.0006681078,0.0,0.00024941983,4.684421e-06,0.0,0.0,0.0,0.0,0.0,0.0,0.0,0.0,0.0,7.714603e-05,0.0,0.0,nan,0.0,0.0,0.000105287516,0.0,0.0,0.0,0.0,0.0,0.0,0.0,0.0,0.0
21820184000,21820104000,0.00063594297,0.0,0.000575013,9.107815e-06,0.0,0.0,0.0,0.0,0.0,0.0,0.0,0.0,0.0,1.655419e-05,0.0,0.0,nan,0.0,0.0,3.522362e-05,0.0,0.0,0.0,0.0,0.0,0.0,0.0,0.0,0.0
21820688000,21820608000,0.00092463393,0.0,0.00062389986,1.1160683e-05,0.0,0.0,0.0,0.0,0.0,0.0,0.0,0.0,0.0,0.0,0.0,0.0,nan,0.0,0.0,6.4560394e-05,0.0,0.0,0.0,0.0,0.0,0.0,0.0,0.0,0.0
21821184000,21821104000,0.0001433293,0.0,1.8912916e-06,1.32820005e-05,0.0,0.0,0.0,0.0,0.0,0.0,0.0,0.0,0.0,0.0,0.0,0.0,nan,0.0,0.0,5.0750048e-05,0.0,0.0,0.0,0.0,0.0,0.0,0.0,0.0,0.0
21821688000,21821608000,0.0008512782,0.0,0.0005289698,1.9779707e-05,0.0,0.0,0.0,0.0,0.0,0.0,0.0,0.0,0.0,3.6686706e-05,0.0,0.0,nan,0.0,0.0,0.00063638465,0.0,0.0,0.0,0.0,0.0,0.0,0.0,0.0,0.0
21822184000,21822104000,0.0006016223,0.0,7.5640437e-06,1.2819926e-05,0.0,0.0,0.0,0.0,0.0,0.0,0.0,0.0,0.0,2.64881e-06,0.0,0.0,nan,0.0,0.0,0.00071924296,0.0,0.0,0.0,0.0,0.0,0.0,0.0,0.0,0.0
21822688000,21822608000,0.001236118,0.0,7.058029e-05,3.295453e-05,0.0,0.0,0.0,0.0,0.0,0.0,0.0,0.0,0.0,1.3499645e-05,0.0,0.0,nan,0.0,0.0,0.00029012622,0.0,0.0,0.0,0.0,0.0,0.0,0.0,0.0,0.0
21823192000,21823112000,0.0004270243,0.0,0.00017017803,1.9241437e-05,0.0,0.0,0.0,0.0,0.0,0.0,0.0,0.0,0.0,1.7454522e-05,0.0,0.0,nan,0.0,0.0,4.346198e-05,0.0,0.0,0.0,0.0,0.0,0.0,0.0,0.0,0.0
21823688000,21823608000,0.0004666794,0.0,0.000105153216,1.5501726e-05,0.0,0.0,0.0,0.0,0.0,0.0,0.0,0.0,0.0,1.1826668e-06,0.0,0.0,nan,0.0,0.0,3.4350505e-05,0.0,0.0,0.0,0.0,0.0,0.0,0.0,0.0,0.0
21824192000,21824112000,0.0002274634,0.0,9.428113e-05,2.4262072e-05,0.0,0.0,0.0,0.0,0.0,0.0,0.0,0.0,0.0,1.06158495e-05,0.0,0.0,nan,0.0,0.0,0.00092817587,0.0,0.0,0.0,0.0,0.0,0.0,0.0,0.0,0.0
21824688000,21824608000,0.000119471886,0.0,3.1783345e-06,1.707732e-07,0.0,0.0,0.0,0.0,0.0,0.0,0.0,0.0,0.0,7.1015997e-06,0.0,0.0,nan,0.0,0.0,8.6827946e-05,0.0,0.0,0.0,0.0,0.0,0.0,0.0,0.0,0.0
21825192000,21825112000,0.00011033981,0.0,0.00020927958,1.4585659e-06,0.0,0.0,0.0,0.0,0.0,0.0,0.0,0.0,0.0,2.3077415e-05,0.0,0.0,nan,0.0,0.0,8.542367e-05,0.0,0.0,0.0,0.0,0.0,0.0,0.0,0.0,0.0
21825688000,21825608000,3.5011628e-05,0.0,1.9454712e-06,7.1429577e-06,0.0,0.0,0.0,0.0,0.0,0.0,0.0,0.0,0.0,0.0,0.0,0.0,nan,0.0,0.0,0.0002867482,0.0,0.0,0.0,0.0,0.0,0.0,0.0,0.0,0.0
21826192000,21826112000,0.0002570309,0.0,0.0002696434,6.658234e-06,0.0,0.0,0.0,0.0,0.0,0.0,0.0,0.0,0.0,0.0,0.0,0.0,nan,0.0,0.0,0.0013450808,0.0,0.0,0.0,0.0,0.0,0.0,0.0,0.0,0.0
21826688000,21826608000,0.00067695737,0.0,0.00011005304,1.3146456e-05,0.0,0.0,0.0,0.0,0.0,0.0,0.0,0.0,0.0,0.0,0.0,0.0,nan,0.0,0.0,1.8319559e-05,0.0,0.0,0.0,0.0,0.0,0.0,0.0,0.0,0.0
21827192000,21827112000,0.0003007795,0.0,0.00043127278,5.9400554e-06,0.0,0.0,0.0,0.0,0.0,0.0,0.0,0.0,0.0,9.3003734e-07,0.0,0.0,nan,0.0,0.0,4.4047858e-05,0.0,0.0,0.0,0.0,0.0,0.0,0.0,0.0,0.0
21827688000,21827608000,0.00073133677,0.0,6.354306e-05,1.2766331e-05,0.0,0.0,0.0,0.0,0.0,0.0,0.0,0.0,0.0,0.0,0.0,0.0,nan,0.0,0.0,0.00012630502,0.0,0.0,0.0,0.0,0.0,0.0,0.0,0.0,0.0
21828184000,21828104000,0.0010099733,0.0,4.1853335e-05,1.708902e-05,0.0,0.0,0.0,0.0,0.0,0.0,0.0,0.0,0.0,7.577651e-08,0.0,0.0,nan,0.0,0.0,1.1001362e-05,0.0,0.0,0.0,0.0,0.0,0.0,0.0,0.0,0.0
21828688000,21828608000,0.00048539604,0.0,4.6469842e-05,3.2805347e-05,0.0,0.0,0.0,0.0,0.0,0.0,0.0,0.0,0.0,0.0,0.0,0.0,nan,0.0,0.0,6.670351e-05,0.0,0.0,0.0,0.0,0.0,0.0,0.0,0.0,0.0
21829184000,21829104000,0.00057037803,0.0,0.0011874217,5.167509e-05,0.0,0.0,0.0,0.0,0.0,0.0,0.0,0.0,0.0,0.0,0.0,0.0,nan,0.0,0.0,5.873183e-05,0.0,0.0,0.0,0.0,0.0,0.0,0.0,0.0,0.0
21829688000,21829608000,0.00059503573,0.0,0.0003618661,6.718943e-05,0.0,0.0,0.0,0.0,0.0,0.0,0.0,0.0,0.0,0.0,0.0,0.0,nan,0.0,0.0,1.2785707e-05,0.0,0.0,0.0,0.0,0.0,0.0,0.0,0.0,0.0
21830184000,21830104000,0.0008065472,0.0,6.542199e-05,7.516454e-05,0.0,0.0,0.0,0.0,0.0,0.0,0.0,0.0,0.0,0.0,0.0,0.0,nan,0.0,0.0,0.00019845366,0.0,0.0,0.0,0.0,0.0,0.0,0.0,0.0,0.0
21830688000,21830608000,0.00012907566,0.0,0.0012368677,6.385105e-05,0.0,0.0,0.0,0.0,0.0,0.0,0.0,0.0,0.0,0.0,0.0,0.0,nan,0.0,0.0,1.6763766e-05,0.0,0.0,0.0,0.0,0.0,0.0,0.0,0.0,0.0
21831192000,21831112000,0.00014383387,0.0,5.4132447e-06,4.3547134e-05,0.0,0.0,0.0,0.0,0.0,0.0,0.0,0.0,0.0,0.0,0.0,0.0,nan,0.0,0.0,3.4171597e-05,0.0,0.0,0.0,0.0,0.0,0.0,0.0,0.0,0.0
21831688000,21831608000,4.4400866e-05,0.0,1.3584952e-05,3.196147e-05,0.0,0.0,0.0,0.0,0.0,0.0,0.0,0.0,0.0,0.0,0.0,0.0,nan,0.0,0.0,0.0002787077,0.0,0.0,0.0,0.0,0.0,0.0,0.0,0.0,0.0
21832192000,21832112000,0.0006062986,0.0,1.0648807e-05,4.3412136e-05,0.0,0.0,0.0,0.0,0.0,0.0,0.0,0.0,0.0,0.0,0.0,0.0,nan,0.0,0.0,5.5935925e-05,0.0,0.0,0.0,0.0,0.0,0.0,0.0,0.0,0.0
21832688000,21832608000,0.00034853333,0.0,7.060343e-07,2.414395e-05,0.0,0.0,0.0,0.0,0.0,0.0,0.0,0.0,0.0,0.0,0.0,0.0,nan,0.0,0.0,0.00014888642,0.0,0.0,0.0,0.0,0.0,0.0,0.0,0.0,0.0
21833192000,21833112000,0.0003618933,0.0,0.00057417824,1.8415936e-05,0.0,0.0,0.0,0.0,0.0,0.0,0.0,0.0,0.0,0.0,0.0,0.0,nan,0.0,0.0,4.2515563e-05,0.0,0.0,0.0,0.0,0.0,0.0,0.0,0.0,0.0
21833688000,21833608000,0.0003749538,0.0,1.6775435e-07,7.371884e-06,0.0,0.0,0.0,0.0,0.0,0.0,0.0,0.0,0.0,0.0,0.0,0.0,nan,0.0,0.0,3.5468718e-05,0.0,0.0,0.0,0.0,0.0,0.0,0.0,0.0,0.0
21834192000,21834112000,0.00045127023,0.0,0.00017456972,7.74152e-06,0.0,0.0,0.0,0.0,0.0,0.0,0.0,0.0,0.0,0.0,0.0,0.0,nan,0.0,0.0,0.0003146865,0.0,0.0,0.0,0.0,0.0,0.0,0.0,0.0,0.0
21834688000,21834608000,0.00027068914,0.0,0.00036075988,9.977163e-06,0.0,0.0,0.0,0.0,0.0,0.0,0.0,0.0,0.0,0.0,0.0,0.0,nan,0.0,0.0,0.00012295632,0.0,0.0,0.0,0.0,0.0,0.0,0.0,0.0,0.0
21835192000,21835112000,0.00010265566,0.0,4.4090488e-05,7.278928e-06,0.0,0.0,0.0,0.0,0.0,0.0,0.0,0.0,0.0,0.0,0.0,0.0,nan,0.0,0.0,6.652253e-06,0.0,0.0,0.0,0.0,0.0,0.0,0.0,0.0,0.0
21835688000,21835608000,0.0001158644,0.0,0.0001753887,9.980322e-06,0.0,0.0,0.0,0.0,0.0,0.0,0.0,0.0,0.0,0.0,0.0,0.0,nan,0.0,0.0,2.4408017e-05,0.0,0.0,0.0,0.0,0.0,0.0,0.0,0.0,0.0
21836192000,21836112000,0.00013338651,0.0,1.4090695e-05,9.142985e-06,0.0,0.0,0.0,0.0,0.0,0.0,0.0,0.0,0.0,0.0,0.0,0.0,nan,0.0,0.0,4.9417367e-06,0.0,0.0,0.0,0.0,0.0,0.0,0.0,0.0,0.0
21836688000,21836608000,0.0001425902,0.0,0.00011802704,7.3827955e-06,0.0,0.0,0.0,0.0,0.0,0.0,0.0,0.0,0.0,0.0,0.0,0.0,nan,0.0,0.0,1.2678503e-06,0.0,0.0,0.0,0.0,0.0,0.0,0.0,0.0,0.0
21837192000,21837112000,0.00016640878,0.0,8.151269e-06,2.856353e-05,0.0,0.0,0.0,0.0,0.0,0.0,0.0,0.0,0.0,0.0,0.0,0.0,nan,0.0,0.0,0.00093719165,0.0,0.0,0.0,0.0,0.0,0.0,0.0,0.0,0.0
21837688000,21837608000,0.00061962253,0.0,0.00010402464,1.52285975e-05,0.0,0.0,0.0,0.0,0.0,0.0,0.0,0.0,0.0,0.0,0.0,0.0,nan,0.0,0.0,1.2403133e-07,0.0,0.0,0.0,0.0,0.0,0.0,0.0,0.0,0.0
21838184000,21838104000,0.00013214216,0.0,0.00020108181,2.546799e-05,0.0,0.0,0.0,0.0,0.0,0.0,0.0,0.0,0.0,0.0,0.0,0.0,nan,0.0,0.0,0.0014978013,0.0,0.0,0.0,0.0,0.0,0.0,0.0,0.0,0.0
21838688000,21838608000,0.00056905224,0.0,1.8067651e-07,3.7506976e-05,0.0,0.0,0.0,0.0,0.0,0.0,0.0,0.0,0.0,0.0,0.0,0.0,nan,0.0,0.0,0.0002469559,0.0,0.0,0.0,0.0,0.0,0.0,0.0,0.0,0.0
21839184000,21839104000,0.00041268044,0.0,0.00013848502,3.21338e-05,0.0,0.0,0.0,0.0,0.0,0.0,0.0,0.0,0.0,0.0,0.0,0.0,nan,0.0,0.0,9.321889e-05,0.0,0.0,0.0,0.0,0.0,0.0,0.0,0.0,0.0
21839688000,21839608000,0.0006069373,0.0,0.00039623328,5.3447966e-05,0.0,0.0,0.0,0.0,0.0,0.0,0.0,0.0,0.0,0.0,0.0,0.0,nan,0.0,0.0,8.549396e-05,0.0,0.0,0.0,0.0,0.0,0.0,0.0,0.0,0.0
21840192000,21840112000,0.00033805275,0.0,2.2423455e-06,2.8650365e-05,0.0,0.0,0.0,0.0,0.0,0.0,0.0,0.0,0.0,0.0,0.0,0.0,nan,0.0,0.0,0.00010863205,0.0,0.0,0.0,0.0,0.0,0.0,0.0,0.0,0.0
21840688000,21840608000,0.0010834711,0.0,0.00017221228,4.1061714e-05,0.0,0.0,0.0,0.0,0.0,0.0,0.0,0.0,0.0,0.0,0.0,0.0,nan,0.0,0.0,2.7573527e-05,0.0,0.0,0.0,0.0,0.0,0.0,0.0,0.0,0.0
21841192000,21841112000,0.00028709776,0.0,0.0007885848,3.6253547e-05,0.0,0.0,0.0,0.0,0.0,0.0,0.0,0.0,0.0,0.0,0.0,0.0,nan,0.0,0.0,6.008188e-07,0.0,0.0,0.0,0.0,0.0,0.0,0.0,0.0,0.0
21841688000,21841608000,0.00013933332,0.0,4.8202995e-08,1.9041328e-05,0.0,0.0,0.0,0.0,0.0,0.0,0.0,0.0,0.0,0.0,0.0,0.0,nan,0.0,0.0,1.3235884e-08,0.0,0.0,0.0,0.0,0.0,0.0,0.0,0.0,0.0
21842184000,21842104000,0.00031780722,0.0,0.00011363422,2.9019966e-05,0.0,0.0,0.0,0.0,0.0,0.0,0.0,0.0,0.0,0.0,0.0,0.0,nan,0.0,0.0,4.8361162e-05,0.0,0.0,0.0,0.0,0.0,0.0,0.0,0.0,0.0
21842688000,21842608000,0.0009304708,0.0,1.6111198e-05,2.3303055e-05,0.0,0.0,0.0,0.0,0.0,0.0,0.0,0.0,0.0,0.0,0.0,0.0,nan,0.0,0.0,0.00010553069,0.0,0.0,0.0,0.0,0.0,0.0,0.0,0.0,0.0
21843184000,21843104000,0.0019288284,0.0,0.00011908206,3.8381386e-05,0.0,0.0,0.0,0.0,0.0,0.0,0.0,0.0,0.0,0.0,0.0,0.0,nan,0.0,0.0,0.0027149809,0.0,0.0,0.0,0.0,0.0,0.0,0.0,0.0,0.0
21843688000,21843608000,0.00103558,0.0,4.2469773e-07,3.3162454e-05,0.0,0.0,0.0,0.0,0.0,0.0,0.0,0.0,0.0,0.0,0.0,0.0,nan,0.0,0.0,0.00017231794,0.0,0.0,0.0,0.0,0.0,0.0,0.0,0.0,0.0
21844192000,21844112000,0.0012956313,0.0,0.00024495288,3.9702987e-05,0.0,0.0,0.0,0.0,0.0,0.0,0.0,0.0,0.0,0.0,0.0,0.0,nan,0.0,0.0,0.0009838252,0.0,0.0,0.0,0.0,0.0,0.0,0.0,0.0,0.0
21844688000,21844608000,0.0009162099,0.0,5.1310195e-05,2.8893513e-05,0.0,0.0,0.0,0.0,0.0,0.0,0.0,0.0,0.0,0.0,0.0,0.0,nan,0.0,0.0,3.2662615e-06,0.0,0.0,0.0,0.0,0.0,0.0,0.0,0.0,0.0
21845192000,21845112000,0.00031266903,0.0,8.255989e-05,1.27150815e-05,0.0,0.0,0.0,0.0,0.0,0.0,0.0,0.0,0.0,0.0,0.0,0.0,nan,0.0,0.0,1.4193467e-05,0.0,0.0,0.0,0.0,0.0,0.0,0.0,0.0,0.0
21845688000,21845608000,0.0008139459,0.0,0.00014453953,1.0227639e-05,0.0,0.0,0.0,0.0,0.0,0.0,0.0,0.0,0.0,0.0,0.0,0.0,nan,0.0,0.0,8.2553385e-07,0.0,0.0,0.0,0.0,0.0,0.0,0.0,0.0,0.0
21846184000,21846104000,5.9697406e-05,0.0,0.00062464614,1.9594087e-05,0.0,0.0,0.0,0.0,0.0,0.0,0.0,0.0,0.0,0.0,0.0,0.0,nan,0.0,0.0,1.0961927e-05,0.0,0.0,0.0,0.0,0.0,0.0,0.0,0.0,0.0
21846688000,21846608000,0.00032041228,0.0,7.942835e-07,1.8899038e-05,0.0,0.0,0.0,0.0,0.0,0.0,0.0,0.0,0.0,0.0,0.0,0.0,nan,0.0,0.0,0.00014089659,0.0,0.0,0.0,0.0,0.0,0.0,0.0,0.0,0.0
21847192000,21847112000,4.8747308e-05,0.0,0.00039257144,6.8165946e-06,0.0,0.0,0.0,0.0,0.0,0.0,0.0,0.0,0.0,0.0,0.0,0.0,nan,0.0,0.0,4.9898008e-05,0.0,0.0,0.0,0.0,0.0,0.0,0.0,0.0,0.0
21847688000,21847608000,0.00030846515,0.0,0.00056360185,4.7122417e-06,0.0,0.0,0.0,0.0,0.0,0.0,0.0,0.0,0.0,0.0,0.0,0.0,nan,0.0,0.0,5.7715847e-06,0.0,0.0,0.0,0.0,0.0,0.0,0.0,0.0,0.0
21848184000,21848104000,0.00016490338,0.0,3.610203e-05,3.157931e-06,0.0,0.0,0.0,0.0,0.0,0.0,0.0,0.0,0.0,0.0,0.0,0.0,nan,0.0,0.0,2.8824681e-05,0.0,0.0,0.0,0.0,0.0,0.0,0.0,0.0,0.0
21848688000,21848608000,0.00013254839,0.0,5.5960838e-05,1.0130633e-05,0.0,0.0,0.0,0.0,0.0,0.0,0.0,0.0,0.0,0.0,0.0,0.0,nan,0.0,0.0,0.00013642518,0.0,0.0,0.0,0.0,0.0,0.0,0.0,0.0,0.0
21849184000,21849104000,0.0003778387,0.0,9.905471e-06,3.7451998e-06,0.0,0.0,0.0,0.0,0.0,0.0,0.0,0.0,0.0,0.0,0.0,0.0,nan,0.0,0.0,2.3536608e-05,0.0,0.0,0.0,0.0,0.0,0.0,0.0,0.0,0.0
21849688000,21849608000,0.00013624316,0.0,0.0003921136,3.4841673e-06,0.0,0.0,0.0,0.0,0.0,0.0,0.0,0.0,0.0,0.0,0.0,0.0,nan,0.0,0.0,0.00035210003,0.0,0.0,0.0,0.0,0.0,0.0,0.0,0.0,0.0
21850184000,21850104000,6.6002496e-05,0.0,0.00017683244,5.95796e-06,0.0,0.0,0.0,0.0,0.0,0.0,0.0,0.0,0.0,0.0,0.0,0.0,nan,0.0,0.0,0.00032720016,0.0,0.0,0.0,0.0,0.0,0.0,0.0,0.0,0.0
21850688000,21850608000,0.00014491708,0.0,0.0006634275,2.0451675e-05,0.0,0.0,0.0,0.0,0.0,0.0,0.0,0.0,0.0,0.0,0.0,0.0,nan,0.0,0.0,1.4778557e-05,0.0,0.0,0.0,0.0,0.0,0.0,0.0,0.0,0.0
