timestamp,timestamp_sample,lat,lon,alt,alt_ellipsoid,delta_alt,delta_terrain,eph,epv,terrain_alt,lat_lon_valid,alt_valid,lat_lon_reset_counter,alt_reset_counter,terrain_reset_counter,terrain_alt_valid,dead_reckoning
1743177450053379,1743177450053379,52.51485881128468,13.325424160681113,-0.015613215,-0.015613215,-0.003559583,-0.003559583,1.0,0.2044427,-0.10950831,1,1,4,3,3,0,0
1743177450061379,1743177450061379,52.51485881136642,13.32542416095153,-0.015519964,-0.015519964,-0.003559583,-0.003559583,1.0000057,0.20447439,-0.10950781,1,1,4,3,3,0,0
1743177450069379,1743177450069379,52.514858811440995,13.325424161195736,-0.015428063,-0.015428063,-0.003559583,-0.003559583,1.000023,0.20456944,-0.109507054,1,1,4,3,3,0,0
1743177450077379,1743177450077379,52.514858811500744,13.325424161445397,-0.015339253,-0.015339253,-0.003559583,-0.003559583,1.0000519,0.20472777,-0.10950614,1,1,4,3,3,0,0
1743177450085379,1743177450085379,52.51485881153964,13.325424161701008,-0.015250774,-0.015250774,-0.003559583,-0.003559583,1.0000921,0.20459908,-0.109537125,1,1,4,3,3,0,0
1743177450093379,1743177450093379,52.51485881153993,13.325424161918125,-0.015161603,-0.015161603,-0.003559583,-0.003559583,1.000144,0.20488308,-0.10953595,1,1,4,3,3,0,0
1743177450101379,1743177450101379,52.514858811498755,13.325424162128613,-0.015064511,-0.015064511,-0.003559583,-0.003559583,0.5773702,0.19744386,-0.10928681,1,1,4,3,3,0,0
1743177450109379,1743177450109379,52.51485881144544,13.325424162304039,-0.014967462,-0.014967462,-0.003559583,-0.003559583,0.57739514,0.197643,-0.10928612,1,1,4,3,3,0,0
1743177450117379,1743177450117379,52.51485881136678,13.325424162433654,-0.0148709025,-0.0148709025,-0.003559583,-0.003559583,0.5774301,0.1978747,-0.10928312,1,1,4,3,3,0,0
1743177450125379,1743177450125379,52.51485881127493,13.325424162570965,-0.014776234,-0.014776234,-0.003559583,-0.003559583,0.5774751,0.19813882,-0.1092806,1,1,4,3,3,0,0
1743177450133379,1743177450133379,52.514858811165254,13.325424162713535,-0.014681255,-0.014681255,-0.003559583,-0.003559583,0.57753,0.19843526,-0.10928188,1,1,4,3,3,0,0
1743177450141379,1743177450141379,52.51485881104186,13.325424162858235,-0.014563401,-0.014563401,-0.003559583,-0.003559583,0.577595,0.19844444,-0.10860966,1,1,4,3,3,0,0
1743177450149379,1743177450149379,52.51485881090165,13.325424163012876,-0.014446521,-0.014446521,-0.003559583,-0.003559583,0.57767004,0.19880453,-0.10861373,1,1,4,3,3,0,0
1743177450157379,1743177450157379,52.514858810757026,13.325424163179504,-0.014323404,-0.014323404,-0.003559583,-0.003559583,0.4473388,0.19175054,-0.10842519,1,1,4,3,3,0,0
1743177450165379,1743177450165379,52.51485881056979,13.325424163311867,-0.0142011065,-0.0142011065,-0.003559583,-0.003559583,0.4473895,0.19202557,-0.10843015,1,1,4,3,3,0,0
1743177450173379,1743177450173379,52.51485881034985,13.325424163441198,-0.014081448,-0.014081448,-0.003559583,-0.003559583,0.4474489,0.19232266,-0.1084369,1,1,4,3,3,0,0
1743177450181379,1743177450181379,52.51485881012149,13.325424163578335,-0.013964405,-0.013964405,-0.003559583,-0.003559583,0.44751698,0.1926417,-0.108444355,1,1,4,3,3,0,0
1743177450189379,1743177450189379,52.51485880989847,13.325424163746924,-0.013890506,-0.013890506,-0.003559583,-0.003559583,0.44759384,0.19269022,-0.10972265,1,1,4,3,3,0,0
1743177450197379,1743177450197379,52.51485880968273,13.325424163922097,-0.013817541,-0.013817541,-0.003559583,-0.003559583,0.44767946,0.19305232,-0.10973448,1,1,4,3,3,0,0
1743177450205379,1743177450205379,52.51485880949899,13.325424164009469,-0.01373782,-0.01373782,-0.003559583,-0.003559583,0.37821713,0.18651336,-0.109468155,1,1,4,3,3,0,0
1743177450213379,1743177450213379,52.51485880933174,13.32542416407366,-0.013661136,-0.013661136,-0.003559583,-0.003559583,0.37828326,0.18680972,-0.10947555,1,1,4,3,3,0,0
1743177450221379,1743177450221379,52.51485880915994,13.325424164096612,-0.013585469,-0.013585469,-0.003559583,-0.003559583,0.3783572,0.1871229,-0.109484084,1,1,4,3,3,0,0
1743177450229379,1743177450229379,52.51485880897034,13.325424164084877,-0.013513448,-0.013513448,-0.003559583,-0.003559583,0.37843904,0.1874528,-0.1094953,1,1,4,3,3,0,0
1743177450237379,1743177450237379,52.51485880877939,13.32542416403334,-0.013443641,-0.013443641,-0.003559583,-0.003559583,0.37852877,0.18779938,-0.10950631,1,1,4,3,3,0,0
1743177450245379,1743177450245379,52.514858808572235,13.32542416392194,-0.013353591,-0.013353591,-0.003559583,-0.003559583,0.37862647,0.1878915,-0.10878668,1,1,4,3,3,0,0
1743177450253379,1743177450253379,52.514858808359925,13.325424163789616,-0.013269298,-0.013269298,-0.003559583,-0.003559583,0.37873223,0.1882706,-0.10879565,1,1,4,3,3,0,0
1743177450261379,1743177450261379,52.51485880814844,13.325424163744291,-0.013183689,-0.013183689,-0.003559583,-0.003559583,0.33381358,0.18209782,-0.10865715,1,1,4,3,3,0,0
1743177450269379,1743177450269379,52.51485880790407,13.32542416369323,-0.013100667,-0.013100667,-0.003559583,-0.003559583,0.33389947,0.18241951,-0.10866461,1,1,4,3,3,0,0
1743177450277379,1743177450277379,52.51485880762881,13.325424163613217,-0.013022276,-0.013022276,-0.003559583,-0.003559583,0.33399266,0.18275477,-0.10867339,1,1,4,3,3,0,0
1743177450285379,1743177450285379,52.51485880732008,13.325424163529812,-0.012946919,-0.012946919,-0.003559583,-0.003559583,0.3340933,0.18310356,-0.10868215,1,1,4,3,3,0,0
1743177450293379,1743177450293379,52.514858806994226,13.32542416344131,-0.012861919,-0.012861919,-0.003559583,-0.003559583,0.33420143,0.18321458,-0.10832004,1,1,4,3,3,0,0
1743177450301379,1743177450301379,52.51485880665097,13.325424163360072,-0.0127810445,-0.0127810445,-0.003559583,-0.003559583,0.33431712,0.1835897,-0.10832698,1,1,4,3,3,0,0
1743177450309379,1743177450309379,52.5148588063051,13.325424163342253,-0.012698304,-0.012698304,-0.003559583,-0.003559583,0.3021874,0.1778324,-0.10817589,1,1,4,3,3,0,0
1743177450317379,1743177450317379,52.51485880593796,13.325424163327062,-0.012617921,-0.012617921,-0.003559583,-0.003559583,0.30228522,0.17815962,-0.10818123,1,1,4,3,3,0,0
1743177450325379,1743177450325379,52.51485880554247,13.325424163321813,-0.012539625,-0.012539625,-0.003559583,-0.003559583,0.3023901,0.17849831,-0.10818844,1,1,4,3,3,0,0
1743177450333379,1743177450333379,52.51485880513889,13.325424163289838,-0.012463932,-0.012463932,-0.003559583,-0.003559583,0.3025021,0.17884842,-0.10819795,1,1,4,3,3,0,0
1743177450341379,1743177450341379,52.51485880473673,13.325424163243548,-0.012394588,-0.012394588,-0.003559583,-0.003559583,0.30262136,0.17920987,-0.108208865,1,1,4,3,3,0,0
1743177450349379,1743177450349379,52.51485880433724,13.325424163198452,-0.012344793,-0.012344793,-0.003559583,-0.003559583,0.302748,0.17934702,-0.10869393,1,1,4,3,3,0,0
1743177450357379,1743177450357379,52.51485880394515,13.325424163157486,-0.012296395,-0.012296395,-0.003559583,-0.003559583,0.3028819,0.1797305,-0.10870986,1,1,4,3,3,0,0
1743177450365379,1743177450365379,52.51485880355386,13.32542416316046,-0.012256458,-0.012256458,-0.003559583,-0.003559583,0.27834436,0.17426491,-0.108921304,1,1,4,3,3,0,0
1743177450373379,1743177450373379,52.51485880316415,13.32542416314928,-0.0122204,-0.0122204,-0.003559583,-0.003559583,0.27845982,0.17460531,-0.10894622,1,1,4,3,3,0,0
1743177450381379,1743177450381379,52.51485880275533,13.325424163142248,-0.012186168,-0.012186168,-0.003559583,-0.003559583,0.2785823,0.1749556,-0.10897217,1,1,4,3,3,0,0
1743177450389379,1743177450389379,52.51485880230854,13.325424163137287,-0.01215375,-0.01215375,-0.003559583,-0.003559583,0.2787119,0.17531574,-0.10899855,1,1,4,3,3,0,0
1743177450397379,1743177450397379,52.514858801857976,13.325424163104483,-0.012094775,-0.012094775,-0.003559583,-0.003559583,0.27884877,0.17546506,-0.10809699,1,1,4,3,3,0,0
1743177450405379,1743177450405379,52.51485880140159,13.3254241630462,-0.012039928,-0.012039928,-0.003559583,-0.003559583,0.27899304,0.17584425,-0.10812554,1,1,4,3,3,0,0
1743177450413379,1743177450413379,52.51485880095592,13.325424163079115,-0.0119809685,-0.0119809685,-0.003559583,-0.003559583,0.2594437,0.17070708,-0.1079126,1,1,4,3,3,0,0
1743177450421379,1743177450421379,52.51485880050467,13.325424163075139,-0.011924906,-0.011924906,-0.003559583,-0.003559583,0.25957027,0.1710487,-0.10793872,1,1,4,3,3,0,0
1743177450429379,1743177450429379,52.51485880005253,13.325424163034782,-0.011871112,-0.011871112,-0.003559583,-0.003559583,0.2597039,0.17139906,-0.10796665,1,1,4,3,3,0,0
1743177450437379,1743177450437379,52.51485879960849,13.325424162973942,-0.011820708,-0.011820708,-0.003559583,-0.003559583,0.2598447,0.17175812,-0.10799538,1,1,4,3,3,0,0
1743177450445379,1743177450445379,52.514858799182306,13.325424162891794,-0.011772249,-0.011772249,-0.003559583,-0.003559583,0.25999284,0.17212583,-0.1080243,1,1,4,3,3,0,0
1743177450453379,1743177450453379,52.51485879876002,13.325424162769057,-0.011726564,-0.011726564,-0.003559583,-0.003559583,0.26014847,0.17229332,-0.1080713,1,1,4,3,3,0,0
1743177450461379,1743177450461379,52.514858798332945,13.325424162608392,-0.011683019,-0.011683019,-0.003559583,-0.003559583,0.26031172,0.17267774,-0.10810233,1,1,4,3,3,0,0
1743177450469379,1743177450469379,52.51485879791426,13.325424162468082,-0.011634185,-0.011634185,-0.003559583,-0.003559583,0.24417959,0.16777,-0.107886866,1,1,4,3,3,0,0
1743177450477379,1743177450477379,52.514858797473714,13.325424162333524,-0.011587517,-0.011587517,-0.003559583,-0.003559583,0.24432392,0.16811986,-0.10791392,1,1,4,3,3,0,0
1743177450485379,1743177450485379,52.51485879702351,13.325424162223738,-0.011541655,-0.011541655,-0.003559583,-0.003559583,0.24447556,0.16847752,-0.107941516,1,1,4,3,3,0,0
1743177450493379,1743177450493379,52.51485879656366,13.325424162167318,-0.0114975255,-0.0114975255,-0.003559583,-0.003559583,0.24463467,0.16884296,-0.107972674,1,1,4,3,3,0,0
1743177450501379,1743177450501379,52.51485879611459,13.325424162115185,-0.011457497,-0.011457497,-0.003559583,-0.003559583,0.24480145,0.169019,-0.10791283,1,1,4,3,3,0,0
1743177450509379,1743177450509379,52.51485879567566,13.3254241620548,-0.011421086,-0.011421086,-0.003559583,-0.003559583,0.24497604,0.16939941,-0.107945554,1,1,4,3,3,0,0
1743177450517379,1743177450517379,52.51485879518726,13.32542416203669,-0.011377248,-0.011377248,-0.003559583,-0.003559583,0.23136118,0.16475472,-0.10773223,1,1,4,3,3,0,0
1743177450525379,1743177450525379,52.514858794691165,13.32542416202384,-0.011334916,-0.011334916,-0.003559583,-0.003559583,0.23151699,0.16510414,-0.107763395,1,1,4,3,3,0,0
1743177450533379,1743177450533379,52.5148587941885,13.325424162025419,-0.011295816,-0.011295816,-0.003559583,-0.003559583,0.23168029,0.16546063,-0.10779456,1,1,4,3,3,0,0
1743177450541379,1743177450541379,52.514858793676055,13.325424162024962,-0.0112594385,-0.0112594385,-0.003559583,-0.003559583,0.23185128,0.16582419,-0.107825555,1,1,4,3,3,0,0
1743177450549379,1743177450549379,52.51485879315117,13.325424162028312,-0.011226743,-0.011226743,-0.003559583,-0.003559583,0.23203018,0.16619475,-0.10785767,1,1,4,3,3,0,0
1743177450557379,1743177450557379,52.514858792613225,13.325424161996585,-0.011181336,-0.011181336,-0.003559583,-0.003559583,0.23221642,0.16638428,-0.10739879,1,1,4,3,3,0,0
1743177450565379,1743177450565379,52.514858792059954,13.325424161917052,-0.011138045,-0.011138045,-0.003559583,-0.003559583,0.23241158,0.16676836,-0.10743235,1,1,4,3,3,0,0
1743177450573379,1743177450573379,52.514858791555184,13.32542416189248,-0.011087704,-0.011087704,-0.003559583,-0.003559583,0.22064123,0.16230556,-0.10725005,1,1,4,3,3,0,0
1743177450581379,1743177450581379,52.51485879104702,13.325424161877038,-0.0110354815,-0.0110354815,-0.003559583,-0.003559583,0.22081578,0.16266067,-0.1072807,1,1,4,3,3,0,0
1743177450589379,1743177450589379,52.51485879052428,13.325424161890135,-0.010984046,-0.010984046,-0.003559583,-0.003559583,0.22099826,0.16302225,-0.10731202,1,1,4,3,3,0,0
1743177450597379,1743177450597379,52.51485878998529,13.32542416188237,-0.010935075,-0.010935075,-0.003559583,-0.003559583,0.22118884,0.16339025,-0.10734322,1,1,4,3,3,0,0
1743177450605379,1743177450605379,52.5148587894404,13.325424161860134,-0.010864934,-0.010864934,-0.003559583,-0.003559583,0.22138782,0.16358599,-0.106654294,1,1,4,3,3,0,0
1743177450613379,1743177450613379,52.51485878889233,13.325424161829034,-0.010795338,-0.010795338,-0.003559583,-0.003559583,0.22159536,0.16396637,-0.106683575,1,1,4,3,3,0,0
1743177450621379,1743177450621379,52.514858788396815,13.325424161853158,-0.010723464,-0.010723464,-0.003559583,-0.003559583,0.21128824,0.15971787,-0.10655094,1,1,4,3,3,0,0
1743177450629379,1743177450629379,52.51485878789978,13.325424161880711,-0.010655196,-0.010655196,-0.003559583,-0.003559583,0.21147484,0.16007178,-0.10657815,1,1,4,3,3,0,0
1743177450637379,1743177450637379,52.514858787398246,13.325424161889035,-0.010587521,-0.010587521,-0.003559583,-0.003559583,0.21166962,0.16043167,-0.10660386,1,1,4,3,3,0,0
1743177450645379,1743177450645379,52.51485878690092,13.325424161888659,-0.010520249,-0.010520249,-0.003559583,-0.003559583,0.21187285,0.16079749,-0.10663001,1,1,4,3,3,0,0
1743177450653379,1743177450653379,52.51485878640946,13.325424161885026,-0.010454632,-0.010454632,-0.003559583,-0.003559583,0.21208471,0.16116925,-0.10666016,1,1,4,3,3,0,0
1743177450661379,1743177450661379,52.51485878590723,13.325424161892428,-0.0103892125,-0.0103892125,-0.003559583,-0.003559583,0.21230546,0.16137539,-0.106612094,1,1,4,3,3,0,0
1743177450669379,1743177450669379,52.514858785391915,13.32542416192572,-0.0103242695,-0.0103242695,-0.003559583,-0.003559583,0.21253528,0.1617585,-0.10664277,1,1,4,3,3,0,0
1743177450677379,1743177450677379,52.51485878493029,13.325424161870329,-0.010256073,-0.010256073,-0.003559583,-0.003559583,0.2033301,0.15765586,-0.10651007,1,1,4,3,3,0,0
1743177450685379,1743177450685379,52.514858784469496,13.3254241618088,-0.010188775,-0.010188775,-0.003559583,-0.003559583,0.20353667,0.15801395,-0.10653905,1,1,4,3,3,0,0
1743177450693379,1743177450693379,52.51485878401185,13.325424161792212,-0.010122051,-0.010122051,-0.003559583,-0.003559583,0.20375194,0.15837759,-0.10656917,1,1,4,3,3,0,0
1743177450701379,1743177450701379,52.51485878352425,13.325424161789666,-0.0100579485,-0.0100579485,-0.003559583,-0.003559583,0.20397612,0.15874673,-0.1066011,1,1,4,3,3,0,0
1743177450709379,1743177450709379,52.51485878302712,13.325424161778166,-0.009982897,-0.009982897,-0.003559583,-0.003559583,0.20420948,0.15895747,-0.1062087,1,1,4,3,3,0,0
1743177450717379,1743177450717379,52.514858782525415,13.325424161761786,-0.009910623,-0.009910623,-0.003559583,-0.003559583,0.20445225,0.15933718,-0.10624094,1,1,4,3,3,0,0
1743177450725379,1743177450725379,52.514858782080225,13.325424161817017,-0.009839144,-0.009839144,-0.003559583,-0.003559583,0.19617635,0.15541188,-0.10614172,1,1,4,3,3,0,0
1743177450733379,1743177450733379,52.514858781643674,13.325424161865449,-0.009772494,-0.009772494,-0.003559583,-0.003559583,0.19639516,0.15576841,-0.106166355,1,1,4,3,3,0,0
1743177450741379,1743177450741379,52.51485878120798,13.32542416192831,-0.009711701,-0.009711701,-0.003559583,-0.003559583,0.19662297,0.15613014,-0.10618976,1,1,4,3,3,0,0
1743177450749379,1743177450749379,52.514858780791855,13.325424162002191,-0.009656681,-0.009656681,-0.003559583,-0.003559583,0.19685996,0.15649702,-0.106213644,1,1,4,3,3,0,0
1743177450757379,1743177450757379,52.51485878040865,13.325424162111782,-0.009603351,-0.009603351,-0.003559583,-0.003559583,0.19710499,0.15686904,-0.10623752,1,1,4,3,3,0,0
1743177450765379,1743177450765379,52.514858780040896,13.325424162238509,-0.009547776,-0.009547776,-0.003559583,-0.003559583,0.19736093,0.15708803,-0.10615736,1,1,4,3,3,0,0
1743177450773379,1743177450773379,52.514858779685134,13.325424162356994,-0.009493846,-0.009493846,-0.003559583,-0.003559583,0.1976268,0.1574699,-0.10618013,1,1,4,3,3,0,0
1743177450781379,1743177450781379,52.51485877939901,13.325424162587638,-0.00943883,-0.00943883,-0.003559583,-0.003559583,0.1900512,0.15366279,-0.10609516,1,1,4,3,3,0,0
1743177450789379,1743177450789379,52.514858779133185,13.325424162845406,-0.009386155,-0.009386155,-0.003559583,-0.003559583,0.19029054,0.15402253,-0.10611596,1,1,4,3,3,0,0
1743177450797379,1743177450797379,52.51485877888988,13.325424163116448,-0.009337489,-0.009337489,-0.003559583,-0.003559583,0.1905393,0.15438715,-0.106135346,1,1,4,3,3,0,0
1743177450805379,1743177450805379,52.514858778668824,13.325424163398349,-0.009292666,-0.009292666,-0.003559583,-0.003559583,0.19079764,0.15475662,-0.106154494,1,1,4,3,3,0,0
1743177450813379,1743177450813379,52.51485877846276,13.32542416366575,-0.009261908,-0.009261908,-0.003559583,-0.003559583,0.19106592,0.15497905,-0.10659799,1,1,4,3,3,0,0
1743177450821379,1743177450821379,52.514858778256695,13.325424163945396,-0.00923424,-0.00923424,-0.003559583,-0.003559583,0.19134435,0.1553578,-0.10661759,1,1,4,3,3,0,0
1743177450829379,1743177450829379,52.51485877810979,13.32542416431182,-0.009203866,-0.009203866,-0.003559583,-0.003559583,0.18439674,0.15169951,-0.10653101,1,1,4,3,3,0,0
1743177450837379,1743177450837379,52.51485877797539,13.325424164694999,-0.009173494,-0.009173494,-0.003559583,-0.003559583,0.18464802,0.15205754,-0.10654792,1,1,4,3,3,0,0
1743177450845379,1743177450845379,52.51485877786339,13.325424165085316,-0.009146089,-0.009146089,-0.003559583,-0.003559583,0.18490891,0.15242018,-0.10656382,1,1,4,3,3,0,0
1743177450853379,1743177450853379,52.51485877776853,13.325424165504776,-0.009119149,-0.009119149,-0.003559583,-0.003559583,0.18517962,0.1527874,-0.10658015,1,1,4,3,3,0,0
1743177450861379,1743177450861379,52.5148587776687,13.325424165952507,-0.009093415,-0.009093415,-0.003559583,-0.003559583,0.18546042,0.1531592,-0.10659756,1,1,4,3,3,0,0
1743177450869379,1743177450869379,52.51485877757025,13.325424166421037,-0.009068922,-0.009068922,-0.003559583,-0.003559583,0.18575148,0.15338834,-0.10661591,1,1,4,3,3,0,0
1743177450877379,1743177450877379,52.51485877746473,13.325424166847936,-0.009045338,-0.009045338,-0.003559583,-0.003559583,0.1860532,0.15376888,-0.10663675,1,1,4,3,3,0,0
1743177450885379,1743177450885379,52.51485877741526,13.325424167277657,-0.009017339,-0.009017339,-0.003559583,-0.003559583,0.17956671,0.15020715,-0.10652887,1,1,4,3,3,0,0
1743177450893379,1743177450893379,52.51485877739251,13.325424167711843,-0.008991125,-0.008991125,-0.003559583,-0.003559583,0.17983858,0.15056777,-0.10655516,1,1,4,3,3,0,0
1743177450901379,1743177450901379,52.51485877737136,13.325424168131818,-0.008966162,-0.008966162,-0.003559583,-0.003559583,0.18012041,0.15093276,-0.1065848,1,1,4,3,3,0,0
1743177450909379,1743177450909379,52.51485877736073,13.325424168532493,-0.0089439545,-0.0089439545,-0.003559583,-0.003559583,0.18041244,0.15130211,-0.10661493,1,1,4,3,3,0,0
1743177450917379,1743177450917379,52.51485877736961,13.325424168958243,-0.008934889,-0.008934889,-0.003559583,-0.003559583,0.18071494,0.15153387,-0.106960215,1,1,4,3,3,0,0
1743177450925379,1743177450925379,52.514858777377036,13.325424169410642,-0.0089302845,-0.0089302845,-0.003559583,-0.003559583,0.18102813,0.15191153,-0.10699013,1,1,4,3,3,0,0
1743177450933379,1743177450933379,52.514858777406936,13.325424169926393,-0.008921647,-0.008921647,-0.003559583,-0.003559583,0.17498726,0.14847621,-0.10685599,1,1,4,3,3,0,0
1743177450941379,1743177450941379,52.5148587774324,13.325424170471258,-0.008911816,-0.008911816,-0.003559583,-0.003559583,0.1752701,0.14883506,-0.10688519,1,1,4,3,3,0,0
1743177450949379,1743177450949379,52.51485877746307,13.325424171019389,-0.008901278,-0.008901278,-0.003559583,-0.003559583,0.17556305,0.14919809,-0.10691665,1,1,4,3,3,0,0
1743177450957379,1743177450957379,52.51485877748058,13.325424171552871,-0.008892431,-0.008892431,-0.003559583,-0.003559583,0.1758646,0.14956526,-0.10694986,1,1,4,3,3,0,0
1743177450965379,1743177450965379,52.5148587774935,13.325424172066121,-0.008884775,-0.008884775,-0.003559583,-0.003559583,0.17617822,0.1499366,-0.10698273,1,1,4,3,3,0,0
1743177450973379,1743177450973379,52.51485877750405,13.325424172579016,-0.008902142,-0.008902142,-0.003559583,-0.003559583,0.17650262,0.15017393,-0.107713774,1,1,4,3,3,0,0
1743177450981379,1743177450981379,52.514858777530875,13.325424173108667,-0.0089229485,-0.0089229485,-0.003559583,-0.003559583,0.17683803,0.15055318,-0.10774892,1,1,4,3,3,0,0
1743177450989379,1743177450989379,52.51485877759936,13.325424173675374,-0.008938865,-0.008938865,-0.003559583,-0.003559583,0.17110945,0.14719723,-0.10756964,1,1,4,3,3,0,0
1743177450997379,1743177450997379,52.514858777673005,13.325424174273886,-0.008955874,-0.008955874,-0.003559583,-0.003559583,0.17141208,0.14755827,-0.10760287,1,1,4,3,3,0,0
1743177451005379,1743177451005379,52.51485877776116,13.325424174852898,-0.0089745745,-0.0089745745,-0.003559583,-0.003559583,0.17172496,0.1479233,-0.10763589,1,1,4,3,3,0,0
1743177451013379,1743177451013379,52.51485877787626,13.325424175416622,-0.00899507,-0.00899507,-0.003559583,-0.003559583,0.17204846,0.14829233,-0.1076687,1,1,4,3,3,0,0
1743177451021379,1743177451021379,52.514858778020034,13.325424175996677,-0.009000967,-0.009000967,-0.003559583,-0.003559583,0.17238277,0.14853169,-0.10723347,1,1,4,3,3,0,0
1743177451029379,1743177451029379,52.51485877817086,13.325424176622304,-0.009007209,-0.009007209,-0.003559583,-0.003559583,0.1727281,0.14890829,-0.107264794,1,1,4,3,3,0,0
1743177451037379,1743177451037379,52.51485877832516,13.325424177281512,-0.00901113,-0.00901113,-0.003559583,-0.003559583,0.16732945,0.1456608,-0.107125245,1,1,4,3,3,0,0
1743177451045379,1743177451045379,52.5148587784793,13.325424177957716,-0.009017137,-0.009017137,-0.003559583,-0.003559583,0.1676418,0.1460201,-0.10715406,1,1,4,3,3,0,0
1743177451053379,1743177451053379,52.514858778643585,13.325424178647461,-0.009022056,-0.009022056,-0.003559583,-0.003559583,0.16796452,0.14638324,-0.10718352,1,1,4,3,3,0,0
1743177451061379,1743177451061379,52.51485877880771,13.32542417935791,-0.009027039,-0.009027039,-0.003559583,-0.003559583,0.16829778,0.1467502,-0.107214056,1,1,4,3,3,0,0
1743177451069379,1743177451069379,52.51485877894859,13.325424180053705,-0.009032759,-0.009032759,-0.003559583,-0.003559583,0.16864185,0.147121,-0.10724693,1,1,4,3,3,0,0
1743177451077379,1743177451077379,52.51485877910056,13.325424180714503,-0.0090293605,-0.0090293605,-0.003559583,-0.003559583,0.16899683,0.14736511,-0.1069651,1,1,4,3,3,0,0
1743177451085379,1743177451085379,52.514858779268586,13.325424181362083,-0.009027476,-0.009027476,-0.003559583,-0.003559583,0.16936314,0.1477432,-0.107000895,1,1,4,3,3,0,0
1743177451093379,1743177451093379,52.514858779433006,13.325424181986186,-0.009018726,-0.009018726,-0.003559583,-0.003559583,0.16417831,0.14456117,-0.10686528,1,1,4,3,3,0,0
1743177451101379,1743177451101379,52.51485877958222,13.32542418260821,-0.009009093,-0.009009093,-0.003559583,-0.003559583,0.16450943,0.14492242,-0.10689608,1,1,4,3,3,0,0
1743177451109379,1743177451109379,52.5148587797333,13.325424183238662,-0.008999312,-0.008999312,-0.003559583,-0.003559583,0.16485105,0.14528738,-0.10692725,1,1,4,3,3,0,0
1743177451117379,1743177451117379,52.51485877988188,13.325424183893677,-0.008988878,-0.008988878,-0.003559583,-0.003559583,0.16520339,0.14565602,-0.10695903,1,1,4,3,3,0,0
1743177451125379,1743177451125379,52.51485878002104,13.32542418456229,-0.008960305,-0.008960305,-0.003559583,-0.003559583,0.16556667,0.14590171,-0.10643001,1,1,4,3,3,0,0
1743177451133379,1743177451133379,52.514858780150654,13.325424185241733,-0.008933345,-0.008933345,-0.003559583,-0.003559583,0.1659411,0.14627741,-0.10646513,1,1,4,3,3,0,0
1743177451141379,1743177451141379,52.51485878028897,13.325424185876075,-0.008900636,-0.008900636,-0.003559583,-0.003559583,0.16101006,0.1431893,-0.10633601,1,1,4,3,3,0,0
1743177451149379,1743177451149379,52.514858780414336,13.325424186469801,-0.008870561,-0.008870561,-0.003559583,-0.003559583,0.16134945,0.14354888,-0.10637185,1,1,4,3,3,0,0
1743177451157379,1743177451157379,52.51485878053735,13.325424187042328,-0.008841192,-0.008841192,-0.003559583,-0.003559583,0.16169766,0.14391203,-0.10640897,1,1,4,3,3,0,0
1743177451165379,1743177451165379,52.514858780646186,13.325424187629295,-0.008810274,-0.008810274,-0.003559583,-0.003559583,0.16205797,0.14427878,-0.10644739,1,1,4,3,3,0,0
1743177451173379,1743177451173379,52.51485878076262,13.325424188222142,-0.008781128,-0.008781128,-0.003559583,-0.003559583,0.16242911,0.1446491,-0.10648587,1,1,4,3,3,0,0
1743177451181379,1743177451181379,52.51485878085858,13.325424188807663,-0.008750098,-0.008750098,-0.003559583,-0.003559583,0.16281131,0.14489898,-0.10637304,1,1,4,3,3,0,0
1743177451189379,1743177451189379,52.514858780934134,13.325424189382039,-0.008719154,-0.008719154,-0.003559583,-0.003559583,0.16320476,0.14527613,-0.106413186,1,1,4,3,3,0,0
1743177451197379,1743177451197379,52.51485878102315,13.325424189898067,-0.008681981,-0.008681981,-0.003559583,-0.003559583,0.15842317,0.14224204,-0.106275566,1,1,4,3,3,0,0
1743177451205379,1743177451205379,52.514858781093956,13.325424190366626,-0.008644287,-0.008644287,-0.003559583,-0.003559583,0.15877977,0.14260343,-0.10631357,1,1,4,3,3,0,0
1743177451213379,1743177451213379,52.51485878116338,13.32542419085584,-0.008606878,-0.008606878,-0.003559583,-0.003559583,0.1591468,0.14296831,-0.1063506,1,1,4,3,3,0,0
1743177451221379,1743177451221379,52.51485878124292,13.325424191377621,-0.008570865,-0.008570865,-0.003559583,-0.003559583,0.15952462,0.14333668,-0.1063878,1,1,4,3,3,0,0
1743177451229379,1743177451229379,52.51485878133782,13.325424191881327,-0.00856875,-0.00856875,-0.003559583,-0.003559583,0.15991333,0.14358784,-0.10749121,1,1,4,3,3,0,0
1743177451237379,1743177451237379,52.51485878145153,13.325424192363467,-0.0085664075,-0.0085664075,-0.003559583,-0.003559583,0.16031314,0.14396285,-0.10753167,1,1,4,3,3,0,0
1743177451245379,1743177451245379,52.51485878159377,13.325424192833072,-0.008560218,-0.008560218,-0.003559583,-0.003559583,0.15573369,0.14101064,-0.107369296,1,1,4,3,3,0,0
1743177451253379,1743177451253379,52.514858781734915,13.325424193278183,-0.008557324,-0.008557324,-0.003559583,-0.003559583,0.1560971,0.14137049,-0.10740422,1,1,4,3,3,0,0
1743177451261379,1743177451261379,52.514858781871176,13.325424193679805,-0.008557238,-0.008557238,-0.003559583,-0.003559583,0.1564709,0.14173374,-0.10743788,1,1,4,3,3,0,0
1743177451269379,1743177451269379,52.51485878199975,13.325424194071152,-0.008560502,-0.008560502,-0.003559583,-0.003559583,0.15685529,0.1421004,-0.10746992,1,1,4,3,3,0,0
1743177451277379,1743177451277379,52.514858782123014,13.325424194479602,-0.008567533,-0.008567533,-0.003559583,-0.003559583,0.15725034,0.14247043,-0.10750136,1,1,4,3,3,0,0
1743177451285379,1743177451285379,52.51485878223406,13.3254241948976,-0.008568966,-0.008568966,-0.003559583,-0.003559583,0.15765643,0.14272535,-0.10729601,1,1,4,3,3,0,0
1743177451293379,1743177451293379,52.514858782336965,13.325424195294726,-0.008571884,-0.008571884,-0.003559583,-0.003559583,0.15807363,0.14310189,-0.10732554,1,1,4,3,3,0,0
1743177451301379,1743177451301379,52.514858782470114,13.325424195674218,-0.008572147,-0.008572147,-0.003559583,-0.003559583,0.15359789,0.14019413,-0.10718726,1,1,4,3,3,0,0
1743177451309379,1743177451309379,52.51485878261746,13.325424196057966,-0.00857531,-0.00857531,-0.003559583,-0.003559583,0.15397714,0.14055577,-0.10721554,1,1,4,3,3,0,0
1743177451317379,1743177451317379,52.514858782781666,13.325424196417943,-0.008579631,-0.008579631,-0.003559583,-0.003559583,0.15436682,0.14092071,-0.10724138,1,1,4,3,3,0,0
1743177451325379,1743177451325379,52.51485878295706,13.325424196778753,-0.008586797,-0.008586797,-0.003559583,-0.003559583,0.1547671,0.141289,-0.10726765,1,1,4,3,3,0,0
1743177451333379,1743177451333379,52.514858783131935,13.32542419712286,-0.008590327,-0.008590327,-0.003559583,-0.003559583,0.1551781,0.14154501,-0.10709439,1,1,4,3,3,0,0
1743177451341379,1743177451341379,52.51485878330317,13.325424197486207,-0.0085928105,-0.0085928105,-0.003559583,-0.003559583,0.15560004,0.14191963,-0.10712051,1,1,4,3,3,0,0
1743177451349379,1743177451349379,52.51485878351688,13.325424197861668,-0.008589487,-0.008589487,-0.003559583,-0.003559583,0.15129021,0.13908373,-0.10701416,1,1,4,3,3,0,0
1743177451357379,1743177451357379,52.514858783754335,13.32542419826906,-0.008584221,-0.008584221,-0.003559583,-0.003559583,0.15167354,0.13944396,-0.10703576,1,1,4,3,3,0,0
1743177451365379,1743177451365379,52.51485878400635,13.325424198676615,-0.008578122,-0.008578122,-0.003559583,-0.003559583,0.15206833,0.13980745,-0.10705641,1,1,4,3,3,0,0
1743177451373379,1743177451373379,52.51485878424734,13.325424199077474,-0.008573269,-0.008573269,-0.003559583,-0.003559583,0.15247352,0.1401742,-0.107076965,1,1,4,3,3,0,0
1743177451381379,1743177451381379,52.51485878446906,13.325424199444347,-0.008568173,-0.008568173,-0.003559583,-0.003559583,0.15288928,0.1405442,-0.107096314,1,1,4,3,3,0,0
1743177451389379,1743177451389379,52.51485878468445,13.325424199770355,-0.008558998,-0.008558998,-0.003559583,-0.003559583,0.15331574,0.14080372,-0.10693234,1,1,4,3,3,0,0
1743177451397379,1743177451397379,52.51485878488744,13.325424200080834,-0.0085533755,-0.0085533755,-0.003559583,-0.003559583,0.1537531,0.14117996,-0.10695271,1,1,4,3,3,0,0
1743177451405379,1743177451405379,52.51485878510303,13.325424200371495,-0.008545343,-0.008545343,-0.003559583,-0.003559583,0.14951663,0.13838044,-0.10684704,1,1,4,3,3,0,0
1743177451413379,1743177451413379,52.51485878533473,13.325424200629895,-0.008540026,-0.008540026,-0.003559583,-0.003559583,0.14991552,0.13874248,-0.10687156,1,1,4,3,3,0,0
1743177451421379,1743177451421379,52.51485878556432,13.325424200844672,-0.008537054,-0.008537054,-0.003559583,-0.003559583,0.15032463,0.13910773,-0.106899045,1,1,4,3,3,0,0
1743177451429379,1743177451429379,52.51485878580163,13.325424201055796,-0.008535496,-0.008535496,-0.003559583,-0.003559583,0.1507441,0.1394762,-0.106929645,1,1,4,3,3,0,0
1743177451437379,1743177451437379,52.514858786060195,13.325424201270144,-0.008558872,-0.008558872,-0.003559583,-0.003559583,0.15117404,0.13973667,-0.10768573,1,1,4,3,3,0,0
1743177451445379,1743177451445379,52.51485878632107,13.325424201463223,-0.008584463,-0.008584463,-0.003559583,-0.003559583,0.15161464,0.14011127,-0.10772103,1,1,4,3,3,0,0
1743177451453379,1743177451453379,52.51485878659028,13.32542420161457,-0.008605138,-0.008605138,-0.003559583,-0.003559583,0.1475183,0.1373751,-0.10755097,1,1,4,3,3,0,0
1743177451461379,1743177451461379,52.51485878684335,13.325424201746555,-0.008627662,-0.008627662,-0.003559583,-0.003559583,0.14792138,0.13773592,-0.10758871,1,1,4,3,3,0,0
1743177451469379,1743177451469379,52.51485878708401,13.325424201863072,-0.008648198,-0.008648198,-0.003559583,-0.003559583,0.14833446,0.1380999,-0.10762716,1,1,4,3,3,0,0
1743177451477379,1743177451477379,52.51485878732999,13.325424201985138,-0.008666176,-0.008666176,-0.003559583,-0.003559583,0.14875768,0.13846703,-0.10766765,1,1,4,3,3,0,0
1743177451485379,1743177451485379,52.51485878758243,13.325424202116576,-0.008685348,-0.008685348,-0.003559583,-0.003559583,0.14919111,0.13883732,-0.10771,1,1,4,3,3,0,0
1743177451493379,1743177451493379,52.514858787844005,13.325424202266262,-0.00869592,-0.00869592,-0.003559583,-0.003559583,0.14963503,0.13910112,-0.10747384,1,1,4,3,3,0,0
1743177451501379,1743177451501379,52.514858788124734,13.325424202405848,-0.00870683,-0.00870683,-0.003559583,-0.003559583,0.15008952,0.13947748,-0.10751155,1,1,4,3,3,0,0
1743177451509379,1743177451509379,52.51485878842027,13.325424202504927,-0.008714247,-0.008714247,-0.003559583,-0.003559583,0.14604336,0.13677074,-0.1073677,1,1,4,3,3,0,0
1743177451517379,1743177451517379,52.51485878871144,13.325424202594421,-0.008723622,-0.008723622,-0.003559583,-0.003559583,0.1464594,0.13713346,-0.10739967,1,1,4,3,3,0,0
1743177451525379,1743177451525379,52.51485878899997,13.325424202709934,-0.00873521,-0.00873521,-0.003559583,-0.003559583,0.14688538,0.1374993,-0.1074319,1,1,4,3,3,0,0
1743177451533379,1743177451533379,52.51485878928648,13.325424202843845,-0.008749419,-0.008749419,-0.003559583,-0.003559583,0.14732142,0.13786827,-0.10746333,1,1,4,3,3,0,0
1743177451541379,1743177451541379,52.51485878957728,13.325424202980528,-0.008782807,-0.008782807,-0.003559583,-0.003559583,0.14776763,0.13813297,-0.107996576,1,1,4,3,3,0,0
1743177451549379,1743177451549379,52.51485878985925,13.325424203114636,-0.008816344,-0.008816344,-0.003559583,-0.003559583,0.1482241,0.13850793,-0.10803278,1,1,4,3,3,0,0
1743177451557379,1743177451557379,52.514858790141595,13.325424203207566,-0.008841738,-0.008841738,-0.003559583,-0.003559583,0.14429778,0.13585731,-0.10785912,1,1,4,3,3,0,0
1743177451565379,1743177451565379,52.51485879040607,13.325424203288078,-0.008866475,-0.008866475,-0.003559583,-0.003559583,0.14471674,0.13621898,-0.10789641,1,1,4,3,3,0,0
1743177451573379,1743177451573379,52.514858790653804,13.325424203397983,-0.008890122,-0.008890122,-0.003559583,-0.003559583,0.1451454,0.13658375,-0.10793501,1,1,4,3,3,0,0
1743177451581379,1743177451581379,52.51485879088981,13.325424203518436,-0.008913448,-0.008913448,-0.003559583,-0.003559583,0.14558388,0.1369516,-0.10797427,1,1,4,3,3,0,0
1743177451589379,1743177451589379,52.51485879113488,13.325424203667987,-0.008936174,-0.008936174,-0.003559583,-0.003559583,0.14603233,0.13732256,-0.10801461,1,1,4,3,3,0,0
1743177451597379,1743177451597379,52.51485879139771,13.325424203845413,-0.008955453,-0.008955453,-0.003559583,-0.003559583,0.14649087,0.1375905,-0.10794346,1,1,4,3,3,0,0
1743177451605379,1743177451605379,52.51485879166966,13.325424204052938,-0.008973758,-0.008973758,-0.003559583,-0.003559583,0.1469596,0.1379674,-0.10798678,1,1,4,3,3,0,0
1743177451613379,1743177451613379,52.51485879194501,13.325424204283703,-0.008986437,-0.008986437,-0.003559583,-0.003559583,0.14306937,0.13534015,-0.10779746,1,1,4,3,3,0,0
1743177451621379,1743177451621379,52.51485879221202,13.325424204521294,-0.009003944,-0.009003944,-0.003559583,-0.003559583,0.14349991,0.13570386,-0.107837655,1,1,4,3,3,0,0
1743177451629379,1743177451629379,52.514858792471365,13.325424204761504,-0.0090206405,-0.0090206405,-0.003559583,-0.003559583,0.1439401,0.13607062,-0.107875526,1,1,4,3,3,0,0
1743177451637379,1743177451637379,52.5148587927337,13.325424205018425,-0.009037118,-0.009037118,-0.003559583,-0.003559583,0.14439003,0.13644047,-0.107913464,1,1,4,3,3,0,0
1743177451645379,1743177451645379,52.51485879299441,13.325424205276057,-0.009060236,-0.009060236,-0.003559583,-0.003559583,0.1448498,0.13670929,-0.108176194,1,1,4,3,3,0,0
1743177451653379,1743177451653379,52.514858793249864,13.325424205526115,-0.009082474,-0.009082474,-0.003559583,-0.003559583,0.14531954,0.13708502,-0.10821499,1,1,4,3,3,0,0
1743177451661379,1743177451661379,52.51485879361473,13.32542420574964,-0.009101349,-0.009101349,-0.003559583,-0.003559583,0.14153546,0.13450769,-0.108028375,1,1,4,3,3,0,0
1743177451669379,1743177451669379,52.514858793959334,13.325424205956251,-0.009125236,-0.009125236,-0.003559583,-0.003559583,0.14196812,0.13487053,-0.1080682,1,1,4,3,3,0,0
1743177451677379,1743177451677379,52.514858794292245,13.325424206164394,-0.00915397,-0.00915397,-0.003559583,-0.003559583,0.14241017,0.13523641,-0.108109385,1,1,4,3,3,0,0
1743177451685379,1743177451685379,52.51485879463095,13.32542420634851,-0.0091838185,-0.0091838185,-0.003559583,-0.003559583,0.14286168,0.13560534,-0.10815277,1,1,4,3,3,0,0
1743177451693379,1743177451693379,52.51485879496943,13.325424206503603,-0.009213227,-0.009213227,-0.003559583,-0.003559583,0.14332284,0.13597734,-0.10819832,1,1,4,3,3,0,0
1743177451701379,1743177451701379,52.51485879531823,13.32542420666218,-0.009224092,-0.009224092,-0.003559583,-0.003559583,0.14379373,0.13624936,-0.107635826,1,1,4,3,3,0,0
1743177451709379,1743177451709379,52.51485879566579,13.325424206825284,-0.009234967,-0.009234967,-0.003559583,-0.003559583,0.14427446,0.13662723,-0.107678376,1,1,4,3,3,0,0
1743177451717379,1743177451717379,52.51485879598745,13.32542420696183,-0.00923975,-0.00923975,-0.003559583,-0.003559583,0.1405128,0.13406798,-0.10751217,1,1,4,3,3,0,0
1743177451725379,1743177451725379,52.514858796331794,13.325424207113857,-0.009247506,-0.009247506,-0.003559583,-0.003559583,0.14095588,0.13443299,-0.10755041,1,1,4,3,3,0,0
1743177451733379,1743177451733379,52.5148587967051,13.325424207280504,-0.00925985,-0.00925985,-0.003559583,-0.003559583,0.14140826,0.13480103,-0.107588015,1,1,4,3,3,0,0
1743177451741379,1743177451741379,52.51485879708226,13.325424207479694,-0.009273978,-0.009273978,-0.003559583,-0.003559583,0.14187004,0.13517213,-0.10762486,1,1,4,3,3,0,0
1743177451749379,1743177451749379,52.514858797470914,13.325424207716638,-0.0092800325,-0.0092800325,-0.003559583,-0.003559583,0.14234129,0.13544504,-0.107385516,1,1,4,3,3,0,0
1743177451757379,1743177451757379,52.514858797880976,13.325424207952933,-0.009287473,-0.009287473,-0.003559583,-0.003559583,0.14282046,0.13582197,-0.107420154,1,1,4,3,3,0,0
1743177451765379,1743177451765379,52.51485879825286,13.325424208150421,-0.0092918975,-0.0092918975,-0.003559583,-0.003559583,0.13915437,0.13330725,-0.10729676,1,1,4,3,3,0,0
1743177451773379,1743177451773379,52.514858798608884,13.325424208350881,-0.009299597,-0.009299597,-0.003559583,-0.003559583,0.13959858,0.13367157,-0.10733474,1,1,4,3,3,0,0
1743177451781379,1743177451781379,52.5148587989482,13.325424208546606,-0.00930947,-0.00930947,-0.003559583,-0.003559583,0.14005183,0.13403893,-0.10737243,1,1,4,3,3,0,0
1743177451789379,1743177451789379,52.51485879926786,13.325424208748368,-0.009318782,-0.009318782,-0.003559583,-0.003559583,0.14051425,0.13440931,-0.10740902,1,1,4,3,3,0,0
1743177451797379,1743177451797379,52.51485879957916,13.325424208937534,-0.009327969,-0.009327969,-0.003559583,-0.003559583,0.14098592,0.13478273,-0.10744448,1,1,4,3,3,0,0
1743177451805379,1743177451805379,52.5148587998944,13.325424209128022,-0.009327317,-0.009327317,-0.003559583,-0.003559583,0.14146696,0.13505885,-0.10721351,1,1,4,3,3,0,0
1743177451813379,1743177451813379,52.51485880020794,13.325424209299456,-0.009327685,-0.009327685,-0.003559583,-0.003559583,0.14195743,0.1354381,-0.10725072,1,1,4,3,3,0,0
1743177451821379,1743177451821379,52.514858800489705,13.32542420942636,-0.009323029,-0.009323029,-0.003559583,-0.003559583,0.13830504,0.1329368,-0.107085854,1,1,4,3,3,0,0
1743177451829379,1743177451829379,52.51485880076496,13.325424209567057,-0.009316438,-0.009316438,-0.003559583,-0.003559583,0.13875858,0.13330346,-0.10713021,1,1,4,3,3,0,0
1743177451837379,1743177451837379,52.51485880104077,13.325424209707078,-0.009310234,-0.009310234,-0.003559583,-0.003559583,0.13922106,0.13367315,-0.107175395,1,1,4,3,3,0,0
1743177451845379,1743177451845379,52.51485880130268,13.32542420986914,-0.009306327,-0.009306327,-0.003559583,-0.003559583,0.13969254,0.13404587,-0.10721994,1,1,4,3,3,0,0
1743177451853379,1743177451853379,52.514858801549515,13.325424210054468,-0.009311226,-0.009311226,-0.003559583,-0.003559583,0.14017317,0.13432291,-0.10749934,1,1,4,3,3,0,0
1743177451861379,1743177451861379,52.514858801770025,13.325424210233274,-0.009316572,-0.009316572,-0.003559583,-0.003559583,0.14066298,0.13470143,-0.10754428,1,1,4,3,3,0,0
1743177451869379,1743177451869379,52.51485880195455,13.32542421038749,-0.009316611,-0.009316611,-0.003559583,-0.003559583,0.1370965,0.13223995,-0.107370615,1,1,4,3,3,0,0
1743177451877379,1743177451877379,52.51485880213412,13.32542421055919,-0.009318706,-0.009318706,-0.003559583,-0.003559583,0.13755052,0.13260612,-0.10741583,1,1,4,3,3,0,0
1743177451885379,1743177451885379,52.51485880232269,13.325424210720447,-0.0093226675,-0.0093226675,-0.003559583,-0.003559583,0.13801327,0.1329753,-0.10746403,1,1,4,3,3,0,0
1743177451893379,1743177451893379,52.51485880251232,13.32542421086176,-0.009329127,-0.009329127,-0.003559583,-0.003559583,0.13848478,0.1333475,-0.10751364,1,1,4,3,3,0,0
1743177451901379,1743177451901379,52.514858802694114,13.32542421101581,-0.009338818,-0.009338818,-0.003559583,-0.003559583,0.13896523,0.13372272,-0.10756315,1,1,4,3,3,0,0
1743177451909379,1743177451909379,52.51485880287059,13.325424211203856,-0.00934338,-0.00934338,-0.003559583,-0.003559583,0.1394547,0.134003,-0.107316785,1,1,4,3,3,0,0
1743177451917379,1743177451917379,52.51485880305384,13.325424211362236,-0.009350954,-0.009350954,-0.003559583,-0.003559583,0.1399532,0.13438405,-0.10736706,1,1,4,3,3,0,0
1743177451925379,1743177451925379,52.51485880318718,13.325424211266993,-0.009352194,-0.009352194,-0.003559583,-0.003559583,0.13639385,0.13193183,-0.107174695,1,1,4,3,3,0,0
1743177451933379,1743177451933379,52.51485880328497,13.325424211231354,-0.009354679,-0.009354679,-0.003559583,-0.003559583,0.13685623,0.1323005,-0.1072257,1,1,4,3,3,0,0
1743177451941379,1743177451941379,52.51485880337927,13.32542421123474,-0.009359378,-0.009359378,-0.003559583,-0.003559583,0.13732721,0.13267218,-0.10727581,1,1,4,3,3,0,0
1743177451949379,1743177451949379,52.51485880346176,13.325424211244433,-0.009364311,-0.009364311,-0.003559583,-0.003559583,0.13780688,0.13304688,-0.10732433,1,1,4,3,3,0,0
1743177451957379,1743177451957379,52.51485880356633,13.32542421129427,-0.009364943,-0.009364943,-0.003559583,-0.003559583,0.13829395,0.13332811,-0.10722841,1,1,4,3,3,0,0
1743177451965379,1743177451965379,52.51485880367106,13.325424211345059,-0.009365775,-0.009365775,-0.003559583,-0.003559583,0.13879105,0.13370863,-0.10727494,1,1,4,3,3,0,0
1743177451973379,1743177451973379,52.51485880375885,13.325424211378216,-0.009359021,-0.009359021,-0.003559583,-0.003559583,0.13531093,0.13129215,-0.107113995,1,1,4,3,3,0,0
1743177451981379,1743177451981379,52.51485880383109,13.325424211416088,-0.009351833,-0.009351833,-0.003559583,-0.003559583,0.13577308,0.13166048,-0.10715579,1,1,4,3,3,0,0
1743177451989379,1743177451989379,52.51485880387719,13.325424211465457,-0.00934709,-0.00934709,-0.003559583,-0.003559583,0.1362436,0.1320318,-0.10719685,1,1,4,3,3,0,0
1743177451997379,1743177451997379,52.51485880389838,13.32542421155137,-0.009344282,-0.009344282,-0.003559583,-0.003559583,0.1367226,0.13240616,-0.10723886,1,1,4,3,3,0,0
1743177452005379,1743177452005379,52.51485880391741,13.325424211608711,-0.009343649,-0.009343649,-0.003559583,-0.003559583,0.13721015,0.13278356,-0.107280985,1,1,4,3,3,0,0
1743177452013379,1743177452013379,52.51485880393825,13.325424211647043,-0.009348459,-0.009348459,-0.003559583,-0.003559583,0.13770631,0.13306805,-0.10746567,1,1,4,3,3,0,0
1743177452021379,1743177452021379,52.51485880397307,13.325424211681769,-0.009354041,-0.009354041,-0.003559583,-0.003559583,0.13821116,0.13345127,-0.10750871,1,1,4,3,3,0,0
1743177452029379,1743177452029379,52.514858804020975,13.325424211684451,-0.009354705,-0.009354705,-0.003559583,-0.003559583,0.13473313,0.13104036,-0.10733766,1,1,4,3,3,0,0
1743177452037379,1743177452037379,52.51485880406441,13.325424211683835,-0.009356208,-0.009356208,-0.003559583,-0.003559583,0.13520274,0.13141133,-0.10738112,1,1,4,3,3,0,0
1743177452045379,1743177452045379,52.51485880409119,13.32542421170132,-0.009356747,-0.009356747,-0.003559583,-0.003559583,0.13568062,0.13178533,-0.10742591,1,1,4,3,3,0,0
1743177452053379,1743177452053379,52.51485880410245,13.325424211725746,-0.009358173,-0.009358173,-0.003559583,-0.003559583,0.13616684,0.13216236,-0.10747331,1,1,4,3,3,0,0
1743177452061379,1743177452061379,52.514858804111974,13.325424211780645,-0.009370232,-0.009370232,-0.003559583,-0.003559583,0.13666146,0.13244782,-0.10783205,1,1,4,3,3,0,0
1743177452069379,1743177452069379,52.514858804096924,13.325424211831495,-0.009385404,-0.009385404,-0.003559583,-0.003559583,0.13716455,0.1328307,-0.10788551,1,1,4,3,3,0,0
1743177452077379,1743177452077379,52.51485880406353,13.325424211826693,-0.009394935,-0.009394935,-0.003559583,-0.003559583,0.13375917,0.13045195,-0.10767901,1,1,4,3,3,0,0
1743177452085379,1743177452085379,52.514858804052714,13.32542421180525,-0.009408028,-0.009408028,-0.003559583,-0.003559583,0.1342281,0.13082272,-0.107731126,1,1,4,3,3,0,0
1743177452093379,1743177452093379,52.514858804058605,13.325424211785664,-0.00942433,-0.00942433,-0.003559583,-0.003559583,0.13470505,0.13119653,-0.107783966,1,1,4,3,3,0,0
1743177452101379,1743177452101379,52.514858804073185,13.325424211755111,-0.0094429245,-0.0094429245,-0.003559583,-0.003559583,0.13519019,0.13157336,-0.10783636,1,1,4,3,3,0,0
1743177452109379,1743177452109379,52.51485880410692,13.325424211719387,-0.009462714,-0.009462714,-0.003559583,-0.003559583,0.13568355,0.13195324,-0.107887566,1,1,4,3,3,0,0
1743177452117379,1743177452117379,52.51485880414865,13.325424211670452,-0.00947251,-0.00947251,-0.003559583,-0.003559583,0.1361852,0.13224201,-0.107582375,1,1,4,3,3,0,0
1743177452125379,1743177452125379,52.51485880417497,13.325424211640122,-0.00948286,-0.00948286,-0.003559583,-0.003559583,0.1366952,0.13262774,-0.10762969,1,1,4,3,3,0,0
1743177452133379,1743177452133379,52.514858804183476,13.325424211579543,-0.009484323,-0.009484323,-0.003559583,-0.003559583,0.13328807,0.13025127,-0.10745126,1,1,4,3,3,0,0
1743177452141379,1743177452141379,52.51485880420658,13.325424211535534,-0.009486309,-0.009486309,-0.003559583,-0.003559583,0.1337637,0.13062485,-0.10749627,1,1,4,3,3,0,0
1743177452149379,1743177452149379,52.51485880422107,13.325424211492876,-0.009489843,-0.009489843,-0.003559583,-0.003559583,0.13424727,0.13100147,-0.1075423,1,1,4,3,3,0,0
1743177452157379,1743177452157379,52.51485880423827,13.325424211451153,-0.009492033,-0.009492033,-0.003559583,-0.003559583,0.1347378,0.13138112,-0.10758923,1,1,4,3,3,0,0
1743177452165379,1743177452165379,52.51485880424533,13.325424211405636,-0.00949953,-0.00949953,-0.003559583,-0.003559583,0.13523728,0.13167089,-0.10780175,1,1,4,3,3,0,0
1743177452173379,1743177452173379,52.51485880423725,13.325424211380597,-0.009507439,-0.009507439,-0.003559583,-0.003559583,0.13574494,0.1320564,-0.10784888,1,1,4,3,3,0,0
1743177452181379,1743177452181379,52.514858804181934,13.32542421132679,-0.009506847,-0.009506847,-0.003559583,-0.003559583,0.13240604,0.12970899,-0.1076583,1,1,4,3,3,0,0
1743177452189379,1743177452189379,52.51485880409921,13.32542421132607,-0.00950619,-0.00950619,-0.003559583,-0.003559583,0.13288042,0.13008249,-0.10770414,1,1,4,3,3,0,0
1743177452197379,1743177452197379,52.51485880402874,13.325424211360192,-0.0095079485,-0.0095079485,-0.003559583,-0.003559583,0.13336258,0.13045903,-0.107748374,1,1,4,3,3,0,0
1743177452205379,1743177452205379,52.51485880397496,13.325424211384544,-0.0095099,-0.0095099,-0.003559583,-0.003559583,0.13385254,0.1308386,-0.107792154,1,1,4,3,3,0,0
1743177452213379,1743177452213379,52.51485880392173,13.32542421136884,-0.009511838,-0.009511838,-0.003559583,-0.003559583,0.13435042,0.13122125,-0.10783626,1,1,4,3,3,0,0
1743177452221379,1743177452221379,52.51485880386466,13.325424211341723,-0.009502806,-0.009502806,-0.003559583,-0.003559583,0.13485624,0.13151436,-0.10751121,1,1,4,3,3,0,0
1743177452229379,1743177452229379,52.514858803808714,13.325424211290045,-0.009495219,-0.009495219,-0.003559583,-0.003559583,0.13536999,0.13190287,-0.10755843,1,1,4,3,3,0,0
1743177452237379,1743177452237379,52.51485880377477,13.325424211180968,-0.009480931,-0.009480931,-0.003559583,-0.003559583,0.13202652,0.12955478,-0.107367806,1,1,4,3,3,0,0
1743177452245379,1743177452245379,52.51485880373099,13.32542421105279,-0.009466931,-0.009466931,-0.003559583,-0.003559583,0.13250689,0.1299312,-0.10741792,1,1,4,3,3,0,0
1743177452253379,1743177452253379,52.514858803687325,13.325424210894925,-0.009454707,-0.009454707,-0.003559583,-0.003559583,0.1329949,0.13031067,-0.10746957,1,1,4,3,3,0,0
1743177452261379,1743177452261379,52.514858803660914,13.325424210718452,-0.009443441,-0.009443441,-0.003559583,-0.003559583,0.13349064,0.1306932,-0.107521765,1,1,4,3,3,0,0
1743177452269379,1743177452269379,52.514858803638745,13.325424210553711,-0.009426855,-0.009426855,-0.003559583,-0.003559583,0.13399413,0.1309873,-0.1074703,1,1,4,3,3,0,0
1743177452277379,1743177452277379,52.51485880362916,13.325424210400577,-0.009409243,-0.009409243,-0.003559583,-0.003559583,0.13450544,0.13137572,-0.10752222,1,1,4,3,3,0,0
1743177452285379,1743177452285379,52.51485880362321,13.325424210207192,-0.0093874065,-0.0093874065,-0.003559583,-0.003559583,0.13122508,0.12905398,-0.10734536,1,1,4,3,3,0,0
1743177452293379,1743177452293379,52.51485880360868,13.325424210027672,-0.009368521,-0.009368521,-0.003559583,-0.003559583,0.13170393,0.12943041,-0.10739237,1,1,4,3,3,0,0
1743177452301379,1743177452301379,52.51485880359379,13.325424209897587,-0.009352136,-0.009352136,-0.003559583,-0.003559583,0.13219023,0.12980992,-0.10743949,1,1,4,3,3,0,0
1743177452309379,1743177452309379,52.51485880358626,13.32542420981204,-0.009336618,-0.009336618,-0.003559583,-0.003559583,0.1326841,0.13019246,-0.10748474,1,1,4,3,3,0,0
1743177452317379,1743177452317379,52.51485880357735,13.325424209753416,-0.009321954,-0.009321954,-0.003559583,-0.003559583,0.13318558,0.13057809,-0.10752875,1,1,4,3,3,0,0
1743177452325379,1743177452325379,52.51485880357144,13.325424209674198,-0.009317888,-0.009317888,-0.003559583,-0.003559583,0.13369471,0.13087554,-0.10782844,1,1,4,3,3,0,0
1743177452333379,1743177452333379,52.51485880355155,13.325424209568938,-0.009315784,-0.009315784,-0.003559583,-0.003559583,0.13421156,0.13126707,-0.10787106,1,1,4,3,3,0,0
1743177452341379,1743177452341379,52.51485880352253,13.325424209419575,-0.009308209,-0.009308209,-0.003559583,-0.003559583,0.1309242,0.12894204,-0.10769637,1,1,4,3,3,0,0
1743177452349379,1743177452349379,52.51485880347434,13.325424209271057,-0.00930059,-0.00930059,-0.003559583,-0.003559583,0.13140844,0.1293215,-0.10773753,1,1,4,3,3,0,0
1743177452357379,1743177452357379,52.5148588034046,13.325424209142904,-0.009292278,-0.009292278,-0.003559583,-0.003559583,0.13189913,0.12970403,-0.10777826,1,1,4,3,3,0,0
1743177452365379,1743177452365379,52.51485880333256,13.325424209050233,-0.009284163,-0.009284163,-0.003559583,-0.003559583,0.13239798,0.13008963,-0.10781815,1,1,4,3,3,0,0
1743177452373379,1743177452373379,52.51485880327196,13.32542420898721,-0.009250793,-0.009250793,-0.003559583,-0.003559583,0.13290434,0.13038808,-0.106968544,1,1,4,3,3,0,0
1743177452381379,1743177452381379,52.51485880319712,13.325424208943867,-0.009222147,-0.009222147,-0.003559583,-0.003559583,0.1334182,0.1307796,-0.10700606,1,1,4,3,3,0,0
1743177452389379,1743177452389379,52.514858803106485,13.32542420891587,-0.009191494,-0.009191494,-0.003559583,-0.003559583,0.13019115,0.12847857,-0.10687389,1,1,4,3,3,0,0
1743177452397379,1743177452397379,52.51485880300086,13.32542420891695,-0.009163808,-0.009163808,-0.003559583,-0.003559583,0.13067342,0.12885812,-0.10690922,1,1,4,3,3,0,0
1743177452405379,1743177452405379,52.51485880288681,13.325424208934846,-0.009138995,-0.009138995,-0.003559583,-0.003559583,0.13116288,0.12924074,-0.10694484,1,1,4,3,3,0,0
1743177452413379,1743177452413379,52.51485880277795,13.325424208922728,-0.009116592,-0.009116592,-0.003559583,-0.003559583,0.13165963,0.12962644,-0.10698009,1,1,4,3,3,0,0
1743177452421379,1743177452421379,52.51485880265273,13.325424208898179,-0.0090967165,-0.0090967165,-0.003559583,-0.003559583,0.13216367,0.13001522,-0.10701258,1,1,4,3,3,0,0
1743177452429379,1743177452429379,52.5148588024933,13.325424208923112,-0.0090594515,-0.0090594515,-0.003559583,-0.003559583,0.1326751,0.13031703,-0.106405735,1,1,4,3,3,0,0
1743177452437379,1743177452437379,52.514858802339965,13.325424208996425,-0.009025583,-0.009025583,-0.003559583,-0.003559583,0.13319384,0.13071173,-0.106435835,1,1,4,3,3,0,0
1743177452445379,1743177452445379,52.514858802207456,13.325424209059191,-0.008991718,-0.008991718,-0.003559583,-0.003559583,0.12995803,0.12840514,-0.1063302,1,1,4,3,3,0,0
1743177452453379,1743177452453379,52.51485880207705,13.325424209185043,-0.00896161,-0.00896161,-0.003559583,-0.003559583,0.13044514,0.12878777,-0.1063622,1,1,4,3,3,0,0
1743177452461379,1743177452461379,52.51485880194246,13.325424209355207,-0.008933905,-0.008933905,-0.003559583,-0.003559583,0.13093935,0.12917349,-0.1063939,1,1,4,3,3,0,0
1743177452469379,1743177452469379,52.51485880181803,13.325424209561115,-0.008909324,-0.008909324,-0.003559583,-0.003559583,0.13144071,0.1295623,-0.106425494,1,1,4,3,3,0,0
1743177452477379,1743177452477379,52.51485880170194,13.32542420979459,-0.008904717,-0.008904717,-0.003559583,-0.003559583,0.13194929,0.12986507,-0.10699367,1,1,4,3,3,0,0
1743177452485379,1743177452485379,52.51485880158852,13.325424210048958,-0.00890119,-0.00890119,-0.003559583,-0.003559583,0.13246512,0.13025981,-0.10702909,1,1,4,3,3,0,0
1743177452493379,1743177452493379,52.514858801489375,13.325424210284309,-0.008893294,-0.008893294,-0.003559583,-0.003559583,0.12928554,0.1279752,-0.10692863,1,1,4,3,3,0,0
1743177452501379,1743177452501379,52.51485880138698,13.325424210519454,-0.0088874195,-0.0088874195,-0.003559583,-0.003559583,0.1297705,0.12835798,-0.106962115,1,1,4,3,3,0,0
1743177452509379,1743177452509379,52.514858801281875,13.325424210744405,-0.008885313,-0.008885313,-0.003559583,-0.003559583,0.13026245,0.12874383,-0.10699434,1,1,4,3,3,0,0
1743177452517379,1743177452517379,52.51485880116172,13.325424210972146,-0.008887977,-0.008887977,-0.003559583,-0.003559583,0.13076141,0.12913278,-0.1070259,1,1,4,3,3,0,0
1743177452525379,1743177452525379,52.51485880103956,13.325424211198214,-0.008892639,-0.008892639,-0.003559583,-0.003559583,0.13126744,0.12952481,-0.1070595,1,1,4,3,3,0,0
1743177452533379,1743177452533379,52.514858800926234,13.32542421141303,-0.008900011,-0.008900011,-0.003559583,-0.003559583,0.13178056,0.12983091,-0.10716518,1,1,4,3,3,0,0
1743177452541379,1743177452541379,52.5148588008135,13.325424211620119,-0.008909258,-0.008909258,-0.003559583,-0.003559583,0.13230084,0.13022892,-0.10720412,1,1,4,3,3,0,0
1743177452549379,1743177452549379,52.51485880073948,13.32542421178706,-0.008913628,-0.008913628,-0.003559583,-0.003559583,0.12911102,0.12793669,-0.10705221,1,1,4,3,3,0,0
1743177452557379,1743177452557379,52.514858800671455,13.325424211972559,-0.008918336,-0.008918336,-0.003559583,-0.003559583,0.12959954,0.1283226,-0.10709219,1,1,4,3,3,0,0
1743177452565379,1743177452565379,52.51485880057684,13.325424212147956,-0.008925846,-0.008925846,-0.003559583,-0.003559583,0.13009559,0.1287116,-0.107133225,1,1,4,3,3,0,0
1743177452573379,1743177452573379,52.514858800470805,13.325424212306997,-0.008938111,-0.008938111,-0.003559583,-0.003559583,0.13059849,0.12910368,-0.10717563,1,1,4,3,3,0,0
1743177452581379,1743177452581379,52.51485880036608,13.325424212471422,-0.00894791,-0.00894791,-0.003559583,-0.003559583,0.13110836,0.1294107,-0.10705707,1,1,4,3,3,0,0
1743177452589379,1743177452589379,52.514858800253734,13.325424212621098,-0.008959456,-0.008959456,-0.003559583,-0.003559583,0.13162524,0.12980875,-0.10710203,1,1,4,3,3,0,0
1743177452597379,1743177452597379,52.51485880015322,13.325424212690958,-0.008964579,-0.008964579,-0.003559583,-0.003559583,0.1284898,0.12753682,-0.10693319,1,1,4,3,3,0,0
1743177452605379,1743177452605379,52.51485880002597,13.325424212757849,-0.008971116,-0.008971116,-0.003559583,-0.003559583,0.12897666,0.12792288,-0.10698052,1,1,4,3,3,0,0
1743177452613379,1743177452613379,52.51485879987312,13.325424212794074,-0.008978881,-0.008978881,-0.003559583,-0.003559583,0.12947023,0.12831202,-0.10702877,1,1,4,3,3,0,0
1743177452621379,1743177452621379,52.51485879970167,13.325424212806357,-0.0089886505,-0.0089886505,-0.003559583,-0.003559583,0.12997057,0.12870426,-0.107078165,1,1,4,3,3,0,0
1743177452629379,1743177452629379,52.514858799528746,13.325424212772544,-0.008999846,-0.008999846,-0.003559583,-0.003559583,0.13047773,0.12909962,-0.1071286,1,1,4,3,3,0,0
1743177452637379,1743177452637379,52.51485879936991,13.325424212727109,-0.008989641,-0.008989641,-0.003559583,-0.003559583,0.13099167,0.12940992,-0.106493294,1,1,4,3,3,0,0
1743177452645379,1743177452645379,52.51485879922933,13.325424212703181,-0.008980427,-0.008980427,-0.003559583,-0.003559583,0.13151257,0.12981126,-0.1065405,1,1,4,3,3,0,0
1743177452653379,1743177452653379,52.51485879913453,13.325424212589084,-0.00896458,-0.00896458,-0.003559583,-0.003559583,0.12836571,0.12752995,-0.10638465,1,1,4,3,3,0,0
1743177452661379,1743177452661379,52.51485879904238,13.325424212445542,-0.008950354,-0.008950354,-0.003559583,-0.003559583,0.1288565,0.12791917,-0.10643331,1,1,4,3,3,0,0
1743177452669379,1743177452669379,52.5148587989558,13.325424212276518,-0.008938948,-0.008938948,-0.003559583,-0.003559583,0.12935391,0.12831146,-0.106485,1,1,4,3,3,0,0
1743177452677379,1743177452677379,52.51485879888485,13.325424212096003,-0.008929381,-0.008929381,-0.003559583,-0.003559583,0.129858,0.12870687,-0.10653757,1,1,4,3,3,0,0
1743177452685379,1743177452685379,52.514858798818366,13.325424211925515,-0.008914027,-0.008914027,-0.003559583,-0.003559583,0.13036884,0.12901804,-0.10633114,1,1,4,3,3,0,0
1743177452693379,1743177452693379,52.514858798730295,13.325424211747341,-0.008899954,-0.008899954,-0.003559583,-0.003559583,0.13088642,0.12941943,-0.106383204,1,1,4,3,3,0,0
1743177452701379,1743177452701379,52.5148587986284,13.32542421147314,-0.008880793,-0.008880793,-0.003559583,-0.003559583,0.1277904,0.12715699,-0.10622755,1,1,4,3,3,0,0
1743177452709379,1743177452709379,52.5148587985125,13.325424211217449,-0.008864218,-0.008864218,-0.003559583,-0.003559583,0.12827863,0.12754634,-0.10627717,1,1,4,3,3,0,0
1743177452717379,1743177452717379,52.51485879840159,13.325424210957701,-0.008848823,-0.008848823,-0.003559583,-0.003559583,0.1287734,0.12793878,-0.10632862,1,1,4,3,3,0,0
1743177452725379,1743177452725379,52.51485879826817,13.325424210668878,-0.008833679,-0.008833679,-0.003559583,-0.003559583,0.12927474,0.12833434,-0.106383085,1,1,4,3,3,0,0
1743177452733379,1743177452733379,52.51485879813015,13.325424210344162,-0.00881769,-0.00881769,-0.003559583,-0.003559583,0.12978266,0.12873301,-0.10643957,1,1,4,3,3,0,0
1743177452741379,1743177452741379,52.514858798006564,13.3254242099924,-0.008784065,-0.008784065,-0.003559583,-0.003559583,0.13029724,0.12904736,-0.105927534,1,1,4,3,3,0,0
1743177452749379,1743177452749379,52.51485879788889,13.325424209637008,-0.008753724,-0.008753724,-0.003559583,-0.003559583,0.1308185,0.12945202,-0.10598227,1,1,4,3,3,0,0
1743177452757379,1743177452757379,52.51485879780052,13.325424209468872,-0.008719135,-0.008719135,-0.003559583,-0.003559583,0.12770937,0.1271787,-0.10582616,1,1,4,3,3,0,0
1743177452765379,1743177452765379,52.514858797711824,13.325424209289412,-0.008684597,-0.008684597,-0.003559583,-0.003559583,0.12820104,0.1275712,-0.10587902,1,1,4,3,3,0,0
1743177452773379,1743177452773379,52.51485879760783,13.325424209103913,-0.008654026,-0.008654026,-0.003559583,-0.003559583,0.12869906,0.12796678,-0.105932534,1,1,4,3,3,0,0
1743177452781379,1743177452781379,52.514858797469415,13.3254242089404,-0.008627113,-0.008627113,-0.003559583,-0.003559583,0.1292036,0.12836549,-0.105986245,1,1,4,3,3,0,0
1743177452789379,1743177452789379,52.5148587973257,13.32542420879172,-0.008591531,-0.008591531,-0.003559583,-0.003559583,0.12971465,0.12868062,-0.10571707,1,1,4,3,3,0,0
1743177452797379,1743177452797379,52.51485879718682,13.32542420866871,-0.008557763,-0.008557763,-0.003559583,-0.003559583,0.13023223,0.1290853,-0.105768576,1,1,4,3,3,0,0
1743177452805379,1743177452805379,52.514858797068705,13.325424208311768,-0.008520717,-0.008520717,-0.003559583,-0.003559583,0.12717354,0.12682964,-0.10563482,1,1,4,3,3,0,0
1743177452813379,1743177452813379,52.51485879691188,13.325424207970716,-0.008487418,-0.008487418,-0.003559583,-0.003559583,0.12766252,0.12722224,-0.10568306,1,1,4,3,3,0,0
1743177452821379,1743177452821379,52.51485879672404,13.325424207618545,-0.008457816,-0.008457816,-0.003559583,-0.003559583,0.12815782,0.12761794,-0.10573212,1,1,4,3,3,0,0
1743177452829379,1743177452829379,52.51485879652247,13.325424207234793,-0.0084311925,-0.0084311925,-0.003559583,-0.003559583,0.12865949,0.12801675,-0.10578195,1,1,4,3,3,0,0
1743177452837379,1743177452837379,52.5148587963052,13.32542420686024,-0.008409556,-0.008409556,-0.003559583,-0.003559583,0.12916756,0.12841868,-0.1058324,1,1,4,3,3,0,0
1743177452845379,1743177452845379,52.51485879608752,13.325424206477862,-0.00839502,-0.00839502,-0.003559583,-0.003559583,0.12968196,0.12873693,-0.10604208,1,1,4,3,3,0,0
