timestamp,timestamp_sample,time_last_fuse,device_id,observation,observation_variance,innovation,innovation_filtered,innovation_variance,test_ratio,test_ratio_filtered,estimator_instance,innovation_rejected,fused
1743177449773379,1743177449621194,1743177449621379,0,0.81216943,12.256094,-0.8015798,-0.08865143,12.333491,0.002083855,-0.00020690252,0,0,1
1743177449829379,1743177449673206,1743177449677379,0,-0.32911453,12.257073,0.3439297,-0.047892522,12.324782,0.00038390176,-0.00015123542,0,0,1
1743177449877379,1743177449725217,1743177449725379,0,0.11710897,12.25791,-0.10451478,-0.053227525,12.318106,3.5470843e-05,-0.00014032797,0,0,1
1743177449933379,1743177449777228,1743177449781379,0,-0.023808483,12.2588825,0.036740027,-0.044750698,12.313103,4.3850187e-06,-0.00012669298,0,0,1
1743177449981379,1743177449829237,1743177449829379,0,0.26730877,12.259712,-0.25467154,-0.06452895,12.309053,0.00021076387,-0.00013461395,0,0,1
1743177450037379,1743177449881245,1743177449885379,0,-0.9958504,12.260679,1.0091907,0.03663265,12.305961,0.00331048,0.00018996911,0,0,1
1743177450085379,1743177449933254,1743177449933379,0,0.019147944,12.261503,-0.009643742,0.032272596,12.303508,3.023585e-07,0.00017204217,0,0,1
1743177450141379,1743177449985263,1743177449989379,0,-0.20152663,12.262463,0.2108133,0.049094286,12.30197,0.0001445045,0.00016944764,0,0,1
1743177450189379,1743177450037269,1743177450037379,0,0.42781854,12.263281,-0.4193656,0.0049593933,12.300523,0.00057190255,9.960301e-05,0,0,1
1743177450245379,1743177450089277,1743177450093379,0,-0.24402095,12.264235,0.25353745,0.02837943,12.29964,0.0002090508,0.00010991474,0,0,1
1743177450293379,1743177450141283,1743177450141379,0,-0.12635224,12.265046,0.13504186,0.03842839,12.298706,5.93113e-05,0.00010514725,0,0,1
1743177450349379,1743177450193289,1743177450197379,0,0.18837877,12.265993,-0.18015727,0.017834833,12.298243,0.000105565145,8.5295454e-05,0,0,1
1743177450397379,1743177450245295,1743177450245379,0,-0.3611719,12.266798,0.37019804,0.051031932,12.297664,0.00044576466,0.00011925625,0,0,1
1743177450453379,1743177450297300,1743177450301379,0,0.01493473,12.267738,-0.0068800785,0.045575976,12.297495,1.5396787e-07,0.00010800648,0,0,1
1743177450501379,1743177450349305,1743177450349379,0,-0.03202531,12.2685375,0.04003135,0.045053612,12.297172,5.21261e-06,9.832216e-05,0,0,1
1743177450557379,1743177450401309,1743177450405379,0,-0.21037541,12.26947,0.21826668,0.061371922,12.297216,0.00015496301,0.00010365827,0,0,1
1743177450605379,1743177450453314,1743177450453379,0,-0.3227101,12.270262,0.33008426,0.08668761,12.297081,0.0003544113,0.000127282,0,0,1
1743177450661379,1743177450505319,1743177450509379,0,-0.031075507,12.271188,0.03776775,0.082078815,12.297285,4.6397327e-06,0.00011572773,0,0,1
1743177450709379,1743177450557322,1743177450557379,0,-0.20003086,12.271973,0.20666507,0.09381581,12.297293,0.00013892635,0.00011791322,0,0,1
1743177450765379,1743177450609326,1743177450613379,0,-0.044726208,12.272891,0.05098608,0.089780845,12.297617,8.455559e-06,0.00010760128,0,0,1
1743177450813379,1743177450661329,1743177450661379,0,0.22298436,12.273668,-0.21681064,0.06089753,12.297734,0.00015289598,8.30604e-05,0,0,1
1743177450869379,1743177450713333,1743177450717379,0,0.0065965503,12.274579,1.9395258e-05,0.055162232,12.298152,1.2235205e-12,7.523532e-05,0,0,1
1743177450917379,1743177450765335,1743177450765379,0,0.17561701,12.275349,-0.16897288,0.03404732,12.298354,9.286391e-05,5.939933e-05,0,0,1
1743177450973379,1743177450817338,1743177450821379,0,0.38654426,12.276251,-0.37952772,-0.0049146824,12.298844,0.00046847097,9.66982e-06,0,0,1
1743177451021379,1743177450869341,1743177450869379,0,-0.2527874,12.277013,0.260489,0.020088417,12.299114,0.00022068097,2.954872e-05,0,0,1
1743177451077379,1743177450921343,1743177450925379,0,-0.17240009,12.277908,0.179683,0.035123214,12.299664,0.00010499793,3.6656504e-05,0,0,1
1743177451125379,1743177450973346,1743177450973379,0,-0.31753775,12.278662,0.3245304,0.062387634,12.299986,0.00034250438,6.5469765e-05,0,0,1
1743177451181379,1743177451025348,1743177451029379,0,-0.08203094,12.279548,0.088555396,0.0648528,12.300579,2.550143e-05,6.17045e-05,0,0,1
1743177451229379,1743177451077350,1743177451077379,0,0.6412136,12.280293,-0.63478816,-0.0010577068,12.300945,0.0013103253,-6.7549205e-05,0,0,1
1743177451285379,1743177451129352,1743177451133379,0,-0.13502663,12.281171,0.1425591,0.012471884,12.301576,6.60829e-05,-5.4960234e-05,0,0,1
1743177451333379,1743177451181353,1743177451181379,0,-0.115885355,12.281908,0.12318069,0.022901155,12.301976,4.933673e-05,-4.5134984e-05,0,0,1
1743177451389379,1743177451233355,1743177451237379,0,-0.10617583,12.282777,0.11329104,0.031416442,12.302634,4.1730444e-05,-3.6951722e-05,0,0,1
1743177451437379,1743177451285357,1743177451285379,0,0.4622224,12.2835045,-0.45526037,-0.014431521,12.3030615,0.000673855,-9.6951946e-05,0,0,1
1743177451493379,1743177451337358,1743177451341379,0,-0.16814895,12.284364,0.17589985,0.003498558,12.303743,0.00010058973,-7.834262e-05,0,0,1
1743177451541379,1743177451389359,1743177451389379,0,0.3300136,12.285083,-0.32251796,-0.027213678,12.3041935,0.00033815412,-0.00010281804,0,0,1
1743177451597379,1743177451441361,1743177451445379,0,-0.065287,12.2859335,0.07334348,-0.017740572,12.3048935,1.7486589e-05,-9.14846e-05,0,0,1
1743177451645379,1743177451493362,1743177451493379,0,0.15559274,12.286642,-0.14764112,-0.029977793,12.30536,7.085661e-05,-8.9541354e-05,0,0,1
1743177451701379,1743177451545363,1743177451549379,0,-0.39416328,12.287483,0.40240705,0.010754822,12.306075,0.0005263463,-3.152194e-05,0,0,1
1743177451749379,1743177451597364,1743177451597379,0,-0.17696705,12.288183,0.1846282,0.027134484,12.306556,0.00011079485,-1.8115054e-05,0,0,1
1743177451805379,1743177451649365,1743177451653379,0,-0.1716992,12.289014,0.17917867,0.041457735,12.3072815,0.00010434472,-6.5787863e-06,0,0,1
1743177451853379,1743177451701366,1743177451701379,0,0.16690965,12.289704,-0.1596447,0.022512972,12.307774,8.2830345e-05,-1.3762028e-05,0,0,1
1743177451909379,1743177451753367,1743177451757379,0,-0.19512126,12.2905245,0.20273425,0.039490633,12.308508,0.00013356996,1.173139e-07,0,0,1
1743177451957379,1743177451805368,1743177451805379,0,-0.091163516,12.291204,0.098534435,0.045052826,12.309007,3.1550997e-05,3.0785095e-06,0,0,1
1743177452013379,1743177451857368,1743177451861379,0,0.10635683,12.292015,-0.099033825,0.031479444,12.309748,3.18697e-05,-2.1371307e-07,0,0,1
1743177452061379,1743177451909369,1743177451909379,0,0.2233941,12.2926855,-0.21587011,0.008177994,12.310253,0.0001514182,-1.4457862e-05,0,0,1
1743177452117379,1743177451961370,1743177451965379,0,-0.24216059,12.293486,0.25009874,0.030968025,12.310999,0.00020323087,6.049405e-06,0,0,1
1743177452165379,1743177452013370,1743177452013379,0,0.124933735,12.294145,-0.1172974,0.017000992,12.311506,4.470186e-05,1.2684882e-06,0,0,1
1743177452221379,1743177452065371,1743177452069379,0,-0.2557828,12.294934,0.26366493,0.040237855,12.312255,0.00022585367,2.242543e-05,0,0,1
1743177452269379,1743177452117371,1743177452117379,0,-0.067020066,12.295584,0.07459445,0.043474346,12.312765,1.8076631e-05,2.2015762e-05,0,0,1
1743177452325379,1743177452169372,1743177452173379,0,0.19148174,12.296363,-0.18390948,0.022053758,12.313515,0.00010987179,9.591356e-06,0,0,1
1743177452373379,1743177452221372,1743177452221379,0,-0.6355328,12.297,0.64339083,0.08058552,12.314025,0.0013446513,0.00013535788,0,0,1
1743177452429379,1743177452273373,1743177452277379,0,-0.45466664,12.297769,0.46170998,0.11648917,12.3147745,0.0006924239,0.00018783603,0,0,1
1743177452477379,1743177452325373,1743177452325379,0,0.3969215,12.298396,-0.39046326,0.06873278,12.315284,0.00049519463,0.00012349256,0,0,1
1743177452533379,1743177452377374,1743177452381379,0,0.057346202,12.299153,-0.05024989,0.057524078,12.316032,8.200859e-06,0.00011108644,0,0,1
1743177452581379,1743177452429374,1743177452429379,0,-0.111874774,12.299769,0.11909401,0.063324146,12.31654,4.6062883e-05,0.00010496103,0,0,1
1743177452637379,1743177452481374,1743177452485379,0,-0.4963845,12.300515,0.5035634,0.10479596,12.317285,0.0008234805,0.00017264765,0,0,1
1743177452685379,1743177452533375,1743177452533379,0,-0.18444851,12.301121,0.19103816,0.112920366,12.317789,0.0001185134,0.00016754796,0,0,1
1743177452741379,1743177452585375,1743177452589379,0,-0.41371125,12.301855,0.42020762,0.14186771,12.318531,0.000573362,0.00020577681,0,0,1
1743177452789379,1743177452637375,1743177452637379,0,-0.23353192,12.302449,0.23957145,0.15107168,12.31903,0.0001863604,0.00020394773,0,0,1
1743177452845379,1743177452689376,1743177452693379,0,0.12430897,12.303173,-0.11842642,0.12568374,12.319769,4.553597e-05,0.00018044523,0,0,1
1743177452893379,1743177452741376,1743177452741379,0,0.10501778,12.303756,-0.0988888,0.10452835,12.320263,3.1749307e-05,0.0001604559,0,0,1
1743177452949379,1743177452793376,1743177452797379,0,0.4661022,12.304468,-0.45970312,0.051376108,12.320995,0.00068607106,8.07106e-05,0,0,1
1743177452997379,1743177452845376,1743177452845379,0,0.29035455,12.305039,-0.2832591,0.0198525,12.321484,0.0002604742,4.857e-05,0,0,1
1743177453053379,1743177452897376,1743177452901379,0,0.24213915,12.30574,-0.23453878,-0.004111897,12.32221,0.00017856678,2.7173055e-05,0,0,1
1743177453101379,1743177452949377,1743177452949379,0,-0.5289037,12.3063,0.536877,0.04685171,12.322691,0.0009356297,0.00011275379,0,0,1
1743177453157379,1743177453001377,1743177453005379,0,-0.19310503,12.30699,0.20047934,0.06132388,12.323412,0.00013045727,0.00011442151,0,0,1
1743177453205379,1743177453053377,1743177453053379,0,-0.40814844,12.307538,0.41531765,0.09467112,12.323885,0.0005598518,0.00015638235,0,0,1
1743177453261379,1743177453105377,1743177453109379,0,0.38724756,12.308216,-0.38050514,0.049908135,12.324598,0.00046990308,9.7384436e-05,0,0,1
1743177453309379,1743177453157377,1743177453157379,0,0.27746496,12.308752,-0.27016386,0.019756423,12.325062,0.00023687835,6.589591e-05,0,0,1
1743177453365379,1743177453209377,1743177453213379,0,-0.21210411,12.30942,0.2198565,0.03860643,12.325768,0.00015686448,7.446542e-05,0,0,1
1743177453413379,1743177453261378,1743177453261379,0,-0.45048988,12.309944,0.45802045,0.07811713,12.326223,0.0006807689,0.00013158195,0,0,1
1743177453469379,1743177453313378,1743177453317379,0,-0.18064675,12.310599,0.18770535,0.088440664,12.3269205,0.00011432961,0.00012995674,0,0,1
1743177453517379,1743177453365378,1743177453365379,0,-0.15155393,12.311113,0.15844767,0.09503553,12.327368,8.146317e-05,0.0001253885,0,0,1
1743177453573379,1743177453417378,1743177453421379,0,-0.38082397,12.311757,0.38766828,0.12260239,12.328056,0.00048762493,0.00015951222,0,0,1
1743177453621379,1743177453469378,1743177453469379,0,-0.5385124,12.312259,0.54492956,0.16238683,12.328493,0.0009634534,0.00023524581,0,0,1
1743177453677379,1743177453521378,1743177453525379,0,-0.23997475,12.312891,0.24581417,0.17024593,12.329172,0.00019603784,0.0002315523,0,0,1
1743177453725379,1743177453573378,1743177453573379,0,0.15566014,12.313382,-0.15003276,0.14007474,12.3296,7.3026946e-05,0.00020286006,0,0,1
1743177453781379,1743177453625378,1743177453629379,0,0.25817913,12.314003,-0.25221062,0.10312033,12.33027,0.0002063546,0.00016431086,0,0,1
1743177453829379,1743177453677378,1743177453677379,0,-0.057695802,12.314482,0.064061396,0.099440865,12.330687,1.33126805e-05,0.00015008639,0,0,1
1743177453885379,1743177453729378,1743177453733379,0,0.1398297,12.315091,-0.13345262,0.077501625,12.3313465,5.7770183e-05,0.0001305057,0,0,1
1743177453933379,1743177453781379,1743177453781379,0,-0.015810128,12.315559,0.022407055,0.07231147,12.331754,1.6285635e-06,0.000118364886,0,0,1
1743177453989379,1743177453833379,1743177453837379,0,0.096989274,12.316157,-0.09032966,0.0569902,12.332403,2.6465068e-05,0.00010472148,0,0,1
1743177454037379,1743177453885379,1743177453885379,0,-0.6828673,12.316613,0.6897042,0.11659369,12.332799,0.0015428512,0.00024019749,0,0,1
1743177454093379,1743177453937379,1743177453941379,0,-0.25659087,12.317201,0.26265314,0.13035291,12.333439,0.00022373867,0.00023864703,0,0,1
1743177454141379,1743177453989379,1743177453989379,0,-0.20351465,12.317645,0.20930354,0.13779029,12.333824,0.00014207425,0.0002295496,0,0,1
1743177454197379,1743177454041379,1743177454045379,0,0.13097914,12.318221,-0.12535101,0.113001615,12.334453,5.0956052e-05,0.00020312515,0,0,1
1743177454245379,1743177454093379,1743177454093379,0,-0.4049455,12.318655,0.41079894,0.14105499,12.334827,0.0005472497,0.00023554268,0,0,1
1743177454301379,1743177454145379,1743177454149379,0,-0.40265903,12.31922,0.40844348,0.16624376,12.335445,0.00054096495,0.00026431435,0,0,1
1743177454349379,1743177454197379,1743177454197379,0,-0.26421174,12.319642,0.26953122,0.17597374,12.335809,0.00023556486,0.00026160607,0,0,1
1743177454405379,1743177454249379,1743177454253379,0,0.019010618,12.320195,-0.013951827,0.1580822,12.336415,6.311509e-07,0.00023690256,0,0,1
1743177454453379,1743177454301379,1743177454301379,0,-0.3144146,12.320607,0.31954432,0.1732924,12.336769,0.0003310707,0.00024577347,0,0,1
1743177454509379,1743177454353379,1743177454357379,0,0.5982465,12.32115,-0.5934478,0.101063244,12.337365,0.001141833,0.0001150569,0,0,1
1743177454557379,1743177454405379,1743177454405379,0,0.14879799,12.32155,-0.1431335,0.078059204,12.3377075,6.642142e-05,9.7961114e-05,0,0,1
1743177454613379,1743177454457379,1743177454461379,0,-0.6924392,12.3220825,0.6983973,0.13649686,12.338292,0.0015812845,0.00023769448,0,0,1
1743177454661379,1743177454509379,1743177454509379,0,-0.41604835,12.322473,0.42119235,0.163316,12.338625,0.0005751143,0.0002694804,0,0,1
1743177454717379,1743177454561379,1743177454565379,0,-0.39009938,12.322993,0.39483032,0.18512532,12.339198,0.00050535204,0.00029170018,0,0,1
1743177454765379,1743177454613379,1743177454613379,0,-0.19526824,12.323373,0.1995737,0.1864864,12.3395195,0.00012911252,0.00027638394,0,0,1
1743177454821379,1743177454665379,1743177454669379,0,0.20029944,12.323883,-0.19613717,0.15044214,12.340082,0.00012469866,0.0002386008,0,0,1
1743177454869379,1743177454717379,1743177454717379,0,-0.44409147,12.324252,0.4486067,0.1785301,12.340393,0.0006523227,0.0002775746,0,0,1
1743177454925379,1743177454769379,1743177454773379,0,0.22060442,12.324752,-0.21654063,0.14131328,12.340944,0.00015198138,0.00023710918,0,0,1
1743177454973379,1743177454821379,1743177454821379,0,-0.3488036,12.32511,0.35325813,0.16127911,12.341245,0.00040446912,0.00025287498,0,0,1
1743177455029379,1743177454873379,1743177454877379,0,-0.37482375,12.3256,0.3789397,0.18178338,12.341785,0.0004653955,0.00027289503,0,0,1
1743177455077379,1743177454925379,1743177454925379,0,-0.034461707,12.325948,0.03817343,0.16825491,12.342074,4.722742e-06,0.00024763242,0,0,1
1743177455133379,1743177454977379,1743177454981379,0,-0.24550234,12.3264265,0.24924119,0.17588405,12.342605,0.00020132272,0.00024326991,0,0,1
1743177455181379,1743177455029379,1743177455029379,0,-0.023293454,12.326764,0.02679895,0.1618398,12.342883,2.3274424e-06,0.00022057243,0,0,1
1743177455237379,1743177455081379,1743177455085379,0,-0.079466924,12.327233,0.08271446,0.15438595,12.343402,2.2171138e-05,0.00020188245,0,0,1
1743177455285379,1743177455133379,1743177455133379,0,0.066595994,12.327561,-0.06333901,0.13387562,12.343671,1.30004455e-05,0.00018163986,0,0,1
1743177455341379,1743177455185379,1743177455189379,0,0.21643837,12.328021,-0.2129906,0.10119982,12.34418,0.00014700044,0.000150681,0,0,1
1743177455389379,1743177455237379,1743177455237379,0,-0.075998545,12.328339,0.0798183,0.099185616,12.344439,2.0643989e-05,0.00013843113,0,0,1
1743177455445379,1743177455289379,1743177455293379,0,0.323584,12.328788,-0.31976813,0.059718955,12.344936,0.0003313153,9.417965e-05,0,0,1
1743177455493379,1743177455341379,1743177455341379,0,0.09148759,12.329097,-0.08716342,0.04588221,12.345186,2.4616756e-05,8.2988685e-05,0,0,1
1743177455549379,1743177455393379,1743177455397379,0,0.6496355,12.329536,-0.6450598,-0.019206539,12.345674,0.0013481716,-5.1830764e-05,0,0,1
1743177455597379,1743177455445379,1743177455445379,0,0.28396386,12.329835,-0.2784554,-0.043628536,12.345912,0.00025121646,-7.0613474e-05,0,0,1
1743177455653379,1743177455497379,1743177455501379,0,-0.023012534,12.330265,0.028992878,-0.036787387,12.34639,2.7233452e-06,-6.370493e-05,0,0,1
1743177455701379,1743177455549379,1743177455549379,0,-0.42190003,12.330555,0.42792073,0.006989468,12.34662,0.00059325114,-1.8177598e-06,0,0,1
1743177455757379,1743177455601379,1743177455605379,0,-0.03881216,12.330976,0.04440227,0.010513863,12.347087,6.387131e-06,-1.0448352e-06,0,0,1
1743177455805379,1743177455653379,1743177455653379,0,0.01312417,12.331256,-0.0071527516,0.008849616,12.347306,1.6574258e-07,-9.620221e-07,0,0,1
1743177455861379,1743177455705379,1743177455709379,0,-0.047958054,12.331667,0.054061513,0.013108708,12.347763,9.467778e-06,2.049535e-08,0,0,1
1743177455909379,1743177455757379,1743177455757379,0,-0.32460618,12.331939,0.33072114,0.043028723,12.347975,0.0003543139,3.3395965e-05,0,0,1
1743177455965379,1743177455809379,1743177455813379,0,0.10952948,12.332341,-0.10372393,0.029204197,12.348422,3.4850294e-05,2.6966969e-05,0,0,1
1743177456013379,1743177455861379,1743177455861379,0,-0.4216985,12.332603,0.42772314,0.06674584,12.348623,0.00059260725,8.025193e-05,0,0,1
1743177456069379,1743177455913379,1743177455917379,0,0.2854144,12.332997,-0.2798163,0.034098677,12.349062,0.00025361328,4.8800855e-05,0,0,1
1743177456117379,1743177455965379,1743177455965379,0,-0.25169754,12.33325,0.25774395,0.055166714,12.349254,0.00021517719,6.447399e-05,0,0,1
1743177456173379,1743177456017379,1743177456021379,0,0.13033596,12.333635,-0.124540664,0.038237758,12.349683,5.0237333e-05,5.3667853e-05,0,0,1
1743177456221379,1743177456069379,1743177456069379,0,-0.07708799,12.33388,0.08311378,0.04246521,12.349867,2.2374008e-05,5.0719882e-05,0,0,1
1743177456277379,1743177456121379,1743177456125379,0,0.115972,12.334257,-0.11029955,0.028074324,12.350286,3.940311e-05,4.2230033e-05,0,0,1
1743177456325379,1743177456173379,1743177456173379,0,0.42509028,12.334494,-0.41923353,-0.014063377,12.350461,0.0005692314,-1.537141e-05,0,0,1
1743177456381379,1743177456225379,1743177456229379,0,0.17808157,12.334862,-0.17164883,-0.028908385,12.350871,9.5421026e-05,-2.2912316e-05,0,0,1
1743177456429379,1743177456277379,1743177456277379,0,-0.31137905,12.33509,0.31807747,0.0037786905,12.351038,0.00032765922,1.0112539e-05,0,0,1
1743177456485379,1743177456329379,1743177456333379,0,-0.12138724,12.33545,0.12769948,0.015452389,12.351439,5.281055e-05,1.41348155e-05,0,0,1
1743177456533379,1743177456381379,1743177456381379,0,-0.28952423,12.33567,0.29566067,0.041848823,12.351599,0.0002830896,3.947114e-05,0,0,1
1743177456589379,1743177456433379,1743177456437379,0,0.12099249,12.336022,-0.0,0.027050316,12.351991,4.3008287e-05,3.1701336e-05,0,0,1
1743177456637379,1743177456485379,1743177456485379,0,-0.26949605,12.336234,0.27522513,0.050429106,12.352141,0.00024529797,5.182276e-05,0,0,1
1743177456693379,1743177456537379,1743177456541379,0,-0.042214066,12.336578,0.04754374,0.050157297,12.352526,7.3196607e-06,4.763044e-05,0,0,1
1743177456741379,1743177456589379,1743177456589379,0,-0.046575844,12.336783,0.051801875,0.05031222,12.352669,8.689407e-06,4.396208e-05,0,0,1
1743177456797379,1743177456641379,1743177456645379,0,-0.33730265,12.33712,0.34241205,0.07782888,12.3530445,0.0003796506,7.558492e-05,0,0,1
1743177456845379,1743177456693379,1743177456693379,0,-0.17525738,12.3373165,0.17984885,0.087439455,12.35318,0.00010473614,7.8331046e-05,0,0,1
1743177456901379,1743177456745379,1743177456749379,0,-0.12703604,12.337646,0.13130069,0.09157131,12.353547,5.58216e-05,7.621059e-05,0,0,1
1743177456949379,1743177456797379,1743177456797379,0,0.39973685,12.337835,-0.0,0.045667678,12.353676,0.00050702016,2.1268559e-05,0,0,1
1743177457005379,1743177456849379,1743177456853379,0,-0.07727289,12.338157,0.08088969,0.048985694,12.354034,2.118544e-05,2.1260728e-05,0,0,1
1743177457053379,1743177456901379,1743177456901379,0,0.65572613,12.338339,-0.0,-0.017103616,12.354156,0.0013788322,-0.000110632085,0,0,1
1743177457109379,1743177456953379,1743177456957379,0,-0.22221231,12.338654,0.22533296,0.005734613,12.354507,0.00016439326,-8.47239e-05,0,0,1
1743177457157379,1743177457005379,1743177457005379,0,0.23951578,12.338829,-0.0,-0.017102422,12.354621,0.00018137932,-9.382912e-05,0,0,1
1743177457213379,1743177457057379,1743177457061379,0,-0.34906247,12.339136,0.35189247,0.017657967,12.354965,0.00040090218,-4.7223995e-05,0,0,1
1743177457261379,1743177457109379,1743177457109379,0,0.014992215,12.339305,-0.0,0.014807028,12.355072,5.144687e-07,-4.2823824e-05,0,0,1
1743177457317379,1743177457161379,1743177457165379,0,0.17922652,12.339605,-0.0,-0.0032440657,12.355409,0.00010121096,-4.8324062e-05,0,0,1
1743177457365379,1743177457213379,1743177457213379,0,-0.28686196,12.3397665,0.28928378,0.02431291,12.355509,0.00027092404,-1.8249964e-05,0,0,1
1743177457421379,1743177457265379,1743177457269379,0,0.5227818,12.340061,-0.0,-0.027027048,12.355839,0.00087766803,-9.920965e-05,0,0,1
1743177457469379,1743177457317379,1743177457317379,0,-0.42471078,12.340216,0.42684966,0.015729457,12.355932,0.0005898402,-3.4299148e-05,0,0,1
1743177457525379,1743177457369379,1743177457373379,0,-0.15397848,12.340504,0.15562266,0.028907804,12.356256,7.840049e-05,-2.3682514e-05,0,0,1
1743177457573379,1743177457421379,1743177457421379,0,-0.091803476,12.3406515,0.09330115,0.034973845,12.356342,2.8180195e-05,-1.8796896e-05,0,0,1
1743177457629379,1743177457473379,1743177457477379,0,-0.508975,12.340933,0.5104351,0.07976368,12.356658,0.00084341253,6.242574e-05,0,0,1
1743177457677379,1743177457525379,1743177457525379,0,-0.42070848,12.341075,0.42155427,0.11196135,12.356739,0.0005752586,0.00011073608,0,0,1
1743177457733379,1743177457577379,1743177457581379,0,0.12701991,12.341351,-0.0,0.089482516,12.357049,5.19308e-05,9.541239e-05,0,0,1
1743177457781379,1743177457629379,1743177457629379,0,-0.27768743,12.341486,0.27806932,0.10724794,12.357123,0.00025029303,0.0001100026,0,0,1
1743177457837379,1743177457681379,1743177457685379,0,-0.4587342,12.341755,0.45852774,0.14033952,12.357426,0.000680555,0.00016375029,0,0,1
1743177457885379,1743177457733379,1743177457733379,0,-0.57270485,12.341885,0.5719725,0.1810006,12.357494,0.0010589607,0.00024808172,0,0,1
1743177457941379,1743177457785379,1743177457789379,0,0.1264098,12.342148,-0.0,0.1519122,12.357791,5.2853262e-05,0.00021973277,0,0,1
1743177457989379,1743177457837379,1743177457837379,0,-0.53653973,12.342273,0.53524363,0.18802314,12.357855,0.0009272992,0.00028638757,0,0,1
1743177458045379,1743177457889379,1743177457893379,0,0.27030382,12.342529,-0.0,0.14464416,12.358145,0.0002402795,0.000236774,0,0,1
1743177458093379,1743177457941379,1743177457941379,0,0.05698827,12.3426485,-0.0,0.1253715,12.358203,1.162987e-05,0.00021337363,0,0,1
1743177458149379,1743177457993379,1743177457997379,0,-0.66649294,12.3429,0.6608939,0.17581926,12.358487,0.0014137031,0.00032644815,0,0,1
1743177458197379,1743177458045379,1743177458045379,0,-0.09812351,12.343013,0.087124705,0.16746397,12.35854,2.456832e-05,0.00029801019,0,0,1
1743177458253379,1743177458097379,1743177458101379,0,-0.32752335,12.343259,0.30901256,0.18079826,12.358818,0.00030905468,0.00029905062,0,0,1
1743177458301379,1743177458149379,1743177458149379,0,-0.038795855,12.343367,0.011087444,0.16481102,12.358866,3.9787278e-07,0.00027091667,0,0,1
1743177458357379,1743177458201379,1743177458205379,0,-0.14200236,12.343608,0.10182494,0.15887754,12.3591385,3.3556767e-05,0.00024855667,0,0,1
1743177458405379,1743177458253379,1743177458253379,0,0.16394463,12.34371,-0.0,0.123521104,12.35918,0.00015162255,0.00021085862,0,0,1
1743177458461379,1743177458305379,1743177458309379,0,-0.006716922,12.3439455,-0.0,0.10600267,12.3594475,1.2619394e-05,0.00018980633,0,0,1
1743177458509379,1743177458357379,1743177458357379,0,-0.55650795,12.344043,0.47100773,0.1403872,12.359485,0.0007179855,0.00023956235,0,0,1
1743177458565379,1743177458409379,1743177458413379,0,0.3156531,12.344274,-0.0,0.08733148,12.359747,0.0005785766,0.00016249128,0,0,1
1743177458613379,1743177458461379,1743177458461379,0,-0.04908784,12.344366,-0.0,0.07176182,12.359779,1.9662655e-05,0.00014533185,0,0,1
1743177458669379,1743177458513379,1743177458517379,0,0.2930529,12.344592,-0.0,0.023110386,12.360037,0.0006399684,7.135429e-05,0,0,1
1743177458717379,1743177458565379,1743177458565379,0,-0.06247621,12.344679,-0.0,0.010307918,12.3600645,4.1171945e-05,6.075399e-05,0,0,1
1743177458773379,1743177458617379,1743177458621379,0,-0.24644567,12.3449,0.040129364,0.013117185,12.360315,5.211407e-06,5.552172e-05,0,0,1
1743177458821379,1743177458669379,1743177458669379,0,-0.2977827,12.344983,0.059829712,0.017517641,12.36034,1.15841285e-05,5.138267e-05,0,0,1
1743177458877379,1743177458721379,1743177458725379,0,-0.19872768,12.3452,-0.0,0.0081155095,12.360586,2.191345e-05,4.4477965e-05,0,0,1
1743177458925379,1743177458773379,1743177458773379,0,-0.24161658,12.345277,-0.0,-0.00043637585,12.360605,2.2114365e-05,3.8204773e-05,0,0,1
1743177458981379,1743177458825379,1743177458829379,0,-0.32206896,12.3454895,-0.0,-0.0059758774,12.360847,1.1356549e-05,3.353595e-05,0,0,1
1743177459029379,1743177458877379,1743177458877379,0,-0.7262976,12.345563,0.28895965,0.021807905,12.360863,0.00027020017,5.583041e-05,0,0,1
1743177459085379,1743177458929379,1743177458933379,0,-0.456448,12.34577,-0.0,0.014733033,12.361099,9.191128e-06,4.970519e-05,0,0,1
1743177459133379,1743177458981379,1743177458981379,0,-0.499116,12.3458395,-0.0,0.0058086272,12.361111,2.0711648e-05,4.307172e-05,0,0,1
1743177459189379,1743177459033379,1743177459037379,0,-0.40114105,12.346043,-0.0,-0.019812293,12.361343,0.00022924702,1.7418504e-05,0,0,1
1743177459237379,1743177459085379,1743177459085379,0,-0.7459449,12.3461075,-0.0,-0.01843275,12.36135,8.642165e-08,1.5769489e-05,0,0,1
1743177459293379,1743177459137379,1743177459141379,0,-1.1638411,12.346307,0.3061849,0.012147173,12.361579,0.0003033567,4.2861044e-05,0,0,1
1743177459341379,1743177459189379,1743177459189379,0,-1.0816406,12.346368,0.12364119,0.022650234,12.361583,4.9466624e-05,4.348331e-05,0,0,1
1743177459397379,1743177459241379,1743177459245379,0,-1.4844476,12.346563,0.40109885,0.05830119,12.361807,0.00052057207,8.842646e-05,0,0,1
1743177459445379,1743177459293379,1743177459293379,0,-1.1104085,12.34662,-0.0,0.044487543,12.361806,2.524954e-05,7.771785e-05,0,0,1
1743177459501379,1743177459345379,1743177459349379,0,-1.6885854,12.346811,0.34970796,0.07324019,12.362027,0.0003957139,0.000107674,0,0,1
1743177459549379,1743177459397379,1743177459397379,0,-1.5872515,12.346864,0.12350631,0.07797541,12.362022,4.9356997e-05,0.00010218037,0,0,1
1743177459605379,1743177459449379,1743177459453379,0,-1.0510525,12.347052,-0.0,0.017735217,12.362239,0.0010201364,-3.5451376e-06,0,0,1
1743177459653379,1743177459501379,1743177459501379,0,-1.3089912,12.3471,-0.0,-0.024753917,12.362231,0.000607501,-6.0439535e-05,0,0,1
1743177459709379,1743177459553379,1743177459557379,0,-1.4438549,12.347284,-0.0,-0.06490987,12.362444,0.00065819785,-0.0001167501,0,0,1
1743177459757379,1743177459605379,1743177459605379,0,-1.8277003,12.34733,-0.0,-0.07759669,12.362433,0.00012888822,-0.00011789355,0,0,1
1743177459813379,1743177459657379,1743177459661379,0,-1.9795119,12.34751,-0.0,-0.08941026,12.362641,0.00013333703,-0.00011934837,0,0,1
1743177459861379,1743177459709379,1743177459709379,0,-2.4787843,12.347552,0.16243029,-0.06568615,12.362628,8.536566e-05,-0.00010006371,0,0,1
1743177459917379,1743177459761379,1743177459765379,0,-2.2004972,12.347729,-0.0,-0.08518645,12.362832,0.00024059042,-0.000113301736,0,0,1
1743177459965379,1743177459813379,1743177459813379,0,-2.5125234,12.347768,-0.0,-0.08607191,12.362816,2.8946451e-05,-0.000105355226,0,0,1
1743177460021379,1743177459865379,1743177459869379,0,-2.391201,12.34794,-0.0,-0.11301148,12.363017,0.00044784552,-0.0001376188,0,0,1
1743177460069379,1743177459917379,1743177459917379,0,-2.9434648,12.347976,0.04740095,-0.09790016,12.362996,7.269598e-06,-0.00012396989,0,0,1
1743177460125379,1743177459969379,1743177459973379,0,-2.7505937,12.3481455,-0.0,-0.11689253,12.363194,0.00029023923,-0.00013963295,0,0,1
1743177460173379,1743177460021379,1743177460021379,0,-3.0440621,12.348178,-0.0,-0.118781894,12.363172,6.068016e-05,-0.00013219536,0,0,1
1743177460229379,1743177460073379,1743177460077379,0,-2.6366835,12.348345,-0.0,-0.1731995,12.363367,0.0015692703,-0.000267572,0,0,1
1743177460277379,1743177460125379,1743177460125379,0,-3.623481,12.348373,0.15978384,-0.1418315,12.36334,8.260187e-05,-0.0002345846,0,0,1
1743177460333379,1743177460177379,1743177460181379,0,-3.5846493,12.348537,-0.0,-0.13149726,12.363533,3.339843e-06,-0.00021280067,0,0,1
1743177460381379,1743177460229379,1743177460229379,0,-3.453445,12.348563,-0.0,-0.14685023,12.363503,0.00028055295,-0.00021918313,0,0,1
1743177460437379,1743177460281379,1743177460285379,0,-4.0098042,12.348723,0.10769272,-0.12287154,12.363692,3.752187e-05,-0.00019500077,0,0,1
1743177460485379,1743177460333379,1743177460333379,0,-3.6662083,12.348746,-0.0,-0.14601538,12.363661,0.00043945148,-0.00021802874,0,0,1
1743177460541379,1743177460385379,1743177460389379,0,-3.6128118,12.348905,-0.0,-0.18667287,12.363847,0.0010793845,-0.00029917096,0,0,1
1743177460589379,1743177460437379,1743177460437379,0,-4.1996136,12.348925,-0.0,-0.18078652,12.363813,4.9895316e-05,-0.00027568848,0,0,1
1743177460645379,1743177460489379,1743177460493379,0,-3.970552,12.349079,-0.0,-0.2117566,12.363996,0.00083997747,-0.00032884613,0,0,1
1743177460693379,1743177460541379,1743177460541379,0,-4.4347463,12.349096,-0.0,-0.20873277,12.363959,0.00010442222,-0.00030770476,0,0,1
1743177460749379,1743177460593379,1743177460597379,0,-3.8023596,12.349249,-0.0,-0.28035837,12.36414,0.003038106,-0.0005649165,0,0,1
1743177460797379,1743177460645379,1743177460645379,0,-4.8242607,12.349263,-0.0,-0.26163477,12.3641,2.1541691e-05,-0.00051372906,0,0,1
1743177460853379,1743177460697379,1743177460701379,0,-5.538558,12.349413,0.47544622,-0.19219959,12.364278,0.0007312974,-0.00039644394,0,0,1
1743177460901379,1743177460749379,1743177460749379,0,-5.079319,12.349424,-0.0,-0.1853165,12.364237,4.5915232e-05,-0.0003634231,0,0,1
1743177460957379,1743177460801379,1743177460805379,0,-4.8643064,12.349571,-0.0,-0.21421045,12.364411,0.0007832164,-0.00040296884,0,0,1
1743177461005379,1743177460853379,1743177460853379,0,-5.39411,12.349581,-0.0,-0.2032002,12.364368,3.0648105e-05,-0.00036789515,0,0,1
1743177461061379,1743177460905379,1743177460909379,0,-5.836225,12.349725,0.18653059,-0.16648643,12.36454,0.0001125595,-0.00032263494,0,0,1
1743177461109379,1743177460957379,1743177460957379,0,-5.8722806,12.349731,0.08670664,-0.1426349,12.364494,2.4321385e-05,-0.00028995064,0,0,1
1743177461165379,1743177461009379,1743177461013379,0,-5.9420066,12.349874,-0.0,-0.12941658,12.364664,1.7373623e-08,-0.0002626381,0,0,1
1743177461213379,1743177461061379,1743177461061379,0,-6.195556,12.349878,0.115486145,-0.10634603,12.364617,4.3145854e-05,-0.00023383235,0,0,1
1743177461269379,1743177461113379,1743177461117379,0,-5.6734767,12.350018,-0.0,-0.14962633,12.364784,0.0010355553,-0.00030935698,0,0,1
1743177461317379,1743177461165379,1743177461165379,0,-6.2132845,12.35002,-0.0,-0.15076934,12.364736,8.4647996e-05,-0.00028818875,0,0,1
1743177461373379,1743177461217379,1743177461221379,0,-6.064353,12.350158,-0.0,-0.18085723,12.3649,0.00071510166,-0.00032840518,0,0,1
1743177461421379,1743177461269379,1743177461269379,0,-5.997736,12.350158,-0.0,-0.22721145,12.364849,0.0014648883,-0.0004354652,0,0,1
1743177461477379,1743177461321379,1743177461325379,0,-6.430433,12.350292,-0.0,-0.24347481,12.365011,0.00051720976,-0.00044316577,0,0,1
1743177461525379,1743177461373379,1743177461373379,0,-6.367946,12.35029,-0.0,-0.27697513,12.364959,0.0011610648,-0.00051079394,0,0,1
1743177461581379,1743177461425379,1743177461429379,0,-7.2930274,12.350423,0.16568995,-0.23527479,12.365118,8.8808396e-05,-0.00045430966,0,0,1
1743177461629379,1743177461477379,1743177461477379,0,-6.963031,12.350419,-0.0,-0.24149713,12.365065,0.00029372465,-0.0004391821,0,0,1
1743177461685379,1743177461529379,1743177461533379,0,-7.021818,12.35055,-0.0,-0.25668213,12.365222,0.00052457035,-0.00044722593,0,0,1
1743177461733379,1743177461581379,1743177461581379,0,-7.1236877,12.350543,-0.0,-0.27375793,12.365166,0.00062044826,-0.00046354398,0,0,1
1743177461789379,1743177461633379,1743177461637379,0,-7.1601143,12.350672,-0.0,-0.3008863,12.365322,0.0010207497,-0.0005160344,0,0,1
1743177461837379,1743177461685379,1743177461685379,0,-7.5402884,12.350663,-0.0,-0.3025911,12.365264,0.00032914852,-0.0004984292,0,0,1
1743177461893379,1743177461737379,1743177461741379,0,-7.7025156,12.35079,-0.0,-0.3040021,12.365418,0.00032623412,-0.0004822079,0,0,1
1743177461941379,1743177461789379,1743177461789379,0,-7.986805,12.3507805,-0.0,-0.29147127,12.365359,9.457055e-05,-0.00044569132,0,0,1
1743177461997379,1743177461841379,1743177461845379,0,-7.8097878,12.350905,-0.0,-0.3119753,12.365512,0.0008385027,-0.0004826953,0,0,1
1743177462045379,1743177461893379,1743177461893379,0,-7.7904677,12.350893,-0.0,-0.3453459,12.365451,0.0014357602,-0.00057247677,0,0,1
1743177462101379,1743177461945379,1743177461949379,0,-8.53302,12.351016,-0.0,-0.32083827,12.365602,2.3474735e-05,-0.0005207592,0,0,1
1743177462149379,1743177461997379,1743177461997379,0,-8.0078745,12.351002,-0.0,-0.36111805,12.365539,0.001811932,-0.00064239145,0,0,1
1743177462205379,1743177462049379,1743177462053379,0,-8.530439,12.351124,-0.0,-0.36359826,12.365688,0.00048558466,-0.0006276198,0,0,1
1743177462253379,1743177462101379,1743177462101379,0,-8.899818,12.351108,-0.0,-0.34407893,12.365623,7.911865e-05,-0.0005759494,0,0,1
1743177462309379,1743177462153379,1743177462157379,0,-9.459804,12.351228,0.24193954,-0.2888743,12.365771,0.00018934441,-0.00050385646,0,0,1
1743177462357379,1743177462205379,1743177462205379,0,-9.509469,12.35121,0.1529131,-0.24725664,12.3657055,7.563633e-05,-0.00044926655,0,0,1
1743177462413379,1743177462257379,1743177462261379,0,-9.179565,12.351328,-0.0,-0.25591627,12.365852,0.00037213566,-0.0004420006,0,0,1
1743177462461379,1743177462309379,1743177462309379,0,-9.6095915,12.351309,-0.0,-0.23627177,12.365786,7.262256e-06,-0.000401047,0,0,1
1743177462517379,1743177462361379,1743177462365379,0,-9.163954,12.351425,-0.0,-0.27572957,12.36593,0.0013883212,-0.0004940511,0,0,1
1743177462565379,1743177462413379,1743177462413379,0,-9.432247,12.351404,-0.0,-0.29926634,12.365862,0.00089354307,-0.0005316844,0,0,1
1743177462621379,1743177462465379,1743177462469379,0,-9.699478,12.35152,-0.0,-0.31070963,12.366005,0.000572612,-0.0005355399,0,0,1
1743177462669379,1743177462517379,1743177462517379,0,-10.411879,12.351497,0.15262604,-0.26706207,12.365935,7.535122e-05,-0.00047799217,0,0,1
1743177462725379,1743177462569379,1743177462573379,0,-10.143011,12.35161,-0.0,-0.26817724,12.366077,0.0002516086,-0.0004566662,0,0,1
1743177462773379,1743177462621379,1743177462621379,0,-10.272068,12.351586,-0.0,-0.2701295,12.366007,0.00026997874,-0.00043907968,0,0,1
1743177462829379,1743177462673379,1743177462677379,0,-10.884792,12.351699,0.1610136,-0.22951457,12.366148,8.38592e-05,-0.00038981732,0,0,1
1743177462877379,1743177462725379,1743177462725379,0,-10.540732,12.351673,-0.0,-0.23826304,12.366076,0.00033618018,-0.00038476454,0,0,1
1743177462933379,1743177462777379,1743177462781379,0,-10.782828,12.351784,-0.0,-0.2387276,12.366216,0.00019130704,-0.00036654028,0,0,1
1743177462981379,1743177462829379,1743177462829379,0,-11.174516,12.351757,0.009031296,-0.21538799,12.366143,2.63831e-07,-0.00033198626,0,0,1
1743177463037379,1743177462881379,1743177462885379,0,-11.385717,12.351866,0.056955338,-0.18973245,12.366281,1.049276e-05,-0.00029972373,0,0,1
1743177463085379,1743177462933379,1743177462933379,0,-10.967392,12.351838,-0.0,-0.21904787,12.366207,0.0008116566,-0.0003479493,0,0,1
1743177463141379,1743177462985379,1743177462989379,0,-11.389374,12.351946,-0.0,-0.22125699,12.366344,0.00019021134,-0.00033308993,0,0,1
1743177463189379,1743177463037379,1743177463037379,0,-11.752889,12.351917,-0.0,-0.2021825,12.366271,1.1400828e-06,-0.0003018193,0,0,1
1743177463245379,1743177463089379,1743177463093379,0,-12.001879,12.352023,0.06683731,-0.17684005,12.3664055,1.4449554e-05,-0.00027202585,0,0,1
1743177463293379,1743177463141379,1743177463141379,0,-11.832307,12.351993,-0.0,-0.18303712,12.36633,0.00019040909,-0.00026433732,0,0,1
1743177463349379,1743177463193379,1743177463197379,0,-11.895343,12.3520975,-0.0,-0.19814835,12.366465,0.00038153818,-0.00027537797,0,0,1
1743177463397379,1743177463245379,1743177463245379,0,-12.45219,12.352066,0.073322296,-0.17257503,12.366389,1.7389584e-05,-0.00024779842,0,0,1
1743177463453379,1743177463297379,1743177463301379,0,-12.460975,12.35217,-0.0,-0.1640371,12.366523,2.1718075e-05,-0.000226501,0,0,1
1743177463501379,1743177463349379,1743177463349379,0,-12.414702,12.352138,-0.0,-0.17386517,12.366446,0.00023295371,-0.00022710886,0,0,1
1743177463557379,1743177463401379,1743177463405379,0,-12.299543,12.35224,-0.0,-0.20907556,12.366578,0.0009700541,-0.00029709647,0,0,1
1743177463605379,1743177463453379,1743177463453379,0,-12.975458,12.352206,-0.0,-0.19050975,12.366501,4.6518886e-07,-0.00026915295,0,0,1
1743177463661379,1743177463505379,1743177463509379,0,-13.116406,12.352307,-0.0,-0.17587769,12.366632,4.004241e-06,-0.00024417517,0,0,1
1743177463709379,1743177463557379,1743177463557379,0,-12.980543,12.352272,-0.0,-0.18865725,12.366553,0.0003139299,-0.00025074626,0,0,1
1743177463765379,1743177463609379,1743177463613379,0,-13.307075,12.352373,-0.0,-0.18493842,12.366685,7.198306e-05,-0.00023390625,0,0,1
1743177463813379,1743177463661379,1743177463661379,0,-13.139289,12.352337,-0.0,-0.21061312,12.366605,0.0006769609,-0.00027564328,0,0,1
1743177463869379,1743177463713379,1743177463717379,0,-13.664222,12.352436,-0.0,-0.19991638,12.3667345,3.0472842e-05,-0.0002525475,0,0,1
1743177463917379,1743177463765379,1743177463765379,0,-13.768315,12.352399,-0.0,-0.19366463,12.366654,5.769072e-05,-0.00023419142,0,0,1
1743177463973379,1743177463817379,1743177463821379,0,-13.459551,12.352497,-0.0,-0.23258759,12.366784,0.001191136,-0.00032433838,0,0,1
1743177464021379,1743177463869379,1743177463869379,0,-14.347242,12.352459,0.1400299,-0.19748594,12.366703,6.3423126e-05,-0.0002878101,0,0,1
1743177464077379,1743177463921379,1743177463925379,0,-13.707561,12.352556,-0.0,-0.24149254,12.366831,0.0014287791,-0.0003952927,0,0,1
1743177464125379,1743177463973379,1743177463973379,0,-14.52531,12.352517,0.012223244,-0.21759178,12.36675,4.8325614e-07,-0.00035800945,0,0,1
1743177464181379,1743177464025379,1743177464029379,0,-14.774044,12.352613,0.096040726,-0.1880467,12.366878,2.9833951e-05,-0.00032147346,0,0,1
1743177464229379,1743177464077379,1743177464077379,0,-14.932878,12.352573,0.11387539,-0.15960476,12.366795,4.19433e-05,-0.00028723854,0,0,1
1743177464285379,1743177464129379,1743177464133379,0,-14.607977,12.35267,-0.0,-0.17997432,12.366922,0.00045687117,-0.00030321843,0,0,1
1743177464333379,1743177464181379,1743177464181379,0,-14.986698,12.352628,-0.0,-0.17604263,12.366838,6.1809595e-05,-0.00028047702,0,0,1
1743177464389379,1743177464233379,1743177464237379,0,-14.87986,12.352723,-0.0,-0.19807866,12.366965,0.00054361,-0.0003052649,0,0,1
1743177464437379,1743177464285379,1743177464285379,0,-15.0288105,12.352681,-0.0,-0.21730629,12.366882,0.0005231866,-0.00032579375,0,0,1
1743177464493379,1743177464337379,1743177464341379,0,-15.938288,12.352775,0.34206963,-0.16461146,12.367007,0.00037846385,-0.00025945064,0,0,1
1743177464541379,1743177464389379,1743177464389379,0,-15.695999,12.352732,-0.0,-0.15304564,12.366923,5.661013e-06,-0.00023554292,0,0,1
1743177464597379,1743177464441379,1743177464445379,0,-15.644702,12.352825,-0.0,-0.16299395,12.367048,0.00021638219,-0.00023373793,0,0,1
1743177464645379,1743177464493379,1743177464493379,0,-16.75957,12.352781,0.7149601,-0.08028813,12.366963,0.0016533338,-5.597029e-05,0,0,1
1743177464701379,1743177464545379,1743177464549379,0,-16.28882,12.352873,0.078048706,-0.06537234,12.367086,1.970262e-05,-4.884168e-05,0,0,1
1743177464749379,1743177464597379,1743177464597379,0,-15.851536,12.352829,-0.0,-0.10637446,12.367002,0.0008106282,-0.00012060418,0,0,1
1743177464805379,1743177464649379,1743177464653379,0,-15.846309,12.35292,-0.0,-0.1596086,12.367125,0.0014583155,-0.00024662048,0,0,1
1743177464853379,1743177464701379,1743177464701379,0,-16.340178,12.352875,-0.0,-0.17461513,12.367039,0.0003289478,-0.00025437595,0,0,1
1743177464909379,1743177464753379,1743177464757379,0,-16.840502,12.352965,0.015741348,-0.156683,12.367162,8.0144514e-07,-0.0002303375,0,0,1
1743177464957379,1743177464805379,1743177464805379,0,-17.12207,12.35292,0.15565681,-0.12725967,12.367075,7.836628e-05,-0.0002012567,0,0,1
1743177465013379,1743177464857379,1743177464861379,0,-17.501072,12.353009,0.36870384,-0.08053847,12.367197,0.0004396874,-0.0001408779,0,0,1
1743177465061379,1743177464909379,1743177464909379,0,-17.549646,12.3529625,0.27495003,-0.04705042,12.36711,0.0002445115,-0.000104573104,0,0,1
1743177465117379,1743177464961379,1743177464965379,0,-17.110722,12.353051,-0.0,-0.07373366,12.367231,0.00035286864,-0.00012796327,0,0,1
1743177465165379,1743177465013379,1743177465013379,0,-17.385784,12.353004,-0.0,-0.08533371,12.367144,0.00012536076,-0.0001277181,0,0,1
1743177465221379,1743177465065379,1743177465069379,0,-17.969606,12.353092,0.22191429,-0.05639006,12.367264,0.00015927842,-0.00010068219,0,0,1
1743177465269379,1743177465117379,1743177465117379,0,-17.601545,12.3530445,-0.0,-0.07801488,12.367176,0.00026445827,-0.00011611037,0,0,1
1743177465325379,1743177465169379,1743177465173379,0,-17.993614,12.353132,-0.0,-0.07587613,12.367297,9.894899e-06,-0.00010610456,0,0,1
1743177465373379,1743177465221379,1743177465221379,0,-17.94243,12.353084,-0.0,-0.09157495,12.3672085,0.00019023995,-0.00011403036,0,0,1
1743177465429379,1743177465273379,1743177465277379,0,-18.113472,12.35317,-0.0,-0.10443581,12.367328,0.00016827777,-0.00011914062,0,0,1
1743177465477379,1743177465325379,1743177465325379,0,-18.171713,12.353121,-0.0,-0.123046756,12.367238,0.00029498222,-0.00013570541,0,0,1
1743177465533379,1743177465377379,1743177465381379,0,-18.747023,12.353208,0.11978531,-0.10017127,12.367357,4.6407717e-05,-0.000118549826,0,0,1
1743177465581379,1743177465429379,1743177465429379,0,-18.530052,12.353157,-0.0,-0.11221478,12.367268,0.0001681604,-0.00012322329,0,0,1
1743177465637379,1743177465481379,1743177465485379,0,-18.45214,12.353244,-0.0,-0.14481375,12.367387,0.0006792287,-0.00017560061,0,0,1
1743177465685379,1743177465533379,1743177465533379,0,-18.808092,12.353192,-0.0,-0.1530913,12.367296,0.00017511172,-0.00017555455,0,0,1
1743177465741379,1743177465585379,1743177465589379,0,-19.270144,12.353278,0.0760479,-0.13150571,12.367414,1.8704905e-05,-0.00015725475,0,0,1
1743177465789379,1743177465637379,1743177465637379,0,-19.49487,12.353227,0.16988754,-0.10311359,12.367324,9.33485e-05,-0.00013364719,0,0,1
1743177465845379,1743177465689379,1743177465693379,0,-19.254007,12.353312,-0.0,-0.11447907,12.367441,0.00016194025,-0.00013631248,0,0,1
1743177465893379,1743177465741379,1743177465741379,0,-20.274694,12.35326,0.6678848,-0.040778123,12.367351,0.0014427346,1.2438351e-05,0,0,1
1743177465949379,1743177465793379,1743177465797379,0,-19.92638,12.353344,0.16989326,-0.020932265,12.367468,9.3353694e-05,2.0060812e-05,0,0,1
1743177465997379,1743177465845379,1743177465845379,0,-19.826366,12.3532915,-0.0,-0.024136182,12.367376,9.763567e-06,1.7251268e-05,0,0,1
1743177466053379,1743177465897379,1743177465901379,0,-19.798655,12.353375,-0.0,-0.043061767,12.367493,0.00016379177,1.9648724e-07,0,0,1
1743177466101379,1743177465949379,1743177465949379,0,-20.349854,12.353322,0.20754433,-0.019453945,12.3674,0.00013931675,1.330202e-05,0,0,1
1743177466157379,1743177466001379,1743177466005379,0,-19.657953,12.353406,-0.0,-0.075993426,12.367517,0.0012418225,-0.00010493435,0,0,1
1743177466205379,1743177466053379,1743177466053379,0,-19.808678,12.353353,-0.0,-0.12356376,12.367425,0.0010916647,-0.00019788722,0,0,1
1743177466261379,1743177466105379,1743177466109379,0,-20.301813,12.353435,-0.0,-0.13229448,12.367539,0.000151239,-0.00019349282,0,0,1
1743177466309379,1743177466157379,1743177466157379,0,-21.101774,12.353381,0.4776554,-0.07483542,12.367448,0.00073792005,-0.000105751016,0,0,1
1743177466365379,1743177466209379,1743177466213379,0,-20.712791,12.353463,-0.0,-0.07091372,12.367562,3.5660194e-06,-9.6124895e-05,0,0,1
1743177466413379,1743177466261379,1743177466261379,0,-20.877394,12.353409,0.030639648,-0.061347097,12.36747,3.0363142e-06,-8.678362e-05,0,0,1
1743177466469379,1743177466313379,1743177466317379,0,-20.097765,12.353491,-0.0,-0.13697985,12.367585,0.00241558,-0.00030616298,0,0,1
1743177466517379,1743177466365379,1743177466365379,0,-20.762299,12.3534355,-0.0,-0.15191415,12.367491,0.0002824438,-0.00030392857,0,0,1
1743177466573379,1743177466417379,1743177466421379,0,-20.971352,12.353518,-0.0,-0.1560412,12.367606,0.0001238981,-0.00028696918,0,0,1
1743177466621379,1743177466469379,1743177466469379,0,-21.292252,12.353462,0.0345459,-0.13808735,12.367512,3.859852e-06,-0.00025957223,0,0,1
1743177466677379,1743177466521379,1743177466525379,0,-21.310741,12.353542,-0.0,-0.12984687,12.367625,8.284609e-06,-0.00023590021,0,0,1
1743177466725379,1743177466573379,1743177466573379,0,-21.26891,12.353487,-0.0,-0.13441245,12.367532,0.000102834674,-0.00022336504,0,0,1
1743177466781379,1743177466625379,1743177466629379,0,-20.927666,12.353567,-0.0,-0.17998596,12.367644,0.0012360064,-0.0003187588,0,0,1
1743177466829379,1743177466677379,1743177466677379,0,-21.181679,12.353512,-0.0,-0.20505758,12.367551,0.00064372533,-0.00034937158,0,0,1
1743177466885379,1743177466729379,1743177466733379,0,-21.443638,12.353592,-0.0,-0.21191314,12.367664,0.00024965307,-0.0003399778,0,0,1
1743177466933379,1743177466781379,1743177466781379,0,-21.6009,12.353535,-0.0,-0.21063176,12.367569,0.00012719458,-0.000319933,0,0,1
1743177466989379,1743177466833379,1743177466837379,0,-21.978163,12.353615,0.08964157,-0.18234514,12.3676815,2.5989062e-05,-0.00028734613,0,0,1
1743177467037379,1743177466885379,1743177466885379,0,-22.090092,12.353558,0.12759781,-0.15314761,12.367586,5.2657648e-05,-0.0002553168,0,0,1
1743177467093379,1743177466937379,1743177466941379,0,-21.638302,12.353637,-0.0,-0.17726119,12.367699,0.0005413495,-0.0002822619,0,0,1
1743177467141379,1743177466989379,1743177466989379,0,-22.00794,12.3535795,-0.0,-0.1709236,12.367603,3.912408e-05,-0.00025935762,0,0,1
1743177467197379,1743177467041379,1743177467045379,0,-22.130932,12.353659,-0.0,-0.16117641,12.367715,1.47156015e-05,-0.00023631164,0,0,1
1743177467245379,1743177467093379,1743177467093379,0,-22.849834,12.353601,0.58436966,-0.090943806,12.3676195,0.0011044579,-0.000110007255,0,0,1
1743177467301379,1743177467145379,1743177467149379,0,-22.290928,12.35368,-0.0,-0.087287046,12.367731,8.787749e-06,-0.00010047208,0,0,1
1743177467349379,1743177467197379,1743177467197379,0,-22.263195,12.3536215,-0.0,-0.092584744,12.367635,6.662288e-05,-9.728339e-05,0,0,1
1743177467405379,1743177467249379,1743177467253379,0,-22.597744,12.3537,0.117982864,-0.07274866,12.367746,4.5020184e-05,-8.387798e-05,0,0,1
1743177467453379,1743177467301379,1743177467301379,0,-22.526329,12.3536415,-0.0,-0.06725838,12.36765,6.769306e-07,-7.60402e-05,0,0,1
1743177467509379,1743177467353379,1743177467357379,0,-22.587486,12.35372,-0.0,-0.063074626,12.367761,1.6880981e-06,-6.903602e-05,0,0,1
1743177467557379,1743177467405379,1743177467405379,0,-22.582981,12.353661,-0.0,-0.06514501,12.367663,2.3396258e-05,-6.473662e-05,0,0,1
1743177467613379,1743177467457379,1743177467461379,0,-22.579,12.353738,-0.0,-0.073649384,12.367774,7.812583e-05,-6.599792e-05,0,0,1
1743177467661379,1743177467509379,1743177467509379,0,-23.500525,12.35368,0.7111397,0.00028003007,12.367678,0.0016356171,9.429917e-05,0,0,1
1743177467717379,1743177467561379,1743177467565379,0,-22.480442,12.353757,-0.0,-0.034879107,12.367787,0.000449846,4.3039112e-05,0,0,1
1743177467765379,1743177467613379,1743177467613379,0,-22.535215,12.353698,-0.0,-0.06650137,12.36769,0.0004441117,-2.8519135e-06,0,0,1
1743177467821379,1743177467665379,1743177467669379,0,-22.815329,12.353774,-0.0,-0.0744056,12.3678,7.316581e-05,-9.475687e-06,0,0,1
1743177467869379,1743177467717379,1743177467717379,0,-22.76964,12.353715,-0.0,-0.09056798,12.3677025,0.0001956837,-2.7017022e-05,0,0,1
1743177467925379,1743177467769379,1743177467773379,0,-23.504124,12.353791,0.43170738,-0.041368123,12.367811,0.00060276233,3.2310025e-05,0,0,1
1743177467973379,1743177467821379,1743177467821379,0,-23.373737,12.353731,0.25341415,-0.0135987755,12.367713,0.00020769803,4.8832084e-05,0,0,1
1743177468029379,1743177467873379,1743177467877379,0,-23.169724,12.353807,-0.0,-0.012815798,12.367823,9.040936e-08,4.422344e-05,0,0,1
1743177468077379,1743177467925379,1743177467925379,0,-23.11343,12.353747,-0.0,-0.02165196,12.367724,3.6762696e-05,3.6594312e-05,0,0,1
1743177468133379,1743177467977379,1743177467981379,0,-23.602606,12.353824,0.33112907,0.011581037,12.367833,0.00035461818,6.655308e-05,0,0,1
1743177468181379,1743177468029379,1743177468029379,0,-23.65147,12.353764,0.33685875,0.04222314,12.367735,0.00036699953,9.485601e-05,0,0,1
1743177468237379,1743177468081379,1743177468085379,0,-23.042986,12.353839,-0.0,0.008027207,12.367843,0.0003327975,5.456981e-05,0,0,1
1743177468285379,1743177468133379,1743177468133379,0,-23.256956,12.353779,-0.0,-0.006624181,12.367745,7.036725e-05,4.2800377e-05,0,0,1
1743177468341379,1743177468185379,1743177468189379,0,-23.93897,12.353854,0.4879551,0.039966624,12.367853,0.00077006145,0.00011131048,0,0,1
1743177468389379,1743177468237379,1743177468237379,0,-23.920788,12.353793,0.43074608,0.07677919,12.367754,0.0006000837,0.00015735434,0,0,1
1743177468445379,1743177468289379,1743177468293379,0,-23.475843,12.3538685,-0.0,0.064012825,12.367862,1.115944e-05,0.00014147986,0,0,1
1743177468493379,1743177468341379,1743177468341379,0,-24.086687,12.353807,0.5155659,0.10655044,12.367763,0.0008596807,0.00020913646,0,0,1
1743177468549379,1743177468393379,1743177468397379,0,-24.565947,12.353883,0.9524479,0.18623644,12.36787,0.002933915,0.00046581854,0,0,1
1743177468597379,1743177468445379,1743177468445379,0,-24.013323,12.353821,0.3638401,0.20296723,12.36777,0.00042814386,0.00046226947,0,0,1
1743177468653379,1743177468497379,1743177468501379,0,-23.883505,12.353896,0.19369507,0.20209377,12.367878,0.00012133941,0.00043015287,0,0,1
1743177468701379,1743177468549379,1743177468549379,0,-23.717552,12.353834,-0.00557518,0.18253075,12.367778,1.0052778e-07,0.00038962174,0,0,1
1743177468757379,1743177468601379,1743177468605379,0,-24.00869,12.3539095,0.24775124,0.1886747,12.367886,0.0001985163,0.00037161904,0,0,1
1743177468805379,1743177468653379,1743177468653379,0,-24.114594,12.3538475,0.32182693,0.20121802,12.367785,0.00033497534,0.0003681671,0,0,1
1743177468861379,1743177468705379,1743177468709379,0,-23.56727,12.353922,-0.2618103,0.15759942,12.367892,0.00022168575,0.00031260125,0,0,1
1743177468909379,1743177468757379,1743177468757379,0,-23.61642,12.35386,-0.2419014,0.119965285,12.367793,0.00018925377,0.00026532504,0,0,1
1743177468965379,1743177468809379,1743177468813379,0,-23.825031,12.353934,-0.06695366,0.10235698,12.367899,1.4498154e-05,0.00023896489,0,0,1
1743177469013379,1743177468861379,1743177468861379,0,-23.68005,12.353871,-0.24000168,0.0701058,12.367799,0.00018629283,0.00019890437,0,0,1
1743177469069379,1743177468913379,1743177468917379,0,-24.175041,12.353946,0.22295952,0.08450507,12.367905,0.00016077403,0.00019531237,0,0,1
1743177469117379,1743177468965379,1743177468965379,0,-24.628584,12.353884,0.6492882,0.13770927,12.367805,0.00136346,0.0003053553,0,0,1
1743177469173379,1743177469017379,1743177469021379,0,-24.247528,12.353957,0.23685646,0.14704923,12.36791,0.00018144047,0.00029368215,0,0,1
1743177469221379,1743177469069379,1743177469069379,0,-23.959143,12.353894,-0.077142715,0.1259297,12.367809,1.9246736e-05,0.00026420335,0,0,1
1743177469277379,1743177469121379,1743177469125379,0,-24.415207,12.353969,0.35017586,0.14705434,12.367916,0.0003965846,0.00027667405,0,0,1
1743177469325379,1743177469173379,1743177469173379,0,-23.313631,12.353906,-0.77599335,0.06010057,12.367815,0.001947525,6.714804e-05,0,0,1
1743177469381379,1743177469225379,1743177469229379,0,-24.137083,12.353979,0.020877838,0.056405675,12.367921,1.4097247e-06,6.0955295e-05,0,0,1
1743177469429379,1743177469277379,1743177469277379,0,-24.573544,12.353916,0.43441963,0.09201568,12.36782,0.00061035954,0.00011271077,0,0,1
1743177469485379,1743177469329379,1743177469333379,0,-24.222462,12.35399,0.05690384,0.08870804,12.367925,1.0472402e-05,0.00010307962,0,0,1
1743177469533379,1743177469381379,1743177469381379,0,-23.846382,12.353926,-0.3410797,0.048220787,12.367824,0.0003762517,5.7925216e-05,0,0,1
1743177469589379,1743177469433379,1743177469437379,0,-24.276495,12.353999,0.064712524,0.049774356,12.3679285,1.3543774e-05,5.3744356e-05,0,0,1
1743177469637379,1743177469485379,1743177469485379,0,-24.369848,12.353936,0.13738632,0.05802766,12.367828,6.104548e-05,5.4432145e-05,0,0,1
1743177469693379,1743177469537379,1743177469541379,0,-24.025959,12.354009,-0.22992706,0.030901488,12.367932,0.00017097912,3.319775e-05,0,0,1
1743177469741379,1743177469589379,1743177469589379,0,-24.619465,12.353946,0.34417915,0.060413152,12.367831,0.00038312067,6.6161505e-05,0,0,1
1743177469797379,1743177469641379,1743177469645379,0,-25.029732,12.354018,0.7315693,0.12363801,12.367935,0.001730907,0.00022298537,0,0,1
1743177469845379,1743177469693379,1743177469693379,0,-24.962543,12.353954,0.64494514,0.17274666,12.367834,0.0013452775,0.00032870856,0,0,1
1743177469901379,1743177469745379,1743177469749379,0,-24.309212,12.354027,-0.030246735,0.15362409,12.367938,2.9588277e-06,0.00029746452,0,0,1
1743177469949379,1743177469797379,1743177469797379,0,-24.685068,12.353963,0.32837486,0.17008612,12.367836,0.00034874346,0.00030229514,0,0,1
1743177470005379,1743177469849379,1743177469853379,0,-24.687004,12.354035,0.31023216,0.18328828,12.36794,0.00031126928,0.00030314052,0,0,1
1743177470053379,1743177469901379,1743177469901379,0,-24.980179,12.3539715,0.58667374,0.22128835,12.367839,0.0011131647,0.00037944716,0,0,1
1743177470109379,1743177469953379,1743177469957379,0,-24.167706,12.354044,-0.24500465,0.1773622,12.367943,0.00019413828,0.00032541374,0,0,1
1743177470157379,1743177470005379,1743177470005379,0,-24.479637,12.35398,0.051757812,0.1655299,12.367841,8.66399e-06,0.00029557498,0,0,1
1743177470213379,1743177470057379,1743177470061379,0,-24.45103,12.354053,0.0058078766,0.15048362,12.367945,1.0909309e-07,0.00026774124,0,0,1
1743177470261379,1743177470109379,1743177470109379,0,-24.563662,12.353988,0.103796005,0.14608552,12.367843,3.4843943e-05,0.00024580164,0,0,1
1743177470317379,1743177470161379,1743177470165379,0,-24.79754,12.35406,0.32070923,0.16253558,12.367947,0.00033264828,0.00025398284,0,0,1
1743177470365379,1743177470213379,1743177470213379,0,-24.527225,12.353995,0.03583145,0.15059969,12.367844,4.152358e-06,0.00023044809,0,0,1
1743177470421379,1743177470265379,1743177470269379,0,-24.564486,12.354068,0.05663681,0.14174812,12.367948,1.0374327e-05,0.0002097165,0,0,1
1743177470469379,1743177470317379,1743177470317379,0,-24.662603,12.354003,0.14080238,0.14165902,12.367846,6.411888e-05,0.00019600078,0,0,1
1743177470525379,1743177470369379,1743177470373379,0,-24.741236,12.354075,0.20342064,0.14747715,12.3679495,0.00013382964,0.00019014408,0,0,1
1743177470573379,1743177470421379,1743177470421379,0,-24.612759,12.354011,0.06115532,0.13934538,12.3678465,1.2095794e-05,0.00017337142,0,0,1
1743177470629379,1743177470473379,1743177470477379,0,-24.884556,12.354082,0.3172531,0.1561048,12.3679495,0.0003255173,0.000187704,0,0,1
1743177470677379,1743177470525379,1743177470525379,0,-24.656525,12.354017,0.07571411,0.14853176,12.367847,1.8540417e-05,0.0001717683,0,0,1
1743177470733379,1743177470577379,1743177470581379,0,-24.505648,12.354089,-0.09016228,0.12604609,12.3679495,2.62913e-05,0.00015311051,0,0,1
1743177470781379,1743177470629379,1743177470629379,0,-24.112026,12.354024,-0.49668312,0.06738319,12.367847,0.00079785625,6.352668e-05,0,0,1
1743177470837379,1743177470681379,1743177470685379,0,-24.923744,12.354095,0.30107307,0.08939746,12.3679495,0.00029316093,8.515889e-05,0,0,1
1743177470885379,1743177470733379,1743177470733379,0,-24.949379,12.354031,0.31373787,0.11053098,12.367847,0.00031834625,0.000107125816,0,0,1
1743177470941379,1743177470785379,1743177470789379,0,-23.98896,12.354102,-0.66165733,0.0377886,12.3679495,0.0014158869,-3.6346406e-05,0,0,1
1743177470989379,1743177470837379,1743177470837379,0,-24.656527,12.354037,-0.00554657,0.0337063,12.367847,9.949811e-08,-3.2931843e-05,0,0,1
1743177471045379,1743177470889379,1743177470893379,0,-24.877237,12.354108,0.20149803,0.049512766,12.367949,0.00013131187,-1.7459608e-05,0,0,1
1743177471093379,1743177470941379,1743177470941379,0,-24.570366,12.354043,-0.1168232,0.033843435,12.3678465,4.413916e-05,-1.99729e-05,0,0,1
1743177471149379,1743177470993379,1743177470997379,0,-24.416412,12.354115,-0.2826786,0.004026141,12.367948,0.00025843314,-4.243655e-05,0,0,1
1743177471197379,1743177471045379,1743177471045379,0,-25.160604,12.354049,0.4523182,0.046256553,12.367845,0.00066168926,2.3894143e-05,0,0,1
1743177471253379,1743177471097379,1743177471101379,0,-24.673214,12.35412,-0.046087265,0.037557498,12.367947,6.8694862e-06,2.099612e-05,0,0,1
1743177471301379,1743177471149379,1743177471149379,0,-25.312122,12.354054,0.5845299,0.08908389,12.367844,0.0011050436,0.00012311654,0,0,1
1743177471357379,1743177471201379,1743177471205379,0,-24.565393,12.354126,-0.17170525,0.0645168,12.367946,9.535194e-05,0.00010253617,0,0,1
1743177471405379,1743177471253379,1743177471253379,0,-25.200666,12.35406,0.4563675,0.101430275,12.367843,0.0006735897,0.00015633108,0,0,1
1743177471461379,1743177471305379,1743177471309379,0,-24.736715,12.354131,-0.01606369,0.090362,12.367945,8.345514e-07,0.00014152563,0,0,1
1743177471509379,1743177471357379,1743177471357379,0,-25.088974,12.354066,0.32974243,0.11291233,12.367843,0.0003516541,0.00016132033,0,0,1
1743177471565379,1743177471409379,1743177471413379,0,-24.78572,12.354136,0.019130707,0.10407782,12.367945,1.1836532e-06,0.00014623499,0,0,1
1743177471613379,1743177471461379,1743177471461379,0,-24.935799,12.354071,0.16352654,0.10967807,12.367842,8.648535e-05,0.0001406064,0,0,1
1743177471669379,1743177471513379,1743177471517379,0,-24.544737,12.354141,-0.23402405,0.077300325,12.367944,0.00017712647,0.000110675035,0,0,1
1743177471717379,1743177471565379,1743177471565379,0,-24.814323,12.354075,0.030685425,0.072909065,12.367842,3.0453018e-06,0.000100536,0,0,1
1743177471773379,1743177471617379,1743177471621379,0,-24.767117,12.354146,-0.022481918,0.06392296,12.367944,1.6346668e-06,9.091123e-05,0,0,1
1743177471821379,1743177471669379,1743177471669379,0,-25.593626,12.35408,0.7991829,0.13318658,12.367842,0.0020656579,0.00027693808,0,0,1
1743177471877379,1743177471721379,1743177471725379,0,-24.863869,12.354151,0.06314659,0.12658861,12.367944,1.28962165e-05,0.00025206458,0,0,1
1743177471925379,1743177471773379,1743177471773379,0,-24.403227,12.354085,-0.40182114,0.07681088,12.367843,0.0005221936,0.00017912721,0,0,1
1743177471981379,1743177471825379,1743177471829379,0,-25.15781,12.354156,0.34849548,0.102404356,12.367945,0.00039278672,0.00019925456,0,0,1
1743177472029379,1743177471877379,1743177471877379,0,-24.915428,12.35409,0.101644516,0.10233278,12.367844,3.3414417e-05,0.00018363193,0,0,1
1743177472085379,1743177471929379,1743177471933379,0,-24.726774,12.35416,-0.091617584,0.08406209,12.367947,2.7146889e-05,0.00016377596,0,0,1
1743177472133379,1743177471981379,1743177471981379,0,-24.85431,12.354094,0.03229332,0.07918532,12.367844,3.3728058e-06,0.00014866551,0,0,1
