timestamp,rollspeed_integ,pitchspeed_integ,yawspeed_integ,wheel_rate_integ
1743177449813379,0.0,0.0,0.0,0.0
1743177449817379,0.0,0.0,0.0,0.0
1743177450013379,0.0,0.0,0.0,0.0
1743177450213379,0.0,0.0,0.0,0.0
1743177450413379,0.0,0.0,0.0,0.0
1743177450613379,0.0,0.0,0.0,0.0
1743177450813379,0.0,0.0,0.0,0.0
1743177451013379,0.0,0.0,0.0,0.0
1743177451213379,0.0,0.0,0.0,0.0
1743177451413379,0.0,0.0,0.0,0.0
1743177451613379,0.0,0.0,0.0,0.0
1743177451813379,0.0,0.0,0.0,0.0
1743177452013379,0.0,0.0,0.0,0.0
1743177452213379,0.0,0.0,0.0,0.0
1743177452413379,0.0,0.0,0.0,0.0
1743177452613379,0.0,0.0,0.0,0.0
1743177452813379,0.0,0.0,0.0,0.0
1743177453013379,0.0,0.0,0.0,0.0
1743177453213379,0.0,0.0,0.0,0.0
1743177453413379,0.0,0.0,0.0,0.0
1743177453613379,0.0,0.0,0.0,0.0
1743177453813379,0.0,0.0,0.0,0.0
1743177454013379,0.0,0.0,0.0,0.0
1743177454213379,0.0,0.0,0.0,0.0
1743177454413379,0.0,0.0,0.0,0.0
1743177454613379,0.0,0.0,0.0,0.0
1743177454813379,0.0,0.0,0.0,0.0
1743177455013379,0.0,0.0,0.0,0.0
1743177455213379,0.0,0.0,0.0,0.0
1743177455413379,0.0,0.0,0.0,0.0
1743177455613379,0.0,0.0,0.0,0.0
1743177455813379,0.0,0.0,0.0,0.0
1743177456013379,0.0,0.0,0.0,0.0
1743177456213379,0.0,0.0,0.0,0.0
1743177456413379,-0.000152521,2.3989422e-05,-2.0810192e-05,0.0
1743177456613379,-7.874669e-06,-7.029199e-05,-3.5657376e-06,0.0
1743177456813379,-1.6822016e-05,1.3759215e-05,-3.6042136e-05,0.0
1743177457013379,0.00011518093,-0.00013024549,-9.340286e-06,0.0
1743177457213379,7.755848e-06,-1.51935465e-05,1.9486486e-05,0.0
1743177457413379,0.000119898395,-9.476727e-06,4.447793e-05,0.0
1743177457613379,4.5174354e-05,-1.6396683e-05,3.0130545e-06,0.0
1743177457813379,-5.909328e-07,-3.872258e-05,2.0847706e-06,0.0
1743177458013379,0.0053900275,-0.0018071943,1.2177052e-05,0.0
1743177458213379,-0.0021316179,0.00043615134,-3.1622898e-05,0.0
1743177458413379,-0.00041180642,5.0709918e-05,-1.642836e-05,0.0
1743177458613379,-0.00033619773,0.00013837224,8.0895825e-06,0.0
1743177458813379,-0.00037328407,0.000138548,-4.04626e-05,0.0
1743177459013379,-0.00015607798,-2.6246533e-05,-4.681876e-05,0.0
1743177459213379,-3.0280768e-05,-3.832604e-06,2.0719352e-05,0.0
1743177459413379,-1.5560832e-05,-2.7500033e-05,-1.7624805e-05,0.0
1743177459613379,0.00014278947,-2.3912615e-05,-2.6781609e-05,0.0
1743177459813379,7.061644e-05,1.655109e-05,-3.8252856e-05,0.0
1743177460013379,0.00011957505,-8.3161925e-05,-2.01417e-05,0.0
1743177460213379,0.000107908236,-2.2564274e-05,-1.5003995e-05,0.0
1743177460413379,6.604238e-05,-1.575157e-05,-2.9338431e-05,0.0
1743177460613379,0.00021945579,-0.00015787412,-2.9885656e-05,0.0
1743177460813379,0.00044223646,-0.0002603441,-1.5057839e-05,0.0
1743177461013379,0.0005991387,-0.00045090035,-2.619783e-05,0.0
1743177461213379,0.00070671097,-0.0004176193,-6.686529e-05,0.0
1743177461413379,0.00048210908,-0.00038881833,-0.00011431121,0.0
1743177461613379,0.00035146315,-0.00025214837,-0.00014926711,0.0
1743177461813379,0.00018980833,-5.6511013e-05,-0.00026053216,0.0
1743177462013379,-0.00015196478,9.082601e-05,-0.000446374,0.0
1743177462213379,-0.00028048648,0.00024823897,-0.0005627331,0.0
1743177462413379,-0.00030801736,0.00031193913,-0.00052777247,0.0
1743177462613379,-0.00032629704,0.00031617767,-0.00032598182,0.0
1743177462813379,-0.00026473822,0.00028245858,6.808741e-05,0.0
1743177463013379,-0.00027781684,0.00021511197,0.0004792378,0.0
1743177463213379,-0.00024602792,0.00022152023,0.0008376325,0.0
1743177463413379,-0.0003046366,0.00012727067,0.0010329934,0.0
1743177463613379,-0.00024508178,4.7633872e-05,0.00095305423,0.0
1743177463813379,-9.236036e-05,6.211509e-05,0.0007134866,0.0
1743177464013379,-0.00016789352,-1.3116654e-05,0.00038884164,0.0
1743177464213379,-0.00014863105,-2.9520384e-06,0.000116950476,0.0
1743177464413379,4.7787078e-05,-3.7975813e-05,-1.4657863e-06,0.0
1743177464613379,2.7917979e-05,2.0565778e-05,-5.830803e-05,0.0
1743177464813379,1.6545244e-05,1.5160434e-05,-3.033117e-05,0.0
1743177465013379,5.364061e-05,-6.1518886e-06,9.842466e-05,0.0
1743177465213379,0.00021224136,-0.000116157775,0.00021480831,0.0
1743177465413379,-2.1210379e-05,-4.1138765e-06,0.0001781333,0.0
1743177465613379,-0.00019592843,6.223746e-05,3.5099252e-05,0.0
1743177465813379,0.00014767358,-0.0001922807,-0.00018833582,0.0
1743177466013379,0.00018814958,-4.890576e-05,-0.00026388766,0.0
1743177466213379,-4.247364e-06,-4.234501e-05,-0.0002657175,0.0
1743177466413379,3.663929e-05,1.675056e-05,-0.00024178851,0.0
1743177466613379,-2.70684e-05,4.1813415e-05,-0.00015421062,0.0
1743177466813379,-2.9002807e-05,2.9729452e-05,-0.00015373624,0.0
1743177467013379,-8.514957e-05,5.388412e-05,-0.00011054455,0.0
1743177467213379,4.6025893e-05,4.896906e-05,-0.000113813374,0.0
1743177467413379,-0.00011524839,7.21357e-05,-4.201191e-05,0.0
1743177467613379,-7.528474e-05,4.844254e-05,-3.758229e-05,0.0
1743177467813379,-9.67634e-05,1.4624672e-05,-1.0823603e-05,0.0
1743177468013379,-0.00010369226,-7.057675e-06,-4.139075e-05,0.0
1743177468213379,-0.00014932545,5.7509587e-06,-0.00016589536,0.0
1743177468413379,3.481649e-06,-4.39618e-05,-0.00012985503,0.0
1743177468613379,-1.3088641e-05,-1.8804198e-05,-2.3122097e-05,0.0
1743177468813379,-2.4836034e-05,-1.1301342e-05,3.8884988e-05,0.0
1743177469013379,2.8076507e-05,1.3253764e-05,9.867238e-05,0.0
1743177469213379,4.5569304e-05,4.0050792e-05,0.00010597198,0.0
1743177469413379,3.1210246e-05,2.0517195e-05,8.221366e-05,0.0
1743177469613379,0.0023907032,-0.00037005328,3.0000725e-05,0.0
1743177469813379,-0.002410004,0.0005207924,-5.4701668e-05,0.0
1743177470013379,0.0003679164,-4.1256942e-05,-0.00010304738,0.0
1743177470213379,0.00025628248,-0.0025943376,0.0051701553,0.0
1743177470413379,-0.00069715414,-0.0024170463,0.0062980163,0.0
1743177470613379,-0.0006420481,-0.0017304459,0.003243894,0.0
1743177470813379,-0.00039748257,0.00031714462,-0.0008755821,0.0
1743177471013379,0.0003305493,0.0036448375,-0.004082179,0.0
1743177471213379,0.00024412366,0.002885174,-0.0053067855,0.0
1743177471413379,7.1158276e-05,0.0022519506,-0.0043195854,0.0
1743177471613379,5.7350953e-05,0.001866837,-0.0019018237,0.0
1743177471813379,-6.7905625e-05,0.0015497159,0.00083723123,0.0
1743177472013379,-0.00012475041,-8.686542e-05,0.002837579,0.0
1743177472213379,-0.00058294024,-0.0032904313,0.0040898975,0.0
1743177472413379,-0.0006074108,-0.0023538086,0.0040486674,0.0
1743177472613379,-0.00052255683,-0.0013174507,0.0026397964,0.0
1743177472813379,-0.0002680576,-0.00037944695,0.0004401931,0.0
1743177473013379,-0.00018225159,0.00020229316,-0.0016593626,0.0
1743177473213379,1.4496691e-05,0.00037782776,-0.002934114,0.0
1743177473413379,1.1020675e-06,0.000338109,-0.0031669966,0.0
1743177473613379,-0.004356017,0.00054931163,-0.013401943,0.0
1743177473813379,0.0016079454,0.00050033577,-0.029290441,0.0
1743177474013379,0.00025637302,-0.0028677434,-0.039292287,0.0
1743177474213379,-0.00042608962,-0.0029454462,-0.03898369,0.0
1743177474413379,0.004274359,-0.001953755,-0.030886237,0.0
1743177474613379,0.007331566,-0.00018950195,-0.016266286,0.0
1743177474813379,0.003172003,0.0012823058,0.0077763307,0.0
1743177475013379,-0.00060881407,0.0005265558,0.026591951,0.0
1743177475213379,-0.0017167976,0.0016235199,0.03148724,0.0
1743177475413379,0.0006389401,0.0040841866,0.022736967,0.0
1743177475613379,0.0019307315,0.003740619,0.0074243117,0.0
1743177475813379,0.0015325503,0.0025776362,-0.0062520946,0.0
1743177476013379,-0.0009810745,-0.0007179842,-0.013149354,0.0
1743177476213379,0.00074016687,-0.0023721217,-0.011226688,0.0
1743177476413379,0.00029303375,-0.0010182551,-0.0042577665,0.0
1743177476613379,0.00033034792,0.0009095765,0.0030435445,0.0
1743177476813379,-0.00011695086,0.003125024,0.006555916,0.0
1743177477013379,0.00044529742,-0.00060594385,0.006099759,0.0
1743177477213379,-0.00022551394,-0.0012782312,0.0037507722,0.0
1743177477413379,-0.00040973647,-0.0010303524,0.001043505,0.0
1743177477613379,-0.00040051347,-0.00072149636,-0.00101812,0.0
1743177477813379,-0.00033841198,-0.00057459064,-0.0020439543,0.0
1743177478013379,-0.00023627507,-0.00059340784,-0.0021423355,0.0
1743177478213379,9.968168e-05,-0.00021720951,-0.0015982697,0.0
1743177478413379,0.00015501754,-0.00022610673,-0.0010379165,0.0
1743177478613379,-6.601755e-05,-0.00032441874,-0.00087735447,0.0
1743177478813379,0.00037130943,-0.00020537886,-0.0012032143,0.0
1743177479013379,0.00013115948,-0.00018889781,-0.0019214944,0.0
1743177479213379,0.00030795945,-0.0002950553,-0.0027906292,0.0
1743177479413379,7.0512935e-05,-0.00031600308,-0.0036149754,0.0
1743177479613379,0.000388205,-0.00023072728,-0.004314511,0.0
1743177479813379,0.00018948433,-0.0002545048,-0.004743912,0.0
1743177480013379,0.00026059808,-0.00024384835,-0.0051089306,0.0
1743177480213379,0.00019702519,-0.00014926247,-0.0054987846,0.0
1743177480413379,0.00037333713,2.5179013e-05,-0.005835655,0.0
1743177480613379,0.00013644365,-2.6542873e-05,-0.00609248,0.0
1743177480813379,5.626161e-05,-1.6554845e-06,-0.0064894943,0.0
1743177481013379,-3.7110807e-05,0.00010472366,-0.0030844992,0.0
1743177481213379,8.243835e-05,0.0001700937,0.0052416,0.0
1743177481413379,0.0006550539,0.00054762233,0.013064535,0.0
1743177481613379,0.004521866,0.0031717303,0.028387807,0.0
1743177481813379,-0.0029115614,-0.0044836164,0.04241456,0.0
1743177482013379,0.0018463505,-0.0030468244,0.047391243,0.0
1743177482213379,0.0008969431,-0.0025500485,0.042390704,0.0
1743177482413379,-0.0019152507,-0.0023234994,0.03181339,0.0
1743177482613379,-0.0040158494,0.00066272035,0.02057088,0.0
1743177482813379,-0.0030341202,0.0005962537,0.012441605,0.0
1743177483013379,-0.0027479916,0.00023022213,0.00803019,0.0
1743177483213379,-0.002532226,0.0007213677,-0.004140951,0.0
1743177483413379,-0.000102880236,0.002859122,-0.017133618,0.0
1743177483613379,7.223898e-07,0.002319287,-0.022567421,0.0
1743177483813379,-0.00084232166,0.0021750114,-0.018822778,0.0
1743177484013379,-0.0017539364,0.00041381066,-0.009755931,0.0
1743177484213379,-0.0015905993,-0.001440802,-0.00025551327,0.0
1743177484413379,-0.0011158847,-0.0009530381,0.005743863,0.0
1743177484613379,-0.00085557107,-0.0007935864,0.0067926086,0.0
1743177484813379,-0.0008188566,0.0015736346,0.0038461932,0.0
1743177485013379,-0.0003317912,0.0026515468,-0.00064359145,0.0
1743177485213379,3.1878337e-06,0.00012116566,-0.0042817793,0.0
1743177485413379,4.2486452e-05,-0.0013337065,-0.0057527055,0.0
1743177485613379,-0.00013173617,-0.0010413842,-0.0050549707,0.0
1743177485813379,-0.00013275623,-0.00075868587,-0.0030538763,0.0
1743177486013379,-4.1696978e-05,-0.0005821657,-0.0009795568,0.0
1743177486213379,-6.428556e-05,-0.00050293974,0.00024576247,0.0
1743177486413379,3.3740693e-05,-0.0003750988,0.00033018267,0.0
1743177486613379,8.085306e-05,-0.00040550862,-0.00047715483,0.0
1743177486813379,9.074045e-05,-0.0002870301,-0.0015683414,0.0
1743177487013379,9.795494e-05,-0.0003160465,-0.002420452,0.0
1743177487213379,9.563553e-05,-0.00024911773,-0.0028711578,0.0
1743177487413379,-9.314946e-05,-0.00022998922,-0.0028813307,0.0
1743177487613379,0.00019317314,-0.0002519366,-0.0025744892,0.0
1743177487813379,0.00016566282,-0.00024645773,-0.002233371,0.0
1743177488013379,0.00011675526,-0.00015731582,-0.002009875,0.0
1743177488213379,8.284408e-05,-0.00015151355,-0.0021803777,0.0
1743177488413379,9.2605864e-05,-9.737452e-05,-0.0026424907,0.0
1743177488613379,2.5142224e-05,-5.2823598e-05,-0.0019339737,0.0
1743177488813379,-2.9238028e-05,-1.9139254e-05,0.0011861288,0.0
1743177489013379,-5.8648315e-05,-2.0646457e-06,0.003579202,0.0
1743177489213379,-0.0047210227,-0.0007172781,-0.0077445256,0.0
1743177489413379,0.000941164,-0.00041166545,-0.025712576,0.0
1743177489613379,0.005826485,-0.0036192066,-0.0377605,0.0
1743177489813379,0.00554234,-0.0020691932,-0.027420659,0.0
1743177490013379,0.0037363914,0.0030633747,-0.001847289,0.0
1743177490213379,-0.0005645361,0.0058893412,0.02099838,0.0
1743177490413379,-0.0031590955,0.0020456857,0.030552873,0.0
1743177490613379,-0.0014853873,0.0020648788,0.02431147,0.0
1743177490813379,0.0014049358,0.0009974135,0.008506039,0.0
1743177491013379,0.0058513386,-0.0030691589,-0.007432782,0.0
1743177491213379,0.0018807605,-0.0025944258,-0.015553156,0.0
1743177491413379,0.0005416504,-0.0017901311,-0.013824555,0.0
1743177491613379,0.0013569318,-0.00040143903,-0.0052113817,0.0
1743177491813379,0.0011423146,0.00022312561,0.0045972634,0.0
1743177492013379,0.004004878,0.0005768337,0.014557699,0.0
1743177492213379,0.0015786132,7.665725e-05,0.031478852,0.0
1743177492413379,-0.003998133,-0.0050778887,0.04389521,0.0
1743177492613379,0.0009179908,-0.0027188333,0.045453,0.0
1743177492813379,-0.0021218013,-0.0023842049,0.037484664,0.0
1743177493013379,-0.0043103993,0.00048262707,0.023275796,0.0
1743177493213379,-0.0033906703,0.0022118345,-0.0009877458,0.0
1743177493413379,-0.00089148467,0.0009379686,-0.022179706,0.0
1743177493613379,-0.0007366081,-9.628612e-05,-0.030645797,0.0
1743177493813379,-0.000121107216,0.0013461643,-0.025130786,0.0
1743177494013379,-0.0004936684,0.002451331,-0.011739221,0.0
1743177494213379,-0.0013720427,0.0016544025,0.0018696521,0.0
1743177494413379,-0.0011775666,0.0012470392,0.0103359865,0.0
1743177494613379,-0.00030308304,-0.0010452749,0.011628765,0.0
1743177494813379,7.3259434e-05,-0.0016074207,0.0072745928,0.0
1743177495013379,-0.00018605999,-0.00092449883,0.0008763752,0.0
1743177495213379,-0.0001227616,-0.00054587855,-0.0042642257,0.0
1743177495413379,-0.00017104037,-0.00038924077,-0.00636207,0.0
1743177495613379,-0.00011190101,-0.00022041913,-0.0054160594,0.0
1743177495813379,-9.5203264e-05,-0.00022240126,-0.0026670867,0.0
1743177496013379,-4.6815912e-05,-0.00015284184,0.0001315698,0.0
1743177496213379,-0.00010383388,-7.383728e-05,0.0019167798,0.0
1743177496413379,2.5113277e-05,-3.333904e-05,0.002290039,0.0
1743177496613379,2.2861219e-05,9.896914e-06,0.0014725142,0.0
1743177496813379,4.338334e-05,-3.7319653e-05,0.00012705754,0.0
1743177497013379,9.883405e-05,3.907535e-05,-0.00096235744,0.0
1743177497213379,3.557775e-05,-4.3263444e-06,-0.0014710635,0.0
1743177497413379,3.575827e-05,4.4008346e-05,-0.0013057234,0.0
1743177497613379,6.8809946e-05,-4.055418e-05,-0.0006859036,0.0
1743177497813379,-2.5894145e-05,4.660298e-06,-1.9594017e-05,0.0
1743177498013379,-2.4765064e-05,0.000889083,0.00041088377,0.0
1743177498213379,-6.5481254e-05,0.0027540692,0.0005370178,0.0
1743177498413379,-5.7613456e-06,0.0017688213,0.00047825236,0.0
1743177498613379,0.00012722521,-0.000915251,0.00023396302,0.0
1743177498813379,9.244776e-05,-0.00073338504,-0.000101187856,0.0
1743177499013379,5.235885e-05,-0.00047798225,-0.00031608308,0.0
1743177499213379,7.59193e-05,-0.00032484945,-0.00040726794,0.0
1743177499413379,-0.00010285852,-0.00016547214,-0.00030147453,0.0
1743177499613379,5.4296874e-05,-0.00010355723,-9.978197e-05,0.0
1743177499813379,-3.7216658e-05,-2.8711085e-05,0.00010475774,0.0
1743177500013379,-7.2317736e-05,-4.3444372e-05,0.0001870023,0.0
1743177500213379,4.4075838e-05,-4.433944e-05,0.0001615435,0.0
1743177500413379,-3.9037754e-05,-7.001501e-05,6.1003243e-06,0.0
1743177500613379,8.974372e-06,-2.7632457e-05,-0.00010900374,0.0
1743177500813379,-7.743648e-05,-8.9931455e-05,-0.00015676534,0.0
1743177501013379,-1.8480423e-05,-4.250144e-05,-0.0001661774,0.0
1743177501213379,9.089095e-05,-6.76478e-05,7.518772e-06,0.0
1743177501413379,7.5489597e-06,-6.867972e-05,0.0002816715,0.0
1743177501613379,8.791292e-06,-0.00015941873,0.00052773155,0.0
1743177501813379,8.683466e-05,-0.00013718671,0.0007645055,0.0
1743177502013379,7.5024975e-05,-0.00016909542,0.00083836593,0.0
1743177502213379,4.0799307e-05,-0.00018353127,0.00030846577,0.0
1743177502413379,2.2232503e-05,-5.5342545e-05,-0.00039678195,0.0
1743177502613379,-0.004004978,3.2068652e-05,-0.009102969,0.0
1743177502813379,-0.0028337047,0.00028169868,-0.026435731,0.0
1743177503013379,0.00267098,-0.0045847553,-0.039234366,0.0
1743177503213379,-0.00030935503,-0.0046739583,-0.04189668,0.0
1743177503413379,0.0066339294,-0.0022555136,-0.03489401,0.0
1743177503613379,0.008105712,0.00013912372,-0.014240111,0.0
1743177503813379,0.0024914343,0.0019663598,0.012201668,0.0
1743177504013379,-0.00091046543,0.0005558749,0.029717162,0.0
1743177504213379,-0.0032721756,0.0015690589,0.03157633,0.0
1743177504413379,0.0011708748,0.0038364644,0.02067462,0.0
1743177504613379,0.0025367604,0.0031294657,0.0053635216,0.0
1743177504813379,0.002668393,0.002580305,-0.007011479,0.0
1743177505013379,0.00062484713,0.0018688762,-0.0124704605,0.0
1743177505213379,-0.0022172465,0.0011343461,-0.010689326,0.0
1743177505413379,0.0013676333,-0.0011332772,-0.0046402365,0.0
1743177505613379,0.001044692,-0.0023000103,0.0019068012,0.0
1743177505813379,-0.00090537267,-0.0021451847,0.0060283225,0.0
1743177506013379,-0.0002715411,-0.0013716607,0.006651627,0.0
1743177506213379,-0.00022930272,-0.00083776313,0.004384776,0.0
1743177506413379,8.133902e-05,-0.00038508797,0.0009616252,0.0
1743177506613379,0.000106885884,-0.00017987845,-0.0018227808,0.0
1743177506813379,0.00012440348,6.352758e-05,-0.002989253,0.0
1743177507013379,5.8523452e-05,-4.0553507e-05,-0.0024325876,0.0
1743177507213379,-0.00017966998,2.3397093e-05,-0.0008541,0.0
1743177507413379,-0.00018119063,-1.7562386e-05,0.00059080013,0.0
1743177507613379,0.000114308816,0.0001915618,0.0013490713,0.0
1743177507813379,-9.312184e-05,1.8453984e-05,0.0010711608,0.0
1743177508013379,-0.00019579753,-0.00028166772,0.00014805664,0.0
1743177508213379,0.00010059911,3.1210824e-05,-0.0009893662,0.0
1743177508413379,-3.0888783e-05,-9.601527e-05,-0.0019131785,0.0
1743177508613379,-0.00032106214,-0.0001828415,-0.0025616249,0.0
1743177508813379,0.00015736117,9.805832e-06,-0.0019133844,0.0
1743177509013379,-7.2041665e-05,-5.8944628e-05,0.00028633213,0.0
1743177509213379,0.00018040405,-5.9276354e-05,0.002901238,0.0
1743177509413379,0.0063379966,0.0012861583,0.016238475,0.0
1743177509613379,-0.0044783913,-0.003641444,0.032987244,0.0
1743177509813379,-0.003165827,-0.004931982,0.042423114,0.0
1743177510013379,-0.00012810936,-0.0027616173,0.04088295,0.0
1743177510213379,-0.0031476042,-0.0019026017,0.031422764,0.0
1743177510413379,-0.0046244143,0.0041318843,0.011323249,0.0
1743177510613379,-0.00047289653,0.0038948203,-0.013477934,0.0
1743177510813379,0.002011177,0.0020839288,-0.029290134,0.0
1743177511013379,-0.000870728,0.002182738,-0.030179847,0.0
1743177511213379,-0.002183907,0.0018460463,-0.019053474,0.0
1743177511413379,-0.002778098,0.0015015167,-0.0036620945,0.0
1743177511613379,-0.002331094,0.0012744804,0.009000974,0.0
1743177511813379,-0.0009933541,-0.0032704275,0.014782618,0.0
1743177512013379,-0.0009045979,-0.0032836131,0.013615632,0.0
1743177512213379,-0.0011365718,-0.0024621373,0.008462168,0.0
1743177512413379,-0.0012760509,-0.0016445802,0.0025963087,0.0
1743177512613379,-0.0010121277,-0.00082184374,-0.004250894,0.0
1743177512813379,-0.0015845184,0.00014766346,-0.009494971,0.0
1743177513013379,-0.001745161,0.0008104624,-0.013598651,0.0
1743177513213379,-0.0052034943,0.0011026267,-0.026608296,0.0
1743177513413379,0.00025563623,-0.0027889246,-0.038311943,0.0
1743177513613379,0.0033655146,-0.0034944632,-0.041804533,0.0
1743177513813379,0.004587158,-0.0022944226,-0.03662682,0.0
1743177514013379,0.0035263516,0.0009358591,-0.02534852,0.0
1743177514213379,-0.00045661538,0.00490589,-0.0021574972,0.0
1743177514413379,-0.0002532781,0.005013377,0.020122705,0.0
1743177514613379,-0.0014113941,0.002367363,0.030092567,0.0
1743177514813379,-0.0011827308,0.0014951878,0.024879185,0.0
1743177515013379,0.0019939113,0.00017050456,0.010307849,0.0
1743177515213379,0.0061860685,-0.0033452865,-0.004876845,0.0
1743177515413379,0.00157952,-0.0032171293,-0.013041768,0.0
1743177515613379,0.0007304029,-0.002363286,-0.012242189,0.0
1743177515813379,0.001766357,-0.0006202,-0.0055986145,0.0
1743177516013379,0.0012576086,-7.7991404e-05,0.0025955252,0.0
1743177516213379,0.0009716774,0.00033780697,0.008447053,0.0
1743177516413379,0.0022212835,0.0004447302,0.011764277,0.0
1743177516613379,0.0049912226,0.0012566114,0.023955494,0.0
1743177516813379,-0.005308514,-0.0041166465,0.036351364,0.0
1743177517013379,-1.7551705e-05,-0.0032477088,0.041094862,0.0
1743177517213379,-0.0012326238,-0.002485866,0.03674806,0.0
1743177517413379,-0.0038735222,-0.0014613972,0.025199546,0.0
1743177517613379,-0.0036162673,0.0020678265,0.0017546226,0.0
1743177517813379,-0.00083570083,0.0012981418,-0.020472119,0.0
1743177518013379,-0.0004280228,0.0004702769,-0.030697986,0.0
1743177518213379,-0.00045984468,0.00039281405,-0.026695011,0.0
1743177518413379,-0.0006538567,0.002704708,-0.013935903,0.0
1743177518613379,-0.0018784817,0.0022493207,-0.00028564324,0.0
1743177518813379,-0.0016009695,0.0017730423,0.00867251,0.0
1743177519013379,-0.0006061664,0.0016987375,0.010721802,0.0
1743177519213379,0.00035376172,-0.0010161871,0.0071458886,0.0
1743177519413379,0.00037114366,-0.00080556923,0.0011506372,0.0
1743177519613379,0.00040064484,-0.0006380116,-0.0040283273,0.0
1743177519813379,0.00022218298,-0.0007390037,-0.006327087,0.0
1743177520013379,0.00021758459,-0.0010634805,-0.0056396215,0.0
1743177520213379,0.00018456127,-0.0016365484,-0.003026938,0.0
1743177520413379,0.0010095611,-0.0021825044,-0.00012641486,0.0
1743177520613379,0.0024075846,-0.002261095,0.0019998713,0.0
1743177520813379,0.0013576448,-0.0013234566,0.0029443537,0.0
1743177521013379,2.6697975e-05,0.00013700985,0.0028441688,0.0
1743177521213379,-0.0006415437,0.0012095871,0.0018761917,0.0
1743177521413379,-0.0011538378,0.0017799295,0.00050598575,0.0
1743177521613379,-0.0013421684,0.0019690432,-0.00084475096,0.0
1743177521813379,-0.0013834217,0.0019357086,-0.001825548,0.0
1743177522013379,-0.0013699144,0.0016537483,-0.002258219,0.0
1743177522213379,-0.0011450677,0.0011398019,-0.0020945787,0.0
1743177522413379,-0.00084338686,0.00011595724,-0.0016177171,0.0
1743177522613379,-0.00052940263,-3.9394356e-05,-0.0011392882,0.0
1743177522813379,-0.0001779121,-0.00023324633,-0.0007708369,0.0
1743177523013379,6.595551e-05,0.0005118811,-0.00055306795,0.0
1743177523213379,0.00034022643,0.0025561624,-0.0005507947,0.0
1743177523413379,0.0004184882,0.00084888993,-0.0005828883,0.0
1743177523613379,0.00047051214,-0.0013621723,-0.00061444927,0.0
1743177523813379,0.00046872455,-0.0012557075,-0.000696329,0.0
1743177524013379,0.00040424144,-0.0009906472,-0.0006187247,0.0
1743177524213379,0.0004266657,-0.0008625821,-0.0004424659,0.0
1743177524413379,0.00026544277,-0.0007179739,-0.00021656646,0.0
1743177524613379,0.00024287442,-0.00049248175,-1.1384128e-05,0.0
1743177524813379,0.0001083209,-0.00042525394,0.00016610991,0.0
1743177525013379,0.00019942402,-0.0003182667,0.00021485974,0.0
1743177525213379,7.629028e-05,-0.00017743163,0.00015578966,0.0
1743177525413379,-0.000121466386,-0.00010690355,0.00010219314,0.0
1743177525613379,1.9197983e-05,-3.20365e-05,-0.000102181395,0.0
1743177525813379,-0.00011241214,9.882916e-05,-0.00031506227,0.0
1743177526013379,6.193618e-06,4.227789e-05,-0.00056556426,0.0
1743177526213379,-1.0022016e-05,6.649188e-05,-0.00070623396,0.0
1743177526413379,-0.00015476233,6.3296786e-05,-0.0008059421,0.0
1743177526613379,-5.5354074e-05,3.621336e-05,-0.0010181711,0.0
1743177526813379,4.6764362e-05,4.8884485e-05,-0.0013754361,0.0
1743177527013379,-1.5920727e-05,-1.1923969e-05,-0.0010601395,0.0
1743177527213379,-5.912416e-07,2.6960322e-05,0.00037191337,0.0
1743177527413379,-0.00035713316,-1.3236625e-05,0.0012185265,0.0
1743177527613379,-0.005172809,-8.0967504e-05,-0.010533866,0.0
1743177527813379,0.0013842642,-0.0006165112,-0.027858991,0.0
1743177528013379,0.0049780454,-0.0039700605,-0.038916353,0.0
1743177528213379,0.0038238205,-0.0026015604,-0.039001234,0.0
1743177528413379,0.003111202,0.0017736739,-0.020279767,0.0
1743177528613379,-0.00059122127,0.005633964,0.006296267,0.0
1743177528813379,-0.0034665358,0.0019919646,0.02441122,0.0
1743177529013379,-0.0032415,0.0010222574,0.026187701,0.0
1743177529213379,0.00042040492,0.00040886024,0.013378495,0.0
1743177529413379,0.0056968555,-0.0029183151,-0.004970099,0.0
1743177529613379,0.0015194381,-0.0027472978,-0.01811943,0.0
1743177529813379,0.00078537274,-0.0015268394,-0.016301136,0.0
1743177530013379,0.0016646081,0.00011116658,-0.0047238646,0.0
1743177530213379,0.004258999,0.001236524,0.011295313,0.0
1743177530413379,0.0028177728,0.00073901075,0.034063105,0.0
1743177530613379,-0.004610259,-0.006599067,0.05053794,0.0
1743177530813379,-0.0006788875,-0.003584191,0.053469293,0.0
1743177531013379,-0.0027702686,-0.0024074977,0.0440818,0.0
1743177531213379,-0.004859994,0.0032586695,0.02867199,0.0
1743177531413379,-0.0016980562,0.003257251,0.0035927712,0.0
1743177531613379,0.0027676525,0.0015546221,-0.020640895,0.0
1743177531813379,-0.00021804616,0.0017754594,-0.032199305,0.0
1743177532013379,-0.0020846818,0.0018931946,-0.027735038,0.0
1743177532213379,-0.0030128711,0.0003568029,-0.012994499,0.0
1743177532413379,-0.00208589,-0.003697938,0.0032110652,0.0
1743177532613379,-0.00093187194,-0.002736662,0.014085949,0.0
1743177532813379,-0.0012488931,-0.0019292112,0.015471143,0.0
1743177533013379,-0.0013999578,-0.0010514897,0.008904284,0.0
1743177533213379,-0.0025467586,-0.00014581792,-0.0011482999,0.0
1743177533413379,-0.006104066,0.0008699306,-0.021323487,0.0
1743177533613379,0.0017718513,-0.0028777432,-0.04059539,0.0
1743177533813379,0.0050240154,-0.0038201576,-0.04873431,0.0
1743177534013379,0.0044960123,0.0039190827,-0.03378608,0.0
1743177534213379,-0.0014675702,0.00494958,-0.0034340494,0.0
1743177534413379,-0.0020721336,0.00093863055,0.02290717,0.0
1743177534613379,-0.0067332415,-0.0038307633,0.033747397,0.0
1743177534813379,-0.0019425999,-0.0035694877,0.028162317,0.0
1743177535013379,0.0005894633,-0.001807982,0.015145252,0.0
1743177535213379,0.0029631285,-0.0020952967,0.0146401,0.0
1743177535413379,-0.005845277,-0.00484927,0.02212118,0.0
1743177535613379,-0.0014192283,-0.002315848,0.023914048,0.0
1743177535813379,-0.001688989,0.004066469,0.007627509,0.0
1743177536013379,0.0018342375,0.0034955426,-0.012244291,0.0
1743177536213379,0.0010011535,0.002638452,-0.024032932,0.0
1743177536413379,-0.0014944347,0.0024681778,-0.02315428,0.0
1743177536613379,-0.0010477201,-0.0028426072,-0.013217133,0.0
1743177536813379,-0.00028306435,-0.0024890464,-0.0017117294,0.0
1743177537013379,-0.00039085106,-0.0014111459,0.006146437,0.0
1743177537213379,-0.0055041686,-0.000904255,-0.0028005743,0.0
1743177537413379,-0.0012902,-0.0016961405,-0.022545425,0.0
1743177537613379,0.0040816665,-0.0036168369,-0.038442627,0.0
1743177537813379,0.005245947,-0.0025773523,-0.040033415,0.0
1743177538013379,0.00568428,-0.00017048582,-0.018037368,0.0
1743177538213379,-0.002168079,0.004115938,0.009171459,0.0
1743177538413379,-8.4949286e-05,0.005148114,0.027092706,0.0
1743177538613379,0.0014481454,0.0040731537,0.029418845,0.0
1743177538813379,-0.00021123861,0.0021412796,0.018840507,0.0
1743177539013379,0.0011210147,0.0017390923,0.0030875457,0.0
1743177539213379,0.0062183244,-0.002993194,-0.010119606,0.0
1743177539413379,0.0031445606,-0.0029671276,-0.015306598,0.0
1743177539613379,0.0007025089,-0.0025548798,-0.012100601,0.0
1743177539813379,0.0016859458,-0.00117692,-0.004827511,0.0
1743177540013379,0.0012290535,-0.00017487345,0.0021327976,0.0
1743177540213379,0.0011130029,0.00029662432,0.0073695546,0.0
1743177540413379,0.0005116534,9.690351e-05,0.009054713,0.0
1743177540613379,0.0046610995,0.00041110226,0.012543846,0.0
1743177540813379,0.0010736596,-9.099716e-05,0.02559299,0.0
1743177541013379,-0.004731914,-0.0051464387,0.03668382,0.0
1743177541213379,0.0005608699,-0.0027635256,0.039476275,0.0
1743177541413379,-0.0017878589,-0.0022998804,0.03383998,0.0
1743177541613379,-0.0044488595,0.00049040053,0.015392867,0.0
1743177541813379,-0.0024017107,0.002372361,-0.009993511,0.0
1743177542013379,-0.00016629125,0.0038565951,-0.027767632,0.0
1743177542213379,-0.0005783773,0.0032790063,-0.031086942,0.0
1743177542413379,-0.0019393455,0.003051661,-0.021777906,0.0
1743177542613379,-0.003131862,0.002480352,-0.007319235,0.0
1743177542813379,-0.00265996,0.0020436042,0.005075958,0.0
1743177543013379,-0.0017596487,0.0016002271,0.01097182,0.0
1743177543213379,-0.0004953511,0.0013324984,0.0099813435,0.0
1743177543413379,0.00042361804,-0.0033894673,0.00479415,0.0
1743177543613379,0.00014311216,-0.003472183,-0.0005890721,0.0
1743177543813379,6.354425e-05,-0.0026885527,-0.0032711243,0.0
1743177544013379,0.00021628846,-0.0020217302,-0.0022988413,0.0
1743177544213379,0.00027948615,-0.0013355721,0.0015121449,0.0
1743177544413379,0.00022512891,-0.0006475323,0.005064353,0.0
1743177544613379,-0.0004157272,3.192988e-05,0.0033491112,0.0
1743177544813379,0.00047404176,0.00044666821,-0.0009876024,0.0
1743177545013379,-0.004184621,0.00082138873,-0.014267063,0.0
1743177545213379,-0.0016206824,-0.001124918,-0.033087637,0.0
1743177545413379,0.0061599654,-0.0037826737,-0.04469172,0.0
1743177545613379,0.0067066206,0.0020504347,-0.033795588,0.0
1743177545813379,0.0036175295,0.006039019,0.0007640709,0.0
1743177546013379,-0.0025808297,-0.0002144782,0.02775584,0.0
1743177546213379,-0.015854688,-0.009037142,0.03339983,0.0
1743177546413379,-0.012158134,-0.008748931,0.025967674,0.0
1743177546613379,-0.008098479,-0.0054549086,0.0025950628,0.0
1743177546813379,-0.003707877,-0.006824884,-0.016944403,0.0
1743177547013379,-0.007799742,-0.003303493,-0.028194986,0.0
1743177547213379,-0.0072526075,-0.0024145083,-0.02952118,0.0
1743177547413379,-0.0017319417,-0.0016949796,-0.022744158,0.0
1743177547613379,-0.0010565954,-0.0010324707,-0.01271864,0.0
1743177547813379,-0.0011331551,-0.0026285406,-0.0037723694,0.0
1743177548013379,-0.0014341521,-0.0028240292,0.0018846326,0.0
1743177548213379,-0.00080338394,2.379124e-05,0.0026613227,0.0
1743177548413379,-0.0015323559,-1.5404923e-05,-0.00050582824,0.0
1743177548613379,-0.0018232923,-9.232002e-05,-0.004777443,0.0
1743177548813379,-0.0012938123,-0.0003035203,-0.007944606,0.0
1743177549013379,-0.0010179234,0.00025478698,-0.008827657,0.0
1743177549213379,4.3707238e-05,0.0014533567,-0.008074203,0.0
1743177549413379,0.0001267146,0.0012573593,-0.0063172043,0.0
1743177549613379,0.00024899916,0.00085111737,-0.004392335,0.0
1743177549813379,0.00046820685,0.0008254285,-0.0029250165,0.0
1743177550013379,0.00028504326,0.000713959,-0.002202539,0.0
1743177550213379,0.00021519687,0.000611794,-0.0021701246,0.0
1743177550413379,0.00015063488,0.00069150527,-0.002468829,0.0
1743177550613379,4.260251e-05,0.00062411063,-0.0027840384,0.0
1743177550813379,5.681484e-05,0.0004793864,-0.0029169063,0.0
1743177551013379,-9.126742e-05,0.00049718225,-0.002862127,0.0
1743177551213379,-0.00062573986,-0.0016550426,-0.002359955,0.0
1743177551413379,-0.00046462813,-0.0012713334,-0.0013201181,0.0
1743177551613379,-0.00019321109,-0.0006769732,-0.0003307496,0.0
1743177551813379,-0.00013412908,-0.00031753816,4.5295546e-05,0.0
1743177552013379,-6.103925e-05,-0.00012168724,-0.00017721705,0.0
1743177552213379,-4.797454e-05,7.168799e-06,-0.0007336964,0.0
1743177552413379,9.483162e-06,4.2501593e-05,-0.0012543589,0.0
1743177552613379,0.000109757086,0.00013301152,-0.0015318815,0.0
1743177552813379,0.00010235556,0.00015936213,-0.0014079382,0.0
1743177553013379,6.5938104e-05,0.00010351528,-0.0009798633,0.0
1743177553213379,8.957972e-05,6.7922636e-05,-0.00044083755,0.0
1743177553413379,-1.3281635e-05,3.5374404e-05,8.0496095e-05,0.0
1743177553613379,2.0213625e-05,9.047037e-06,0.0005138013,0.0
1743177553813379,9.093653e-05,-2.794197e-05,0.000761502,0.0
1743177554013379,-5.852974e-05,-8.323944e-05,0.0008465165,0.0
1743177554213379,-7.5977514e-05,-9.7126846e-05,0.00084617763,0.0
1743177554413379,1.497202e-06,-0.00016195633,0.00080270634,0.0
1743177554613379,-9.181596e-05,-6.686642e-05,0.00089080766,0.0
1743177554813379,-1.7852819e-05,-0.00012523642,0.001026514,0.0
1743177555013379,-7.462693e-05,-0.00014211528,0.0011406032,0.0
1743177555213379,-0.00013126202,-8.187192e-05,0.00016489168,0.0
1743177555413379,-1.816734e-05,-6.79447e-05,-0.0016108989,0.0
1743177555613379,0.002776033,-2.3331468e-05,0.0007725834,0.0
1743177555813379,0.003994638,-4.424062e-05,0.016016614,0.0
1743177556013379,-0.0044584144,-0.0011408223,0.030993825,0.0
1743177556213379,-0.0011126361,-0.004292574,0.037237693,0.0
1743177556413379,-0.0037205438,-0.003176188,0.02368198,0.0
1743177556613379,-0.0044687632,0.0004658211,-0.0010543006,0.0
1743177556813379,-0.0022498022,0.00042647283,-0.020990739,0.0
1743177557013379,0.00026508767,0.00060765864,-0.027808754,0.0
1743177557213379,0.00038281124,0.00088669045,-0.021452831,0.0
1743177557413379,0.00069094193,0.0017491583,-0.0087216655,0.0
1743177557613379,-0.00085714424,0.0020384898,0.002957604,0.0
1743177557813379,-0.0018696889,0.0017098279,0.008993708,0.0
1743177558013379,-0.0008367589,0.0011863466,0.008459719,0.0
1743177558213379,7.784349e-05,0.00080807623,0.0037334485,0.0
1743177558413379,0.00072353357,-0.0019943248,-0.0018654269,0.0
1743177558613379,-7.8028745e-05,-0.0011813325,-0.005502227,0.0
1743177558813379,0.00020700705,-0.000416909,-0.0061196256,0.0
1743177559013379,-8.692342e-05,-1.5428239e-05,-0.004375358,0.0
1743177559213379,-0.0003401659,0.00021187997,-0.0016297497,0.0
1743177559413379,-0.0002730864,0.00019973624,0.0005968425,0.0
1743177559613379,-0.00014809238,0.00016263938,0.0015506457,0.0
1743177559813379,-5.5789576e-05,1.3182704e-05,0.0012233736,0.0
1743177560013379,0.00016234806,3.9484316e-06,7.515342e-05,0.0
1743177560213379,0.00025713845,-7.815553e-05,-0.0009970774,0.0
1743177560413379,0.00017562906,-5.3084226e-05,-0.0015948035,0.0
1743177560613379,0.00011524407,-1.652318e-05,-0.0015158927,0.0
1743177560813379,5.3756514e-05,-9.973717e-06,-0.00097485265,0.0
1743177561013379,-1.0809631e-05,-1.1981125e-05,-0.00034168272,0.0
1743177561213379,8.945849e-05,2.675758e-05,0.00013876952,0.0
1743177561413379,2.3986016e-05,2.9386276e-05,0.00029775372,0.0
1743177561613379,2.8974702e-05,1.2976625e-05,0.0001391412,0.0
1743177561813379,4.297961e-05,-1.6127622e-05,-0.0001508563,0.0
1743177562013379,7.847321e-05,1.0365329e-05,-0.0003614908,0.0
1743177562213379,7.501913e-05,-5.8235415e-05,-0.00045531726,0.0
1743177562413379,-2.7072332e-05,-5.6738736e-05,-0.00042010177,0.0
1743177562613379,6.168003e-06,-3.5899873e-05,-0.00023266899,0.0
1743177562813379,-0.0001019691,3.2105083e-05,-7.986942e-05,0.0
1743177563013379,-1.4344839e-05,2.5148638e-05,2.4598989e-05,0.0
1743177563213379,-4.930803e-05,4.8958074e-05,3.0047479e-05,0.0
1743177563413379,-2.4966334e-05,-5.306618e-06,-4.4842545e-05,0.0
1743177563613379,2.4299334e-06,6.1217375e-05,1.5684484e-05,0.0
1743177563813379,-6.0010203e-05,3.2019438e-05,-4.2266834e-05,0.0
1743177564013379,-3.8711092e-05,-9.081137e-06,-0.00012853561,0.0
1743177564213379,-3.9335904e-05,6.77715e-07,-0.00019172358,0.0
1743177564413379,9.973219e-06,-8.0166465e-06,-0.0001155217,0.0
1743177564613379,2.4671512e-05,-7.013389e-06,-5.1227245e-05,0.0
1743177564813379,-5.6911867e-05,4.566274e-05,2.6540454e-05,0.0
1743177565013379,1.9526213e-05,2.411528e-06,2.8901983e-05,0.0
1743177565213379,9.176973e-05,1.4020466e-05,1.1473961e-05,0.0
1743177565413379,-1.7698421e-05,-2.217887e-05,-6.1969164e-05,0.0
1743177565613379,4.7289186e-06,-2.8475692e-06,-0.00010315133,0.0
1743177565813379,-9.994444e-06,4.0370644e-05,-4.7024198e-05,0.0
1743177566013379,3.8805825e-05,1.0665676e-05,-4.8963164e-05,0.0
1743177566213379,-4.878018e-05,-1.9198771e-05,-4.658324e-05,0.0
1743177566413379,-3.4118217e-05,-1.9769763e-05,-3.9054088e-05,0.0
1743177566613379,3.282457e-05,1.9874957e-05,1.8956642e-05,0.0
1743177566813379,-3.503562e-05,5.290455e-05,5.518908e-07,0.0
1743177567013379,3.6757054e-05,0.0014226732,5.5211494e-06,0.0
1743177567213379,0.00034606256,0.00205349,8.661222e-06,0.0
1743177567413379,-0.0002547703,-0.0004864455,2.549721e-06,0.0
1743177567613379,3.2846812e-05,-0.00061681966,7.123663e-05,0.0
1743177567813379,5.3052227e-05,-0.00040166074,7.316697e-05,0.0
1743177568013379,-5.934781e-05,-0.00021190701,9.393131e-05,0.0
1743177568213379,7.1134073e-06,-7.134072e-06,-2.4230018e-05,0.0
1743177568413379,4.7124863e-06,1.9308802e-05,-3.8931918e-05,0.0
1743177568613379,2.4050047e-05,-3.7125632e-05,2.8419128e-05,0.0
1743177568813379,6.072221e-06,-3.594407e-05,0.00012634553,0.0
1743177569013379,9.816088e-05,-4.7249938e-05,0.00022533786,0.0
1743177569213379,-5.2581527e-08,1.5291113e-05,0.00031084422,0.0
1743177569413379,-1.0410554e-05,-1.5441425e-05,0.00037331067,0.0
1743177569613379,6.9181646e-05,3.1498414e-05,0.00035317894,0.0
1743177569813379,-2.4257286e-05,-6.106224e-05,0.00030736282,0.0
1743177570013379,9.989902e-05,-5.6022567e-05,0.000415828,0.0
1743177570213379,1.14831455e-05,-5.1861094e-05,0.0005968782,0.0
1743177570413379,-2.4280545e-05,-1.5084245e-05,0.00081700046,0.0
1743177570613379,0.00013585153,-8.8132896e-05,0.0011343927,0.0
1743177570813379,0.00011293507,-6.357229e-05,0.001528482,0.0
1743177571013379,0.00018367081,-4.3552536e-05,0.002202845,0.0
1743177571213379,-1.9284398e-05,-7.118417e-05,0.0027898878,0.0
1743177571413379,2.1860567e-05,-6.879557e-05,0.0010674181,0.0
1743177571613379,0.00022810129,-7.552462e-05,-0.0014615062,0.0
1743177571813379,-0.0017598366,-0.00057893345,-0.0031456756,0.0
1743177572013379,0.00018066702,-0.0012608133,-0.0033919106,0.0
1743177572213379,0.0013068893,-0.0007122615,-0.0024801758,0.0
1743177572413379,0.00024260438,-0.0003942819,-0.0010260148,0.0
1743177572613379,0.00019839223,0.00078168756,0.00034609123,0.0
1743177572813379,0.00085621374,0.0013356677,0.0011447332,0.0
1743177573013379,-0.0021705686,0.00018294904,0.0010981862,0.0
1743177573213379,0.00017193402,1.1897748e-05,0.000582155,0.0
1743177573413379,7.957963e-05,-6.204538e-05,-0.00015792463,0.0
1743177573613379,-8.653173e-05,0.00013217144,-0.000712116,0.0
1743177573813379,0.000110902554,7.463916e-05,-0.0009243861,0.0
1743177574013379,0.00014991681,-9.955165e-05,-0.0007539309,0.0
1743177574213379,-0.00012166165,-1.1473639e-05,-0.00036774742,0.0
1743177574413379,1.5491436e-05,5.8775386e-05,-6.6349558e-06,0.0
1743177574613379,2.8752882e-05,-4.8303005e-05,0.00019495764,0.0
1743177574813379,6.0190046e-05,1.1445671e-05,0.00027396958,0.0
1743177575013379,-4.76963e-06,-3.148225e-05,0.00017453702,0.0
1743177575213379,3.7681122e-05,4.9794187e-05,3.0268138e-06,0.0
1743177575413379,7.016515e-05,-2.8279377e-05,-0.00017784021,0.0
1743177575613379,3.7621987e-05,-1.1557136e-05,-0.00030497703,0.0
1743177575813379,1.48565105e-05,2.4210185e-05,-0.0002958058,0.0
1743177576013379,8.030179e-05,-5.5034743e-06,-0.00022773801,0.0
1743177576213379,2.1815304e-06,-5.0841958e-05,-0.00012417122,0.0
1743177576413379,-3.020874e-05,2.2165148e-05,-0.00012565574,0.0
1743177576613379,0.000112219044,-2.0243622e-05,-1.3553642e-05,0.0
1743177576813379,4.0933257e-05,1.639889e-05,-3.5542627e-05,0.0
1743177577013379,-3.5321606e-05,-4.1736756e-05,-3.5708807e-05,0.0
1743177577213379,-1.2175237e-05,5.811135e-05,0.00010598383,0.0
1743177577413379,4.8055335e-05,-1.6157848e-05,7.6036966e-05,0.0
1743177577613379,-1.7955339e-05,2.178141e-05,2.1533357e-05,0.0
1743177577813379,-2.8052777e-05,8.840555e-05,-3.7445323e-05,0.0
1743177578013379,-2.322371e-05,4.254578e-05,-0.00011455665,0.0
1743177578213379,-0.000106712454,-2.6829897e-05,-9.218124e-05,0.0
1743177578413379,-3.763232e-05,1.3678098e-05,-5.3552103e-05,0.0
1743177578613379,-1.2149391e-05,-3.0286606e-06,9.142491e-06,0.0
1743177578813379,-0.000103181264,4.412458e-05,2.7884445e-07,0.0
1743177579013379,-8.161111e-05,5.6616204e-06,-2.5584655e-05,0.0
1743177579213379,-4.7017944e-05,2.8805569e-05,-7.3216404e-05,0.0
1743177579413379,-4.259784e-05,2.2395003e-05,-4.5408426e-05,0.0
1743177579613379,-4.032908e-05,-7.980378e-06,-1.7308706e-05,0.0
1743177579813379,-8.192383e-06,5.9403992e-05,1.4134557e-05,0.0
1743177580013379,2.1572749e-05,-2.2384444e-05,3.844695e-05,0.0
1743177580213379,-0.00010555617,5.7896923e-05,4.7037203e-05,0.0
1743177580413379,-6.641973e-05,-1.2027749e-05,4.492463e-05,0.0
1743177580613379,5.729859e-06,5.227099e-05,4.2392512e-05,0.0
1743177580813379,-5.6944955e-05,-3.170088e-05,4.605392e-06,0.0
1743177581013379,6.571162e-05,5.3925596e-06,1.810853e-05,0.0
1743177581213379,-9.714202e-06,2.485914e-05,2.6328318e-05,0.0
1743177581413379,9.357736e-06,-1.7282398e-05,7.218899e-05,0.0
1743177581613379,1.6936767e-05,5.9892573e-06,4.7230296e-05,0.0
1743177581813379,3.8890015e-05,4.841323e-06,4.5984987e-05,0.0
1743177582013379,4.500761e-06,-3.7475356e-06,2.8373728e-05,0.0
1743177582213379,-2.3486155e-05,1.0989754e-06,1.116177e-06,0.0
1743177582413379,-1.0009583e-05,-2.550527e-05,4.0904175e-05,0.0
1743177582613379,9.227606e-05,5.6228102e-05,2.2448767e-06,0.0
1743177582813379,3.6922873e-05,0.00014280117,-6.870367e-05,0.0
1743177583013379,8.308162e-05,8.068716e-05,-4.1035728e-05,0.0
1743177583213379,-6.453318e-05,-1.1323927e-05,4.1392857e-05,0.0
1743177583413379,-1.2457955e-05,3.7965136e-05,3.6508097e-06,0.0
1743177583613379,5.8151127e-05,7.4444186e-05,-3.660486e-05,0.0
1743177583813379,4.9739036e-05,6.9659436e-05,-5.4724467e-05,0.0
1743177584013379,-3.957582e-05,5.5316443e-05,-2.9250627e-05,0.0
1743177584213379,-5.923374e-05,8.323131e-05,-1.6169155e-05,0.0
1743177584413379,-2.4562212e-05,5.1387353e-05,6.600022e-05,0.0
1743177584613379,-0.0001279824,0.00013551806,3.2373147e-05,0.0
1743177584813379,-6.423706e-05,0.00014296087,-1.3110676e-05,0.0
1743177585013379,-4.8398357e-05,0.00023340461,-1.6294223e-05,0.0
1743177585213379,5.398449e-05,0.00024811542,-3.7043956e-05,0.0
1743177585413379,-4.9936614e-05,0.000329481,-5.119896e-05,0.0
1743177585613379,4.1685293e-05,0.00029171558,2.7023694e-05,0.0
1743177585813379,-2.0320469e-05,0.0004069919,5.8136076e-05,0.0
1743177586013379,-1.22090105e-05,0.00038376264,3.428903e-05,0.0
1743177586213379,4.927095e-05,0.00041512522,-9.824298e-06,0.0
1743177586413379,2.3049544e-05,0.00042557268,-3.577923e-05,0.0
1743177586613379,-2.2263699e-05,0.00048598458,-2.700608e-05,0.0
1743177586813379,2.5390222e-05,0.00047846217,-3.4619203e-05,0.0
1743177587013379,-5.012876e-05,0.00033742777,1.7640185e-05,0.0
1743177587213379,-6.877686e-06,0.00029311937,3.8003112e-05,0.0
1743177587413379,9.86616e-06,5.450433e-05,4.888026e-05,0.0
1743177587613379,-1.8320528e-05,5.366878e-05,6.333418e-05,0.0
1743177587813379,6.8172567e-06,-9.8601886e-05,5.0015347e-05,0.0
1743177588013379,-5.405563e-05,-0.0001550679,7.058693e-06,0.0
1743177588213379,3.3365573e-05,-0.00027113175,-3.330273e-05,0.0
1743177588413379,1.633474e-05,-0.00041340583,-6.534862e-05,0.0
1743177588613379,2.664794e-05,-0.0004632636,-4.8336874e-06,0.0
1743177588813379,-2.4593297e-05,-0.00049302174,1.4749441e-05,0.0
1743177589013379,-9.0253074e-05,-0.00047764456,6.992839e-05,0.0
1743177589213379,-4.7276288e-05,-0.00048088402,2.9728826e-05,0.0
1743177589413379,-3.0173138e-05,-0.0005447736,-2.4542662e-05,0.0
1743177589613379,3.156221e-05,-0.00038047394,-6.937604e-05,0.0
1743177589813379,-7.057896e-05,-0.00043204203,-1.50246615e-05,0.0
1743177590013379,5.9524285e-05,-0.00036234432,7.1059117e-06,0.0
1743177590213379,-6.0641643e-05,-0.0002927352,-8.260526e-06,0.0
1743177590413379,2.033445e-05,-0.00021784846,-3.4643374e-05,0.0
1743177590613379,-2.6723454e-05,-0.0001351444,-3.690835e-05,0.0
1743177590813379,-2.7365251e-05,-7.969464e-05,5.6232e-07,0.0
1743177591013379,5.85997e-06,-4.9614114e-06,2.8710587e-05,0.0
1743177591213379,-6.995159e-05,3.9325918e-05,5.004374e-05,0.0
1743177591413379,5.7366444e-05,1.5629299e-05,3.8155697e-05,0.0
1743177591613379,8.8495115e-05,5.392302e-05,3.435042e-05,0.0
1743177591813379,-3.5640238e-05,6.75732e-05,2.7728327e-05,0.0
1743177592013379,-2.548815e-05,2.5147983e-05,1.0744263e-05,0.0
1743177592213379,7.8693076e-05,6.59809e-05,2.8859246e-05,0.0
1743177592413379,-8.1792925e-05,7.6587814e-05,-4.024566e-05,0.0
1743177592613379,-1.9340163e-05,6.160006e-05,-5.053465e-05,0.0
1743177592813379,-2.0923222e-05,-1.8615141e-05,-1.3115122e-05,0.0
1743177593013379,2.6257741e-05,-3.47626e-05,1.4061687e-05,0.0
1743177593213379,3.7127502e-05,4.769157e-05,3.727595e-05,0.0
1743177593413379,-3.5261473e-05,5.010986e-05,4.6291425e-06,0.0
1743177593613379,8.1579055e-06,-8.867597e-06,-2.4154091e-05,0.0
1743177593813379,-6.5203116e-05,8.9121895e-05,-2.573185e-05,0.0
1743177594013379,7.097314e-05,1.11268555e-05,-4.0856914e-05,0.0
1743177594213379,-6.991171e-05,-3.697538e-05,-6.409419e-05,0.0
1743177594413379,-5.7802536e-05,-5.6961006e-05,3.6923338e-06,0.0
1743177594613379,5.0885155e-05,-2.5875324e-05,1.3369944e-05,0.0
1743177594813379,1.7010554e-05,-0.00079767604,4.4656197e-05,0.0
1743177595013379,2.0334515e-05,-0.0001806152,8.978886e-05,0.0
1743177595213379,1.2529568e-05,-0.0010324038,4.060826e-05,0.0
1743177595413379,0.00013885887,-0.0014858776,1.9410129e-05,0.0
1743177595613379,-3.5416553e-05,0.00064347015,-1.8872788e-06,0.0
1743177595813379,-3.5416553e-05,0.00064347015,-1.8872788e-06,0.0
1743177596013379,-3.5416553e-05,0.00064347015,-1.8872788e-06,0.0
1743177596213379,-3.5416553e-05,0.00064347015,-1.8872788e-06,0.0
1743177596413379,-3.5416553e-05,0.00064347015,-1.8872788e-06,0.0
