timestamp,timestamp_sample,gps_hvel[0],gps_hvel[1],gps_vvel,gps_hpos[0],gps_hpos[1],gps_vpos,ev_hvel[0],ev_hvel[1],ev_vvel,ev_hpos[0],ev_hpos[1],ev_vpos,rng_vpos,baro_vpos,aux_hvel[0],aux_hvel[1],flow[0],flow[1],heading,mag_field[0],mag_field[1],mag_field[2],gravity[0],gravity[1],gravity[2],drag[0],drag[1],airspeed,beta,hagl,hagl_rate
1743177449813379,1743177449661379,-0.005080079,-0.0067109345,0.009036697,-0.0014365936,-0.0022059781,0.009766496,0.0,0.0,0.0,0.0,0.0,0.0,0.0,-0.8015798,0.0,0.0,0.0,0.0,0.0,0.013737973,-0.19509938,-0.45991093,-0.0016401529,-0.0004302216,-1.4901161e-06,0.0,0.0,0.0,0.0,0.0,0.0
1743177449821379,1743177449669379,-0.005080079,-0.0067109345,0.009036697,-0.0014365936,-0.0022059781,0.009766496,0.0,0.0,0.0,0.0,0.0,0.0,0.0,-0.8015798,0.0,0.0,0.0,0.0,0.0,0.013737973,-0.19509938,-0.45991093,0.0002552749,0.0003555137,1.1920929e-07,0.0,0.0,0.0,0.0,0.0,0.0
1743177449829379,1743177449677379,-0.005080079,-0.0067109345,0.009036697,-0.0014365936,-0.0022059781,0.009766496,0.0,0.0,0.0,0.0,0.0,0.0,0.0,0.3439297,0.0,0.0,0.0,0.0,0.0,0.013737973,-0.19509938,-0.45991093,-0.0012755829,0.0028238024,-2.3841858e-06,0.0,0.0,0.0,0.0,0.0,0.0
1743177449837379,1743177449685379,-0.005080079,-0.0067109345,0.009036697,-0.0014365936,-0.0022059781,0.009766496,0.0,0.0,0.0,0.0,0.0,0.0,0.0,0.3439297,0.0,0.0,0.0,0.0,0.0,0.013737973,-0.19509938,-0.45991093,0.0025262097,-0.00275855,-9.536743e-06,0.0,0.0,0.0,0.0,0.0,0.0
1743177449845379,1743177449693379,-0.00012742942,9.819325e-05,0.008548535,-0.0014786954,-0.0022619718,0.007060647,0.0,0.0,0.0,0.0,0.0,0.0,0.0,0.3439297,0.0,0.0,0.0,0.0,0.0,0.013737973,-0.19509938,-0.45991093,0.00011784774,-0.0016793518,-2.682209e-06,0.0,0.0,0.0,0.0,0.0,0.0
1743177449853379,1743177449701379,-0.00012742942,9.819325e-05,0.008548535,-0.0014786954,-0.0022619718,0.007060647,0.0,0.0,0.0,0.0,0.0,0.0,0.0,0.3439297,0.0,0.0,0.0,0.0,0.0,0.013745659,-0.18245655,-0.45558128,0.0012227271,0.003649794,-4.9471855e-06,0.0,0.0,0.0,0.0,0.0,0.0
1743177449861379,1743177449709379,-0.00012742942,9.819325e-05,0.008548535,-0.0014786954,-0.0022619718,0.007060647,0.0,0.0,0.0,0.0,0.0,0.0,0.0,0.3439297,0.0,0.0,0.0,0.0,0.0,0.013745659,-0.18245655,-0.45558128,0.0039594024,0.005142384,-1.770258e-05,0.0,0.0,0.0,0.0,0.0,0.0
1743177449869379,1743177449717379,-0.00012742942,9.819325e-05,0.008548535,-0.0014786954,-0.0022619718,0.007060647,0.0,0.0,0.0,0.0,0.0,0.0,0.0,0.3439297,0.0,0.0,0.0,0.0,0.0,0.013745659,-0.18245655,-0.45558128,-0.00070848124,-0.0030803091,-7.212162e-06,0.0,0.0,0.0,0.0,0.0,0.0
1743177449885379,1743177449733379,-0.00012742942,9.819325e-05,0.008548535,-0.0014786954,-0.0022619718,0.007060647,0.0,0.0,0.0,0.0,0.0,0.0,0.0,-0.10451478,0.0,0.0,0.0,0.0,0.0,0.013745659,-0.18245655,-0.45558128,0.0028578236,0.0023343936,-5.6028366e-06,0.0,0.0,0.0,0.0,0.0,0.0
1743177449893379,1743177449741379,-0.0008236046,-0.00046510436,0.008931547,-0.0015028293,-0.0022717828,0.0072464906,0.0,0.0,0.0,0.0,0.0,0.0,0.0,-0.10451478,0.0,0.0,0.0,0.0,0.0,0.013745659,-0.18245655,-0.45558128,0.00071676815,0.0052915127,-1.04904175e-05,0.0,0.0,0.0,0.0,0.0,0.0
1743177449901379,1743177449749379,-0.0008236046,-0.00046510436,0.008931547,-0.0015028293,-0.0022717828,0.0072464906,0.0,0.0,0.0,0.0,0.0,0.0,0.0,-0.10451478,0.0,0.0,0.0,0.0,0.0,0.013745659,-0.18245655,-0.45558128,0.00062322244,0.00231055,-1.1324883e-06,0.0,0.0,0.0,0.0,0.0,0.0
1743177449909379,1743177449757379,-0.0008236046,-0.00046510436,0.008931547,-0.0015028293,-0.0022717828,0.0072464906,0.0,0.0,0.0,0.0,0.0,0.0,0.0,-0.10451478,0.0,0.0,0.0,0.0,0.0,0.013745659,-0.18245655,-0.45558128,0.0028665317,0.0021830716,-5.00679e-06,0.0,0.0,0.0,0.0,0.0,0.0
1743177449925379,1743177449773379,-0.0008236046,-0.00046510436,0.008931547,-0.0015028293,-0.0022717828,0.0072464906,0.0,0.0,0.0,0.0,0.0,0.0,0.0,-0.10451478,0.0,0.0,0.0,0.0,0.0,0.017705493,-0.18043289,-0.45893693,-0.0043154806,0.0015200574,-1.001358e-05,0.0,0.0,0.0,0.0,0.0,0.0
1743177449933379,1743177449781379,-0.0008236046,-0.00046510436,0.008931547,-0.0015028293,-0.0022717828,0.0072464906,0.0,0.0,0.0,0.0,0.0,0.0,0.0,0.036740027,0.0,0.0,0.0,0.0,0.0,0.017705493,-0.18043289,-0.45893693,-0.006149531,-0.0029112035,-2.515316e-05,0.0,0.0,0.0,0.0,0.0,0.0
1743177449941379,1743177449789379,-0.0008236046,-0.00046510436,0.008931547,-0.0015028293,-0.0022717828,0.0072464906,0.0,0.0,0.0,0.0,0.0,0.0,0.0,0.036740027,0.0,0.0,0.0,0.0,0.0,0.017705493,-0.18043289,-0.45893693,-0.0012138297,-0.0059806625,-2.104044e-05,0.0,0.0,0.0,0.0,0.0,0.0
1743177449949379,1743177449797379,-0.010119184,-0.0005455203,0.009587742,-0.0015465346,-0.0023141392,0.0069232443,0.0,0.0,0.0,0.0,0.0,0.0,0.0,0.036740027,0.0,0.0,0.0,0.0,0.0,0.017705493,-0.18043289,-0.45893693,-0.0030408676,0.001907459,-6.1392784e-06,0.0,0.0,0.0,0.0,0.0,0.0
1743177449965379,1743177449813379,-0.010119184,-0.0005455203,0.009587742,-0.0015465346,-0.0023141392,0.0069232443,0.0,0.0,0.0,0.0,0.0,0.0,0.0,0.036740027,0.0,0.0,0.0,0.0,0.0,0.017705493,-0.18043289,-0.45893693,0.002794399,0.0023018876,-4.7683716e-06,0.0,0.0,0.0,0.0,0.0,0.0
1743177449973379,1743177449821379,-0.010119184,-0.0005455203,0.009587742,-0.0015465346,-0.0023141392,0.0069232443,0.0,0.0,0.0,0.0,0.0,0.0,0.0,0.036740027,0.0,0.0,0.0,0.0,0.0,0.017705493,-0.18043289,-0.45893693,-0.0010989808,0.005382791,-1.0251999e-05,0.0,0.0,0.0,0.0,0.0,0.0
1743177449981379,1743177449829379,-0.010119184,-0.0005455203,0.009587742,-0.0015465346,-0.0023141392,0.0069232443,0.0,0.0,0.0,0.0,0.0,0.0,0.0,-0.25467154,0.0,0.0,0.0,0.0,0.0,0.017705493,-0.18043289,-0.45893693,-0.00032555117,0.0037105521,-3.3974648e-06,0.0,0.0,0.0,0.0,0.0,0.0
1743177449989379,1743177449837379,-0.010119184,-0.0005455203,0.009587742,-0.0015465346,-0.0023141392,0.0069232443,0.0,0.0,0.0,0.0,0.0,0.0,0.0,-0.25467154,0.0,0.0,0.0,0.0,0.0,0.01611636,-0.18321607,-0.45612773,-0.00052845315,0.00060081796,3.5762787e-07,0.0,0.0,0.0,0.0,0.0,0.0
1743177450005379,1743177449853379,0.0001934056,-0.00231804,0.011058018,-0.0015137129,-0.0024521654,0.007830549,0.0,0.0,0.0,0.0,0.0,0.0,0.0,-0.25467154,0.0,0.0,0.0,0.0,0.0,0.01611636,-0.18321607,-0.45612773,-0.0055929357,0.004939627,-2.18153e-05,0.0,0.0,0.0,0.0,0.0,0.0
1743177450013379,1743177449861379,0.0001934056,-0.00231804,0.011058018,-0.0015137129,-0.0024521654,0.007830549,0.0,0.0,0.0,0.0,0.0,0.0,0.0,-0.25467154,0.0,0.0,0.0,0.0,0.0,0.01611636,-0.18321607,-0.45612773,-0.0026830772,0.0056140227,-1.3053417e-05,0.0,0.0,0.0,0.0,0.0,0.0
1743177450021379,1743177449869379,0.0001934056,-0.00231804,0.011058018,-0.0015137129,-0.0024521654,0.007830549,0.0,0.0,0.0,0.0,0.0,0.0,0.0,-0.25467154,0.0,0.0,0.0,0.0,0.0,0.01611636,-0.18321607,-0.45612773,0.0021209558,0.0031944914,-4.7683716e-06,0.0,0.0,0.0,0.0,0.0,0.0
1743177450029379,1743177449877379,0.0001934056,-0.00231804,0.011058018,-0.0015137129,-0.0024521654,0.007830549,0.0,0.0,0.0,0.0,0.0,0.0,0.0,-0.25467154,0.0,0.0,0.0,0.0,0.0,0.01611636,-0.18321607,-0.45612773,-0.0026005176,-0.00038678967,-3.2186508e-06,0.0,0.0,0.0,0.0,0.0,0.0
1743177450045379,1743177449893379,0.0001934056,-0.00231804,0.011058018,-0.0015137129,-0.0024521654,0.007830549,0.0,0.0,0.0,0.0,0.0,0.0,0.0,1.0091907,0.0,0.0,0.0,0.0,0.0,0.01611636,-0.18321607,-0.45612773,-0.0036975434,-0.00059635984,-6.67572e-06,0.0,0.0,0.0,0.0,0.0,0.0
1743177450053379,1743177449901379,0.0,0.0,0.0,0.0,0.0,0.0037899213,0.0,0.0,0.0,0.0,0.0,0.0,0.0,1.0091907,0.0,0.0,0.0,0.0,0.0,0.0,0.0,0.0,-0.00048464764,-0.0029772758,-7.867813e-06,0.0,0.0,0.0,0.0,0.0,0.0
1743177450061379,1743177449909379,0.0,0.0,0.0,0.0,0.0,0.0037899213,0.0,0.0,0.0,0.0,0.0,0.0,0.0,1.0091907,0.0,0.0,0.0,0.0,0.0,0.0,0.0,0.0,-0.0026718162,-0.00089340797,-4.351139e-06,0.0,0.0,0.0,0.0,0.0,0.0
1743177450069379,1743177449917379,0.0,0.0,0.0,0.0,0.0,0.0037899213,0.0,0.0,0.0,0.0,0.0,0.0,0.0,1.0091907,0.0,0.0,0.0,0.0,0.0,0.0,0.0,0.0,-0.0038189485,0.0007852777,-5.841255e-06,0.0,0.0,0.0,0.0,0.0,0.0
1743177450085379,1743177449933379,0.0,0.0,0.0,0.0,0.0,0.0037899213,0.0,0.0,0.0,0.0,0.0,0.0,0.0,-0.009643742,0.0,0.0,0.0,0.0,0.0,0.0,0.0,0.0,-0.0008378696,-0.0016731872,-3.4570694e-06,0.0,0.0,0.0,0.0,0.0,0.0
1743177450093379,1743177449941379,0.0,0.0,0.0,0.0,0.0,0.0037899213,0.0,0.0,0.0,0.0,0.0,0.0,0.0,-0.009643742,0.0,0.0,0.0,0.0,0.0,0.0,0.0,0.0,0.0016502335,-0.0028810212,-9.417534e-06,0.0,0.0,0.0,0.0,0.0,0.0
1743177450101379,1743177449949379,0.0005617634,-0.0007208946,0.00022276491,1.075291e-05,-2.7419062e-05,0.0035315584,0.0,0.0,0.0,0.0,0.0,0.0,0.0,-0.009643742,0.0,0.0,0.0,0.0,0.0,0.0,0.0,0.0,-4.008974e-05,-0.00052359025,-7.748604e-07,0.0,0.0,0.0,0.0,0.0,0.0
1743177450109379,1743177449957379,0.0005617634,-0.0007208946,0.00022276491,1.075291e-05,-2.7419062e-05,0.0035315584,0.0,0.0,0.0,0.0,0.0,0.0,0.0,-0.009643742,0.0,0.0,0.0,0.0,0.0,0.0,0.0,0.0,-0.002859437,-0.0024427287,-9.000301e-06,0.0,0.0,0.0,0.0,0.0,0.0
1743177450125379,1743177449973379,0.0005617634,-0.0007208946,0.00022276491,1.075291e-05,-2.7419062e-05,0.0035315584,0.0,0.0,0.0,0.0,0.0,0.0,0.0,-0.009643742,0.0,0.0,0.0,0.0,0.0064270794,0.0008205697,0.0038485825,0.0064270794,-0.0004684691,0.0043416764,-4.4703484e-06,0.0,0.0,0.0,0.0,0.0,0.0
1743177450133379,1743177449981379,0.0005617634,-0.0007208946,0.00022276491,1.075291e-05,-2.7419062e-05,0.0035315584,0.0,0.0,0.0,0.0,0.0,0.0,0.0,-0.009643742,0.0,0.0,0.0,0.0,0.0064270794,0.0008205697,0.0038485825,0.0064270794,0.00058816525,0.0046963263,-5.9604645e-06,0.0,0.0,0.0,0.0,0.0,0.0
1743177450141379,1743177449989379,0.0005617634,-0.0007208946,0.00022276491,1.075291e-05,-2.7419062e-05,0.0035315584,0.0,0.0,0.0,0.0,0.0,0.0,0.0,0.2108133,0.0,0.0,0.0,0.0,0.0064270794,0.0008205697,0.0038485825,0.0064270794,-0.0067885024,0.0020498508,-2.2768974e-05,0.0,0.0,0.0,0.0,0.0,0.0
1743177450149379,1743177449997379,0.0005617634,-0.0007208946,0.00022276491,1.075291e-05,-2.7419062e-05,0.0035315584,0.0,0.0,0.0,0.0,0.0,0.0,0.0,0.2108133,0.0,0.0,0.0,0.0,0.0064270794,0.0008205697,0.0038485825,0.0064270794,-0.002826856,0.007883867,-2.6464462e-05,0.0,0.0,0.0,0.0,0.0,0.0
1743177450165379,1743177450013379,-0.0012443964,-0.0010585665,0.00070008636,-1.6269756e-05,-2.3707626e-05,0.0025948044,0.0,0.0,0.0,0.0,0.0,0.0,0.0,0.2108133,0.0,0.0,0.0,0.0,0.0064270794,0.0008205697,0.0038485825,0.0064270794,0.0034308578,-0.0017264895,-8.404255e-06,0.0,0.0,0.0,0.0,0.0,0.0
1743177450173379,1743177450021379,-0.0012443964,-0.0010585665,0.00070008636,-1.6269756e-05,-2.3707626e-05,0.0025948044,0.0,0.0,0.0,0.0,0.0,0.0,0.0,0.2108133,0.0,0.0,0.0,0.0,0.0064270794,0.0008205697,0.0038485825,0.0064270794,0.0054544336,-0.00047998526,-1.4901161e-05,0.0,0.0,0.0,0.0,0.0,0.0
1743177450181379,1743177450029379,-0.0012443964,-0.0010585665,0.00070008636,-1.6269756e-05,-2.3707626e-05,0.0025948044,0.0,0.0,0.0,0.0,0.0,0.0,0.0,0.2108133,0.0,0.0,0.0,0.0,0.0064270794,0.0008205697,0.0038485825,0.0064270794,0.0012206609,-5.319435e-05,-6.556511e-07,0.0,0.0,0.0,0.0,0.0,0.0
1743177450189379,1743177450037379,-0.0012443964,-0.0010585665,0.00070008636,-1.6269756e-05,-2.3707626e-05,0.0025948044,0.0,0.0,0.0,0.0,0.0,0.0,0.0,-0.4193656,0.0,0.0,0.0,0.0,0.009494305,0.0022483403,0.007996365,0.009494305,0.0021114433,0.0031903859,-4.6491623e-06,0.0,0.0,0.0,0.0,0.0,0.0
1743177450205379,1743177450053379,-0.0009933694,0.010060728,0.0013952181,-1.516724e-05,1.3477904e-05,0.003696776,0.0,0.0,0.0,0.0,0.0,0.0,0.0,-0.4193656,0.0,0.0,0.0,0.0,0.009494305,0.0022483403,0.007996365,0.009494305,-0.0042971396,0.0009858536,-9.4771385e-06,0.0,0.0,0.0,0.0,0.0,0.0
1743177450213379,1743177450061379,-0.0009933694,0.010060728,0.0013952181,-1.516724e-05,1.3477904e-05,0.003696776,0.0,0.0,0.0,0.0,0.0,0.0,0.0,-0.4193656,0.0,0.0,0.0,0.0,0.009494305,0.0022483403,0.007996365,0.009494305,-0.005230898,-0.0015873795,-1.6510487e-05,0.0,0.0,0.0,0.0,0.0,0.0
1743177450221379,1743177450069379,-0.0009933694,0.010060728,0.0013952181,-1.516724e-05,1.3477904e-05,0.003696776,0.0,0.0,0.0,0.0,0.0,0.0,0.0,-0.4193656,0.0,0.0,0.0,0.0,0.009494305,0.0022483403,0.007996365,0.009494305,-0.0023900259,0.00033796666,-2.5629997e-06,0.0,0.0,0.0,0.0,0.0,0.0
1743177450229379,1743177450077379,-0.0009933694,0.010060728,0.0013952181,-1.516724e-05,1.3477904e-05,0.003696776,0.0,0.0,0.0,0.0,0.0,0.0,0.0,-0.4193656,0.0,0.0,0.0,0.0,0.009494305,0.0022483403,0.007996365,0.009494305,0.00325963,0.00096738595,-5.185604e-06,0.0,0.0,0.0,0.0,0.0,0.0
1743177450245379,1743177450093379,-0.0009933694,0.010060728,0.0013952181,-1.516724e-05,1.3477904e-05,0.003696776,0.0,0.0,0.0,0.0,0.0,0.0,0.0,0.25353745,0.0,0.0,0.0,0.0,0.009494305,0.0022483403,0.007996365,0.009494305,-0.0026570212,0.0073266,-2.4139881e-05,0.0,0.0,0.0,0.0,0.0,0.0
1743177450253379,1743177450101379,-0.0009933694,0.010060728,0.0013952181,-1.516724e-05,1.3477904e-05,0.003696776,0.0,0.0,0.0,0.0,0.0,0.0,0.0,0.25353745,0.0,0.0,0.0,0.0,0.009494305,0.0022483403,0.007996365,0.009494305,-0.0027394462,0.000640123,-3.0994415e-06,0.0,0.0,0.0,0.0,0.0,0.0
1743177450261379,1743177450109379,-0.0016716783,-0.0038468204,0.0011638653,-4.356183e-05,-0.00039583712,0.0017609606,0.0,0.0,0.0,0.0,0.0,0.0,0.0,0.25353745,0.0,0.0,0.0,0.0,-0.000341475,-0.000410566,-0.0016465634,-0.000341475,-0.0043117027,0.002171704,-9.298325e-06,0.0,0.0,0.0,0.0,0.0,0.0
1743177450269379,1743177450117379,-0.0016716783,-0.0038468204,0.0011638653,-4.356183e-05,-0.00039583712,0.0017609606,0.0,0.0,0.0,0.0,0.0,0.0,0.0,0.25353745,0.0,0.0,0.0,0.0,-0.000341475,-0.000410566,-0.0016465634,-0.000341475,-0.0021757262,0.0026154183,-3.695488e-06,0.0,0.0,0.0,0.0,0.0,0.0
1743177450285379,1743177450133379,-0.0016716783,-0.0038468204,0.0011638653,-4.356183e-05,-0.00039583712,0.0017609606,0.0,0.0,0.0,0.0,0.0,0.0,0.0,0.25353745,0.0,0.0,0.0,0.0,-0.000341475,-0.000410566,-0.0016465634,-0.000341475,0.0006134092,0.0018240084,-6.556511e-07,0.0,0.0,0.0,0.0,0.0,0.0
1743177450293379,1743177450141379,-0.0016716783,-0.0038468204,0.0011638653,-4.356183e-05,-0.00039583712,0.0017609606,0.0,0.0,0.0,0.0,0.0,0.0,0.0,0.13504186,0.0,0.0,0.0,0.0,-0.000341475,-0.000410566,-0.0016465634,-0.000341475,-0.00019650657,0.00048249625,2.3841858e-07,0.0,0.0,0.0,0.0,0.0,0.0
1743177450301379,1743177450149379,-0.0016716783,-0.0038468204,0.0011638653,-4.356183e-05,-0.00039583712,0.0017609606,0.0,0.0,0.0,0.0,0.0,0.0,0.0,0.13504186,0.0,0.0,0.0,0.0,-0.000341475,-0.000410566,-0.0016465634,-0.000341475,0.0030192342,-0.00079266855,-4.9471855e-06,0.0,0.0,0.0,0.0,0.0,0.0
1743177450309379,1743177450157379,-0.0018608846,-0.003164514,0.0007516816,-7.024756e-05,-0.0003579517,0.0023055058,0.0,0.0,0.0,0.0,0.0,0.0,0.0,0.13504186,0.0,0.0,0.0,0.0,-0.000341475,-0.000410566,-0.0016465634,-0.000341475,-0.0050694873,0.0026875255,-1.579523e-05,0.0,0.0,0.0,0.0,0.0,0.0
1743177450325379,1743177450173379,-0.0018608846,-0.003164514,0.0007516816,-7.024756e-05,-0.0003579517,0.0023055058,0.0,0.0,0.0,0.0,0.0,0.0,0.0,0.13504186,0.0,0.0,0.0,0.0,0.004369691,0.0013221474,0.004369691,-0.0011819601,-0.0018840174,0.0019962036,-2.861023e-06,0.0,0.0,0.0,0.0,0.0,0.0
1743177450333379,1743177450181379,-0.0018608846,-0.003164514,0.0007516816,-7.024756e-05,-0.0003579517,0.0023055058,0.0,0.0,0.0,0.0,0.0,0.0,0.0,0.13504186,0.0,0.0,0.0,0.0,0.004369691,0.0013221474,0.004369691,-0.0011819601,0.0028318309,-0.0026207224,-8.523464e-06,0.0,0.0,0.0,0.0,0.0,0.0
1743177450341379,1743177450189379,-0.0018608846,-0.003164514,0.0007516816,-7.024756e-05,-0.0003579517,0.0023055058,0.0,0.0,0.0,0.0,0.0,0.0,0.0,0.13504186,0.0,0.0,0.0,0.0,0.004369691,0.0013221474,0.004369691,-0.0011819601,0.0011947963,-0.0017932784,-3.1590462e-06,0.0,0.0,0.0,0.0,0.0,0.0
1743177450349379,1743177450197379,-0.0018608846,-0.003164514,0.0007516816,-7.024756e-05,-0.0003579517,0.0023055058,0.0,0.0,0.0,0.0,0.0,0.0,0.0,-0.18015727,0.0,0.0,0.0,0.0,0.004369691,0.0013221474,0.004369691,-0.0011819601,4.5895053e-05,-0.0051084375,-1.6391277e-05,0.0,0.0,0.0,0.0,0.0,0.0
1743177450365379,1743177450213379,-0.0006707912,-0.0029927888,-0.007985355,-9.689775e-05,-0.00038585713,0.0020309528,0.0,0.0,0.0,0.0,0.0,0.0,0.0,-0.18015727,0.0,0.0,0.0,0.0,0.004369691,0.0013221474,0.004369691,-0.0011819601,-0.003458584,-0.0021126396,-9.536743e-06,0.0,0.0,0.0,0.0,0.0,0.0
1743177450373379,1743177450221379,-0.0006707912,-0.0029927888,-0.007985355,-9.689775e-05,-0.00038585713,0.0020309528,0.0,0.0,0.0,0.0,0.0,0.0,0.0,-0.18015727,0.0,0.0,0.0,0.0,0.004369691,0.0013221474,0.004369691,-0.0011819601,-0.0020976595,0.0017315123,-2.861023e-06,0.0,0.0,0.0,0.0,0.0,0.0
1743177450381379,1743177450229379,-0.0006707912,-0.0029927888,-0.007985355,-9.689775e-05,-0.00038585713,0.0020309528,0.0,0.0,0.0,0.0,0.0,0.0,0.0,-0.18015727,0.0,0.0,0.0,0.0,0.004369691,0.0013221474,0.004369691,-0.0011819601,-0.0032221507,0.0005794831,-5.1259995e-06,0.0,0.0,0.0,0.0,0.0,0.0
1743177450389379,1743177450237379,-0.0006707912,-0.0029927888,-0.007985355,-9.689775e-05,-0.00038585713,0.0020309528,0.0,0.0,0.0,0.0,0.0,0.0,0.0,-0.18015727,0.0,0.0,0.0,0.0,0.004369691,0.0013221474,0.004369691,-0.0011819601,-0.00309658,-4.123646e-05,-4.9471855e-06,0.0,0.0,0.0,0.0,0.0,0.0
1743177450405379,1743177450253379,-0.0006707912,-0.0029927888,-0.007985355,-9.689775e-05,-0.00038585713,0.0020309528,0.0,0.0,0.0,0.0,0.0,0.0,0.0,0.37019804,0.0,0.0,0.0,0.0,-0.0022914708,-0.0029465756,-0.0037864447,-0.0022914708,0.002260702,-0.00044422108,-2.7418137e-06,0.0,0.0,0.0,0.0,0.0,0.0
1743177450413379,1743177450261379,-0.0010713924,-0.00332925,0.0036802068,-9.752684e-05,-0.00039866567,0.002017093,0.0,0.0,0.0,0.0,0.0,0.0,0.0,0.37019804,0.0,0.0,0.0,0.0,-0.0022914708,-0.0029465756,-0.0037864447,-0.0022914708,0.0012851392,0.0037232684,-6.020069e-06,0.0,0.0,0.0,0.0,0.0,0.0
1743177450421379,1743177450269379,-0.0010713924,-0.00332925,0.0036802068,-9.752684e-05,-0.00039866567,0.002017093,0.0,0.0,0.0,0.0,0.0,0.0,0.0,0.37019804,0.0,0.0,0.0,0.0,-0.0022914708,-0.0029465756,-0.0037864447,-0.0022914708,-0.0021608213,0.005024554,-1.335144e-05,0.0,0.0,0.0,0.0,0.0,0.0
1743177450429379,1743177450277379,-0.0010713924,-0.00332925,0.0036802068,-9.752684e-05,-0.00039866567,0.002017093,0.0,0.0,0.0,0.0,0.0,0.0,0.0,0.37019804,0.0,0.0,0.0,0.0,-0.0022914708,-0.0029465756,-0.0037864447,-0.0022914708,-0.001101076,0.0056573804,-1.4603138e-05,0.0,0.0,0.0,0.0,0.0,0.0
1743177450445379,1743177450293379,-0.0010713924,-0.00332925,0.0036802068,-9.752684e-05,-0.00039866567,0.002017093,0.0,0.0,0.0,0.0,0.0,0.0,0.0,0.37019804,0.0,0.0,0.0,0.0,-0.0022914708,-0.0029465756,-0.0037864447,-0.0022914708,-0.0008789831,0.0014013354,-1.1324883e-06,0.0,0.0,0.0,0.0,0.0,0.0
1743177450453379,1743177450301379,-0.0010713924,-0.00332925,0.0036802068,-9.752684e-05,-0.00039866567,0.002017093,0.0,0.0,0.0,0.0,0.0,0.0,0.0,-0.0068800785,0.0,0.0,0.0,0.0,-0.0022914708,-0.0029465756,-0.0037864447,-0.0022914708,0.0036811645,0.0036820965,-1.1205673e-05,0.0,0.0,0.0,0.0,0.0,0.0
1743177450461379,1743177450309379,-0.0010713924,-0.00332925,0.0036802068,-9.752684e-05,-0.00039866567,0.002017093,0.0,0.0,0.0,0.0,0.0,0.0,0.0,-0.0068800785,0.0,0.0,0.0,0.0,0.0009716749,-0.005120062,-0.00433518,0.0009716749,-0.0022098965,0.0017406761,-3.695488e-06,0.0,0.0,0.0,0.0,0.0,0.0
1743177450469379,1743177450317379,-0.002938005,-0.0026504651,0.0038999915,-0.00016146213,-0.00042304868,0.001986253,0.0,0.0,0.0,0.0,0.0,0.0,0.0,-0.0068800785,0.0,0.0,0.0,0.0,0.0009716749,-0.005120062,-0.00433518,0.0009716749,0.0034904836,0.005759073,-1.9967556e-05,0.0,0.0,0.0,0.0,0.0,0.0
1743177450485379,1743177450333379,-0.002938005,-0.0026504651,0.0038999915,-0.00016146213,-0.00042304868,0.001986253,0.0,0.0,0.0,0.0,0.0,0.0,0.0,-0.0068800785,0.0,0.0,0.0,0.0,0.0009716749,-0.005120062,-0.00433518,0.0009716749,-0.0027499294,0.00093659176,-4.4703484e-06,0.0,0.0,0.0,0.0,0.0,0.0
1743177450493379,1743177450341379,-0.002938005,-0.0026504651,0.0038999915,-0.00016146213,-0.00042304868,0.001986253,0.0,0.0,0.0,0.0,0.0,0.0,0.0,-0.0068800785,0.0,0.0,0.0,0.0,0.0009716749,-0.005120062,-0.00433518,0.0009716749,0.00063437986,-0.0016995817,-1.9073486e-06,0.0,0.0,0.0,0.0,0.0,0.0
1743177450501379,1743177450349379,-0.002938005,-0.0026504651,0.0038999915,-0.00016146213,-0.00042304868,0.001986253,0.0,0.0,0.0,0.0,0.0,0.0,0.0,0.04003135,0.0,0.0,0.0,0.0,0.0009716749,-0.005120062,-0.00433518,0.0009716749,0.0013943128,-0.001212865,-1.7285347e-06,0.0,0.0,0.0,0.0,0.0,0.0
1743177450509379,1743177450357379,-0.002938005,-0.0026504651,0.0038999915,-0.00016146213,-0.00042304868,0.001986253,0.0,0.0,0.0,0.0,0.0,0.0,0.0,0.04003135,0.0,0.0,0.0,0.0,0.0009716749,-0.005120062,-0.00433518,0.0009716749,0.0010931492,0.0008858166,-5.364418e-07,0.0,0.0,0.0,0.0,0.0,0.0
1743177450525379,1743177450373379,0.0073931296,-0.002431951,0.004302785,-0.0001878038,-0.00041522237,0.0018200567,0.0,0.0,0.0,0.0,0.0,0.0,0.0,0.04003135,0.0,0.0,0.0,0.0,0.0009716749,-0.005120062,-0.00433518,0.0009716749,-0.0003718105,-0.00022908888,-2.9802322e-07,0.0,0.0,0.0,0.0,0.0,0.0
1743177450533379,1743177450381379,0.0073931296,-0.002431951,0.004302785,-0.0001878038,-0.00041522237,0.0018200567,0.0,0.0,0.0,0.0,0.0,0.0,0.0,0.04003135,0.0,0.0,0.0,0.0,0.0005106549,0.0005106549,-0.0014013797,-0.0010556877,0.0027836326,0.007785283,-3.117323e-05,0.0,0.0,0.0,0.0,0.0,0.0
1743177450541379,1743177450389379,0.0073931296,-0.002431951,0.004302785,-0.0001878038,-0.00041522237,0.0018200567,0.0,0.0,0.0,0.0,0.0,0.0,0.0,0.04003135,0.0,0.0,0.0,0.0,0.0005106549,0.0005106549,-0.0014013797,-0.0010556877,-0.0015376448,0.0034733075,-6.377697e-06,0.0,0.0,0.0,0.0,0.0,0.0
1743177450549379,1743177450397379,0.0073931296,-0.002431951,0.004302785,-0.0001878038,-0.00041522237,0.0018200567,0.0,0.0,0.0,0.0,0.0,0.0,0.0,0.04003135,0.0,0.0,0.0,0.0,0.0005106549,0.0005106549,-0.0014013797,-0.0010556877,-0.0032886672,0.00017583033,-6.4969063e-06,0.0,0.0,0.0,0.0,0.0,0.0
1743177450565379,1743177450413379,0.0073931296,-0.002431951,0.004302785,-0.0001878038,-0.00041522237,0.0018200567,0.0,0.0,0.0,0.0,0.0,0.0,0.0,0.21826668,0.0,0.0,0.0,0.0,0.0005106549,0.0005106549,-0.0014013797,-0.0010556877,0.002366763,0.0010431913,-2.2053719e-06,0.0,0.0,0.0,0.0,0.0,0.0
1743177450573379,1743177450421379,-0.0045062876,-0.0027133403,0.0041811466,-0.000589446,-0.00043632794,0.0013114638,0.0,0.0,0.0,0.0,0.0,0.0,0.0,0.21826668,0.0,0.0,0.0,0.0,0.0005106549,0.0005106549,-0.0014013797,-0.0010556877,-0.007029412,0.00028833337,-2.69413e-05,0.0,0.0,0.0,0.0,0.0,0.0
1743177450581379,1743177450429379,-0.0045062876,-0.0027133403,0.0041811466,-0.000589446,-0.00043632794,0.0013114638,0.0,0.0,0.0,0.0,0.0,0.0,0.0,0.21826668,0.0,0.0,0.0,0.0,0.0005106549,0.0005106549,-0.0014013797,-0.0010556877,-0.0012635096,0.00020275044,-1.1920929e-06,0.0,0.0,0.0,0.0,0.0,0.0
1743177450589379,1743177450437379,-0.0045062876,-0.0027133403,0.0041811466,-0.000589446,-0.00043632794,0.0013114638,0.0,0.0,0.0,0.0,0.0,0.0,0.0,0.21826668,0.0,0.0,0.0,0.0,0.0005106549,0.0005106549,-0.0014013797,-0.0010556877,-0.0016568095,-0.0025936917,-6.198883e-06,0.0,0.0,0.0,0.0,0.0,0.0
1743177450605379,1743177450453379,-0.0045062876,-0.0027133403,0.0041811466,-0.000589446,-0.00043632794,0.0013114638,0.0,0.0,0.0,0.0,0.0,0.0,0.0,0.33008426,0.0,0.0,0.0,0.0,0.0006696433,-0.0044026533,0.0006696433,-0.00023266673,-0.003367029,0.0015533895,-7.867813e-06,0.0,0.0,0.0,0.0,0.0,0.0
1743177450613379,1743177450461379,-0.0045062876,-0.0027133403,0.0041811466,-0.000589446,-0.00043632794,0.0013114638,0.0,0.0,0.0,0.0,0.0,0.0,0.0,0.33008426,0.0,0.0,0.0,0.0,0.0006696433,-0.0044026533,0.0006696433,-0.00023266673,-0.004743445,0.0013706025,-1.40070915e-05,0.0,0.0,0.0,0.0,0.0,0.0
1743177450621379,1743177450469379,-0.004177487,-0.0036560919,0.0037525296,-0.0005767923,-0.00046014602,0.00057711266,0.0,0.0,0.0,0.0,0.0,0.0,0.0,0.33008426,0.0,0.0,0.0,0.0,0.0006696433,-0.0044026533,0.0006696433,-0.00023266673,-0.0015248172,0.006331208,-2.0444393e-05,0.0,0.0,0.0,0.0,0.0,0.0
1743177450629379,1743177450477379,-0.004177487,-0.0036560919,0.0037525296,-0.0005767923,-0.00046014602,0.00057711266,0.0,0.0,0.0,0.0,0.0,0.0,0.0,0.33008426,0.0,0.0,0.0,0.0,0.0006696433,-0.0044026533,0.0006696433,-0.00023266673,0.0022087037,0.0021059539,-2.7418137e-06,0.0,0.0,0.0,0.0,0.0,0.0
1743177450645379,1743177450493379,-0.004177487,-0.0036560919,0.0037525296,-0.0005767923,-0.00046014602,0.00057711266,0.0,0.0,0.0,0.0,0.0,0.0,0.0,0.33008426,0.0,0.0,0.0,0.0,0.0006696433,-0.0044026533,0.0006696433,-0.00023266673,0.0041977875,0.0009034652,-6.377697e-06,0.0,0.0,0.0,0.0,0.0,0.0
1743177450653379,1743177450501379,-0.004177487,-0.0036560919,0.0037525296,-0.0005767923,-0.00046014602,0.00057711266,0.0,0.0,0.0,0.0,0.0,0.0,0.0,0.33008426,0.0,0.0,0.0,0.0,0.0006696433,-0.0044026533,0.0006696433,-0.00023266673,-0.0011165257,-0.0025907136,-5.7816505e-06,0.0,0.0,0.0,0.0,0.0,0.0
1743177450661379,1743177450509379,-0.004177487,-0.0036560919,0.0037525296,-0.0005767923,-0.00046014602,0.00057711266,0.0,0.0,0.0,0.0,0.0,0.0,0.0,0.03776775,0.0,0.0,0.0,0.0,0.0006696433,-0.0044026533,0.0006696433,-0.00023266673,-0.00045828556,-0.00011750788,-5.9604645e-07,0.0,0.0,0.0,0.0,0.0,0.0
1743177450669379,1743177450517379,-0.004177487,-0.0036560919,0.0037525296,-0.0005767923,-0.00046014602,0.00057711266,0.0,0.0,0.0,0.0,0.0,0.0,0.0,0.03776775,0.0,0.0,0.0,0.0,6.482005e-05,-0.00020976606,-0.0011028647,6.482005e-05,-0.00071216834,2.4564128e-05,-8.34465e-07,0.0,0.0,0.0,0.0,0.0,0.0
1743177450685379,1743177450533379,-0.0039831605,0.0077518015,0.003854856,-0.0006172378,-0.0004511397,0.00053365063,0.0,0.0,0.0,0.0,0.0,0.0,0.0,0.03776775,0.0,0.0,0.0,0.0,6.482005e-05,-0.00020976606,-0.0011028647,6.482005e-05,0.00031320917,0.00078674406,5.9604645e-08,0.0,0.0,0.0,0.0,0.0,0.0
1743177450693379,1743177450541379,-0.0039831605,0.0077518015,0.003854856,-0.0006172378,-0.0004511397,0.00053365063,0.0,0.0,0.0,0.0,0.0,0.0,0.0,0.03776775,0.0,0.0,0.0,0.0,6.482005e-05,-0.00020976606,-0.0011028647,6.482005e-05,0.0003966232,0.0016611426,-6.556511e-07,0.0,0.0,0.0,0.0,0.0,0.0
1743177450701379,1743177450549379,-0.0039831605,0.0077518015,0.003854856,-0.0006172378,-0.0004511397,0.00053365063,0.0,0.0,0.0,0.0,0.0,0.0,0.0,0.03776775,0.0,0.0,0.0,0.0,6.482005e-05,-0.00020976606,-0.0011028647,6.482005e-05,-0.00012960611,0.0031360188,-3.695488e-06,0.0,0.0,0.0,0.0,0.0,0.0
1743177450709379,1743177450557379,-0.0039831605,0.0077518015,0.003854856,-0.0006172378,-0.0004511397,0.00053365063,0.0,0.0,0.0,0.0,0.0,0.0,0.0,0.20666507,0.0,0.0,0.0,0.0,6.482005e-05,-0.00020976606,-0.0011028647,6.482005e-05,-0.00631505,0.0027875355,-2.5093555e-05,0.0,0.0,0.0,0.0,0.0,0.0
1743177450725379,1743177450573379,-0.0042813914,-0.0038406937,0.0034650117,-0.00062712707,-0.0008238535,0.0001480775,0.0,0.0,0.0,0.0,0.0,0.0,0.0,0.20666507,0.0,0.0,0.0,0.0,6.482005e-05,-0.00020976606,-0.0011028647,6.482005e-05,0.0009053703,9.261668e-05,-1.7881393e-07,0.0,0.0,0.0,0.0,0.0,0.0
1743177450733379,1743177450581379,-0.0042813914,-0.0038406937,0.0034650117,-0.00062712707,-0.0008238535,0.0001480775,0.0,0.0,0.0,0.0,0.0,0.0,0.0,0.20666507,0.0,0.0,0.0,0.0,0.0013294802,0.0013294802,-0.004411474,-0.0055738688,0.0016445541,0.0014953143,-1.4305115e-06,0.0,0.0,0.0,0.0,0.0,0.0
1743177450741379,1743177450589379,-0.0042813914,-0.0038406937,0.0034650117,-0.00062712707,-0.0008238535,0.0001480775,0.0,0.0,0.0,0.0,0.0,0.0,0.0,0.20666507,0.0,0.0,0.0,0.0,0.0013294802,0.0013294802,-0.004411474,-0.0055738688,0.0032380004,0.004175573,-1.1444092e-05,0.0,0.0,0.0,0.0,0.0,0.0
1743177450749379,1743177450597379,-0.0042813914,-0.0038406937,0.0034650117,-0.00062712707,-0.0008238535,0.0001480775,0.0,0.0,0.0,0.0,0.0,0.0,0.0,0.20666507,0.0,0.0,0.0,0.0,0.0013294802,0.0013294802,-0.004411474,-0.0055738688,-0.005286631,0.0014237415,-1.6212463e-05,0.0,0.0,0.0,0.0,0.0,0.0
1743177450765379,1743177450613379,-0.0042813914,-0.0038406937,0.0034650117,-0.00062712707,-0.0008238535,0.0001480775,0.0,0.0,0.0,0.0,0.0,0.0,0.0,0.05098608,0.0,0.0,0.0,0.0,0.0013294802,0.0013294802,-0.004411474,-0.0055738688,-0.003059585,-0.0009789399,-6.914139e-06,0.0,0.0,0.0,0.0,0.0,0.0
1743177450773379,1743177450621379,-0.0042813914,-0.0038406937,0.0034650117,-0.00062712707,-0.0008238535,0.0001480775,0.0,0.0,0.0,0.0,0.0,0.0,0.0,0.05098608,0.0,0.0,0.0,0.0,0.0013294802,0.0013294802,-0.004411474,-0.0055738688,0.00080898637,0.00024200161,0.0,0.0,0.0,0.0,0.0,0.0,0.0
1743177450781379,1743177450629379,-0.0039863293,-0.0033348473,0.0029601008,-0.0006140248,-0.00079025264,9.9324156e-05,0.0,0.0,0.0,0.0,0.0,0.0,0.0,0.05098608,0.0,0.0,0.0,0.0,0.0013294802,0.0013294802,-0.004411474,-0.0055738688,-0.0014010983,0.0013215231,-2.0861626e-06,0.0,0.0,0.0,0.0,0.0,0.0
1743177450789379,1743177450637379,-0.0039863293,-0.0033348473,0.0029601008,-0.0006140248,-0.00079025264,9.9324156e-05,0.0,0.0,0.0,0.0,0.0,0.0,0.0,0.05098608,0.0,0.0,0.0,0.0,0.0013294802,0.0013294802,-0.004411474,-0.0055738688,-0.0016479557,6.365296e-05,-2.0861626e-06,0.0,0.0,0.0,0.0,0.0,0.0
1743177450805379,1743177450653379,-0.0039863293,-0.0033348473,0.0029601008,-0.0006140248,-0.00079025264,9.9324156e-05,0.0,0.0,0.0,0.0,0.0,0.0,0.0,0.05098608,0.0,0.0,0.0,0.0,0.0005031228,-3.734661e-05,0.00037442148,0.0005031228,-0.00017917546,0.00043783546,-5.9604645e-08,0.0,0.0,0.0,0.0,0.0,0.0
1743177450813379,1743177450661379,-0.0039863293,-0.0033348473,0.0029601008,-0.0006140248,-0.00079025264,9.9324156e-05,0.0,0.0,0.0,0.0,0.0,0.0,0.0,-0.21681064,0.0,0.0,0.0,0.0,0.0005031228,-3.734661e-05,0.00037442148,0.0005031228,0.002518583,0.0036546388,-7.212162e-06,0.0,0.0,0.0,0.0,0.0,0.0
1743177450821379,1743177450669379,-0.0039863293,-0.0033348473,0.0029601008,-0.0006140248,-0.00079025264,9.9324156e-05,0.0,0.0,0.0,0.0,0.0,0.0,0.0,-0.21681064,0.0,0.0,0.0,0.0,0.0005031228,-3.734661e-05,0.00037442148,0.0005031228,0.002724393,0.0008703879,-2.3841858e-06,0.0,0.0,0.0,0.0,0.0,0.0
1743177450829379,1743177450677379,-0.0036735653,-0.0026787387,0.0023855418,-0.0006053177,-0.00075989915,0.00055365544,0.0,0.0,0.0,0.0,0.0,0.0,0.0,-0.21681064,0.0,0.0,0.0,0.0,0.0005031228,-3.734661e-05,0.00037442148,0.0005031228,-0.0006985002,-0.00080019986,-1.1324883e-06,0.0,0.0,0.0,0.0,0.0,0.0
1743177450845379,1743177450693379,-0.0036735653,-0.0026787387,0.0023855418,-0.0006053177,-0.00075989915,0.00055365544,0.0,0.0,0.0,0.0,0.0,0.0,0.0,-0.21681064,0.0,0.0,0.0,0.0,0.0005031228,-3.734661e-05,0.00037442148,0.0005031228,0.006360163,0.0030061137,-2.092123e-05,0.0,0.0,0.0,0.0,0.0,0.0
1743177450853379,1743177450701379,-0.0036735653,-0.0026787387,0.0023855418,-0.0006053177,-0.00075989915,0.00055365544,0.0,0.0,0.0,0.0,0.0,0.0,0.0,-0.21681064,0.0,0.0,0.0,0.0,0.0005031228,-3.734661e-05,0.00037442148,0.0005031228,-0.0007902009,0.0055067143,-1.4424324e-05,0.0,0.0,0.0,0.0,0.0,0.0
1743177450861379,1743177450709379,-0.0036735653,-0.0026787387,0.0023855418,-0.0006053177,-0.00075989915,0.00055365544,0.0,0.0,0.0,0.0,0.0,0.0,0.0,-0.21681064,0.0,0.0,0.0,0.0,0.0005031228,-3.734661e-05,0.00037442148,0.0005031228,0.00044382652,0.0006114033,0.0,0.0,0.0,0.0,0.0,0.0,0.0
1743177450869379,1743177450717379,-0.0036735653,-0.0026787387,0.0023855418,-0.0006053177,-0.00075989915,0.00055365544,0.0,0.0,0.0,0.0,0.0,0.0,0.0,1.9395258e-05,0.0,0.0,0.0,0.0,-0.0033015276,-0.0033015276,-0.007953525,-0.00642398,-0.00013217123,0.0012096015,-6.556511e-07,0.0,0.0,0.0,0.0,0.0,0.0
1743177450885379,1743177450733379,-0.0037979488,-0.0016113135,0.0031727105,-0.00063076016,-0.00071229896,0.0005509658,0.0,0.0,0.0,0.0,0.0,0.0,0.0,1.9395258e-05,0.0,0.0,0.0,0.0,-0.0033015276,-0.0033015276,-0.007953525,-0.00642398,0.0018081557,0.00027596368,-6.556511e-07,0.0,0.0,0.0,0.0,0.0,0.0
1743177450893379,1743177450741379,-0.0037979488,-0.0016113135,0.0031727105,-0.00063076016,-0.00071229896,0.0005509658,0.0,0.0,0.0,0.0,0.0,0.0,0.0,1.9395258e-05,0.0,0.0,0.0,0.0,-0.0033015276,-0.0033015276,-0.007953525,-0.00642398,0.0012369488,-0.00061855,-2.9802322e-07,0.0,0.0,0.0,0.0,0.0,0.0
1743177450901379,1743177450749379,-0.0037979488,-0.0016113135,0.0031727105,-0.00063076016,-0.00071229896,0.0005509658,0.0,0.0,0.0,0.0,0.0,0.0,0.0,1.9395258e-05,0.0,0.0,0.0,0.0,-0.0033015276,-0.0033015276,-0.007953525,-0.00642398,0.0031490535,-0.003974987,-1.1265278e-05,0.0,0.0,0.0,0.0,0.0,0.0
1743177450909379,1743177450757379,-0.0037979488,-0.0016113135,0.0031727105,-0.00063076016,-0.00071229896,0.0005509658,0.0,0.0,0.0,0.0,0.0,0.0,0.0,1.9395258e-05,0.0,0.0,0.0,0.0,-0.0033015276,-0.0033015276,-0.007953525,-0.00642398,0.0032685306,-0.0017169232,-5.185604e-06,0.0,0.0,0.0,0.0,0.0,0.0
1743177450925379,1743177450773379,-0.0037979488,-0.0016113135,0.0031727105,-0.00063076016,-0.00071229896,0.0005509658,0.0,0.0,0.0,0.0,0.0,0.0,0.0,-0.16897288,0.0,0.0,0.0,0.0,-0.0033015276,-0.0033015276,-0.007953525,-0.00642398,0.00016591788,-0.0018831632,-1.4901161e-06,0.0,0.0,0.0,0.0,0.0,0.0
1743177450933379,1743177450781379,-0.0023398781,-0.0001778656,0.0038095936,-0.00059002964,-0.00065150287,0.0008908999,0.0,0.0,0.0,0.0,0.0,0.0,0.0,-0.16897288,0.0,0.0,0.0,0.0,-0.0033015276,-0.0033015276,-0.007953525,-0.00642398,0.006879348,-0.002422529,-2.2888184e-05,0.0,0.0,0.0,0.0,0.0,0.0
1743177450941379,1743177450789379,-0.0023398781,-0.0001778656,0.0038095936,-0.00059002964,-0.00065150287,0.0008908999,0.0,0.0,0.0,0.0,0.0,0.0,0.0,-0.16897288,0.0,0.0,0.0,0.0,0.0013064146,-0.0003819249,0.0013064146,-2.8550625e-05,0.0002959679,-0.003626964,-6.198883e-06,0.0,0.0,0.0,0.0,0.0,0.0
1743177450949379,1743177450797379,-0.0023398781,-0.0001778656,0.0038095936,-0.00059002964,-0.00065150287,0.0008908999,0.0,0.0,0.0,0.0,0.0,0.0,0.0,-0.16897288,0.0,0.0,0.0,0.0,0.0013064146,-0.0003819249,0.0013064146,-2.8550625e-05,0.0034085256,-0.001565153,-5.4240227e-06,0.0,0.0,0.0,0.0,0.0,0.0
1743177450965379,1743177450813379,-0.0023398781,-0.0001778656,0.0038095936,-0.00059002964,-0.00065150287,0.0008908999,0.0,0.0,0.0,0.0,0.0,0.0,0.0,-0.16897288,0.0,0.0,0.0,0.0,0.0013064146,-0.0003819249,0.0013064146,-2.8550625e-05,6.0212653e-05,0.00091600954,-4.7683716e-07,0.0,0.0,0.0,0.0,0.0,0.0
1743177450973379,1743177450821379,-0.0023398781,-0.0001778656,0.0038095936,-0.00059002964,-0.00065150287,0.0008908999,0.0,0.0,0.0,0.0,0.0,0.0,0.0,-0.37952772,0.0,0.0,0.0,0.0,0.0013064146,-0.0003819249,0.0013064146,-2.8550625e-05,0.002388286,0.00050770526,-2.3841858e-06,0.0,0.0,0.0,0.0,0.0,0.0
1743177450981379,1743177450829379,-0.0023398781,-0.0001778656,0.0038095936,-0.00059002964,-0.00065150287,0.0008908999,0.0,0.0,0.0,0.0,0.0,0.0,0.0,-0.37952772,0.0,0.0,0.0,0.0,0.0013064146,-0.0003819249,0.0013064146,-2.8550625e-05,0.0032203214,-0.0017087021,-5.6624413e-06,0.0,0.0,0.0,0.0,0.0,0.0
1743177450989379,1743177450837379,-0.0012753825,0.00048667894,0.004445575,-0.00056989,-0.0006122853,0.001632526,0.0,0.0,0.0,0.0,0.0,0.0,0.0,-0.37952772,0.0,0.0,0.0,0.0,0.0013064146,-0.0003819249,0.0013064146,-2.8550625e-05,0.00041913288,-0.001398809,-9.536743e-07,0.0,0.0,0.0,0.0,0.0,0.0
1743177451005379,1743177450853379,-0.0012753825,0.00048667894,0.004445575,-0.00056989,-0.0006122853,0.001632526,0.0,0.0,0.0,0.0,0.0,0.0,0.0,-0.37952772,0.0,0.0,0.0,0.0,0.00046083418,0.00046083418,-0.002561897,-0.00029411912,0.003482039,0.0011602776,-6.2584877e-06,0.0,0.0,0.0,0.0,0.0,0.0
1743177451013379,1743177450861379,-0.0012753825,0.00048667894,0.004445575,-0.00056989,-0.0006122853,0.001632526,0.0,0.0,0.0,0.0,0.0,0.0,0.0,-0.37952772,0.0,0.0,0.0,0.0,0.00046083418,0.00046083418,-0.002561897,-0.00029411912,0.0036466115,0.0009896215,-6.556511e-06,0.0,0.0,0.0,0.0,0.0,0.0
1743177451021379,1743177450869379,-0.0012753825,0.00048667894,0.004445575,-0.00056989,-0.0006122853,0.001632526,0.0,0.0,0.0,0.0,0.0,0.0,0.0,0.260489,0.0,0.0,0.0,0.0,0.00046083418,0.00046083418,-0.002561897,-0.00029411912,-0.00048788576,0.0032235854,-5.6624413e-06,0.0,0.0,0.0,0.0,0.0,0.0
1743177451029379,1743177450877379,-0.0012753825,0.00048667894,0.004445575,-0.00056989,-0.0006122853,0.001632526,0.0,0.0,0.0,0.0,0.0,0.0,0.0,0.260489,0.0,0.0,0.0,0.0,0.00046083418,0.00046083418,-0.002561897,-0.00029411912,-0.006883065,0.0006160602,-2.6106834e-05,0.0,0.0,0.0,0.0,0.0,0.0
1743177451045379,1743177450893379,-0.0011531999,0.00055820827,0.003767714,-0.0005358009,-0.0005498705,0.0011693533,0.0,0.0,0.0,0.0,0.0,0.0,0.0,0.260489,0.0,0.0,0.0,0.0,0.00046083418,0.00046083418,-0.002561897,-0.00029411912,0.00076265435,-0.0030970452,-4.4703484e-06,0.0,0.0,0.0,0.0,0.0,0.0
1743177451053379,1743177450901379,-0.0011531999,0.00055820827,0.003767714,-0.0005358009,-0.0005498705,0.0011693533,0.0,0.0,0.0,0.0,0.0,0.0,0.0,0.260489,0.0,0.0,0.0,0.0,0.00046083418,0.00046083418,-0.002561897,-0.00029411912,-0.0033217906,0.00260098,-1.0371208e-05,0.0,0.0,0.0,0.0,0.0,0.0
1743177451061379,1743177450909379,-0.0011531999,0.00055820827,0.003767714,-0.0005358009,-0.0005498705,0.0011693533,0.0,0.0,0.0,0.0,0.0,0.0,0.0,0.260489,0.0,0.0,0.0,0.0,0.00046083418,0.00046083418,-0.002561897,-0.00029411912,0.0007558804,-0.0030742732,-4.053116e-06,0.0,0.0,0.0,0.0,0.0,0.0
1743177451069379,1743177450917379,-0.0011531999,0.00055820827,0.003767714,-0.0005358009,-0.0005498705,0.0011693533,0.0,0.0,0.0,0.0,0.0,0.0,0.0,0.260489,0.0,0.0,0.0,0.0,0.00046083418,0.00046083418,-0.002561897,-0.00029411912,0.0035956292,-0.0007356018,-5.3048134e-06,0.0,0.0,0.0,0.0,0.0,0.0
1743177451085379,1743177450933379,-0.0011531999,0.00055820827,0.003767714,-0.0005358009,-0.0005498705,0.0011693533,0.0,0.0,0.0,0.0,0.0,0.0,0.0,0.179683,0.0,0.0,0.0,0.0,0.0011976957,-0.00084833,0.0011976957,4.0739775e-05,0.0043806424,0.0032999741,-1.4066696e-05,0.0,0.0,0.0,0.0,0.0,0.0
1743177451093379,1743177450941379,-0.0011521359,0.0014597308,0.004082814,-0.00051197555,-0.0005031403,0.0008986634,0.0,0.0,0.0,0.0,0.0,0.0,0.0,0.179683,0.0,0.0,0.0,0.0,0.0011976957,-0.00084833,0.0011976957,4.0739775e-05,0.002535857,-6.839691e-06,-2.2053719e-06,0.0,0.0,0.0,0.0,0.0,0.0
1743177451101379,1743177450949379,-0.0011521359,0.0014597308,0.004082814,-0.00051197555,-0.0005031403,0.0008986634,0.0,0.0,0.0,0.0,0.0,0.0,0.0,0.179683,0.0,0.0,0.0,0.0,0.0011976957,-0.00084833,0.0011976957,4.0739775e-05,-0.0012006615,0.0016366087,-3.0398369e-06,0.0,0.0,0.0,0.0,0.0,0.0
1743177451109379,1743177450957379,-0.0011521359,0.0014597308,0.004082814,-0.00051197555,-0.0005031403,0.0008986634,0.0,0.0,0.0,0.0,0.0,0.0,0.0,0.179683,0.0,0.0,0.0,0.0,0.0011976957,-0.00084833,0.0011976957,4.0739775e-05,-0.0008312565,0.0029474031,-5.7816505e-06,0.0,0.0,0.0,0.0,0.0,0.0
1743177451125379,1743177450973379,-0.0011521359,0.0014597308,0.004082814,-0.00051197555,-0.0005031403,0.0008986634,0.0,0.0,0.0,0.0,0.0,0.0,0.0,0.3245304,0.0,0.0,0.0,0.0,0.0011976957,-0.00084833,0.0011976957,4.0739775e-05,0.0016956886,0.0003472277,-9.536743e-07,0.0,0.0,0.0,0.0,0.0,0.0
1743177451133379,1743177450981379,-0.0011521359,0.0014597308,0.004082814,-0.00051197555,-0.0005031403,0.0008986634,0.0,0.0,0.0,0.0,0.0,0.0,0.0,0.3245304,0.0,0.0,0.0,0.0,0.0011976957,-0.00084833,0.0011976957,4.0739775e-05,0.0026203408,-0.0036716054,-8.285046e-06,0.0,0.0,0.0,0.0,0.0,0.0
1743177451141379,1743177450989379,-0.0011248826,0.0016062489,0.004669504,-0.00049157016,-0.0004772843,0.0003487193,0.0,0.0,0.0,0.0,0.0,0.0,0.0,0.3245304,0.0,0.0,0.0,0.0,0.0029168427,-0.003836876,-0.0011808425,0.0029168427,0.0039013976,-0.00033424565,-5.90086e-06,0.0,0.0,0.0,0.0,0.0,0.0
1743177451149379,1743177450997379,-0.0011248826,0.0016062489,0.004669504,-0.00049157016,-0.0004772843,0.0003487193,0.0,0.0,0.0,0.0,0.0,0.0,0.0,0.3245304,0.0,0.0,0.0,0.0,0.0029168427,-0.003836876,-0.0011808425,0.0029168427,0.0015994583,-0.0007914556,-6.556511e-07,0.0,0.0,0.0,0.0,0.0,0.0
1743177451165379,1743177451013379,-0.0011248826,0.0016062489,0.004669504,-0.00049157016,-0.0004772843,0.0003487193,0.0,0.0,0.0,0.0,0.0,0.0,0.0,0.3245304,0.0,0.0,0.0,0.0,0.0029168427,-0.003836876,-0.0011808425,0.0029168427,-0.0012325312,-0.0052684383,-1.4066696e-05,0.0,0.0,0.0,0.0,0.0,0.0
1743177451173379,1743177451021379,-0.0011248826,0.0016062489,0.004669504,-0.00049157016,-0.0004772843,0.0003487193,0.0,0.0,0.0,0.0,0.0,0.0,0.0,0.3245304,0.0,0.0,0.0,0.0,0.0029168427,-0.003836876,-0.0011808425,0.0029168427,0.0057455166,-0.0025758375,-1.7046928e-05,0.0,0.0,0.0,0.0,0.0,0.0
1743177451181379,1743177451029379,-0.0011248826,0.0016062489,0.004669504,-0.00049157016,-0.0004772843,0.0003487193,0.0,0.0,0.0,0.0,0.0,0.0,0.0,0.088555396,0.0,0.0,0.0,0.0,0.0029168427,-0.003836876,-0.0011808425,0.0029168427,0.0038563106,0.001747338,-7.5101852e-06,0.0,0.0,0.0,0.0,0.0,0.0
1743177451189379,1743177451037379,-0.0011248826,0.0016062489,0.004669504,-0.00049157016,-0.0004772843,0.0003487193,0.0,0.0,0.0,0.0,0.0,0.0,0.0,0.088555396,0.0,0.0,0.0,0.0,0.0029168427,-0.003836876,-0.0011808425,0.0029168427,0.0027246762,0.0043900204,-1.2278557e-05,0.0,0.0,0.0,0.0,0.0,0.0
1743177451205379,1743177451053379,-0.00028847935,0.0020640683,0.005149998,-0.00041749896,-0.00046257954,0.00028584618,0.0,0.0,0.0,0.0,0.0,0.0,0.0,0.088555396,0.0,0.0,0.0,0.0,0.0029168427,-0.003836876,-0.0011808425,0.0029168427,0.0019764318,-0.00039053534,-1.2516975e-06,0.0,0.0,0.0,0.0,0.0,0.0
1743177451213379,1743177451061379,-0.00028847935,0.0020640683,0.005149998,-0.00041749896,-0.00046257954,0.00028584618,0.0,0.0,0.0,0.0,0.0,0.0,0.0,0.088555396,0.0,0.0,0.0,0.0,0.0007863939,-0.00061842543,-1.8507242e-05,0.0007863939,0.0021667161,0.003462409,-6.9737434e-06,0.0,0.0,0.0,0.0,0.0,0.0
1743177451221379,1743177451069379,-0.00028847935,0.0020640683,0.005149998,-0.00041749896,-0.00046257954,0.00028584618,0.0,0.0,0.0,0.0,0.0,0.0,0.0,0.088555396,0.0,0.0,0.0,0.0,0.0007863939,-0.00061842543,-1.8507242e-05,0.0007863939,-0.0042397114,0.0032040833,-1.579523e-05,0.0,0.0,0.0,0.0,0.0,0.0
1743177451229379,1743177451077379,-0.00028847935,0.0020640683,0.005149998,-0.00041749896,-0.00046257954,0.00028584618,0.0,0.0,0.0,0.0,0.0,0.0,0.0,-0.63478816,0.0,0.0,0.0,0.0,0.0007863939,-0.00061842543,-1.8507242e-05,0.0007863939,-0.0015601271,-0.004949049,-1.4364719e-05,0.0,0.0,0.0,0.0,0.0,0.0
1743177451245379,1743177451093379,-0.0009681804,0.0015631735,0.004667565,-0.0004063494,-0.00043718613,0.0014194748,0.0,0.0,0.0,0.0,0.0,0.0,0.0,-0.63478816,0.0,0.0,0.0,0.0,0.0007863939,-0.00061842543,-1.8507242e-05,0.0007863939,-7.078826e-05,0.00624465,-1.92523e-05,0.0,0.0,0.0,0.0,0.0,0.0
1743177451253379,1743177451101379,-0.0009681804,0.0015631735,0.004667565,-0.0004063494,-0.00043718613,0.0014194748,0.0,0.0,0.0,0.0,0.0,0.0,0.0,-0.63478816,0.0,0.0,0.0,0.0,0.0007863939,-0.00061842543,-1.8507242e-05,0.0007863939,0.00065754313,-2.9529569e-05,1.1920929e-07,0.0,0.0,0.0,0.0,0.0,0.0
1743177451261379,1743177451109379,-0.0009681804,0.0015631735,0.004667565,-0.0004063494,-0.00043718613,0.0014194748,0.0,0.0,0.0,0.0,0.0,0.0,0.0,-0.63478816,0.0,0.0,0.0,0.0,0.0007863939,-0.00061842543,-1.8507242e-05,0.0007863939,0.0024155995,0.0010459719,-2.2053719e-06,0.0,0.0,0.0,0.0,0.0,0.0
1743177451269379,1743177451117379,-0.0009681804,0.0015631735,0.004667565,-0.0004063494,-0.00043718613,0.0014194748,0.0,0.0,0.0,0.0,0.0,0.0,0.0,-0.63478816,0.0,0.0,0.0,0.0,0.0007863939,-0.00061842543,-1.8507242e-05,0.0007863939,0.0028735576,0.00051610544,-2.8014183e-06,0.0,0.0,0.0,0.0,0.0,0.0
1743177451285379,1743177451133379,-0.0009681804,0.0015631735,0.004667565,-0.0004063494,-0.00043718613,0.0014194748,0.0,0.0,0.0,0.0,0.0,0.0,0.0,0.1425591,0.0,0.0,0.0,0.0,0.0025951744,0.0025951744,-0.0018437058,0.0012319386,0.0005687385,0.002316849,-2.2649765e-06,0.0,0.0,0.0,0.0,0.0,0.0
1743177451293379,1743177451141379,-0.0009681804,0.0015631735,0.004667565,-0.0004063494,-0.00043718613,0.0014194748,0.0,0.0,0.0,0.0,0.0,0.0,0.0,0.1425591,0.0,0.0,0.0,0.0,0.0025951744,0.0025951744,-0.0018437058,0.0012319386,-0.004318887,0.003024316,-1.6152859e-05,0.0,0.0,0.0,0.0,0.0,0.0
1743177451301379,1743177451149379,-0.0016952844,0.0014807086,0.0038862824,-0.00041213425,-0.0003775712,0.0012302483,0.0,0.0,0.0,0.0,0.0,0.0,0.0,0.1425591,0.0,0.0,0.0,0.0,0.0025951744,0.0025951744,-0.0018437058,0.0012319386,-0.002694974,0.0014420213,-5.90086e-06,0.0,0.0,0.0,0.0,0.0,0.0
1743177451309379,1743177451157379,-0.0016952844,0.0014807086,0.0038862824,-0.00041213425,-0.0003775712,0.0012302483,0.0,0.0,0.0,0.0,0.0,0.0,0.0,0.1425591,0.0,0.0,0.0,0.0,0.0025951744,0.0025951744,-0.0018437058,0.0012319386,0.0017356225,0.00410544,-9.179115e-06,0.0,0.0,0.0,0.0,0.0,0.0
1743177451325379,1743177451173379,-0.0016952844,0.0014807086,0.0038862824,-0.00041213425,-0.0003775712,0.0012302483,0.0,0.0,0.0,0.0,0.0,0.0,0.0,0.1425591,0.0,0.0,0.0,0.0,0.0025951744,0.0025951744,-0.0018437058,0.0012319386,-0.00044141494,0.0010095673,-6.556511e-07,0.0,0.0,0.0,0.0,0.0,0.0
1743177451333379,1743177451181379,-0.0016952844,0.0014807086,0.0038862824,-0.00041213425,-0.0003775712,0.0012302483,0.0,0.0,0.0,0.0,0.0,0.0,0.0,0.12318069,0.0,0.0,0.0,0.0,0.0025951744,0.0025951744,-0.0018437058,0.0012319386,0.00066752324,0.0048522125,-1.1205673e-05,0.0,0.0,0.0,0.0,0.0,0.0
1743177451341379,1743177451189379,-0.0016952844,0.0014807086,0.0038862824,-0.00041213425,-0.0003775712,0.0012302483,0.0,0.0,0.0,0.0,0.0,0.0,0.0,0.12318069,0.0,0.0,0.0,0.0,0.0025951744,0.0025951744,-0.0018437058,0.0012319386,-0.0012693706,0.0018777153,-2.7418137e-06,0.0,0.0,0.0,0.0,0.0,0.0
1743177451349379,1743177451197379,-0.0022950473,0.0011729333,0.0029705274,-0.00041397533,-0.000348384,0.001050272,0.0,0.0,0.0,0.0,0.0,0.0,0.0,0.12318069,0.0,0.0,0.0,0.0,0.0011819005,-0.00076278683,-0.00019229949,0.0011819005,-0.0049380455,-0.0006010502,-1.4364719e-05,0.0,0.0,0.0,0.0,0.0,0.0
1743177451365379,1743177451213379,-0.0022950473,0.0011729333,0.0029705274,-0.00041397533,-0.000348384,0.001050272,0.0,0.0,0.0,0.0,0.0,0.0,0.0,0.12318069,0.0,0.0,0.0,0.0,0.0011819005,-0.00076278683,-0.00019229949,0.0011819005,0.0063460213,-0.0028371708,-2.1100044e-05,0.0,0.0,0.0,0.0,0.0,0.0
1743177451373379,1743177451221379,-0.0022950473,0.0011729333,0.0029705274,-0.00041397533,-0.000348384,0.001050272,0.0,0.0,0.0,0.0,0.0,0.0,0.0,0.12318069,0.0,0.0,0.0,0.0,0.0011819005,-0.00076278683,-0.00019229949,0.0011819005,0.0014281496,-0.001148128,-1.0728836e-06,0.0,0.0,0.0,0.0,0.0,0.0
1743177451381379,1743177451229379,-0.0022950473,0.0011729333,0.0029705274,-0.00041397533,-0.000348384,0.001050272,0.0,0.0,0.0,0.0,0.0,0.0,0.0,0.12318069,0.0,0.0,0.0,0.0,0.0011819005,-0.00076278683,-0.00019229949,0.0011819005,-0.0032916616,-0.004310532,-1.6272068e-05,0.0,0.0,0.0,0.0,0.0,0.0
1743177451389379,1743177451237379,-0.0022950473,0.0011729333,0.0029705274,-0.00041397533,-0.000348384,0.001050272,0.0,0.0,0.0,0.0,0.0,0.0,0.0,0.11329104,0.0,0.0,0.0,0.0,0.0011819005,-0.00076278683,-0.00019229949,0.0011819005,0.0014934372,-0.0032270814,-5.6624413e-06,0.0,0.0,0.0,0.0,0.0,0.0
1743177451405379,1743177451253379,-0.0011406955,0.001250065,0.0031096563,-0.00035657908,-0.00027449982,0.00087688956,0.0,0.0,0.0,0.0,0.0,0.0,0.0,0.11329104,0.0,0.0,0.0,0.0,0.0011819005,-0.00076278683,-0.00019229949,0.0011819005,-0.0030433587,0.0004436936,-6.2584877e-06,0.0,0.0,0.0,0.0,0.0,0.0
1743177451413379,1743177451261379,-0.0011406955,0.001250065,0.0031096563,-0.00035657908,-0.00027449982,0.00087688956,0.0,0.0,0.0,0.0,0.0,0.0,0.0,0.11329104,0.0,0.0,0.0,0.0,0.0054449737,-0.001127376,0.0054449737,-0.004810661,-0.003659737,0.0013019298,-9.298325e-06,0.0,0.0,0.0,0.0,0.0,0.0
1743177451421379,1743177451269379,-0.0011406955,0.001250065,0.0031096563,-0.00035657908,-0.00027449982,0.00087688956,0.0,0.0,0.0,0.0,0.0,0.0,0.0,0.11329104,0.0,0.0,0.0,0.0,0.0054449737,-0.001127376,0.0054449737,-0.004810661,0.0029433179,-0.00025392513,-3.0398369e-06,0.0,0.0,0.0,0.0,0.0,0.0
1743177451429379,1743177451277379,-0.0011406955,0.001250065,0.0031096563,-0.00035657908,-0.00027449982,0.00087688956,0.0,0.0,0.0,0.0,0.0,0.0,0.0,0.11329104,0.0,0.0,0.0,0.0,0.0054449737,-0.001127376,0.0054449737,-0.004810661,0.0017969055,0.0019954545,-3.0994415e-06,0.0,0.0,0.0,0.0,0.0,0.0
1743177451445379,1743177451293379,-0.0011406955,0.001250065,0.0031096563,-0.00035657908,-0.00027449982,0.00087688956,0.0,0.0,0.0,0.0,0.0,0.0,0.0,-0.45526037,0.0,0.0,0.0,0.0,0.0054449737,-0.001127376,0.0054449737,-0.004810661,-0.0016642886,-5.6546938e-05,-2.3245811e-06,0.0,0.0,0.0,0.0,0.0,0.0
1743177451453379,1743177451301379,-0.0012442967,0.0013018693,0.0048661157,-0.00035807042,-0.00027495454,0.0016048113,0.0,0.0,0.0,0.0,0.0,0.0,0.0,-0.45526037,0.0,0.0,0.0,0.0,0.0054449737,-0.001127376,0.0054449737,-0.004810661,0.0030935728,-0.0024811137,-5.543232e-06,0.0,0.0,0.0,0.0,0.0,0.0
1743177451461379,1743177451309379,-0.0012442967,0.0013018693,0.0048661157,-0.00035807042,-0.00027495454,0.0016048113,0.0,0.0,0.0,0.0,0.0,0.0,0.0,-0.45526037,0.0,0.0,0.0,0.0,0.0054449737,-0.001127376,0.0054449737,-0.004810661,-0.0008491064,-0.0027738719,-4.053116e-06,0.0,0.0,0.0,0.0,0.0,0.0
1743177451469379,1743177451317379,-0.0012442967,0.0013018693,0.0048661157,-0.00035807042,-0.00027495454,0.0016048113,0.0,0.0,0.0,0.0,0.0,0.0,0.0,-0.45526037,0.0,0.0,0.0,0.0,0.0054449737,-0.001127376,0.0054449737,-0.004810661,-0.0009502976,-0.0042864936,-9.23872e-06,0.0,0.0,0.0,0.0,0.0,0.0
1743177451485379,1743177451333379,-0.0012442967,0.0013018693,0.0048661157,-0.00035807042,-0.00027495454,0.0016048113,0.0,0.0,0.0,0.0,0.0,0.0,0.0,-0.45526037,0.0,0.0,0.0,0.0,0.0017769188,-0.00020119979,0.0017769188,0.0016646683,-0.0004896666,-0.00077916175,-4.7683716e-07,0.0,0.0,0.0,0.0,0.0,0.0
1743177451493379,1743177451341379,-0.0012442967,0.0013018693,0.0048661157,-0.00035807042,-0.00027495454,0.0016048113,0.0,0.0,0.0,0.0,0.0,0.0,0.0,0.17589985,0.0,0.0,0.0,0.0,0.0017769188,-0.00020119979,0.0017769188,0.0016646683,0.004671973,9.836513e-06,-8.940697e-06,0.0,0.0,0.0,0.0,0.0,0.0
1743177451501379,1743177451349379,-0.0012442967,0.0013018693,0.0048661157,-0.00035807042,-0.00027495454,0.0016048113,0.0,0.0,0.0,0.0,0.0,0.0,0.0,0.17589985,0.0,0.0,0.0,0.0,0.0017769188,-0.00020119979,0.0017769188,0.0016646683,0.003347285,-0.0032395592,-8.940697e-06,0.0,0.0,0.0,0.0,0.0,0.0
1743177451509379,1743177451357379,3.0205498e-05,0.0018036943,0.0041798204,-0.0003201406,-0.00024998843,0.0014147451,0.0,0.0,0.0,0.0,0.0,0.0,0.0,0.17589985,0.0,0.0,0.0,0.0,0.0017769188,-0.00020119979,0.0017769188,0.0016646683,0.0016939761,-0.0035068588,-6.3180923e-06,0.0,0.0,0.0,0.0,0.0,0.0
1743177451525379,1743177451373379,3.0205498e-05,0.0018036943,0.0041798204,-0.0003201406,-0.00024998843,0.0014147451,0.0,0.0,0.0,0.0,0.0,0.0,0.0,0.17589985,0.0,0.0,0.0,0.0,0.0017769188,-0.00020119979,0.0017769188,0.0016646683,-0.0008116297,0.003406935,-6.6161156e-06,0.0,0.0,0.0,0.0,0.0,0.0
1743177451533379,1743177451381379,3.0205498e-05,0.0018036943,0.0041798204,-0.0003201406,-0.00024998843,0.0014147451,0.0,0.0,0.0,0.0,0.0,0.0,0.0,0.17589985,0.0,0.0,0.0,0.0,0.0017769188,-0.00020119979,0.0017769188,0.0016646683,-0.0042184414,0.0024069354,-1.2874603e-05,0.0,0.0,0.0,0.0,0.0,0.0
1743177451541379,1743177451389379,3.0205498e-05,0.0018036943,0.0041798204,-0.0003201406,-0.00024998843,0.0014147451,0.0,0.0,0.0,0.0,0.0,0.0,0.0,-0.32251796,0.0,0.0,0.0,0.0,0.0017769188,-0.00020119979,0.0017769188,0.0016646683,-0.002769533,8.321123e-05,-4.887581e-06,0.0,0.0,0.0,0.0,0.0,0.0
1743177451549379,1743177451397379,3.0205498e-05,0.0018036943,0.0041798204,-0.0003201406,-0.00024998843,0.0014147451,0.0,0.0,0.0,0.0,0.0,0.0,0.0,-0.32251796,0.0,0.0,0.0,0.0,0.0032658267,0.0032658267,0.0014555007,0.0013516843,0.0009815162,0.0034322962,-5.722046e-06,0.0,0.0,0.0,0.0,0.0,0.0
1743177451565379,1743177451413379,-0.0004550929,0.0011042869,0.0047365874,-0.0003265659,-0.0002520291,0.0019221865,0.0,0.0,0.0,0.0,0.0,0.0,0.0,-0.32251796,0.0,0.0,0.0,0.0,0.0032658267,0.0032658267,0.0014555007,0.0013516843,-0.00382582,-0.002251703,-1.1920929e-05,0.0,0.0,0.0,0.0,0.0,0.0
1743177451573379,1743177451421379,-0.0004550929,0.0011042869,0.0047365874,-0.0003265659,-0.0002520291,0.0019221865,0.0,0.0,0.0,0.0,0.0,0.0,0.0,-0.32251796,0.0,0.0,0.0,0.0,0.0032658267,0.0032658267,0.0014555007,0.0013516843,-0.0030893842,0.0007431821,-6.4969063e-06,0.0,0.0,0.0,0.0,0.0,0.0
1743177451581379,1743177451429379,-0.0004550929,0.0011042869,0.0047365874,-0.0003265659,-0.0002520291,0.0019221865,0.0,0.0,0.0,0.0,0.0,0.0,0.0,-0.32251796,0.0,0.0,0.0,0.0,0.0032658267,0.0032658267,0.0014555007,0.0013516843,0.002931956,-0.003952536,-1.1205673e-05,0.0,0.0,0.0,0.0,0.0,0.0
1743177451589379,1743177451437379,-0.0004550929,0.0011042869,0.0047365874,-0.0003265659,-0.0002520291,0.0019221865,0.0,0.0,0.0,0.0,0.0,0.0,0.0,-0.32251796,0.0,0.0,0.0,0.0,0.0032658267,0.0032658267,0.0014555007,0.0013516843,-0.00042216713,-0.003021798,-5.6028366e-06,0.0,0.0,0.0,0.0,0.0,0.0
1743177451605379,1743177451453379,-0.0004550929,0.0011042869,0.0047365874,-0.0003265659,-0.0002520291,0.0019221865,0.0,0.0,0.0,0.0,0.0,0.0,0.0,0.07334348,0.0,0.0,0.0,0.0,0.0032658267,0.0032658267,0.0014555007,0.0013516843,0.00034426874,0.0032338027,-4.351139e-06,0.0,0.0,0.0,0.0,0.0,0.0
1743177451613379,1743177451461379,-0.00012262829,0.00038469167,0.005534649,-0.00030058247,-0.00022860864,0.0018579559,0.0,0.0,0.0,0.0,0.0,0.0,0.0,0.07334348,0.0,0.0,0.0,0.0,0.0032658267,0.0032658267,0.0014555007,0.0013516843,-0.0028701567,0.001713449,-6.914139e-06,0.0,0.0,0.0,0.0,0.0,0.0
1743177451621379,1743177451469379,-0.00012262829,0.00038469167,0.005534649,-0.00030058247,-0.00022860864,0.0018579559,0.0,0.0,0.0,0.0,0.0,0.0,0.0,0.07334348,0.0,0.0,0.0,0.0,0.002312988,0.00050112326,-0.001155749,0.002312988,0.00093082944,0.0009979128,-1.1920929e-07,0.0,0.0,0.0,0.0,0.0,0.0
1743177451629379,1743177451477379,-0.00012262829,0.00038469167,0.005534649,-0.00030058247,-0.00022860864,0.0018579559,0.0,0.0,0.0,0.0,0.0,0.0,0.0,0.07334348,0.0,0.0,0.0,0.0,0.002312988,0.00050112326,-0.001155749,0.002312988,0.0019040874,-0.0028075045,-5.3048134e-06,0.0,0.0,0.0,0.0,0.0,0.0
1743177451645379,1743177451493379,-0.00012262829,0.00038469167,0.005534649,-0.00030058247,-0.00022860864,0.0018579559,0.0,0.0,0.0,0.0,0.0,0.0,0.0,-0.14764112,0.0,0.0,0.0,0.0,0.002312988,0.00050112326,-0.001155749,0.002312988,0.00144054,-0.0037327243,-7.688999e-06,0.0,0.0,0.0,0.0,0.0,0.0
1743177451653379,1743177451501379,-0.00012262829,0.00038469167,0.005534649,-0.00030058247,-0.00022860864,0.0018579559,0.0,0.0,0.0,0.0,0.0,0.0,0.0,-0.14764112,0.0,0.0,0.0,0.0,0.002312988,0.00050112326,-0.001155749,0.002312988,-0.0005147185,-0.004264906,-1.0192394e-05,0.0,0.0,0.0,0.0,0.0,0.0
1743177451661379,1743177451509379,-0.00934922,0.00075176137,0.005134769,-0.00027136685,-0.00020135519,0.0020957794,0.0,0.0,0.0,0.0,0.0,0.0,0.0,-0.14764112,0.0,0.0,0.0,0.0,0.002312988,0.00050112326,-0.001155749,0.002312988,-0.0009640123,0.0003964153,-1.1324883e-06,0.0,0.0,0.0,0.0,0.0,0.0
1743177451669379,1743177451517379,-0.00934922,0.00075176137,0.005134769,-0.00027136685,-0.00020135519,0.0020957794,0.0,0.0,0.0,0.0,0.0,0.0,0.0,-0.14764112,0.0,0.0,0.0,0.0,0.002312988,0.00050112326,-0.001155749,0.002312988,0.0017119299,-0.00077737303,-9.536743e-07,0.0,0.0,0.0,0.0,0.0,0.0
1743177451685379,1743177451533379,-0.00934922,0.00075176137,0.005134769,-0.00027136685,-0.00020135519,0.0020957794,0.0,0.0,0.0,0.0,0.0,0.0,0.0,-0.14764112,0.0,0.0,0.0,0.0,0.00019437075,-0.0026907993,-0.003154248,0.00019437075,0.00081013766,-0.0016446041,-1.3113022e-06,0.0,0.0,0.0,0.0,0.0,0.0
1743177451693379,1743177451541379,-0.00934922,0.00075176137,0.005134769,-0.00027136685,-0.00020135519,0.0020957794,0.0,0.0,0.0,0.0,0.0,0.0,0.0,-0.14764112,0.0,0.0,0.0,0.0,0.00019437075,-0.0026907993,-0.003154248,0.00019437075,0.0014091274,-0.00013904048,5.9604645e-08,0.0,0.0,0.0,0.0,0.0,0.0
1743177451701379,1743177451549379,-0.00934922,0.00075176137,0.005134769,-0.00027136685,-0.00020135519,0.0020957794,0.0,0.0,0.0,0.0,0.0,0.0,0.0,0.40240705,0.0,0.0,0.0,0.0,0.00019437075,-0.0026907993,-0.003154248,0.00019437075,-0.001419233,0.00082632416,-2.2649765e-06,0.0,0.0,0.0,0.0,0.0,0.0
1743177451709379,1743177451557379,-0.00934922,0.00075176137,0.005134769,-0.00027136685,-0.00020135519,0.0020957794,0.0,0.0,0.0,0.0,0.0,0.0,0.0,0.40240705,0.0,0.0,0.0,0.0,0.00019437075,-0.0026907993,-0.003154248,0.00019437075,-0.0038151997,0.0015742315,-1.1026859e-05,0.0,0.0,0.0,0.0,0.0,0.0
1743177451725379,1743177451573379,0.0013750773,0.0011287341,0.0050714836,0.00025146754,-0.00016491955,0.0015620799,0.0,0.0,0.0,0.0,0.0,0.0,0.0,0.40240705,0.0,0.0,0.0,0.0,0.00019437075,-0.0026907993,-0.003154248,0.00019437075,0.0020943703,0.0021438762,-2.503395e-06,0.0,0.0,0.0,0.0,0.0,0.0
1743177451733379,1743177451581379,0.0013750773,0.0011287341,0.0050714836,0.00025146754,-0.00016491955,0.0015620799,0.0,0.0,0.0,0.0,0.0,0.0,0.0,0.40240705,0.0,0.0,0.0,0.0,0.00019437075,-0.0026907993,-0.003154248,0.00019437075,0.0026523704,0.00029544887,-1.3113022e-06,0.0,0.0,0.0,0.0,0.0,0.0
1743177451741379,1743177451589379,0.0013750773,0.0011287341,0.0050714836,0.00025146754,-0.00016491955,0.0015620799,0.0,0.0,0.0,0.0,0.0,0.0,0.0,0.40240705,0.0,0.0,0.0,0.0,0.00019437075,-0.0026907993,-0.003154248,0.00019437075,0.0033624056,-0.0040919636,-1.2040138e-05,0.0,0.0,0.0,0.0,0.0,0.0
1743177451749379,1743177451597379,0.0013750773,0.0011287341,0.0050714836,0.00025146754,-0.00016491955,0.0015620799,0.0,0.0,0.0,0.0,0.0,0.0,0.0,0.1846282,0.0,0.0,0.0,0.0,0.00019437075,-0.0026907993,-0.003154248,0.00019437075,0.0040216427,-0.0025761721,-9.298325e-06,0.0,0.0,0.0,0.0,0.0,0.0
1743177451765379,1743177451613379,0.0018223565,0.0020404917,0.004853897,0.00029205024,-0.00015787043,0.00030643353,0.0,0.0,0.0,0.0,0.0,0.0,0.0,0.1846282,0.0,0.0,0.0,0.0,0.000579685,0.00049504923,-0.0006440282,0.000579685,0.0016270579,0.0006023367,-6.556511e-07,0.0,0.0,0.0,0.0,0.0,0.0
1743177451773379,1743177451621379,0.0018223565,0.0020404917,0.004853897,0.00029205024,-0.00015787043,0.00030643353,0.0,0.0,0.0,0.0,0.0,0.0,0.0,0.1846282,0.0,0.0,0.0,0.0,0.000579685,0.00049504923,-0.0006440282,0.000579685,0.0006886919,0.001724115,-1.1920929e-06,0.0,0.0,0.0,0.0,0.0,0.0
1743177451781379,1743177451629379,0.0018223565,0.0020404917,0.004853897,0.00029205024,-0.00015787043,0.00030643353,0.0,0.0,0.0,0.0,0.0,0.0,0.0,0.1846282,0.0,0.0,0.0,0.0,0.000579685,0.00049504923,-0.0006440282,0.000579685,0.0005363154,-0.00087458186,-1.7881393e-07,0.0,0.0,0.0,0.0,0.0,0.0
1743177451789379,1743177451637379,0.0018223565,0.0020404917,0.004853897,0.00029205024,-0.00015787043,0.00030643353,0.0,0.0,0.0,0.0,0.0,0.0,0.0,0.1846282,0.0,0.0,0.0,0.0,0.000579685,0.00049504923,-0.0006440282,0.000579685,0.003018029,1.4449159e-05,-2.9802322e-06,0.0,0.0,0.0,0.0,0.0,0.0
1743177451805379,1743177451653379,0.0018223565,0.0020404917,0.004853897,0.00029205024,-0.00015787043,0.00030643353,0.0,0.0,0.0,0.0,0.0,0.0,0.0,0.17917867,0.0,0.0,0.0,0.0,0.000579685,0.00049504923,-0.0006440282,0.000579685,0.0012072944,0.00063088496,-1.1920929e-07,0.0,0.0,0.0,0.0,0.0,0.0
1743177451813379,1743177451661379,0.0018223565,0.0020404917,0.004853897,0.00029205024,-0.00015787043,0.00030643353,0.0,0.0,0.0,0.0,0.0,0.0,0.0,0.17917867,0.0,0.0,0.0,0.0,0.000579685,0.00049504923,-0.0006440282,0.000579685,-0.0040500457,0.0039149234,-1.7642975e-05,0.0,0.0,0.0,0.0,0.0,0.0
1743177451821379,1743177451669379,0.0010780155,0.0018455433,0.0055458094,0.0002791634,-0.00013575035,0.0011210763,0.0,0.0,0.0,0.0,0.0,0.0,0.0,0.17917867,0.0,0.0,0.0,0.0,0.0071803033,0.000619079,0.0053788275,0.0071803033,0.0014073779,0.0019266189,-1.6093254e-06,0.0,0.0,0.0,0.0,0.0,0.0
1743177451829379,1743177451677379,0.0010780155,0.0018455433,0.0055458094,0.0002791634,-0.00013575035,0.0011210763,0.0,0.0,0.0,0.0,0.0,0.0,0.0,0.17917867,0.0,0.0,0.0,0.0,0.0071803033,0.000619079,0.0053788275,0.0071803033,-0.00249835,0.0006229759,-4.4703484e-06,0.0,0.0,0.0,0.0,0.0,0.0
1743177451845379,1743177451693379,0.0010780155,0.0018455433,0.0055458094,0.0002791634,-0.00013575035,0.0011210763,0.0,0.0,0.0,0.0,0.0,0.0,0.0,0.17917867,0.0,0.0,0.0,0.0,0.0071803033,0.000619079,0.0053788275,0.0071803033,-0.0020913184,-0.0013959672,-5.00679e-06,0.0,0.0,0.0,0.0,0.0,0.0
1743177451853379,1743177451701379,0.0010780155,0.0018455433,0.0055458094,0.0002791634,-0.00013575035,0.0011210763,0.0,0.0,0.0,0.0,0.0,0.0,0.0,-0.1596447,0.0,0.0,0.0,0.0,0.0071803033,0.000619079,0.0053788275,0.0071803033,0.0015610763,-0.0013627307,-1.9073486e-06,0.0,0.0,0.0,0.0,0.0,0.0
1743177451861379,1743177451709379,0.0010780155,0.0018455433,0.0055458094,0.0002791634,-0.00013575035,0.0011210763,0.0,0.0,0.0,0.0,0.0,0.0,0.0,-0.1596447,0.0,0.0,0.0,0.0,0.0071803033,0.000619079,0.0053788275,0.0071803033,-0.0007077848,0.00084769767,-5.9604645e-07,0.0,0.0,0.0,0.0,0.0,0.0
1743177451869379,1743177451717379,0.0011602788,0.0011945067,0.0056750476,0.00027079036,-0.00015240972,0.0014145938,0.0,0.0,0.0,0.0,0.0,0.0,0.0,-0.1596447,0.0,0.0,0.0,0.0,0.0071803033,0.000619079,0.0053788275,0.0071803033,0.00031697378,-0.0005630053,-2.3841858e-07,0.0,0.0,0.0,0.0,0.0,0.0
1743177451885379,1743177451733379,0.0011602788,0.0011945067,0.0056750476,0.00027079036,-0.00015240972,0.0014145938,0.0,0.0,0.0,0.0,0.0,0.0,0.0,-0.1596447,0.0,0.0,0.0,0.0,0.0071803033,0.000619079,0.0053788275,0.0071803033,0.001930295,-0.002319228,-4.827976e-06,0.0,0.0,0.0,0.0,0.0,0.0
