timestamp,timestamp_sample,control[0],control[1],control[2],control[3],control[4],control[5],control[6],control[7],control[8],control[9],control[10],control[11],reversible_flags
1743177449813379,1743177449813379,0.0,0.002,0.0,0.0019999996,nan,nan,nan,nan,nan,nan,nan,nan,0
1743177449817379,1743177449817379,0.0,0.0019999999,0.0,0.0019999994,nan,nan,nan,nan,nan,nan,nan,nan,0
1743177449913379,1743177449913379,0.00049476465,0.0018406343,0.0013792212,0.0002853796,nan,nan,nan,nan,nan,nan,nan,nan,0
1743177450013379,1743177450013379,0.0019999999,0.0,0.0019999999,0.0,nan,nan,nan,nan,nan,nan,nan,nan,0
1743177450113379,1743177450113379,0.0010798164,0.0,0.00046009198,0.0024600923,nan,nan,nan,nan,nan,nan,nan,nan,0
1743177450213379,1743177450213379,0.0020000003,0.0,0.0020000003,0.0,nan,nan,nan,nan,nan,nan,nan,nan,0
1743177450313379,1743177450313379,0.0019999999,0.0,0.0019999999,0.0,nan,nan,nan,nan,nan,nan,nan,nan,0
1743177450413379,1743177450413379,0.0019999999,0.0,0.0018166191,0.00018338079,nan,nan,nan,nan,nan,nan,nan,nan,0
1743177450513379,1743177450513379,0.0,0.0019999999,1.1641532e-10,0.0019999999,nan,nan,nan,nan,nan,nan,nan,nan,0
1743177450613379,1743177450613379,0.0019999999,0.0,0.0019999994,0.0,nan,nan,nan,nan,nan,nan,nan,nan,0
1743177450713379,1743177450713379,0.0,0.0019999994,0.0,0.0019999994,nan,nan,nan,nan,nan,nan,nan,nan,0
1743177450813379,1743177450813379,0.0014825081,6.018672e-06,0.0022557364,0.00025573646,nan,nan,nan,nan,nan,nan,nan,nan,0
1743177450913379,1743177450913379,0.00075305573,0.0011791283,0.0020339077,3.390791e-05,nan,nan,nan,nan,nan,nan,nan,nan,0
1743177451013379,1743177451013379,0.002,0.0,0.0019999999,0.0,nan,nan,nan,nan,nan,nan,nan,nan,0
1743177451113379,1743177451113379,0.00023672887,0.00059606734,0.0025836017,0.0005836018,nan,nan,nan,nan,nan,nan,nan,nan,0
1743177451213379,1743177451213379,0.0014963559,0.0,0.0020070632,0.0004965806,nan,nan,nan,nan,nan,nan,nan,nan,0
1743177451313379,1743177451313379,0.0019999999,0.0,0.0019999999,1.1641532e-10,nan,nan,nan,nan,nan,nan,nan,nan,0
1743177451413379,1743177451413379,0.0,0.0019999996,0.0,0.0019999996,nan,nan,nan,nan,nan,nan,nan,nan,0
1743177451513379,1743177451513379,0.0,0.0019999999,0.0007025025,0.0012974974,nan,nan,nan,nan,nan,nan,nan,nan,0
1743177451613379,1743177451613379,0.00028053022,0.00228053,6.7514105e-05,0.0013714253,nan,nan,nan,nan,nan,nan,nan,nan,0
1743177451713379,1743177451713379,0.0018676027,0.000833189,0.00048661776,0.00081259036,nan,nan,nan,nan,nan,nan,nan,nan,0
1743177451813379,1743177451813379,5.820766e-11,0.0019999999,0.0,0.0019999999,nan,nan,nan,nan,nan,nan,nan,nan,0
1743177451913379,1743177451913379,0.0019999996,0.0,0.0019999996,0.0,nan,nan,nan,nan,nan,nan,nan,nan,0
1743177452013379,1743177452013379,0.0019999999,0.0,0.0019999999,0.0,nan,nan,nan,nan,nan,nan,nan,nan,0
1743177452113379,1743177452113379,0.0019999996,0.0,0.0019999996,0.0,nan,nan,nan,nan,nan,nan,nan,nan,0
1743177452213379,1743177452213379,0.0019999999,0.0,0.0019999999,0.0,nan,nan,nan,nan,nan,nan,nan,nan,0
1743177452313379,1743177452313379,0.00077929103,0.001484193,0.001398588,0.00033792772,nan,nan,nan,nan,nan,nan,nan,nan,0
1743177452413379,1743177452413379,0.0,0.0019999999,0.0,0.0019999999,nan,nan,nan,nan,nan,nan,nan,nan,0
1743177452513379,1743177452513379,0.0019999999,1.1641532e-10,0.0019999999,0.0,nan,nan,nan,nan,nan,nan,nan,nan,0
1743177452613379,1743177452613379,0.0010289066,0.00019315607,0.00048766297,0.002290274,nan,nan,nan,nan,nan,nan,nan,nan,0
1743177452713379,1743177452713379,2.350063e-05,0.0020235004,0.0013102874,0.0006427112,nan,nan,nan,nan,nan,nan,nan,nan,0
1743177452813379,1743177452813379,0.0019999999,0.0,0.0019999999,0.0,nan,nan,nan,nan,nan,nan,nan,nan,0
1743177452913379,1743177452913379,0.0020000003,4.656613e-10,0.0019999994,0.0,nan,nan,nan,nan,nan,nan,nan,nan,0
1743177453013379,1743177453013379,0.0,0.002,0.0,0.0019999999,nan,nan,nan,nan,nan,nan,nan,nan,0
1743177453113379,1743177453113379,0.0019999999,0.0,0.0019999999,0.0,nan,nan,nan,nan,nan,nan,nan,nan,0
1743177453213379,1743177453213379,0.0,0.0019999996,0.0,0.0019999999,nan,nan,nan,nan,nan,nan,nan,nan,0
1743177453313379,1743177453313379,0.0019999999,0.0,0.0019999999,0.0,nan,nan,nan,nan,nan,nan,nan,nan,0
1743177453413379,1743177453413379,0.0019999999,0.0,0.0019999999,0.0,nan,nan,nan,nan,nan,nan,nan,nan,0
1743177453513379,1743177453513379,0.0,0.0019999999,0.0,0.0019999999,nan,nan,nan,nan,nan,nan,nan,nan,0
1743177453613379,1743177453613379,0.002,0.0,0.0019999999,0.0,nan,nan,nan,nan,nan,nan,nan,nan,0
1743177453713379,1743177453713379,0.0,0.0019999999,1.0600779e-06,0.0019989398,nan,nan,nan,nan,nan,nan,nan,nan,0
1743177453813379,1743177453813379,0.0,0.0019999999,0.0,0.0019999999,nan,nan,nan,nan,nan,nan,nan,nan,0
1743177453913379,1743177453913379,0.0,0.0019999999,0.0,0.002,nan,nan,nan,nan,nan,nan,nan,nan,0
1743177454013379,1743177454013379,0.0,0.0019999999,0.0,0.0019999999,nan,nan,nan,nan,nan,nan,nan,nan,0
1743177454113379,1743177454113379,0.0,0.002,0.0,0.002,nan,nan,nan,nan,nan,nan,nan,nan,0
1743177454213379,1743177454213379,0.00024071452,0.0006238139,0.0022386848,0.0008967865,nan,nan,nan,nan,nan,nan,nan,nan,0
1743177454313379,1743177454313379,0.0019999996,0.0,0.0019999996,0.0,nan,nan,nan,nan,nan,nan,nan,nan,0
1743177454413379,1743177454413379,0.0007574947,0.00042389534,0.0018652091,0.0009534005,nan,nan,nan,nan,nan,nan,nan,nan,0
1743177454513379,1743177454513379,0.0019999999,0.0,0.0019999999,0.0,nan,nan,nan,nan,nan,nan,nan,nan,0
1743177454613379,1743177454613379,0.0019999994,0.0,0.0019999994,0.0,nan,nan,nan,nan,nan,nan,nan,nan,0
1743177454713379,1743177454713379,0.0,0.0019999999,0.0,0.0019999999,nan,nan,nan,nan,nan,nan,nan,nan,0
1743177454813379,1743177454813379,0.0007826343,0.0011500857,3.3639906e-05,0.0020336397,nan,nan,nan,nan,nan,nan,nan,nan,0
1743177454913379,1743177454913379,0.0,0.0019999994,0.0,0.0019999994,nan,nan,nan,nan,nan,nan,nan,nan,0
1743177455013379,1743177455013379,0.00093967794,0.0008488472,0.0019304807,0.00028099387,nan,nan,nan,nan,nan,nan,nan,nan,0
1743177455113379,1743177455113379,0.0018894728,0.00051575387,0.0003352368,0.0012595362,nan,nan,nan,nan,nan,nan,nan,nan,0
1743177455213379,1743177455213379,0.0,0.0019999999,0.0,0.0019999999,nan,nan,nan,nan,nan,nan,nan,nan,0
1743177455313379,1743177455313379,0.0016482812,0.0008679676,0.0011981877,0.00028556332,nan,nan,nan,nan,nan,nan,nan,nan,0
1743177455413379,1743177455413379,0.0019999999,0.0,0.0019999999,0.0,nan,nan,nan,nan,nan,nan,nan,nan,0
1743177455513379,1743177455513379,0.0019999999,0.0,0.0019999999,0.0,nan,nan,nan,nan,nan,nan,nan,nan,0
1743177455613379,1743177455613379,0.017965103,0.013702007,0.014632504,0.016479373,nan,nan,nan,nan,nan,nan,nan,nan,0
1743177455713379,1743177455713379,0.036341056,0.02946123,0.030200485,0.033469398,nan,nan,nan,nan,nan,nan,nan,nan,0
1743177455813379,1743177455813379,0.05633194,0.048167735,0.05326229,0.052355956,nan,nan,nan,nan,nan,nan,nan,nan,0
1743177455913379,1743177455913379,0.07300453,0.07316193,0.06966214,0.078041136,nan,nan,nan,nan,nan,nan,nan,nan,0
1743177456013379,1743177456013379,0.09639103,0.09992451,0.09873529,0.097620755,nan,nan,nan,nan,nan,nan,nan,nan,0
1743177456113379,1743177456113379,0.12448727,0.12379099,0.12279523,0.122863226,nan,nan,nan,nan,nan,nan,nan,nan,0
1743177456213379,1743177456213379,0.1553538,0.1501757,0.15382294,0.15152787,nan,nan,nan,nan,nan,nan,nan,nan,0
1743177456313379,1743177456313379,0.18377936,0.18544564,0.18454532,0.18448882,nan,nan,nan,nan,nan,nan,nan,nan,0
1743177456413379,1743177456413379,0.2100262,0.22098774,0.21367884,0.21866399,nan,nan,nan,nan,nan,nan,nan,nan,0
1743177456513379,1743177456513379,0.24780047,0.25016063,0.24665487,0.2514382,nan,nan,nan,nan,nan,nan,nan,nan,0
1743177456613379,1743177456613379,0.2894389,0.28614157,0.285472,0.28948703,nan,nan,nan,nan,nan,nan,nan,nan,0
1743177456713379,1743177456713379,0.32614335,0.3237144,0.32841268,0.32274994,nan,nan,nan,nan,nan,nan,nan,nan,0
1743177456813379,1743177456813379,0.36720395,0.36900705,0.36824962,0.3694187,nan,nan,nan,nan,nan,nan,nan,nan,0
1743177456913379,1743177456913379,0.38475314,0.38549682,0.38368246,0.38670567,nan,nan,nan,nan,nan,nan,nan,nan,0
1743177457013379,1743177457013379,0.39869264,0.39831796,0.39775762,0.39743635,nan,nan,nan,nan,nan,nan,nan,nan,0
1743177457113379,1743177457113379,0.41136926,0.4101963,0.40985766,0.40966907,nan,nan,nan,nan,nan,nan,nan,nan,0
1743177457213379,1743177457213379,0.42408398,0.42429045,0.4231752,0.42484853,nan,nan,nan,nan,nan,nan,nan,nan,0
1743177457313379,1743177457313379,0.4354175,0.44004562,0.4378048,0.43647817,nan,nan,nan,nan,nan,nan,nan,nan,0
1743177457413379,1743177457413379,0.4507217,0.4558899,0.45292652,0.45350128,nan,nan,nan,nan,nan,nan,nan,nan,0
1743177457513379,1743177457513379,0.4695927,0.46489102,0.47196513,0.4628973,nan,nan,nan,nan,nan,nan,nan,nan,0
1743177457613379,1743177457613379,0.4837884,0.48347327,0.48344928,0.48487824,nan,nan,nan,nan,nan,nan,nan,nan,0
1743177457713379,1743177457713379,0.5013339,0.4968107,0.5005137,0.49761406,nan,nan,nan,nan,nan,nan,nan,nan,0
1743177457813379,1743177457813379,0.5154034,0.51897264,0.5173731,0.51772773,nan,nan,nan,nan,nan,nan,nan,nan,0
1743177457913379,1743177457913379,0.5322385,0.535419,0.531591,0.53535193,nan,nan,nan,nan,nan,nan,nan,nan,0
1743177458013379,1743177458013379,0.56130946,0.5263258,0.5494273,0.53825665,nan,nan,nan,nan,nan,nan,nan,nan,0
1743177458113379,1743177458113379,0.5470182,0.5292407,0.52833027,0.54859453,nan,nan,nan,nan,nan,nan,nan,nan,0
1743177458213379,1743177458213379,0.5370037,0.5366275,0.53597575,0.539439,nan,nan,nan,nan,nan,nan,nan,nan,0
1743177458313379,1743177458313379,0.5304469,0.54071736,0.5353965,0.53535193,nan,nan,nan,nan,nan,nan,nan,nan,0
1743177458413379,1743177458413379,0.53666437,0.53615665,0.5349247,0.53715485,nan,nan,nan,nan,nan,nan,nan,nan,0
1743177458513379,1743177458513379,0.5353775,0.5345658,0.5330939,0.53542244,nan,nan,nan,nan,nan,nan,nan,nan,0
1743177458613379,1743177458613379,0.5766173,0.5785008,0.5781375,0.5752249,nan,nan,nan,nan,nan,nan,nan,nan,0
1743177458713379,1743177458713379,0.58548087,0.58672816,0.58706445,0.5858787,nan,nan,nan,nan,nan,nan,nan,nan,0
1743177458813379,1743177458813379,0.591132,0.5879405,0.59017366,0.59036225,nan,nan,nan,nan,nan,nan,nan,nan,0
1743177458913379,1743177458913379,0.5916669,0.598198,0.59449124,0.5963309,nan,nan,nan,nan,nan,nan,nan,nan,0
1743177459013379,1743177459013379,0.60665935,0.60032386,0.6062383,0.6010992,nan,nan,nan,nan,nan,nan,nan,nan,0
1743177459113379,1743177459113379,0.6151364,0.6104188,0.6142835,0.61038834,nan,nan,nan,nan,nan,nan,nan,nan,0
1743177459213379,1743177459213379,0.61364883,0.61929935,0.6160776,0.6143269,nan,nan,nan,nan,nan,nan,nan,nan,0
1743177459313379,1743177459313379,0.5757067,0.57810485,0.57457215,0.5791951,nan,nan,nan,nan,nan,nan,nan,nan,0
1743177459413379,1743177459413379,0.5525723,0.5489587,0.5532233,0.5494638,nan,nan,nan,nan,nan,nan,nan,nan,0
1743177459513379,1743177459513379,0.53696567,0.5427471,0.5405335,0.53972286,nan,nan,nan,nan,nan,nan,nan,nan,0
1743177459613379,1743177459613379,0.5306899,0.53523535,0.5309362,0.5359928,nan,nan,nan,nan,nan,nan,nan,nan,0
1743177459713379,1743177459713379,0.52773553,0.52523035,0.5275303,0.52662385,nan,nan,nan,nan,nan,nan,nan,nan,0
1743177459813379,1743177459813379,0.5167469,0.52083516,0.5162083,0.52201676,nan,nan,nan,nan,nan,nan,nan,nan,0
1743177459913379,1743177459913379,0.50949764,0.5116633,0.5120015,0.5101732,nan,nan,nan,nan,nan,nan,nan,nan,0
1743177460013379,1743177460013379,0.519891,0.5159346,0.51667845,0.51749706,nan,nan,nan,nan,nan,nan,nan,nan,0
1743177460113379,1743177460113379,0.52862006,0.531614,0.52654505,0.5333636,nan,nan,nan,nan,nan,nan,nan,nan,0
1743177460213379,1743177460213379,0.5314199,0.53890073,0.5339192,0.5363296,nan,nan,nan,nan,nan,nan,nan,nan,0
1743177460313379,1743177460313379,0.539888,0.52274156,0.53612614,0.52814233,nan,nan,nan,nan,nan,nan,nan,nan,0
1743177460413379,1743177460413379,0.52876085,0.5288854,0.52853584,0.52929306,nan,nan,nan,nan,nan,nan,nan,nan,0
1743177460513379,1743177460513379,0.52984375,0.5261871,0.52897334,0.5275234,nan,nan,nan,nan,nan,nan,nan,nan,0
1743177460613379,1743177460613379,0.5282811,0.52779555,0.52948713,0.52541935,nan,nan,nan,nan,nan,nan,nan,nan,0
1743177460713379,1743177460713379,0.5288021,0.52758986,0.5249972,0.5275834,nan,nan,nan,nan,nan,nan,nan,nan,0
1743177460813379,1743177460813379,0.5277855,0.52615184,0.5295668,0.52628785,nan,nan,nan,nan,nan,nan,nan,nan,0
1743177460913379,1743177460913379,0.52416277,0.5313282,0.52286726,0.5334324,nan,nan,nan,nan,nan,nan,nan,nan,0
1743177461013379,1743177461013379,0.5275188,0.52857715,0.5271686,0.52914387,nan,nan,nan,nan,nan,nan,nan,nan,0
1743177461113379,1743177461113379,0.52484757,0.5311025,0.52921593,0.52838373,nan,nan,nan,nan,nan,nan,nan,nan,0
1743177461213379,1743177461213379,0.52574736,0.5302183,0.5289265,0.5290178,nan,nan,nan,nan,nan,nan,nan,nan,0
1743177461313379,1743177461313379,0.528614,0.5286835,0.52926135,0.5287974,nan,nan,nan,nan,nan,nan,nan,nan,0
1743177461413379,1743177461413379,0.52615833,0.5303285,0.5288254,0.53019893,nan,nan,nan,nan,nan,nan,nan,nan,0
1743177461513379,1743177461513379,0.5312592,0.52655625,0.5298258,0.53082085,nan,nan,nan,nan,nan,nan,nan,nan,0
1743177461613379,1743177461613379,0.530494,0.52988803,0.5323557,0.52961177,nan,nan,nan,nan,nan,nan,nan,nan,0
1743177461713379,1743177461713379,0.5327008,0.5272658,0.5346325,0.52930397,nan,nan,nan,nan,nan,nan,nan,nan,0
1743177461813379,1743177461813379,0.5300714,0.5309428,0.533413,0.5334725,nan,nan,nan,nan,nan,nan,nan,nan,0
1743177461913379,1743177461913379,0.5325066,0.5282433,0.53648,0.53188354,nan,nan,nan,nan,nan,nan,nan,nan,0
1743177462013379,1743177462013379,0.53252614,0.5287725,0.5360949,0.5339942,nan,nan,nan,nan,nan,nan,nan,nan,0
1743177462113379,1743177462113379,0.53485584,0.52925587,0.5369152,0.53376377,nan,nan,nan,nan,nan,nan,nan,nan,0
1743177462213379,1743177462213379,0.5330115,0.5307329,0.53558266,0.5348885,nan,nan,nan,nan,nan,nan,nan,nan,0
1743177462313379,1743177462313379,0.5342498,0.53218496,0.5370123,0.53186077,nan,nan,nan,nan,nan,nan,nan,nan,0
1743177462413379,1743177462413379,0.5312032,0.53706676,0.5311371,0.53801,nan,nan,nan,nan,nan,nan,nan,nan,0
1743177462513379,1743177462513379,0.53800946,0.531853,0.5364787,0.53115505,nan,nan,nan,nan,nan,nan,nan,nan,0
1743177462613379,1743177462613379,0.53471315,0.5380156,0.53287435,0.5326432,nan,nan,nan,nan,nan,nan,nan,nan,0
1743177462713379,1743177462713379,0.5362454,0.53870994,0.5294766,0.5333428,nan,nan,nan,nan,nan,nan,nan,nan,0
1743177462813379,1743177462813379,0.53881896,0.53686047,0.52964306,0.53110254,nan,nan,nan,nan,nan,nan,nan,nan,0
1743177462913379,1743177462913379,0.54013157,0.53606725,0.5287616,0.53101087,nan,nan,nan,nan,nan,nan,nan,nan,0
1743177463013379,1743177463013379,0.53979456,0.53699553,0.52926457,0.53023374,nan,nan,nan,nan,nan,nan,nan,nan,0
1743177463113379,1743177463113379,0.54166806,0.5355067,0.53374135,0.52568436,nan,nan,nan,nan,nan,nan,nan,nan,0
1743177463213379,1743177463213379,0.5392552,0.53747123,0.5315442,0.52885747,nan,nan,nan,nan,nan,nan,nan,nan,0
1743177463313379,1743177463313379,0.5386135,0.53494257,0.53322667,0.5286564,nan,nan,nan,nan,nan,nan,nan,nan,0
1743177463413379,1743177463413379,0.53718305,0.5354576,0.5320782,0.5280338,nan,nan,nan,nan,nan,nan,nan,nan,0
1743177463513379,1743177463513379,0.53528833,0.53481543,0.53069323,0.5323631,nan,nan,nan,nan,nan,nan,nan,nan,0
1743177463613379,1743177463613379,0.5323621,0.53395784,0.532393,0.53499436,nan,nan,nan,nan,nan,nan,nan,nan,0
1743177463713379,1743177463713379,0.5300646,0.53433764,0.53343236,0.534467,nan,nan,nan,nan,nan,nan,nan,nan,0
1743177463813379,1743177463813379,0.53091085,0.5320864,0.5335811,0.53617746,nan,nan,nan,nan,nan,nan,nan,nan,0
1743177463913379,1743177463913379,0.5313334,0.5300763,0.5345351,0.53662807,nan,nan,nan,nan,nan,nan,nan,nan,0
1743177464013379,1743177464013379,0.5275773,0.53267825,0.5330379,0.5379944,nan,nan,nan,nan,nan,nan,nan,nan,0
1743177464113379,1743177464113379,0.5315948,0.52896565,0.53641516,0.5348727,nan,nan,nan,nan,nan,nan,nan,nan,0
1743177464213379,1743177464213379,0.53061867,0.5320054,0.53479326,0.536062,nan,nan,nan,nan,nan,nan,nan,nan,0
1743177464313379,1743177464313379,0.5324712,0.5303676,0.53551716,0.5341554,nan,nan,nan,nan,nan,nan,nan,nan,0
1743177464413379,1743177464413379,0.53368247,0.5302781,0.5382685,0.5302277,nan,nan,nan,nan,nan,nan,nan,nan,0
1743177464513379,1743177464513379,0.53487355,0.52973634,0.5336085,0.53414184,nan,nan,nan,nan,nan,nan,nan,nan,0
1743177464613379,1743177464613379,0.53335637,0.5309741,0.53592414,0.5312764,nan,nan,nan,nan,nan,nan,nan,nan,0
1743177464713379,1743177464713379,0.5320339,0.53371465,0.5327432,0.53388846,nan,nan,nan,nan,nan,nan,nan,nan,0
1743177464813379,1743177464813379,0.5318183,0.5343102,0.5323392,0.5319809,nan,nan,nan,nan,nan,nan,nan,nan,0
1743177464913379,1743177464913379,0.530865,0.53572315,0.5293989,0.5330355,nan,nan,nan,nan,nan,nan,nan,nan,0
1743177465013379,1743177465013379,0.5300734,0.5212939,0.5234019,0.5217584,nan,nan,nan,nan,nan,nan,nan,nan,0
1743177465113379,1743177465113379,0.50985205,0.5115689,0.5086356,0.5064997,nan,nan,nan,nan,nan,nan,nan,nan,0
1743177465213379,1743177465213379,0.5031977,0.5045888,0.50175613,0.5012494,nan,nan,nan,nan,nan,nan,nan,nan,0
1743177465313379,1743177465313379,0.51513594,0.5190769,0.51738083,0.51439106,nan,nan,nan,nan,nan,nan,nan,nan,0
1743177465413379,1743177465413379,0.53113866,0.528038,0.5310801,0.5297719,nan,nan,nan,nan,nan,nan,nan,nan,0
1743177465513379,1743177465513379,0.5368655,0.5329448,0.53444237,0.5368051,nan,nan,nan,nan,nan,nan,nan,nan,0
1743177465613379,1743177465613379,0.5250433,0.52608746,0.5278589,0.52988774,nan,nan,nan,nan,nan,nan,nan,nan,0
1743177465713379,1743177465713379,0.5013948,0.5033304,0.50756603,0.5051436,nan,nan,nan,nan,nan,nan,nan,nan,0
1743177465813379,1743177465813379,0.4914761,0.488723,0.4939846,0.4952514,nan,nan,nan,nan,nan,nan,nan,nan,0
1743177465913379,1743177465913379,0.48517206,0.48968568,0.48800024,0.49332735,nan,nan,nan,nan,nan,nan,nan,nan,0
1743177466013379,1743177466013379,0.486673,0.48918635,0.48727772,0.4917986,nan,nan,nan,nan,nan,nan,nan,nan,0
1743177466113379,1743177466113379,0.49001676,0.4890653,0.4890801,0.49213305,nan,nan,nan,nan,nan,nan,nan,nan,0
1743177466213379,1743177466213379,0.49357638,0.48820814,0.491731,0.4913082,nan,nan,nan,nan,nan,nan,nan,nan,0
1743177466313379,1743177466313379,0.49355048,0.4914984,0.49319628,0.49106357,nan,nan,nan,nan,nan,nan,nan,nan,0
1743177466413379,1743177466413379,0.49669445,0.49058527,0.49486917,0.49354923,nan,nan,nan,nan,nan,nan,nan,nan,0
1743177466513379,1743177466513379,0.4973212,0.4944564,0.4926538,0.49554825,nan,nan,nan,nan,nan,nan,nan,nan,0
1743177466613379,1743177466613379,0.49402598,0.49900535,0.49333078,0.49777174,nan,nan,nan,nan,nan,nan,nan,nan,0
1743177466713379,1743177466713379,0.49468634,0.4983808,0.49711204,0.49615002,nan,nan,nan,nan,nan,nan,nan,nan,0
1743177466813379,1743177466813379,0.497331,0.49638185,0.49648845,0.497711,nan,nan,nan,nan,nan,nan,nan,nan,0
1743177466913379,1743177466913379,0.4975532,0.49833515,0.49659178,0.49949542,nan,nan,nan,nan,nan,nan,nan,nan,0
1743177467013379,1743177467013379,0.49918297,0.49842992,0.49941248,0.49742877,nan,nan,nan,nan,nan,nan,nan,nan,0
1743177467113379,1743177467113379,0.4941796,0.5035412,0.49694926,0.501451,nan,nan,nan,nan,nan,nan,nan,nan,0
1743177467213379,1743177467213379,0.49853528,0.5014148,0.49795714,0.5021415,nan,nan,nan,nan,nan,nan,nan,nan,0
1743177467313379,1743177467313379,0.50344175,0.4986878,0.500762,0.49922687,nan,nan,nan,nan,nan,nan,nan,nan,0
1743177467413379,1743177467413379,0.50360066,0.49968582,0.50078124,0.5005931,nan,nan,nan,nan,nan,nan,nan,nan,0
1743177467513379,1743177467513379,0.5036601,0.49783075,0.4995981,0.50145525,nan,nan,nan,nan,nan,nan,nan,nan,0
1743177467613379,1743177467613379,0.49901938,0.5028863,0.4978443,0.5037157,nan,nan,nan,nan,nan,nan,nan,nan,0
1743177467713379,1743177467713379,0.5005042,0.50220245,0.5008902,0.5015635,nan,nan,nan,nan,nan,nan,nan,nan,0
1743177467813379,1743177467813379,0.5071656,0.49675554,0.50359637,0.49938276,nan,nan,nan,nan,nan,nan,nan,nan,0
1743177467913379,1743177467913379,0.5017865,0.5029583,0.50295615,0.5014405,nan,nan,nan,nan,nan,nan,nan,nan,0
1743177468013379,1743177468013379,0.50140625,0.5021954,0.50383276,0.50149626,nan,nan,nan,nan,nan,nan,nan,nan,0
1743177468113379,1743177468113379,0.5035906,0.49934697,0.50489765,0.50265115,nan,nan,nan,nan,nan,nan,nan,nan,0
1743177468213379,1743177468213379,0.50154656,0.5023379,0.5050666,0.5042779,nan,nan,nan,nan,nan,nan,nan,nan,0
1743177468313379,1743177468313379,0.50312483,0.5029235,0.50637245,0.5026616,nan,nan,nan,nan,nan,nan,nan,nan,0
1743177468413379,1743177468413379,0.50368905,0.5054592,0.50134665,0.50558597,nan,nan,nan,nan,nan,nan,nan,nan,0
1743177468513379,1743177468513379,0.50631434,0.5036306,0.5026756,0.50318307,nan,nan,nan,nan,nan,nan,nan,nan,0
1743177468613379,1743177468613379,0.50442487,0.5057439,0.5047923,0.502155,nan,nan,nan,nan,nan,nan,nan,nan,0
1743177468713379,1743177468713379,0.50622976,0.5043107,0.50486976,0.5026929,nan,nan,nan,nan,nan,nan,nan,nan,0
1743177468813379,1743177468813379,0.5070213,0.5043919,0.50671405,0.50224775,nan,nan,nan,nan,nan,nan,nan,nan,0
1743177468913379,1743177468913379,0.5032622,0.50827366,0.5024801,0.5057599,nan,nan,nan,nan,nan,nan,nan,nan,0
1743177469013379,1743177469013379,0.50428134,0.50766426,0.50103694,0.5080932,nan,nan,nan,nan,nan,nan,nan,nan,0
1743177469113379,1743177469113379,0.50835294,0.5046113,0.5069567,0.5026158,nan,nan,nan,nan,nan,nan,nan,nan,0
1743177469213379,1743177469213379,0.5015111,0.51032734,0.5057716,0.5072594,nan,nan,nan,nan,nan,nan,nan,nan,0
1743177469313379,1743177469313379,0.5080182,0.5045685,0.50902826,0.5045584,nan,nan,nan,nan,nan,nan,nan,nan,0
1743177469413379,1743177469413379,0.50814295,0.5056114,0.5065772,0.5073903,nan,nan,nan,nan,nan,nan,nan,nan,0
1743177469513379,1743177469513379,0.500836,0.5142076,0.5050218,0.5122963,nan,nan,nan,nan,nan,nan,nan,nan,0
1743177469613379,1743177469613379,0.5075096,0.5108838,0.51048523,0.50869447,nan,nan,nan,nan,nan,nan,nan,nan,0
1743177469713379,1743177469713379,0.51921475,0.4875449,0.4987769,0.50925446,nan,nan,nan,nan,nan,nan,nan,nan,0
1743177469813379,1743177469813379,0.50447375,0.50591296,0.51045096,0.50403035,nan,nan,nan,nan,nan,nan,nan,nan,0
1743177469913379,1743177469913379,0.5015826,0.51180077,0.51038027,0.5059838,nan,nan,nan,nan,nan,nan,nan,nan,0
1743177470013379,1743177470013379,0.5056556,0.5096099,0.5135439,0.50368637,nan,nan,nan,nan,nan,nan,nan,nan,0
1743177470113379,1743177470113379,0.54289883,0.558675,0.46091783,0.47599602,nan,nan,nan,nan,nan,nan,nan,nan,0
1743177470213379,1743177470213379,0.563109,0.5635449,0.45249254,0.4656834,nan,nan,nan,nan,nan,nan,nan,nan,0
1743177470313379,1743177470313379,0.5489666,0.5469033,0.47433585,0.47953433,nan,nan,nan,nan,nan,nan,nan,nan,0
1743177470413379,1743177470413379,0.5279038,0.52281535,0.5041393,0.5014441,nan,nan,nan,nan,nan,nan,nan,nan,0
1743177470513379,1743177470513379,0.50703114,0.50449175,0.53186375,0.52288586,nan,nan,nan,nan,nan,nan,nan,nan,0
1743177470613379,1743177470613379,0.49795288,0.48631305,0.5515312,0.5419481,nan,nan,nan,nan,nan,nan,nan,nan,0
1743177470713379,1743177470713379,0.49369493,0.4842725,0.5658176,0.558107,nan,nan,nan,nan,nan,nan,nan,nan,0
1743177470813379,1743177470813379,0.49363425,0.46849564,0.5739128,0.54416746,nan,nan,nan,nan,nan,nan,nan,nan,0
1743177470913379,1743177470913379,0.4801272,0.47201106,0.5572864,0.54530597,nan,nan,nan,nan,nan,nan,nan,nan,0
1743177471013379,1743177471013379,0.4787228,0.47874975,0.54473126,0.54396164,nan,nan,nan,nan,nan,nan,nan,nan,0
1743177471113379,1743177471113379,0.48670053,0.48450494,0.5390579,0.5328122,nan,nan,nan,nan,nan,nan,nan,nan,0
1743177471213379,1743177471213379,0.49895647,0.49070147,0.5244197,0.52344674,nan,nan,nan,nan,nan,nan,nan,nan,0
1743177471313379,1743177471313379,0.5064199,0.50266254,0.51133794,0.5128867,nan,nan,nan,nan,nan,nan,nan,nan,0
1743177471413379,1743177471413379,0.5148736,0.51425314,0.502912,0.4990336,nan,nan,nan,nan,nan,nan,nan,nan,0
1743177471513379,1743177471513379,0.52508384,0.5205805,0.49191073,0.49259546,nan,nan,nan,nan,nan,nan,nan,nan,0
1743177471613379,1743177471613379,0.5272724,0.5311317,0.48461503,0.48678774,nan,nan,nan,nan,nan,nan,nan,nan,0
1743177471713379,1743177471713379,0.5335849,0.532785,0.47994873,0.48430833,nan,nan,nan,nan,nan,nan,nan,nan,0
1743177471813379,1743177471813379,0.5347524,0.5342565,0.48265862,0.4809481,nan,nan,nan,nan,nan,nan,nan,nan,0
1743177471913379,1743177471913379,0.5335332,0.53325105,0.48456573,0.4848863,nan,nan,nan,nan,nan,nan,nan,nan,0
1743177472013379,1743177472013379,0.52218586,0.5406262,0.47929907,0.49915743,nan,nan,nan,nan,nan,nan,nan,nan,0
1743177472113379,1743177472113379,0.5276547,0.53258055,0.48838136,0.49782094,nan,nan,nan,nan,nan,nan,nan,nan,0
1743177472213379,1743177472213379,0.5243934,0.5306837,0.4969922,0.49725458,nan,nan,nan,nan,nan,nan,nan,nan,0
1743177472313379,1743177472313379,0.5244888,0.52000034,0.50213784,0.5049136,nan,nan,nan,nan,nan,nan,nan,nan,0
1743177472413379,1743177472413379,0.5134032,0.51587,0.51157916,0.5087209,nan,nan,nan,nan,nan,nan,nan,nan,0
1743177472513379,1743177472513379,0.5112168,0.50226766,0.5189675,0.51493776,nan,nan,nan,nan,nan,nan,nan,nan,0
1743177472613379,1743177472613379,0.5050346,0.49928635,0.52580345,0.5258317,nan,nan,nan,nan,nan,nan,nan,nan,0
1743177472713379,1743177472713379,0.49530572,0.4958424,0.5311602,0.52913696,nan,nan,nan,nan,nan,nan,nan,nan,0
1743177472813379,1743177472813379,0.48884282,0.49151525,0.5291087,0.53396446,nan,nan,nan,nan,nan,nan,nan,nan,0
1743177472913379,1743177472913379,0.48895752,0.48620117,0.5322196,0.5297337,nan,nan,nan,nan,nan,nan,nan,nan,0
1743177473013379,1743177473013379,0.48617262,0.48922366,0.5283066,0.53188443,nan,nan,nan,nan,nan,nan,nan,nan,0
1743177473113379,1743177473113379,0.49080363,0.49038246,0.5264429,0.52888715,nan,nan,nan,nan,nan,nan,nan,nan,0
1743177473213379,1743177473213379,0.4970943,0.49427858,0.524856,0.52164435,nan,nan,nan,nan,nan,nan,nan,nan,0
1743177473313379,1743177473313379,0.50005096,0.5027892,0.5195919,0.5176246,nan,nan,nan,nan,nan,nan,nan,nan,0
1743177473413379,1743177473413379,0.50244105,0.5048603,0.5121246,0.5203654,nan,nan,nan,nan,nan,nan,nan,nan,0
1743177473513379,1743177473513379,0.45374453,0.4334544,0.5585258,0.57136124,nan,nan,nan,nan,nan,nan,nan,nan,0
1743177473613379,1743177473613379,0.38177437,0.3776781,0.6263613,0.63238496,nan,nan,nan,nan,nan,nan,nan,nan,0
1743177473713379,1743177473713379,0.33243757,0.34226626,0.669552,0.6670826,nan,nan,nan,nan,nan,nan,nan,nan,0
1743177473813379,1743177473813379,0.30405283,0.3390169,0.6896905,0.6629013,nan,nan,nan,nan,nan,nan,nan,nan,0
1743177473913379,1743177473913379,0.3420506,0.34413368,0.6517377,0.6783837,nan,nan,nan,nan,nan,nan,nan,nan,0
1743177474013379,1743177474013379,0.3863662,0.3732106,0.6210668,0.63419724,nan,nan,nan,nan,nan,nan,nan,nan,0
1743177474113379,1743177474113379,0.42818365,0.43396696,0.58152056,0.5860673,nan,nan,nan,nan,nan,nan,nan,nan,0
1743177474213379,1743177474213379,0.48037937,0.49209157,0.5449722,0.5379207,nan,nan,nan,nan,nan,nan,nan,nan,0
1743177474313379,1743177474313379,0.53196394,0.5419601,0.5077291,0.50037974,nan,nan,nan,nan,nan,nan,nan,nan,0
1743177474413379,1743177474413379,0.5678888,0.5826958,0.48647013,0.4666684,nan,nan,nan,nan,nan,nan,nan,nan,0
1743177474513379,1743177474513379,0.6021396,0.6095598,0.46419376,0.4429826,nan,nan,nan,nan,nan,nan,nan,nan,0
1743177474613379,1743177474613379,0.6774244,0.6736948,0.3956951,0.37831783,nan,nan,nan,nan,nan,nan,nan,nan,0
1743177474713379,1743177474713379,0.74512947,0.7302902,0.31274825,0.32195503,nan,nan,nan,nan,nan,nan,nan,nan,0
1743177474813379,1743177474813379,0.764889,0.7436243,0.26427066,0.27933455,nan,nan,nan,nan,nan,nan,nan,nan,0
1743177474913379,1743177474913379,0.7408365,0.7361131,0.26414275,0.27602494,nan,nan,nan,nan,nan,nan,nan,nan,0
1743177475013379,1743177475013379,0.69712263,0.697357,0.30645013,0.30604398,nan,nan,nan,nan,nan,nan,nan,nan,0
1743177475113379,1743177475113379,0.64616644,0.6323141,0.37368754,0.36345422,nan,nan,nan,nan,nan,nan,nan,nan,0
1743177475213379,1743177475213379,0.57799095,0.56638414,0.4473572,0.44313255,nan,nan,nan,nan,nan,nan,nan,nan,0
1743177475313379,1743177475313379,0.515382,0.5035302,0.5382593,0.50968987,nan,nan,nan,nan,nan,nan,nan,nan,0
1743177475413379,1743177475413379,0.45601773,0.44887424,0.6012386,0.58088887,nan,nan,nan,nan,nan,nan,nan,nan,0
1743177475513379,1743177475513379,0.4064905,0.40660423,0.639158,0.6335658,nan,nan,nan,nan,nan,nan,nan,nan,0
1743177475613379,1743177475613379,0.3787683,0.37747845,0.6568805,0.6554365,nan,nan,nan,nan,nan,nan,nan,nan,0
1743177475713379,1743177475713379,0.37015414,0.36580193,0.6584224,0.6528222,nan,nan,nan,nan,nan,nan,nan,nan,0
1743177475813379,1743177475813379,0.3758642,0.37583095,0.64153564,0.63664854,nan,nan,nan,nan,nan,nan,nan,nan,0
1743177475913379,1743177475913379,0.3994762,0.39731863,0.6017317,0.62042105,nan,nan,nan,nan,nan,nan,nan,nan,0
1743177476013379,1743177476013379,0.41475725,0.4584036,0.5636307,0.59071696,nan,nan,nan,nan,nan,nan,nan,nan,0
1743177476113379,1743177476113379,0.48560205,0.48235372,0.5463441,0.5262036,nan,nan,nan,nan,nan,nan,nan,nan,0
1743177476213379,1743177476213379,0.5261134,0.5205512,0.5000347,0.49762866,nan,nan,nan,nan,nan,nan,nan,nan,0
1743177476313379,1743177476313379,0.5622566,0.5468626,0.47398075,0.46355888,nan,nan,nan,nan,nan,nan,nan,nan,0
1743177476413379,1743177476413379,0.5741528,0.5742636,0.44969183,0.44577843,nan,nan,nan,nan,nan,nan,nan,nan,0
1743177476513379,1743177476513379,0.57882464,0.5842967,0.43697158,0.43907884,nan,nan,nan,nan,nan,nan,nan,nan,0
1743177476613379,1743177476613379,0.5890823,0.5653425,0.45306218,0.42361498,nan,nan,nan,nan,nan,nan,nan,nan,0
1743177476713379,1743177476713379,0.5644493,0.56195426,0.45260724,0.45266375,nan,nan,nan,nan,nan,nan,nan,nan,0
1743177476813379,1743177476813379,0.5448937,0.5428949,0.47358757,0.47344822,nan,nan,nan,nan,nan,nan,nan,nan,0
1743177476913379,1743177476913379,0.51579255,0.53803366,0.49658206,0.49524155,nan,nan,nan,nan,nan,nan,nan,nan,0
1743177477013379,1743177477013379,0.51192063,0.51225287,0.51161003,0.51196146,nan,nan,nan,nan,nan,nan,nan,nan,0
1743177477113379,1743177477113379,0.5002651,0.5018238,0.5202095,0.526632,nan,nan,nan,nan,nan,nan,nan,nan,0
1743177477213379,1743177477213379,0.49633312,0.4909314,0.5332677,0.53088087,nan,nan,nan,nan,nan,nan,nan,nan,0
1743177477313379,1743177477313379,0.4912601,0.4877861,0.53560925,0.53626406,nan,nan,nan,nan,nan,nan,nan,nan,0
1743177477413379,1743177477413379,0.49470916,0.4833862,0.5394033,0.53614676,nan,nan,nan,nan,nan,nan,nan,nan,0
1743177477513379,1743177477513379,0.49152613,0.49064243,0.53847957,0.5352477,nan,nan,nan,nan,nan,nan,nan,nan,0
1743177477613379,1743177477613379,0.4955758,0.49337053,0.534003,0.534094,nan,nan,nan,nan,nan,nan,nan,nan,0
1743177477713379,1743177477713379,0.49750456,0.49869964,0.5309114,0.52902526,nan,nan,nan,nan,nan,nan,nan,nan,0
1743177477813379,1743177477813379,0.50328904,0.50394386,0.52687997,0.5229135,nan,nan,nan,nan,nan,nan,nan,nan,0
1743177477913379,1743177477913379,0.51062334,0.5067649,0.5225863,0.5209207,nan,nan,nan,nan,nan,nan,nan,nan,0
1743177478013379,1743177478013379,0.5144296,0.51015276,0.52048737,0.51345485,nan,nan,nan,nan,nan,nan,nan,nan,0
1743177478113379,1743177478113379,0.51717204,0.51519626,0.5171998,0.5097657,nan,nan,nan,nan,nan,nan,nan,nan,0
1743177478213379,1743177478213379,0.5158304,0.52139115,0.50838304,0.515072,nan,nan,nan,nan,nan,nan,nan,nan,0
1743177478313379,1743177478313379,0.5239185,0.5150622,0.5140075,0.50815016,nan,nan,nan,nan,nan,nan,nan,nan,0
1743177478413379,1743177478413379,0.5198185,0.5190559,0.5112677,0.5126516,nan,nan,nan,nan,nan,nan,nan,nan,0
1743177478513379,1743177478513379,0.5168613,0.5180471,0.5071231,0.5193987,nan,nan,nan,nan,nan,nan,nan,nan,0
1743177478613379,1743177478613379,0.51563805,0.5158296,0.51434064,0.5163026,nan,nan,nan,nan,nan,nan,nan,nan,0
1743177478713379,1743177478713379,0.51189464,0.5157681,0.5215806,0.5142995,nan,nan,nan,nan,nan,nan,nan,nan,0
1743177478813379,1743177478813379,0.5100874,0.51209617,0.51926935,0.5215912,nan,nan,nan,nan,nan,nan,nan,nan,0
1743177478913379,1743177478913379,0.50920403,0.5075891,0.52466756,0.51984197,nan,nan,nan,nan,nan,nan,nan,nan,0
1743177479013379,1743177479013379,0.50522596,0.5083391,0.5273976,0.52239925,nan,nan,nan,nan,nan,nan,nan,nan,0
1743177479113379,1743177479113379,0.5025438,0.510087,0.5237105,0.52844703,nan,nan,nan,nan,nan,nan,nan,nan,0
1743177479213379,1743177479213379,0.5078141,0.5016307,0.5285539,0.5260233,nan,nan,nan,nan,nan,nan,nan,nan,0
1743177479313379,1743177479313379,0.5015439,0.50611746,0.5245364,0.5286422,nan,nan,nan,nan,nan,nan,nan,nan,0
1743177479413379,1743177479413379,0.5061625,0.50256276,0.53162694,0.5217937,nan,nan,nan,nan,nan,nan,nan,nan,0
1743177479513379,1743177479513379,0.5003129,0.5077423,0.5249816,0.5294503,nan,nan,nan,nan,nan,nan,nan,nan,0
1743177479613379,1743177479613379,0.5077507,0.5028444,0.529853,0.5227357,nan,nan,nan,nan,nan,nan,nan,nan,0
1743177479713379,1743177479713379,0.5084419,0.5027698,0.52215624,0.52820504,nan,nan,nan,nan,nan,nan,nan,nan,0
1743177479813379,1743177479813379,0.5096512,0.5038035,0.52382374,0.523808,nan,nan,nan,nan,nan,nan,nan,nan,0
1743177479913379,1743177479913379,0.5071708,0.5068815,0.52280295,0.5237441,nan,nan,nan,nan,nan,nan,nan,nan,0
1743177480013379,1743177480013379,0.50578725,0.5068495,0.5282834,0.519152,nan,nan,nan,nan,nan,nan,nan,nan,0
1743177480113379,1743177480113379,0.5040967,0.5070185,0.5238501,0.52416706,nan,nan,nan,nan,nan,nan,nan,nan,0
1743177480213379,1743177480213379,0.51102793,0.50108564,0.52765304,0.52132267,nan,nan,nan,nan,nan,nan,nan,nan,0
1743177480313379,1743177480313379,0.5020182,0.5093453,0.52050096,0.5277259,nan,nan,nan,nan,nan,nan,nan,nan,0
1743177480413379,1743177480413379,0.50469303,0.5071142,0.5256837,0.5224249,nan,nan,nan,nan,nan,nan,nan,nan,0
1743177480513379,1743177480513379,0.50459397,0.50771284,0.5221605,0.5246348,nan,nan,nan,nan,nan,nan,nan,nan,0
1743177480613379,1743177480613379,0.50337684,0.5094384,0.5239164,0.52291924,nan,nan,nan,nan,nan,nan,nan,nan,0
1743177480713379,1743177480713379,0.5036336,0.50812757,0.52428705,0.5237109,nan,nan,nan,nan,nan,nan,nan,nan,0
1743177480813379,1743177480813379,0.50429606,0.50295305,0.5254253,0.5247768,nan,nan,nan,nan,nan,nan,nan,nan,0
1743177480913379,1743177480913379,0.52031964,0.5177786,0.5120952,0.5068644,nan,nan,nan,nan,nan,nan,nan,nan,0
1743177481013379,1743177481013379,0.5572042,0.5515885,0.475169,0.47430283,nan,nan,nan,nan,nan,nan,nan,nan,0
1743177481113379,1743177481113379,0.58160466,0.58610064,0.4435311,0.445939,nan,nan,nan,nan,nan,nan,nan,nan,0
1743177481213379,1743177481213379,0.5996212,0.59259677,0.43129,0.42776856,nan,nan,nan,nan,nan,nan,nan,nan,0
1743177481313379,1743177481313379,0.59213716,0.5965784,0.42802024,0.4288007,nan,nan,nan,nan,nan,nan,nan,nan,0
1743177481413379,1743177481413379,0.60598004,0.6023495,0.43261385,0.40311897,nan,nan,nan,nan,nan,nan,nan,nan,0
1743177481513379,1743177481513379,0.65222275,0.6587813,0.384276,0.35384735,nan,nan,nan,nan,nan,nan,nan,nan,0
1743177481613379,1743177481613379,0.6881678,0.6889447,0.3151959,0.34643647,nan,nan,nan,nan,nan,nan,nan,nan,0
1743177481713379,1743177481713379,0.68357295,0.6901944,0.28620428,0.3424011,nan,nan,nan,nan,nan,nan,nan,nan,0
1743177481813379,1743177481813379,0.65906954,0.6714946,0.32565582,0.33236668,nan,nan,nan,nan,nan,nan,nan,nan,0
1743177481913379,1743177481913379,0.6367228,0.6278056,0.383826,0.35195872,nan,nan,nan,nan,nan,nan,nan,nan,0
1743177482013379,1743177482013379,0.59054095,0.5915114,0.43050092,0.41548496,nan,nan,nan,nan,nan,nan,nan,nan,0
1743177482113379,1743177482113379,0.54726315,0.5506424,0.47341436,0.4884886,nan,nan,nan,nan,nan,nan,nan,nan,0
1743177482213379,1743177482213379,0.5126452,0.50838286,0.5270893,0.5406981,nan,nan,nan,nan,nan,nan,nan,nan,0
1743177482313379,1743177482313379,0.48352638,0.4771023,0.5683988,0.58052653,nan,nan,nan,nan,nan,nan,nan,nan,0
1743177482413379,1743177482413379,0.47205308,0.44772246,0.602897,0.5981048,nan,nan,nan,nan,nan,nan,nan,nan,0
1743177482513379,1743177482513379,0.4524639,0.43647614,0.6105753,0.6092136,nan,nan,nan,nan,nan,nan,nan,nan,0
1743177482613379,1743177482613379,0.4472283,0.43601155,0.61376977,0.6085397,nan,nan,nan,nan,nan,nan,nan,nan,0
1743177482713379,1743177482713379,0.45251882,0.4486785,0.60709256,0.59996957,nan,nan,nan,nan,nan,nan,nan,nan,0
1743177482813379,1743177482813379,0.4672917,0.4671167,0.5895781,0.5861109,nan,nan,nan,nan,nan,nan,nan,nan,0
1743177482913379,1743177482913379,0.48773074,0.49002552,0.5690116,0.56768113,nan,nan,nan,nan,nan,nan,nan,nan,0
1743177483013379,1743177483013379,0.48929745,0.4898494,0.5668625,0.5710487,nan,nan,nan,nan,nan,nan,nan,nan,0
1743177483113379,1743177483113379,0.44563013,0.44001955,0.61475134,0.61488605,nan,nan,nan,nan,nan,nan,nan,nan,0
1743177483213379,1743177483213379,0.4031351,0.39190665,0.66123617,0.6392518,nan,nan,nan,nan,nan,nan,nan,nan,0
1743177483313379,1743177483313379,0.37076175,0.37354398,0.6627465,0.655299,nan,nan,nan,nan,nan,nan,nan,nan,0
1743177483413379,1743177483413379,0.37270805,0.380226,0.64524114,0.6434773,nan,nan,nan,nan,nan,nan,nan,nan,0
1743177483513379,1743177483513379,0.4046604,0.39958256,0.61576927,0.6120992,nan,nan,nan,nan,nan,nan,nan,nan,0
1743177483613379,1743177483613379,0.44611427,0.44083938,0.57055914,0.57402897,nan,nan,nan,nan,nan,nan,nan,nan,0
1743177483713379,1743177483713379,0.49443507,0.4864154,0.5292759,0.52818346,nan,nan,nan,nan,nan,nan,nan,nan,0
1743177483813379,1743177483813379,0.53470314,0.53466177,0.48476756,0.49185276,nan,nan,nan,nan,nan,nan,nan,nan,0
1743177483913379,1743177483913379,0.5704646,0.56501245,0.4589396,0.45328492,nan,nan,nan,nan,nan,nan,nan,nan,0
1743177484013379,1743177484013379,0.58497924,0.5987024,0.42732918,0.44372702,nan,nan,nan,nan,nan,nan,nan,nan,0
1743177484113379,1743177484113379,0.60273135,0.6011095,0.42422327,0.42589614,nan,nan,nan,nan,nan,nan,nan,nan,0
1743177484213379,1743177484213379,0.5996223,0.59878665,0.4247164,0.4239828,nan,nan,nan,nan,nan,nan,nan,nan,0
1743177484313379,1743177484313379,0.5849391,0.58910143,0.43593675,0.43240494,nan,nan,nan,nan,nan,nan,nan,nan,0
1743177484413379,1743177484413379,0.57210326,0.56515896,0.45455134,0.45049763,nan,nan,nan,nan,nan,nan,nan,nan,0
1743177484513379,1743177484513379,0.55011463,0.5427849,0.47596186,0.4758094,nan,nan,nan,nan,nan,nan,nan,nan,0
1743177484613379,1743177484613379,0.5241636,0.52591634,0.50037163,0.49799678,nan,nan,nan,nan,nan,nan,nan,nan,0
1743177484713379,1743177484713379,0.5104336,0.49772412,0.5280813,0.51413333,nan,nan,nan,nan,nan,nan,nan,nan,0
1743177484813379,1743177484813379,0.48871717,0.48218772,0.54287386,0.53314877,nan,nan,nan,nan,nan,nan,nan,nan,0
1743177484913379,1743177484913379,0.4742686,0.4741111,0.5490337,0.550502,nan,nan,nan,nan,nan,nan,nan,nan,0
1743177485013379,1743177485013379,0.47051877,0.47098333,0.55687773,0.5553056,nan,nan,nan,nan,nan,nan,nan,nan,0
1743177485113379,1743177485113379,0.47043043,0.47567135,0.55625457,0.55839175,nan,nan,nan,nan,nan,nan,nan,nan,0
1743177485213379,1743177485213379,0.4738968,0.48304516,0.54623437,0.5589193,nan,nan,nan,nan,nan,nan,nan,nan,0
1743177485313379,1743177485313379,0.48938942,0.48712492,0.54115915,0.54754543,nan,nan,nan,nan,nan,nan,nan,nan,0
1743177485413379,1743177485413379,0.5005614,0.4982988,0.53719735,0.53211963,nan,nan,nan,nan,nan,nan,nan,nan,0
1743177485513379,1743177485513379,0.511897,0.50940746,0.52322274,0.52393585,nan,nan,nan,nan,nan,nan,nan,nan,0
1743177485613379,1743177485613379,0.5200396,0.52101535,0.51577,0.5134787,nan,nan,nan,nan,nan,nan,nan,nan,0
1743177485713379,1743177485713379,0.5288302,0.5277411,0.50657105,0.50607896,nan,nan,nan,nan,nan,nan,nan,nan,0
1743177485813379,1743177485813379,0.5337165,0.53377837,0.50201577,0.50083905,nan,nan,nan,nan,nan,nan,nan,nan,0
1743177485913379,1743177485913379,0.5361224,0.5354745,0.50253886,0.49612767,nan,nan,nan,nan,nan,nan,nan,nan,0
1743177486013379,1743177486013379,0.53546023,0.5362444,0.49882916,0.50042224,nan,nan,nan,nan,nan,nan,nan,nan,0
1743177486113379,1743177486113379,0.52861744,0.5373469,0.5044149,0.5001817,nan,nan,nan,nan,nan,nan,nan,nan,0
1743177486213379,1743177486213379,0.52823514,0.52836293,0.5078221,0.5059944,nan,nan,nan,nan,nan,nan,nan,nan,0
1743177486313379,1743177486313379,0.52372205,0.52236295,0.5123387,0.5120891,nan,nan,nan,nan,nan,nan,nan,nan,0
1743177486413379,1743177486413379,0.5174775,0.5182406,0.5143103,0.5205533,nan,nan,nan,nan,nan,nan,nan,nan,0
1743177486513379,1743177486513379,0.5134559,0.51208335,0.5232906,0.52014416,nan,nan,nan,nan,nan,nan,nan,nan,0
1743177486613379,1743177486613379,0.5108344,0.505698,0.52763945,0.5234725,nan,nan,nan,nan,nan,nan,nan,nan,0
1743177486713379,1743177486713379,0.5076207,0.5040574,0.5282626,0.5281013,nan,nan,nan,nan,nan,nan,nan,nan,0
1743177486813379,1743177486813379,0.50496244,0.50554395,0.5273416,0.52990556,nan,nan,nan,nan,nan,nan,nan,nan,0
1743177486913379,1743177486913379,0.5077872,0.5044465,0.5292321,0.5268046,nan,nan,nan,nan,nan,nan,nan,nan,0
1743177487013379,1743177487013379,0.50849503,0.50434,0.5290651,0.5245176,nan,nan,nan,nan,nan,nan,nan,nan,0
1743177487113379,1743177487113379,0.50817513,0.50865364,0.52732694,0.5228795,nan,nan,nan,nan,nan,nan,nan,nan,0
1743177487213379,1743177487213379,0.5126207,0.50742567,0.5265056,0.5209038,nan,nan,nan,nan,nan,nan,nan,nan,0
1743177487313379,1743177487313379,0.5154959,0.508747,0.5209315,0.52218676,nan,nan,nan,nan,nan,nan,nan,nan,0
1743177487413379,1743177487413379,0.510539,0.51727635,0.51623607,0.52177525,nan,nan,nan,nan,nan,nan,nan,nan,0
1743177487513379,1743177487513379,0.5169985,0.51348186,0.5191876,0.5148664,nan,nan,nan,nan,nan,nan,nan,nan,0
1743177487613379,1743177487613379,0.51878285,0.51437557,0.514524,0.51571023,nan,nan,nan,nan,nan,nan,nan,nan,0
1743177487713379,1743177487713379,0.5174644,0.5165013,0.5122171,0.5176943,nan,nan,nan,nan,nan,nan,nan,nan,0
1743177487813379,1743177487813379,0.5174257,0.5158518,0.5126513,0.51648057,nan,nan,nan,nan,nan,nan,nan,nan,0
1743177487913379,1743177487913379,0.5163055,0.5163167,0.5178547,0.51287544,nan,nan,nan,nan,nan,nan,nan,nan,0
1743177488013379,1743177488013379,0.51593137,0.51520526,0.51728064,0.5152758,nan,nan,nan,nan,nan,nan,nan,nan,0
1743177488113379,1743177488113379,0.5115285,0.51565015,0.5129511,0.5214123,nan,nan,nan,nan,nan,nan,nan,nan,0
1743177488213379,1743177488213379,0.5091842,0.5128713,0.52262974,0.5163804,nan,nan,nan,nan,nan,nan,nan,nan,0
1743177488313379,1743177488313379,0.50790656,0.51093256,0.5190531,0.522606,nan,nan,nan,nan,nan,nan,nan,nan,0
1743177488413379,1743177488413379,0.51042384,0.5058716,0.52191865,0.52341354,nan,nan,nan,nan,nan,nan,nan,nan,0
1743177488513379,1743177488513379,0.5137921,0.5079189,0.5225071,0.51663876,nan,nan,nan,nan,nan,nan,nan,nan,0
1743177488613379,1743177488613379,0.5219584,0.5274345,0.505869,0.50520104,nan,nan,nan,nan,nan,nan,nan,nan,0
1743177488713379,1743177488713379,0.5392294,0.5372151,0.49042377,0.49419972,nan,nan,nan,nan,nan,nan,nan,nan,0
1743177488813379,1743177488813379,0.5495408,0.54250354,0.48656508,0.4812537,nan,nan,nan,nan,nan,nan,nan,nan,0
1743177488913379,1743177488913379,0.5475282,0.5470992,0.4835781,0.478536,nan,nan,nan,nan,nan,nan,nan,nan,0
1743177489013379,1743177489013379,0.53433096,0.53233993,0.4874111,0.5016271,nan,nan,nan,nan,nan,nan,nan,nan,0
1743177489113379,1743177489113379,0.46746075,0.4541396,0.56350577,0.5755724,nan,nan,nan,nan,nan,nan,nan,nan,0
1743177489213379,1743177489213379,0.3845094,0.38772675,0.63927436,0.65293026,nan,nan,nan,nan,nan,nan,nan,nan,0
1743177489313379,1743177489313379,0.33016708,0.33624533,0.70558405,0.679644,nan,nan,nan,nan,nan,nan,nan,nan,0
1743177489413379,1743177489413379,0.28862238,0.33045805,0.6992072,0.69428706,nan,nan,nan,nan,nan,nan,nan,nan,0
1743177489513379,1743177489513379,0.3081142,0.32916042,0.6799636,0.6763687,nan,nan,nan,nan,nan,nan,nan,nan,0
1743177489613379,1743177489613379,0.35888082,0.35817713,0.64373875,0.6348025,nan,nan,nan,nan,nan,nan,nan,nan,0
1743177489713379,1743177489713379,0.47770262,0.4731815,0.5375049,0.52919126,nan,nan,nan,nan,nan,nan,nan,nan,0
1743177489813379,1743177489813379,0.6171546,0.60736763,0.42306662,0.41249597,nan,nan,nan,nan,nan,nan,nan,nan,0
1743177489913379,1743177489913379,0.7242025,0.7065041,0.33345768,0.31568727,nan,nan,nan,nan,nan,nan,nan,nan,0
1743177490013379,1743177490013379,0.7797158,0.7301463,0.26750535,0.24296682,nan,nan,nan,nan,nan,nan,nan,nan,0
1743177490113379,1743177490113379,0.75630933,0.7434705,0.22734427,0.23520231,nan,nan,nan,nan,nan,nan,nan,nan,0
1743177490213379,1743177490213379,0.7134189,0.71282876,0.24818042,0.2513894,nan,nan,nan,nan,nan,nan,nan,nan,0
1743177490313379,1743177490313379,0.6542058,0.6622888,0.29103494,0.3157441,nan,nan,nan,nan,nan,nan,nan,nan,0
1743177490413379,1743177490413379,0.59385234,0.59685826,0.38121036,0.38541326,nan,nan,nan,nan,nan,nan,nan,nan,0
1743177490513379,1743177490513379,0.52630454,0.53252417,0.47459164,0.47477594,nan,nan,nan,nan,nan,nan,nan,nan,0
1743177490613379,1743177490613379,0.46454263,0.47001994,0.5635791,0.5576123,nan,nan,nan,nan,nan,nan,nan,nan,0
1743177490713379,1743177490713379,0.41312784,0.41479677,0.63071495,0.621486,nan,nan,nan,nan,nan,nan,nan,nan,0
1743177490813379,1743177490813379,0.35308567,0.3924859,0.65975165,0.6690333,nan,nan,nan,nan,nan,nan,nan,nan,0
1743177490913379,1743177490913379,0.33825374,0.36381602,0.67308635,0.67790514,nan,nan,nan,nan,nan,nan,nan,nan,0
1743177491013379,1743177491013379,0.35546488,0.35509342,0.6620241,0.6638134,nan,nan,nan,nan,nan,nan,nan,nan,0
1743177491113379,1743177491113379,0.3867392,0.3773207,0.63055277,0.634446,nan,nan,nan,nan,nan,nan,nan,nan,0
1743177491213379,1743177491213379,0.42958075,0.421681,0.58922565,0.59250736,nan,nan,nan,nan,nan,nan,nan,nan,0
1743177491313379,1743177491313379,0.47614115,0.47554988,0.54892355,0.54371744,nan,nan,nan,nan,nan,nan,nan,nan,0
1743177491413379,1743177491413379,0.52233416,0.5266147,0.5101615,0.5002909,nan,nan,nan,nan,nan,nan,nan,nan,0
1743177491513379,1743177491513379,0.5631059,0.5698908,0.46267763,0.47032347,nan,nan,nan,nan,nan,nan,nan,nan,0
1743177491613379,1743177491613379,0.5954976,0.59580374,0.43685812,0.43673474,nan,nan,nan,nan,nan,nan,nan,nan,0
1743177491713379,1743177491713379,0.6109229,0.6076401,0.42266887,0.41855067,nan,nan,nan,nan,nan,nan,nan,nan,0
1743177491813379,1743177491813379,0.6097275,0.6069248,0.4174151,0.41892406,nan,nan,nan,nan,nan,nan,nan,nan,0
1743177491913379,1743177491913379,0.5945966,0.6029452,0.42564288,0.4251311,nan,nan,nan,nan,nan,nan,nan,nan,0
1743177492013379,1743177492013379,0.63036895,0.6458386,0.4011607,0.37181172,nan,nan,nan,nan,nan,nan,nan,nan,0
1743177492113379,1743177492113379,0.6868274,0.6787354,0.34143505,0.33749768,nan,nan,nan,nan,nan,nan,nan,nan,0
1743177492213379,1743177492213379,0.7019068,0.69173497,0.28079897,0.34219947,nan,nan,nan,nan,nan,nan,nan,nan,0
1743177492313379,1743177492313379,0.68184566,0.6885226,0.29700434,0.33478543,nan,nan,nan,nan,nan,nan,nan,nan,0
1743177492413379,1743177492413379,0.65229404,0.65310955,0.36077255,0.33773726,nan,nan,nan,nan,nan,nan,nan,nan,0
1743177492513379,1743177492513379,0.6070638,0.61100423,0.41426557,0.3892049,nan,nan,nan,nan,nan,nan,nan,nan,0
1743177492613379,1743177492613379,0.56547743,0.5605746,0.46103474,0.4657167,nan,nan,nan,nan,nan,nan,nan,nan,0
1743177492713379,1743177492713379,0.5249592,0.51503575,0.5169875,0.5265067,nan,nan,nan,nan,nan,nan,nan,nan,0
1743177492813379,1743177492813379,0.48678568,0.4806352,0.5686433,0.5741678,nan,nan,nan,nan,nan,nan,nan,nan,0
1743177492913379,1743177492913379,0.46126837,0.45087808,0.6050513,0.60192597,nan,nan,nan,nan,nan,nan,nan,nan,0
1743177493013379,1743177493013379,0.40659255,0.3892854,0.65707284,0.6500825,nan,nan,nan,nan,nan,nan,nan,nan,0
1743177493113379,1743177493113379,0.32779378,0.3191076,0.7254964,0.71503055,nan,nan,nan,nan,nan,nan,nan,nan,0
1743177493213379,1743177493213379,0.27665693,0.27214092,0.7570561,0.7516993,nan,nan,nan,nan,nan,nan,nan,nan,0
1743177493313379,1743177493313379,0.26052192,0.26108208,0.7538295,0.74532056,nan,nan,nan,nan,nan,nan,nan,nan,0
1743177493413379,1743177493413379,0.27436084,0.29078496,0.71381944,0.7183889,nan,nan,nan,nan,nan,nan,nan,nan,0
1743177493513379,1743177493513379,0.33915,0.33436865,0.66601616,0.66255367,nan,nan,nan,nan,nan,nan,nan,nan,0
1743177493613379,1743177493613379,0.41166684,0.41100153,0.60782504,0.60330737,nan,nan,nan,nan,nan,nan,nan,nan,0
1743177493713379,1743177493713379,0.49154076,0.49023268,0.5452912,0.5446961,nan,nan,nan,nan,nan,nan,nan,nan,0
1743177493813379,1743177493813379,0.56377786,0.5494949,0.49131107,0.4752897,nan,nan,nan,nan,nan,nan,nan,nan,0
1743177493913379,1743177493913379,0.6082514,0.6039086,0.4334736,0.4323963,nan,nan,nan,nan,nan,nan,nan,nan,0
1743177494013379,1743177494013379,0.6340205,0.63482755,0.395961,0.4021954,nan,nan,nan,nan,nan,nan,nan,nan,0
1743177494113379,1743177494113379,0.64458895,0.64158773,0.38280493,0.38000315,nan,nan,nan,nan,nan,nan,nan,nan,0
1743177494213379,1743177494213379,0.63889086,0.6320517,0.38094237,0.3774126,nan,nan,nan,nan,nan,nan,nan,nan,0
1743177494313379,1743177494313379,0.61476934,0.61613643,0.3943597,0.39265668,nan,nan,nan,nan,nan,nan,nan,nan,0
1743177494413379,1743177494413379,0.5885656,0.5871022,0.42183667,0.41598362,nan,nan,nan,nan,nan,nan,nan,nan,0
1743177494513379,1743177494513379,0.5495967,0.56448877,0.44862106,0.4582223,nan,nan,nan,nan,nan,nan,nan,nan,0
1743177494613379,1743177494613379,0.5200553,0.5353581,0.48798117,0.49581656,nan,nan,nan,nan,nan,nan,nan,nan,0
1743177494713379,1743177494713379,0.49926236,0.49958804,0.52471006,0.5251366,nan,nan,nan,nan,nan,nan,nan,nan,0
1743177494813379,1743177494813379,0.48152903,0.4721916,0.55185246,0.5483042,nan,nan,nan,nan,nan,nan,nan,nan,0
1743177494913379,1743177494913379,0.4612568,0.46156222,0.5659398,0.5653229,nan,nan,nan,nan,nan,nan,nan,nan,0
1743177495013379,1743177495013379,0.45450333,0.45147076,0.5746427,0.56902,nan,nan,nan,nan,nan,nan,nan,nan,0
1743177495113379,1743177495113379,0.4535486,0.45265824,0.56754136,0.571301,nan,nan,nan,nan,nan,nan,nan,nan,0
1743177495213379,1743177495213379,0.46226618,0.4590858,0.5591974,0.5633347,nan,nan,nan,nan,nan,nan,nan,nan,0
1743177495313379,1743177495313379,0.4763083,0.46878225,0.5518301,0.5472917,nan,nan,nan,nan,nan,nan,nan,nan,0
1743177495413379,1743177495413379,0.4870922,0.48974317,0.53515196,0.5340439,nan,nan,nan,nan,nan,nan,nan,nan,0
1743177495513379,1743177495513379,0.50424874,0.5026643,0.5221331,0.51740706,nan,nan,nan,nan,nan,nan,nan,nan,0
1743177495613379,1743177495613379,0.5140729,0.52057767,0.5049343,0.5073886,nan,nan,nan,nan,nan,nan,nan,nan,0
1743177495713379,1743177495713379,0.5274963,0.5283492,0.49691558,0.49323583,nan,nan,nan,nan,nan,nan,nan,nan,0
1743177495813379,1743177495813379,0.5368365,0.5330415,0.49139205,0.48317018,nan,nan,nan,nan,nan,nan,nan,nan,0
1743177495913379,1743177495913379,0.5373064,0.5379598,0.48393518,0.48521167,nan,nan,nan,nan,nan,nan,nan,nan,0
1743177496013379,1743177496013379,0.538022,0.53536445,0.48750538,0.48181492,nan,nan,nan,nan,nan,nan,nan,nan,0
1743177496113379,1743177496113379,0.5347803,0.5316704,0.48931196,0.4877036,nan,nan,nan,nan,nan,nan,nan,nan,0
1743177496213379,1743177496213379,0.5290234,0.5273522,0.49203953,0.4942536,nan,nan,nan,nan,nan,nan,nan,nan,0
1743177496313379,1743177496313379,0.5233104,0.5204545,0.49963698,0.49835,nan,nan,nan,nan,nan,nan,nan,nan,0
1743177496413379,1743177496413379,0.5180211,0.51239693,0.50686795,0.5052591,nan,nan,nan,nan,nan,nan,nan,nan,0
1743177496513379,1743177496513379,0.50929856,0.50885403,0.5146012,0.511687,nan,nan,nan,nan,nan,nan,nan,nan,0
1743177496613379,1743177496613379,0.5094592,0.49938375,0.5190108,0.5165093,nan,nan,nan,nan,nan,nan,nan,nan,0
1743177496713379,1743177496713379,0.50414044,0.49527866,0.5295365,0.51197374,nan,nan,nan,nan,nan,nan,nan,nan,0
1743177496813379,1743177496813379,0.5004427,0.49716204,0.526953,0.5206107,nan,nan,nan,nan,nan,nan,nan,nan,0
1743177496913379,1743177496913379,0.50241625,0.4946396,0.52726233,0.51825404,nan,nan,nan,nan,nan,nan,nan,nan,0
1743177497013379,1743177497013379,0.50504285,0.49429432,0.5237686,0.5181218,nan,nan,nan,nan,nan,nan,nan,nan,0
1743177497113379,1743177497113379,0.5027306,0.5001589,0.52059495,0.51891685,nan,nan,nan,nan,nan,nan,nan,nan,0
1743177497213379,1743177497213379,0.5063974,0.5037531,0.5161788,0.515413,nan,nan,nan,nan,nan,nan,nan,nan,0
1743177497313379,1743177497313379,0.50564617,0.5103604,0.5109457,0.51406884,nan,nan,nan,nan,nan,nan,nan,nan,0
1743177497413379,1743177497413379,0.5091262,0.5124397,0.5097727,0.5094026,nan,nan,nan,nan,nan,nan,nan,nan,0
1743177497513379,1743177497513379,0.5105955,0.51567084,0.5050056,0.5102198,nan,nan,nan,nan,nan,nan,nan,nan,0
1743177497613379,1743177497613379,0.5181294,0.5136351,0.50542974,0.5028863,nan,nan,nan,nan,nan,nan,nan,nan,0
1743177497713379,1743177497713379,0.51728034,0.5146992,0.5034904,0.5036996,nan,nan,nan,nan,nan,nan,nan,nan,0
1743177497813379,1743177497813379,0.51473343,0.5179826,0.5002632,0.50755835,nan,nan,nan,nan,nan,nan,nan,nan,0
1743177497913379,1743177497913379,0.5159958,0.5157935,0.50392956,0.50576,nan,nan,nan,nan,nan,nan,nan,nan,0
1743177498013379,1743177498013379,0.5241396,0.4991904,0.51233166,0.49356878,nan,nan,nan,nan,nan,nan,nan,nan,0
1743177498113379,1743177498113379,0.5052238,0.50937146,0.501417,0.5028023,nan,nan,nan,nan,nan,nan,nan,nan,0
1743177498213379,1743177498213379,0.50694937,0.50487906,0.5062018,0.49810117,nan,nan,nan,nan,nan,nan,nan,nan,0
1743177498313379,1743177498313379,0.50865704,0.5027414,0.5037069,0.5034525,nan,nan,nan,nan,nan,nan,nan,nan,0
1743177498413379,1743177498413379,0.5054092,0.5070984,0.5061827,0.50775254,nan,nan,nan,nan,nan,nan,nan,nan,0
1743177498513379,1743177498513379,0.50575626,0.5101664,0.5089776,0.5121338,nan,nan,nan,nan,nan,nan,nan,nan,0
1743177498613379,1743177498613379,0.5084351,0.5081882,0.51162565,0.51457965,nan,nan,nan,nan,nan,nan,nan,nan,0
1743177498713379,1743177498713379,0.50688565,0.509333,0.5128061,0.5161539,nan,nan,nan,nan,nan,nan,nan,nan,0
1743177498813379,1743177498813379,0.5074552,0.50807965,0.5104889,0.51779467,nan,nan,nan,nan,nan,nan,nan,nan,0
1743177498913379,1743177498913379,0.50786084,0.5087952,0.51550215,0.51254433,nan,nan,nan,nan,nan,nan,nan,nan,0
1743177499013379,1743177499013379,0.51082784,0.50642425,0.5149367,0.5121254,nan,nan,nan,nan,nan,nan,nan,nan,0
1743177499113379,1743177499113379,0.5107317,0.5086101,0.5158964,0.5108157,nan,nan,nan,nan,nan,nan,nan,nan,0
1743177499213379,1743177499213379,0.51048344,0.50981957,0.5146606,0.51003075,nan,nan,nan,nan,nan,nan,nan,nan,0
1743177499313379,1743177499313379,0.5122497,0.509768,0.5168122,0.50660074,nan,nan,nan,nan,nan,nan,nan,nan,0
1743177499413379,1743177499413379,0.51223326,0.5131829,0.51366025,0.5071954,nan,nan,nan,nan,nan,nan,nan,nan,0
1743177499513379,1743177499513379,0.5130377,0.5134002,0.5110628,0.5083758,nan,nan,nan,nan,nan,nan,nan,nan,0
1743177499613379,1743177499613379,0.5146845,0.51212996,0.5123746,0.50756866,nan,nan,nan,nan,nan,nan,nan,nan,0
1743177499713379,1743177499713379,0.5151229,0.5117605,0.51003367,0.5092136,nan,nan,nan,nan,nan,nan,nan,nan,0
1743177499813379,1743177499813379,0.51610494,0.51024854,0.5102771,0.50850326,nan,nan,nan,nan,nan,nan,nan,nan,0
1743177499913379,1743177499913379,0.51506585,0.5107295,0.51100016,0.50924385,nan,nan,nan,nan,nan,nan,nan,nan,0
1743177500013379,1743177500013379,0.5115167,0.51404,0.5096881,0.512073,nan,nan,nan,nan,nan,nan,nan,nan,0
1743177500113379,1743177500113379,0.5110477,0.5144179,0.51125103,0.51232296,nan,nan,nan,nan,nan,nan,nan,nan,0
1743177500213379,1743177500213379,0.5139138,0.5112265,0.51517594,0.5109464,nan,nan,nan,nan,nan,nan,nan,nan,0
1743177500313379,1743177500313379,0.51145965,0.51283234,0.5118081,0.51635486,nan,nan,nan,nan,nan,nan,nan,nan,0
1743177500413379,1743177500413379,0.51431596,0.5085614,0.5159558,0.51320434,nan,nan,nan,nan,nan,nan,nan,nan,0
1743177500513379,1743177500513379,0.5086812,0.51507413,0.51382685,0.51497126,nan,nan,nan,nan,nan,nan,nan,nan,0
1743177500613379,1743177500613379,0.514142,0.5107942,0.51382494,0.5151026,nan,nan,nan,nan,nan,nan,nan,nan,0
1743177500713379,1743177500713379,0.5116722,0.5133713,0.5151333,0.51313716,nan,nan,nan,nan,nan,nan,nan,nan,0
1743177500813379,1743177500813379,0.5162468,0.5096365,0.5154987,0.51282364,nan,nan,nan,nan,nan,nan,nan,nan,0
1743177500913379,1743177500913379,0.5131576,0.51378024,0.5135866,0.515626,nan,nan,nan,nan,nan,nan,nan,nan,0
1743177501013379,1743177501013379,0.51687676,0.51136595,0.5177919,0.51040405,nan,nan,nan,nan,nan,nan,nan,nan,0
1743177501113379,1743177501113379,0.51650345,0.51398706,0.51521635,0.51080406,nan,nan,nan,nan,nan,nan,nan,nan,0
1743177501213379,1743177501213379,0.51954657,0.5122914,0.51736385,0.50708,nan,nan,nan,nan,nan,nan,nan,nan,0
1743177501313379,1743177501313379,0.5176707,0.5154304,0.5141519,0.5087094,nan,nan,nan,nan,nan,nan,nan,nan,0
1743177501413379,1743177501413379,0.5174088,0.5165636,0.5079138,0.51393354,nan,nan,nan,nan,nan,nan,nan,nan,0
1743177501513379,1743177501513379,0.5160277,0.517297,0.5100821,0.5122491,nan,nan,nan,nan,nan,nan,nan,nan,0
1743177501613379,1743177501613379,0.51750714,0.5174733,0.50942314,0.51327133,nan,nan,nan,nan,nan,nan,nan,nan,0
1743177501713379,1743177501713379,0.51525617,0.518991,0.509257,0.5136371,nan,nan,nan,nan,nan,nan,nan,nan,0
1743177501813379,1743177501813379,0.5207232,0.5141833,0.5142021,0.5078548,nan,nan,nan,nan,nan,nan,nan,nan,0
1743177501913379,1743177501913379,0.5200051,0.51452625,0.5129987,0.5096718,nan,nan,nan,nan,nan,nan,nan,nan,0
1743177502013379,1743177502013379,0.516261,0.5138289,0.51669437,0.5106198,nan,nan,nan,nan,nan,nan,nan,nan,0
1743177502113379,1743177502113379,0.511644,0.5113696,0.51707155,0.516535,nan,nan,nan,nan,nan,nan,nan,nan,0
1743177502213379,1743177502213379,0.50981015,0.5088548,0.5193213,0.518841,nan,nan,nan,nan,nan,nan,nan,nan,0
1743177502313379,1743177502313379,0.5058305,0.5099324,0.5197824,0.5216987,nan,nan,nan,nan,nan,nan,nan,nan,0
1743177502413379,1743177502413379,0.5055273,0.50883013,0.51778805,0.52481294,nan,nan,nan,nan,nan,nan,nan,nan,0
1743177502513379,1743177502513379,0.47887093,0.46645445,0.54812413,0.5650162,nan,nan,nan,nan,nan,nan,nan,nan,0
1743177502613379,1743177502613379,0.41089755,0.39264005,0.6236545,0.63393795,nan,nan,nan,nan,nan,nan,nan,nan,0
1743177502713379,1743177502713379,0.3504278,0.34062332,0.68474126,0.67838657,nan,nan,nan,nan,nan,nan,nan,nan,0
1743177502813379,1743177502813379,0.29921082,0.33111227,0.7097598,0.68127084,nan,nan,nan,nan,nan,nan,nan,nan,0
1743177502913379,1743177502913379,0.29845116,0.33884272,0.67369306,0.6899018,nan,nan,nan,nan,nan,nan,nan,nan,0
1743177503013379,1743177503013379,0.3535005,0.34809685,0.6434704,0.6668863,nan,nan,nan,nan,nan,nan,nan,nan,0
1743177503113379,1743177503113379,0.40437222,0.3983177,0.6152056,0.62022907,nan,nan,nan,nan,nan,nan,nan,nan,0
1743177503213379,1743177503213379,0.4555214,0.46810275,0.57952577,0.57229644,nan,nan,nan,nan,nan,nan,nan,nan,0
1743177503313379,1743177503313379,0.512821,0.52069193,0.547342,0.5116572,nan,nan,nan,nan,nan,nan,nan,nan,0
1743177503413379,1743177503413379,0.56434846,0.5683017,0.50544214,0.47580078,nan,nan,nan,nan,nan,nan,nan,nan,0
1743177503513379,1743177503513379,0.6517359,0.6501031,0.42353025,0.4064881,nan,nan,nan,nan,nan,nan,nan,nan,0
1743177503613379,1743177503613379,0.74032295,0.73503125,0.3357395,0.32467592,nan,nan,nan,nan,nan,nan,nan,nan,0
1743177503713379,1743177503713379,0.80034614,0.76479506,0.2734644,0.2664381,nan,nan,nan,nan,nan,nan,nan,nan,0
1743177503813379,1743177503813379,0.7859621,0.7739358,0.24262711,0.254804,nan,nan,nan,nan,nan,nan,nan,nan,0
1743177503913379,1743177503913379,0.75469816,0.74107075,0.26941514,0.27202022,nan,nan,nan,nan,nan,nan,nan,nan,0
1743177504013379,1743177504013379,0.7001849,0.6868095,0.327282,0.32450074,nan,nan,nan,nan,nan,nan,nan,nan,0
1743177504113379,1743177504113379,0.63137597,0.6171097,0.39806235,0.402431,nan,nan,nan,nan,nan,nan,nan,nan,0
1743177504213379,1743177504213379,0.55535036,0.55670017,0.49537802,0.47588325,nan,nan,nan,nan,nan,nan,nan,nan,0
