timestamp,timestamp_sample,time_last_fuse,device_id,observation,observation_variance,innovation,innovation_filtered,innovation_variance,test_ratio,test_ratio_filtered,estimator_instance,innovation_rejected,fused
1743177449789379,1743177449635217,1743177449637379,0,0.006,0.5625,0.009766496,0.0012561819,0.6394282,5.9668587e-06,4.474301e-07,0,0,1
1743177449845379,1743177449687226,1743177449693379,0,0.006,0.5625,0.007060647,0.0018030651,0.62985724,3.1659704e-06,7.0356464e-07,0,0,1
1743177449893379,1743177449739237,1743177449741379,0,0.006,0.5625,0.0072464906,0.0023159496,0.6224257,3.374644e-06,9.552363e-07,0,0,1
1743177449949379,1743177449791245,1743177449797379,0,0.006,0.5625,0.0069232443,0.0027500307,0.6165111,3.1098425e-06,1.1582347e-06,0,0,1
1743177449997379,1743177449843254,1743177449845379,0,0.006,0.5625,0.007830549,0.0032287054,0.611678,4.0097893e-06,1.4269015e-06,0,0,1
1743177450053379,1743177449895261,1743177449901379,0,0.006,0.5625,0.0037899213,0.00328158,0.6076518,9.4550876e-07,1.3815473e-06,0,0,1
1743177450101379,1743177449947269,1743177449949379,0,0.006,0.5625,0.0035315584,0.003305132,0.60438704,8.2542505e-07,1.3291517e-06,0,0,1
1743177450157379,1743177449999276,1743177450005379,0,0.006,0.5625,0.0025948044,0.003238209,0.6018397,4.474952e-07,1.246087e-06,0,0,1
1743177450205379,1743177450051283,1743177450053379,0,0.006,0.5625,0.003696776,0.0032814126,0.59958047,9.117144e-07,1.2145842e-06,0,0,1
1743177450261379,1743177450103289,1743177450109379,0,0.007,0.5625,0.0017609606,0.0031381666,0.59773684,2.0751487e-07,1.1197055e-06,0,0,1
1743177450309379,1743177450155295,1743177450157379,0,0.006,0.5625,0.0023055058,0.0030597195,0.59600824,3.5673045e-07,1.0478235e-06,0,0,1
1743177450365379,1743177450207300,1743177450213379,0,0.007,0.5625,0.0020309528,0.002962798,0.59460133,2.7748135e-07,9.752487e-07,0,0,1
1743177450413379,1743177450259305,1743177450261379,0,0.006,0.5625,0.002017093,0.0028737022,0.59323305,2.743383e-07,9.0921515e-07,0,0,1
1743177450469379,1743177450311309,1743177450317379,0,0.006,0.5625,0.001986253,0.0027900962,0.5921294,2.6650937e-07,8.4866616e-07,0,0,1
1743177450517379,1743177450363314,1743177450365379,0,0.006,0.5625,0.0018200567,0.0026987076,0.5910204,2.2419574e-07,7.8983413e-07,0,0,1
1743177450573379,1743177450415318,1743177450421379,0,0.006,0.5625,0.0013114638,0.002568016,0.5901374,1.1657877e-07,7.264071e-07,0,0,1
1743177450621379,1743177450467322,1743177450469379,0,0.006,0.5625,0.00057711266,0.0023804542,0.58922166,2.2610102e-08,6.601028e-07,0,0,1
1743177450677379,1743177450519326,1743177450525379,0,0.006,0.5625,0.00053365063,0.0022064678,0.58850443,1.9356387e-08,5.997384e-07,0,0,1
1743177450725379,1743177450571329,1743177450573379,0,0.006,0.5625,0.0001480775,0.0020125513,0.5877365,1.4922976e-09,5.43379e-07,0,0,1
1743177450781379,1743177450623332,1743177450629379,0,0.006,0.5625,9.9324156e-05,0.0018323103,0.5871469,6.7208317e-10,4.9225173e-07,0,0,1
1743177450829379,1743177450675335,1743177450677379,0,0.006,0.5625,0.00055365544,0.0017118511,0.5864944,2.0906208e-08,4.478473e-07,0,0,1
1743177450885379,1743177450727338,1743177450733379,0,0.006,0.5625,0.0005509658,0.0016024866,0.586005,2.0720869e-08,4.0760864e-07,0,0,1
1743177450933379,1743177450779341,1743177450781379,0,0.006,0.5625,0.0008908999,0.0015354495,0.5854444,5.4229076e-08,3.7431752e-07,0,0,1
1743177450989379,1743177450831343,1743177450837379,0,0.006,0.5625,0.001632526,0.0015445948,0.5850351,1.8222094e-07,3.5622082e-07,0,0,1
1743177451037379,1743177450883346,1743177450885379,0,0.006,0.5625,0.0011693533,0.0015092441,0.5845487,9.356874e-08,3.3147694e-07,0,0,1
1743177451093379,1743177450935348,1743177450941379,0,0.006,0.5625,0.0008986634,0.0014517236,0.5842043,5.5295445e-08,3.0545894e-07,0,0,1
1743177451141379,1743177450987350,1743177450989379,0,0.006,0.5625,0.0003487193,0.0013478138,0.5837788,8.332276e-09,2.7746776e-07,0,0,1
1743177451197379,1743177451039351,1743177451045379,0,0.006,0.5625,0.00028584618,0.0012477715,0.5834877,5.6013545e-09,2.518567e-07,0,0,1
1743177451245379,1743177451091353,1743177451093379,0,0.006,0.5625,0.0014194748,0.0012639471,0.58311266,1.3821747e-07,2.4115118e-07,0,0,1
1743177451301379,1743177451143355,1743177451149379,0,0.006,0.5625,0.0012302483,0.0012607725,0.582866,1.038668e-07,2.2821814e-07,0,0,1
1743177451349379,1743177451195357,1743177451197379,0,0.006,0.5625,0.001050272,0.001240942,0.58253324,7.574307e-08,2.1385405e-07,0,0,1
1743177451405379,1743177451247358,1743177451253379,0,0.006,0.5625,0.00087688956,0.0012066467,0.582324,5.2818383e-08,1.9868376e-07,0,0,1
1743177451453379,1743177451299359,1743177451301379,0,0.006,0.5625,0.0016048113,0.0012441556,0.5820271,1.7699652e-07,1.9664073e-07,0,0,1
1743177451509379,1743177451351361,1743177451357379,0,0.006,0.5625,0.0014147451,0.0012602261,0.5818497,1.3759593e-07,1.9107834e-07,0,0,1
1743177451557379,1743177451403362,1743177451405379,0,0.006,0.5625,0.0019221865,0.0013225857,0.5815834,2.5412012e-07,1.9701716e-07,0,0,1
1743177451613379,1743177451455363,1743177451461379,0,0.006,0.5625,0.0018579559,0.00137302,0.5814335,2.3748204e-07,2.0082913e-07,0,0,1
1743177451661379,1743177451507364,1743177451509379,0,0.006,0.5625,0.0020957794,0.0014411072,0.58119357,3.0229455e-07,2.1038764e-07,0,0,1
1743177451717379,1743177451559365,1743177451565379,0,0.006,0.5625,0.0015620799,0.0014525034,0.58106756,1.6797313e-07,2.06392e-07,0,0,1
1743177451765379,1743177451611366,1743177451613379,0,0.007,0.5625,0.00030643353,0.0013445384,0.58085054,6.466484e-09,1.8755811e-07,0,0,1
1743177451821379,1743177451663367,1743177451669379,0,0.006,0.5625,0.0011210763,0.0013234873,0.5807454,8.656544e-08,1.7804415e-07,0,0,1
1743177451869379,1743177451715368,1743177451717379,0,0.006,0.5625,0.0014145938,0.0013320699,0.5805485,1.3787482e-07,1.7426001e-07,0,0,1
1743177451925379,1743177451767368,1743177451773379,0,0.006,0.5625,0.0012122071,0.0013207784,0.5804618,1.0126049e-07,1.6738325e-07,0,0,1
1743177451973379,1743177451819369,1743177451821379,0,0.006,0.5625,0.0011492088,0.0013046158,0.58028257,9.103708e-08,1.6019109e-07,0,0,1
1743177452029379,1743177451871370,1743177451877379,0,0.006,0.5625,0.0013797772,0.0013116963,0.5802123,1.3124749e-07,1.5746447e-07,0,0,1
1743177452077379,1743177451923370,1743177451925379,0,0.006,0.5625,0.0017313855,0.0013512322,0.5800486,2.067203e-07,1.6210451e-07,0,0,1
1743177452133379,1743177451975371,1743177451981379,0,0.006,0.5625,0.0014963909,0.0013649068,0.579993,1.5442846e-07,1.613814e-07,0,0,1
1743177452181379,1743177452027371,1743177452029379,0,0.006,0.5625,0.0017094249,0.0013973614,0.57984316,2.0158095e-07,1.651683e-07,0,0,1
1743177452237379,1743177452079372,1743177452085379,0,0.006,0.5625,0.0014098766,0.0013985403,0.57980067,1.3713347e-07,1.625273e-07,0,0,1
1743177452285379,1743177452131372,1743177452133379,0,0.006,0.5625,0.0013864073,0.0013973974,0.5796631,1.3263741e-07,1.5971159e-07,0,0,1
1743177452341379,1743177452183373,1743177452189379,0,0.006,0.5625,0.0017480324,0.0014304288,0.57963246,2.1086585e-07,1.6453055e-07,0,0,1
1743177452389379,1743177452235373,1743177452237379,0,0.006,0.5625,0.00090031046,0.0013804901,0.5795058,5.5948288e-08,1.5430179e-07,0,0,1
1743177452445379,1743177452287374,1743177452293379,0,0.006,0.5625,0.00034016883,0.0012824872,0.5794858,7.987415e-09,1.4051831e-07,0,0,1
1743177452493379,1743177452339374,1743177452341379,0,0.007,0.5625,-7.351395e-05,0.0011547479,0.5793688,3.7311643e-10,1.2724593e-07,0,0,1
1743177452549379,1743177452391374,1743177452397379,0,0.006,0.5625,0.0010837438,0.0011480591,0.57935834,8.108975e-08,1.2289787e-07,0,0,1
1743177452597379,1743177452443375,1743177452445379,0,0.006,0.5625,0.00096098194,0.0011304356,0.57925,6.3771175e-08,1.1732787e-07,0,0,1
1743177452653379,1743177452495375,1743177452501379,0,0.006,0.5625,0.00039609708,0.0010612588,0.57924813,1.0834245e-08,1.0729586e-07,0,0,1
1743177452701379,1743177452547375,1743177452549379,0,0.006,0.5625,0.00023427838,0.0009833549,0.5791474,3.7908388e-09,9.754539e-08,0,0,1
1743177452757379,1743177452599376,1743177452605379,0,0.006,0.5625,-0.00017898995,0.0008738567,0.5791533,2.2127062e-09,8.814772e-08,0,0,1
1743177452805379,1743177452651376,1743177452653379,0,0.006,0.5625,-0.00037593115,0.00075612304,0.5790593,9.762332e-09,7.892431e-08,0,0,1
1743177452861379,1743177452703376,1743177452709379,0,0.006,0.5625,-5.9949234e-05,0.0006792467,0.57907206,2.4825308e-10,7.1466026e-08,0,0,1
1743177452909379,1743177452755376,1743177452757379,0,0.006,0.5625,0.00017271098,0.00063152955,0.578984,2.0607878e-09,6.492785e-08,0,0,1
1743177452965379,1743177452807376,1743177452813379,0,0.006,0.5625,0.0009052693,0.00065731665,0.5790029,5.661543e-08,6.41448e-08,0,0,1
1743177453013379,1743177452859377,1743177452861379,0,0.006,0.5625,0.0013470743,0.00072229496,0.57892007,1.2537892e-07,6.9913334e-08,0,0,1
1743177453069379,1743177452911377,1743177452917379,0,0.006,0.5625,0.0017946251,0.00082331157,0.5789444,2.225208e-07,8.4289404e-08,0,0,1
1743177453117379,1743177452963377,1743177452965379,0,0.006,0.5625,0.001128721,0.00085208204,0.57886606,8.803495e-08,8.4642245e-08,0,0,1
1743177453173379,1743177453015377,1743177453021379,0,0.006,0.5625,0.0009943913,0.00086548796,0.57889515,6.832422e-08,8.310504e-08,0,0,1
1743177453221379,1743177453067377,1743177453069379,0,0.006,0.5625,0.0005235295,0.0008332745,0.57882077,1.8940794e-08,7.7060584e-08,0,0,1
1743177453277379,1743177453119377,1743177453125379,0,0.006,0.5625,0.0011667032,0.00086468447,0.578854,9.4061456e-08,7.866212e-08,0,0,1
1743177453325379,1743177453171378,1743177453173379,0,0.006,0.5625,0.0015686462,0.00093100086,0.57878304,1.7005688e-07,8.727192e-08,0,0,1
1743177453381379,1743177453223378,1743177453229379,0,0.006,0.5625,0.0013561337,0.0009710496,0.57882,1.2709296e-07,9.102318e-08,0,0,1
1743177453429379,1743177453275378,1743177453277379,0,0.006,0.5625,0.00080588646,0.00095549074,0.57875186,4.4886455e-08,8.667697e-08,0,0,1
1743177453485379,1743177453327378,1743177453333379,0,0.006,0.5625,0.00068693794,0.0009301923,0.5787919,3.261163e-08,8.1583856e-08,0,0,1
1743177453533379,1743177453379378,1743177453381379,0,0.006,0.5625,0.0005695261,0.0008962165,0.57872623,2.2418888e-08,7.6010345e-08,0,0,1
1743177453589379,1743177453431378,1743177453437379,0,0.006,0.5625,0.00019593537,0.000830248,0.5787689,2.653264e-09,6.90999e-08,0,0,1
1743177453637379,1743177453483378,1743177453485379,0,0.006,0.5625,-0.0003973646,0.00071460335,0.5787053,1.0913923e-08,6.156236e-08,0,0,1
1743177453693379,1743177453535378,1743177453541379,0,0.006,0.5625,-0.0005914145,0.00059157267,0.57875025,2.4174236e-08,5.3485724e-08,0,0,1
1743177453741379,1743177453587378,1743177453589379,0,0.006,0.5625,-0.0002814806,0.0005093285,0.5786884,5.4766147e-09,4.79313e-08,0,0,1
1743177453797379,1743177453639378,1743177453645379,0,0.006,0.5625,0.00020175567,0.00048035424,0.5787352,2.8134008e-09,4.3681062e-08,0,0,1
1743177453845379,1743177453691379,1743177453693379,0,0.006,0.5625,0.00020862464,0.00045475608,0.5786747,3.0085463e-09,3.9849528e-08,0,0,1
1743177453901379,1743177453743379,1743177453749379,0,0.006,0.5625,0.00047464296,0.0004566295,0.57872295,1.5571247e-08,3.7562444e-08,0,0,1
1743177453949379,1743177453795379,1743177453797379,0,0.006,0.5625,0.0005005654,0.00046076838,0.5786636,1.7320302e-08,3.5655574e-08,0,0,1
1743177454005379,1743177453847379,1743177453853379,0,0.006,0.5625,0.00069090445,0.00048244785,0.5787131,3.2993825e-08,3.540483e-08,0,0,1
1743177454053379,1743177453899379,1743177453901379,0,0.006,0.5625,-0.00016992819,0.00042099215,0.5786546,1.99605e-09,3.188156e-08,0,0,1
1743177454109379,1743177453951379,1743177453957379,0,0.006,0.5625,-0.0003836155,0.00034519576,0.578705,1.0171735e-08,2.7920017e-08,0,0,1
1743177454157379,1743177454003379,1743177454005379,0,0.006,0.5625,-0.0005627903,0.00025966082,0.5786472,2.1894719e-08,2.3227324e-08,0,0,1
1743177454213379,1743177454055379,1743177454061379,0,0.006,0.5625,-0.0002716668,0.00020960822,0.57869834,5.1013e-09,2.0558685e-08,0,0,1
1743177454261379,1743177454107379,1743177454109379,0,0.007,0.5625,-0.0014228942,5.5821743e-05,0.578641,1.3995745e-07,5.437599e-09,0,0,1
1743177454317379,1743177454159379,1743177454165379,0,0.006,0.5625,-0.00081117917,-2.5852263e-05,0.57869256,4.548264e-08,6.4076433e-10,0,0,1
1743177454365379,1743177454211379,1743177454213379,0,0.006,0.5625,-0.0010654293,-0.00012378345,0.57863563,7.847007e-08,-6.8117063e-09,0,0,1
1743177454421379,1743177454263379,1743177454269379,0,0.006,0.5625,-0.0009709168,-0.00020358586,0.5786874,6.515984e-08,-1.230827e-08,0,0,1
1743177454469379,1743177454315379,1743177454317379,0,0.006,0.5625,-0.0013267356,-0.00030938984,0.5786307,1.2168226e-07,-2.2611617e-08,0,0,1
1743177454525379,1743177454367379,1743177454373379,0,0.006,0.5625,-0.00048459554,-0.00032589474,0.57868266,1.6232235e-08,-2.2010662e-08,0,0,1
1743177454573379,1743177454419379,1743177454421379,0,0.006,0.5625,-0.00022005616,-0.00031592444,0.57862604,3.3475656e-09,-2.0252545e-08,0,0,1
1743177454629379,1743177454471379,1743177454477379,0,0.006,0.5625,-0.0010390077,-0.000384041,0.5786779,7.462092e-08,-2.5374204e-08,0,0,1
1743177454677379,1743177454523379,1743177454525379,0,0.006,0.5625,-0.0014680438,-0.0004861572,0.57862127,1.4898536e-07,-3.7018737e-08,0,0,1
1743177454733379,1743177454575379,1743177454581379,0,0.006,0.5625,-0.0018379483,-0.00061349984,0.578673,2.3350348e-07,-5.552817e-08,0,0,1
1743177454781379,1743177454627379,1743177454629379,0,0.006,0.5625,-0.0019868403,-0.0007428725,0.5786163,2.7289477e-07,-7.600473e-08,0,0,1
1743177454837379,1743177454679379,1743177454685379,0,0.006,0.5625,-0.0016501802,-0.0008283435,0.57866776,1.88232e-07,-8.657687e-08,0,0,1
1743177454885379,1743177454731379,1743177454733379,0,0.006,0.5625,-0.002122812,-0.0009502862,0.578611,3.1152746e-07,-1.0776787e-07,0,0,1
1743177454941379,1743177454783379,1743177454789379,0,0.006,0.5625,-0.0017130552,-0.0010221413,0.57866204,2.0285127e-07,-1.16725e-07,0,0,1
1743177454989379,1743177454835379,1743177454837379,0,0.006,0.5625,-0.0020642742,-0.0011203133,0.5786051,2.9458624e-07,-1.3348004e-07,0,0,1
1743177455045379,1743177454887379,1743177454893379,0,0.006,0.5625,-0.0024222764,-0.001242962,0.57865566,4.0558996e-07,-1.5911358e-07,0,0,1
1743177455093379,1743177454939379,1743177454941379,0,0.006,0.5625,-0.002342965,-0.0013465855,0.5785986,3.795021e-07,-1.7987482e-07,0,0,1
1743177455149379,1743177454991379,1743177454997379,0,0.006,0.5625,-0.0026045863,-0.0014650928,0.5786486,4.6894567e-07,-2.0710613e-07,0,0,1
1743177455197379,1743177455043379,1743177455045379,0,0.005,0.5625,-0.00189961,-0.0015060256,0.57859135,2.4946922e-07,-2.1109685e-07,0,0,1
1743177455253379,1743177455095379,1743177455101379,0,0.006,0.5625,-0.002899609,-0.0016373051,0.57864076,5.812057e-07,-2.4596218e-07,0,0,1
1743177455301379,1743177455147379,1743177455149379,0,0.006,0.5625,-0.0026964105,-0.001737076,0.57858324,5.026506e-07,-2.7014298e-07,0,0,1
1743177455357379,1743177455199379,1743177455205379,0,0.006,0.5625,-0.0022932072,-0.0017894652,0.57863206,3.6353322e-07,-2.789406e-07,0,0,1
1743177455405379,1743177455251379,1743177455253379,0,0.006,0.5625,-0.0023102642,-0.001838526,0.5785743,3.6899812e-07,-2.8742429e-07,0,0,1
1743177455461379,1743177455303379,1743177455309379,0,0.006,0.5625,-0.0018241336,-0.0018371702,0.57862246,2.3002654e-07,-2.8201725e-07,0,0,1
1743177455509379,1743177455355379,1743177455357379,0,0.006,0.5625,-0.0016093026,-0.0018157044,0.5785644,1.7905386e-07,-2.723178e-07,0,0,1
1743177455565379,1743177455407379,1743177455413379,0,0.006,0.5625,-0.00067336485,-0.0017080926,0.5786119,3.134538e-08,-2.496175e-07,0,0,1
1743177455613379,1743177455459379,1743177455461379,0,0.006,0.5625,-0.00021060463,-0.001567025,0.5785536,3.0665652e-09,-2.2639169e-07,0,0,1
1743177455669379,1743177455511379,1743177455517379,0,0.006,0.5625,-0.0001276522,-0.0014314319,0.5786004,1.1265172e-09,-2.0517106e-07,0,0,1
1743177455717379,1743177455563379,1743177455565379,0,0.006,0.5625,-0.0006217677,-0.0013551591,0.5785419,2.6728928e-08,-1.883613e-07,0,0,1
1743177455773379,1743177455615379,1743177455621379,0,0.007,0.5625,-0.0012211832,-0.0013425382,0.57858795,1.0309848e-07,-1.803293e-07,0,0,1
1743177455821379,1743177455667379,1743177455669379,0,0.006,0.5625,-0.00010069832,-0.0012255532,0.5785292,7.0109873e-10,-1.6340779e-07,0,0,1
1743177455877379,1743177455719379,1743177455725379,0,0.006,0.5625,-5.3279102e-05,-0.0011151216,0.5785745,1.9625218e-10,-1.480328e-07,0,0,1
1743177455925379,1743177455771379,1743177455773379,0,0.006,0.5625,-0.000387053,-0.0010465354,0.5785155,1.0358238e-08,-1.3506346e-07,0,0,1
1743177455981379,1743177455823379,1743177455829379,0,0.006,0.5625,-0.00012786686,-0.0009599942,0.5785601,1.130388e-09,-1.2244658e-07,0,0,1
1743177456029379,1743177455875379,1743177455877379,0,0.006,0.5625,-0.0005909661,-0.0009252307,0.5785009,2.4147992e-08,-1.13186566e-07,0,0,1
1743177456085379,1743177455927379,1743177455933379,0,0.006,0.5625,-0.00011877017,-0.0008492598,0.57854474,9.752991e-10,-1.02615935e-07,0,0,1
1743177456133379,1743177455979379,1743177455981379,0,0.006,0.5625,-0.00035270397,-0.00080248277,0.57848537,8.60178e-09,-9.375953e-08,0,0,1
1743177456189379,1743177456031379,1743177456037379,0,0.006,0.5625,-9.241374e-05,-0.0007355922,0.5785285,5.904843e-10,-8.498274e-08,0,0,1
1743177456237379,1743177456083379,1743177456085379,0,0.005,0.5625,0.0005472689,-0.000614743,0.5784689,2.0710067e-08,-7.5026165e-08,0,0,1
1743177456293379,1743177456135379,1743177456141379,0,0.005,0.5625,0.0007659099,-0.00048468146,0.57851136,4.056052e-08,-6.4137566e-08,0,0,1
1743177456341379,1743177456187379,1743177456189379,0,0.005,0.5625,0.0013483572,-0.0003120039,0.57845163,1.2571957e-07,-4.6252474e-08,0,0,1
1743177456397379,1743177456239379,1743177456245379,0,0.006,0.5625,0.0006130091,-0.00022486498,0.5784933,2.598337e-08,-3.944765e-08,0,0,1
1743177456445379,1743177456291379,1743177456293379,0,0.005,0.5625,0.0012395149,-8.691613e-05,0.57843345,1.06245395e-07,-2.572294e-08,0,0,1
1743177456501379,1743177456343379,1743177456349379,0,0.005,0.5625,0.0011159778,2.6399968e-05,0.57847446,8.61166e-08,-1.518733e-08,0,0,1
1743177456549379,1743177456395379,1743177456397379,0,0.005,0.5625,0.0007380275,9.343735e-05,0.57841444,3.7667427e-08,-1.0208259e-08,0,0,1
1743177456605379,1743177456447379,1743177456453379,0,0.005,0.5625,0.0007587755,0.00015611414,0.5784548,3.9812292e-08,-5.4961777e-09,0,0,1
1743177456653379,1743177456499379,1743177456501379,0,0.004,0.5625,0.0013836324,0.00027174992,0.5783947,1.3239669e-07,7.493731e-09,0,0,1
1743177456709379,1743177456551379,1743177456557379,0,0.004,0.5625,0.0012613279,0.00036497103,0.57843435,1.1001754e-07,1.7151772e-08,0,0,1
1743177456757379,1743177456603379,1743177456605379,0,0.004,0.5625,0.0011738287,0.00044116777,0.5783742,9.52929e-08,2.4512893e-08,0,0,1
1743177456813379,1743177456655379,1743177456661379,0,0.003,0.5625,0.0016756817,0.00055746257,0.5784132,1.9418016e-07,4.049604e-08,0,0,1
1743177456861379,1743177456707379,1743177456709379,0,0.003,0.5625,0.0013989038,0.0006367288,0.5783529,1.3534516e-07,4.94311e-08,0,0,1
1743177456917379,1743177456759379,1743177456765379,0,0.003,0.5625,0.0011401866,0.00068415597,0.5783913,8.990629e-08,5.324398e-08,0,0,1
1743177456965379,1743177456811379,1743177456813379,0,0.002,0.5625,0.0017524394,0.00078479137,0.57833105,2.1240733e-07,6.823763e-08,0,0,1
1743177457021379,1743177456863379,1743177456869379,0,0.002,0.5625,0.0012293875,0.0008266736,0.5783688,1.0452801e-07,7.1656295e-08,0,0,1
1743177457069379,1743177456915379,1743177456917379,0,0.002,0.5625,0.0011502353,0.000857154,0.5783085,9.1511104e-08,7.352668e-08,0,0,1
1743177457125379,1743177456967379,1743177456973379,0,0.002,0.5625,0.0008143154,0.0008531185,0.57834566,4.586251e-08,7.0920635e-08,0,0,1
1743177457173379,1743177457019379,1743177457021379,0,0.002,0.5625,0.0008087326,0.0008489372,0.5782854,4.5240526e-08,6.850149e-08,0,0,1
1743177457229379,1743177457071379,1743177457077379,0,0.002,0.5625,0.00035713892,0.0008026084,0.57832193,8.821952e-09,6.287951e-08,0,0,1
1743177457277379,1743177457123379,1743177457125379,0,0.002,0.5625,0.00035766186,0.0007606931,0.57826173,8.848727e-09,5.7789652e-08,0,0,1
1743177457333379,1743177457175379,1743177457181379,0,0.002,0.5625,0.00039879535,0.0007266013,0.57829773,1.1000406e-08,5.3381967e-08,0,0,1
1743177457381379,1743177457227379,1743177457229379,0,0.002,0.5625,1.4763093e-05,0.0006595441,0.57823753,1.5076773e-11,4.835465e-08,0,0,1
1743177457437379,1743177457279379,1743177457285379,0,0.002,0.5625,7.393886e-05,0.00060437835,0.578273,3.781574e-10,4.3835126e-08,0,0,1
1743177457485379,1743177457331379,1743177457333379,0,0.001,0.5625,0.00056449627,0.00060062134,0.57821286,2.2044201e-08,4.1782357e-08,0,0,1
1743177457541379,1743177457383379,1743177457389379,0,0.001,0.5625,0.00039562793,0.00058131036,0.5782478,1.0827293e-08,3.88663e-08,0,0,1
1743177457589379,1743177457435379,1743177457437379,0,0.001,0.5625,0.0003324271,0.00055786484,0.5781877,7.645114e-09,3.5925172e-08,0,0,1
1743177457645379,1743177457487379,1743177457493379,0,0.0,0.5625,0.00076777884,0.0005776393,0.57822216,4.077909e-08,3.6382424e-08,0,0,1
1743177457693379,1743177457539379,1743177457541379,0,0.0,0.5625,0.00028514594,0.0005500856,0.5781622,5.625287e-09,3.3485012e-08,0,0,1
1743177457749379,1743177457591379,1743177457597379,0,0.0,0.5625,0.00033843546,0.0005301476,0.57819617,7.9238545e-09,3.107708e-08,0,0,1
1743177457797379,1743177457643379,1743177457645379,0,0.0,0.5625,-0.0002762568,0.00045418192,0.5781363,5.280264e-09,2.7652112e-08,0,0,1
1743177457853379,1743177457695379,1743177457701379,0,0.0,0.5625,-0.0008141317,0.0003347031,0.5781699,4.5855753e-08,2.0727457e-08,0,0,1
1743177457901379,1743177457747379,1743177457749379,0,0.0,0.5625,-0.001470084,0.00016468692,0.57811016,1.4953183e-07,4.6885376e-09,0,0,1
1743177457957379,1743177457799379,1743177457805379,0,0.0,0.5625,-0.0013938088,1.7872095e-05,0.57814324,1.3440979e-07,-8.414928e-09,0,0,1
1743177458005379,1743177457851379,1743177457853379,0,0.0,0.5625,-0.0022905385,-0.0001995869,0.57808363,3.6303166e-07,-4.1820854e-08,0,0,1
1743177458061379,1743177457903379,1743177457909379,0,-0.002,0.5625,-0.0010422783,-0.00027897087,0.5781163,7.516439e-08,-4.496191e-08,0,0,1
1743177458109379,1743177457955379,1743177457957379,0,-0.006,0.5625,0.0011765258,-0.00014185884,0.5780569,9.578387e-08,-3.170325e-08,0,0,1
1743177458165379,1743177458007379,1743177458013379,0,-0.013,0.5625,0.0041899057,0.00026620599,0.5780892,1.2147129e-06,8.571278e-08,0,0,1
1743177458213379,1743177458059379,1743177458061379,0,-0.022,0.5625,0.00822496,0.0010159438,0.5780299,4.6814175e-06,5.1864157e-07,0,0,1
1743177458269379,1743177458111379,1743177458117379,0,-0.033,0.5625,0.010619445,0.0019206216,0.5780618,7.803498e-06,1.2048963e-06,0,0,1
1743177458317379,1743177458163379,1743177458165379,0,-0.046,0.5625,0.014151968,0.00307285,0.5780027,1.3860018e-05,2.3970456e-06,0,0,1
1743177458373379,1743177458215379,1743177458221379,0,-0.06,0.5625,0.015490312,0.004242611,0.5780342,1.6604537e-05,3.7354325e-06,0,0,1
1743177458421379,1743177458267379,1743177458269379,0,-0.077,0.5625,0.019326303,0.005663539,0.57797533,2.5849267e-05,5.8186197e-06,0,0,1
1743177458477379,1743177458319379,1743177458325379,0,-0.096,0.5625,0.021026,0.0071107275,0.57800657,3.0594303e-05,8.152561e-06,0,0,1
1743177458525379,1743177458371379,1743177458373379,0,-0.116,0.5625,0.023398228,0.008645058,0.57794785,3.7891103e-05,1.0954018e-05,0,0,1
1743177458581379,1743177458423379,1743177458429379,0,-0.139,0.5625,0.024937972,0.010179898,0.57797873,4.3039814e-05,1.39765925e-05,0,0,1
1743177458629379,1743177458475379,1743177458477379,0,-0.162,0.5625,0.027902946,0.01184946,0.57792026,5.3888012e-05,1.7736365e-05,0,0,1
1743177458685379,1743177458527379,1743177458533379,0,-0.189,0.5625,0.02909194,0.013473752,0.57795084,5.8575293e-05,2.1583512e-05,0,0,1
1743177458733379,1743177458579379,1743177458581379,0,-0.221,0.5625,0.035682857,0.015565914,0.5778926,8.813169e-05,2.7852544e-05,0,0,1
1743177458789379,1743177458631379,1743177458637379,0,-0.258,0.5625,0.039852902,0.017853819,0.5779229,0.00010992842,3.558433e-05,0,0,1
1743177458837379,1743177458683379,1743177458685379,0,-0.302,0.5625,0.050052613,0.02088704,0.5778649,0.00017341522,4.85684e-05,0,0,1
1743177458893379,1743177458735379,1743177458741379,0,-0.352,0.5625,0.055233955,0.024122618,0.5778949,0.00021116571,6.388554e-05,0,0,1
1743177458941379,1743177458787379,1743177458789379,0,-0.409,0.5625,0.067015976,0.028163297,0.5778371,0.00031089323,8.715439e-05,0,0,1
1743177458997379,1743177458839379,1743177458845379,0,-0.473,0.5625,0.07173678,0.032268047,0.5778669,0.00035621808,0.00011250097,0,0,1
1743177459045379,1743177458891379,1743177458893379,0,-0.543,0.5625,0.08347273,0.037091676,0.5778094,0.00048235257,0.00014734207,0,0,1
1743177459101379,1743177458943379,1743177458949379,0,-0.621,0.5625,0.086983085,0.04179159,0.57783896,0.00052374846,0.00018280065,0,0,1
1743177459149379,1743177458995379,1743177458997379,0,-0.706,0.5625,0.10057056,0.04732874,0.5777817,0.0007002256,0.00023154358,0,0,1
1743177459205379,1743177459047379,1743177459053379,0,-0.8,0.5625,0.103838086,0.052652083,0.577811,0.00074642734,0.00028004713,0,0,1
1743177459253379,1743177459099379,1743177459101379,0,-0.903,0.5625,0.12005383,0.059001524,0.577754,0.0009978587,0.00034766705,0,0,1
1743177459309379,1743177459151379,1743177459157379,0,-1.014,0.5625,0.12176466,0.064913996,0.57778317,0.0010264496,0.00041161035,0,0,1
1743177459357379,1743177459203379,1743177459205379,0,-1.133,0.5625,0.1383627,0.071833074,0.5777264,0.0013254882,0.0004977003,0,0,1
1743177459413379,1743177459255379,1743177459261379,0,-1.258,0.5625,0.13607264,0.07788463,0.5777554,0.0012819101,0.00057157513,0,0,1
1743177459461379,1743177459307379,1743177459309379,0,-1.387,0.5625,0.14886212,0.084570915,0.57769895,0.0015343585,0.0006622721,0,0,1
1743177459517379,1743177459359379,1743177459365379,0,-1.519,0.5625,0.13959908,0.08975473,0.57772774,0.0013492794,0.00072699017,0,0,1
1743177459565379,1743177459411379,1743177459413379,0,-1.655,0.5625,0.15014434,0.09544361,0.5776716,0.0015609785,0.0008055543,0,0,1
1743177459621379,1743177459463379,1743177459469379,0,-1.791,0.5625,0.13701975,0.0993602,0.57770014,0.0012999418,0.00085212704,0,0,1
1743177459669379,1743177459515379,1743177459517379,0,-1.929,0.5625,0.14538717,0.10369607,0.5776443,0.0014636987,0.0009097389,0,0,1
1743177459725379,1743177459567379,1743177459573379,0,-2.069,0.5625,0.1320895,0.106370814,0.5776727,0.0012081328,0.00093784847,0,0,1
1743177459773379,1743177459619379,1743177459621379,0,-2.208,0.5625,0.138628,0.10940953,0.57761717,0.0013308277,0.00097486825,0,0,1
1743177459829379,1743177459671379,1743177459677379,0,-2.349,0.5625,0.124073505,0.11079092,0.5776455,0.0010659988,0.000983453,0,0,1
1743177459877379,1743177459723379,1743177459725379,0,-2.489,0.5625,0.12987447,0.11258865,0.5775902,0.0011681207,0.0010008492,0,0,1
1743177459933379,1743177459775379,1743177459781379,0,-2.63,0.5625,0.11453724,0.11277221,0.5776184,0.00090847374,0.0009921471,0,0,1
1743177459981379,1743177459827379,1743177459829379,0,-2.77,0.5625,0.12057662,0.11350741,0.57756346,0.0010069003,0.0009935369,0,0,1
1743177460037379,1743177459879379,1743177459885379,0,-2.908,0.5625,0.10287309,0.11250563,0.5775915,0.0007328967,0.00096898386,0,0,1
1743177460085379,1743177459931379,1743177459933379,0,-3.046,0.5625,0.10835385,0.11211452,0.5775368,0.000813147,0.0009543036,0,0,1
1743177460141379,1743177459983379,1743177459989379,0,-3.183,0.5625,0.09138775,0.110162,0.5775648,0.0005784093,0.00091889326,0,0,1
1743177460189379,1743177460035379,1743177460037379,0,-3.32,0.5625,0.097589016,0.108977586,0.5775105,0.00065963244,0.00089447014,0,0,1
1743177460245379,1743177460087379,1743177460093379,0,-3.458,0.5625,0.08292937,0.10652377,0.5775383,0.00047631687,0.00085507886,0,0,1
1743177460293379,1743177460139379,1743177460141379,0,-3.597,0.5625,0.090982914,0.10505977,0.57748425,0.000573376,0.00082854164,0,0,1
1743177460349379,1743177460191379,1743177460197379,0,-3.736,0.5625,0.07721257,0.10243648,0.577512,0.00041292864,0.0007893897,0,0,1
1743177460397379,1743177460243379,1743177460245379,0,-3.877,0.5625,0.086699486,0.10095401,0.5774583,0.0005206818,0.00076407666,0,0,1
1743177460453379,1743177460295379,1743177460301379,0,-4.018,0.5625,0.073292255,0.09834819,0.577486,0.00037207862,0.0007271493,0,0,1
1743177460501379,1743177460347379,1743177460349379,0,-4.159,0.5625,0.081371784,0.09674896,0.5774326,0.0004586764,0.0007018584,0,0,1
1743177460557379,1743177460399379,1743177460405379,0,-4.301,0.5625,0.06780577,0.09402243,0.5774602,0.00031847195,0.00066574226,0,0,1
1743177460605379,1743177460451379,1743177460453379,0,-4.443,0.5625,0.07623482,0.09234679,0.5774071,0.00040261005,0.0006409545,0,0,1
1743177460661379,1743177460503379,1743177460509379,0,-4.586,0.5625,0.062483788,0.089533605,0.57743466,0.00027045302,0.00060605217,0,0,1
1743177460709379,1743177460555379,1743177460557379,0,-4.728,0.5625,0.07022762,0.087714925,0.5773819,0.00034167463,0.00058114703,0,0,1
1743177460765379,1743177460607379,1743177460613379,0,-4.871,0.5625,0.05625391,0.0847512,0.5774094,0.0002192207,0.00054705254,0,0,1
1743177460813379,1743177460659379,1743177460661379,0,-5.014,0.5625,0.064866066,0.082877964,0.57735693,0.00029150816,0.00052297954,0,0,1
1743177460869379,1743177460711379,1743177460717379,0,-5.158,0.5625,0.05084324,0.0798602,0.57738435,0.00017908591,0.00049058377,0,0,1
1743177460917379,1743177460763379,1743177460765379,0,-5.302,0.5625,0.05984783,0.07797498,0.5773322,0.0002481596,0.00046774672,0,0,1
1743177460973379,1743177460815379,1743177460821379,0,-5.446,0.5625,0.04600048,0.07496289,0.5773597,0.00014660145,0.0004374939,0,0,1
1743177461021379,1743177460867379,1743177460869379,0,-5.59,0.5625,0.0546875,0.07305289,0.5773078,0.00020721857,0.0004158013,0,0,1
1743177461077379,1743177460919379,1743177460925379,0,-5.735,0.5625,0.041009903,0.07003435,0.5773352,0.00011652241,0.00038760836,0,0,1
1743177461125379,1743177460971379,1743177460973379,0,-5.879,0.5625,0.049271107,0.06807839,0.5772837,0.00016821138,0.00036694054,0,0,1
1743177461181379,1743177461023379,1743177461029379,0,-6.024,0.5625,0.035674095,0.065025814,0.57731104,8.8177156e-05,0.0003406802,0,0,1
1743177461229379,1743177461075379,1743177461077379,0,-6.17,0.5625,0.04556799,0.06319283,0.57725984,0.00014388264,0.0003221413,0,0,1
1743177461285379,1743177461127379,1743177461133379,0,-6.314,0.5625,0.030779362,0.060139388,0.5772872,6.5642824e-05,0.0002979784,0,0,1
1743177461333379,1743177461179379,1743177461181379,0,-6.461,0.5625,0.04155588,0.058388766,0.5772363,0.00011966616,0.00028118087,0,0,1
1743177461389379,1743177461231379,1743177461237379,0,-6.606,0.5625,0.02734375,0.055464234,0.57726365,5.180861e-05,0.00025957334,0,0,1
1743177461437379,1743177461283379,1743177461285379,0,-6.753,0.5625,0.03799057,0.053818163,0.5772131,0.00010001737,0.0002445427,0,0,1
1743177461493379,1743177461335379,1743177461341379,0,-6.899,0.5625,0.02416563,0.05102481,0.57724047,4.0466857e-05,0.00022531816,0,0,1
1743177461541379,1743177461387379,1743177461389379,0,-7.046,0.5625,0.03420019,0.04943988,0.5771902,8.105842e-05,0.00021172847,0,0,1
1743177461597379,1743177461439379,1743177461445379,0,-7.192,0.5625,0.019960403,0.04666283,0.5772176,2.7609534e-05,0.00019438393,0,0,1
1743177461645379,1743177461491379,1743177461493379,0,-7.339,0.5625,0.03015995,0.04510821,0.57716763,6.304045e-05,0.00018201099,0,0,1
1743177461701379,1743177461543379,1743177461549379,0,-7.486,0.5625,0.016798973,0.042441398,0.57719505,1.9557028e-05,0.00016670735,0,0,1
1743177461749379,1743177461595379,1743177461597379,0,-7.632,0.5625,0.025905132,0.040883634,0.57714546,4.6510002e-05,0.00015538442,0,0,1
1743177461805379,1743177461647379,1743177461653379,0,-7.78,0.5625,0.013256073,0.03828104,0.57717294,1.217822e-05,0.00014189398,0,0,1
1743177461853379,1743177461699379,1743177461701379,0,-7.927,0.5625,0.022845268,0.036826946,0.57712364,3.617293e-05,0.00013193475,0,0,1
1743177461909379,1743177461751379,1743177461757379,0,-8.075,0.5625,0.009823799,0.034283172,0.5771512,6.6885095e-06,0.00012013619,0,0,1
1743177461957379,1743177461803379,1743177461805379,0,-8.223,0.5625,0.020113945,0.03294839,0.5771022,2.8041533e-05,0.000111460606,0,0,1
1743177462013379,1743177461855379,1743177461861379,0,-8.371,0.5625,0.0070123672,0.030505141,0.5771298,3.4081272e-06,0.00010128175,0,0,1
1743177462061379,1743177461907379,1743177461909379,0,-8.519,0.5625,0.017029762,0.02923572,0.57708114,2.0102047e-05,9.3634386e-05,0,0,1
1743177462117379,1743177461959379,1743177461965379,0,-8.668,0.5625,0.004538536,0.026909174,0.5771088,1.4276898e-06,8.4948246e-05,0,0,1
1743177462165379,1743177462011379,1743177462013379,0,-8.816,0.5625,0.014447212,0.025735222,0.5770605,1.4467942e-05,7.8308796e-05,0,0,1
1743177462221379,1743177462063379,1743177462069379,0,-8.965,0.5625,0.001627922,0.023464244,0.57708824,1.8368978e-07,7.094919e-05,0,0,1
1743177462269379,1743177462115379,1743177462117379,0,-9.113,0.5625,0.01154995,0.022341883,0.57704026,9.247281e-06,6.5136686e-05,0,0,1
1743177462325379,1743177462167379,1743177462173379,0,-9.262,0.5625,-0.0015954971,0.020086912,0.5770681,1.7645135e-07,5.8984e-05,0,0,1
1743177462373379,1743177462219379,1743177462221379,0,-9.411,0.5625,0.008833885,0.019026844,0.57702047,5.4096886e-06,5.3937143e-05,0,0,1
1743177462429379,1743177462271379,1743177462277379,0,-9.56,0.5625,-0.0039310455,0.016864143,0.5770484,1.0711835e-06,4.87552e-05,0,0,1
1743177462477379,1743177462323379,1743177462325379,0,-9.71,0.5625,0.0076208115,0.015993394,0.57700115,4.026111e-06,4.454159e-05,0,0,1
1743177462533379,1743177462375379,1743177462381379,0,-9.86,0.5625,-0.004714966,0.014042607,0.5770292,1.5410591e-06,4.020047e-05,0,0,1
1743177462581379,1743177462427379,1743177462429379,0,-10.009,0.5625,0.0055446625,0.013242075,0.57698226,2.1313156e-06,3.6614245e-05,0,0,1
1743177462637379,1743177462479379,1743177462485379,0,-10.159,0.5625,-0.007062912,0.011329287,0.57701045,3.4581506e-06,3.2839307e-05,0,0,1
1743177462685379,1743177462531379,1743177462533379,0,-10.308,0.5625,0.0029745102,0.010542243,0.5769639,6.133979e-07,2.9803534e-05,0,0,1
1743177462741379,1743177462583379,1743177462589379,0,-10.458,0.5625,-0.009727478,0.008632776,0.5769922,6.559799e-06,2.6378002e-05,0,0,1
1743177462789379,1743177462635379,1743177462637379,0,-10.609,0.5625,0.002216339,0.008028329,0.57694596,3.4056285e-07,2.39252e-05,0,0,1
1743177462845379,1743177462687379,1743177462693379,0,-10.759,0.5625,-0.010754585,0.0062589245,0.57697445,8.018455e-06,2.0916015e-05,0,0,1
1743177462893379,1743177462739379,1743177462741379,0,-10.909,0.5625,0.00011920929,0.0056805452,0.57692856,9.852765e-10,1.8945759e-05,0,0,1
1743177462949379,1743177462791379,1743177462797379,0,-11.06,0.5625,-0.012011528,0.0040139006,0.5769572,1.00026e-05,1.6218739e-05,0,0,1
1743177462997379,1743177462843379,1743177462845379,0,-11.211,0.5625,-0.00047016144,0.003591489,0.5769117,1.532656e-08,1.4689443e-05,0,0,1
1743177463053379,1743177462895379,1743177462901379,0,-11.361,0.5625,-0.013802528,0.0019529221,0.57694054,1.3208279e-05,1.2061397e-05,0,0,1
1743177463101379,1743177462947379,1743177462949379,0,-11.513,0.5625,-0.0015058517,0.0016270955,0.5768953,1.572271e-07,1.0910367e-05,0,0,1
1743177463157379,1743177462999379,1743177463005379,0,-11.663,0.5625,-0.015040398,5.6969235e-05,0.5769243,1.5684107e-05,8.40509e-06,0,0,1
1743177463205379,1743177463051379,1743177463053379,0,-11.814,0.5625,-0.0036039352,-0.0002878986,0.57687944,9.005937e-07,7.5284674e-06,0,0,1
1743177463261379,1743177463103379,1743177463109379,0,-11.966,0.5625,-0.015275955,-0.001699817,0.57690865,1.617967e-05,5.295092e-06,0,0,1
1743177463309379,1743177463155379,1743177463157379,0,-12.117,0.5625,-0.0043153763,-0.0019462103,0.5768641,1.29129e-06,4.6746354e-06,0,0,1
1743177463365379,1743177463207379,1743177463213379,0,-12.269,0.5625,-0.016158104,-0.003285012,0.5768935,1.8102774e-05,2.5289373e-06,0,0,1
1743177463413379,1743177463259379,1743177463261379,0,-12.42,0.5625,-0.0053071976,-0.0034755077,0.57684934,1.9531162e-06,2.1067149e-06,0,0,1
1743177463469379,1743177463311379,1743177463317379,0,-12.571,0.5625,-0.018252373,-0.0048675314,0.5768789,2.3100107e-05,-2.6784096e-07,0,0,1
1743177463517379,1743177463363379,1743177463365379,0,-12.723,0.5625,-0.0063934326,-0.005011276,0.57683504,2.8345007e-06,-5.0962774e-07,0,0,1
1743177463573379,1743177463415379,1743177463421379,0,-12.875,0.5625,-0.018470764,-0.006279199,0.57686484,2.3656781e-05,-2.6901566e-06,0,0,1
1743177463621379,1743177463467379,1743177463469379,0,-13.026,0.5625,-0.0077438354,-0.006417172,0.5768213,4.1584444e-06,-2.8284735e-06,0,0,1
1743177463677379,1743177463519379,1743177463525379,0,-13.179,0.5625,-0.019116402,-0.0076134764,0.57685125,2.5340107e-05,-4.9491346e-06,0,0,1
1743177463725379,1743177463571379,1743177463573379,0,-13.33,0.5625,-0.008377075,-0.0076854094,0.57680804,4.8664638e-06,-4.9413466e-06,0,0,1
1743177463781379,1743177463623379,1743177463629379,0,-13.483,0.5625,-0.01976204,-0.008823063,0.5768382,2.70813e-05,-7.0269944e-06,0,0,1
1743177463829379,1743177463675379,1743177463677379,0,-13.635,0.5625,-0.008265495,-0.0087705385,0.5767953,4.7377926e-06,-6.811345e-06,0,0,1
1743177463885379,1743177463727379,1743177463733379,0,-13.787,0.5625,-0.020763397,-0.009900301,0.5768257,2.989594e-05,-8.9859805e-06,0,0,1
1743177463933379,1743177463779379,1743177463781379,0,-13.939,0.5625,-0.009352684,-0.009848714,0.57678306,6.066246e-06,-8.710933e-06,0,0,1
1743177463989379,1743177463831379,1743177463837379,0,-14.091,0.5625,-0.02209282,-0.011002144,0.5768136,3.3847515e-05,-1.10788715e-05,0,0,1
1743177464037379,1743177463883379,1743177463885379,0,-14.244,0.5625,-0.01007843,-0.010915128,0.57677126,7.0443702e-06,-1.069881e-05,0,0,1
1743177464093379,1743177463935379,1743177463941379,0,-14.397,0.5625,-0.021878242,-0.011947885,0.576802,3.3193883e-05,-1.2817911e-05,0,0,1
1743177464141379,1743177463987379,1743177463989379,0,-14.549,0.5625,-0.01077652,-0.011837539,0.57676,8.054191e-06,-1.2369154e-05,0,0,1
1743177464197379,1743177464039379,1743177464045379,0,-14.701,0.5625,-0.023798943,-0.012964338,0.57679087,3.9278682e-05,-1.490411e-05,0,0,1
1743177464245379,1743177464091379,1743177464093379,0,-14.854,0.5625,-0.01158905,-0.012834782,0.5767491,9.314698e-06,-1.4377571e-05,0,0,1
1743177464301379,1743177464143379,1743177464149379,0,-15.007,0.5625,-0.023701668,-0.013858474,0.57678014,3.8958973e-05,-1.669321e-05,0,0,1
1743177464349379,1743177464195379,1743177464197379,0,-15.159,0.5625,-0.0126132965,-0.013741175,0.57673866,1.1034131e-05,-1.6160107e-05,0,0,1
1743177464405379,1743177464247379,1743177464253379,0,-15.313,0.5625,-0.023719788,-0.014681189,0.5767699,3.9019258e-05,-1.8313505e-05,0,0,1
1743177464453379,1743177464299379,1743177464301379,0,-15.466,0.5625,-0.011878967,-0.0144172115,0.5767286,9.786916e-06,-1.7510276e-05,0,0,1
1743177464509379,1743177464351379,1743177464357379,0,-15.619,0.5625,-0.024489403,-0.015366041,0.57676,4.15931e-05,-1.9778949e-05,0,0,1
1743177464557379,1743177464403379,1743177464405379,0,-15.772,0.5625,-0.012934685,-0.015137,0.5767189,1.1603994e-05,-1.9008845e-05,0,0,1
1743177464613379,1743177464455379,1743177464461379,0,-15.925,0.5625,-0.025221825,-0.01608702,0.57675046,4.411894e-05,-2.137429e-05,0,0,1
1743177464661379,1743177464507379,1743177464509379,0,-16.079,0.5625,-0.013288498,-0.01582339,0.5767096,1.22477e-05,-2.0514539e-05,0,0,1
1743177464717379,1743177464559379,1743177464565379,0,-16.232,0.5625,-0.025716782,-0.016755376,0.5767413,4.586825e-05,-2.2902932e-05,0,0,1
1743177464765379,1743177464611379,1743177464613379,0,-16.386,0.5625,-0.013240814,-0.016424295,0.5767007,1.216015e-05,-2.189093e-05,0,0,1
1743177464821379,1743177464663379,1743177464669379,0,-16.539,0.5625,-0.025623322,-0.01729087,0.57673246,4.5536166e-05,-2.411838e-05,0,0,1
1743177464869379,1743177464715379,1743177464717379,0,-16.693,0.5625,-0.013147354,-0.01690054,0.57669204,1.198927e-05,-2.2975782e-05,0,0,1
1743177464925379,1743177464767379,1743177464773379,0,-16.847,0.5625,-0.024837494,-0.017648224,0.57672393,4.2786578e-05,-2.4842017e-05,0,0,1
1743177464973379,1743177464819379,1743177464821379,0,-17.0,0.5625,-0.013626099,-0.017269328,0.5766837,1.2878503e-05,-2.3715018e-05,0,0,1
1743177465029379,1743177464871379,1743177464877379,0,-17.154,0.5625,-0.026050568,-0.018096546,0.5767157,4.706874e-05,-2.5915007e-05,0,0,1
1743177465077379,1743177464923379,1743177464925379,0,-17.308,0.5625,-0.0142765045,-0.017736686,0.57667565,1.4137485e-05,-2.4805531e-05,0,0,1
1743177465133379,1743177464975379,1743177464981379,0,-17.461,0.5625,-0.02706337,-0.018615287,0.5767077,5.08005e-05,-2.7254333e-05,0,0,1
1743177465181379,1743177465027379,1743177465029379,0,-17.613,0.5625,-0.016290665,-0.018396301,0.57666785,1.8408222e-05,-2.6421003e-05,0,0,1
1743177465237379,1743177465079379,1743177465085379,0,-17.763,0.5625,-0.030824661,-0.01956709,0.57670003,6.590322e-05,-3.0140343e-05,0,0,1
1743177465285379,1743177465131379,1743177465133379,0,-17.911,0.5625,-0.02168274,-0.01976639,0.5766603,3.261131e-05,-3.0373116e-05,0,0,1
1743177465341379,1743177465183379,1743177465189379,0,-18.057,0.5625,-0.03670883,-0.021362418,0.5766925,9.3466675e-05,-3.6316713e-05,0,0,1
1743177465389379,1743177465235379,1743177465237379,0,-18.2,0.5625,-0.028892517,-0.022071775,0.57665294,5.790502e-05,-3.8350394e-05,0,0,1
1743177465445379,1743177465287379,1743177465293379,0,-18.344,0.5625,-0.04134369,-0.023887245,0.5766853,0.00011856037,-4.5906407e-05,0,0,1
1743177465493379,1743177465339379,1743177465341379,0,-18.486,0.5625,-0.031438828,-0.024598626,0.5766459,6.856199e-05,-4.8040627e-05,0,0,1
1743177465549379,1743177465391379,1743177465397379,0,-18.628,0.5625,-0.043172836,-0.026348371,0.57667834,0.00012928482,-5.5694065e-05,0,0,1
1743177465597379,1743177465443379,1743177465445379,0,-18.77,0.5625,-0.031469345,-0.026830781,0.57663906,6.869598e-05,-5.6918885e-05,0,0,1
1743177465653379,1743177465495379,1743177465501379,0,-18.912,0.5625,-0.042015076,-0.028261187,0.57667154,0.0001224452,-6.3091655e-05,0,0,1
1743177465701379,1743177465547379,1743177465549379,0,-19.056,0.5625,-0.028779984,-0.028310059,0.57663244,5.7456877e-05,-6.2560845e-05,0,0,1
1743177465757379,1743177465599379,1743177465605379,0,-19.198,0.5625,-0.03968811,-0.029381905,0.5766649,0.00010925902,-6.695995e-05,0,0,1
1743177465805379,1743177465651379,1743177465653379,0,-19.339,0.5625,-0.029251099,-0.029369583,0.5766259,5.9354028e-05,-6.624345e-05,0,0,1
1743177465861379,1743177465703379,1743177465709379,0,-19.478,0.5625,-0.042333603,-0.030590832,0.57665837,0.00012431166,-7.171364e-05,0,0,1
1743177465909379,1743177465755379,1743177465757379,0,-19.614,0.5625,-0.035476685,-0.031051094,0.5766194,8.730856e-05,-7.318273e-05,0,0,1
1743177465965379,1743177465807379,1743177465813379,0,-19.748,0.5625,-0.04982567,-0.032819714,0.576652,0.00017220766,-8.2511164e-05,0,0,1
1743177466013379,1743177465859379,1743177465861379,0,-19.877,0.5625,-0.044237137,-0.03389527,0.5766131,0.00013575303,-8.75267e-05,0,0,1
1743177466069379,1743177465911379,1743177465917379,0,-20.004,0.5625,-0.058916092,-0.036252305,0.57664573,0.00024077909,-0.000101963524,0,0,1
1743177466117379,1743177465963379,1743177465965379,0,-20.127,0.5625,-0.053367615,-0.037864618,0.57660705,0.00019757665,-0.000110970555,0,0,1
1743177466173379,1743177466015379,1743177466021379,0,-20.248,0.5625,-0.066511154,-0.040563203,0.5766397,0.00030686293,-0.00012942418,0,0,1
1743177466221379,1743177466067379,1743177466069379,0,-20.366,0.5625,-0.060041428,-0.04239811,0.57660115,0.00025008435,-0.00014079073,0,0,1
1743177466277379,1743177466119379,1743177466125379,0,-20.48,0.5625,-0.07306862,-0.04528736,0.5766339,0.00037035794,-0.00016241663,0,0,1
1743177466325379,1743177466171379,1743177466173379,0,-20.591,0.5625,-0.06790733,-0.047418226,0.5765954,0.00031990584,-0.00017725257,0,0,1
1743177466381379,1743177466223379,1743177466229379,0,-20.701,0.5625,-0.07848549,-0.05034485,0.5766282,0.0004273098,-0.00020080869,0,0,1
1743177466429379,1743177466275379,1743177466277379,0,-20.806,0.5625,-0.07349014,-0.052525204,0.5765898,0.00037467197,-0.00021718712,0,0,1
1743177466485379,1743177466327379,1743177466333379,0,-20.911,0.5625,-0.08314896,-0.05541005,0.57662266,0.000479603,-0.00024190746,0,0,1
1743177466533379,1743177466379379,1743177466381379,0,-21.011,0.5625,-0.077955246,-0.05753387,0.57658434,0.00042158764,-0.00025883387,0,0,1
1743177466589379,1743177466431379,1743177466437379,0,-21.11,0.5625,-0.08743286,-0.060350444,0.5766172,0.0005303002,-0.0002844068,0,0,1
1743177466637379,1743177466483379,1743177466485379,0,-21.206,0.5625,-0.081287384,-0.062322766,0.576579,0.00045840302,-0.00030079775,0,0,1
1743177466693379,1743177466535379,1743177466541379,0,-21.3,0.5625,-0.09009552,-0.06493904,0.5766118,0.0005630965,-0.00032550705,0,0,1
1743177466741379,1743177466587379,1743177466589379,0,-21.392,0.5625,-0.08355522,-0.06669273,0.57657367,0.00048434228,-0.0003404698,0,0,1
1743177466797379,1743177466639379,1743177466645379,0,-21.482,0.5625,-0.09157562,-0.069036774,0.5766065,0.0005817551,-0.00036319956,0,0,1
1743177466845379,1743177466691379,1743177466693379,0,-21.569,0.5625,-0.08568764,-0.07060534,0.5765684,0.0005093842,-0.0003769706,0,0,1
1743177466901379,1743177466743379,1743177466749379,0,-21.655,0.5625,-0.092731476,-0.07268968,0.57660127,0.0005965389,-0.00039765457,0,0,1
1743177466949379,1743177466795379,1743177466797379,0,-21.738,0.5625,-0.087026596,-0.074040264,0.57656324,0.00052543264,-0.00040969162,0,0,1
1743177467005379,1743177466847379,1743177466853379,0,-21.82,0.5625,-0.09360695,-0.0758835,0.5765961,0.0006078613,-0.00042835978,0,0,1
1743177467053379,1743177466899379,1743177466901379,0,-21.9,0.5625,-0.08718681,-0.07694831,0.5765581,0.00052737375,-0.00043768718,0,0,1
1743177467109379,1743177466951379,1743177466957379,0,-21.978,0.5625,-0.09354973,-0.07851221,0.57659096,0.0006071238,-0.0004536486,0,0,1
1743177467157379,1743177467003379,1743177467005379,0,-22.053,0.5625,-0.088157654,-0.079420835,0.576553,0.00053918874,-0.00046170672,0,0,1
1743177467213379,1743177467055379,1743177467061379,0,-22.128,0.5625,-0.093387604,-0.08073655,0.5765858,0.0006050266,-0.00047520787,0,0,1
1743177467261379,1743177467107379,1743177467109379,0,-22.201,0.5625,-0.08768082,-0.081390716,0.5765479,0.00053337635,-0.0004806875,0,0,1
1743177467317379,1743177467159379,1743177467165379,0,-22.271,0.5625,-0.09394264,-0.082573146,0.5765807,0.0006122453,-0.00049308065,0,0,1
1743177467365379,1743177467211379,1743177467213379,0,-22.341,0.5625,-0.08714104,-0.083003454,0.57654285,0.00052683405,-0.0004962603,0,0,1
1743177467421379,1743177467263379,1743177467269379,0,-22.409,0.5625,-0.09208679,-0.08385913,0.5765756,0.0005882994,-0.0005049307,0,0,1
1743177467469379,1743177467315379,1743177467317379,0,-22.475,0.5625,-0.08629227,-0.08408834,0.5765378,0.00051662565,-0.0005060324,0,0,1
1743177467525379,1743177467367379,1743177467373379,0,-22.539,0.5625,-0.091371536,-0.08477444,0.57657045,0.0005792012,-0.0005129251,0,0,1
1743177467573379,1743177467419379,1743177467421379,0,-22.603,0.5625,-0.08479118,-0.08477602,0.57653266,0.00049881265,-0.0005115957,0,0,1
1743177467629379,1743177467471379,1743177467477379,0,-22.665,0.5625,-0.08847809,-0.08512477,0.5765653,0.00054310396,-0.0005145639,0,0,1
1743177467677379,1743177467523379,1743177467525379,0,-22.725,0.5625,-0.08395767,-0.08501483,0.5765276,0.0004890584,-0.0005121612,0,0,1
1743177467733379,1743177467575379,1743177467581379,0,-22.784,0.5625,-0.08768082,-0.08526597,0.5765602,0.000533365,-0.00051415863,0,0,1
1743177467781379,1743177467627379,1743177467629379,0,-22.842,0.5625,-0.08156967,-0.08491777,0.5765224,0.00046163768,-0.000509211,0,0,1
1743177467837379,1743177467679379,1743177467685379,0,-22.898,0.5625,-0.085264206,-0.0849504,0.576555,0.00050437404,-0.0005087553,0,0,1
1743177467885379,1743177467731379,1743177467733379,0,-22.952,0.5625,-0.080415726,-0.08452322,0.5765173,0.00044867268,-0.0005030954,0,0,1
1743177467941379,1743177467783379,1743177467789379,0,-23.006,0.5625,-0.08366585,-0.08444246,0.57654977,0.00048564578,-0.0005014516,0,0,1
1743177467989379,1743177467835379,1743177467837379,0,-23.059,0.5625,-0.07806969,-0.08384213,0.57651204,0.00042287938,-0.00049404986,0,0,1
1743177468045379,1743177467887379,1743177467893379,0,-23.11,0.5625,-0.080963135,-0.08357092,0.5765445,0.0004547804,-0.0004903506,0,0,1
1743177468093379,1743177467939379,1743177467941379,0,-23.159,0.5625,-0.0764637,-0.082901396,0.5765068,0.0004056637,-0.00048237285,0,0,1
1743177468149379,1743177467991379,1743177467997379,0,-23.208,0.5625,-0.07899094,-0.08253302,0.5765392,0.00043289806,-0.0004777122,0,0,1
1743177468197379,1743177468043379,1743177468045379,0,-23.255,0.5625,-0.074611664,-0.081786804,0.57650155,0.000386254,-0.00046909656,0,0,1
1743177468253379,1743177468095379,1743177468101379,0,-23.302,0.5625,-0.07630348,-0.08127026,0.57653385,0.00040394653,-0.00046295923,0,0,1
1743177468301379,1743177468147379,1743177468149379,0,-23.347,0.5625,-0.07169533,-0.08036827,0.5764962,0.00035665245,-0.00045294483,0,0,1
1743177468357379,1743177468199379,1743177468205379,0,-23.391,0.5625,-0.074279785,-0.07979472,0.5765285,0.00038280757,-0.0004463377,0,0,1
1743177468405379,1743177468251379,1743177468253379,0,-23.434,0.5625,-0.069913864,-0.07886391,0.5764908,0.00033915185,-0.0004362405,0,0,1
1743177468461379,1743177468303379,1743177468309379,0,-23.476,0.5625,-0.07168388,-0.07818753,0.576523,0.00035652207,-0.00042873077,0,0,1
1743177468509379,1743177468355379,1743177468357379,0,-23.517,0.5625,-0.06745911,-0.077176884,0.5764854,0.0003157569,-0.0004180883,0,0,1
1743177468565379,1743177468407379,1743177468413379,0,-23.558,0.5625,-0.06922722,-0.076428,0.5765175,0.00033250733,-0.00041002635,0,0,1
1743177468613379,1743177468459379,1743177468461379,0,-23.597,0.5625,-0.06520653,-0.07537091,0.5764799,0.00029502442,-0.00039919282,0,0,1
1743177468669379,1743177468511379,1743177468517379,0,-23.635,0.5625,-0.06702614,-0.074584804,0.576512,0.00031170232,-0.00039095097,0,0,1
1743177468717379,1743177468563379,1743177468565379,0,-23.672,0.5625,-0.062784195,-0.073473155,0.5764744,0.00027351466,-0.00037988814,0,0,1
1743177468773379,1743177468615379,1743177468621379,0,-23.709,0.5625,-0.06378937,-0.072560914,0.57650644,0.000282327,-0.00037069758,0,0,1
1743177468821379,1743177468667379,1743177468669379,0,-23.744,0.5625,-0.06034851,-0.07141047,0.5764689,0.000252707,-0.00035958254,0,0,1
1743177468877379,1743177468719379,1743177468725379,0,-23.778,0.5625,-0.06147766,-0.07047477,0.5765008,0.00026223747,-0.00035041236,0,0,1
1743177468925379,1743177468771379,1743177468773379,0,-23.812,0.5625,-0.056617737,-0.0691694,0.5764633,0.00022243,-0.00033835604,0,0,1
1743177468981379,1743177468823379,1743177468829379,0,-23.845,0.5625,-0.05714035,-0.06803623,0.5764951,0.00022654276,-0.0003278229,0,0,1
1743177469029379,1743177468875379,1743177468877379,0,-23.877,0.5625,-0.052864075,-0.06660697,0.5764576,0.0001939161,-0.00031520848,0,0,1
1743177469085379,1743177468927379,1743177468933379,0,-23.909,0.5625,-0.053297043,-0.06535313,0.5764894,0.00019709469,-0.00030408183,0,0,1
1743177469133379,1743177468979379,1743177468981379,0,-23.939,0.5625,-0.050640106,-0.06396712,0.5764519,0.00017794514,-0.00029219937,0,0,1
1743177469189379,1743177469031379,1743177469037379,0,-23.969,0.5625,-0.051216125,-0.06276594,0.5764836,0.00018200632,-0.00028181888,0,0,1
1743177469237379,1743177469083379,1743177469085379,0,-23.998,0.5625,-0.047124863,-0.061292507,0.5764461,0.00015409959,-0.00026978736,0,0,1
1743177469293379,1743177469135379,1743177469141379,0,-24.026,0.5625,-0.048440933,-0.06008185,0.5764778,0.00016281799,-0.00025971053,0,0,1
1743177469341379,1743177469187379,1743177469189379,0,-24.054,0.5625,-0.043405533,-0.058510892,0.57644033,0.00013073618,-0.00024756076,0,0,1
1743177469397379,1743177469239379,1743177469245379,0,-24.081,0.5625,-0.043756485,-0.057120983,0.5764719,0.00013285156,-0.00023675483,0,0,1
1743177469445379,1743177469291379,1743177469293379,0,-24.107,0.5625,-0.040771484,-0.055580813,0.5764345,0.00011535146,-0.00022531828,0,0,1
1743177469501379,1743177469343379,1743177469349379,0,-24.133,0.5625,-0.040855408,-0.05419364,0.576466,0.000115820476,-0.00021500327,0,0,1
1743177469549379,1743177469395379,1743177469397379,0,-24.157,0.5625,-0.03794861,-0.052663308,0.5764286,9.993237e-05,-0.00020416325,0,0,1
1743177469605379,1743177469447379,1743177469453379,0,-24.182,0.5625,-0.037590027,-0.05124336,0.5764601,9.804738e-05,-0.00019416683,0,0,1
1743177469653379,1743177469499379,1743177469501379,0,-24.205,0.5625,-0.034975052,-0.04971084,0.5764227,8.488592e-05,-0.00018387225,0,0,1
1743177469709379,1743177469551379,1743177469557379,0,-24.229,0.5625,-0.034044266,-0.048235003,0.5764541,8.0423546e-05,-0.00017412708,0,0,1
1743177469757379,1743177469603379,1743177469605379,0,-24.252,0.5625,-0.030916214,-0.046603523,0.57641673,6.632786e-05,-0.00016397209,0,0,1
1743177469813379,1743177469655379,1743177469661379,0,-24.274,0.5625,-0.03185463,-0.045214135,0.5764481,7.041171e-05,-0.00015515843,0,0,1
1743177469861379,1743177469707379,1743177469709379,0,-24.296,0.5625,-0.029035568,-0.043690067,0.5764107,5.850441e-05,-0.00014605334,0,0,1
1743177469917379,1743177469759379,1743177469765379,0,-24.316,0.5625,-0.029815674,-0.04238306,0.576442,6.1686995e-05,-0.00013810578,0,0,1
1743177469965379,1743177469811379,1743177469813379,0,-24.336,0.5625,-0.027519226,-0.040982842,0.57640463,5.25539e-05,-0.00013004655,0,0,1
1743177470021379,1743177469863379,1743177469869379,0,-24.356,0.5625,-0.027431488,-0.039706264,0.57643586,5.2216496e-05,-0.00012271473,0,0,1
1743177470069379,1743177469915379,1743177469917379,0,-24.375,0.5625,-0.025306702,-0.038349785,0.57639855,4.4443495e-05,-0.000115341354,0,0,1
1743177470125379,1743177469967379,1743177469973379,0,-24.393,0.5625,-0.02542305,-0.037132047,0.5764297,4.485067e-05,-0.00010870093,0,0,1
1743177470173379,1743177470019379,1743177470021379,0,-24.411,0.5625,-0.022550583,-0.035758432,0.5763924,3.5290457e-05,-0.00010178545,0,0,1
1743177470229379,1743177470071379,1743177470077379,0,-24.429,0.5625,-0.021886826,-0.034451686,0.5764236,3.3241744e-05,-9.532843e-05,0,0,1
1743177470277379,1743177470123379,1743177470125379,0,-24.446,0.5625,-0.019662857,-0.033058535,0.57638633,2.6831167e-05,-8.887579e-05,0,0,1
1743177470333379,1743177470175379,1743177470181379,0,-24.463,0.5625,-0.019691467,-0.03179932,0.5764174,2.6907855e-05,-8.3038234e-05,0,0,1
1743177470381379,1743177470227379,1743177470229379,0,-24.48,0.5625,-0.016958237,-0.030401247,0.5763802,1.9957784e-05,-7.709587e-05,0,0,1
1743177470437379,1743177470279379,1743177470285379,0,-24.497,0.5625,-0.016241074,-0.029067317,0.57641125,1.8304463e-05,-7.155755e-05,0,0,1
1743177470485379,1743177470331379,1743177470333379,0,-24.514,0.5625,-0.013113022,-0.027564377,0.57637405,1.1933315e-05,-6.5940774e-05,0,0,1
1743177470541379,1743177470383379,1743177470389379,0,-24.53,0.5625,-0.013206482,-0.02621182,0.57640505,1.2103375e-05,-6.0869133e-05,0,0,1
1743177470589379,1743177470435379,1743177470437379,0,-24.546,0.5625,-0.01086998,-0.024766576,0.57636786,8.200072e-06,-5.5907556e-05,0,0,1
1743177470645379,1743177470487379,1743177470493379,0,-24.562,0.5625,-0.01068306,-0.023439867,0.5763988,7.920055e-06,-5.1386993e-05,0,0,1
1743177470693379,1743177470539379,1743177470541379,0,-24.577,0.5625,-0.008752823,-0.022056306,0.5763616,5.3169333e-06,-4.704706e-05,0,0,1
1743177470749379,1743177470591379,1743177470597379,0,-24.593,0.5625,-0.0077991486,-0.02071324,0.5763924,4.221202e-06,-4.301274e-05,0,0,1
1743177470797379,1743177470643379,1743177470645379,0,-24.608,0.5625,-0.004840851,-0.019218015,0.5763552,1.6263468e-06,-3.911402e-05,0,0,1
1743177470853379,1743177470695379,1743177470701379,0,-24.623,0.5625,-0.0049362183,-0.017872628,0.57638586,1.690968e-06,-3.558866e-05,0,0,1
1743177470901379,1743177470747379,1743177470749379,0,-24.638,0.5625,-0.0029277802,-0.01646478,0.57634866,5.949105e-07,-3.2292148e-05,0,0,1
1743177470957379,1743177470799379,1743177470805379,0,-24.652,0.5625,-0.0023860931,-0.0151385255,0.5763792,3.9511772e-07,-2.9287356e-05,0,0,1
1743177471005379,1743177470851379,1743177470853379,0,-24.666,0.5625,-0.00044059753,-0.013753938,0.57634187,1.3472989e-08,-2.6529671e-05,0,0,1
1743177471061379,1743177470903379,1743177470909379,0,-24.679,0.5625,-0.0011634827,-0.01256788,0.57637227,9.3945665e-08,-2.403935e-05,0,0,1
1743177471109379,1743177470955379,1743177470957379,0,-24.691,0.5625,8.9645386e-05,-0.011375504,0.57633495,5.5775173e-10,-2.177472e-05,0,0,1
1743177471165379,1743177471007379,1743177471013379,0,-24.702,0.5625,-0.0002937317,-0.010331568,0.57636523,5.987752e-09,-1.9724042e-05,0,0,1
1743177471213379,1743177471059379,1743177471061379,0,-24.713,0.5625,0.00064849854,-0.009297214,0.576328,2.9188266e-08,-1.786323e-05,0,0,1
1743177471269379,1743177471111379,1743177471117379,0,-24.723,0.5625,0.00056648254,-0.0083680255,0.5763583,2.2271038e-08,-1.6178365e-05,0,0,1
1743177471317379,1743177471163379,1743177471165379,0,-24.732,0.5625,0.0009441376,-0.007490793,0.57632124,6.186798e-08,-1.4648487e-05,0,0,1
1743177471373379,1743177471215379,1743177471221379,0,-24.741,0.5625,0.0012321472,-0.0066690664,0.5763517,1.053653e-07,-1.3258632e-05,0,0,1
1743177471421379,1743177471267379,1743177471269379,0,-24.749,0.5625,0.0015201569,-0.005897618,0.57631487,1.6038989e-07,-1.1994521e-05,0,0,1
1743177471477379,1743177471319379,1743177471325379,0,-24.757,0.5625,0.0017375946,-0.005178359,0.5763455,2.095434e-07,-1.0844862e-05,0,0,1
1743177471525379,1743177471371379,1743177471373379,0,-24.765,0.5625,0.003074646,-0.004400902,0.57630885,6.561376e-07,-9.761435e-06,0,0,1
1743177471581379,1743177471423379,1743177471429379,0,-24.772,0.5625,0.0032348633,-0.0036815908,0.5763397,7.26262e-07,-8.773463e-06,0,0,1
1743177471629379,1743177471475379,1743177471477379,0,-24.78,0.5625,0.0053710938,-0.0028288015,0.57630336,2.0023238e-06,-7.758353e-06,0,0,1
1743177471685379,1743177471527379,1743177471533379,0,-24.786,0.5625,0.0054855347,-0.002045567,0.5763345,2.0884463e-06,-6.8307554e-06,0,0,1
1743177471733379,1743177471579379,1743177471581379,0,-24.793,0.5625,0.0070934296,-0.0011846469,0.57629836,3.4924092e-06,-5.858283e-06,0,0,1
1743177471789379,1743177471631379,1743177471637379,0,-24.799,0.5625,0.0073776245,-0.00037805602,0.5763297,3.777653e-06,-4.95055e-06,0,0,1
1743177471837379,1743177471683379,1743177471685379,0,-24.805,0.5625,0.007604599,0.0003739333,0.5762938,4.0139194e-06,-4.106071e-06,0,0,1
1743177471893379,1743177471735379,1743177471741379,0,-24.811,0.5625,0.008533478,0.0011425861,0.5763254,5.054106e-06,-3.2431558e-06,0,0,1
1743177471941379,1743177471787379,1743177471789379,0,-24.816,0.5625,0.009708405,0.0019495111,0.5762897,6.542065e-06,-2.3213595e-06,0,0,1
1743177471997379,1743177471839379,1743177471845379,0,-24.822,0.5625,0.010583878,0.0027628934,0.5763215,7.77472e-06,-1.3702795e-06,0,0,1
1743177472045379,1743177471891379,1743177471893379,0,-24.827,0.5625,0.011367798,0.0035735006,0.57628596,8.969632e-06,-3.9622978e-07,0,0,1
1743177472101379,1743177471943379,1743177471949379,0,-24.832,0.5625,0.01216507,0.0043828515,0.57631785,1.027134e-05,6.0868626e-07,0,0,1
1743177472149379,1743177471995379,1743177471997379,0,-24.837,0.5625,0.013383865,0.0052307732,0.5762825,1.24333355e-05,1.7226025e-06,0,0,1
1743177472205379,1743177472047379,1743177472053379,0,-24.841,0.5625,0.013475418,0.0060074427,0.5763145,1.2603319e-05,2.7475976e-06,0,0,1
1743177472253379,1743177472099379,1743177472101379,0,-24.846,0.5625,0.014827728,0.0068383394,0.5762792,1.5260764e-05,3.926374e-06,0,0,1
1743177472309379,1743177472151379,1743177472157379,0,-24.85,0.5625,0.0148124695,0.0075895255,0.57631135,1.5228522e-05,4.9910695e-06,0,0,1
1743177472357379,1743177472203379,1743177472205379,0,-24.855,0.5625,0.01607132,0.008388535,0.5762762,1.7928021e-05,6.209768e-06,0,0,1
1743177472413379,1743177472255379,1743177472261379,0,-24.859,0.5625,0.016134262,0.009118205,0.57630837,1.8067716e-05,7.326821e-06,0,0,1
1743177472461379,1743177472307379,1743177472309379,0,-24.864,0.5625,0.01737976,0.009896467,0.57627326,2.096617e-05,8.611687e-06,0,0,1
