timestamp,timestamp_sample,hover_thrust,hover_thrust_var,accel_innov,accel_innov_var,accel_innov_test_ratio,accel_noise_var,valid
1743177459589379,1743177459589379,0.49444938,0.00063913356,-0.34970826,13.37455,0.0010159916,4.479982,0
1743177459597379,1743177459597379,0.4946358,0.0006254379,-0.18423742,13.378494,0.00028190704,4.4634147,0
1743177459693379,1743177459693379,0.4982895,0.0004977781,-0.30960137,13.351873,0.0007976659,4.271906,0
1743177459789379,1743177459789379,0.50130093,0.00041629645,-0.35411423,13.00169,0.001071629,4.086126,0
1743177459893379,1743177459893379,0.504259,0.00035439112,-0.37459266,12.268387,0.0012708332,3.892371,0
1743177459989379,1743177459989379,0.507265,0.00031071776,-0.54681903,11.307805,0.002938099,3.7226741,0
1743177460093379,1743177460093379,0.5107017,0.00027067156,-0.40980485,10.4959755,0.0017778246,3.54737,0
1743177460189379,1743177460189379,0.5122903,0.00024015705,-0.19791329,10.1839485,0.0004273574,3.3871455,0
1743177460293379,1743177460293379,0.5127611,0.00021375049,-0.042969078,10.043794,2.0425457e-05,3.2207174,0
1743177460389379,1743177460389379,0.5132211,0.00019403014,-0.14086933,9.82711,0.00022436988,3.07395,0
1743177460493379,1743177460493379,0.5138504,0.00017614373,-0.16577402,9.50381,0.00032128667,2.9221532,0
1743177460589379,1743177460589379,0.51444143,0.0001619699,-0.1299789,9.181782,0.00020444488,2.7885199,0
1743177460685379,1743177460685379,0.5149555,0.00014958871,-0.16289331,8.861551,0.0003327011,2.6609147,0
1743177460789379,1743177460789379,0.51554227,0.0001377875,-0.103037626,8.50192,0.00013874973,2.529135,0
1743177460893379,1743177460893379,0.516091,0.0001273556,-0.1327937,8.151637,0.00024036296,2.4037952,0
1743177460989379,1743177460989379,0.51654804,0.00011874395,-0.12177786,7.8429685,0.00021009403,2.2935724,0
1743177461093379,1743177461093379,0.51698405,0.000110365785,-0.1510281,7.522132,0.00033692407,2.179805,0
1743177461189379,1743177461189379,0.51735777,0.00010336644,-0.099003404,7.2393866,0.00015043745,2.0798085,0
1743177461293379,1743177461293379,0.51775855,9.6491036e-05,-0.10959715,6.9344788,0.00019246075,1.9765539,0
1743177461389379,1743177461389379,0.51803935,9.071225e-05,-0.08988108,6.6741614,0.00013449226,1.8858216,0
1743177461493379,1743177461493379,0.5183948,8.498271e-05,-0.08433929,6.384101,0.00012379914,1.7921749,1
1743177461589379,1743177461589379,0.5187416,8.011862e-05,-0.1269724,6.1197724,0.00029271227,1.7098045,1
1743177461693379,1743177461693379,0.5190498,7.5255855e-05,-0.11862224,5.855056,0.00026702916,1.6248442,1
1743177461789379,1743177461789379,0.519355,7.110769e-05,-0.095939055,5.610958,0.00018226837,1.5501331,1
1743177461893379,1743177461893379,0.5196582,6.693482e-05,-0.08401242,5.3613224,0.00014627582,1.4730927,1
1743177461989379,1743177461989379,0.51989603,6.3364874e-05,-0.084368,5.1422205,0.00015380212,1.4053849,1
1743177462093379,1743177462093379,0.520254,5.975692e-05,-0.10325484,4.8958607,0.0002419632,1.3354846,1
1743177462189379,1743177462189379,0.5204487,5.665022e-05,-0.10811559,4.6991115,0.0002763875,1.2741117,1
1743177462293379,1743177462293379,0.5206725,5.3511874e-05,-0.07452956,4.4873176,0.00013753961,1.2107658,1
1743177462389379,1743177462389379,0.52090454,5.0800165e-05,-0.12227265,4.293892,0.00038686997,1.155081,1
1743177462485379,1743177462485379,0.5211268,4.8246897e-05,-0.11827168,4.1095643,0.00037820148,1.1019782,1
1743177462589379,1743177462589379,0.5213403,4.5653025e-05,-0.094243415,3.9194794,0.00025178574,1.0471693,1
1743177462693379,1743177462693379,0.5215295,4.322072e-05,-0.08050938,3.7439697,0.00019236148,1.0,1
1743177462789379,1743177462789379,0.52166647,4.116497e-05,-0.04427038,3.7595673,5.7922345e-05,1.0,1
1743177462893379,1743177462893379,0.52180827,3.9160383e-05,-0.06671067,3.7734501,0.0001310417,1.0,1
1743177462989379,1743177462989379,0.5219668,3.7481404e-05,-0.057066128,3.7808836,9.5701995e-05,1.0,1
1743177463093379,1743177463093379,0.52211404,3.5826415e-05,-0.079209104,3.7896838,0.00018395208,1.0,1
1743177463189379,1743177463189379,0.5222712,3.442602e-05,-0.07193555,3.7942843,0.00015153563,1.0,1
1743177463293379,1743177463293379,0.5223756,3.3032484e-05,0.0039391145,3.8098521,4.5252918e-07,1.0,1
1743177463389379,1743177463389379,0.5224365,3.1851414e-05,-0.019382663,3.8269503,1.0907659e-05,1.0,1
1743177463485379,1743177463485379,0.52252156,3.0759835e-05,-0.10995964,3.8347938,0.00035033384,1.0,1
1743177463589379,1743177463589379,0.52264386,2.9659217e-05,-0.06277718,3.8385792,0.000114075025,1.0,1
1743177463685379,1743177463685379,0.5227164,2.87136e-05,-0.031877793,3.850193,2.932591e-05,1.0,1
1743177463789379,1743177463789379,0.52281684,2.775968e-05,-0.09324589,3.8550832,0.00025060124,1.0,1
1743177463893379,1743177463893379,0.5229118,2.6869156e-05,-0.051020507,3.8608327,7.4914526e-05,1.0,1
1743177463989379,1743177463989379,0.52296364,2.6099302e-05,-0.023082733,3.8732255,1.5284779e-05,1.0,1
1743177464093379,1743177464093379,0.5230634,2.5316087e-05,-0.09152908,3.874735,0.00024023355,1.0,1
1743177464189379,1743177464189379,0.5231597,2.4634628e-05,-0.038260907,3.8752155,4.1973206e-05,1.0,1
1743177464293379,1743177464293379,0.5232365,2.3937338e-05,-0.030387957,3.8839903,2.641693e-05,1.0,1
1743177464389379,1743177464389379,0.5233037,2.333026e-05,-0.070208654,3.8913279,0.0001407476,1.0,1
1743177464493379,1743177464493379,0.5233849,2.2708562e-05,-0.07411985,3.8956785,0.00015669077,1.0,1
1743177464589379,1743177464589379,0.52344286,2.2165299e-05,-0.054969296,3.9032295,8.601491e-05,1.0,1
1743177464693379,1743177464693379,0.52353126,2.1606751e-05,-0.11839756,3.903075,0.0003990581,1.0,1
1743177464789379,1743177464789379,0.5235654,2.11173e-05,-0.047414646,3.915887,6.3789965e-05,1.0,1
1743177464893379,1743177464893379,0.5235981,2.0614567e-05,-0.03835375,3.9270506,4.1620435e-05,1.0,1
1743177464989379,1743177464989379,0.5236604,2.0172738e-05,0.045867644,3.9233654,5.958152e-05,1.0,1
1743177465093379,1743177465093379,0.5236566,1.9735147e-05,-0.0968371,3.8387742,0.00027142416,1.0,1
1743177465189379,1743177465189379,0.52387226,1.9349696e-05,-0.26581138,3.6052222,0.0021775723,1.0,1
1743177465293379,1743177465293379,0.5243804,1.8915931e-05,-0.475879,3.2817101,0.0076674395,1.0,1
1743177465389379,1743177465389379,0.524837,1.8476823e-05,-0.2160775,3.1038659,0.001671374,1.0,1
1743177465493379,1743177465493379,0.5250262,1.7992375e-05,-0.05040177,3.0586655,9.228201e-05,1.0,1
1743177465589379,1743177465589379,0.5249885,1.7562645e-05,0.119197324,3.093132,0.0005103781,1.0,1
1743177465693379,1743177465693379,0.52473074,1.7150302e-05,0.09866065,3.0824482,0.00035087272,1.0,1
1743177465789379,1743177465789379,0.52483636,1.6799178e-05,-0.2210027,2.863429,0.0018952487,1.0,1
1743177465893379,1743177465893379,0.52528334,1.6408228e-05,-0.4074713,2.5023398,0.0073723383,1.0,1
1743177465989379,1743177465989379,0.52585924,1.6013762e-05,-0.36548996,2.1540432,0.006890551,1.0,1
1743177466093379,1743177466093379,0.52656627,1.5537082e-05,-0.36096656,1.8030931,0.008029218,1.0,1
1743177466189379,1743177466189379,0.5272023,1.504406e-05,-0.27404165,1.5228608,0.005479368,1.0,1
1743177466293379,1743177466293379,0.5278467,1.4449608e-05,-0.25255167,1.2607002,0.0056214216,1.0,1
1743177466389379,1743177466389379,0.528482,1.3838649e-05,-0.23735619,1.0474813,0.0059760236,1.0,1
1743177466493379,1743177466493379,0.5290339,1.3156317e-05,-0.15290481,1.0038755,0.0025877357,1.0,1
1743177466589379,1743177466589379,0.52940667,1.2582187e-05,-0.12694567,1.0037068,0.0017839653,1.0,1
1743177466693379,1743177466693379,0.52966595,1.2015106e-05,-0.103110015,1.0035429,0.0011771268,1.0,1
1743177466789379,1743177466789379,0.52979296,1.153536e-05,-0.012251258,1.0034031,1.6620475e-05,1.0,1
1743177466893379,1743177466893379,0.5298988,1.105789e-05,-0.08953285,1.003268,0.00088778004,1.0,1
1743177466989379,1743177466989379,0.5299412,1.0650112e-05,0.020921648,1.0031567,4.8481994e-05,1.0,1
1743177467093379,1743177467093379,0.5298926,1.0241162e-05,0.012337565,1.0030411,1.6861557e-05,1.0,1
1743177467189379,1743177467189379,0.52988183,9.890028e-06,0.042144716,1.0029486,0.00019677279,1.0,1
1743177467293379,1743177467293379,0.5297891,9.535584e-06,0.010428071,1.0028496,1.2048407e-05,1.0,1
1743177467389379,1743177467389379,0.52969605,9.229932e-06,0.06641191,1.002766,0.0004887085,1.0,1
1743177467493379,1743177467493379,0.52948254,8.920323e-06,0.09738916,1.0026753,0.001051038,1.0,1
1743177467589379,1743177467589379,0.52928543,8.652816e-06,0.05848998,1.0025989,0.0003791344,1.0,1
1743177467693379,1743177467693379,0.5290874,8.380414e-06,0.11539185,1.0025269,0.0014757464,1.0,1
1743177467789379,1743177467785379,0.52889884,8.143442e-06,0.114349425,1.0024703,0.0014492857,1.0,1
1743177467893379,1743177467893379,0.5286807,7.90126e-06,0.12718526,1.0023984,0.0017930429,1.0,1
1743177467989379,1743177467989379,0.5284408,7.689931e-06,0.19143438,1.0023397,0.004062398,1.0,1
1743177468093379,1743177468093379,0.5281954,7.4734185e-06,0.14600825,1.002281,0.0023633216,1.0,1
1743177468189379,1743177468189379,0.527992,7.2837865e-06,0.16754168,1.0022327,0.0031119648,1.0,1
1743177468293379,1743177468293379,0.52773476,7.0888377e-06,0.12841833,1.0021807,0.0018283757,1.0,1
1743177468389379,1743177468389379,0.527504,6.9176817e-06,0.1700851,1.0021349,0.003207479,1.0,1
1743177468493379,1743177468493379,0.5272089,6.7414553e-06,0.22235909,1.002085,0.0054822993,1.0,1
1743177468589379,1743177468589379,0.5269602,6.586618e-06,0.18702987,1.0020415,0.0038787671,1.0,1
1743177468693379,1743177468693379,0.52670354,6.426739e-06,0.21788001,1.0019991,0.0052641095,1.0,1
1743177468789379,1743177468789379,0.5264813,6.2857434e-06,0.24912569,1.0019634,0.0068824436,1.0,1
1743177468893379,1743177468893379,0.5261761,6.1399683e-06,0.18130141,1.0019201,0.0036452457,1.0,1
1743177468989379,1743177468989379,0.52592045,6.0113616e-06,0.16287395,1.0018847,0.0029420024,1.0,1
1743177469085379,1743177469085379,0.52566856,5.8880223e-06,0.16005296,1.0018567,0.0028410526,1.0,1
1743177469189379,1743177469189379,0.5254097,5.7599404e-06,0.19286081,1.0018198,0.0041253027,1.0,1
1743177469293379,1743177469293379,0.5251503,5.6372423e-06,0.18033451,1.0017877,0.003606945,1.0,1
1743177469389379,1743177469389379,0.5249067,5.5285745e-06,0.2281901,1.0017585,0.005775479,1.0,1
1743177469493379,1743177469493379,0.52465534,5.4154816e-06,0.18026093,1.0017288,0.0036042137,1.0,1
1743177469589379,1743177469589379,0.5244284,5.314501e-06,0.20493242,1.0017142,0.0046583805,1.0,1
1743177469693379,1743177469693379,0.52410614,5.210447e-06,0.28704208,1.0016379,0.009139824,1.0,1
1743177469789379,1743177469789379,0.5238661,5.1196116e-06,0.17629853,1.0016234,0.0034478663,1.0,1
1743177469893379,1743177469893379,0.523647,5.0236476e-06,0.19295122,1.0016149,0.004130016,1.0,1
1743177469989379,1743177469989379,0.5234304,4.9376954e-06,0.18281977,1.0015968,0.0037077535,1.0,1
1743177470085379,1743177470085379,0.52320725,4.854477e-06,0.1922334,1.0015827,0.0040994757,1.0,1
1743177470189379,1743177470189379,0.5229336,4.7671288e-06,0.24415228,1.0015583,0.006613065,1.0,1
1743177470293379,1743177470293379,0.52261335,4.6832106e-06,0.3287307,1.0015265,0.011988796,1.0,1
1743177470389379,1743177470389379,0.5223092,4.6089563e-06,0.37489146,1.0014963,0.015592625,1.0,1
1743177470493379,1743177470493379,0.5219736,4.531905e-06,0.31483677,1.0014648,0.010997467,1.0,1
1743177470589379,1743177470589379,0.52165455,4.463559e-06,0.37478954,1.0014373,0.015585066,1.0,1
1743177470685379,1743177470685379,0.52129114,4.397995e-06,0.355656,1.0014131,0.014034743,1.0,1
1743177470789379,1743177470789379,0.5208552,4.329376e-06,0.5353859,1.0013634,0.03180531,1.0,1
1743177470893379,1743177470893379,0.5203349,4.2663983e-06,0.4834706,1.0012962,0.025937915,1.0,1
1743177470989379,1743177470989379,0.51993793,4.2108777e-06,0.36472166,1.0012865,0.01476122,1.0,1
1743177471093379,1743177471093379,0.5195723,4.1515473e-06,0.36653376,1.0012933,0.014908163,1.0,1
1743177471189379,1743177471189379,0.5192312,4.097462e-06,0.3876554,1.0012946,0.016675824,1.0,1
1743177471293379,1743177471293379,0.5188922,4.0397686e-06,0.3549084,1.0012954,0.013977447,1.0,1
1743177471389379,1743177471389379,0.5186138,3.9873685e-06,0.2937955,1.0012946,0.009578243,1.0,1
1743177471493379,1743177471493379,0.5183508,3.9315587e-06,0.2878908,1.001294,0.00919711,1.0,1
1743177471589379,1743177471589379,0.5181291,3.8809494e-06,0.2627529,1.0012912,0.0076611177,1.0,1
1743177471685379,1743177471685379,0.51794076,3.8312564e-06,0.2394088,1.0012883,0.0063603143,1.0,1
1743177471789379,1743177471789379,0.5177536,3.7785107e-06,0.20955318,1.0012823,0.004872922,1.0,1
1743177471893379,1743177471893379,0.5176101,3.7268956e-06,0.16109586,1.0012769,0.0028798645,1.0,1
1743177471989379,1743177471989379,0.51750094,3.6802687e-06,0.10623691,1.0012703,0.0012524404,1.0,1
1743177472093379,1743177472093379,0.51741076,3.6309484e-06,0.062460132,1.001261,0.00043292833,1.0,1
1743177472189379,1743177472189379,0.51730865,3.5865714e-06,0.14657845,1.0012498,0.0023842694,1.0,1
1743177472293379,1743177472293379,0.5171985,3.5398361e-06,0.13865744,1.0012355,0.0021335732,1.0,1
1743177472389379,1743177472389379,0.51706433,3.4980217e-06,0.22322589,1.0012178,0.00552991,1.0,1
1743177472493379,1743177472493379,0.5169053,3.4543036e-06,0.22978897,1.0011972,0.0058599813,1.0,1
1743177472589379,1743177472589379,0.5167416,3.4153322e-06,0.14768715,1.0011897,0.0024206194,1.0,1
1743177472693379,1743177472693379,0.5165628,3.374087e-06,0.27687836,1.0011688,0.008508014,1.0,1
1743177472789379,1743177472789379,0.51638067,3.33746e-06,0.21952759,1.0011469,0.0053485725,1.0,1
1743177472885379,1743177472885379,0.5161874,3.302225e-06,0.24575159,1.0011257,0.006702882,1.0,1
1743177472989379,1743177472989379,0.5160069,3.265372e-06,0.19545783,1.0011097,0.004240157,1.0,1
1743177473093379,1743177473093379,0.515853,3.2295657e-06,0.137481,1.0010995,0.0020978076,1.0,1
1743177473189379,1743177473189379,0.51571447,3.19732e-06,0.13786535,1.001091,0.0021095711,1.0,1
1743177473293379,1743177473293379,0.5155769,3.1631882e-06,0.18197891,1.0010833,0.00367561,1.0,1
1743177473389379,1743177473389379,0.5154293,3.1324053e-06,0.16585621,1.0010742,0.0030531962,1.0,1
1743177473485379,1743177473485379,0.5152762,3.1028862e-06,0.19463663,1.0010425,0.004204885,1.0,1
1743177473589379,1743177473589379,0.5151566,3.0719418e-06,0.1974615,1.0010387,0.0043278434,1.0,1
1743177473693379,1743177473693379,0.5149622,3.041622e-06,0.35762942,1.0010297,0.014196359,1.0,1
1743177473789379,1743177473789379,0.51468205,3.0145115e-06,0.48193517,1.0010123,0.025780734,1.0,1
1743177473893379,1743177473893379,0.51439303,2.9856337e-06,0.3952541,1.0010262,0.017340628,1.0,1
1743177473989379,1743177473989379,0.51414853,2.9592495e-06,0.3392334,1.0010122,0.01277366,1.0,1
1743177474093379,1743177474093379,0.51398736,2.931429e-06,0.13900805,1.0010076,0.0021448655,1.0,1
1743177474189379,1743177474189379,0.51392007,2.9059906e-06,0.0041436553,1.0010128,1.9058341e-06,1.0,1
1743177474285379,1743177474285379,0.5138778,2.880652e-06,0.0014696419,1.0010228,2.3973783e-07,1.0,1
1743177474389379,1743177474389379,0.51378286,2.8534744e-06,0.21918136,1.0010147,0.0053324187,1.0,1
1743177474485379,1743177474485379,0.5136111,2.8289817e-06,0.3177954,1.00101,0.011210225,1.0,1
1743177474589379,1743177474589379,0.5133091,2.8034235e-06,0.5246316,1.0009787,0.030552136,1.0,1
1743177474685379,1743177474685379,0.5128782,2.7812325e-06,0.8010951,1.0009457,0.071238555,1.0,1
1743177474789379,1743177474789379,0.5121992,2.7597523e-06,1.1775029,1.0008568,0.15392514,1.0,1
1743177474885379,1743177474885379,0.5115298,2.7424e-06,1.1047425,1.0008118,0.13549623,1.0,1
1743177474989379,1743177474989379,0.51089984,2.7249873e-06,0.8965428,1.000785,0.089239836,1.0,1
1743177475093379,1743177475093379,0.51046634,2.7078997e-06,0.59139633,1.0007899,0.0388304,1.0,1
1743177475189379,1743177475189379,0.5102051,2.6922069e-06,0.3359577,1.0007967,0.01253086,1.0,1
1743177475285379,1743177475285379,0.5100821,2.675948e-06,0.14675796,1.0008341,0.0023911053,1.0,1
1743177475389379,1743177475389379,0.5099845,2.657264e-06,0.17662701,1.000865,0.0034633488,1.0,1
1743177475493379,1743177475493379,0.5097922,2.6377634e-06,0.40555128,1.0008887,0.018258423,1.0,1
1743177475589379,1743177475589379,0.5095143,2.6195316e-06,0.5249833,1.0008956,0.030595647,1.0,1
1743177475693379,1743177475693379,0.509162,2.5999984e-06,0.577889,1.0008916,0.03707314,1.0,1
1743177475789379,1743177475789379,0.5088545,2.5823322e-06,0.4819371,1.000886,0.025784198,1.0,1
1743177475885379,1743177475885379,0.5086171,2.5649779e-06,0.34385943,1.0008812,0.013126135,1.0,1
1743177475989379,1743177475989379,0.5084243,2.5465365e-06,0.20081608,1.0008847,0.004476828,1.0,1
1743177476093379,1743177476093379,0.50831664,2.5278148e-06,0.15520158,1.0009019,0.0026739805,1.0,1
1743177476189379,1743177476189379,0.50822,2.5106071e-06,0.1641607,1.0008962,0.0029916228,1.0,1
1743177476293379,1743177476293379,0.50811464,2.4923352e-06,0.17113085,1.0008913,0.0032510762,1.0,1
1743177476389379,1743177476389379,0.5079726,2.4758351e-06,0.26924604,1.0008836,0.008047716,1.0,1
1743177476493379,1743177476493379,0.5078069,2.458427e-06,0.29021063,1.0008749,0.009349844,1.0,1
1743177476589379,1743177476589379,0.50765294,2.442813e-06,0.24439293,1.0008644,0.0066307024,1.0,1
1743177476693379,1743177476693379,0.50750434,2.4263463e-06,0.23526314,1.0008612,0.006144569,1.0,1
1743177476789379,1743177476789379,0.5073988,2.4113244e-06,0.1307061,1.0008603,0.0018965999,1.0,1
1743177476893379,1743177476893379,0.5073076,2.3951948e-06,0.098550305,1.0008644,0.0010781973,1.0,1
1743177476989379,1743177476989379,0.50723916,2.3804264e-06,0.15167578,1.0008608,0.0025539726,1.0,1
1743177477085379,1743177477085379,0.50715697,2.3659695e-06,0.1816649,1.000855,0.0036637716,1.0,1
1743177477189379,1743177477189379,0.50708294,2.3505838e-06,0.13060239,1.000853,0.0018936055,1.0,1
1743177477293379,1743177477293379,0.5069969,2.335451e-06,0.13115278,1.0008495,0.0019096057,1.0,1
1743177477389379,1743177477389379,0.5069388,2.3216994e-06,0.09486849,1.0008483,0.0009991557,1.0,1
1743177477493379,1743177477493379,0.5068911,2.3069686e-06,0.10963198,1.0008485,0.0013343311,1.0,1
1743177477589379,1743177477589379,0.5068445,2.293538e-06,0.08380306,1.000847,0.0007796677,1.0,1
1743177477693379,1743177477693379,0.50679755,2.279193e-06,0.12101363,1.0008442,0.0016257718,1.0,1
1743177477789379,1743177477789379,0.5067534,2.26615e-06,0.086180165,1.0008429,0.0008245295,1.0,1
1743177477893379,1743177477893379,0.5067351,2.2521858e-06,0.03542169,1.0008435,0.0001392932,1.0,1
1743177477989379,1743177477989379,0.50670314,2.2394845e-06,0.08142661,1.0008388,0.0007360818,1.0,1
1743177478093379,1743177478093379,0.5066776,2.2259733e-06,0.021655414,1.0008365,5.206278e-05,1.0,1
1743177478189379,1743177478189379,0.50666314,2.2136796e-06,0.00416133,1.0008341,1.9224703e-06,1.0,1
1743177478293379,1743177478293379,0.5066676,2.2005945e-06,0.034159653,1.0008314,0.00012954584,1.0,1
1743177478389379,1743177478389379,0.50667113,2.1886838e-06,0.021944836,1.0008298,5.346406e-05,1.0,1
1743177478493379,1743177478493379,0.5066781,2.1759897e-06,-0.010340694,1.0008262,1.1871299e-05,1.0,1
1743177478589379,1743177478589379,0.506685,2.164522e-06,-0.02085179,1.0008214,4.827115e-05,1.0,1
1743177478693379,1743177478693379,0.5067047,2.1523024e-06,-0.029209815,1.0008188,9.472391e-05,1.0,1
1743177478789379,1743177478789379,0.5067222,2.141211e-06,-0.06660545,1.000815,0.0004925192,1.0,1
1743177478893379,1743177478893379,0.5067401,2.1294663e-06,-0.048370503,1.0008098,0.00025975695,1.0,1
1743177478989379,1743177478989379,0.50677174,2.118806e-06,-0.047760233,1.0008085,0.00025324413,1.0,1
1743177479085379,1743177479085379,0.50680363,2.1082767e-06,-0.048733167,1.0008062,0.00026366764,1.0,1
1743177479189379,1743177479189379,0.50683576,2.0970933e-06,-0.107691295,1.0008014,0.0012875699,1.0,1
1743177479293379,1743177479293379,0.5068659,2.0861698e-06,-0.11124435,1.0007956,0.0013739408,1.0,1
1743177479389379,1743177479389379,0.50690657,2.0762845e-06,-0.054944754,1.0007938,0.00033517016,1.0,1
1743177479493379,1743177479493379,0.50695336,2.0657442e-06,-0.09054384,1.0007908,0.0009101899,1.0,1
1743177479589379,1743177479589379,0.50700337,2.0561852e-06,-0.064629756,1.0007879,0.00046374637,1.0,1
1743177479693379,1743177479693379,0.50704694,2.04603e-06,-0.10849312,1.000783,0.0013068387,1.0,1
1743177479789379,1743177479789379,0.5070962,2.036843e-06,-0.053476613,1.0007801,0.00031750213,1.0,1
1743177479893379,1743177479893379,0.50714815,2.027078e-06,-0.09430772,1.000776,0.0009874499,1.0,1
1743177479989379,1743177479989379,0.5071952,2.0182474e-06,-0.11501658,1.0007722,0.0014687339,1.0,1
1743177480093379,1743177480093379,0.5072541,2.0088708e-06,-0.13866884,1.0007684,0.00213492,1.0,1
1743177480189379,1743177480189379,0.5073114,2.0003647e-06,-0.14426525,1.0007669,0.002310724,1.0,1
1743177480293379,1743177480293379,0.50736576,1.991295e-06,-0.10422504,1.0007632,0.0012060639,1.0,1
1743177480389379,1743177480389379,0.5074225,1.9830964e-06,-0.11260272,1.0007601,0.0014077491,1.0,1
1743177480493379,1743177480493379,0.50747746,1.9743845e-06,-0.112807155,1.0007561,0.001412871,1.0,1
1743177480589379,1743177480589379,0.50753164,1.966503e-06,-0.14907563,1.0007528,0.0024674253,1.0,1
1743177480685379,1743177480685379,0.5075938,1.9587528e-06,-0.14713363,1.0007503,0.0024035638,1.0,1
1743177480789379,1743177480789379,0.50764847,1.9505173e-06,-0.055333555,1.0007465,0.00033994648,1.0,1
1743177480885379,1743177480885379,0.5076943,1.9430963e-06,-0.10901806,1.0007422,0.0013195692,1.0,1
1743177480989379,1743177480989379,0.5077631,1.9351987e-06,-0.11495955,1.0007402,0.001467325,1.0,1
1743177481085379,1743177481085379,0.50781184,1.9280408e-06,-0.117595665,1.0007365,0.001535396,1.0,1
1743177481189379,1743177481189379,0.5078392,1.9204774e-06,-0.029108629,1.0007304,9.407709e-05,1.0,1
1743177481293379,1743177481293379,0.5078505,1.9131628e-06,-0.05040451,1.0007229,0.0002820866,1.0,1
1743177481389379,1743177481389379,0.5078671,1.9066154e-06,-0.08846818,1.0007178,0.00086900056,1.0,1
1743177481493379,1743177481493379,0.5078851,1.8996238e-06,0.021783933,1.0007186,5.268877e-05,1.0,1
1743177481589379,1743177481589379,0.5078467,1.8932714e-06,0.21578637,1.000712,0.005170069,1.0,1
1743177481693379,1743177481693379,0.5076918,1.8870213e-06,0.35997772,1.000677,0.0143884765,1.0,1
1743177481789379,1743177481789379,0.5075598,1.8818957e-06,0.19487093,1.0006626,0.004216615,1.0,1
1743177481893379,1743177481893379,0.5075009,1.8764083e-06,0.05250618,1.0006709,0.00030611668,1.0,1
1743177481989379,1743177481989379,0.50751716,1.8711141e-06,-0.098739594,1.000684,0.0010825382,1.0,1
1743177482093379,1743177482093379,0.50758487,1.8651272e-06,-0.12913729,1.0006956,0.00185165,1.0,1
1743177482189379,1743177482189379,0.5076364,1.859462e-06,-0.104708806,1.0006992,0.0012173638,1.0,1
1743177482293379,1743177482293379,0.5076474,1.8533906e-06,0.015618764,1.0006957,2.7086242e-05,1.0,1
1743177482389379,1743177482389379,0.507621,1.8479492e-06,0.14131518,1.000689,0.002217359,1.0,1
1743177482493379,1743177482493379,0.50753725,1.8425545e-06,0.1995797,1.0006627,0.004422853,1.0,1
1743177482589379,1743177482589379,0.50745857,1.8380123e-06,0.21648535,1.0006522,0.005203929,1.0,1
1743177482685379,1743177482685379,0.5073855,1.8336191e-06,0.13197932,1.0006536,0.0019341292,1.0,1
1743177482789379,1743177482789379,0.5073024,1.8288946e-06,0.22877848,1.0006502,0.005811732,1.0,1
1743177482885379,1743177482885379,0.5072333,1.824585e-06,0.12072804,1.0006541,0.0016184145,1.0,1
1743177482989379,1743177482989379,0.507141,1.819947e-06,0.21818668,1.0006497,0.0052860575,1.0,1
1743177483093379,1743177483093379,0.5070278,1.8154188e-06,0.3098161,1.0006453,0.010658234,1.0,1
1743177483189379,1743177483189379,0.5068884,1.8113959e-06,0.44570154,1.0006351,0.022058198,1.0,1
1743177483293379,1743177483293379,0.5066827,1.8075428e-06,0.5039566,1.0006127,0.028201861,1.0,1
1743177483389379,1743177483389379,0.50651616,1.8042633e-06,0.41731972,1.0006098,0.019338846,1.0,1
1743177483493379,1743177483493379,0.506368,1.8006979e-06,0.3123148,1.0006152,0.010831174,1.0,1
1743177483589379,1743177483589379,0.50628835,1.7972499e-06,0.15269561,1.0006254,0.0025890418,1.0,1
1743177483693379,1743177483693379,0.5062546,1.7932651e-06,0.061993062,1.0006396,0.0004267426,1.0,1
1743177483789379,1743177483789379,0.50626063,1.7893127e-06,-0.026380956,1.0006526,7.727789e-05,1.0,1
1743177483885379,1743177483885379,0.50626236,1.7851527e-06,-0.021262884,1.0006626,5.0201208e-05,1.0,1
1743177483989379,1743177483989379,0.50626683,1.7804699e-06,-0.03422982,1.0006721,0.00013009927,1.0,1
1743177484093379,1743177484093379,0.506258,1.7756558e-06,0.010643885,1.0006748,1.2579541e-05,1.0,1
1743177484189379,1743177484189379,0.50623024,1.7712824e-06,0.08124886,1.0006706,0.0007329948,1.0,1
1743177484293379,1743177484293379,0.50620115,1.7667153e-06,0.020313906,1.000665,4.5820063e-05,1.0,1
1743177484389379,1743177484389379,0.50620145,1.762606e-06,-0.040411033,1.0006629,0.00018132996,1.0,1
1743177484493379,1743177484493379,0.5062133,1.7582163e-06,-0.04179404,1.0006628,0.00019395386,1.0,1
1743177484589379,1743177484589379,0.50623846,1.7541897e-06,-0.081507176,1.0006633,0.0007376684,1.0,1
1743177484685379,1743177484685379,0.50626826,1.7501809e-06,-0.08386003,1.0006652,0.00078087003,1.0,1
1743177484789379,1743177484789379,0.5063023,1.7459199e-06,-0.1347742,1.0006605,0.0020168992,1.0,1
1743177484893379,1743177484893379,0.5063369,1.7417135e-06,-0.079556145,1.0006627,0.00070277654,1.0,1
1743177484989379,1743177484989379,0.5063846,1.7377866e-06,-0.15447964,1.0006671,0.0026497832,1.0,1
1743177485093379,1743177485093379,0.50645417,1.7334496e-06,-0.1523994,1.0006725,0.0025788858,1.0,1
1743177485189379,1743177485189379,0.5065056,1.7294474e-06,-0.1641599,1.0006704,0.0029922684,1.0,1
1743177485293379,1743177485293379,0.5065843,1.7251837e-06,-0.15015893,1.00067,0.0025036233,1.0,1
1743177485389379,1743177485389379,0.5066584,1.7212891e-06,-0.19767715,1.0006697,0.0043389006,1.0,1
1743177485493379,1743177485493379,0.5067232,1.7171265e-06,-0.12591374,1.000668,0.0017604096,1.0,1
1743177485589379,1743177485589379,0.5067905,1.7133481e-06,-0.17908674,1.0006669,0.003561188,1.0,1
1743177485693379,1743177485693379,0.50685203,1.7093224e-06,-0.13890123,1.0006644,0.0021423048,1.0,1
1743177485789379,1743177485789379,0.5069172,1.7056811e-06,-0.19077533,1.000663,0.004041235,1.0,1
1743177485893379,1743177485893379,0.5069796,1.701801e-06,-0.13092759,1.000661,0.0019034124,1.0,1
1743177485989379,1743177485989379,0.50704324,1.6982893e-06,-0.15377055,1.0006596,0.002625533,1.0,1
1743177486093379,1743177486093379,0.50710374,1.6945555e-06,-0.15176196,1.0006571,0.0025573967,1.0,1
1743177486189379,1743177486189379,0.5071594,1.6911854e-06,-0.18951657,1.000655,0.0039881133,1.0,1
1743177486285379,1743177486285379,0.5072201,1.6878695e-06,-0.13801594,1.0006535,0.0021151067,1.0,1
1743177486389379,1743177486389379,0.5072833,1.6843442e-06,-0.1313756,1.0006518,0.0019164782,1.0,1
1743177486485379,1743177486485379,0.50733775,1.6811607e-06,-0.16648841,1.0006492,0.003077823,1.0,1
1743177486589379,1743177486589379,0.50739264,1.6777972e-06,-0.13233216,1.000647,0.0019444976,1.0,1
1743177486693379,1743177486693379,0.5074507,1.6745072e-06,-0.12156643,1.0006454,0.001640985,1.0,1
1743177486789379,1743177486789379,0.50750333,1.6715244e-06,-0.083893865,1.0006438,0.0007815169,1.0,1
1743177486893379,1743177486893379,0.50756294,1.6683563e-06,-0.123490624,1.0006422,0.0016933498,1.0,1
1743177486989379,1743177486989379,0.5076091,1.6654859e-06,-0.13292708,1.0006398,0.0019620343,1.0,1
1743177487093379,1743177487093379,0.5076681,1.6624421e-06,-0.16693605,1.0006386,0.003094429,1.0,1
1743177487189379,1743177487189379,0.50772196,1.6596754e-06,-0.07527218,1.0006379,0.00062914327,1.0,1
1743177487285379,1743177487285379,0.50777245,1.6569576e-06,-0.17163558,1.000636,0.0032711166,1.0,1
1743177487389379,1743177487389379,0.5078229,1.6540647e-06,-0.1021452,1.0006346,0.0011585584,1.0,1
1743177487485379,1743177487485379,0.5078685,1.6514574e-06,-0.10679224,1.0006325,0.001266375,1.0,1
1743177487589379,1743177487589379,0.50791335,1.6486985e-06,-0.13034911,1.0006304,0.0018866876,1.0,1
1743177487693379,1743177487693379,0.5079689,1.6459958e-06,-0.19026446,1.0006293,0.0040197554,1.0,1
1743177487789379,1743177487789379,0.5080132,1.6435441e-06,-0.0955067,1.0006281,0.0010128671,1.0,1
1743177487885379,1743177487885379,0.50806445,1.6411302e-06,-0.1180379,1.0006274,0.0015471345,1.0,1
1743177487989379,1743177487989379,0.5081192,1.6385512e-06,-0.13868198,1.0006266,0.0021356274,1.0,1
1743177488093379,1743177488093379,0.5081637,1.63602e-06,-0.08678311,1.0006245,0.0008362898,1.0,1
1743177488189379,1743177488189379,0.50820905,1.6337387e-06,-0.11969741,1.0006232,0.0015909495,1.0,1
1743177488293379,1743177488293379,0.50825655,1.6313091e-06,-0.1252526,1.0006219,0.0017420516,1.0,1
1743177488389379,1743177488389379,0.5083105,1.6290984e-06,-0.15231574,1.0006217,0.0025761854,1.0,1
1743177488493379,1743177488493379,0.5083573,1.626739e-06,-0.14620261,1.0006201,0.0023735508,1.0,1
1743177488589379,1743177488589379,0.5084018,1.6246017e-06,-0.08174598,1.0006192,0.0007420301,1.0,1
1743177488693379,1743177488693379,0.50845677,1.6223257e-06,-0.10845627,1.0006186,0.0013061656,1.0,1
1743177488789379,1743177488789379,0.5085013,1.6202549e-06,-0.10012733,1.0006174,0.0011132553,1.0,1
1743177488893379,1743177488893379,0.5085349,1.6180782e-06,-0.09540847,1.0006145,0.0010107984,1.0,1
1743177488989379,1743177488989379,0.5085737,1.6161241e-06,-0.048274007,1.0006132,0.0002587724,1.0,1
1743177489093379,1743177489093379,0.5086241,1.6140347e-06,-0.15598583,1.000614,0.0027018497,1.0,1
1743177489189379,1743177489189379,0.5086622,1.6120775e-06,-0.012874968,1.0006155,1.8406983e-05,1.0,1
1743177489293379,1743177489293379,0.5086309,1.6100308e-06,0.2262029,1.000608,0.005681851,1.0,1
1743177489389379,1743177489389379,0.50850546,1.6085414e-06,0.41540724,1.000581,0.019162552,1.0,1
1743177489493379,1743177489493379,0.5083583,1.607382e-06,0.28964916,1.0005658,0.009316578,1.0,1
1743177489589379,1743177489589379,0.50827456,1.6064417e-06,0.07686421,1.0005658,0.0006560852,1.0,1
1743177489693379,1743177489693379,0.5082716,1.605312e-06,-0.12378824,1.0005753,0.0017016353,1.0,1
1743177489789379,1743177489789379,0.5083673,1.6040184e-06,-0.29118747,1.0005913,0.0094155595,1.0,1
1743177489893379,1743177489893379,0.5084134,1.6023506e-06,0.12157746,1.0005987,0.0016413594,1.0,1
1743177489989379,1743177489989379,0.5082599,1.601064e-06,0.621137,1.0005662,0.04284365,1.0,1
1743177490093379,1743177490093379,0.50795907,1.6004858e-06,0.85507786,1.0005327,0.08119653,1.0,1
1743177490189379,1743177490189379,0.50769615,1.6003517e-06,0.67618066,1.0005218,0.050775763,1.0,1
1743177490293379,1743177490293379,0.50752026,1.600258e-06,0.2609125,1.0005262,0.007559948,1.0,1
1743177490389379,1743177490389379,0.5075098,1.5999318e-06,-0.1387164,1.0005454,0.0021368612,1.0,1
1743177490493379,1743177490493379,0.50764465,1.5990189e-06,-0.42320132,1.000578,0.019888433,1.0,1
1743177490589379,1743177490589379,0.5077971,1.5975874e-06,-0.3928872,1.000605,0.017140782,1.0,1
1743177490685379,1743177490685379,0.5078978,1.5957702e-06,-0.19239575,1.0006204,0.004110353,1.0,1
1743177490789379,1743177490789379,0.50790983,1.593686e-06,0.09241173,1.0006167,0.000948296,1.0,1
1743177490893379,1743177490893379,0.50784266,1.5918952e-06,0.19832331,1.0005995,0.004367619,1.0,1
1743177490989379,1743177490989379,0.50776684,1.5905081e-06,0.1912283,1.0005904,0.0040607424,1.0,1
1743177491093379,1743177491093379,0.50771046,1.5891314e-06,0.09426618,1.0005873,0.0009867664,1.0,1
1743177491189379,1743177491189379,0.50771195,1.5878744e-06,-0.06020782,1.0005898,0.00040253834,1.0,1
1743177491293379,1743177491293379,0.5077588,1.5864152e-06,-0.18653657,1.0005969,0.003863904,1.0,1
1743177491389379,1743177491389379,0.50783664,1.5849159e-06,-0.19108883,1.0006058,0.004054759,1.0,1
1743177491485379,1743177491485379,0.507898,1.5833037e-06,-0.14642772,1.0006099,0.0023808898,1.0,1
1743177491589379,1743177491589379,0.507938,1.5815302e-06,-0.042414613,1.0006098,0.00019976702,1.0,1
1743177491693379,1743177491693379,0.5079516,1.5798231e-06,-0.021974824,1.000606,5.3622276e-05,1.0,1
1743177491789379,1743177491789379,0.50795305,1.5783394e-06,-0.005695574,1.0006015,3.6022288e-06,1.0,1
1743177491893379,1743177491893379,0.50795764,1.5768264e-06,-0.041910294,1.0005977,0.00019504705,1.0,1
1743177491989379,1743177491989379,0.50797397,1.5754865e-06,-0.03667982,1.0005972,0.00014940067,1.0,1
1743177492093379,1743177492093379,0.50795466,1.5740558e-06,0.12044737,1.000595,0.0016109935,1.0,1
1743177492189379,1743177492189379,0.50787085,1.5729186e-06,0.30752057,1.0005794,0.010501571,1.0,1
1743177492293379,1743177492293379,0.5077445,1.5720279e-06,0.3325922,1.0005665,0.012283882,1.0,1
1743177492389379,1743177492389379,0.50765955,1.5713131e-06,0.18491279,1.0005659,0.0037970445,1.0,1
1743177492485379,1743177492485379,0.5076412,1.5705592e-06,-0.07348043,1.0005714,0.0005995878,1.0,1
1743177492589379,1743177492589379,0.50767684,1.5696104e-06,-0.18334883,1.0005783,0.003733041,1.0,1
1743177492693379,1743177492693379,0.50773257,1.5684874e-06,-0.13269508,1.0005869,0.0019552952,1.0,1
1743177492789379,1743177492789379,0.5077634,1.5673517e-06,-0.027043335,1.0005898,8.121232e-05,1.0,1
1743177492893379,1743177492893379,0.50773185,1.5661673e-06,0.10441855,1.000583,0.0012107646,1.0,1
1743177492989379,1743177492989379,0.50766736,1.5653292e-06,0.24636035,1.0005653,0.0067399032,1.0,1
1743177493093379,1743177493093379,0.50755453,1.5647637e-06,0.36859438,1.0005515,0.015087438,1.0,1
1743177493189379,1743177493189379,0.5073785,1.5644732e-06,0.59272385,1.000539,0.0390147,1.0,1
1743177493293379,1743177493293379,0.5070988,1.5644804e-06,0.80117446,1.0005214,0.071282886,1.0,1
1743177493389379,1743177493389379,0.506844,1.5647573e-06,0.64738256,1.0005108,0.046543356,1.0,1
1743177493485379,1743177493485379,0.50666595,1.5651082e-06,0.34813333,1.0005147,0.013459384,1.0,1
1743177493589379,1743177493589379,0.50658774,1.5653281e-06,0.094575465,1.0005254,0.0009933136,1.0,1
1743177493693379,1743177493693379,0.506587,1.5652051e-06,-0.044656605,1.0005442,0.00022145863,1.0,1
1743177493789379,1743177493789379,0.50658256,1.5648542e-06,0.09725447,1.000549,0.0010503603,1.0,1
1743177493893379,1743177493893379,0.506529,1.5644215e-06,0.20552957,1.0005534,0.0046910048,1.0,1
1743177493989379,1743177493989379,0.506439,1.5639358e-06,0.33088398,1.0005573,0.012158137,1.0,1
1743177494085379,1743177494085379,0.5063073,1.5634239e-06,0.40559906,1.0005585,0.018268751,1.0,1
1743177494189379,1743177494189379,0.5061597,1.5628983e-06,0.36334696,1.0005549,0.014660865,1.0,1
1743177494285379,1743177494285379,0.5060434,1.5624493e-06,0.26656958,1.0005556,0.007891098,1.0,1
1743177494389379,1743177494389379,0.50595367,1.5619329e-06,0.1900397,1.0005579,0.0040105497,1.0,1
1743177494493379,1743177494493379,0.505915,1.5613175e-06,0.032340705,1.0005655,0.000116147785,1.0,1
1743177494589379,1743177494589379,0.50592095,1.5605323e-06,-0.028695442,1.0005788,9.143912e-05,1.0,1
1743177494693379,1743177494693379,0.5059232,1.5594794e-06,0.05306751,1.0005857,0.00031272357,1.0,1
1743177494789379,1743177494789379,0.5059185,1.5584554e-06,0.02658815,1.0005869,7.850168e-05,1.0,1
1743177494893379,1743177494893379,0.5058925,1.5573677e-06,0.08255066,1.0005851,0.00075673626,1.0,1
1743177494989379,1743177494989379,0.5058492,1.5564175e-06,0.12154325,1.0005815,0.001640464,1.0,1
1743177495085379,1743177495085379,0.50579774,1.555545e-06,0.14525476,1.000579,0.0023429708,1.0,1
1743177495189379,1743177495189379,0.50575244,1.5546769e-06,0.07834381,1.0005754,0.00068158034,1.0,1
1743177495285379,1743177495285379,0.5057151,1.5539042e-06,0.09089683,1.000576,0.0009174975,1.0,1
1743177495389379,1743177495389379,0.50567895,1.5530852e-06,0.06693234,1.0005741,0.00049748534,1.0,1
1743177495493379,1743177495493379,0.50564575,1.5522685e-06,0.104735255,1.0005742,0.0012181309,1.0,1
1743177495589379,1743177495589379,0.50560826,1.5515316e-06,0.122062296,1.0005734,0.0016545185,1.0,1
1743177495693379,1743177495693379,0.5055653,1.5507611e-06,0.12063036,1.0005724,0.0016159288,1.0,1
1743177495789379,1743177495789379,0.5055175,1.5500731e-06,0.12919635,1.000571,0.0018535744,1.0,1
1743177495893379,1743177495893379,0.50546557,1.5493627e-06,0.117415324,1.00057,0.0015309447,1.0,1
1743177495989379,1743177495989379,0.5054112,1.5487311e-06,0.12601034,1.000568,0.0017632879,1.0,1
1743177496093379,1743177496093379,0.50536156,1.5480749e-06,0.13808656,1.0005679,0.0021174524,1.0,1
1743177496189379,1743177496189379,0.50531054,1.5474781e-06,0.17958292,1.0005673,0.0035813046,1.0,1
1743177496293379,1743177496293379,0.5052496,1.5468587e-06,0.16614267,1.0005661,0.0030653076,1.0,1
1743177496389379,1743177496389379,0.50519484,1.5463105e-06,0.15765315,1.0005653,0.0027600527,1.0,1
1743177496493379,1743177496493379,0.50514513,1.5457226e-06,0.081658214,1.0005659,0.000740477,1.0,1
1743177496589379,1743177496589379,0.50509197,1.545174e-06,0.1433363,1.0005656,0.00228152,1.0,1
1743177496693379,1743177496693379,0.5050345,1.5445909e-06,0.13133109,1.0005655,0.001915345,1.0,1
1743177496789379,1743177496789379,0.504978,1.5440602e-06,0.16791281,1.0005654,0.0031309754,1.0,1
1743177496893379,1743177496893379,0.50490755,1.5435016e-06,0.18587552,1.000564,0.003836693,1.0,1
1743177496989379,1743177496989379,0.5048383,1.5430195e-06,0.17064509,1.0005624,0.0032337087,1.0,1
1743177497085379,1743177497085379,0.5047787,1.5425547e-06,0.13907363,1.0005642,0.0021478406,1.0,1
1743177497189379,1743177497189379,0.5047137,1.5420446e-06,0.22826055,1.0005625,0.0057859537,1.0,1
1743177497293379,1743177497293379,0.5046392,1.5415557e-06,0.18805712,1.0005615,0.003927293,1.0,1
1743177497389379,1743177497389379,0.504572,1.5411182e-06,0.17670718,1.0005609,0.003467547,1.0,1
1743177497493379,1743177497493379,0.5045001,1.5406555e-06,0.22705624,1.0005612,0.005725069,1.0,1
1743177497589379,1743177497589379,0.504429,1.5402305e-06,0.2240757,1.0005602,0.005575757,1.0,1
1743177497693379,1743177497693379,0.5043475,1.5398044e-06,0.24523889,1.0005592,0.0066787223,1.0,1
1743177497789379,1743177497789379,0.5042793,1.5394257e-06,0.1214487,1.0005589,0.00163795,1.0,1
1743177497893379,1743177497893379,0.50420666,1.5390117e-06,0.22335026,1.0005597,0.0055397144,1.0,1
1743177497989379,1743177497989379,0.5041266,1.5386556e-06,0.25921172,1.0005548,0.007461495,1.0,1
1743177498093379,1743177498093379,0.50403947,1.5384137e-06,0.17533958,1.0005503,0.0034141177,1.0,1
1743177498189379,1743177498189379,0.50398535,1.5381685e-06,0.07948692,1.000555,0.0007016295,1.0,1
1743177498293379,1743177498293379,0.50395733,1.5377515e-06,0.048497103,1.0005646,0.00026118243,1.0,1
1743177498389379,1743177498389379,0.5039511,1.5371959e-06,0.026252445,1.0005745,7.65328e-05,1.0,1
1743177498493379,1743177498493379,0.50396365,1.5363842e-06,-0.04616724,1.0005847,0.00023668537,1.0,1
1743177498589379,1743177498589379,0.50397813,1.5355014e-06,-0.024387643,1.0005895,6.604519e-05,1.0,1
1743177498693379,1743177498693379,0.5039867,1.5345108e-06,-0.059079193,1.0005906,0.00038758788,1.0,1
1743177498789379,1743177498789379,0.5039867,1.5335893e-06,0.044370167,1.0005902,0.0002186167,1.0,1
1743177498893379,1743177498893379,0.5039971,1.5326151e-06,-0.064248785,1.00059,0.00045838585,1.0,1
1743177498989379,1743177498989379,0.5040078,1.5317163e-06,-0.013408974,1.00059,1.9966063e-05,1.0,1
1743177499093379,1743177499093379,0.5040305,1.5307539e-06,-0.08587462,1.0005904,0.0008188998,1.0,1
1743177499189379,1743177499189379,0.5040437,1.5298688e-06,-0.024991669,1.0005901,6.935724e-05,1.0,1
1743177499293379,1743177499293379,0.50406283,1.5289243e-06,-0.093039446,1.0005897,0.0009612486,1.0,1
1743177499389379,1743177499389379,0.5040871,1.5280535e-06,-0.07018188,1.0005901,0.0005469546,1.0,1
1743177499493379,1743177499493379,0.5041124,1.5271161e-06,-0.03288348,1.0005901,0.00012007617,1.0,1
1743177499589379,1743177499589379,0.50414217,1.5262611e-06,-0.0909408,1.0005901,0.00091837253,1.0,1
1743177499685379,1743177499685379,0.5041728,1.525407e-06,-0.09036891,1.0005903,0.000906858,1.0,1
1743177499789379,1743177499789379,0.504199,1.5245035e-06,-0.059570327,1.0005893,0.00039405935,1.0,1
1743177499893379,1743177499893379,0.5042368,1.5236092e-06,-0.09668352,1.0005896,0.0010380216,1.0,1
1743177499989379,1743177499989379,0.5042767,1.5227821e-06,-0.12950045,1.0005901,0.0018622751,1.0,1
1743177500093379,1743177500093379,0.5043199,1.5218804e-06,-0.092626385,1.0005907,0.0009527314,1.0,1
1743177500189379,1743177500189379,0.5043679,1.5210385e-06,-0.11898217,1.0005916,0.001572043,1.0,1
1743177500285379,1743177500285379,0.5044166,1.5201895e-06,-0.11941954,1.0005924,0.0015836204,1.0,1
1743177500389379,1743177500389379,0.5044617,1.519278e-06,-0.17782891,1.0005915,0.003511603,1.0,1
1743177500493379,1743177500493379,0.50451237,1.5183786e-06,-0.12875646,1.0005916,0.0018409361,1.0,1
1743177500589379,1743177500589379,0.5045643,1.5175522e-06,-0.12252769,1.000592,0.001667128,1.0,1
1743177500693379,1743177500693379,0.50461525,1.5166652e-06,-0.097858995,1.0005914,0.0010634137,1.0,1
1743177500789379,1743177500789379,0.5046687,1.5158568e-06,-0.099427715,1.0005915,0.0010977808,1.0,1
1743177500885379,1743177500885379,0.5047282,1.5150504e-06,-0.16054828,1.000592,0.002862278,1.0,1
1743177500989379,1743177500989379,0.50478756,1.514181e-06,-0.16781849,1.0005919,0.0031273759,1.0,1
1743177501093379,1743177501093379,0.5048434,1.5133235e-06,-0.21609604,1.0005909,0.005185547,1.0,1
1743177501189379,1743177501189379,0.5049005,1.5125439e-06,-0.16718619,1.000591,0.0031038565,1.0,1
1743177501293379,1743177501293379,0.5049573,1.5117178e-06,-0.14213175,1.0005903,0.0022432795,1.0,1
1743177501389379,1743177501389379,0.50500983,1.5109739e-06,-0.14912432,1.0005897,0.0024694398,1.0,1
1743177501493379,1743177501493379,0.5050693,1.5101818e-06,-0.15329207,1.0005893,0.0026094024,1.0,1
1743177501589379,1743177501589379,0.5051294,1.5094643e-06,-0.20509496,1.0005891,0.0046710195,1.0,1
1743177501693379,1743177501693379,0.5051926,1.508686e-06,-0.13553762,1.0005889,0.0020399594,1.0,1
1743177501789379,1743177501789379,0.5052497,1.5079859e-06,-0.15594488,1.0005884,0.0027005007,1.0,1
1743177501893379,1743177501893379,0.5053107,1.507247e-06,-0.1796003,1.0005877,0.0035819248,1.0,1
1743177501989379,1743177501989379,0.5053687,1.5065765e-06,-0.1789586,1.0005875,0.0035563752,1.0,1
1743177502093379,1743177502093379,0.5054246,1.50587e-06,-0.14748278,1.0005865,0.0024153802,1.0,1
1743177502189379,1743177502189379,0.5054818,1.5052275e-06,-0.1140407,1.0005863,0.0014441846,1.0,1
1743177502293379,1743177502293379,0.50554395,1.504547e-06,-0.15019716,1.0005858,0.0025051092,1.0,1
1743177502389379,1743177502389379,0.5055999,1.5039287e-06,-0.11180146,1.0005854,0.001388028,1.0,1
1743177502493379,1743177502493379,0.50566024,1.5032779e-06,-0.17270829,1.0005852,0.003312301,1.0,1
1743177502589379,1743177502589379,0.5057078,1.5026658e-06,-0.14324574,1.0005859,0.002278592,1.0,1
1743177502693379,1743177502693379,0.50570416,1.502028e-06,0.123116136,1.0005817,0.0016831968,1.0,1
1743177502789379,1743177502789379,0.50562423,1.5016316e-06,0.3311735,1.0005645,0.012179336,1.0,1
1743177502893379,1743177502893379,0.5055031,1.5016608e-06,0.27642465,1.0005438,0.00848545,1.0,1
1743177502989379,1743177502989379,0.50543594,1.5017891e-06,0.06741221,1.0005474,0.00050465774,1.0,1
1743177503093379,1743177503093379,0.50541824,1.5017773e-06,-0.027743496,1.000557,8.547479e-05,1.0,1
1743177503189379,1743177503189379,0.5054356,1.5016036e-06,-0.03654686,1.0005637,0.00014832449,1.0,1
1743177503293379,1743177503293379,0.5054341,1.5014177e-06,0.062300857,1.0005572,0.00043102616,1.0,1
1743177503389379,1743177503389379,0.5054099,1.501385e-06,0.14186087,1.0005513,0.0022348242,1.0,1
1743177503493379,1743177503493379,0.50535184,1.501436e-06,0.23627847,1.000547,0.006199666,1.0,1
1743177503589379,1743177503589379,0.5052373,1.5015984e-06,0.51964813,1.0005362,0.02998772,1.0,1
1743177503693379,1743177503693379,0.5049978,1.5021355e-06,0.8549808,1.000509,0.08118003,1.0,1
1743177503789379,1743177503789379,0.5046857,1.503214e-06,0.9780916,1.0004785,0.10624507,1.0,1
1743177503893379,1743177503893379,0.5043629,1.5047991e-06,0.81614804,1.000465,0.07397644,1.0,1
1743177503989379,1743177503989379,0.5041396,1.506335e-06,0.57879627,1.0004663,0.03720544,1.0,1
1743177504093379,1743177504093379,0.50398725,1.5079532e-06,0.3012237,1.0004706,0.010077002,1.0,1
1743177504189379,1743177504189379,0.5039247,1.509208e-06,0.1102857,1.0004894,0.0013507763,1.0,1
1743177504293379,1743177504293379,0.5038611,1.5102005e-06,0.28556454,1.0005038,0.009056227,1.0,1
1743177504389379,1743177504389379,0.5037635,1.51092e-06,0.34067735,1.0005141,0.012889046,1.0,1
1743177504485379,1743177504485379,0.5036286,1.5114465e-06,0.4796041,1.0005246,0.025544386,1.0,1
1743177504589379,1743177504589379,0.5034398,1.511893e-06,0.5664091,1.0005268,0.03562782,1.0,1
1743177504685379,1743177504685379,0.50326914,1.5122725e-06,0.41909787,1.0005294,0.019505566,1.0,1
1743177504789379,1743177504789379,0.50313216,1.5126022e-06,0.31220293,1.0005348,0.010824285,1.0,1
1743177504893379,1743177504893379,0.50306755,1.512748e-06,0.10830861,1.0005468,0.001302705,1.0,1
1743177504989379,1743177504989379,0.5030586,1.5126443e-06,-0.10268018,1.0005608,0.0011708122,1.0,1
1743177505093379,1743177505093379,0.5031046,1.5122241e-06,-0.17826766,1.0005771,0.0035290031,1.0,1
1743177505189379,1743177505189379,0.5031755,1.5115736e-06,-0.2662815,1.0005903,0.007873777,1.0,1
1743177505293379,1743177505293379,0.50326914,1.5106276e-06,-0.24785215,1.0006016,0.0068215276,1.0,1
1743177505389379,1743177505389379,0.5033377,1.509643e-06,-0.14784436,1.0006047,0.0024271938,1.0,1
1743177505493379,1743177505493379,0.5034143,1.5085461e-06,-0.1769462,1.0006065,0.003476775,1.0,1
1743177505589379,1743177505589379,0.50347406,1.5075271e-06,-0.17676386,1.000606,0.0034696157,1.0,1
1743177505693379,1743177505693379,0.5035364,1.5064514e-06,-0.14064121,1.0006044,0.0021964447,1.0,1
1743177505789379,1743177505789379,0.50359386,1.505501e-06,-0.17510365,1.0006027,0.0034047577,1.0,1
1743177505893379,1743177505893379,0.5036534,1.5045136e-06,-0.14843158,1.0006005,0.0024465236,1.0,1
1743177505989379,1743177505989379,0.5037126,1.5036447e-06,-0.16050246,1.0005988,0.0028606248,1.0,1
1743177506085379,1743177506085379,0.5037723,1.5028105e-06,-0.18033575,1.0005972,0.0036112855,1.0,1
1743177506189379,1743177506189379,0.5038335,1.5019539e-06,-0.19693567,1.0005952,0.004306732,1.0,1
1743177506285379,1743177506285379,0.5038982,1.5011897e-06,-0.1639216,1.0005944,0.0029838143,1.0,1
1743177506389379,1743177506389379,0.5039548,1.5003981e-06,-0.10907743,1.0005924,0.0013212047,1.0,1
1743177506493379,1743177506493379,0.50401485,1.499648e-06,-0.11830434,1.0005908,0.0015541837,1.0,1
1743177506589379,1743177506589379,0.5040705,1.4989873e-06,-0.114744544,1.0005895,0.0014620615,1.0,1
1743177506693379,1743177506693379,0.50413406,1.4982903e-06,-0.15195419,1.0005888,0.0025640544,1.0,1
1743177506789379,1743177506789379,0.5041963,1.4976615e-06,-0.19824138,1.0005884,0.0043640593,1.0,1
1743177506893379,1743177506893379,0.5042696,1.496985e-06,-0.22156996,1.000589,0.005451594,1.0,1
1743177506989379,1743177506989379,0.5043348,1.4963517e-06,-0.13435096,1.0005893,0.0020043943,1.0,1
1743177507093379,1743177507093379,0.5044002,1.4956805e-06,-0.14736336,1.0005884,0.0024114656,1.0,1
1743177507189379,1743177507189379,0.5044614,1.4950868e-06,-0.17238529,1.0005876,0.0032999155,1.0,1
1743177507293379,1743177507293379,0.5045387,1.4944433e-06,-0.17480141,1.000588,0.0033930638,1.0,1
1743177507389379,1743177507389379,0.50460136,1.4938603e-06,-0.18860237,1.0005873,0.0039499975,1.0,1
1743177507493379,1743177507493379,0.5046696,1.4932459e-06,-0.18418244,1.0005867,0.0037670305,1.0,1
1743177507589379,1743177507589379,0.5047372,1.4926893e-06,-0.19213766,1.0005865,0.004099471,1.0,1
1743177507685379,1743177507685379,0.50479746,1.4921475e-06,-0.17220876,1.0005856,0.0032931666,1.0,1
1743177507789379,1743177507789379,0.5048649,1.4915863e-06,-0.17620008,1.0005845,0.0034475923,1.0,1
1743177507893379,1743177507893379,0.50493366,1.4910459e-06,-0.23268484,1.0005836,0.0060122944,1.0,1
1743177507989379,1743177507989379,0.5049976,1.4905564e-06,-0.15702997,1.0005835,0.0027382257,1.0,1
1743177508093379,1743177508093379,0.5050704,1.4900365e-06,-0.22351015,1.0005833,0.005547518,1.0,1
1743177508189379,1743177508189379,0.50514203,1.4895547e-06,-0.17487963,1.000584,0.0033961148,1.0,1
1743177508293379,1743177508293379,0.5052091,1.4890413e-06,-0.17789492,1.0005829,0.0035142407,1.0,1
1743177508389379,1743177508389379,0.505268,1.4885887e-06,-0.14736563,1.0005816,0.002411556,1.0,1
1743177508493379,1743177508493379,0.5053349,1.4881274e-06,-0.16132894,1.0005807,0.0028902136,1.0,1
1743177508589379,1743177508589379,0.50539595,1.487718e-06,-0.20170835,1.00058,0.004518075,1.0,1
1743177508693379,1743177508693379,0.5054594,1.4872921e-06,-0.23232894,1.0005791,0.0059939437,1.0,1
1743177508789379,1743177508789379,0.5055295,1.4869071e-06,-0.2743252,1.0005796,0.008356746,1.0,1
1743177508893379,1743177508893379,0.50558954,1.486495e-06,-0.15583792,1.0005786,0.0026968236,1.0,1
1743177508989379,1743177508989379,0.5056582,1.4861237e-06,-0.18589103,1.0005791,0.0038372753,1.0,1
1743177509093379,1743177509093379,0.50571865,1.4857262e-06,-0.1697605,1.0005782,0.0032002195,1.0,1
1743177509189379,1743177509189379,0.5057735,1.4853812e-06,-0.17281637,1.0005772,0.0033164741,1.0,1
1743177509285379,1743177509285379,0.50582415,1.4850422e-06,-0.09315805,1.0005782,0.000963712,1.0,1
1743177509389379,1743177509389379,0.50586367,1.484645e-06,0.00019364059,1.0005788,4.163888e-09,1.0,1
1743177509493379,1743177509493379,0.50581557,1.4844162e-06,0.24679422,1.0005605,0.006763696,1.0,1
1743177509589379,1743177509589379,0.505721,1.4845592e-06,0.32380012,1.0005449,0.011643269,1.0,1
1743177509693379,1743177509693379,0.5056384,1.484862e-06,0.18670145,1.000543,0.003870946,1.0,1
1743177509789379,1743177509789379,0.50560945,1.4851041e-06,0.01805479,1.0005462,3.6199723e-05,1.0,1
1743177509893379,1743177509893379,0.50562537,1.4852977e-06,-0.06376718,1.0005503,0.00045155743,1.0,1
1743177509989379,1743177509989379,0.5056781,1.4853715e-06,-0.19162534,1.0005572,0.004077758,1.0,1
1743177510093379,1743177510093379,0.505726,1.485327e-06,-0.075809166,1.0005622,0.0006382,1.0,1
1743177510189379,1743177510189379,0.505725,1.4852532e-06,0.089129075,1.0005591,0.00088217267,1.0,1
1743177510293379,1743177510293379,0.505653,1.4854872e-06,0.23696494,1.0005326,0.006235833,1.0,1
1743177510389379,1743177510389379,0.5055587,1.4861198e-06,0.35794365,1.0005165,0.014228611,1.0,1
1743177510493379,1743177510493379,0.5053856,1.487009e-06,0.60424197,1.0005077,0.04054701,1.0,1
1743177510589379,1743177510589379,0.5051596,1.4879846e-06,0.7611919,1.0004988,0.06434714,1.0,1
1743177510693379,1743177510693379,0.5049145,1.4891966e-06,0.63564634,1.0004926,0.04487193,1.0,1
1743177510789379,1743177510789379,0.50478137,1.4903123e-06,0.24405134,1.000498,0.006614601,1.0,1
1743177510885379,1743177510885379,0.5047685,1.4911927e-06,-0.09918922,1.0005168,0.0010926023,1.0,1
1743177510989379,1743177510989379,0.5048616,1.4916811e-06,-0.37358874,1.000544,0.015499187,1.0,1
1743177511093379,1743177511093379,0.504993,1.4916284e-06,-0.29934773,1.0005696,0.009950895,1.0,1
1743177511189379,1743177511189379,0.5050864,1.4912313e-06,-0.1745367,1.0005845,0.0033828074,1.0,1
1743177511293379,1743177511293379,0.5051226,1.4906318e-06,-0.05346565,1.0005887,0.00031743266,1.0,1
1743177511389379,1743177511389379,0.50511706,1.4900743e-06,0.029510766,1.0005863,9.670834e-05,1.0,1
1743177511493379,1743177511493379,0.50509316,1.4895572e-06,0.023709312,1.0005809,6.242279e-05,1.0,1
1743177511589379,1743177511589379,0.5050799,1.4891684e-06,-0.025981553,1.000577,7.496132e-05,1.0,1
1743177511693379,1743177511693379,0.505096,1.4888409e-06,-0.09559464,1.0005686,0.0010147935,1.0,1
1743177511789379,1743177511789379,0.50514054,1.4886916e-06,-0.18858075,1.0005649,0.0039491802,1.0,1
1743177511893379,1743177511893379,0.50522006,1.4884852e-06,-0.28027523,1.0005714,0.008723261,1.0,1
1743177511989379,1743177511989379,0.5053018,1.4881559e-06,-0.18924943,1.000579,0.0039771805,1.0,1
1743177512093379,1743177512093379,0.50537324,1.4876898e-06,-0.12502071,1.0005834,0.0017356738,1.0,1
1743177512189379,1743177512189379,0.50542974,1.4872184e-06,-0.14704135,1.0005848,0.0024009468,1.0,1
1743177512285379,1743177512285379,0.5054759,1.4867363e-06,-0.15283754,1.0005844,0.0025939636,1.0,1
1743177512389379,1743177512389379,0.5055136,1.4862471e-06,-0.13099855,1.0005825,0.0019056256,1.0,1
1743177512493379,1743177512493379,0.50555974,1.4857891e-06,-0.092459835,1.0005811,0.00094931736,1.0,1
1743177512589379,1743177512589379,0.50559604,1.4854052e-06,-0.13990624,1.0005788,0.002173604,1.0,1
1743177512693379,1743177512693379,0.5056316,1.4850392e-06,-0.10423325,1.0005764,0.0012064792,1.0,1
1743177512789379,1743177512789379,0.5056677,1.48474e-06,-0.111007355,1.0005747,0.0013683949,1.0,1
1743177512885379,1743177512885379,0.5057174,1.4844572e-06,-0.16046226,1.000575,0.0028592602,1.0,1
1743177512989379,1743177512989379,0.5057841,1.4841288e-06,-0.17930023,1.0005767,0.0035700046,1.0,1
1743177513085379,1743177513085379,0.50583196,1.4837913e-06,-0.07506485,1.0005786,0.00062571926,1.0,1
1743177513189379,1743177513189379,0.5058329,1.4834429e-06,0.054607198,1.0005747,0.00033113704,1.0,1
1743177513285379,1743177513285379,0.50578487,1.4833163e-06,0.14380255,1.0005596,0.002296401,1.0,1
1743177513389379,1743177513389379,0.50573707,1.4833815e-06,0.07368566,1.0005534,0.00060295267,1.0,1
1743177513493379,1743177513493379,0.50571626,1.4835268e-06,-0.048825473,1.0005511,0.00026473487,1.0,1
1743177513589379,1743177513589379,0.5057453,1.4836256e-06,-0.13411428,1.0005561,0.0019974047,1.0,1
1743177513693379,1743177513693379,0.50580436,1.4836021e-06,-0.18380637,1.0005639,0.0037517496,1.0,1
1743177513789379,1743177513789379,0.5058584,1.4834499e-06,-0.12842561,1.0005689,0.0018315291,1.0,1
1743177513893379,1743177513893379,0.50588065,1.4832464e-06,-0.002023846,1.0005689,4.5484708e-07,1.0,1
1743177513989379,1743177513989379,0.5058562,1.4831967e-06,0.14596874,1.0005506,0.0023661274,1.0,1
1743177514085379,1743177514085379,0.5058021,1.4835373e-06,0.16336454,1.0005344,0.0029637467,1.0,1
1743177514189379,1743177514189379,0.50568926,1.4841257e-06,0.48517007,1.0005237,0.026140755,1.0,1
1743177514293379,1743177514293379,0.505484,1.484905e-06,0.60582954,1.000514,0.040760096,1.0,1
1743177514389379,1743177514389379,0.5052767,1.4857656e-06,0.5662699,1.0005075,0.035610992,1.0,1
1743177514493379,1743177514493379,0.5051396,1.4867333e-06,0.17221388,1.0005108,0.0032936088,1.0,1
1743177514589379,1743177514589379,0.5051381,1.4874396e-06,-0.14270008,1.0005257,0.0022614014,1.0,1
1743177514693379,1743177514693379,0.50525695,1.4878023e-06,-0.3892913,1.0005513,0.016829355,1.0,1
1743177514789379,1743177514789379,0.50541455,1.487673e-06,-0.39521194,1.0005752,0.017344743,1.0,1
1743177514893379,1743177514893379,0.5055342,1.4871679e-06,-0.21194208,1.0005889,0.0049881116,1.0,1
1743177514989379,1743177514989379,0.5055754,1.4866162e-06,-0.010129556,1.0005841,1.1394223e-05,1.0,1
1743177515093379,1743177515093379,0.5055476,1.4862787e-06,0.08406219,1.000569,0.00078471476,1.0,1
1743177515189379,1743177515189379,0.50551224,1.4861564e-06,0.065383404,1.0005624,0.00047473182,1.0,1
1743177515293379,1743177515293379,0.50549,1.4860957e-06,0.032946877,1.0005604,0.00012054319,1.0,1
1743177515389379,1743177515389379,0.5054962,1.4860622e-06,-0.06815403,1.0005608,0.0005158187,1.0,1
1743177515493379,1743177515493379,0.5055599,1.4859411e-06,-0.22868074,1.0005683,0.0058072424,1.0,1
1743177515589379,1743177515589379,0.50564235,1.4856806e-06,-0.25469384,1.0005765,0.0072035086,1.0,1
1743177515685379,1743177515685379,0.5057163,1.4853003e-06,-0.19340034,1.0005816,0.0041535497,1.0,1
1743177515789379,1743177515789379,0.5057784,1.4848332e-06,-0.06510186,1.0005832,0.00047064247,1.0,1
1743177515893379,1743177515893379,0.505816,1.4843897e-06,-0.12773877,1.0005803,0.0018119701,1.0,1
1743177515989379,1743177515989379,0.50584656,1.4840334e-06,-0.13429345,1.0005774,0.0020027026,1.0,1
1743177516093379,1743177516093379,0.5058701,1.4837112e-06,-0.061100617,1.0005741,0.0004145715,1.0,1
1743177516189379,1743177516189379,0.5059062,1.4834618e-06,-0.15393874,1.0005727,0.0026315083,1.0,1
1743177516293379,1743177516293379,0.5059622,1.4831896e-06,-0.17757332,1.0005736,0.0035015782,1.0,1
1743177516389379,1743177516389379,0.50600725,1.4829341e-06,-0.18717532,1.0005742,0.0038904995,1.0,1
1743177516493379,1743177516493379,0.5060635,1.4825973e-06,-0.13839594,1.0005795,0.0021269268,1.0,1
1743177516589379,1743177516589379,0.50606644,1.4822707e-06,0.119574934,1.0005727,0.0015877758,1.0,1
1743177516685379,1743177516685379,0.50601256,1.4822291e-06,0.21879908,1.0005536,0.0053162836,1.0,1
1743177516789379,1743177516789379,0.5059514,1.482434e-06,0.097926386,1.0005482,0.0010649248,1.0,1
1743177516893379,1743177516893379,0.5059229,1.4826e-06,0.01283109,1.0005533,1.8282872e-05,1.0,1
1743177516989379,1743177516989379,0.5059292,1.4826686e-06,-0.0661927,1.0005568,0.00048655947,1.0,1
1743177517093379,1743177517093379,0.505951,1.4826851e-06,-0.06754583,1.0005591,0.00050665444,1.0,1
1743177517189379,1743177517189379,0.5059743,1.4826695e-06,-0.054969326,1.0005602,0.00033554836,1.0,1
1743177517293379,1743177517293379,0.5059578,1.4826701e-06,0.08858532,1.0005571,0.0008714433,1.0,1
1743177517389379,1743177517389379,0.5059069,1.4827622e-06,0.23484622,1.000549,0.0061247204,1.0,1
1743177517493379,1743177517493379,0.50578713,1.4832133e-06,0.4411948,1.0005242,0.021616764,1.0,1
1743177517589379,1743177517589379,0.5056144,1.4839933e-06,0.6411129,1.0005069,0.04564639,1.0,1
1743177517685379,1743177517685379,0.5053641,1.4850687e-06,0.8101586,1.0004928,0.07289263,1.0,1
1743177517789379,1743177517789379,0.505081,1.4865107e-06,0.8141429,1.0004779,0.073612444,1.0,1
1743177517893379,1743177517893379,0.50485015,1.4880842e-06,0.5504425,1.0004762,0.03364919,1.0,1
1743177517989379,1743177517989379,0.504735,1.4894372e-06,0.24437219,1.000486,0.006632084,1.0,1
1743177518093379,1743177518093379,0.5046813,1.4906134e-06,0.089023024,1.0005038,0.0008801232,1.0,1
1743177518189379,1743177518189379,0.5046426,1.4913926e-06,0.1570622,1.0005176,0.0027395303,1.0,1
1743177518285379,1743177518285379,0.5045551,1.492111e-06,0.30192506,1.0005157,0.010123528,1.0,1
1743177518389379,1743177518389379,0.5044233,1.4929238e-06,0.40767172,1.0005139,0.018456763,1.0,1
1743177518493379,1743177518493379,0.5042658,1.4936955e-06,0.47805792,1.0005165,0.025380153,1.0,1
1743177518589379,1743177518589379,0.5041013,1.494373e-06,0.51804936,1.0005172,0.029804043,1.0,1
1743177518685379,1743177518685379,0.5039546,1.4950283e-06,0.41846895,1.000521,0.019447234,1.0,1
1743177518789379,1743177518789379,0.50383437,1.495656e-06,0.26628536,1.000525,0.0078745205,1.0,1
1743177518885379,1743177518885379,0.50377536,1.4960951e-06,0.05666232,1.0005352,0.00035654457,1.0,1
1743177518989379,1743177518989379,0.50374484,1.4963566e-06,0.049388006,1.0005461,0.00027087153,1.0,1
1743177519093379,1743177519093379,0.5037552,1.4963256e-06,-0.03528522,1.000564,0.00013826056,1.0,1
1743177519189379,1743177519189379,0.50376076,1.4960539e-06,0.0013090335,1.000572,1.9028766e-07,1.0,1
1743177519293379,1743177519293379,0.50374866,1.4956836e-06,0.04267174,1.0005736,0.00020220371,1.0,1
1743177519389379,1743177519389379,0.5037267,1.4953463e-06,0.050000414,1.0005724,0.00027762345,1.0,1
1743177519493379,1743177519493379,0.5037123,1.4950036e-06,0.0452052,1.0005721,0.00022692683,1.0,1
1743177519589379,1743177519589379,0.50369185,1.4947027e-06,0.023896407,1.0005707,6.341252e-05,1.0,1
1743177519693379,1743177519693379,0.5036793,1.4943964e-06,0.014672041,1.0005704,2.3905119e-05,1.0,1
1743177519789379,1743177519789379,0.50366867,1.4941122e-06,0.08629341,1.0005707,0.0008269228,1.0,1
1743177519893379,1743177519893379,0.5036576,1.4938132e-06,0.010432355,1.0005699,1.2085782e-05,1.0,1
1743177519989379,1743177519989379,0.5036328,1.4935503e-06,0.10943246,1.0005684,0.0013298512,1.0,1
1743177520093379,1743177520093379,0.5035909,1.4933248e-06,0.102675766,1.0005652,0.0011707064,1.0,1
