timestamp,timestamp_sample,gyro_device_id,gyro_bias[0],gyro_bias[1],gyro_bias[2],gyro_bias_limit,gyro_bias_variance[0],gyro_bias_variance[1],gyro_bias_variance[2],accel_device_id,accel_bias[0],accel_bias[1],accel_bias[2],accel_bias_limit,accel_bias_variance[0],accel_bias_variance[1],accel_bias_variance[2],mag_device_id,mag_bias[0],mag_bias[1],mag_bias[2],mag_bias_limit,mag_bias_variance[0],mag_bias_variance[1],mag_bias_variance[2],gyro_bias_valid,gyro_bias_stable,accel_bias_valid,accel_bias_stable,mag_bias_valid,mag_bias_stable
21726068000,21725988000,1310988,0.0010148352,6.9585185e-05,-0.00022484118,0.34906584,1.3783917e-07,1.3783965e-07,3.5889073e-07,1310988,-0.018338265,-0.0055447826,-0.029548708,0.4,0.0013627956,0.0013696757,0.00078123936,197388,0.012678283,-0.0064930418,-0.0015571705,0.5,2.3108616e-05,6.679746e-05,8.230631e-05,1,1,1,0,1,0
21726692000,21726612000,1310988,0.0009874122,7.905269e-05,-0.00022443991,0.34906584,1.3783357e-07,1.3783577e-07,3.587797e-07,1310988,-0.018342048,-0.005539529,-0.031782415,0.4,0.0013628379,0.001369718,0.00078123936,197388,0.012678283,-0.0064930418,-0.0015571705,0.5,2.3108616e-05,6.679746e-05,8.230631e-05,1,1,1,0,1,0
21727316000,21727236000,1310988,0.0009676992,8.676057e-05,-0.0002219928,0.34906584,1.3783243e-07,1.3783543e-07,3.5867163e-07,1310988,-0.01834619,-0.0055380166,-0.032974705,0.4,0.0013628819,0.0013697612,0.00078123936,197388,0.012678283,-0.0064930418,-0.0015571705,0.5,2.3108616e-05,6.679746e-05,8.230631e-05,1,1,1,0,1,0
21727524000,21727444000,1310988,0.0009621742,8.6857486e-05,-0.00022733213,0.34906584,1.3783045e-07,1.3783382e-07,3.5863735e-07,1310988,-0.018346846,-0.005536864,-0.034097575,0.4,0.0013628964,0.0013697757,0.00078123936,197388,0.012678283,-0.0064930418,-0.0015571705,0.5,2.3108616e-05,6.679746e-05,8.230631e-05,1,1,1,0,1,0
21727732000,21727652000,1310988,0.0009554778,8.3439416e-05,-0.00022489921,0.34906584,1.3783314e-07,1.3783728e-07,3.5860248e-07,1310988,-0.018347686,-0.005539707,-0.033072874,0.4,0.0013629107,0.0013697902,0.00078123936,197388,0.012678283,-0.0064930418,-0.0015571705,0.5,2.3108616e-05,6.679746e-05,8.230631e-05,1,1,1,0,1,0
21727940000,21727860000,1310988,0.00094981573,9.207582e-05,-0.0002241595,0.34906584,1.3783165e-07,1.3783539e-07,3.5856598e-07,1310988,-0.018349012,-0.0055375127,-0.034211174,0.4,0.0013629245,0.0013698047,0.00078123936,197388,0.012678283,-0.0064930418,-0.0015571705,0.5,2.3108616e-05,6.679746e-05,8.230631e-05,1,1,1,0,1,0
21728940000,21728860000,1310988,0.00092010805,9.24406e-05,-0.00022842789,0.34906584,1.3917585e-07,1.3918151e-07,3.5863496e-07,1310988,-0.018352104,-0.005539166,-0.034723844,0.4,0.0013629944,0.0013698741,0.0007812462,197388,0.012678283,-0.0064930418,-0.0015571705,0.5,2.3108616e-05,6.679746e-05,8.230631e-05,1,1,1,0,1,0
21729188000,21729108000,1310988,0.0009074295,9.2056056e-05,-0.0002274054,0.34906584,1.3783894e-07,1.378452e-07,3.5891966e-07,1310988,-0.018352874,-0.0055438606,-0.0320666,0.4,0.0013630111,0.0013698906,0.00078123936,197388,0.012678283,-0.0064930418,-0.0015571705,0.5,2.3108616e-05,6.679746e-05,8.230631e-05,1,1,1,0,1,0
21730020000,21729940000,1310988,0.0008839844,7.8743615e-05,-0.0002296921,0.34906584,1.3782794e-07,1.3783583e-07,3.5878222e-07,1310988,-0.018350216,-0.0055388366,-0.035844427,0.4,0.0013630656,0.0013699451,0.00078123936,197388,0.012678283,-0.0064930418,-0.0015571705,0.5,2.3108616e-05,6.679746e-05,8.230631e-05,1,1,1,0,1,0
21730436000,21730356000,1310988,0.000888776,7.905533e-05,-0.00023167385,0.34906584,1.3783432e-07,1.378405e-07,3.5871162e-07,1310988,-0.018351568,-0.005540132,-0.033895932,0.4,0.0013630936,0.0013699727,0.00078123936,197388,0.012678283,-0.0064930418,-0.0015571705,0.5,2.3108616e-05,6.679746e-05,8.230631e-05,1,1,1,0,1,0
21730644000,21730564000,1310988,0.0008886233,8.5601896e-05,-0.00023148648,0.34906584,1.37832e-07,1.378373e-07,3.5867794e-07,1310988,-0.01835096,-0.0055398704,-0.035282373,0.4,0.0013631078,0.0013699871,0.00078123936,197388,0.012678283,-0.0064930418,-0.0015571705,0.5,2.3108616e-05,6.679746e-05,8.230631e-05,1,1,1,0,1,0
21731268000,21731188000,1310988,0.00089249946,7.040681e-05,-0.00023289344,0.34906584,1.3783506e-07,1.3783985e-07,3.585829e-07,1310988,-0.018350719,-0.005539382,-0.03410794,0.4,0.0013631502,0.001370031,0.00078123936,197388,0.012678283,-0.0064930418,-0.0015571705,0.5,2.3108616e-05,6.679746e-05,8.230631e-05,1,1,1,0,1,0
21731892000,21731812000,1310988,0.00089325383,6.140723e-05,-0.00023000847,0.34906584,1.3783084e-07,1.3783522e-07,3.5848632e-07,1310988,-0.018350702,-0.0055390927,-0.03555201,0.4,0.0013631929,0.0013700738,0.00078123936,197388,0.012678283,-0.0064930418,-0.0015571705,0.5,2.3108616e-05,6.679746e-05,8.230631e-05,1,1,1,0,1,0
21732100000,21732020000,1310988,0.000893345,7.225455e-05,-0.00022732414,0.34906584,1.3783607e-07,1.378395e-07,3.5845164e-07,1310988,-0.018352233,-0.0055404627,-0.033730313,0.4,0.0013632057,0.0013700878,0.00078123936,197388,0.012678283,-0.0064930418,-0.0015571705,0.5,2.3108616e-05,6.679746e-05,8.230631e-05,1,1,1,0,1,0
21732308000,21732228000,1310988,0.0009018583,7.310835e-05,-0.00022675456,0.34906584,1.378424e-07,1.3784476e-07,3.584186e-07,1310988,-0.018355472,-0.005540505,-0.03071907,0.4,0.0013632189,0.0013701,0.00078123936,197388,0.012678283,-0.0064930418,-0.0015571705,0.5,2.3108616e-05,6.679746e-05,8.230631e-05,1,1,1,0,1,0
21732516000,21732436000,1310988,0.0008965019,8.390029e-05,-0.00022733917,0.34906584,1.3785136e-07,1.3785335e-07,3.5838212e-07,1310988,-0.018356632,-0.0055443505,-0.02629034,0.4,0.0013632296,0.0013701112,0.00078123936,197388,0.012678283,-0.0064930418,-0.0015571705,0.5,2.3108616e-05,6.679746e-05,8.230631e-05,1,1,1,0,1,0
21732724000,21732644000,1310988,0.0008925185,9.6229036e-05,-0.0002274629,0.34906584,1.3785505e-07,1.3785635e-07,3.5834665e-07,1310988,-0.018356463,-0.005545202,-0.023733053,0.4,0.0013632429,0.0013701252,0.00078123936,197388,0.012678283,-0.0064930418,-0.0015571705,0.5,2.3108616e-05,6.679746e-05,8.230631e-05,1,1,1,0,1,0
21732932000,21732852000,1310988,0.0008943641,0.000102841455,-0.00022921005,0.34906584,1.37858e-07,1.378585e-07,3.583164e-07,1310988,-0.01835761,-0.005545649,-0.021009333,0.4,0.0013632571,0.0013701395,0.00078123936,197388,0.012678283,-0.0064930418,-0.0015571705,0.5,2.3108616e-05,6.679746e-05,8.230631e-05,1,1,1,0,1,0
21733932000,21733852000,1310988,0.0008952958,0.00010311231,-0.00022536957,0.34906584,1.4566243e-07,1.4566268e-07,3.5840895e-07,1310988,-0.018357767,-0.005545713,-0.020819388,0.4,0.0013633282,0.0013702103,0.00078124163,197388,0.012678283,-0.0064930418,-0.0015571705,0.5,2.3108616e-05,6.679746e-05,8.230631e-05,1,0,1,0,1,0
21734828000,21734748000,1310988,0.00089490117,0.00010679591,-0.00022209954,0.34906584,1.5110011e-07,1.5110017e-07,3.5878568e-07,1310988,-0.01829629,-0.005543392,-0.022112917,0.4,0.0013627817,0.0013696584,0.00078123936,197388,0.012678283,-0.0064930418,-0.0015571705,0.5,2.3108616e-05,6.679746e-05,8.230631e-05,1,0,1,0,1,0
21735604000,21735524000,1310988,0.0008909524,0.00011382165,-0.00022603942,0.34906584,1.5430243e-07,1.543027e-07,3.5932774e-07,1310988,-0.018230299,-0.0054855193,-0.020761551,0.4,0.0013620621,0.0013689317,0.00078123936,197388,0.012678283,-0.0064930418,-0.0015571705,0.5,0.0025000002,0.0025000002,0.0025000002,1,0,1,0,1,0
21736020000,21735940000,1310988,0.0008884385,0.00011877589,-0.0002258342,0.34906584,1.5552645e-07,1.5552688e-07,3.6265504e-07,1310988,-0.018434739,-0.0055907844,-0.018958392,0.4,0.0013590576,0.0013658976,0.00078123936,197388,0.012678283,-0.0064930418,-0.0015571705,0.5,0.0025000002,0.0025000002,0.0025000002,1,0,1,0,1,0
21736644000,21736564000,1310988,0.00088172336,0.000121144425,-0.00022528392,0.34906584,1.5804241e-07,1.5804227e-07,3.676431e-07,1310988,-0.01858926,-0.0063532186,-0.01787102,0.4,0.001330011,0.0013365655,0.00078123936,197388,0.012678283,-0.0064930418,-0.0015571705,0.5,0.0025000002,0.0025000002,0.0025000002,1,0,1,0,1,0
21737212000,21737132000,1310988,0.0008806108,0.00012197182,-0.00022455973,0.34906584,1.6126221e-07,1.6126066e-07,3.7217765e-07,1310988,-0.018581023,-0.0066271275,-0.016821124,0.4,0.0012808947,0.0012869925,0.00078123936,197388,0.012678283,-0.0064930418,-0.0015571705,0.5,0.0025000002,0.0025000002,0.0025000002,1,0,1,0,1,0
21738204000,21738124000,1310988,0.0008776486,0.0001225521,-0.0002227242,0.34906584,1.6742467e-07,1.6741924e-07,3.8007744e-07,1310988,-0.018248506,-0.007307493,-0.01615841,0.4,0.0011664083,0.0011715683,0.00078123936,197388,0.012678283,-0.0064930418,-0.0015571705,0.5,0.0025000002,0.0025000002,0.0025000002,1,0,1,0,1,0
21739204000,21739124000,1310988,0.00087514205,0.00012383203,-0.00022087834,0.34906584,1.7431937e-07,1.7430673e-07,3.8800502e-07,1310988,-0.018383136,-0.0079376055,-0.015422376,0.4,0.0010770306,0.0010818761,0.0007812411,197388,0.012678283,-0.0064930418,-0.0015571705,0.5,0.0025000002,0.0025000002,0.0025000002,1,0,1,0,1,0
21739356000,21739276000,1310988,0.00087404787,0.00012454324,-0.00022041916,0.34906584,1.7532491e-07,1.7530824e-07,3.8920646e-07,1310988,-0.018609166,-0.008286118,-0.015321869,0.4,0.0010618332,0.0010668967,0.00078123936,197388,0.011278458,-0.006792765,-0.00057733327,0.5,0.001427379,0.0015450268,0.0016279891,1,0,1,0,1,0
21739420000,21739340000,1310988,0.00087404903,0.00012454328,-0.00022041917,0.34906584,1.7583693e-07,1.7582025e-07,3.8971848e-07,1310988,-0.018609606,-0.008285885,-0.015283584,0.4,0.0010618375,0.0010669011,0.00078123936,197388,0.012503161,-0.0066234753,0.00048101993,0.5,0.0011249133,0.0012953798,0.0014323931,1,0,1,0,1,0
21739564000,21739484000,1310988,0.00087405,0.00012454345,-0.0002204192,0.34906584,1.7698895e-07,1.7697226e-07,3.9087047e-07,1310988,-0.01861006,-0.008285649,-0.01525018,0.4,0.0010618472,0.0010669114,0.0007812411,197388,0.0113501,-0.0058463695,-0.0002662905,0.5,0.00089836185,0.0011066468,0.0012954072,1,0,1,0,1,0
21739604000,21739524000,1310988,0.0008699658,0.00012723105,-0.00021981267,0.34906584,1.7707663e-07,1.770445e-07,3.9118635e-07,1310988,-0.019330084,-0.009540728,-0.01599227,0.4,0.0010484274,0.0010545475,0.00078123936,197388,0.011498745,-0.0060342476,-0.00019518158,0.5,0.0008980607,0.0011063537,0.0012953578,1,0,1,0,1,0
21739820000,21739740000,1310988,0.00086602196,0.00012822272,-0.00021912622,0.34906584,1.7859189e-07,1.7853192e-07,3.9290845e-07,1310988,-0.01948437,-0.010579466,-0.016186286,0.4,0.0010377968,0.0010457397,0.00078123936,197388,0.0116359955,-0.005827998,0.00063727656,0.5,0.0007709782,0.0010079837,0.0012269514,1,0,1,0,1,0
21740028000,21739948000,1310988,0.00086288294,0.00012821051,-0.00021859372,0.34906584,1.8005821e-07,1.7995866e-07,3.9456725e-07,1310988,-0.019332817,-0.011285702,-0.016934736,0.4,0.0010293811,0.001039496,0.00078123936,197388,0.01115757,-0.0063759303,0.00042346487,0.5,0.0007108665,0.00096619874,0.0011984219,1,0,1,0,1,0
21740444000,21740364000,1310988,0.00085795566,0.00012543295,-0.00021796997,0.34906584,1.8300705e-07,1.8279763e-07,3.978877e-07,1310988,-0.018680783,-0.012114938,-0.017415311,0.4,0.0010172502,0.001031643,0.00078123936,197388,0.011724649,-0.0072108074,0.00057461084,0.5,0.00065186614,0.0009281701,0.0011726755,1,0,1,0,1,0
21741012000,21740932000,1310988,0.0008528131,0.00011962777,-0.00021812337,0.34906584,1.8701773e-07,1.8662664e-07,4.0238416e-07,1310988,-0.017852744,-0.012602454,-0.017857086,0.4,0.0010082591,0.0010263695,0.00078123936,197388,0.012057649,-0.007661793,0.00093844003,0.5,0.0006179269,0.0009060365,0.0011570576,1,0,1,0,1,0
21741636000,21741556000,1310988,0.00084740587,0.00011226921,-0.00021908182,0.34906584,1.910898e-07,1.9040476e-07,4.0720838e-07,1310988,-0.016943166,-0.01295156,-0.018892575,0.4,0.0009987451,0.0010217663,0.00078123936,197388,0.012091749,-0.007836792,0.0010160726,0.5,0.00060052413,0.0008932738,0.0011469517,1,0,1,0,1,0
21742636000,21742556000,1310988,0.0008431575,9.948534e-05,-0.00022091068,0.34906584,1.9692084e-07,1.9583173e-07,4.1446023e-07,1310988,-0.016284963,-0.013185147,-0.018352943,0.4,0.0009871175,0.0010179165,0.0007812405,197388,0.0122741675,-0.008343853,0.0015018361,0.5,0.0005888735,0.0008823711,0.0011359047,1,0,1,0,1,0
21743636000,21743556000,1310988,0.00083399273,8.674188e-05,-0.00022675295,0.34906584,2.0125775e-07,1.9987685e-07,4.2069345e-07,1310988,-0.01564264,-0.01338887,-0.018494822,0.4,0.0009742386,0.0010152839,0.00078123994,197388,0.012408558,-0.00845877,0.0015915578,0.5,0.00058344245,0.0008757586,0.0011264782,1,0,1,0,1,0
21744268000,21744188000,1310988,0.000834857,7.235349e-05,-0.00022616574,0.34906584,2.0266256e-07,2.011022e-07,4.2367066e-07,1310988,-0.01567901,-0.013435038,-0.017487861,0.4,0.00096374296,0.0010137757,0.00078123936,197388,0.012479511,-0.008723439,0.0016793573,0.5,0.00058105827,0.000872512,0.0011206516,1,0,1,0,1,0
21745268000,21745188000,1310988,0.00083629333,5.4647324e-05,-0.00022606064,0.34906584,2.0422696e-07,2.0218198e-07,4.275218e-07,1310988,-0.015442535,-0.01345997,-0.016959567,0.4,0.0009485909,0.0010121125,0.0007812405,197388,0.01248353,-0.008984812,0.002124849,0.5,0.0005780647,0.0008684209,0.0011116207,1,0,1,0,1,0
21746268000,21746188000,1310988,0.0008405451,2.9994495e-05,-0.0002221817,0.34906584,2.050867e-07,2.0184874e-07,4.2962444e-07,1310988,-0.014830168,-0.013404673,-0.017521301,0.4,0.00093341386,0.0010082274,0.00078123994,197388,0.01248353,-0.008984812,0.002124849,0.5,0.0005780647,0.0008684209,0.0011116207,1,0,1,0,1,0
21747268000,21747188000,1310988,0.0008431548,3.3022097e-06,-0.00022069104,0.34906584,2.0565582e-07,2.0063385e-07,4.3177906e-07,1310988,-0.014888135,-0.013426445,-0.016716484,0.4,0.00091932534,0.0010058682,0.0007812405,197388,0.01248353,-0.008984812,0.002124849,0.5,0.0005780647,0.0008684209,0.0011116207,1,0,1,0,1,0
21748268000,21748188000,1310988,0.0008598727,-3.6900557e-05,-0.0002087949,0.34906584,2.0347802e-07,1.9527124e-07,4.320102e-07,1310988,-0.0144522255,-0.013479088,-0.017203325,0.4,0.0009037113,0.001004198,0.0007812411,197388,0.01248353,-0.008984812,0.002124849,0.5,0.0005780647,0.0008684209,0.0011116207,1,0,1,0,1,0
21749020000,21748940000,1310988,0.0008731801,-6.119599e-05,-0.00019909484,0.34906584,2.0295883e-07,1.9255775e-07,4.3297263e-07,1310988,-0.014003794,-0.013535779,-0.018129244,0.4,0.00089537405,0.0010031717,0.00078123936,197388,0.01248353,-0.008984812,0.002124849,0.5,0.0005780647,0.0008684209,0.0011116207,1,0,1,0,1,0
21749644000,21749564000,1310988,0.0008766027,-8.752308e-05,-0.00019892113,0.34906584,2.0199435e-07,1.8951553e-07,4.3335555e-07,1310988,-0.0135668,-0.0135956155,-0.019175263,0.4,0.00088844256,0.0010023952,0.00078123936,197388,0.01248353,-0.008984812,0.002124849,0.5,0.0005780647,0.0008684209,0.0011116207,1,0,1,0,1,0
21750428000,21750348000,1310988,0.0008885091,-0.00011336967,-0.00019053419,0.34906584,2.017301e-07,1.8706676e-07,4.3448065e-07,1310988,-0.013219341,-0.013672772,-0.020192003,0.4,0.0008821911,0.0010014988,0.00078123936,197388,0.01248353,-0.008984812,0.002124849,0.5,0.0005780647,0.0008684209,0.0011116207,1,0,1,0,1,0
21751428000,21751348000,1310988,0.00089952967,-0.00013091209,-0.00018466306,0.34906584,2.013151e-07,1.8396122e-07,4.3575125e-07,1310988,-0.012936876,-0.013785576,-0.02112108,0.4,0.00087541254,0.0010003719,0.00078124,197388,0.01248353,-0.008984812,0.002124849,0.5,0.0005780647,0.0008684209,0.0011116207,1,0,1,0,1,0
21752428000,21752348000,1310988,0.00090768514,-0.00014073025,-0.00018298866,0.34906584,2.0138646e-07,1.8167931e-07,4.3723873e-07,1310988,-0.012829085,-0.013910224,-0.021522796,0.4,0.0008702045,0.0009992702,0.0007812428,197388,0.01248353,-0.008984812,0.002124849,0.5,0.0005780647,0.0008684209,0.0011116207,1,0,1,0,1,0
21753428000,21753348000,1310988,0.0009019096,-0.0001377955,-0.0001949109,0.34906584,2.0120783e-07,1.7916385e-07,4.3831378e-07,1310988,-0.012848695,-0.013940645,-0.021243695,0.4,0.0008660664,0.0009981536,0.00078124227,197388,0.01248353,-0.008984812,0.002124849,0.5,0.0005780647,0.0008684209,0.0011116207,1,0,1,0,1,0
21754428000,21754348000,1310988,0.0008983577,-0.00012229466,-0.00020641889,0.34906584,1.9958874e-07,1.7468837e-07,4.3795833e-07,1310988,-0.012836608,-0.013998146,-0.02078686,0.4,0.0008624448,0.0009969352,0.00078123936,197388,0.01248353,-0.008984812,0.002124849,0.5,0.0005780647,0.0008684209,0.0011116207,1,0,1,0,1,0
21755420000,21755340000,1310988,0.0009008176,-0.00010093351,-0.00021121492,0.34906584,1.9998038e-07,1.7310111e-07,4.3910288e-07,1310988,-0.012873616,-0.01409597,-0.019758295,0.4,0.0008602528,0.0009959049,0.00078123936,197388,0.01248353,-0.008984812,0.002124849,0.5,0.0005780647,0.0008684209,0.0011116207,1,0,1,0,1,0
21756420000,21756340000,1310988,0.0008956682,-6.770591e-05,-0.0002263501,0.34906584,2.0056042e-07,1.7182943e-07,4.402098e-07,1310988,-0.01279159,-0.014143471,-0.018962536,0.4,0.00085861236,0.0009948969,0.00078124,197388,0.01248353,-0.008984812,0.002124849,0.5,0.0005780647,0.0008684209,0.0011116207,1,0,1,0,1,0
21757028000,21756948000,1310988,0.00088872784,-4.7286576e-05,-0.00023730408,0.34906584,2.001686e-07,1.6988287e-07,4.4024148e-07,1310988,-0.012823661,-0.014130051,-0.01744254,0.4,0.00085770554,0.0009942863,0.00078123936,197388,0.01248353,-0.008984812,0.002124849,0.5,0.0005780647,0.0008684209,0.0011116207,1,0,1,0,1,0
21757444000,21757364000,1310988,0.0008861899,-3.2629865e-05,-0.00024537827,0.34906584,2.0021494e-07,1.690116e-07,4.404421e-07,1310988,-0.012851833,-0.0141571155,-0.016084503,0.4,0.0008572008,0.0009938958,0.00078123936,197388,0.01248353,-0.008984812,0.002124849,0.5,0.0005780647,0.0008684209,0.0011116207,1,0,1,0,1,0
21758220000,21758140000,1310988,0.0008813031,-1.45356225e-05,-0.00025803957,0.34906584,2.0104928e-07,1.6839763e-07,4.413551e-07,1310988,-0.012865861,-0.0141762765,-0.014571282,0.4,0.00085648673,0.0009932693,0.00078123936,197388,0.01248353,-0.008984812,0.002124849,0.5,0.0005780647,0.0008684209,0.0011116207,1,0,1,0,1,0
21758644000,21758564000,1310988,0.00087849074,-9.289958e-06,-0.00026206175,0.34906584,2.0122162e-07,1.6762158e-07,4.4156536e-07,1310988,-0.012938773,-0.014169623,-0.013020631,0.4,0.00085610064,0.0009929264,0.00078123936,197388,0.01248353,-0.008984812,0.002124849,0.5,0.0005780647,0.0008684209,0.0011116207,1,0,1,0,1,0
21759212000,21759132000,1310988,0.0008774619,-3.4307639e-06,-0.00026713804,0.34906584,2.0214749e-07,1.6758042e-07,4.423732e-07,1310988,-0.01297066,-0.014188948,-0.0119641945,0.4,0.00085573236,0.0009925425,0.00078123936,197388,0.01248353,-0.008984812,0.002124849,0.5,0.0005780647,0.0008684209,0.0011116207,1,0,1,0,1,0
21759628000,21759548000,1310988,0.0008753855,4.3042683e-06,-0.0002734329,0.34906584,2.0222787e-07,1.6668832e-07,4.424521e-07,1310988,-0.013006661,-0.014202228,-0.010500929,0.4,0.0008554208,0.0009922308,0.00078123936,197388,0.01248353,-0.008984812,0.002124849,0.5,0.0005780647,0.0008684209,0.0011116207,1,0,1,0,1,0
21760044000,21759964000,1310988,0.00088011124,1.07414035e-05,-0.0002725087,0.34906584,2.0246168e-07,1.6602334e-07,4.426449e-07,1310988,-0.013057628,-0.014265949,-0.008693308,0.4,0.00085515867,0.0009919436,0.00078123936,197388,0.01248353,-0.008984812,0.002124849,0.5,0.0005780647,0.0008684209,0.0011116207,1,0,1,0,1,0
21760412000,21760332000,1310988,0.0008827206,1.4367821e-05,-0.00027243883,0.34906584,2.0354148e-07,1.6668629e-07,4.435113e-07,1310988,-0.013084847,-0.014302529,-0.007575712,0.4,0.00085501483,0.000991763,0.00078123936,197388,0.01248353,-0.008984812,0.002124849,0.5,0.0005780647,0.0008684209,0.0011116207,1,0,1,0,1,0
21760620000,21760540000,1310988,0.0008848396,2.2774777e-05,-0.00027191814,0.34906584,2.0353336e-07,1.6617696e-07,4.4350745e-07,1310988,-0.013070419,-0.014333591,-0.0064403974,0.4,0.0008548862,0.0009916213,0.00078123936,197388,0.01248353,-0.008984812,0.002124849,0.5,0.0005780647,0.0008684209,0.0011116207,1,0,1,0,1,0
21761036000,21760956000,1310988,0.0008910848,3.367639e-05,-0.0002701197,0.34906584,2.0368417e-07,1.6540044e-07,4.4360618e-07,1310988,-0.013061219,-0.014408404,-0.004927804,0.4,0.0008546635,0.0009913555,0.00078123936,197388,0.01248353,-0.008984812,0.002124849,0.5,0.0005780647,0.0008684209,0.0011116207,1,0,1,0,1,0
21761452000,21761372000,1310988,0.00089404284,4.1067953e-05,-0.00027015607,0.34906584,2.0528583e-07,1.6674191e-07,4.4473353e-07,1310988,-0.013054173,-0.014448777,-0.0039216937,0.4,0.0008545495,0.0009911878,0.00078123936,197388,0.01248353,-0.008984812,0.002124849,0.5,0.0005780647,0.0008684209,0.0011116207,1,0,1,0,1,0
21761812000,21761732000,1310988,0.0009012493,5.049469e-05,-0.0002659431,0.34906584,2.0483161e-07,1.6521713e-07,4.4442052e-07,1310988,-0.013029675,-0.01451941,-0.0026416467,0.4,0.0008543313,0.0009909461,0.00078123936,197388,0.01248353,-0.008984812,0.002124849,0.5,0.0005780647,0.0008684209,0.0011116207,1,0,1,0,1,0
21762228000,21762148000,1310988,0.00090699794,6.264611e-05,-0.0002627,0.34906584,2.0498581e-07,1.6447406e-07,4.4450363e-07,1310988,-0.012998845,-0.0145798195,-0.0010064591,0.4,0.000854139,0.0009907134,0.00078123936,197388,0.01248353,-0.008984812,0.002124849,0.5,0.0005780647,0.0008684209,0.0011116207,1,0,1,0,1,0
21762436000,21762356000,1310988,0.0009124641,7.051494e-05,-0.00025913303,0.34906584,2.0511894e-07,1.6418608e-07,4.4457616e-07,1310988,-0.012970222,-0.014631157,0.00011961789,0.4,0.00085405173,0.0009906038,0.00078123936,197388,0.01248353,-0.008984812,0.002124849,0.5,0.0005780647,0.0008684209,0.0011116207,1,0,1,0,1,0
21763108000,21763028000,1310988,0.000916302,8.212939e-05,-0.00026352235,0.34906584,2.0702285e-07,1.654503e-07,4.4570785e-07,1310988,-0.012932509,-0.0146918055,0.0011438974,0.4,0.0008538783,0.0009903411,0.00078123936,197388,0.01248353,-0.008984812,0.002124849,0.5,0.0005780647,0.0008684209,0.0011116207,1,0,1,0,1,0
21763428000,21763348000,1310988,0.00092309236,8.6435524e-05,-0.000261823,0.34906584,2.0646866e-07,1.6386845e-07,4.454226e-07,1310988,-0.012928238,-0.014758998,0.002597227,0.4,0.00085370656,0.0009901613,0.00078123936,197388,0.01248353,-0.008984812,0.002124849,0.5,0.0005780647,0.0008684209,0.0011116207,1,1,1,0,1,0
21763844000,21763764000,1310988,0.00092869333,9.640633e-05,-0.0002589566,0.34906584,2.0671199e-07,1.6329928e-07,4.4550745e-07,1310988,-0.012888977,-0.014811357,0.0037802816,0.4,0.0008535539,0.0009899734,0.00078123936,197388,0.01248353,-0.008984812,0.002124849,0.5,0.0005780647,0.0008684209,0.0011116207,1,1,1,0,1,0
21764412000,21764332000,1310988,0.00093393074,0.00010268003,-0.00025568763,0.34906584,2.0773312e-07,1.6354497e-07,4.4608856e-07,1310988,-0.012873425,-0.014858118,0.005398878,0.4,0.0008533985,0.000989765,0.00078123936,197388,0.01248353,-0.008984812,0.002124849,0.5,0.0005780647,0.0008684209,0.0011116207,1,1,1,0,1,0
21765036000,21764956000,1310988,0.0009414584,0.00010749307,-0.0002540355,0.34906584,2.0802204e-07,1.626623e-07,4.4610272e-07,1310988,-0.012857094,-0.01492474,0.006631567,0.4,0.00085319503,0.0009895167,0.00078123936,197388,0.01248353,-0.008984812,0.002124849,0.5,0.0005780647,0.0008684209,0.0011116207,1,1,1,0,1,0
21765612000,21765532000,1310988,0.00094332,0.00011734531,-0.00025924545,0.34906584,2.092579e-07,1.632397e-07,4.4670534e-07,1310988,-0.012811031,-0.014960386,0.007870892,0.4,0.000853075,0.0009893484,0.00078123936,197388,0.01248353,-0.008984812,0.002124849,0.5,0.0005780647,0.0008684209,0.0011116207,1,1,1,0,1,0
21766228000,21766148000,1310988,0.0009504943,0.00012229047,-0.00025722454,0.34906584,2.0946122e-07,1.6221584e-07,4.4678234e-07,1310988,-0.012794624,-0.015017001,0.009178664,0.4,0.00085289776,0.000989149,0.00078123936,197388,0.01248353,-0.008984812,0.002124849,0.5,0.0005780647,0.0008684209,0.0011116207,1,1,1,0,1,0
21766804000,21766724000,1310988,0.00095055735,0.00012614929,-0.0002618294,0.34906584,2.1063349e-07,1.6277541e-07,4.472468e-07,1310988,-0.012779992,-0.015032878,0.010519129,0.4,0.00085279805,0.0009890068,0.00078123936,197388,0.01248353,-0.008984812,0.002124849,0.5,0.0005780647,0.0008684209,0.0011116207,1,1,1,0,1,0
21767428000,21767348000,1310988,0.0009510428,0.00013477304,-0.00025874804,0.34906584,2.1074624e-07,1.6180935e-07,4.46961e-07,1310988,-0.012736533,-0.015033995,0.011746587,0.4,0.00085264846,0.0009888285,0.00078123936,197388,0.01248353,-0.008984812,0.002124849,0.5,0.0005780647,0.0008684209,0.0011116207,1,1,1,0,1,0
21768132000,21768052000,1310988,0.0009516277,0.00013611991,-0.00026257656,0.34906584,2.1272217e-07,1.6339389e-07,4.4759744e-07,1310988,-0.012732352,-0.015048831,0.012768743,0.4,0.00085257774,0.000988701,0.00078123936,197388,0.01248353,-0.008984812,0.002124849,0.5,0.0005780647,0.0008684209,0.0011116207,1,1,1,0,1,0
21768484000,21768404000,1310988,0.00095380004,0.00014299857,-0.00026181838,0.34906584,2.1228976e-07,1.6219101e-07,4.4714184e-07,1310988,-0.012696028,-0.015063768,0.01378755,0.4,0.00085249054,0.0009886071,0.00078123936,197388,0.01248353,-0.008984812,0.002124849,0.5,0.0005780647,0.0008684209,0.0011116207,1,1,1,0,1,0
21768836000,21768756000,1310988,0.00095604174,0.00013840673,-0.00026056898,0.34906584,2.1201808e-07,1.6123496e-07,4.467588e-07,1310988,-0.012715798,-0.015076384,0.015099448,0.4,0.0008524154,0.0009885234,0.00078123936,197388,0.01248353,-0.008984812,0.002124849,0.5,0.0005780647,0.0008684209,0.0011116207,1,1,1,0,1,0
21769612000,21769532000,1310988,0.00095127383,0.00013585834,-0.00026309208,0.34906584,2.130534e-07,1.6149907e-07,4.4668215e-07,1310988,-0.012728449,-0.015054232,0.016291594,0.4,0.00085232663,0.0009883927,0.00078123936,197388,0.01248353,-0.008984812,0.002124849,0.5,0.0005780647,0.0008684209,0.0011116207,1,1,1,0,1,0
21770284000,21770204000,1310988,0.0009525528,0.0001275779,-0.00026131648,0.34906584,2.1360108e-07,1.6120597e-07,4.4651765e-07,1310988,-0.012769345,-0.015058955,0.01731198,0.4,0.0008522469,0.0009882887,0.00078123936,197388,0.01248353,-0.008984812,0.002124849,0.5,0.0005780647,0.0008684209,0.0011116207,1,1,1,0,1,0
21771228000,21771148000,1310988,0.0009503275,0.000112260444,-0.00026270084,0.34906584,2.1417041e-07,1.6077169e-07,4.455451e-07,1310988,-0.012840429,-0.015049802,0.018530913,0.4,0.0008521496,0.0009881485,0.00078123936,197388,0.01248353,-0.008984812,0.002124849,0.5,0.0005780647,0.0008684209,0.0011116207,1,1,1,0,1,0
21772228000,21772148000,1310988,0.0009511686,9.235228e-05,-0.0002609275,0.34906584,2.1528707e-07,1.6104396e-07,4.4490108e-07,1310988,-0.01292912,-0.015051179,0.019311236,0.4,0.0008520776,0.0009880352,0.0007812405,197388,0.01248353,-0.008984812,0.002124849,0.5,0.0005780647,0.0008684209,0.0011116207,1,1,1,0,1,0
21773228000,21773148000,1310988,0.0009437655,7.848415e-05,-0.00026139885,0.34906584,2.1629904e-07,1.612882e-07,4.440444e-07,1310988,-0.0129865585,-0.015016624,0.019791504,0.4,0.00085202255,0.000987941,0.0007812411,197388,0.01248353,-0.008984812,0.002124849,0.5,0.0005780647,0.0008684209,0.0011116207,1,1,1,0,1,0
21774228000,21774148000,1310988,0.00093082286,6.9458845e-05,-0.00027017738,0.34906584,2.1729669e-07,1.6164984e-07,4.4305415e-07,1310988,-0.013023197,-0.014972242,0.01995035,0.4,0.0008519849,0.000987866,0.00078123994,197388,0.01248353,-0.008984812,0.002124849,0.5,0.0005780647,0.0008684209,0.0011116207,1,1,1,0,1,0
21775228000,21775148000,1310988,0.00092378835,4.3423435e-05,-0.00027767342,0.34906584,2.1676384e-07,1.6002582e-07,4.4126173e-07,1310988,-0.013117674,-0.01495613,0.019154543,0.4,0.0008519342,0.00098779,0.00078123936,197388,0.01248353,-0.008984812,0.002124849,0.5,0.0005780647,0.0008684209,0.0011116207,1,1,1,0,1,0
21776012000,21775932000,1310988,0.00091505266,2.9503042e-05,-0.00028103037,0.34906584,2.1734478e-07,1.603936e-07,4.3973643e-07,1310988,-0.013163774,-0.0149300005,0.017994495,0.4,0.0008519249,0.0009877493,0.00078123936,197388,0.01248353,-0.008984812,0.002124849,0.5,0.0005780647,0.0008684209,0.0011116207,1,1,1,0,1,0
21776636000,21776556000,1310988,0.0009109148,1.4058418e-05,-0.0002912247,0.34906584,2.172853e-07,1.5978699e-07,4.3897487e-07,1310988,-0.01321256,-0.014929646,0.01682842,0.4,0.0008519129,0.0009877235,0.00078123936,197388,0.01248353,-0.008984812,0.002124849,0.5,0.0005780647,0.0008684209,0.0011116207,1,1,1,0,1,0
21777420000,21777340000,1310988,0.0009055392,4.3986447e-06,-0.000296478,0.34906584,2.1792715e-07,1.6022467e-07,4.3779016e-07,1310988,-0.013240878,-0.014919932,0.01577616,0.4,0.00085191545,0.0009877016,0.00078123936,197388,0.01248353,-0.008984812,0.002124849,0.5,0.0005780647,0.0008684209,0.0011116207,1,1,1,0,1,0
21777836000,21777756000,1310988,0.00090375304,-5.435377e-06,-0.00030024652,0.34906584,2.1773464e-07,1.597944e-07,4.3684358e-07,1310988,-0.01326749,-0.01492232,0.014338625,0.4,0.000851914,0.000987689,0.00078123936,197388,0.01248353,-0.008984812,0.002124849,0.5,0.0005780647,0.0008684209,0.0011116207,1,1,1,0,1,0
21778836000,21778756000,1310988,0.00089465623,-2.6915748e-05,-0.00031699473,0.34906584,2.1820043e-07,1.6002174e-07,4.35043e-07,1310988,-0.013324514,-0.014915109,0.013398122,0.4,0.0008519293,0.0009876775,0.00078123936,197388,0.01248353,-0.008984812,0.002124849,0.5,0.0005780647,0.0008684209,0.0011116207,1,1,1,0,1,0
21779444000,21779364000,1310988,0.00088342745,-3.9107046e-05,-0.00032927946,0.34906584,2.1785486e-07,1.5945318e-07,4.3341075e-07,1310988,-0.013352587,-0.014901147,0.011767571,0.4,0.00085193943,0.0009876722,0.00078123936,197388,0.01248353,-0.008984812,0.002124849,0.5,0.0005780647,0.0008684209,0.0011116207,1,1,1,0,1,0
21780436000,21780356000,1310988,0.000877524,-5.746467e-05,-0.0003440261,0.34906584,2.1812195e-07,1.5963776e-07,4.3135668e-07,1310988,-0.013394198,-0.014904327,0.010394288,0.4,0.0008519682,0.000987678,0.00078123936,197388,0.01248353,-0.008984812,0.002124849,0.5,0.0005780647,0.0008684209,0.0011116207,1,1,1,0,1,0
21781004000,21780924000,1310988,0.00087057723,-6.475373e-05,-0.0003584295,0.34906584,2.1866728e-07,1.6030339e-07,4.3026944e-07,1310988,-0.013407199,-0.014904081,0.009291419,0.4,0.0008519909,0.0009876871,0.00078123936,197388,0.01248353,-0.008984812,0.002124849,0.5,0.0005780647,0.0008684209,0.0011116207,1,1,1,0,1,0
21781420000,21781340000,1310988,0.00086408417,-7.270678e-05,-0.00036853505,0.34906584,2.1824447e-07,1.5975266e-07,4.290966e-07,1310988,-0.013421646,-0.014901045,0.008215594,0.4,0.000852004,0.0009876927,0.00078123936,197388,0.01248353,-0.008984812,0.002124849,0.5,0.0005780647,0.0008684209,0.0011116207,1,1,1,0,1,0
21782420000,21782340000,1310988,0.00086125196,-8.289357e-05,-0.00038486003,0.34906584,2.1876899e-07,1.6027812e-07,4.2751947e-07,1310988,-0.013441185,-0.014910598,0.0075964555,0.4,0.0008520493,0.0009877204,0.00078124,197388,0.01248353,-0.008984812,0.002124849,0.5,0.0005780647,0.0008684209,0.0011116207,1,1,1,1,1,0
21783420000,21783340000,1310988,0.0008536742,-9.510126e-05,-0.00041256324,0.34906584,2.1908268e-07,1.6080064e-07,4.2524192e-07,1310988,-0.013459541,-0.014921472,0.00705989,0.4,0.0008521004,0.000987754,0.0007812411,197388,0.01248353,-0.008984812,0.002124849,0.5,0.0005780647,0.0008684209,0.0011116207,1,1,1,1,1,0
21784420000,21784340000,1310988,0.0008548181,-9.5815616e-05,-0.00043391186,0.34906584,2.1908671e-07,1.6103442e-07,4.2282943e-07,1310988,-0.013461736,-0.014941856,0.0073660198,0.4,0.00085215614,0.0009877941,0.00078123936,197388,0.01248353,-0.008984812,0.002124849,0.5,0.0005780647,0.0008684209,0.0011116207,1,1,1,1,1,0
21785420000,21785340000,1310988,0.0008499777,-9.2428585e-05,-0.00045303884,0.34906584,2.1920333e-07,1.6148684e-07,4.2037976e-07,1310988,-0.013457829,-0.014951782,0.008106934,0.4,0.00085221644,0.0009878409,0.00078124227,197388,0.01248353,-0.008984812,0.002124849,0.5,0.0005780647,0.0008684209,0.0011116207,1,1,1,1,1,0
21785636000,21785556000,1310988,0.00084855384,-8.9579866e-05,-0.00045891554,0.34906584,2.1759642e-07,1.5949118e-07,4.193729e-07,1310988,-0.013454185,-0.014954109,0.009488351,0.4,0.0008522269,0.0009878505,0.00078123936,197388,0.01248353,-0.008984812,0.002124849,0.5,0.0005780647,0.0008684209,0.0011116207,1,1,1,1,1,0
21786204000,21786124000,1310988,0.0008517743,-8.6184875e-05,-0.00046004163,0.34906584,2.1794942e-07,1.6017923e-07,4.1801863e-07,1310988,-0.013450726,-0.014958226,0.0108531015,0.4,0.00085226307,0.0009878796,0.00078123936,197388,0.01248353,-0.008984812,0.002124849,0.5,0.0005780647,0.0008684209,0.0011116207,1,1,1,1,1,0
21786620000,21786540000,1310988,0.0008513655,-8.726161e-05,-0.00046812324,0.34906584,2.1736723e-07,1.5964844e-07,4.166889e-07,1310988,-0.013450816,-0.014963347,0.011914192,0.4,0.0008522884,0.0009879008,0.00078123936,197388,0.01248353,-0.008984812,0.002124849,0.5,0.0005780647,0.0008684209,0.0011116207,1,1,1,1,1,0
21787036000,21786956000,1310988,0.0008515194,-8.149456e-05,-0.00047560368,0.34906584,2.1694821e-07,1.5933773e-07,4.1539855e-07,1310988,-0.013443297,-0.014969283,0.013254792,0.4,0.00085231406,0.0009879224,0.00078123936,197388,0.01248353,-0.008984812,0.002124849,0.5,0.0005780647,0.0008684209,0.0011116207,1,1,1,1,1,0
21787612000,21787532000,1310988,0.0008603594,-7.9459205e-05,-0.0004816005,0.34906584,2.1736116e-07,1.601305e-07,4.140644e-07,1310988,-0.0134404125,-0.014983695,0.014826376,0.4,0.00085235084,0.000987954,0.00078123936,197388,0.01248353,-0.008984812,0.002124849,0.5,0.0005780647,0.0008684209,0.0011116207,1,1,1,1,1,0
21787820000,21787740000,1310988,0.0008630463,-8.055209e-05,-0.00048461574,0.34906584,2.1703276e-07,1.5983484e-07,4.1337987e-07,1310988,-0.013440375,-0.014988798,0.015931902,0.4,0.0008523634,0.000987965,0.00078123936,197388,0.01248353,-0.008984812,0.002124849,0.5,0.0005780647,0.0008684209,0.0011116207,1,1,1,1,1,0
21788236000,21788156000,1310988,0.0008658416,-7.556949e-05,-0.0004917976,0.34906584,2.165274e-07,1.5944633e-07,4.1205223e-07,1310988,-0.013433004,-0.0149977235,0.01736657,0.4,0.00085238856,0.0009879875,0.00078123936,197388,0.01248353,-0.008984812,0.002124849,0.5,0.0005780647,0.0008684209,0.0011116207,1,1,1,1,1,0
21788804000,21788724000,1310988,0.0008709498,-7.221689e-05,-0.00049981615,0.34906584,2.1681164e-07,1.6012751e-07,4.1061642e-07,1310988,-0.013427596,-0.015009164,0.018564774,0.4,0.0008524242,0.0009880196,0.00078123936,197388,0.01248353,-0.008984812,0.002124849,0.5,0.0005780647,0.0008684209,0.0011116207,1,1,1,1,1,0
21789220000,21789140000,1310988,0.0008736768,-6.877069e-05,-0.00050517207,0.34906584,2.1617453e-07,1.5958895e-07,4.0924468e-07,1310988,-0.01342138,-0.015017544,0.019982938,0.4,0.00085244863,0.0009880426,0.00078123936,197388,0.01248353,-0.008984812,0.002124849,0.5,0.0005780647,0.0008684209,0.0011116207,1,1,1,1,1,0
21789636000,21789556000,1310988,0.0008781665,-6.80165e-05,-0.00050797785,0.34906584,2.1570648e-07,1.5927293e-07,4.0792514e-07,1310988,-0.013418381,-0.015026855,0.021514693,0.4,0.0008524732,0.0009880654,0.00078123936,197388,0.01248353,-0.008984812,0.002124849,0.5,0.0005780647,0.0008684209,0.0011116207,1,1,1,1,1,0
21790212000,21790132000,1310988,0.00088382466,-6.785984e-05,-0.0005120925,0.34906584,2.1607333e-07,1.6006183e-07,4.0654774e-07,1310988,-0.01341675,-0.015037251,0.022621311,0.4,0.0008525091,0.0009880989,0.00078123936,197388,0.01248353,-0.008984812,0.002124849,0.5,0.0005780647,0.0008684209,0.0011116207,1,1,1,1,1,0
21790620000,21790540000,1310988,0.00088986516,-6.503828e-05,-0.0005155538,0.34906584,2.1538926e-07,1.5949338e-07,4.0511236e-07,1310988,-0.013412067,-0.0150478585,0.02371098,0.4,0.0008525331,0.0009881216,0.00078123936,197388,0.01248353,-0.008984812,0.002124849,0.5,0.0005780647,0.0008684209,0.0011116207,1,1,1,1,1,0
21791044000,21790964000,1310988,0.00089544425,-6.493652e-05,-0.00051955046,0.34906584,2.1498583e-07,1.5924613e-07,4.0384194e-07,1310988,-0.013409935,-0.015057746,0.025058683,0.4,0.0008525583,0.000988146,0.00078123936,197388,0.01248353,-0.008984812,0.002124849,0.5,0.0005780647,0.0008684209,0.0011116207,1,1,1,1,1,0
21791612000,21791532000,1310988,0.00089421065,-6.216273e-05,-0.0005260425,0.34906584,2.151126e-07,1.597603e-07,4.0234934e-07,1310988,-0.013403076,-0.015060473,0.026689611,0.4,0.00085259305,0.0009881796,0.00078123936,197388,0.01248353,-0.008984812,0.002124849,0.5,0.0005780647,0.0008684209,0.0011116207,1,1,1,1,1,0
21792236000,21792156000,1310988,0.00088957907,-5.9673235e-05,-0.00053672295,0.34906584,2.1432672e-07,1.5921721e-07,4.003486e-07,1310988,-0.013396443,-0.015058467,0.028009715,0.4,0.00085262954,0.0009882157,0.00078123936,197388,0.01248353,-0.008984812,0.002124849,0.5,0.0005780647,0.0008684209,0.0011116207,1,1,1,1,1,0
21792812000,21792732000,1310988,0.0008818218,-5.9102298e-05,-0.0005428477,0.34906584,2.1468948e-07,1.6001084e-07,3.989545e-07,1310988,-0.013392789,-0.015051501,0.029312491,0.4,0.0008526656,0.000988251,0.00078123936,197388,0.01248353,-0.008984812,0.002124849,0.5,0.0005780647,0.0008684209,0.0011116207,1,1,1,1,1,0
21793228000,21793148000,1310988,0.00087738445,-6.0748876e-05,-0.0005483706,0.34906584,2.1420301e-07,1.5949418e-07,3.9822163e-07,1310988,-0.01339215,-0.015047855,0.030547846,0.4,0.00085269025,0.000988276,0.00078123936,197388,0.01248353,-0.008984812,0.002124849,0.5,0.0005780647,0.0008684209,0.0011116207,1,1,1,1,1,0
21793636000,21793556000,1310988,0.00087572593,-6.305089e-05,-0.00055563526,0.34906584,2.1369392e-07,1.591455e-07,3.968103e-07,1310988,-0.013392334,-0.015047296,0.032010835,0.4,0.0008527153,0.0009883011,0.00078123936,197388,0.01248353,-0.008984812,0.002124849,0.5,0.0005780647,0.0008684209,0.0011116207,1,1,1,1,1,0
21794212000,21794132000,1310988,0.00087369274,-6.291776e-05,-0.0005639948,0.34906584,2.139052e-07,1.597297e-07,3.9534777e-07,1310988,-0.013390344,-0.015046891,0.033402093,0.4,0.0008527522,0.0009883378,0.00078123936,197388,0.01248353,-0.008984812,0.002124849,0.5,0.0005780647,0.0008684209,0.0011116207,1,1,1,1,1,0
21794628000,21794548000,1310988,0.0008707075,-6.726325e-05,-0.00056683546,0.34906584,2.1338093e-07,1.593257e-07,3.9396556e-07,1310988,-0.013393981,-0.015044006,0.034502596,0.4,0.0008527782,0.0009883639,0.00078123936,197388,0.01248353,-0.008984812,0.002124849,0.5,0.0005780647,0.0008684209,0.0011116207,1,1,1,1,1,0
21795044000,21794964000,1310988,0.00086807355,-6.975386e-05,-0.00057377276,0.34906584,2.1299238e-07,1.5909299e-07,3.926206e-07,1310988,-0.013395725,-0.01504146,0.0357261,0.4,0.00085280434,0.00098839,0.00078123936,197388,0.01248353,-0.008984812,0.002124849,0.5,0.0005780647,0.0008684209,0.0011116207,1,1,1,1,1,0
21795620000,21795540000,1310988,0.0008579244,-7.45979e-05,-0.00058093714,0.34906584,2.1322045e-07,1.5969475e-07,3.9116904e-07,1310988,-0.0133999055,-0.015029877,0.037177127,0.4,0.0008528411,0.0009884273,0.00078123936,197388,0.01248353,-0.008984812,0.002124849,0.5,0.0005780647,0.0008684209,0.0011116207,1,1,1,1,1,0
21796332000,21796252000,1310988,0.0008421844,-8.763394e-05,-0.0005914108,0.34906584,2.1303899e-07,1.5986366e-07,3.891783e-07,1310988,-0.013413225,-0.015011091,0.03821591,0.4,0.0008528857,0.0009884725,0.00078123936,197388,0.01248353,-0.008984812,0.002124849,0.5,0.0005780647,0.0008684209,0.0011116207,1,1,1,1,1,0
21797332000,21797252000,1310988,0.00081730715,-9.660937e-05,-0.0006166333,0.34906584,2.1276402e-07,1.6010492e-07,3.8646976e-07,1310988,-0.013421602,-0.014981247,0.039185856,0.4,0.0008529486,0.0009885357,0.00078123936,197388,0.01248353,-0.008984812,0.002124849,0.5,0.0005780647,0.0008684209,0.0011116207,1,1,1,1,1,0
21798332000,21798252000,1310988,0.000789497,-9.925835e-05,-0.00063391414,0.34906584,2.126351e-07,1.6055888e-07,3.838663e-07,1310988,-0.013423676,-0.014952233,0.039996877,0.4,0.00085301296,0.0009886008,0.00078124343,197388,0.01248353,-0.008984812,0.002124849,0.5,0.0005780647,0.0008684209,0.0011116207,1,1,1,1,1,0
21799156000,21799076000,1310988,0.0007709783,-0.00010641972,-0.0006451816,0.34906584,2.1302172e-07,1.61624e-07,3.8159968e-07,1310988,-0.013430076,-0.014933516,0.041018132,0.4,0.0008530677,0.0009886564,0.00078123936,197388,0.01248353,-0.008984812,0.002124849,0.5,0.0005780647,0.0008684209,0.0011116207,1,1,1,1,1,0
21800156000,21800076000,1310988,0.00073470327,-0.0001275613,-0.0006682028,0.34906584,2.1137775e-07,1.6008467e-07,3.7861247e-07,1310988,-0.013448697,-0.014903908,0.041426037,0.4,0.0008531327,0.0009887232,0.00078124343,197388,0.01248353,-0.008984812,0.002124849,0.5,0.0005780647,0.0008684209,0.0011116207,1,1,1,1,1,0
21801156000,21801076000,1310988,0.00071554247,-0.00014203263,-0.0006828287,0.34906584,2.1124846e-07,1.604381e-07,3.7605608e-07,1310988,-0.013460927,-0.014888744,0.04218136,0.4,0.00085320056,0.0009887922,0.00078124285,197388,0.01248353,-0.008984812,0.002124849,0.5,0.0005780647,0.0008684209,0.0011116207,1,1,1,1,1,0
21802156000,21802076000,1310988,0.00069407176,-0.0001692946,-0.00070053793,0.34906584,2.1116297e-07,1.608026e-07,3.735242e-07,1310988,-0.013479784,-0.014876515,0.042031024,0.4,0.0008532686,0.0009888614,0.00078124285,197388,0.01248353,-0.008984812,0.002124849,0.5,0.0005780647,0.0008684209,0.0011116207,1,1,1,1,1,0
21803156000,21803076000,1310988,0.0006783119,-0.00019994967,-0.00071673316,0.34906584,2.1121191e-07,1.615072e-07,3.7050242e-07,1310988,-0.013501442,-0.014865789,0.04251431,0.4,0.00085333694,0.0009889312,0.00078124326,197388,0.01248353,-0.008984812,0.002124849,0.5,0.0005780647,0.0008684209,0.0011116207,1,1,1,1,1,0
21804156000,21804076000,1310988,0.00065930345,-0.00024275904,-0.000736836,0.34906584,2.0968372e-07,1.5999886e-07,3.6769165e-07,1310988,-0.013525422,-0.014856879,0.042212352,0.4,0.0008534046,0.0009890009,0.0007812426,197388,0.01248353,-0.008984812,0.002124849,0.5,0.0005780647,0.0008684209,0.0011116207,1,1,1,1,1,0
21805156000,21805076000,1310988,0.0006461484,-0.00027287874,-0.0007566862,0.34906584,2.095244e-07,1.6025608e-07,3.653671e-07,1310988,-0.013537274,-0.014851755,0.0413477,0.4,0.0008534737,0.0009890716,0.0007812421,197388,0.01248353,-0.008984812,0.002124849,0.5,0.0005780647,0.0008684209,0.0011116207,1,1,1,1,1,0
21806156000,21806076000,1310988,0.0006304466,-0.0002985144,-0.0007743571,0.34906584,2.094603e-07,1.606982e-07,3.6322206e-07,1310988,-0.013549702,-0.014843998,0.0414754,0.4,0.00085354334,0.0009891429,0.0007812411,197388,0.01248353,-0.008984812,0.002124849,0.5,0.0005780647,0.0008684209,0.0011116207,1,1,1,1,1,0
21806876000,21806796000,1310988,0.000629634,-0.00032017598,-0.00079495047,0.34906584,2.0955757e-07,1.6115676e-07,3.608893e-07,1310988,-0.013548085,-0.014839427,0.040743526,0.4,0.00085357844,0.0009891792,0.0007812446,197388,0.012130899,-0.009461421,-0.00035981822,0.5,0.00048579669,0.00067820476,0.0008535671,1,1,1,0,1,0
21806948000,21806868000,1310988,0.000629194,-0.00032095777,-0.00079319626,0.34906584,2.0997409e-07,1.6170989e-07,3.6109594e-07,1310988,-0.013548094,-0.014839433,0.04074351,0.4,0.0008535836,0.0009891844,0.0007812497,197388,0.010988225,-0.010099305,0.0008138425,0.5,0.00043394146,0.0005848876,0.00076338847,1,1,1,0,1,0
21807012000,21806932000,1310988,0.0006325752,-0.00035360485,-0.00079916976,0.34906584,2.1022127e-07,1.6074651e-07,3.567651e-07,1310988,-0.013548094,-0.014839433,0.04074351,0.4,0.00085358415,0.0009891851,0.0007812503,197388,0.010757495,-0.011237282,0.00089299504,0.5,0.00039478403,0.0005318911,0.00071255903,1,1,1,0,1,0
21807156000,21807076000,1310988,0.00063376356,-0.00035299952,-0.00080141996,0.34906584,2.1121869e-07,1.6187244e-07,3.57556e-07,1310988,-0.013548094,-0.014839433,0.04074351,0.4,0.00085358415,0.0009891851,0.0007812503,197388,0.011897041,-0.010806974,0.00075598614,0.5,0.00033299354,0.0004654807,0.0006261298,1,1,1,0,1,0
21807300000,21807220000,1310988,0.00063478784,-0.00037395314,-0.00081134756,0.34906584,2.1217635e-07,1.6159349e-07,3.511213e-07,1310988,-0.013548094,-0.014839433,0.04074351,0.4,0.00085358653,0.0009891874,0.00078125263,197388,0.01229666,-0.009531208,0.0012111589,0.5,0.0002946605,0.00042423484,0.0005742835,1,1,1,0,1,0
21807628000,21807548000,1310988,0.0006301862,-0.00040463012,-0.0007897969,0.34906584,2.1433137e-07,1.6124089e-07,3.3563512e-07,1310988,-0.013082857,-0.014629816,0.040644735,0.4,0.0008525823,0.0009879372,0.00078123936,197388,0.013355945,-0.009387774,0.0008580154,0.5,0.00025407635,0.00038653816,0.0005402959,1,1,1,0,1,0
21808220000,21808140000,1310988,0.0006277229,-0.00040491633,-0.000753911,0.34906584,2.1857385e-07,1.6294725e-07,3.2483942e-07,1310988,-0.0131492345,-0.0138591975,0.040383223,0.4,0.0008475091,0.0009820607,0.0007812499,197388,0.014252725,-0.009622124,0.0015940894,0.5,0.00021019537,0.00034832556,0.00050723593,1,1,1,0,1,0
21808788000,21808708000,1310988,0.00062906824,-0.00041070423,-0.00073472253,0.34906584,2.2290617e-07,1.6411236e-07,3.1990638e-07,1310988,-0.012786857,-0.012990754,0.040482443,0.4,0.00083384244,0.00096628576,0.0007812405,197388,0.01500834,-0.009948568,0.00091682136,0.5,0.00019379091,0.00033216976,0.00049134373,1,1,1,0,1,0
21809140000,21809060000,1310988,0.00063110667,-0.00041436916,-0.00071931555,0.34906584,2.2555066e-07,1.6398972e-07,3.1598194e-07,1310988,-0.012492811,-0.012062207,0.040429454,0.4,0.0008171911,0.00094751536,0.0007812405,197388,0.015144146,-0.010263195,-5.823186e-05,0.5,0.00018740103,0.00032549098,0.00047356635,1,1,1,0,1,0
21809604000,21809524000,1310988,0.0006344624,-0.00040800392,-0.0007051212,0.34906584,2.2893072e-07,1.6490324e-07,3.152929e-07,1310988,-0.013020961,-0.010942786,0.041274734,0.4,0.000797696,0.0009248511,0.00078123936,197388,0.015015164,-0.0104986,-0.00053650944,0.5,0.00018165888,0.00031869955,0.00045475527,1,1,1,0,1,0
21810020000,21809940000,1310988,0.00063751114,-0.00039504672,-0.00070119987,0.34906584,2.3144828e-07,1.657083e-07,3.1678863e-07,1310988,-0.014126806,-0.010351139,0.042103738,0.4,0.00078123936,0.0009005818,0.00078123936,197388,0.014917158,-0.010544988,-0.0007956395,0.5,0.00017783976,0.00031341347,0.00044590363,1,1,1,0,1,0
21810228000,21810148000,1310988,0.00063679746,-0.000386136,-0.000702088,0.34906584,2.3237575e-07,1.6623207e-07,3.1812715e-07,1310988,-0.0148309665,-0.010474246,0.042886823,0.4,0.00078123936,0.00088888634,0.00078123936,197388,0.014914727,-0.010571005,-0.0008538211,0.5,0.00017636339,0.00031175217,0.0004440183,1,1,1,0,1,0
21810644000,21810564000,1310988,0.00063681323,-0.00036953494,-0.00070206576,0.34906584,2.3324633e-07,1.6747516e-07,3.2098023e-07,1310988,-0.016081588,-0.010406922,0.04434201,0.4,0.00078123936,0.0008662217,0.00078123936,197388,0.014889176,-0.01067689,-0.0009942416,0.5,0.00017350247,0.00030827348,0.0004418701,1,1,1,0,1,0
21811012000,21810932000,1310988,0.0006289051,-0.00036031607,-0.00069766334,0.34906584,2.335058e-07,1.6923451e-07,3.2291558e-07,1310988,-0.016763601,-0.010957053,0.04534011,0.4,0.00078123936,0.00085349136,0.00078123936,197388,0.014782147,-0.010647257,-0.0009204708,0.5,0.0001710011,0.00030553184,0.0004379938,1,1,1,0,1,0
21811220000,21811140000,1310988,0.00062148325,-0.0003538291,-0.00069323555,0.34906584,2.3229764e-07,1.6980843e-07,3.232937e-07,1310988,-0.017088288,-0.0114630405,0.046826158,0.4,0.00078123936,0.00084206014,0.00078123936,197388,0.014730552,-0.010759413,-0.00083453493,0.5,0.00016945032,0.00030401145,0.00043599276,1,1,1,0,1,0
21811420000,21811340000,1310988,0.0006146188,-0.00034721108,-0.00068895216,0.34906584,2.3084424e-07,1.7038157e-07,3.232607e-07,1310988,-0.017324867,-0.011840476,0.04835119,0.4,0.00078123936,0.0008319671,0.00078123936,197388,0.014823169,-0.010850116,-0.0007054107,0.5,0.00016774368,0.00030242492,0.00043347268,1,1,1,0,1,0
21811636000,21811556000,1310988,0.0006046945,-0.000342506,-0.00068153144,0.34906584,2.2930412e-07,1.7110959e-07,3.2298482e-07,1310988,-0.01744884,-0.012302337,0.049859453,0.4,0.00078123936,0.00082300353,0.00078123936,197388,0.014793254,-0.010881056,-0.0006509862,0.5,0.0001661138,0.000301,0.00043081117,1,1,1,0,1,0
21811844000,21811764000,1310988,0.00059542013,-0.00033840223,-0.00067404256,0.34906584,2.2758337e-07,1.7179983e-07,3.2235292e-07,1310988,-0.0176169,-0.01275258,0.051101215,0.4,0.00078123936,0.00081517297,0.00078123936,197388,0.01458942,-0.010973324,-0.0006782231,0.5,0.00016445098,0.00029955935,0.0004273851,1,1,1,0,1,0
21812204000,21812124000,1310988,0.00058854977,-0.0003306814,-0.0006689644,0.34906584,2.261152e-07,1.7350912e-07,3.2193768e-07,1310988,-0.017823461,-0.013035157,0.053013597,0.4,0.00078123936,0.0008076464,0.00078123936,197388,0.014502699,-0.0111594945,-0.00044747206,0.5,0.00016138077,0.00029689085,0.0004191502,1,1,1,0,1,0
21812412000,21812332000,1310988,0.0005769217,-0.000325086,-0.0006592063,0.34906584,2.2369251e-07,1.7407388e-07,3.2037872e-07,1310988,-0.017980853,-0.013508311,0.054424975,0.4,0.00078123936,0.00080148014,0.00078123936,197388,0.014450104,-0.011372953,-0.00040597757,0.5,0.00015935206,0.00029497498,0.00041331715,1,1,1,0,1,0
21812620000,21812540000,1310988,0.0005628167,-0.00032372054,-0.0006468104,0.34906584,2.2138916e-07,1.7468032e-07,3.185561e-07,1310988,-0.017818308,-0.013964817,0.056345094,0.4,0.00078123936,0.0007964352,0.00078123936,197388,0.014384747,-0.011349292,-0.0004924083,0.5,0.00015814432,0.00029391432,0.0004092565,1,1,1,0,1,0
21812828000,21812748000,1310988,0.0005542132,-0.00032357316,-0.00064024277,0.34906584,2.1920563e-07,1.7533252e-07,3.1630688e-07,1310988,-0.017639667,-0.014246415,0.057804517,0.4,0.00078123936,0.0007923305,0.00078123936,197388,0.014384747,-0.011349292,-0.0004924083,0.5,0.00015814432,0.00029391432,0.0004092565,1,1,1,0,1,0
21813036000,21812956000,1310988,0.0005445306,-0.000322858,-0.0006324785,0.34906584,2.1721934e-07,1.7598701e-07,3.142462e-07,1310988,-0.017464804,-0.014521319,0.05963571,0.4,0.00078123936,0.0007890011,0.00078123936,197388,0.014384747,-0.011349292,-0.0004924083,0.5,0.00015814432,0.00029391432,0.0004092565,1,1,1,0,1,0
21813244000,21813164000,1310988,0.0005378994,-0.00032442558,-0.0006266718,0.34906584,2.1542265e-07,1.7663467e-07,3.12411e-07,1310988,-0.017236602,-0.014681536,0.06107588,0.4,0.00078123936,0.0007863113,0.00078123936,197388,0.014384747,-0.011349292,-0.0004924083,0.5,0.00015814432,0.00029391432,0.0004092565,1,1,1,0,1,0
21813612000,21813532000,1310988,0.00052677066,-0.00032447008,-0.0006173487,0.34906584,2.1439375e-07,1.7832906e-07,3.11189e-07,1310988,-0.01707566,-0.01492109,0.06294501,0.4,0.00078123936,0.0007840133,0.00078123936,197388,0.014384747,-0.011349292,-0.0004924083,0.5,0.00015814432,0.00029391432,0.0004092565,1,1,1,0,1,0
21813820000,21813740000,1310988,0.0005243437,-0.00032396516,-0.0006158181,0.34906584,2.1253082e-07,1.7876378e-07,3.09646e-07,1310988,-0.01700022,-0.014957687,0.064313404,0.4,0.00078123936,0.000782243,0.00078123936,197388,0.014384747,-0.011349292,-0.0004924083,0.5,0.00015814432,0.00029391432,0.0004092565,1,1,1,0,1,0
21814028000,21813948000,1310988,0.0005182632,-0.00032417837,-0.0006126881,0.34906584,2.1092383e-07,1.7920566e-07,3.0842583e-07,1310988,-0.016922703,-0.015082951,0.06546308,0.4,0.00078123936,0.00078123936,0.00078123936,197388,0.014384747,-0.011349292,-0.0004924083,0.5,0.00015814432,0.00029391432,0.0004092565,1,1,1,0,1,0
21814236000,21814156000,1310988,0.0005213368,-0.0003263186,-0.0006180638,0.34906584,2.0951634e-07,1.7964278e-07,3.0748066e-07,1310988,-0.016781406,-0.015036957,0.06695191,0.4,0.00078123936,0.00078123936,0.00078123936,197388,0.014384747,-0.011349292,-0.0004924083,0.5,0.00015814432,0.00029391432,0.0004092565,1,1,1,0,1,0
21814436000,21814356000,1310988,0.00052089355,-0.00033052673,-0.0006181123,0.34906584,2.0825658e-07,1.800137e-07,3.069693e-07,1310988,-0.016605806,-0.015037119,0.06808892,0.4,0.00078123936,0.00078123936,0.00078123936,197388,0.014384747,-0.011349292,-0.0004924083,0.5,0.00015814432,0.00029391432,0.0004092565,1,1,1,0,1,0
21814804000,21814724000,1310988,0.000525002,-0.000334215,-0.00062392105,0.34906584,2.0783729e-07,1.814441e-07,3.068222e-07,1310988,-0.016483067,-0.01499794,0.06909942,0.4,0.00078123936,0.00078123936,0.00078123936,197388,0.014384747,-0.011349292,-0.0004924083,0.5,0.00015814432,0.00029391432,0.0004092565,1,1,1,0,1,0
21815012000,21814932000,1310988,0.00052747515,-0.00033696863,-0.0006257492,0.34906584,2.0647646e-07,1.816135e-07,3.066457e-07,1310988,-0.016392328,-0.014964415,0.070400394,0.4,0.00078123936,0.00078123936,0.00078123936,197388,0.014384747,-0.011349292,-0.0004924083,0.5,0.00015814432,0.00029391432,0.0004092565,1,1,1,0,1,0
21815220000,21815140000,1310988,0.0005316902,-0.0003430002,-0.00062960223,0.34906584,2.0524551e-07,1.817879e-07,3.0640882e-07,1310988,-0.016248403,-0.014927384,0.071561605,0.4,0.00078123936,0.00078123936,0.00078123936,197388,0.014384747,-0.011349292,-0.0004924083,0.5,0.00015814432,0.00029391432,0.0004092565,1,1,1,0,1,0
21815428000,21815348000,1310988,0.0005295739,-0.0003443364,-0.00062895304,0.34906584,2.0413385e-07,1.8195617e-07,3.0632904e-07,1310988,-0.01621204,-0.014939948,0.07274769,0.4,0.00078123936,0.00078123936,0.00078123936,197388,0.014384747,-0.011349292,-0.0004924083,0.5,0.00015814432,0.00029391432,0.0004092565,1,1,1,0,1,0
21815636000,21815556000,1310988,0.00052992004,-0.0003471114,-0.000631379,0.34906584,2.0311151e-07,1.8211038e-07,3.063783e-07,1310988,-0.016159533,-0.0149353575,0.0743143,0.4,0.00078123936,0.00078123936,0.00078123936,197388,0.014384747,-0.011349292,-0.0004924083,0.5,0.00015814432,0.00029391432,0.0004092565,1,1,1,0,1,0
21816212000,21816132000,1310988,0.00053742935,-0.0003542211,-0.0006403407,0.34906584,2.0202815e-07,1.8331853e-07,3.0749675e-07,1310988,-0.016092774,-0.014919729,0.07653167,0.4,0.00078123936,0.00078123936,0.00078123936,197388,0.014384747,-0.011349292,-0.0004924083,0.5,0.00015814432,0.00029391432,0.0004092565,1,1,1,0,1,0
21816412000,21816332000,1310988,0.0005372744,-0.00035816766,-0.0006409472,0.34906584,2.0075078e-07,1.8309385e-07,3.0770883e-07,1310988,-0.016068844,-0.014916169,0.077723436,0.4,0.00078123936,0.00078123936,0.00078123936,197388,0.014384747,-0.011349292,-0.0004924083,0.5,0.00015814432,0.00029391432,0.0004092565,1,1,1,0,1,0
21816836000,21816756000,1310988,0.00054389733,-0.0003612967,-0.00064947497,0.34906584,1.9861763e-07,1.8283512e-07,3.0854412e-07,1310988,-0.016073763,-0.014928528,0.0791213,0.4,0.00078123936,0.00078123936,0.00078123936,197388,0.014384747,-0.011349292,-0.0004924083,0.5,0.00015814432,0.00029391432,0.0004092565,1,1,1,0,1,0
21817044000,21816964000,1310988,0.0005465614,-0.00036135226,-0.00065056526,0.34906584,1.9761255e-07,1.8266948e-07,3.090178e-07,1310988,-0.01609648,-0.014935417,0.0802214,0.4,0.00078123936,0.00078123936,0.00078123936,197388,0.014384747,-0.011349292,-0.0004924083,0.5,0.00015814432,0.00029391432,0.0004092565,1,1,1,0,1,0
21818028000,21817948000,1310988,0.000558471,-0.00034874023,-0.00066174875,0.34906584,1.9385361e-07,1.8209015e-07,3.1214833e-07,1310988,-0.016105032,-0.015008193,0.08133392,0.4,0.00078123936,0.00078123936,0.00078123936,197388,0.014384747,-0.011349292,-0.0004924083,0.5,0.00015814432,0.00029391432,0.0004092565,1,1,1,0,1,0
21818444000,21818364000,1310988,0.00056225504,-0.0003397173,-0.00066615245,0.34906584,1.9180837e-07,1.813107e-07,3.1341145e-07,1310988,-0.016112449,-0.015041385,0.08280891,0.4,0.00078123936,0.00078123936,0.00078123936,197388,0.014384747,-0.011349292,-0.0004924083,0.5,0.00015814432,0.00029391432,0.0004092565,1,1,1,0,1,0
21819228000,21819148000,1310988,0.0005573179,-0.0003260871,-0.0006691902,0.34906584,1.8919295e-07,1.8051804e-07,3.1610924e-07,1310988,-0.016063977,-0.014981029,0.08427526,0.4,0.00078123936,0.00078123936,0.00078123936,197388,0.014384747,-0.011349292,-0.0004924083,0.5,0.00015814432,0.00029391432,0.0004092565,1,1,1,0,1,0
21819684000,21819604000,1310988,0.0005481781,-0.0003116029,-0.00066914025,0.34906584,1.8742844e-07,1.7972974e-07,3.1752876e-07,1310988,-0.015967848,-0.014868111,0.08528287,0.4,0.00078124256,0.00078124274,0.00078123936,197388,0.014384747,-0.011349292,-0.0004924083,0.5,0.00015814432,0.00029391432,0.0004092565,1,1,1,0,1,0
21820212000,21820132000,1310988,0.00054172124,-0.0003021125,-0.000670142,0.34906584,1.8568328e-07,1.7893332e-07,3.1952146e-07,1310988,-0.015923709,-0.014777976,0.08671124,0.4,0.00078123936,0.00078123936,0.00078123936,197388,0.014384747,-0.011349292,-0.0004924083,0.5,0.00015814432,0.00029391432,0.0004092565,1,1,1,0,1,0
21820836000,21820756000,1310988,0.0005297873,-0.00028964673,-0.0006712893,0.34906584,1.8258643e-07,1.7695771e-07,3.21633e-07,1310988,-0.015832627,-0.014610595,0.08787935,0.4,0.00078123936,0.00078123936,0.00078123936,197388,0.014384747,-0.011349292,-0.0004924083,0.5,0.00015814432,0.00029391432,0.0004092565,1,1,1,0,1,0
21821612000,21821532000,1310988,0.0005188739,-0.0002737483,-0.00067291886,0.34906584,1.8056468e-07,1.7588204e-07,3.2435426e-07,1310988,-0.015688764,-0.014453956,0.0892439,0.4,0.00078123936,0.00078123936,0.00078123936,197388,0.014384747,-0.011349292,-0.0004924083,0.5,0.00015814432,0.00029391432,0.0004092565,1,1,1,0,1,0
21822236000,21822156000,1310988,0.0005064182,-0.00025911836,-0.0006777868,0.34906584,1.7783483e-07,1.738873e-07,3.2642743e-07,1310988,-0.015541151,-0.014271679,0.0903653,0.4,0.00078123936,0.00078123936,0.00078123936,197388,0.014384747,-0.011349292,-0.0004924083,0.5,0.00015814432,0.00029391432,0.0004092565,1,1,1,0,1,0
21823236000,21823156000,1310988,0.000488416,-0.00024078971,-0.00068391376,0.34906584,1.7529013e-07,1.7214023e-07,3.2979494e-07,1310988,-0.015325022,-0.014016854,0.09123905,0.4,0.00078124,0.00078124,0.00078124,197388,0.014384747,-0.011349292,-0.0004924083,0.5,0.00015814432,0.00029391432,0.0004092565,1,1,1,0,1,0
21824236000,21824156000,1310988,0.00047298707,-0.00022839167,-0.0006914284,0.34906584,1.7337788e-07,1.7080278e-07,3.3298903e-07,1310988,-0.015161694,-0.013804734,0.09136747,0.4,0.0007812405,0.0007812405,0.0007812405,197388,0.014384747,-0.011349292,-0.0004924083,0.5,0.00015814432,0.00029391432,0.0004092565,1,1,1,0,1,0
21825236000,21825156000,1310988,0.00046983126,-0.00021966522,-0.00069844915,0.34906584,1.7178385e-07,1.6963446e-07,3.3563873e-07,1310988,-0.01503642,-0.013758314,0.09122139,0.4,0.0007812417,0.00078124163,0.0007812417,197388,0.014384747,-0.011349292,-0.0004924083,0.5,0.00015814432,0.00029391432,0.0004092565,1,1,1,0,1,0
21826236000,21826156000,1310988,0.00047446246,-0.0002071658,-0.0007102981,0.34906584,1.7061147e-07,1.6876926e-07,3.3844668e-07,1310988,-0.01485763,-0.013798008,0.090463065,0.4,0.0007812524,0.00078125333,0.0007812417,197388,0.014384747,-0.011349292,-0.0004924083,0.5,0.00015814432,0.00029391432,0.0004092565,1,1,1,0,1,0
21826820000,21826740000,1310988,0.000484209,-0.00019628914,-0.0007169808,0.34906584,1.6840977e-07,1.6674825e-07,3.400617e-07,1310988,-0.014701023,-0.013895675,0.08920373,0.4,0.00078123936,0.00078123936,0.00078123936,197388,0.014384747,-0.011349292,-0.0004924083,0.5,0.00015814432,0.00029391432,0.0004092565,1,1,1,0,1,0
21827236000,21827156000,1310988,0.000490277,-0.00018721844,-0.0007204643,0.34906584,1.6736514e-07,1.6580493e-07,3.4105585e-07,1310988,-0.0145756425,-0.013953976,0.08809255,0.4,0.00078123936,0.00078123936,0.00078123936,197388,0.014384747,-0.011349292,-0.0004924083,0.5,0.00015814432,0.00029391432,0.0004092565,1,1,1,0,1,0
21828236000,21828156000,1310988,0.0005025052,-0.00016593361,-0.0007278378,0.34906584,1.6646972e-07,1.6509502e-07,3.434726e-07,1310988,-0.014332778,-0.01406832,0.087627105,0.4,0.0007812405,0.0007812405,0.0007812405,197388,0.014384747,-0.011349292,-0.0004924083,0.5,0.00015814432,0.00029391432,0.0004092565,1,1,1,0,1,0
21828844000,21828764000,1310988,0.00050722086,-0.00014933878,-0.00073387474,0.34906584,1.6521973e-07,1.6395985e-07,3.44645e-07,1310988,-0.014147707,-0.014106213,0.086328894,0.4,0.00078123936,0.00078123936,0.00078123936,197388,0.014384747,-0.011349292,-0.0004924083,0.5,0.00015814432,0.00029391432,0.0004092565,1,1,1,0,1,0
21829836000,21829756000,1310988,0.0005195305,-0.0001306581,-0.00074091967,0.34906584,1.6453909e-07,1.6342935e-07,3.4711195e-07,1310988,-0.0139582595,-0.014206864,0.085137144,0.4,0.00078123936,0.00078123936,0.00078123936,197388,0.014384747,-0.011349292,-0.0004924083,0.5,0.00015814432,0.00029391432,0.0004092565,1,1,1,0,1,0
21830612000,21830532000,1310988,0.00052540586,-0.00011717499,-0.0007495233,0.34906584,1.6434512e-07,1.6333861e-07,3.485696e-07,1310988,-0.013828566,-0.01424792,0.0835426,0.4,0.00078123936,0.00078123936,0.00078123936,197388,0.014384747,-0.011349292,-0.0004924083,0.5,0.00015814432,0.00029391432,0.0004092565,1,1,1,0,1,0
21831612000,21831532000,1310988,0.00053174817,-0.000103934544,-0.00075227115,0.34906584,1.6440269e-07,1.6351275e-07,3.5036723e-07,1310988,-0.013713982,-0.01429512,0.08359865,0.4,0.0007812511,0.0007812509,0.00078123936,197388,0.014384747,-0.011349292,-0.0004924083,0.5,0.00015814432,0.00029391432,0.0004092565,1,1,1,0,1,0
