timestamp,timestamp_sample,baro_device_id,baro_alt_meter,baro_temp_celcius,baro_pressure_pa,rho,calibration_count
21726308000,21726296000,6620172,228.53421,13.515131,98609.97,1.1716496,0
21726376000,21726354666,6620172,228.48929,13.515132,98610.49,1.1716558,0
21726428000,21726416000,6620172,228.56856,13.515131,98609.555,1.1716447,0
21726496000,21726474666,6620172,228.49194,13.515132,98610.47,1.1716554,0
21726548000,21726536000,6620172,228.44966,13.515131,98610.95,1.1716613,0
21726620000,21726596000,6620172,228.39682,13.515132,98611.586,1.1716688,0
21726668000,21726656000,6620172,228.48665,13.515131,98610.516,1.171656,0
21726740000,21726716000,6620172,228.49988,13.515132,98610.36,1.1716542,0
21726788000,21726776000,6620172,228.54478,13.515131,98609.86,1.1716483,0
21726860000,21726836000,6620172,228.53157,13.515132,98609.99,1.1716498,0
21726908000,21726896000,6620172,228.41531,13.515131,98611.36,1.1716661,0
21726980000,21726956000,6620172,228.49722,13.515132,98610.42,1.1716549,0
21727028000,21727016000,6620172,228.558,13.515131,98609.695,1.1716464,0
21727100000,21727076000,6620172,228.52101,13.515132,98610.125,1.1716514,0
21727148000,21727134000,6620172,228.53157,13.515131,98610.0,1.1716499,0
21727196000,21727184000,6620172,228.50516,13.515131,98610.31,1.1716536,0
21727268000,21727244000,6620172,228.60027,13.515132,98609.18,1.1716402,0
21727316000,21727302000,6620172,228.50516,13.515131,98610.31,1.1716536,0
21727388000,21727362666,6620172,228.35454,13.515132,98612.08,1.1716746,0
21727436000,21727424000,6620172,228.3466,13.515131,98612.18,1.1716758,0
21727508000,21727484000,6620172,228.53687,13.515132,98609.94,1.1716492,0
21727556000,21727542000,6620172,228.54478,13.515131,98609.84,1.171648,0
21727604000,21727592000,6620172,228.51836,13.515131,98610.164,1.1716518,0
21727676000,21727652000,6620172,228.54478,13.515132,98609.86,1.1716483,0
21727724000,21727712000,6620172,228.53687,13.515131,98609.92,1.171649,0
21727796000,21727770666,6620172,228.46286,13.515132,98610.8,1.1716595,0
21727844000,21727832000,6620172,228.47345,13.515131,98610.69,1.171658,0
21727916000,21727890666,6620172,228.49458,13.515132,98610.44,1.1716552,0
21727964000,21727952000,6620172,228.33604,13.515131,98612.29,1.1716771,0
21728036000,21728010666,6620172,228.50252,13.515132,98610.336,1.1716539,0
21728080000,21728068000,6620172,228.51836,13.515131,98610.17,1.171652,0
21728132000,21728120000,6620172,228.5078,13.515131,98610.29,1.1716534,0
21728200000,21728178666,6620172,228.5078,13.515132,98610.27,1.1716532,0
21728252000,21728240000,6620172,228.47081,13.515131,98610.7,1.1716583,0
21728324000,21728300000,6620172,228.41003,13.515132,98611.43,1.171667,0
21728368000,21728356000,6620172,228.53687,13.515131,98609.92,1.171649,0
21728420000,21728408000,6620172,228.44702,13.515131,98610.984,1.1716616,0
21728488000,21728465333,6620172,228.46553,13.515132,98610.77,1.1716591,0
21728516000,21728516000,6620172,228.48929,13.515131,98610.5,1.1716559,0
21728612000,21728574000,6620172,228.49988,13.515131,98610.375,1.1716543,0
21728636000,21728636000,6620172,228.48665,13.515131,98610.52,1.1716561,0
21728728000,21728692000,6620172,228.46022,13.515131,98610.836,1.1716598,0
21728752000,21728752000,6620172,228.4206,13.515131,98611.31,1.1716654,0
21728848000,21728812000,6620172,228.48401,13.515131,98610.56,1.1716566,0
21728872000,21728872000,6620172,228.65048,13.515131,98608.61,1.1716334,0
21728968000,21728932000,6620172,228.48137,13.515131,98610.59,1.171657,0
21728992000,21728992000,6620172,228.3017,13.515131,98612.71,1.1716821,0
21729088000,21729053000,6620172,228.46553,13.515131,98610.76,1.1716589,0
21729116000,21729116000,6620172,228.56328,13.515131,98609.625,1.1716455,0
21729212000,21729175000,6620172,228.48929,13.515131,98610.5,1.1716559,0
21729236000,21729236000,6620172,228.56592,13.515131,98609.61,1.1716453,0
21729328000,21729293000,6620172,228.4021,13.515131,98611.53,1.171668,0
21729356000,21729356000,6620172,228.36247,13.515131,98611.984,1.1716735,0
21729452000,21729415000,6620172,228.53421,13.515131,98609.984,1.1716497,0
21729476000,21729476000,6620172,228.48401,13.515131,98610.56,1.1716566,0
21729572000,21729536000,6620172,228.38625,13.515131,98611.69,1.17167,0
21729596000,21729596000,6620172,228.42587,13.515131,98611.26,1.1716648,0
21729688000,21729654000,6620172,228.47609,13.515131,98610.65,1.1716577,0
21729716000,21729716000,6620172,228.48665,13.515131,98610.53,1.1716563,0
21729812000,21729775000,6620172,228.43646,13.515131,98611.11,1.171663,0
21729836000,21729836000,6620172,228.56064,13.515131,98609.664,1.1716459,0
21729932000,21729895000,6620172,228.43118,13.515131,98611.18,1.1716639,0
21729956000,21729956000,6620172,228.56856,13.515131,98609.555,1.1716447,0
21730048000,21730014000,6620172,228.44966,13.515131,98610.97,1.1716614,0
21730076000,21730076000,6620172,228.37303,13.515131,98611.875,1.1716722,0
21730168000,21730135000,6620172,228.49722,13.515131,98610.39,1.1716546,0
21730196000,21730196000,6620172,228.49988,13.515131,98610.38,1.1716545,0
21730292000,21730256000,6620172,228.49722,13.515131,98610.414,1.1716548,0
21730312000,21730312000,6620172,228.3836,13.515131,98611.73,1.1716704,0
21730388000,21730362666,6620172,228.52629,13.515132,98610.06,1.1716506,0
21730436000,21730424000,6620172,228.4074,13.515131,98611.47,1.1716673,0
21730504000,21730481333,6620172,228.51308,13.515132,98610.234,1.1716527,0
21730556000,21730542000,6620172,228.5078,13.515131,98610.29,1.1716534,0
21730628000,21730601333,6620172,228.50252,13.515132,98610.336,1.1716539,0
21730672000,21730660000,6620172,228.50516,13.515131,98610.32,1.1716537,0
21730724000,21730710000,6620172,228.43646,13.515131,98611.11,1.171663,0
21730792000,21730769333,6620172,228.43118,13.515132,98611.19,1.171664,0
21730844000,21730830000,6620172,228.52365,13.515131,98610.08,1.1716509,0
21730892000,21730880000,6620172,228.45758,13.515131,98610.875,1.1716604,0
21730964000,21730940000,6620172,228.46286,13.515132,98610.8,1.1716595,0
21731012000,21731000000,6620172,228.37303,13.515131,98611.86,1.171672,0
21731084000,21731060000,6620172,228.46286,13.515132,98610.8,1.1716595,0
21731128000,21731118000,6620172,228.51572,13.515131,98610.19,1.1716522,0
21731180000,21731168000,6620172,228.3466,13.515131,98612.19,1.1716759,0
21731252000,21731226666,6620172,228.54214,13.515132,98609.875,1.1716484,0
21731296000,21731284000,6620172,228.41795,13.515131,98611.33,1.1716657,0
21731348000,21731334000,6620172,228.43382,13.515131,98611.13,1.1716634,0
21731396000,21731384000,6620172,228.40475,13.515131,98611.49,1.1716677,0
21731468000,21731444000,6620172,228.49722,13.515132,98610.41,1.1716547,0
21731516000,21731504000,6620172,228.47609,13.515131,98610.65,1.1716577,0
21731588000,21731564000,6620172,228.47081,13.515132,98610.7,1.1716583,0
21731636000,21731624000,6620172,228.6452,13.515131,98608.67,1.1716341,0
21731704000,21731682666,6620172,228.47345,13.515132,98610.67,1.1716579,0
21731756000,21731742000,6620172,228.49988,13.515131,98610.37,1.1716543,0
21731828000,21731802666,6620172,228.37833,13.515132,98611.8,1.1716713,0
21731876000,21731864000,6620172,228.558,13.515131,98609.69,1.1716462,0
21731948000,21731924000,6620172,228.43646,13.515132,98611.11,1.171663,0
21731996000,21731984000,6620172,228.48137,13.515131,98610.58,1.1716568,0
21732068000,21732044000,6620172,228.46817,13.515132,98610.74,1.1716588,0
21732116000,21732104000,6620172,228.51044,13.515131,98610.25,1.1716529,0
21732184000,21732162666,6620172,228.47345,13.515132,98610.67,1.1716579,0
21732236000,21732224000,6620172,228.46817,13.515131,98610.75,1.1716588,0
21732308000,21732284000,6620172,228.36247,13.515132,98611.99,1.1716735,0
21732356000,21732342000,6620172,228.53687,13.515131,98609.95,1.1716493,0
21732404000,21732392000,6620172,228.55008,13.515131,98609.78,1.1716473,0
21732476000,21732452000,6620172,228.46022,13.515132,98610.836,1.1716598,0
21732524000,21732512000,6620172,228.52101,13.515131,98610.12,1.1716514,0
21732596000,21732572000,6620172,228.47345,13.515132,98610.69,1.171658,0
21732640000,21732628000,6620172,228.48401,13.515131,98610.555,1.1716565,0
21732712000,21732688000,6620172,228.48929,13.515132,98610.484,1.1716557,0
21732764000,21732750000,6620172,228.44438,13.515131,98611.016,1.171662,0
21732836000,21732810666,6620172,228.47873,13.515132,98610.625,1.1716573,0
21732884000,21732872000,6620172,228.47345,13.515131,98610.67,1.1716579,0
21732956000,21732932000,6620172,228.39682,13.515132,98611.586,1.1716688,0
21733004000,21732992000,6620172,228.41795,13.515131,98611.34,1.1716659,0
21733076000,21733052000,6620172,228.44438,13.515132,98611.02,1.171662,0
21733124000,21733110000,6620172,228.48137,13.515131,98610.58,1.1716568,0
21733172000,21733160000,6620172,228.55008,13.515131,98609.78,1.1716473,0
21733244000,21733220000,6620172,228.51836,13.515132,98610.14,1.1716516,0
21733292000,21733280000,6620172,228.52629,13.515131,98610.05,1.1716505,0
21733364000,21733340000,6620172,228.45494,13.515132,98610.9,1.1716605,0
21733412000,21733400000,6620172,228.44702,13.515131,98611.0,1.1716619,0
21733484000,21733460000,6620172,228.47609,13.515132,98610.65,1.1716577,0
21733532000,21733520000,6620172,228.44702,13.515131,98611.0,1.1716619,0
21733604000,21733580000,6620172,228.42851,13.515132,98611.2,1.1716642,0
21733652000,21733640000,6620172,228.558,13.515131,98609.695,1.1716464,0
21733724000,21733698666,6620172,228.4523,13.515132,98610.92,1.1716609,0
21733772000,21733760000,6620172,228.42587,13.515131,98611.234,1.1716646,0
21733844000,21733818666,6620172,228.47609,13.515132,98610.64,1.1716576,0
21733892000,21733880000,6620172,228.35718,13.515131,98612.04,1.1716741,0
21733964000,21733940000,6620172,228.53157,13.515132,98610.0,1.1716499,0
21734008000,21733998000,6620172,228.55536,13.515131,98609.7,1.1716464,0
21734060000,21734048000,6620172,228.48401,13.515131,98610.55,1.1716564,0
21734132000,21734106666,6620172,228.51836,13.515101,98610.16,1.1716517,0
21734180000,21734166000,6620172,228.53157,13.515024,98610.0,1.1716499,0
21734228000,21734216000,6620172,228.54744,13.514948,98609.83,1.1716479,0
21734300000,21734276000,6620172,228.52893,13.514796,98610.016,1.17165,0
21734348000,21734336000,6620172,228.59763,13.514597,98609.22,1.1716406,0
21734420000,21734396000,6620172,228.59235,13.5143585,98609.305,1.1716416,0
21734468000,21734456000,6620172,228.64784,13.514063,98608.64,1.1716337,0
21734540000,21734516000,6620172,228.7192,13.513718,98607.805,1.1716238,0
21734588000,21734576000,6620172,228.83015,13.51333,98606.5,1.1716083,0
21734660000,21734636000,6620172,228.85922,13.512904,98606.14,1.171604,0
21734704000,21734694000,6620172,228.95435,13.512415,98605.02,1.1715908,0
21734756000,21734744000,6620172,229.02568,13.512003,98604.195,1.1715809,0
21734828000,21734804000,6620172,229.06267,13.511429,98603.74,1.1715755,0
21734876000,21734864000,6620172,229.20802,13.510813,98602.06,1.1715556,0
21734948000,21734922666,6620172,229.26878,13.510188,98601.336,1.171547,0
21734996000,21734984000,6620172,229.34012,13.509577,98600.5,1.171537,0
21735068000,21735042666,6620172,229.45111,13.508978,98599.21,1.1715217,0
21735116000,21735104000,6620172,229.51979,13.508402,98598.375,1.1715118,0
21735184000,21735161333,6620172,229.607,13.507869,98597.36,1.1714997,0
21735212000,21735212000,6620172,229.83159,13.507441,98594.71,1.1714683,0
21735308000,21735272000,6620172,229.73119,13.506968,98595.91,1.1714824,0
21735332000,21735332000,6620172,229.81839,13.5064945,98594.88,1.1714703,0
21735428000,21735392000,6620172,229.83687,13.506083,98594.66,1.1714675,0
21735452000,21735452000,6620172,229.87917,13.505671,98594.17,1.1714618,0
21735548000,21735512000,6620172,230.00862,13.505289,98592.66,1.1714438,0
21735572000,21735572000,6620172,229.91615,13.504908,98593.72,1.1714565,0
21735668000,21735632000,6620172,230.13019,13.504587,98591.23,1.1714269,0
21735692000,21735692000,6620172,230.04298,13.504267,98592.26,1.1714392,0
21735788000,21735752000,6620172,230.18567,13.503962,98590.56,1.1714189,0
21735812000,21735812000,6620172,230.28079,13.503656,98589.46,1.1714058,0
21735908000,21735872000,6620172,230.30986,13.503405,98589.09,1.1714016,0
21735932000,21735932000,6620172,230.46046,13.503138,98587.336,1.1713806,0
21736028000,21735992000,6620172,230.37856,13.502909,98588.3,1.1713921,0
21736048000,21736048000,6620172,230.33893,13.50268,98588.78,1.1713978,0
21736124000,21736100000,6620172,230.49745,13.502508,98586.89,1.1713753,0
21736172000,21736160000,6620172,230.37328,13.502298,98588.375,1.1713929,0
21736244000,21736220000,6620172,230.47633,13.502121,98587.17,1.1713786,0
21736292000,21736280000,6620172,230.5371,13.501947,98586.42,1.1713698,0
21736360000,21736338666,6620172,230.54237,13.501765,98586.375,1.1713692,0
21736412000,21736400000,6620172,230.65865,13.501612,98585.01,1.171353,0
21736484000,21736460000,6620172,230.61374,13.50146,98585.55,1.1713594,0
21736532000,21736520000,6620172,230.62166,13.501307,98585.44,1.1713581,0
21736604000,21736578666,6620172,230.61374,13.501185,98585.55,1.1713594,0
21736652000,21736640000,6620172,230.57408,13.501062,98586.0,1.1713647,0
21736724000,21736700000,6620172,230.69563,13.500931,98584.586,1.171348,0
21736772000,21736760000,6620172,230.76698,13.500818,98583.73,1.1713377,0
21736844000,21736820000,6620172,230.61638,13.500708,98585.49,1.1713587,0
21736888000,21736876000,6620172,230.7432,13.50062,98584.016,1.1713412,0
21736960000,21736936000,6620172,230.79869,13.500514,98583.36,1.1713334,0
21736988000,21736988000,6620172,230.81189,13.500452,98583.2,1.1713315,0
21737084000,21737047000,6620172,230.73528,13.500345,98584.11,1.1713424,0
21737108000,21737108000,6620172,230.71413,13.500269,98584.36,1.1713452,0
21737200000,21737167000,6620172,230.8304,13.500193,98582.984,1.1713289,0
21737224000,21737224000,6620172,230.61638,13.500116,98585.5,1.1713588,0
21737300000,21737276000,6620172,230.7247,13.500056,98584.25,1.171344,0
21737348000,21737336000,6620172,230.78546,13.50001,98583.516,1.1713352,0
21737420000,21737396000,6620172,230.7617,13.499945,98583.81,1.1713388,0
21737468000,21737456000,6620172,230.83568,13.499933,98582.94,1.1713284,0
21737540000,21737516000,6620172,230.89116,13.499934,98582.28,1.1713206,0
21737588000,21737574000,6620172,230.87268,13.499964,98582.484,1.171323,0
21737636000,21737624000,6620172,230.84889,13.499979,98582.766,1.1713263,0
21737708000,21737682666,6620172,230.76698,13.500006,98583.734,1.1713378,0
21737756000,21737744000,6620172,230.81453,13.50004,98583.19,1.1713313,0
21737828000,21737804000,6620172,230.8806,13.500067,98582.39,1.1713219,0
21737876000,21737864000,6620172,230.78282,13.500086,98583.54,1.1713356,0
21737948000,21737922666,6620172,230.75375,13.500107,98583.9,1.1713399,0
21737996000,21737984000,6620172,230.76698,13.500116,98583.75,1.1713381,0
21738068000,21738044000,6620172,230.80397,13.500117,98583.31,1.1713328,0
21738116000,21738104000,6620172,230.82776,13.500086,98583.016,1.1713294,0
21738188000,21738164000,6620172,230.85681,13.500067,98582.68,1.1713252,0
21738236000,21738224000,6620172,230.82246,13.500025,98583.08,1.1713301,0
21738304000,21738282666,6620172,230.85153,13.499965,98582.734,1.171326,0
21738356000,21738344000,6620172,230.83568,13.499887,98582.92,1.1713282,0
21738428000,21738402666,6620172,230.92023,13.499812,98581.93,1.1713164,0
21738476000,21738464000,6620172,230.85681,13.499704,98582.69,1.1713253,0
21738548000,21738524000,6620172,230.87532,13.499588,98582.46,1.1713227,0
21738596000,21738584000,6620172,230.89116,13.49946,98582.28,1.1713206,0
21738664000,21738642666,6620172,230.93346,13.499324,98581.8,1.1713148,0
21738716000,21738704000,6620172,230.91759,13.499155,98581.95,1.1713167,0
21738788000,21738764000,6620172,230.99422,13.498988,98581.08,1.1713064,0
21738832000,21738822000,6620172,230.98364,13.498804,98581.2,1.1713078,0
21738884000,21738872000,6620172,231.21619,13.4986515,98578.47,1.1712753,0
21738952000,21738929333,6620172,231.04971,13.498449,98580.42,1.1712985,0
21739000000,21738988000,6620172,231.06291,13.4982395,98580.25,1.1712965,0
21739076000,21739049333,6620172,231.1316,13.498012,98579.44,1.1712867,0
21739100000,21739100000,6620172,231.07083,13.497828,98580.17,1.1712955,0
21739196000,21739160000,6620172,231.2056,13.497599,98578.586,1.1712767,0
21739220000,21739220000,6620172,231.25581,13.49737,98578.0,1.1712697,0
21739316000,21739280000,6620172,231.30602,13.49708,98577.41,1.1712627,0
21739340000,21739340000,6620172,231.35092,13.496759,98576.875,1.1712563,0
21739436000,21739400000,6620172,231.34828,13.49637,98576.9,1.1712567,0
21739460000,21739460000,6620172,231.41698,13.495966,98576.12,1.1712472,0
21739556000,21739520000,6620172,231.47247,13.495501,98575.45,1.1712395,0
21739580000,21739580000,6620172,231.67595,13.49502,98573.06,1.171211,0
21739676000,21739640000,6620172,231.70766,13.494486,98572.67,1.1712064,0
21739700000,21739700000,6620172,231.89261,13.493921,98570.52,1.1711808,0
21739796000,21739760000,6620172,231.88469,13.493311,98570.6,1.1711818,0
21739820000,21739820000,6620172,231.89261,13.492701,98570.516,1.1711807,0
21739916000,21739880000,6620172,232.0485,13.492014,98568.68,1.171159,0
21739940000,21739940000,6620172,232.14363,13.491297,98567.56,1.1711457,0
21740036000,21740000000,6620172,232.2414,13.490549,98566.41,1.171132,0
21740060000,21740060000,6620172,232.53204,13.489771,98563.016,1.1710917,0
21740156000,21740120000,6620172,232.53204,13.488947,98563.016,1.1710917,0
21740176000,21740176000,6620172,232.73816,13.488092,98560.586,1.1710628,0
21740252000,21740228000,6620172,232.72493,13.487381,98560.75,1.1710649,0
21740300000,21740288000,6620172,232.92575,13.48646,98558.39,1.1710367,0
21740372000,21740348000,6620172,233.08958,13.48551,98556.44,1.1710135,0
21740416000,21740404000,6620172,233.13185,13.484537,98555.97,1.171008,0
21740468000,21740456000,6620172,233.3406,13.483713,98553.51,1.1709787,0
21740540000,21740516000,6620172,233.43044,13.482672,98552.45,1.1709663,0
21740588000,21740576000,6620172,233.66296,13.481592,98549.72,1.1709336,0
21740660000,21740636000,6620172,233.71846,13.4804945,98549.08,1.170926,0
21740708000,21740696000,6620172,233.93512,13.47938,98546.516,1.1708956,0
21740780000,21740756000,6620172,234.128,13.478206,98544.266,1.1708689,0
21740828000,21740816000,6620172,234.37373,13.477015,98541.39,1.1708348,0
21740900000,21740876000,6620172,234.49266,13.475795,98539.99,1.1708181,0
21740948000,21740936000,6620172,234.73839,13.474558,98537.1,1.1707838,0
21741020000,21740996000,6620172,234.98148,13.473292,98534.22,1.1707494,0
21741068000,21741056000,6620172,235.04225,13.471994,98533.516,1.1707412,0
21741140000,21741116000,6620172,235.27214,13.470688,98530.836,1.1707093,0
21741188000,21741176000,6620172,235.52844,13.469355,98527.83,1.1706736,0
21741260000,21741236000,6620172,235.86136,13.467982,98523.9,1.1706269,0
21741308000,21741296000,6620172,236.03311,13.466608,98521.88,1.1706029,0
21741380000,21741356000,6620172,236.2313,13.465195,98519.56,1.1705754,0
21741428000,21741416000,6620172,236.32907,13.46377,98518.41,1.1705617,0
21741500000,21741476000,6620172,236.58008,13.462326,98515.46,1.1705266,0
21741548000,21741534000,6620172,236.77824,13.4608555,98513.16,1.1704992,0
21741596000,21741584000,6620172,237.10063,13.459665,98509.36,1.1704541,0
21741668000,21741644000,6620172,237.30408,13.458166,98506.97,1.1704257,0
21741716000,21741704000,6620172,237.4996,13.456659,98504.68,1.1703986,0
21741784000,21741761333,6620172,237.70042,13.455104,98502.305,1.1703703,0
21741812000,21741812000,6620172,238.01752,13.453852,98498.6,1.1703264,0
21741908000,21741872000,6620172,238.0677,13.452295,98498.01,1.1703192,0
21741932000,21741932000,6620172,238.34251,13.450708,98494.78,1.1702809,0
21742028000,21741990000,6620172,238.63844,13.449106,98491.305,1.1702396,0
21742052000,21742052000,6620172,239.04272,13.447504,98486.56,1.1701833,0
21742144000,21742108000,6620172,239.085,13.445856,98486.06,1.1701773,0
21742168000,21742168000,6620172,239.45491,13.444208,98481.73,1.1701258,0
21742264000,21742228000,6620172,239.66896,13.442545,98479.22,1.170096,0
21742288000,21742288000,6620172,239.81956,13.440882,98477.45,1.1700749,0
21742364000,21742340000,6620172,239.98074,13.43952,98475.555,1.1700525,0
21742412000,21742400000,6620172,240.41937,13.437815,98470.41,1.1699913,0
21742484000,21742460000,6620172,240.67567,13.436102,98467.4,1.1699556,0
21742532000,21742520000,6620172,240.79457,13.4343815,98466.0,1.1699389,0
21742600000,21742576000,6620172,241.16978,13.432643,98461.59,1.1698866,0
21742652000,21742638000,6620172,241.43668,13.430887,98458.47,1.1698495,0
21742700000,21742688000,6620172,241.57407,13.429483,98456.86,1.1698303,0
21742772000,21742748000,6620172,241.98097,13.42771,98452.09,1.1697737,0
21742820000,21742808000,6620172,242.17915,13.425928,98449.766,1.169746,0
21742892000,21742866666,6620172,242.54643,13.424139,98445.43,1.1696945,0
21742940000,21742928000,6620172,242.73933,13.422327,98443.164,1.1696676,0
21743008000,21742986666,6620172,243.1251,13.420527,98438.65,1.1696141,0
21743060000,21743046000,6620172,243.3048,13.418695,98436.53,1.1695888,0
21743132000,21743106666,6620172,243.60336,13.416865,98433.055,1.1695476,0
21743176000,21743164000,6620172,243.94951,13.415033,98428.97,1.169499,0
21743228000,21743214000,6620172,244.15561,13.413538,98426.57,1.1694704,0
21743300000,21743274666,6620172,244.41719,13.411688,98423.5,1.1694341,0
21743344000,21743332000,6620172,244.68408,13.409815,98420.36,1.1693966,0
21743396000,21743382000,6620172,244.91132,13.408319,98417.7,1.1693652,0
21743444000,21743432000,6620172,245.1095,13.406809,98415.37,1.1693373,0
21743512000,21743490666,6620172,245.3843,13.4049225,98412.125,1.1692988,0
21743560000,21743550000,6620172,245.67758,13.403025,98408.71,1.1692584,0
21743636000,21743610666,6620172,245.98146,13.401118,98405.15,1.1692159,0
21743684000,21743672000,6620172,246.27475,13.39921,98401.69,1.1691748,0
21743756000,21743732000,6620172,246.53369,13.397284,98398.67,1.169139,0
21743800000,21743788000,6620172,247.00404,13.395365,98393.15,1.1690733,0
21743852000,21743838000,6620172,247.04367,13.393808,98392.69,1.1690679,0
21743900000,21743888000,6620172,247.32904,13.392267,98389.34,1.1690282,0
21743972000,21743946666,6620172,247.69896,13.390326,98384.984,1.1689764,0
21744020000,21744008000,6620172,248.01604,13.388361,98381.28,1.1689323,0
21744088000,21744066666,6620172,248.31726,13.386409,98377.734,1.1688902,0
21744140000,21744128000,6620172,248.62906,13.384439,98374.07,1.1688467,0
21744212000,21744186666,6620172,248.89856,13.382472,98370.94,1.1688094,0
21744256000,21744246000,6620172,249.17337,13.380487,98367.695,1.1687709,0
21744308000,21744296000,6620172,249.37947,13.378901,98365.3,1.1687425,0
21744380000,21744354666,6620172,249.78111,13.376918,98360.586,1.1686865,0
21744428000,21744416000,6620172,249.91322,13.374933,98359.03,1.1686679,0
21744500000,21744476000,6620172,250.43376,13.37294,98352.94,1.1685956,0
21744548000,21744536000,6620172,250.69006,13.370935,98349.92,1.1685598,0
21744620000,21744596000,6620172,250.94638,13.368933,98346.91,1.168524,0
21744668000,21744656000,6620172,251.2793,13.366922,98343.0,1.1684775,0
21744740000,21744714666,6620172,251.54883,13.364904,98339.84,1.1684401,0
21744784000,21744774000,6620172,251.99272,13.362879,98334.65,1.1683784,0
21744836000,21744824000,6620172,252.18562,13.361261,98332.375,1.1683513,0
21744908000,21744882666,6620172,252.50798,13.359228,98328.59,1.1683064,0
21744956000,21744944000,6620172,252.70087,13.357187,98326.36,1.1682798,0
21745028000,21745002666,6620172,253.15007,13.355159,98321.09,1.1682172,0
21745072000,21745060000,6620172,253.46187,13.353113,98317.44,1.1681738,0
21745124000,21745112000,6620172,253.69704,13.3514805,98314.66,1.1681408,0
21745196000,21745172000,6620172,254.00352,13.3494215,98311.086,1.1680983,0
21745244000,21745232000,6620172,254.3576,13.347376,98306.92,1.1680489,0
21745312000,21745290666,6620172,254.74074,13.345332,98302.42,1.1679953,0
21745364000,21745352000,6620172,254.95741,13.343271,98299.89,1.1679653,0
21745436000,21745412000,6620172,255.21373,13.341192,98296.9,1.1679298,0
21745484000,21745472000,6620172,255.6127,13.339121,98292.22,1.1678742,0
21745556000,21745532000,6620172,255.85844,13.337062,98289.34,1.16784,0
21745604000,21745592000,6620172,256.26538,13.334986,98284.56,1.1677831,0
21745676000,21745652000,6620172,256.4873,13.3329115,98281.95,1.1677521,0
21745720000,21745708000,6620172,256.89688,13.33082,98277.16,1.1676952,0
21745772000,21745760000,6620172,257.17432,13.329157,98273.94,1.1676569,0
21745844000,21745818666,6620172,257.36194,13.327072,98271.72,1.1676306,0
21745892000,21745880000,6620172,257.84018,13.324991,98266.125,1.1675642,0
21745964000,21745940000,6620172,257.8719,13.322891,98265.734,1.1675595,0
21746012000,21746000000,6620172,258.36072,13.320795,98260.01,1.1674914,0
21746084000,21746058666,6620172,258.6963,13.318701,98256.08,1.1674447,0
21746132000,21746120000,6620172,259.0821,13.316599,98251.58,1.1673912,0
21746204000,21746178666,6620172,259.37274,13.314499,98248.15,1.1673505,0
21746252000,21746240000,6620172,259.67657,13.312387,98244.586,1.1673082,0
21746320000,21746298666,6620172,260.0703,13.310278,98239.99,1.1672536,0
21746368000,21746358000,6620172,260.27902,13.308161,98237.55,1.1672245,0
21746420000,21746408000,6620172,260.51422,13.306482,98234.78,1.1671916,0
21746492000,21746468000,6620172,260.93433,13.304367,98229.86,1.1671332,0
21746540000,21746528000,6620172,261.2197,13.30224,98226.53,1.1670938,0
21746612000,21746588000,6620172,261.5817,13.300136,98222.27,1.1670431,0
21746660000,21746648000,6620172,261.93842,13.297998,98218.11,1.1669936,0
21746732000,21746706666,6620172,262.22644,13.295894,98214.734,1.1669534,0
21746776000,21746766000,6620172,262.60428,13.2937565,98210.31,1.166901,0
21746852000,21746825333,6620172,262.88702,13.291632,98206.99,1.1668615,0
21746876000,21746876000,6620172,263.11954,13.289942,98204.28,1.1668293,0
21746972000,21746935000,6620172,263.48154,13.287806,98200.04,1.1667789,0
21746996000,21746996000,6620172,263.84882,13.285669,98195.74,1.1667279,0
21747092000,21747056000,6620172,264.15533,13.283533,98192.13,1.166685,0
21747116000,21747116000,6620172,264.40372,13.281397,98189.24,1.1666507,0
21747212000,21747175000,6620172,264.81326,13.279261,98184.44,1.1665936,0
21747232000,21747232000,6620172,265.23602,13.277124,98179.49,1.1665348,0
21747304000,21747282666,6620172,265.4659,13.275396,98176.8,1.1665027,0
21747352000,21747340000,6620172,265.69052,13.273249,98174.164,1.1664715,0
21747424000,21747400000,6620172,266.02875,13.271113,98170.21,1.1664245,0
21747472000,21747460000,6620172,266.2401,13.268976,98167.734,1.1663951,0
21747544000,21747520000,6620172,266.66553,13.26681,98162.75,1.1663358,0
21747572000,21747572000,6620172,266.90863,13.2651005,98159.92,1.1663022,0
21747668000,21747632000,6620172,267.37897,13.262941,98154.41,1.1662368,0
21747692000,21747692000,6620172,267.64847,13.2607975,98151.24,1.1661992,0
21747788000,21747751000,6620172,267.92062,13.258638,98148.06,1.1661614,0
21747808000,21747808000,6620172,268.3698,13.2564945,98142.81,1.166099,0
21747884000,21747860000,6620172,268.5178,13.254756,98141.06,1.1660782,0
21747932000,21747920000,6620172,268.84546,13.252604,98137.234,1.1660327,0
21748000000,21747977333,6620172,269.2048,13.2504425,98133.016,1.1659825,0
21748052000,21748038000,6620172,269.61172,13.248285,98128.26,1.165926,0
21748100000,21748088000,6620172,269.67514,13.246546,98127.516,1.1659173,0
21748172000,21748146666,6620172,270.1904,13.2443905,98121.49,1.1658456,0
21748220000,21748208000,6620172,270.56824,13.242228,98117.06,1.165793,0
21748292000,21748268000,6620172,270.77698,13.240057,98114.61,1.1657639,0
21748340000,21748328000,6620172,271.12576,13.237894,98110.56,1.1657158,0
21748412000,21748388000,6620172,271.5565,13.2357235,98105.5,1.1656556,0
21748460000,21748448000,6620172,271.9026,13.233561,98101.45,1.1656076,0
21748532000,21748508000,6620172,272.05588,13.23139,98099.65,1.1655861,0
21748580000,21748568000,6620172,272.4707,13.229212,98094.81,1.1655287,0
21748652000,21748628000,6620172,272.7931,13.2270565,98091.055,1.165484,0
21748700000,21748688000,6620172,273.13922,13.224878,98086.984,1.1654357,0
21748772000,21748748000,6620172,273.53555,13.222702,98082.36,1.1653807,0
21748820000,21748808000,6620172,273.7945,13.22053,98079.34,1.1653448,0
21748888000,21748866666,6620172,274.1512,13.218359,98075.15,1.165295,0
21748940000,21748928000,6620172,274.44452,13.216181,98071.72,1.1652542,0
21749012000,21748988000,6620172,274.90958,13.213995,98066.266,1.1651895,0
21749056000,21749046000,6620172,275.1474,13.211817,98063.5,1.1651566,0
21749132000,21749106666,6620172,275.4671,13.2096405,98059.75,1.165112,0
21749180000,21749166000,6620172,275.83173,13.207468,98055.5,1.1650615,0
21749228000,21749216000,6620172,276.05368,13.205713,98052.91,1.1650307,0
21749300000,21749276000,6620172,276.40775,13.203537,98048.766,1.1649815,0
21749348000,21749336000,6620172,276.81732,13.201349,98043.97,1.1649245,0
21749420000,21749396000,6620172,277.18726,13.199173,98039.65,1.1648732,0
21749468000,21749454000,6620172,277.52017,13.196985,98035.766,1.1648271,0
21749516000,21749504000,6620172,277.77383,13.1952305,98032.78,1.1647916,0
21749588000,21749564000,6620172,278.01166,13.19306,98029.984,1.1647584,0
21749636000,21749624000,6620172,278.4635,13.190866,98024.73,1.164696,0
21749708000,21749684000,6620172,278.7066,13.188685,98021.87,1.1646619,0
21749752000,21749742000,6620172,279.08444,13.186502,98017.47,1.1646097,0
21749804000,21749792000,6620172,279.42,13.184748,98013.55,1.1645631,0
21749876000,21749852000,6620172,279.66046,13.182551,98010.71,1.1645293,0
21749924000,21749912000,6620172,280.04358,13.180368,98006.234,1.1644762,0
21749996000,21749970666,6620172,280.3501,13.178177,98002.65,1.1644336,0
21750044000,21750032000,6620172,280.59848,13.175989,97999.766,1.1643994,0
21750116000,21750092000,6620172,280.9552,13.173793,97995.586,1.1643497,0
21750164000,21750152000,6620172,281.34097,13.17161,97991.06,1.1642959,0
21750236000,21750210666,6620172,281.67392,13.169409,97987.18,1.1642498,0
21750284000,21750272000,6620172,281.96985,13.167215,97983.734,1.1642089,0
21750352000,21750329333,6620172,282.3741,13.165024,97978.99,1.1641525,0
21750404000,21750390000,6620172,282.6225,13.162821,97976.1,1.1641182,0
21750472000,21750449333,6620172,283.11133,13.16064,97970.36,1.16405,0
21750500000,21750500000,6620172,283.1906,13.158869,97969.445,1.164039,0
21750596000,21750559000,6620172,283.69263,13.156679,97963.586,1.1639695,0
21750620000,21750620000,6620172,284.07315,13.154474,97959.125,1.1639163,0
21750716000,21750680000,6620172,284.26602,13.152285,97956.875,1.1638898,0
21750740000,21750740000,6620172,284.77335,13.15008,97950.96,1.1638194,0
21750836000,21750800000,6620172,284.96094,13.14789,97948.766,1.1637933,0
21750860000,21750860000,6620172,285.278,13.145685,97945.06,1.1637493,0
21750956000,21750920000,6620172,285.77744,13.143488,97939.21,1.1636798,0
21750980000,21750980000,6620172,285.99408,13.141291,97936.7,1.16365,0
21751076000,21751040000,6620172,286.32703,13.139086,97932.81,1.1636038,0
21751100000,21751100000,6620172,286.74982,13.136896,97927.86,1.163545,0
21751196000,21751160000,6620172,286.99026,13.134684,97925.04,1.1635114,0
21751220000,21751220000,6620172,287.3364,13.132502,97920.99,1.1634634,0
21751316000,21751280000,6620172,287.7618,13.130289,97916.02,1.1634043,0
21751340000,21751340000,6620172,288.07623,13.128077,97912.375,1.1633611,0
21751436000,21751400000,6620172,288.43033,13.125879,97908.21,1.1633115,0
21751460000,21751460000,6620172,288.78705,13.123682,97904.06,1.1632622,0
21751556000,21751520000,6620172,289.06183,13.1214695,97900.86,1.1632241,0
21751580000,21751580000,6620172,289.44232,13.119257,97896.4,1.1631712,0
21751676000,21751640000,6620172,289.73297,13.117075,97893.0,1.1631308,0
21751700000,21751700000,6620172,290.09763,13.114862,97888.766,1.1630805,0
21751796000,21751760000,6620172,290.45963,13.11265,97884.516,1.16303,0
21751820000,21751820000,6620172,290.83218,13.110437,97880.17,1.1629783,0
21751912000,21751876000,6620172,291.08057,13.108248,97877.25,1.1629437,0
21751936000,21751936000,6620172,291.32895,13.106043,97874.37,1.1629094,0
21752036000,21751997000,6620172,291.83362,13.10383,97868.46,1.1628392,0
21752060000,21752060000,6620172,292.11636,13.101618,97865.19,1.1628003,0
21752156000,21752120000,6620172,292.39908,13.099413,97861.86,1.1627607,0
21752180000,21752180000,6620172,292.88263,13.097223,97856.234,1.162694,0
21752276000,21752239000,6620172,293.19443,13.095011,97852.57,1.1626505,0
21752300000,21752300000,6620172,293.33975,13.092798,97850.89,1.1626304,0
21752396000,21752360000,6620172,293.7308,13.090586,97846.31,1.1625761,0
21752420000,21752420000,6620172,294.25662,13.088373,97840.19,1.1625034,0
21752516000,21752480000,6620172,294.48386,13.086161,97837.516,1.1624715,0
21752540000,21752540000,6620172,294.71375,13.083948,97834.86,1.16244,0
21752636000,21752600000,6620172,295.15503,13.081751,97829.695,1.1623785,0
21752660000,21752660000,6620172,295.4774,13.079554,97825.93,1.1623338,0
21752756000,21752720000,6620172,295.87903,13.077341,97821.25,1.1622783,0
21752776000,21752776000,6620172,296.04022,13.075129,97819.35,1.1622556,0
21752852000,21752828000,6620172,296.43655,13.0733595,97814.734,1.1622008,0
21752900000,21752888000,6620172,296.78268,13.071146,97810.695,1.1621528,0
21752972000,21752948000,6620172,297.1896,13.068934,97805.94,1.1620963,0
21753020000,21753008000,6620172,297.49875,13.066721,97802.33,1.1620533,0
21753092000,21753068000,6620172,297.8951,13.064509,97797.7,1.1619985,0
21753140000,21753128000,6620172,298.14612,13.062296,97794.766,1.1619636,0
21753212000,21753188000,6620172,298.46585,13.060084,97791.05,1.1619194,0
21753260000,21753248000,6620172,298.85956,13.057871,97786.45,1.1618649,0
21753332000,21753306666,6620172,299.18192,13.055659,97782.67,1.1618199,0
21753380000,21753368000,6620172,299.52014,13.053446,97778.734,1.1617732,0
21753452000,21753428000,6620172,299.8795,13.051234,97774.555,1.1617235,0
21753500000,21753486000,6620172,300.1939,13.049021,97770.89,1.1616799,0
21753548000,21753536000,6620172,300.49515,13.047251,97767.375,1.1616381,0
21753620000,21753596000,6620172,300.92322,13.045039,97762.375,1.1615787,0
21753668000,21753656000,6620172,301.19537,13.042826,97759.19,1.1615409,0
21753740000,21753716000,6620172,301.58643,13.040614,97754.65,1.161487,0
21753788000,21753776000,6620172,301.8163,13.038401,97751.96,1.161455,0
21753856000,21753834666,6620172,302.22058,13.036189,97747.24,1.1613989,0
21753908000,21753896000,6620172,302.5456,13.033976,97743.45,1.161354,0
21753980000,21753956000,6620172,302.7966,13.031764,97740.52,1.161319,0
21754028000,21754016000,6620172,303.14276,13.029551,97736.48,1.1612711,0
21754100000,21754076000,6620172,303.6633,13.027339,97730.41,1.161199,0
21754148000,21754136000,6620172,303.88788,13.025095,97727.78,1.1611677,0
21754220000,21754194666,6620172,304.15475,13.022883,97724.65,1.1611305,0
21754268000,21754256000,6620172,304.57227,13.02067,97719.81,1.1610731,0
21754340000,21754316000,6620172,304.8365,13.018458,97716.734,1.1610364,0
21754388000,21754376000,6620172,305.22754,13.016245,97712.17,1.1609823,0
21754460000,21754436000,6620172,305.5552,13.014033,97708.336,1.1609367,0
21754508000,21754496000,6620172,305.9542,13.01182,97703.67,1.1608812,0
21754580000,21754556000,6620172,306.2237,13.009608,97700.52,1.1608438,0
21754628000,21754616000,6620172,306.6544,13.007395,97695.516,1.1607842,0
21754700000,21754676000,6620172,306.97147,13.005183,97691.83,1.1607406,0
21754748000,21754736000,6620172,307.3414,13.00297,97687.516,1.1606892,0
21754820000,21754796000,6620172,307.6532,13.000738,97683.86,1.1606458,0
21754868000,21754856000,6620172,308.00198,12.998514,97679.8,1.1605976,0
21754940000,21754916000,6620172,308.22394,12.996303,97677.21,1.1605668,0
21754988000,21754976000,6620172,308.72067,12.994089,97671.44,1.1604983,0
21755060000,21755036000,6620172,308.98227,12.991878,97668.375,1.1604619,0
21755108000,21755096000,6620172,309.31787,12.989664,97664.45,1.1604153,0
21755180000,21755156000,6620172,309.58206,12.9874525,97661.37,1.1603786,0
21755228000,21755214000,6620172,310.0709,12.985239,97655.67,1.160311,0
21755276000,21755264000,6620172,310.3246,12.983469,97652.734,1.160276,0
21755348000,21755324000,6620172,310.66016,12.981247,97648.8,1.1602292,0
21755396000,21755384000,6620172,310.97723,12.979013,97645.11,1.1601853,0
21755468000,21755444000,6620172,311.3313,12.976802,97640.984,1.1601365,0
21755516000,21755504000,6620172,311.70917,12.974588,97636.59,1.1600842,0
21755588000,21755564000,6620172,312.0236,12.972377,97632.94,1.1600407,0
21755636000,21755622000,6620172,312.46484,12.970163,97627.79,1.1599797,0
21755708000,21755682666,6620172,312.66302,12.967952,97625.46,1.1599519,0
21755752000,21755742000,6620172,313.11224,12.965738,97620.24,1.1598899,0
21755828000,21755802666,6620172,313.38965,12.963496,97616.984,1.1598512,0
21755876000,21755862000,6620172,313.70148,12.961283,97613.36,1.1598083,0
21755948000,21755922666,6620172,314.03705,12.959071,97609.46,1.1597619,0
21755996000,21755984000,6620172,314.34354,12.956858,97605.875,1.1597192,0
21756064000,21756041333,6620172,314.732,12.954646,97601.37,1.1596657,0
21756092000,21756092000,6620172,315.11774,12.952875,97596.875,1.1596123,0
21756188000,21756151000,6620172,315.37933,12.95064,97593.805,1.1595758,0
21756208000,21756208000,6620172,315.7149,12.94842,97589.914,1.1595297,0
21756284000,21756260000,6620172,315.92627,12.9466505,97587.45,1.1595004,0
21756332000,21756320000,6620172,316.3279,12.944437,97582.766,1.1594447,0
21756404000,21756380000,6620172,316.61856,12.942225,97579.37,1.1594043,0
21756452000,21756440000,6620172,316.98853,12.940012,97575.08,1.1593533,0
21756524000,21756500000,6620172,317.30823,12.93778,97571.336,1.1593088,0
21756572000,21756560000,6620172,317.6438,12.935556,97567.44,1.1592625,0
21756644000,21756620000,6620172,318.04282,12.933345,97562.77,1.1592071,0
21756692000,21756680000,6620172,318.29117,12.931131,97559.88,1.1591728,0
21756760000,21756738666,6620172,318.6981,12.92892,97555.16,1.1591166,0
21756812000,21756798000,6620172,319.00195,12.926706,97551.59,1.1590743,0
21756860000,21756848000,6620172,319.32697,12.924906,97547.836,1.1590296,0
21756932000,21756908000,6620172,319.71274,12.922694,97543.336,1.1589762,0
21756980000,21756968000,6620172,319.97433,12.920481,97540.3,1.1589401,0
21757052000,21757028000,6620172,320.2676,12.918269,97536.86,1.1588992,0
21757100000,21757088000,6620172,320.60583,12.916056,97532.94,1.1588527,0
21757172000,21757148000,6620172,320.93878,12.913834,97529.05,1.1588064,0
21757220000,21757208000,6620172,321.4329,12.9116,97523.3,1.158738,0
21757292000,21757266666,6620172,321.65222,12.909389,97520.734,1.1587076,0
21757340000,21757328000,6620172,321.97983,12.907175,97516.92,1.1586623,0
21757408000,21757385333,6620172,322.37357,12.9049635,97512.336,1.1586078,0
21757460000,21757446000,6620172,322.79633,12.90275,97507.42,1.1585494,0
21757508000,21757496000,6620172,323.0632,12.900965,97504.33,1.1585127,0
21757580000,21757554666,6620172,323.34067,12.898738,97501.08,1.1584741,0
21757628000,21757616000,6620172,323.65244,12.896524,97497.445,1.1584309,0
21757700000,21757676000,6620172,324.09634,12.894313,97492.27,1.1583695,0
21757744000,21757734000,6620172,324.37112,12.892099,97489.08,1.1583315,0
21757816000,21757792000,6620172,324.67502,12.889888,97485.56,1.1582898,0
21757864000,21757852000,6620172,325.0423,12.887644,97481.28,1.1582389,0
21757936000,21757912000,6620172,325.37524,12.885432,97477.4,1.1581928,0
21757984000,21757972000,6620172,325.75574,12.883219,97472.98,1.1581402,0
21758056000,21758032000,6620172,326.1177,12.881007,97468.74,1.1580899,0
21758104000,21758092000,6620172,326.24457,12.878794,97467.28,1.1580725,0
21758180000,21758153333,6620172,326.74396,12.876562,97461.46,1.1580034,0
21758228000,21758214000,6620172,327.0135,12.874338,97458.31,1.1579659,0
21758276000,21758264000,6620172,327.28036,12.872568,97455.234,1.1579294,0
21758348000,21758322666,6620172,327.66348,12.870357,97450.77,1.1578764,0
21758396000,21758384000,6620172,327.97525,12.868143,97447.13,1.1578331,0
21758468000,21758444000,6620172,328.33994,12.8659115,97442.9,1.1577828,0
21758516000,21758502000,6620172,328.79175,12.8636875,97437.64,1.1577203,0
21758564000,21758552000,6620172,328.92914,12.8619175,97436.05,1.1577014,0
21758636000,21758610666,6620172,329.3255,12.859706,97431.42,1.1576464,0
21758684000,21758672000,6620172,329.61615,12.857492,97428.03,1.1576061,0
21758756000,21758730666,6620172,330.068,12.855261,97422.8,1.157544,0
21758804000,21758792000,6620172,330.40622,12.853037,97418.84,1.157497,0
21758876000,21758850666,6620172,330.6123,12.850825,97416.44,1.1574684,0
21758924000,21758912000,6620172,331.03772,12.848612,97411.49,1.1574097,0
21758992000,21758970666,6620172,331.39178,12.84639,97407.375,1.1573608,0
21759040000,21759030000,6620172,331.57144,12.844156,97405.28,1.1573359,0
21759092000,21759080000,6620172,332.08145,12.842386,97399.36,1.1572655,0
21759164000,21759140000,6620172,332.29547,12.840175,97396.875,1.157236,0
21759212000,21759198000,6620172,332.73145,12.837961,97391.805,1.1571758,0
21759280000,21759257333,6620172,333.0221,12.835719,97388.42,1.1571355,0
21759332000,21759318000,6620172,333.34448,12.833506,97384.68,1.157091,0
21759380000,21759368000,6620172,333.66418,12.831736,97380.96,1.1570469,0
21759452000,21759428000,6620172,334.03943,12.829524,97376.58,1.1569948,0
21759500000,21759488000,6620172,334.34854,12.827295,97373.0,1.1569523,0
21759572000,21759545333,6620172,334.64713,12.825068,97369.52,1.156911,0
21759596000,21759596000,6620172,334.92456,12.8232975,97366.28,1.1568724,0
21759692000,21759654000,6620172,335.2892,12.821085,97362.07,1.1568224,0
21759716000,21759716000,6620172,335.60367,12.818872,97358.38,1.1567787,0
21759808000,21759775000,6620172,335.93655,12.816629,97354.52,1.1567328,0
21759836000,21759836000,6620172,336.3752,12.814417,97349.42,1.1566721,0
21759932000,21759896000,6620172,336.6553,12.812204,97346.17,1.1566335,0
21759956000,21759956000,6620172,336.98822,12.809992,97342.305,1.1565876,0
21760052000,21760016000,6620172,337.32907,12.807749,97338.34,1.1565405,0
21760076000,21760076000,6620172,337.63824,12.805536,97334.75,1.1564978,0
21760172000,21760136000,6620172,338.00024,12.803324,97330.516,1.1564475,0
21760196000,21760196000,6620172,338.23276,12.801111,97327.83,1.1564156,0
21760292000,21760256000,6620172,338.6476,12.798868,97323.0,1.1563582,0
21760316000,21760316000,6620172,339.0598,12.796656,97318.2,1.1563013,0
21760408000,21760375000,6620172,339.33197,12.794443,97315.04,1.1562636,0
21760432000,21760432000,6620172,339.45877,12.792231,97313.56,1.1562461,0
21760504000,21760482666,6620172,340.0163,12.790431,97307.09,1.1561692,0
21760556000,21760544000,6620172,340.28583,12.788218,97303.945,1.1561319,0
21760628000,21760604000,6620172,340.69012,12.786006,97299.25,1.1560761,0
21760676000,21760664000,6620172,341.14194,12.783777,97293.99,1.1560136,0
21760748000,21760722666,6620172,341.36658,12.78155,97291.4,1.1559827,0
21760796000,21760784000,6620172,341.80518,12.779337,97286.3,1.1559222,0
21760868000,21760844000,6620172,342.04034,12.777125,97283.56,1.1558896,0
21760916000,21760904000,6620172,342.37592,12.774881,97279.67,1.1558434,0
21760988000,21760962666,6620172,342.7062,12.77267,97275.83,1.1557978,0
21761032000,21761022000,6620172,343.10782,12.770456,97271.16,1.1557422,0
21761084000,21761072000,6620172,343.2796,12.768686,97269.17,1.1557187,0
21761156000,21761132000,6620172,343.73935,12.766444,97263.83,1.1556551,0
21761204000,21761192000,6620172,344.01678,12.764231,97260.61,1.155617,0
21761276000,21761252000,6620172,344.25992,12.762019,97257.77,1.1555833,0
21761320000,21761310000,6620172,344.6959,12.75979,97252.7,1.155523,0
21761396000,21761370666,6620172,345.10544,12.757564,97247.96,1.1554667,0
21761444000,21761432000,6620172,345.41196,12.75535,97244.39,1.1554242,0
21761516000,21761492000,6620172,345.76602,12.753139,97240.28,1.1553755,0
21761564000,21761552000,6620172,345.95364,12.750895,97238.08,1.1553493,0
21761636000,21761610666,6620172,346.41867,12.748683,97232.69,1.1552852,0
21761680000,21761668000,6620172,346.63004,12.7464695,97230.234,1.155256,0
21761756000,21761729333,6620172,347.0819,12.744258,97224.99,1.1551938,0
21761804000,21761790000,6620172,347.53107,12.742014,97219.78,1.1551318,0
21761876000,21761850666,6620172,347.8455,12.739802,97216.11,1.1550882,0
21761924000,21761912000,6620172,348.2049,12.737589,97211.94,1.1550387,0
21761996000,21761972000,6620172,348.46118,12.735367,97208.95,1.1550032,0
21762044000,21762030000,6620172,348.8681,12.733133,97204.25,1.1549473,0
21762116000,21762090666,6620172,349.22217,12.730922,97200.12,1.1548982,0
21762164000,21762152000,6620172,349.47583,12.728708,97197.19,1.1548634,0
21762236000,21762212000,6620172,349.7929,12.726477,97193.49,1.1548195,0
21762284000,21762272000,6620172,350.26062,12.724253,97188.086,1.1547552,0
21762356000,21762332000,6620172,350.4588,12.722041,97185.78,1.1547278,0
21762400000,21762388000,6620172,350.9159,12.719812,97180.45,1.1546645,0
21762448000,21762438000,6620172,351.16165,12.718027,97177.625,1.1546309,0
21762524000,21762498666,6620172,351.48135,12.715816,97173.9,1.1545867,0
21762572000,21762560000,6620172,351.88562,12.713602,97169.195,1.1545308,0
21762640000,21762617333,6620172,352.1842,12.71137,97165.734,1.1544896,0
21762668000,21762668000,6620172,352.3401,12.709589,97163.93,1.1544682,0
21762764000,21762728000,6620172,352.8263,12.7073765,97158.28,1.1544012,0
21762788000,21762788000,6620172,353.1698,12.705164,97154.305,1.1543539,0
21762880000,21762847000,6620172,353.5186,12.702929,97150.26,1.1543058,0
21762908000,21762908000,6620172,353.7511,12.700708,97147.53,1.1542734,0
21763004000,21762967000,6620172,354.1316,12.698496,97143.13,1.1542212,0
21763028000,21763028000,6620172,354.6178,12.696283,97137.484,1.1541541,0
21763124000,21763087000,6620172,354.82385,12.69404,97135.086,1.1541255,0
21763148000,21763148000,6620172,355.1568,12.691828,97131.234,1.1540798,0
21763244000,21763207000,6620172,355.56372,12.689615,97126.5,1.1540234,0
21763268000,21763268000,6620172,355.81213,12.687372,97123.62,1.1539892,0
21763360000,21763327000,6620172,356.1794,12.68516,97119.34,1.1539384,0
21763384000,21763384000,6620172,356.68936,12.682947,97113.44,1.1538682,0
21763484000,21763446000,6620172,356.85052,12.680727,97111.56,1.153846,0
21763508000,21763508000,6620172,357.26538,12.678492,97106.75,1.1537888,0
21763600000,21763566000,6620172,357.62738,12.676279,97102.555,1.153739,0
21763624000,21763624000,6620172,357.8652,12.674067,97099.79,1.1537062,0
21763720000,21763684000,6620172,358.27737,12.671831,97095.016,1.1536494,0
21763744000,21763744000,6620172,358.6024,12.669611,97091.23,1.1536044,0
21763840000,21763804000,6620172,358.97232,12.667398,97086.94,1.1535535,0
21763864000,21763864000,6620172,359.42154,12.665186,97081.734,1.1534916,0
21763960000,21763924000,6620172,359.4506,12.662943,97081.375,1.1534873,0
21763984000,21763984000,6620172,360.11383,12.66073,97073.7,1.1533961,0
21764080000,21764044000,6620172,360.2697,12.65851,97071.91,1.1533748,0
21764104000,21764104000,6620172,360.63434,12.656275,97067.67,1.1533245,0
21764180000,21764154666,6620172,360.8827,12.654506,97064.78,1.1532902,0
21764228000,21764214000,6620172,361.20508,12.652292,97061.04,1.1532457,0
21764276000,21764264000,6620172,361.54068,12.650522,97057.16,1.1531996,0
21764348000,21764324000,6620172,361.8181,12.64828,97053.92,1.1531612,0
21764396000,21764384000,6620172,362.2277,12.646067,97049.164,1.1531045,0
21764468000,21764444000,6620172,362.48395,12.643855,97046.22,1.1530696,0
21764512000,21764500000,6620172,362.86713,12.641626,97041.77,1.1530168,0
21764584000,21764560000,6620172,363.15512,12.6394,97038.42,1.1529769,0
21764612000,21764612000,6620172,363.70737,12.637629,97032.016,1.1529008,0
21764708000,21764671000,6620172,363.8289,12.635416,97030.6,1.152884,0
21764732000,21764732000,6620172,364.16183,12.6332035,97026.74,1.1528381,0
21764828000,21764792000,6620172,364.5344,12.63096,97022.42,1.1527869,0
21764852000,21764852000,6620172,364.56876,12.628748,97022.05,1.1527823,0
21764948000,21764911000,6620172,365.22934,12.626535,97014.36,1.152691,0
21764972000,21764972000,6620172,365.62833,12.624292,97009.74,1.1526362,0
21765068000,21765032000,6620172,365.97183,12.62208,97005.766,1.152589,0
21765092000,21765092000,6620172,366.38934,12.619867,97000.91,1.1525313,0
21765188000,21765152000,6620172,366.5505,12.617647,96999.06,1.1525093,0
21765212000,21765212000,6620172,366.85434,12.615412,96995.516,1.1524671,0
21765308000,21765272000,6620172,367.32205,12.613199,96990.125,1.1524031,0
21765332000,21765332000,6620172,367.5625,12.610987,96987.31,1.1523697,0
21765428000,21765392000,6620172,367.98264,12.608767,96982.45,1.1523119,0
21765452000,21765452000,6620172,368.38428,12.606531,96977.8,1.1522566,0
21765548000,21765512000,6620172,368.61942,12.604319,96975.055,1.1522241,0
21765572000,21765572000,6620172,368.96558,12.602106,96971.05,1.1521765,0
21765664000,21765631000,6620172,369.32758,12.599878,96966.84,1.1521266,0
21765692000,21765692000,6620172,369.7768,12.597651,96961.64,1.1520647,0
21765784000,21765751000,6620172,370.05685,12.595438,96958.4,1.1520262,0
21765812000,21765812000,6620172,370.4215,12.5932255,96954.19,1.1519761,0
21765908000,21765872000,6620172,370.72534,12.590982,96950.67,1.1519344,0
21765932000,21765932000,6620172,370.9605,12.58877,96947.94,1.1519018,0
21766028000,21765992000,6620172,371.40707,12.58655,96942.766,1.1518404,0
21766052000,21766052000,6620172,371.777,12.584314,96938.45,1.1517892,0
21766148000,21766111000,6620172,372.03333,12.582102,96935.5,1.1517541,0
21766168000,21766168000,6620172,372.39005,12.579889,96931.36,1.1517049,0
21766244000,21766220000,6620172,372.6701,12.5781,96928.125,1.1516665,0
21766292000,21766280000,6620172,373.0136,12.575876,96924.125,1.151619,0
21766360000,21766338666,6620172,373.42316,12.573665,96919.4,1.1515628,0
21766412000,21766400000,6620172,373.71384,12.571436,96916.02,1.1515228,0
21766484000,21766460000,6620172,373.96747,12.569209,96913.09,1.1514878,0
21766528000,21766516000,6620172,374.56467,12.566996,96906.19,1.1514058,0
21766600000,21766576000,6620172,374.7232,12.564784,96904.33,1.1513838,0
21766648000,21766636000,6620172,375.07727,12.56254,96900.234,1.151335,0
21766720000,21766696000,6620172,375.4683,12.5603285,96895.69,1.1512811,0
21766748000,21766748000,6620172,375.53702,12.5585575,96894.91,1.1512717,0
21766840000,21766806000,6620172,376.00208,12.55633,96889.51,1.1512076,0
21766868000,21766868000,6620172,376.4698,12.554102,96884.09,1.1511433,0
21766964000,21766928000,6620172,376.74985,12.551889,96880.836,1.1511046,0
21766988000,21766988000,6620172,377.16202,12.549677,96876.07,1.1510481,0
21767084000,21767048000,6620172,377.3946,12.547434,96873.39,1.1510161,0
21767108000,21767108000,6620172,377.62973,12.545221,96870.67,1.1509838,0
21767200000,21767167000,6620172,378.0393,12.542994,96865.92,1.1509273,0
21767228000,21767228000,6620172,378.44095,12.540766,96861.28,1.1508722,0
21767324000,21767286000,6620172,378.74744,12.538553,96857.73,1.15083,0
21767344000,21767344000,6620172,379.21515,12.536341,96852.32,1.1507658,0
21767444000,21767406000,6620172,379.4556,12.534098,96849.516,1.1507325,0
21767468000,21767468000,6620172,379.61148,12.531885,96847.72,1.1507112,0
21767564000,21767528000,6620172,380.09238,12.529657,96842.16,1.150645,0
21767588000,21767588000,6620172,380.49667,12.52743,96837.47,1.1505893,0
21767684000,21767648000,6620172,380.80582,12.525217,96833.9,1.1505469,0
21767704000,21767704000,6620172,381.23914,12.522974,96828.87,1.1504871,0
21767780000,21767756000,6620172,381.40298,12.521205,96826.96,1.1504644,0
21767828000,21767816000,6620172,381.80988,12.518991,96822.266,1.1504087,0
21767900000,21767874666,6620172,382.0847,12.516769,96819.08,1.1503708,0
21767948000,21767936000,6620172,382.45728,12.514536,96814.766,1.1503196,0
21768016000,21767993333,6620172,382.7981,12.512324,96810.81,1.1502726,0
21768064000,21768052000,6620172,383.14954,12.510096,96806.76,1.1502244,0
21768140000,21768113333,6620172,383.54324,12.507869,96802.19,1.1501701,0
21768164000,21768164000,6620172,383.75198,12.506098,96799.78,1.1501415,0
21768256000,21768223000,6620172,384.08493,12.503878,96795.914,1.1500956,0
21768284000,21768284000,6620172,384.36502,12.501642,96792.67,1.1500571,0
21768380000,21768344000,6620172,384.74814,12.49943,96788.234,1.1500043,0
21768404000,21768404000,6620172,385.2,12.497217,96783.01,1.1499423,0
21768500000,21768463000,6620172,385.50385,12.494974,96779.516,1.1499007,0
21768520000,21768520000,6620172,385.68884,12.492762,96777.375,1.1498753,0
21768596000,21768572000,6620172,386.10364,12.490982,96772.56,1.1498182,0
21768644000,21768632000,6620172,386.4181,12.488749,96768.92,1.1497748,0
21768716000,21768692000,6620172,386.6506,12.486537,96766.22,1.1497427,0
21768764000,21768752000,6620172,387.00204,12.4843235,96762.18,1.1496948,0
21768836000,21768812000,6620172,387.4037,12.482081,96757.5,1.1496392,0
21768880000,21768870000,6620172,387.71017,12.479868,96753.96,1.1495972,0
21768956000,21768930666,6620172,388.20694,12.477646,96748.22,1.1495289,0
21769004000,21768992000,6620172,388.4659,12.475412,96745.22,1.1494932,0
21769076000,21769052000,6620172,388.85693,12.473201,96740.7,1.1494396,0
21769120000,21769110000,6620172,389.13702,12.470987,96737.45,1.1494011,0
21769172000,21769160000,6620172,389.48846,12.469187,96733.39,1.1493527,0
21769244000,21769220000,6620172,389.81082,12.466975,96729.67,1.1493084,0
21769292000,21769280000,6620172,390.2019,12.464762,96725.14,1.1492547,0
21769364000,21769340000,6620172,390.4397,12.46253,96722.375,1.1492219,0
21769412000,21769400000,6620172,390.74094,12.460306,96718.91,1.1491807,0
21769480000,21769458666,6620172,391.12143,12.458095,96714.5,1.1491283,0
21769528000,21769516000,6620172,391.37244,12.455866,96711.6,1.1490937,0
21769600000,21769576000,6620172,391.708,12.453639,96707.71,1.1490476,0
21769628000,21769628000,6620172,392.1123,12.451868,96703.055,1.1489922,0
21769724000,21769688000,6620172,392.38712,12.449648,96699.86,1.1489543,0
21769744000,21769744000,6620172,392.87592,12.4474125,96694.21,1.1488872,0
21769820000,21769794666,6620172,392.96576,12.445643,96693.18,1.1488749,0
21769868000,21769856000,6620172,393.27228,12.44343,96689.64,1.1488328,0
21769940000,21769916000,6620172,393.78223,12.441188,96683.734,1.1487627,0
21769988000,21769974000,6620172,394.1284,12.438974,96679.75,1.1487154,0
21770036000,21770024000,6620172,394.2341,12.437204,96678.516,1.1487007,0
21770108000,21770084000,6620172,394.73877,12.434973,96672.68,1.1486313,0
21770156000,21770144000,6620172,395.06644,12.432749,96668.9,1.1485864,0
21770228000,21770204000,6620172,395.49448,12.430537,96663.93,1.1485274,0
21770276000,21770264000,6620172,395.70587,12.428293,96661.51,1.1484987,0
21770344000,21770322666,6620172,396.1154,12.426082,96656.77,1.1484424,0
21770396000,21770384000,6620172,396.37964,12.423868,96653.7,1.1484059,0
21770468000,21770444000,6620172,396.7205,12.421637,96649.75,1.148359,0
21770512000,21770502000,6620172,397.1327,12.419413,96644.99,1.1483024,0
21770588000,21770562666,6620172,397.40222,12.417201,96641.89,1.1482656,0
21770632000,21770622000,6620172,397.76422,12.414957,96637.695,1.1482157,0
21770684000,21770672000,6620172,398.0628,12.413187,96634.26,1.1481748,0
21770756000,21770732000,6620172,398.37726,12.410975,96630.59,1.1481313,0
21770804000,21770792000,6620172,398.80002,12.408731,96625.734,1.1480736,0
21770876000,21770852000,6620172,399.13293,12.40652,96621.89,1.1480279,0
21770924000,21770912000,6620172,399.4051,12.404306,96618.734,1.1479905,0
21770996000,21770972000,6620172,399.7486,12.402064,96614.78,1.1479434,0
21771044000,21771032000,6620172,400.06833,12.399851,96611.055,1.1478992,0
21771116000,21771090666,6620172,400.46732,12.397629,96606.46,1.1478446,0
21771160000,21771150000,6620172,400.7976,12.395395,96602.66,1.1477994,0
21771212000,21771200000,6620172,401.08298,12.393625,96599.336,1.1477599,0
21771284000,21771258666,6620172,401.48724,12.391403,96594.68,1.1477046,0
21771332000,21771320000,6620172,401.73297,12.38917,96591.83,1.1476707,0
21771404000,21771380000,6620172,402.03418,12.386958,96588.336,1.1476291,0
21771452000,21771440000,6620172,402.48077,12.384729,96583.2,1.1475682,0
21771524000,21771498666,6620172,402.83218,12.382503,96579.125,1.1475198,0
21771572000,21771558000,6620172,403.13077,12.380289,96575.67,1.1474788,0
21771620000,21771608000,6620172,403.2761,12.378489,96574.0,1.1474589,0
21771692000,21771668000,6620172,403.7702,12.376277,96568.28,1.1473908,0
21771740000,21771726000,6620172,404.17184,12.3740635,96563.66,1.1473359,0
21771788000,21771776000,6620172,404.34622,12.372263,96561.625,1.1473118,0
21771860000,21771834666,6620172,404.62366,12.370051,96558.42,1.1472738,0
21771908000,21771896000,6620172,405.00156,12.367838,96554.06,1.1472219,0
21771980000,21771956000,6620172,405.35297,12.365596,96550.02,1.147174,0
21772028000,21772014000,6620172,405.7731,12.363382,96545.16,1.1471162,0
21772076000,21772064000,6620172,405.9845,12.361612,96542.734,1.1470873,0
21772148000,21772124000,6620172,406.37817,12.35937,96538.17,1.1470332,0
21772196000,21772184000,6620172,406.70847,12.357157,96534.34,1.1469877,0
21772268000,21772244000,6620172,407.0044,12.354935,96530.92,1.146947,0
21772316000,21772304000,6620172,407.3664,12.352701,96526.766,1.1468977,0
21772388000,21772364000,6620172,407.60422,12.35049,96524.0,1.1468648,0
21772436000,21772424000,6620172,408.01904,12.348261,96519.22,1.1468079,0
21772508000,21772484000,6620172,408.40747,12.346034,96514.72,1.1467545,0
21772556000,21772544000,6620172,408.6955,12.343821,96511.39,1.1467149,0
21772624000,21772601333,6620172,409.00726,12.341589,96507.8,1.1466722,0
21772672000,21772660000,6620172,409.32965,12.339365,96504.086,1.1466281,0
21772724000,21772712000,6620172,409.7947,12.337595,96498.7,1.1465642,0
21772792000,21772770666,6620172,410.01932,12.335353,96496.125,1.1465336,0
21772844000,21772830000,6620172,410.36545,12.333139,96492.13,1.1464862,0
21772916000,21772890666,6620172,410.75912,12.330917,96487.58,1.146432,0
21772964000,21772950000,6620172,411.15286,12.328684,96483.03,1.146378,0
21773032000,21773009333,6620172,411.3801,12.326472,96480.41,1.1463468,0
21773060000,21773060000,6620172,411.6496,12.324671,96477.305,1.14631,0
21773156000,21773119000,6620172,412.0327,12.322458,96472.875,1.1462573,0
21773180000,21773180000,6620172,412.4661,12.320246,96467.875,1.1461979,0
21773276000,21773240000,6620172,412.72766,12.31801,96464.85,1.1461619,0
21773300000,21773300000,6620172,413.22177,12.31579,96459.15,1.1460942,0
21773392000,21773358000,6620172,413.383,12.313562,96457.28,1.146072,0
21773420000,21773420000,6620172,413.69476,12.311335,96453.695,1.1460295,0
21773516000,21773480000,6620172,414.01447,12.309122,96449.99,1.1459854,0
21773540000,21773540000,6620172,414.45312,12.306879,96444.95,1.1459255,0
21773632000,21773599000,6620172,414.79663,12.3046665,96440.99,1.1458786,0
21773660000,21773660000,6620172,415.04764,12.302454,96438.09,1.1458441,0
21773756000,21773720000,6620172,415.47833,12.300211,96433.1,1.1457849,0
21773780000,21773780000,6620172,415.64746,12.297998,96431.164,1.1457617,0
21773876000,21773840000,6620172,416.0755,12.295771,96426.2,1.1457027,0
21773900000,21773900000,6620172,416.44012,12.293543,96422.016,1.145653,0
21773992000,21773956000,6620172,416.80212,12.291323,96417.83,1.1456033,0
21774016000,21774016000,6620172,417.34647,12.289087,96411.56,1.1455288,0
21774116000,21774077000,6620172,417.49442,12.286875,96409.84,1.1455084,0
21774140000,21774140000,6620172,418.0255,12.284632,96403.73,1.1454358,0
21774236000,21774200000,6620172,418.21048,12.282419,96401.58,1.1454103,0
21774260000,21774260000,6620172,418.54608,12.280207,96397.73,1.1453644,0
21774352000,21774319000,6620172,418.93182,12.277971,96393.266,1.1453115,0
21774380000,21774380000,6620172,419.26212,12.275751,96389.47,1.1452664,0
21774476000,21774440000,6620172,419.5158,12.273523,96386.516,1.1452312,0
21774500000,21774500000,6620172,419.95972,12.271296,96381.41,1.1451705,0
21774596000,21774560000,6620172,420.18958,12.269075,96378.75,1.145139,0
21774620000,21774620000,6620172,420.62027,12.26684,96373.8,1.1450801,0
