timestamp,timestamp_sample,lat,lon,alt,alt_ellipsoid,delta_alt,eph,epv,terrain_alt,lat_lon_reset_counter,alt_reset_counter,terrain_alt_valid,dead_reckoning
21727296000,21727296000,41.6066980107241,-86.3556159903595,229.27132,229.2674,-0.0,1.0012037,1.0015305,229.17102,2,0,1,0
21728296000,21728296000,41.60669801714155,-86.35561598090509,229.27061,229.26633,-0.0,1.0012006,1.0015253,229.17075,2,0,1,0
21729296000,21729296000,41.60669801491216,-86.35561598690981,229.26932,229.26547,-0.0,1.0011979,1.0015205,229.17018,2,0,1,0
21730296000,21730296000,41.606698023990496,-86.3556159907581,229.27126,229.26779,-0.0,1.0011959,1.0015159,229.17044,2,0,1,0
21731296000,21731296000,41.60669803041597,-86.35561597766902,229.26979,229.26668,-0.0,1.0011925,1.0015113,229.17033,2,0,1,0
21732296000,21732296000,41.6066980153753,-86.35561595585389,229.26936,229.26712,-0.0,1.0011926,1.001508,229.16997,2,0,1,0
21733296000,21733296000,41.60669800871932,-86.35561595261065,229.26765,229.26595,-0.0,1.0012051,1.0015111,229.16888,2,0,1,0
21734296000,21734296000,41.60669793885222,-86.3556158299025,229.31332,229.31181,-0.0,1.0024177,1.0022262,229.15968,2,0,1,0
21735296000,21735296000,41.60669776865712,-86.35561580542908,230.50453,230.49213,-0.0,1.0083939,1.006022,229.15968,2,0,1,0
21736296000,21736296000,41.60669786369707,-86.35561600653263,231.24132,231.22777,-0.0,1.0198978,1.0151161,229.15968,2,0,1,0
21737296000,21737296000,41.606697944992504,-86.35561603135159,231.52663,231.51714,-0.0,1.0332574,1.0291688,229.15968,2,0,1,0
21738296000,21738296000,41.60669796201064,-86.35561581650516,231.53745,231.53497,-0.0,1.0464603,1.0449401,nan,2,0,0,0
21739296000,21739296000,41.606697998321394,-86.35560837296332,231.98918,231.98923,-0.0,1.0510854,1.055767,nan,2,0,0,0
21740296000,21740296000,41.606690138308714,-86.35558093948956,233.60359,233.59282,-0.0,1.0578083,1.0668904,nan,2,0,0,0
21741296000,21741296000,41.60667501764835,-86.35554113713158,236.60187,236.56834,-0.0,1.0625334,1.0744108,nan,2,0,0,0
21742296000,21742296000,41.606656452978086,-86.35549473105297,240.5549,240.49371,-0.0,1.0663127,1.0794502,nan,2,0,0,0
21743296000,21743296000,41.60663553968416,-86.35544371717381,245.1374,245.05042,-0.0,1.0691416,1.0815839,nan,2,0,0,0
21744296000,21744296000,41.606613099139494,-86.35538939373444,250.10703,249.97739,-0.0,1.0636239,1.0811441,nan,2,0,0,0
21745296000,21745296000,41.60658949561097,-86.35533260334951,255.3271,255.16116,-0.0,1.065268,1.0826224,nan,2,0,0,0
21746296000,21746296000,41.60656497189203,-86.35527409544738,260.68732,260.48517,-0.0,1.0668142,1.0836352,nan,2,0,0,0
21747296000,21747296000,41.60653979402734,-86.35521421721397,266.1684,265.93393,-0.0,1.0688374,1.084436,nan,2,0,0,0
21748296000,21748296000,41.60651408032147,-86.35515324880238,271.72537,271.44534,-0.0,1.0633626,1.0817627,nan,2,0,0,0
21749296000,21749296000,41.606487976602786,-86.35509168472144,277.31192,276.99515,-0.0,1.0646253,1.08229,nan,2,0,0,0
21750296000,21750296000,41.60646166067977,-86.35502939967,282.9322,282.58194,-0.0,1.066335,1.0828506,nan,2,0,0,0
21751296000,21751296000,41.6064351415924,-86.35496664806033,288.5679,288.18607,-0.0,1.0680908,1.0833424,nan,2,0,0,0
21752296000,21752296000,41.60640856879787,-86.35490378519525,294.22144,293.80905,-0.0,1.0628811,1.0827072,nan,2,0,0,0
21753296000,21753296000,41.6063819274228,-86.35484060194925,299.88495,299.44922,-0.0,1.0643115,1.0829463,nan,2,0,0,0
21754296000,21754296000,41.60635526244435,-86.35477737760041,305.5588,305.09973,-0.0,1.0657115,1.0831661,nan,2,0,0,0
21755296000,21755296000,41.60632859451523,-86.35471415367091,311.2159,310.73672,-0.0,1.0675753,1.0833625,nan,2,0,0,0
21756296000,21756296000,41.60630176373265,-86.35465085005485,316.8895,316.3965,-0.0,1.0695186,1.0835738,nan,2,0,0,0
21757296000,21757296000,41.606274960325,-86.35458741609717,322.5553,322.04666,-0.0,1.0637372,1.0817932,nan,2,0,0,0
21758296000,21758296000,41.60624814683033,-86.35452394071596,328.23325,327.71484,-0.0,1.0652755,1.0820712,nan,2,0,0,0
21759296000,21759296000,41.60622123048239,-86.35446025488741,333.8998,333.37265,-0.0,1.0668149,1.0823945,nan,2,0,0,0
21760296000,21760296000,41.60619429238236,-86.35439647432236,339.57755,339.0453,-0.0,1.068864,1.0828551,nan,2,0,0,0
21761296000,21761296000,41.60616728920177,-86.35433265857527,345.27173,344.73654,-0.0,1.0633827,1.0812972,nan,2,0,0,0
21762296000,21762296000,41.60614028746131,-86.35426886417034,350.96008,350.4227,-0.0,1.0646533,1.0816131,nan,2,0,0,0
21763296000,21763296000,41.606113384831055,-86.35420506834845,356.66318,356.12268,-0.0,1.0663475,1.0819771,nan,2,0,0,0
21764296000,21764296000,41.60608646806217,-86.3541410018829,362.36896,361.82434,-0.0,1.0680561,1.0822974,nan,2,0,0,0
21765296000,21765296000,41.606059528065664,-86.35407686527365,368.0741,367.5246,-0.0,1.0628515,1.0807959,nan,2,0,0,0
21766296000,21766296000,41.606032573282874,-86.35401280882625,373.77988,373.22797,-0.0,1.0642555,1.0810843,nan,2,0,0,0
21767296000,21767296000,41.60600558532467,-86.35394876096709,379.48523,378.92694,-0.0,1.0656351,1.0824919,nan,2,0,0,0
21768296000,21768296000,41.605978683165,-86.35388467865684,385.19672,384.63324,-0.0,1.0670546,1.0827922,nan,2,0,0,0
21769296000,21769296000,41.60595169458353,-86.35382042077079,390.9072,390.33948,-0.0,1.069011,1.0820873,nan,2,0,0,0
21770296000,21770296000,41.60592470075037,-86.35375607925212,396.6107,396.03738,-0.0,1.0634527,1.0806355,nan,2,0,0,0
21771296000,21771296000,41.60589772039881,-86.35369178311707,402.3263,401.74548,-0.0,1.0646803,1.0810677,nan,2,0,0,0
21772296000,21772296000,41.605870762858515,-86.35362742995949,408.04446,407.45554,-0.0,1.0663261,1.0816097,nan,2,0,0,0
21773296000,21773296000,41.605843868475176,-86.35356310383152,413.7696,413.17227,-0.0,1.0680456,1.0821911,nan,2,0,0,0
21774296000,21774296000,41.60581717337725,-86.35349883739558,419.4948,418.8874,-0.0,1.0628592,1.0808089,nan,2,0,0,0
21775296000,21775296000,41.6057902866788,-86.35343468755615,425.2228,424.60458,-0.0,1.0642543,1.0811576,nan,2,0,0,0
21776296000,21776296000,41.605763452845366,-86.35337054933026,430.93494,430.30353,-0.0,1.065628,1.0814435,nan,2,0,0,0
21777296000,21777296000,41.60573661026443,-86.35330650970965,436.65076,436.00757,-0.0,1.0674676,1.0829667,nan,2,0,0,0
21778296000,21778296000,41.60570973395934,-86.35324248299013,442.3526,441.70178,-0.0,1.0693913,1.0833024,nan,2,0,0,0
21779296000,21779296000,41.60568291189035,-86.35317840401801,448.08005,447.4163,-0.0,1.0636951,1.0806009,nan,2,0,0,0
21780296000,21780296000,41.60565617603589,-86.35311450384656,453.79303,453.11816,-0.0,1.0652184,1.0821476,nan,2,0,0,0
21781296000,21781296000,41.60562945043962,-86.3530506775036,459.49872,458.81308,-0.0,1.0667695,1.0825101,nan,2,0,0,0
21782296000,21782296000,41.605602838429455,-86.35298679046308,465.20294,464.509,-0.0,1.0687991,1.0828815,nan,2,0,0,0
21783296000,21783296000,41.6055762015472,-86.35292295137553,470.8979,470.19516,-0.0,1.0633404,1.0812883,nan,2,0,0,0
21784296000,21784296000,41.60554954741248,-86.35285930852645,476.5769,475.86862,-0.0,1.0646014,1.0814981,nan,2,0,0,0
21785296000,21785296000,41.60552302429482,-86.35279573674721,482.23523,481.52478,-0.0,1.0662673,1.0828079,nan,2,0,0,0
21786296000,21786296000,41.60549645009674,-86.35273226595953,487.91382,487.20462,-0.0,1.0679728,1.0830126,nan,2,0,0,0
21787296000,21787296000,41.60546990124987,-86.35266877081457,493.59808,492.8899,-0.0,1.0627987,1.081352,nan,2,0,0,0
21788296000,21788296000,41.60544327030797,-86.35260530765846,499.28723,498.58362,-0.0,1.0642041,1.0815245,nan,2,0,0,0
21789296000,21789296000,41.605416797550724,-86.35254178582032,504.9721,504.27094,-0.0,1.0655873,1.0827636,nan,2,0,0,0
21790296000,21790296000,41.6053903025253,-86.3524781653008,510.65955,509.96222,-0.0,1.067433,1.082929,nan,2,0,0,0
21791296000,21791296000,41.60536370043047,-86.35241460356566,516.3418,515.64886,-0.0,1.0693616,1.083208,nan,2,0,0,0
21792296000,21792296000,41.60533720052933,-86.35235088735281,522.0326,521.34607,-0.0,1.063677,1.0816103,nan,2,0,0,0
21793296000,21793296000,41.60531085030611,-86.35228717045051,527.72015,527.038,-0.0,1.0652204,1.0819217,nan,2,0,0,0
21794296000,21794296000,41.605284475622454,-86.35222348443311,533.41455,532.73645,-0.0,1.0667456,1.0822419,nan,2,0,0,0
21795296000,21795296000,41.60525810488645,-86.3521599074791,539.1082,538.4333,-0.0,1.0687792,1.082653,nan,2,0,0,0
21796296000,21796296000,41.605231717228214,-86.35209605236004,544.817,544.1489,-0.0,1.0633295,1.0810909,nan,2,0,0,0
21797296000,21797296000,41.60520537852698,-86.35203228794987,550.52106,549.8537,-0.0,1.0645791,1.0814961,nan,2,0,0,0
21798296000,21798296000,41.605179059004676,-86.35196860507398,556.2216,555.55634,-0.0,1.0662556,1.0818708,nan,2,0,0,0
21799296000,21799296000,41.60515278225901,-86.35190484113136,561.9442,561.27966,-0.0,1.0679942,1.0823252,nan,2,0,0,0
21800296000,21800296000,41.605126624176286,-86.35184101740599,567.6579,566.98987,-0.0,1.0628129,1.0808545,nan,2,0,0,0
21801296000,21801296000,41.60510034366112,-86.35177743782215,573.37274,572.7012,-0.0,1.0642178,1.0811867,nan,2,0,0,0
21802296000,21802296000,41.60507403072242,-86.35171376065911,579.07526,578.3993,-0.0,1.0656393,1.0815845,nan,2,0,0,0
21803296000,21803296000,41.605047773325246,-86.35165009235357,584.7962,584.11444,-0.0,1.0674956,1.0820216,nan,2,0,0,0
21804296000,21804296000,41.60502139087848,-86.3515863683174,590.5014,589.81464,-0.0,1.0694085,1.0824448,nan,2,0,0,0
21805296000,21805296000,41.6049951088519,-86.35152282087363,596.2054,595.5115,-0.0,1.0637026,1.080907,nan,2,0,0,0
21806296000,21806296000,41.60496882308448,-86.35145925182647,601.93317,601.23126,-0.0,1.0652217,1.0822968,nan,2,0,0,0
21807296000,21807296000,41.604950941955394,-86.35141126021874,605.0482,604.3635,-0.0,1.066533,1.0813777,nan,2,0,0,0
21808296000,21808296000,41.60494527203887,-86.35140289279698,606.1788,605.51935,-0.0,1.0685191,1.0807738,nan,2,0,0,0
21809296000,21809296000,41.60494706005264,-86.3514094608711,606.2874,605.67413,-0.0,1.0631888,1.0796703,nan,2,0,0,0
21810296000,21810296000,41.6049544680535,-86.35142879718876,605.63605,605.06476,-0.0,1.0646752,1.0781559,nan,2,0,0,0
21811296000,21811296000,41.60496189033677,-86.35144471672876,604.7043,604.17725,-0.0,1.0665737,1.079202,nan,2,0,0,0
21812296000,21812296000,41.604966416750436,-86.35145311175792,603.7322,603.2502,-0.0,1.0685081,1.0788066,nan,2,0,0,0
21813296000,21813296000,41.60496805448404,-86.35145543355183,602.7716,602.33655,-0.0,1.0631663,1.07825,nan,2,0,0,0
21814296000,21814296000,41.604967906960844,-86.35145527536677,601.78485,601.3934,-0.0,1.0646684,1.0787032,nan,2,0,0,0
21815296000,21815296000,41.60496730192837,-86.35145513996767,600.78143,600.43427,-0.0,1.0660733,1.081177,nan,2,0,0,0
21816296000,21816296000,41.60496711215077,-86.35145528973246,599.79236,599.48773,-0.0,1.0678841,1.0825094,nan,2,0,0,0
21817296000,21817296000,41.6049671525047,-86.35145555730249,598.80225,598.5299,-0.0,1.0697304,1.0836124,nan,2,0,0,0
21818296000,21818296000,41.60496734697311,-86.3514561071169,597.7873,597.5584,-0.0,1.063844,1.0821747,nan,2,0,0,0
21819296000,21819296000,41.60496754527113,-86.35145630310386,596.79425,596.5988,-0.0,1.0653273,1.0829057,nan,2,0,0,0
21820296000,21820296000,41.60496778006276,-86.35145626565063,595.80286,595.63824,-0.0,1.0668497,1.0836148,nan,2,0,0,0
21821296000,21821296000,41.604967801604154,-86.3514561812299,594.78955,594.64844,-0.0,1.0688736,1.0842342,nan,2,0,0,0
21822296000,21822296000,41.60496784290903,-86.35145618086021,593.7914,593.67975,-0.0,1.0633869,1.0835693,nan,2,0,0,0
21823296000,21823296000,41.604967890115574,-86.35145620691706,592.78076,592.6897,-0.0,1.0646547,1.0829095,nan,2,0,0,0
21824296000,21824296000,41.60496786733288,-86.35145611662652,591.76514,591.69037,-0.0,1.0663551,1.0845319,nan,2,0,0,0
21825296000,21825296000,41.6049676737032,-86.35145599478146,590.7548,590.69366,-0.0,1.0680735,1.0849497,nan,2,0,0,0
21826296000,21826296000,41.604967519190204,-86.35145607847667,589.74603,589.6949,-0.0,1.0628647,1.0830564,nan,2,0,0,0
21827296000,21827296000,41.6049674423517,-86.35145629650376,588.7278,588.68256,-0.0,1.0642737,1.0834053,nan,2,0,0,0
21828296000,21828296000,41.60496745127783,-86.3514564763531,587.73724,587.6962,-0.0,1.0656585,1.0837752,nan,2,0,0,0
21829296000,21829296000,41.604967522362045,-86.35145651452076,586.7329,586.69305,-0.0,1.0675032,1.0842378,nan,2,0,0,0
21830296000,21830296000,41.6049674822933,-86.35145654572179,585.7312,585.6905,-0.0,1.0694287,1.0847363,nan,2,0,0,0
21831296000,21831296000,41.604967516871575,-86.35145647414664,584.73486,584.69366,-0.0,1.0636824,1.0828955,nan,2,0,0,0
21832296000,21832296000,41.604967528805126,-86.35145633283521,583.74725,583.7048,-0.0,1.0652286,1.0834547,nan,2,0,0,0
21833296000,21833296000,41.60496761333269,-86.3514562381333,582.7523,582.7086,-0.0,1.066776,1.0840122,nan,2,0,0,0
21834296000,21834296000,41.60496776153272,-86.35145613792167,581.7627,581.71796,-0.0,1.0688711,1.0845846,nan,2,0,0,0
21835296000,21835296000,41.60496769264294,-86.35145606745431,580.77423,580.729,-0.0,1.0633808,1.0827626,nan,2,0,0,0
21836296000,21836296000,41.60496766903982,-86.35145605827981,579.7785,579.73346,-0.0,1.0646144,1.0832129,nan,2,0,0,0
21837296000,21837296000,41.604967651061166,-86.35145599992148,578.7744,578.7285,-0.0,1.066277,1.0837836,nan,2,0,0,0
21838296000,21838296000,41.60496767370984,-86.35145617940292,577.75507,577.7073,-0.0,1.0679824,1.0842681,nan,2,0,0,0
21839296000,21839296000,41.604967789946855,-86.35145637282587,576.755,576.70496,-0.0,1.0628059,1.0824026,nan,2,0,0,0
21840296000,21840296000,41.60496777416944,-86.35145647082673,575.75287,575.6994,-0.0,1.0642112,1.0838928,nan,2,0,0,0
21841296000,21841296000,41.604967642708694,-86.35145650900742,574.7398,574.6824,-0.0,1.065633,1.0831254,nan,2,0,0,0
21842296000,21842296000,41.60496760304577,-86.35145637760941,573.7483,573.6869,-0.0,1.067469,1.0836836,nan,2,0,0,0
21843296000,21843296000,41.60496787694078,-86.35145617535241,572.7623,572.69666,-0.0,1.069383,1.0853393,nan,2,0,0,0
21844296000,21844296000,41.60496803378823,-86.35145613643601,571.7534,571.67834,-0.0,1.0636533,1.0823748,nan,2,0,0,0
21845296000,21845296000,41.604967896562115,-86.35145612176322,570.763,570.68,-0.0,1.0651808,1.0828786,nan,2,0,0,0
21846296000,21846296000,41.604967779231515,-86.35145604579334,569.7714,569.6795,-0.0,1.0667121,1.0834532,nan,2,0,0,0
21847296000,21847296000,41.604967663408274,-86.35145591109686,568.7632,568.6638,-0.0,1.0687488,1.0840613,nan,2,0,0,0
21848296000,21848296000,41.60496762210435,-86.35145593826051,567.7717,567.6629,-0.0,1.0633123,1.0833577,nan,2,0,0,0
21849296000,21849296000,41.60496758025797,-86.35145614490709,566.7769,566.66296,-0.0,1.0645626,1.083667,nan,2,0,0,0
21850296000,21850296000,41.60496750231792,-86.35145625832767,565.7847,565.6662,-0.0,1.0662373,1.0840107,nan,2,0,0,0
