timestamp,timestamp_sample,output_tracking_error[0],output_tracking_error[1],output_tracking_error[2],control_mode_flags,filter_fault_flags,pos_horiz_accuracy,pos_vert_accuracy,mag_test_ratio,vel_test_ratio,pos_test_ratio,hgt_test_ratio,tas_test_ratio,hagl_test_ratio,beta_test_ratio,time_slip,accel_device_id,gyro_device_id,baro_device_id,mag_device_id,gps_check_fail_flags,innovation_check_flags,solution_status_flags,reset_count_vel_ne,reset_count_vel_d,reset_count_pos_ne,reset_count_pod_d,reset_count_quat,pre_flt_fail_innov_heading,pre_flt_fail_innov_vel_horiz,pre_flt_fail_innov_vel_vert,pre_flt_fail_innov_height,pre_flt_fail_mag_field_disturbed,health_flags,timeout_flags
21726360000,21726280000,0.000231795,0.0049829725,0.0016524254,67109399,0,0.049090695,0.05540983,0.01835995,0.007973325,0.0004681861,0.0001865698,0.0,0.0,0.0,0.0,1310996,1310996,6620172,197388,0,0,895,2,1,2,0,47,0,0,0,0,0,0,0
21726368000,21726288000,0.00021771892,0.00476741,0.0016285566,67109399,0,0.049092,0.055410445,0.01835995,0.007973325,0.0004681861,0.0001865698,0.0,0.0,0.0,0.0,1310996,1310996,6620172,197388,0,0,895,2,1,2,0,47,0,0,0,0,0,0,0
21726560000,21726480000,0.00023674479,0.0045740767,0.0014397335,67109399,0,0.04910544,0.055388577,0.014320589,0.007973325,0.0004681861,0.00010549041,0.0,0.0,0.0,0.0,1310996,1310996,6620172,197388,0,0,895,2,1,2,0,47,0,0,0,0,0,0,0
21726760000,21726680000,0.00020480188,0.004080105,0.0011433497,67109399,0,0.049090795,0.05537438,0.009477693,0.0021504504,0.00039565552,0.00019877533,0.0,0.0,0.0,0.0,1310996,1310996,6620172,197388,0,0,895,2,1,2,0,47,0,0,0,0,0,0,0
21726960000,21726880000,0.00018898875,0.004353098,0.0015452559,67109399,0,0.04907637,0.05536029,0.008008834,0.007988033,0.0019827338,0.0023687396,0.0,0.0,0.0,0.0,1310996,1310996,6620172,197388,0,0,895,2,1,2,0,47,0,0,0,0,0,0,0
21727152000,21727072000,0.00011787971,0.0013306079,0.0013066431,67109399,0,0.049061727,0.055339172,0.023681251,0.00023445046,0.0019582994,0.0017636955,0.0,0.0,0.0,0.0,1310996,1310996,6620172,197388,0,0,895,2,1,2,0,47,0,0,0,0,0,0,0
21727360000,21727280000,0.00016772789,0.0023223362,0.0010904043,67109399,0,0.04904806,0.055325445,0.0037447566,0.0012374395,0.001966068,0.0062989127,0.0,0.0,0.0,0.0,1310996,1310996,6620172,197388,0,0,895,2,1,2,0,47,0,0,0,0,0,0,0
21727560000,21727480000,0.0002249074,0.0023492374,0.00105988,67109399,0,0.049034126,0.0553047,0.062221482,0.004109442,0.0019481858,0.0026817243,0.0,0.0,0.0,0.0,1310996,1310996,6620172,197388,0,0,895,2,1,2,0,47,0,0,0,0,0,0,0
21727752000,21727672000,0.00016094444,0.0034356772,0.0011542756,67109399,0,0.04904967,0.055290863,0.006381618,0.004109442,0.0019481858,0.003148149,0.0,0.0,0.0,0.0,1310996,1310996,6620172,197388,0,0,895,2,1,2,0,47,0,0,0,0,0,0,0
21727952000,21727872000,0.00019034397,0.002146718,0.00089573796,67109399,0,0.049035966,0.055277165,0.015372794,0.014155987,0.0019468163,0.0009389523,0.0,0.0,0.0,0.0,1310996,1310996,6620172,197388,0,0,895,2,1,2,0,47,0,0,0,0,0,0,0
21728152000,21728072000,8.5690925e-05,0.0010321073,0.00053441233,67109399,0,0.049022317,0.05525661,0.0053255926,0.00535689,0.0004194838,0.0016425127,0.0,0.0,0.0,0.0,1310996,1310996,6620172,197388,0,0,895,2,1,2,0,47,0,0,0,0,0,0,0
21728352000,21728272000,0.00018270247,0.0025807216,0.0005358556,67109399,0,0.049008697,0.055242974,0.019390335,0.012721462,0.0012559498,0.0010871622,0.0,0.0,0.0,0.0,1310996,1310996,6620172,197388,0,0,895,2,1,2,0,47,0,0,0,0,0,0,0
21728560000,21728480000,0.0002282852,0.004391197,0.00079802366,67109399,0,0.04899514,0.055222504,0.023387425,0.00011498957,0.0018801368,0.0013835819,0.0,0.0,0.0,0.0,1310996,1310996,6620172,197388,0,0,895,2,1,2,0,47,0,0,0,0,0,0,0
21728752000,21728672000,8.8243614e-05,0.0020413664,0.0009289665,67109399,0,0.049013417,0.055224434,0.0016801532,0.0066370205,0.0018758248,0.00017000534,0.0,0.0,0.0,0.0,1310996,1310996,6620172,197388,0,0,895,2,1,2,0,47,0,0,0,0,0,0,0
21728960000,21728880000,9.807896e-05,0.0013192552,0.0008122344,67109399,0,0.04899993,0.055204015,0.0221526,0.009056175,0.0012211152,0.009202956,0.0,0.0,0.0,0.0,1310996,1310996,6620172,197388,0,0,895,2,1,2,0,47,0,0,0,0,0,0,0
21729160000,21729080000,3.8347513e-05,0.0011146624,0.0006608137,67109399,0,0.04900994,0.05518769,0.0065352474,0.009056175,0.0012211152,0.0013478375,0.0,0.0,0.0,0.0,1310996,1310996,6620172,197388,0,0,895,2,1,2,0,47,0,0,0,0,0,0,0
21729360000,21729280000,3.700466e-05,0.002466733,0.0009591165,67109399,0,0.048991065,0.055171624,0.014147123,0.007147654,0.0012440135,0.0043791644,0.0,0.0,0.0,0.0,1310996,1310996,6620172,197388,0,0,895,2,1,2,0,47,0,0,0,0,0,0,0
21729560000,21729480000,8.917874e-05,0.002536991,0.0010865461,67109399,0,0.048972704,0.055148967,0.006078943,0.013168177,0.0012677701,0.00032170254,0.0,0.0,0.0,0.0,1310996,1310996,6620172,197388,0,0,895,2,1,2,0,47,0,0,0,0,0,0,0
21729760000,21729680000,7.41125e-05,0.001580771,0.0007214766,67109399,0,0.048954878,0.055133406,0.01227444,0.0005046014,0.0004102157,0.0007523829,0.0,0.0,0.0,0.0,1310996,1310996,6620172,197388,0,0,895,2,1,2,0,47,0,0,0,0,0,0,0
21729952000,21729872000,0.00011762735,0.0026405964,0.0009597061,67109399,0,0.0489339,0.055116393,0.013503324,0.0066283806,0.0004093104,0.004054847,0.0,0.0,0.0,0.0,1310996,1310996,6620172,197388,0,0,895,2,1,2,0,47,0,0,0,0,0,0,0
21730160000,21730080000,7.842611e-05,0.004580713,0.0014347297,67109399,0,0.048920557,0.05509613,0.0008374075,0.017593028,0.0004053313,0.0066563664,0.0,0.0,0.0,0.0,1310996,1310996,6620172,197388,0,0,895,2,1,2,0,47,0,0,0,0,0,0,0
21730352000,21730272000,0.00011514666,0.0029370454,0.0013381032,67109399,0,0.048930485,0.055079903,0.040205188,0.017593028,0.0004053313,0.00044027052,0.0,0.0,0.0,0.0,1310996,1310996,6620172,197388,0,0,895,2,1,2,0,47,0,0,0,0,0,0,0
21730560000,21730480000,0.00016982347,0.004349747,0.0013234775,67109399,0,0.048917107,0.055059694,0.008568591,0.015144207,0.0003929407,0.0013417355,0.0,0.0,0.0,0.0,1310996,1310996,6620172,197388,0,0,895,2,1,2,0,47,0,0,0,0,0,0,0
21730760000,21730680000,0.00010407509,0.0035984959,0.001459453,67109399,0,0.048901305,0.055045173,0.0053925784,0.008296917,0.0018941982,0.000881413,0.0,0.0,0.0,0.0,1310996,1310996,6620172,197388,0,0,895,2,1,2,0,47,0,0,0,0,0,0,0
21730960000,21730880000,9.836887e-05,0.0030287688,0.0013634696,67109399,0,0.048885863,0.055024017,0.00316717,0.01365951,0.0018480686,0.0018273412,0.0,0.0,0.0,0.0,1310996,1310996,6620172,197388,0,0,895,2,1,2,0,47,0,0,0,0,0,0,0
21731160000,21731080000,5.3440814e-05,0.0032218366,0.0012816871,67109399,0,0.04887074,0.055009827,0.0081966575,0.0067611365,0.00035579383,0.0015222031,0.0,0.0,0.0,0.0,1310996,1310996,6620172,197388,0,0,895,2,1,2,0,47,0,0,0,0,0,0,0
21731352000,21731272000,9.71186e-05,0.0037699526,0.0013001701,67109399,0,0.048854616,0.054995164,0.0075577297,0.012544407,0.00035226744,0.0030156365,0.0,0.0,0.0,0.0,1310996,1310996,6620172,197388,0,0,895,2,1,2,0,47,0,0,0,0,0,0,0
21731560000,21731480000,0.00020497554,0.005610302,0.0016871069,67109399,0,0.04884137,0.05497509,0.015438427,0.018200375,0.00040910838,0.00044811715,0.0,0.0,0.0,0.0,1310996,1310996,6620172,197388,0,0,895,2,1,2,0,47,0,0,0,0,0,0,0
21731760000,21731680000,0.0001306749,0.0022019101,0.0011615041,67109399,0,0.04885621,0.054954533,0.0062708766,0.018200375,0.00040910838,0.00091018353,0.0,0.0,0.0,0.0,1310996,1310996,6620172,197388,0,0,895,2,1,2,0,47,0,0,0,0,0,0,0
21731960000,21731880000,0.00019253786,0.0017953067,0.00059420447,67109399,0,0.048842084,0.05494087,0.03247951,0.0037964208,0.00040845334,0.0039179744,0.0,0.0,0.0,0.0,1310996,1310996,6620172,197388,0,0,895,2,1,2,0,47,0,0,0,0,0,0,0
21732160000,21732080000,0.00021262305,0.0042015472,0.00081978505,67109399,0,0.04882818,0.05492731,6.987299e-05,0.02266415,0.00043909583,0.0012153218,0.0,0.0,0.0,0.0,1310996,1310996,6620172,197388,0,0,895,2,1,2,0,47,0,0,0,0,0,0,0
21732360000,21732280000,0.00016019719,0.005700263,0.0014040449,67109399,0,0.04881448,0.054907084,0.008423209,0.008244864,0.0004263005,0.0072439816,0.0,0.0,0.0,0.0,1310996,1310996,6620172,197388,0,0,895,2,1,2,0,47,0,0,0,0,0,0,0
21732560000,21732480000,0.00020618705,0.0088096345,0.0021671262,67109399,0,0.04880092,0.054893702,0.0072001237,0.015781775,0.0019666636,0.0016590803,0.0,0.0,0.0,0.0,1310996,1310996,6620172,197388,0,0,895,2,1,2,0,47,0,0,0,0,0,0,0
21732760000,21732680000,0.00025814434,0.009054925,0.002735103,67109399,0,0.048787482,0.054880396,0.013455899,0.007397443,0.0012295076,0.00029031723,0.0,0.0,0.0,0.0,1310996,1310996,6620172,197388,0,0,895,2,1,2,0,47,0,0,0,0,0,0,0
21732960000,21732880000,0.00015506442,0.006820948,0.002611425,67109399,0,0.048803236,0.054860402,0.0018951163,0.007397443,0.0012295076,0.0009075685,0.0,0.0,0.0,0.0,1310996,1310996,6620172,197388,0,0,895,2,1,2,0,47,0,0,0,0,0,0,0
21733160000,21733080000,6.800154e-05,0.00235537,0.0017288135,1049239,0,0.048860148,0.054881062,0.009611511,0.0067857364,0.0019246326,1.1754944e-38,0.0,0.0,0.0,0.0,1310996,1310996,6620172,197388,0,0,895,2,1,2,0,47,0,0,0,0,0,0,0
21733360000,21733280000,3.837283e-05,0.00071449956,0.0007415529,1049239,0,0.04934852,0.05510762,0.011784283,0.013293144,0.0019351699,0.002222276,0.0,0.0,0.0,0.0,1310996,1310996,6620172,197388,0,0,895,2,1,2,0,47,0,0,0,0,0,0,0
21733560000,21733480000,8.494403e-05,0.0011174384,0.00025923736,1049239,0,0.050714895,0.05579863,0.005178841,0.010133376,0.0019557835,1.1754944e-38,0.0,0.0,0.0,0.0,1310996,1310996,6620172,197388,0,0,895,2,1,2,0,47,0,0,0,0,0,0,0
21733760000,21733680000,0.00010629322,0.0015727332,0.0005782303,1049239,0,0.053405855,0.05723015,0.024490174,0.012789491,0.0009380082,0.0042457427,0.0,0.0,0.0,0.0,1310996,1310996,6620172,197388,0,0,895,2,1,2,0,47,0,0,0,0,0,0,0
21733960000,21733880000,0.00011187095,0.0012761656,0.00057948945,1049239,0,0.057769164,0.059675246,0.008895529,0.030230997,0.0013322567,1.1754944e-38,0.0,0.0,0.0,0.0,1310996,1310996,6620172,197388,0,0,895,2,1,2,0,47,0,0,0,0,0,0,0
21734152000,21734072000,2.0074562e-05,0.0011377046,0.0006071131,1049239,0,0.06368155,0.063202664,0.00280697,0.008793307,0.0017917382,0.00029204995,0.0,0.0,0.0,0.0,1310996,1310996,6620172,197388,0,0,895,2,1,2,0,47,0,0,0,0,0,0,0
21734360000,21734280000,6.0090995e-05,0.0013003811,0.00068260345,1049239,0,0.07258557,0.06861118,0.014394432,0.008793307,0.0017917382,0.00043326692,0.0,0.0,0.0,0.0,1310996,1310996,6620172,197388,0,0,895,2,1,2,0,47,0,0,0,0,0,0,0
21734560000,21734480000,5.3034884e-05,0.0014651751,0.0008562717,1049239,0,0.08269887,0.07521276,0.0029758532,0.014276111,0.0015993379,0.0009868032,0.0,0.0,0.0,0.0,1310996,1310996,6620172,197388,0,0,895,2,1,2,0,47,0,0,0,0,0,0,0
21734760000,21734680000,3.9089166e-05,0.002092377,0.0016463962,1049239,0,0.09441241,0.08319843,0.016213711,0.04201338,0.003679256,0.0034806859,0.0,0.0,0.0,0.0,1310996,1310996,6620172,197388,0,0,895,2,1,2,0,47,0,0,0,0,0,0,0
21734960000,21734880000,8.081333e-05,0.0021842292,0.0019298347,663,0,0.10741649,0.09241251,0.020504937,0.031717326,0.0040083057,0.0054110936,0.0,0.0,0.0,0.0,1310996,1310996,6620172,197388,0,0,895,2,1,2,0,47,0,0,0,0,0,0,0
21735152000,21735072000,5.269841e-05,0.00095948676,0.0010099611,663,0,0.120584525,0.10227507,0.012883301,0.01351324,0.0038866578,0.0037172541,0.0,0.0,0.0,0.0,1310996,1310996,6620172,197388,0,0,895,2,1,2,0,47,0,0,0,0,0,0,0
21735360000,21735280000,0.00010430107,0.0011824666,0.0021535126,663,0,0.13549863,0.11394388,0.04566646,0.042472802,0.00527625,0.0018954534,0.0,0.0,0.0,0.0,1310996,1310996,6620172,197388,0,0,895,2,1,2,0,47,0,0,0,0,0,0,0
21735552000,21735472000,0.0074136555,0.000424862,0.0010474321,8389271,0,0.15352032,0.12684512,0.08843574,0.042472802,0.00527625,0.00055245066,0.0,0.0,0.0,0.0,1310996,1310996,6620172,197388,0,0,895,2,1,2,0,48,0,0,0,0,0,0,0
21735760000,21735680000,0.012009691,0.0014155881,0.0030232565,8389271,0,0.16846487,0.14020304,0.056356706,0.024937911,0.00586343,0.00420909,0.0,0.0,0.0,0.0,1310996,1310996,6620172,197388,0,0,895,2,1,2,0,48,0,0,0,0,0,0,0
21735960000,21735880000,0.008670687,0.0017704209,0.003835787,8389271,0,0.1818517,0.15323631,0.056146737,0.032915678,0.004826571,0.0042927894,0.0,0.0,0.0,0.0,1310996,1310996,6620172,197388,0,0,895,2,1,2,0,48,0,0,0,0,0,0,0
21736160000,21736080000,0.0032606914,0.0035323787,0.0069742086,8389271,0,0.1944984,0.16661647,0.047985565,0.050043363,0.006022142,0.00041284168,0.0,0.0,0.0,0.0,1310996,1310996,6620172,197388,0,0,895,2,1,2,0,48,0,0,0,0,0,0,0
21736360000,21736280000,0.003225698,0.001717356,0.0038003414,8389271,0,0.20645235,0.17985766,0.037244506,0.019182753,0.006553876,0.0046186107,0.0,0.0,0.0,0.0,1310996,1310996,6620172,197388,0,0,895,2,1,2,0,48,0,0,0,0,0,0,0
21736552000,21736472000,0.0018918033,0.0029802117,0.0062344205,8389271,0,0.21699734,0.19252741,0.045020644,0.03778299,0.006495268,0.004681379,0.0,0.0,0.0,0.0,1310996,1310996,6620172,197388,0,0,895,2,1,2,0,48,0,0,0,0,0,0,0
21736760000,21736680000,0.0031526121,0.0023440975,0.0047671185,8389271,0,0.22842738,0.20649374,0.014733774,0.020604713,0.006381714,0.0011350876,0.0,0.0,0.0,0.0,1310996,1310996,6620172,197388,0,0,895,2,1,2,0,48,0,0,0,0,0,0,0
21736960000,21736880000,0.0028792042,0.0007137328,0.0015131823,8389271,0,0.24846168,0.22394378,0.03357947,0.020604713,0.006381714,0.0049685943,0.0,0.0,0.0,0.0,1310996,1310996,6620172,197388,0,0,895,2,1,2,0,48,0,0,0,0,0,0,0
21737160000,21737080000,0.0017703269,0.0016802339,0.003565801,8389271,0,0.2579614,0.23672684,0.036869463,0.024579434,0.0062410817,0.0019157118,0.0,0.0,0.0,0.0,1310996,1310996,6620172,197388,0,0,895,2,1,2,0,48,0,0,0,0,0,0,0
21737360000,21737280000,0.0018838575,0.0013523772,0.002565841,8389271,0,0.26673168,0.24845669,0.040826272,0.02091584,0.006084551,0.0011411058,0.0,0.0,0.0,0.0,1310996,1310996,6620172,197388,0,0,895,2,1,2,0,48,0,0,0,0,0,0,0
21737560000,21737480000,0.0010569362,0.0012772004,0.0020860387,8389271,0,0.27476305,0.26026598,0.025528062,0.008222189,0.0073111346,0.0041295476,0.0,0.0,0.0,0.0,1310996,1310996,6620172,197388,0,0,895,2,1,2,0,48,0,0,0,0,0,0,0
21737752000,21737672000,0.0015020856,0.0018737825,0.0025489626,8389271,0,0.281236,0.2707573,0.04551177,0.014516816,0.0071001095,0.005194729,0.0,0.0,0.0,0.0,1310996,1310996,6620172,197388,0,0,895,2,1,2,0,48,0,0,0,0,0,0,0
21737960000,21737880000,0.0012985051,0.0017076086,0.0026593378,8389271,0,0.28872472,0.2814593,0.029132206,0.007106977,0.0072193346,0.0024014323,0.0,0.0,0.0,0.0,1310996,1310996,6620172,197388,0,0,895,2,1,2,0,48,0,0,0,0,0,0,0
21738152000,21738072000,0.0013287575,0.0011841663,0.0016288818,8389271,0,0.31039542,0.2983653,0.024325296,0.007106977,0.0072193346,0.0039488235,0.0,0.0,0.0,0.0,1310996,1310996,6620172,197388,0,0,831,2,1,2,0,48,0,0,0,0,0,0,0
21738352000,21738272000,0.00012395167,0.0005589553,0.0011224753,8389271,0,0.31480774,0.3078636,0.022063445,0.008809828,0.0074470923,0.004259043,0.0,0.0,0.0,0.0,1310996,1310996,6620172,197388,0,0,831,2,1,2,0,48,0,0,0,0,0,0,0
21738560000,21738480000,0.0009951162,0.002372807,0.004371759,8389271,0,0.31951407,0.31633684,0.025772708,0.022225102,0.007121939,0.0039790072,0.0,0.0,0.0,0.0,1310996,1310996,6620172,197388,0,0,831,2,1,2,0,48,0,0,0,0,0,0,0
21738760000,21738680000,0.0002497465,0.0014989346,0.0018273133,8389271,0,0.32279786,0.3246261,0.004000287,0.009516774,0.0075832084,0.00501685,0.0,0.0,0.0,0.0,1310996,1310996,6620172,197388,0,0,831,2,1,2,0,48,0,0,0,0,0,0,0
21738960000,21738880000,0.0005756002,0.0038349286,0.0071864803,8389271,0,0.32565016,0.33091262,0.000803278,0.026583731,0.007167928,0.014991125,0.0,0.0,0.0,0.0,1310996,1310996,6620172,197388,0,0,831,2,1,2,0,48,0,0,0,0,0,0,0
21739160000,21739080000,0.00023569187,0.0033521282,0.006081475,8389271,0,0.3281893,0.33816823,0.007891405,0.015479178,0.0076402673,0.0044828546,0.0,0.0,0.0,0.0,1310996,1310996,6620172,197388,0,0,831,2,1,2,0,48,0,0,0,0,0,0,0
21739352000,21739272000,0.0009015236,0.006582214,0.006428121,8389351,0,0.32953042,0.3441781,0.022828564,0.02368946,0.0073099053,0.005878756,0.0,0.0,0.0,0.0,1310996,1310996,6620172,197388,0,0,831,2,1,2,0,48,0,0,0,0,0,0,0
21739552000,21739472000,5.7653335e-05,0.003066393,0.0019141188,8389351,0,0.35213906,0.35744327,0.0096813645,0.02368946,0.0073099053,0.0027922045,0.0,0.0,0.0,0.0,1310996,1310996,6620172,197388,0,0,831,2,1,2,0,48,0,0,0,0,0,0,0
21739760000,21739680000,0.00146582,0.014476248,0.021379968,8389351,0,0.35270756,0.36373368,0.046094876,0.092842296,0.011826153,0.0069922856,0.0,0.0,0.0,0.0,1310996,1310996,6620172,197388,0,0,831,2,1,2,0,48,0,0,0,0,0,0,0
21739952000,21739872000,0.0015275113,0.016540078,0.024472771,8389351,0,0.35142866,0.36803234,0.015569552,0.066324905,0.008962319,0.002332881,0.0,0.0,0.0,0.0,1310996,1310996,6620172,197388,0,0,831,2,1,2,0,48,0,0,0,0,0,0,0
21740152000,21740072000,0.0012611237,0.014569519,0.022904135,8389351,0,0.35108078,0.37070787,0.014697552,0.04618297,0.009722559,0.014100253,0.0,0.0,0.0,0.0,1310996,1310996,6620172,197388,0,0,831,2,1,2,0,48,0,0,0,0,0,0,0
21740352000,21740272000,0.0011749404,0.012677103,0.020248892,8389351,0,0.3507168,0.37510246,0.016802695,0.040294778,0.0052149016,0.0046602953,0.0,0.0,0.0,0.0,1310996,1310996,6620172,197388,0,0,831,2,1,2,0,48,0,0,0,0,0,0,0
21740560000,21740480000,0.0007515647,0.009352652,0.015386642,8389351,0,0.35115084,0.37779576,0.06228657,0.0347859,0.003964443,0.0073270174,0.0,0.0,0.0,0.0,1310996,1310996,6620172,197388,0,0,831,2,1,2,0,48,0,0,0,0,0,0,0
21740760000,21740680000,0.00013438734,0.0044351346,0.007047712,8389351,0,0.3731117,0.39007273,0.01776501,0.0347859,0.003964443,0.0012644097,0.0,0.0,0.0,0.0,1310996,1310996,6620172,197388,0,0,831,2,1,2,0,48,0,0,0,0,0,0,0
21740960000,21740880000,0.0007317353,0.0074308836,0.012867677,8389351,0,0.3702862,0.3907261,0.012344091,0.049303744,0.006444164,0.005089831,0.0,0.0,0.0,0.0,1310996,1310996,6620172,197388,0,0,831,2,1,2,0,48,0,0,0,0,0,0,0
21741160000,21741080000,0.00056755677,0.0065039443,0.011519508,8389351,0,0.36782348,0.39358833,0.07586326,0.03078422,0.00449172,0.0026357805,0.0,0.0,0.0,0.0,1310996,1310996,6620172,197388,0,0,831,2,1,2,0,48,0,0,0,0,0,0,0
21741360000,21741280000,0.0002036016,0.0064095343,0.011471531,8389351,0,0.36562973,0.3962649,0.012996499,0.04043495,0.0037077868,0.015744235,0.0,0.0,0.0,0.0,1310996,1310996,6620172,197388,0,0,831,2,1,2,0,48,0,0,0,0,0,0,0
21741552000,21741472000,0.00040434604,0.0064459164,0.01151843,8389351,0,0.36284214,0.3954858,0.0072740815,0.03408899,0.004798953,0.007069387,0.0,0.0,0.0,0.0,1310996,1310996,6620172,197388,0,0,831,2,1,2,0,48,0,0,0,0,0,0,0
21741760000,21741680000,0.00023197483,0.0048901844,0.008158964,8389351,0,0.36181262,0.39854205,0.027468463,0.034686882,0.0040050023,0.012529299,0.0,0.0,0.0,0.0,1310996,1310996,6620172,197388,0,0,831,2,1,2,0,48,0,0,0,0,0,0,0
21741952000,21741872000,6.126823e-05,0.006381882,0.0107519785,8389351,0,0.35935658,0.39746898,0.005878223,0.015347172,0.001170652,0.003576912,0.0,0.0,0.0,0.0,1310996,1310996,6620172,197388,0,0,831,2,1,2,0,48,0,0,0,0,0,0,0
21742160000,21742080000,3.467882e-05,0.0072279978,0.014032675,8389351,0,0.38007376,0.40777946,0.03524893,0.015347172,0.001170652,0.017844627,0.0,0.0,0.0,0.0,1310996,1310996,6620172,197388,0,0,831,2,1,2,0,48,0,0,0,0,0,0,0
21742352000,21742272000,0.00018636009,0.0074559236,0.014390636,8389351,0,0.37572682,0.40863878,0.008690354,0.044690885,0.010421304,0.011325859,0.0,0.0,0.0,0.0,1310996,1310996,6620172,197388,0,0,831,2,1,2,0,48,0,0,0,0,0,0,0
21742560000,21742480000,6.1826904e-05,0.006584344,0.012200111,8389351,0,0.37337336,0.40805554,0.055326395,0.011457325,0.008068358,0.011346055,0.0,0.0,0.0,0.0,1310996,1310996,6620172,197388,0,0,831,2,1,2,0,48,0,0,0,0,0,0,0
21742752000,21742672000,0.00012084711,0.004185774,0.009723239,8389351,0,0.36976033,0.40877318,0.038674906,0.031688802,0.0022877234,0.00769912,0.0,0.0,0.0,0.0,1310996,1310996,6620172,197388,0,0,831,2,1,2,0,48,0,0,0,0,0,0,0
21742952000,21742872000,1.4546292e-05,0.005062992,0.011260967,8389351,0,0.36717552,0.4073604,0.013429877,0.0045963307,0.008229096,0.012540033,0.0,0.0,0.0,0.0,1310996,1310996,6620172,197388,0,0,831,2,1,2,0,48,0,0,0,0,0,0,0
21743152000,21743072000,6.946334e-05,0.0035461045,0.0069351215,8389351,0,0.36479825,0.40864217,0.0348575,0.017902115,0.006216481,0.0069801616,0.0,0.0,0.0,0.0,1310996,1310996,6620172,197388,0,0,831,2,1,2,0,48,0,0,0,0,0,0,0
21743352000,21743272000,1.4953171e-05,0.0052042804,0.011914849,8389351,0,0.38372704,0.41390747,0.010065023,0.017902115,0.006216481,0.009456402,0.0,0.0,0.0,0.0,1310996,1310996,6620172,197388,0,0,831,2,1,2,0,48,0,0,0,0,0,0,0
21743560000,21743480000,3.923499e-05,0.0038415273,0.007215813,8389351,0,0.3804461,0.4154527,0.017032363,0.022123203,0.007986206,0.004992691,0.0,0.0,0.0,0.0,1310996,1310996,6620172,197388,0,0,831,2,1,2,0,48,0,0,0,0,0,0,0
21743760000,21743680000,8.095485e-05,0.0021710263,0.003406796,8389351,0,0.37686503,0.41342613,0.018245084,0.025263717,0.009817222,0.0049664923,0.0,0.0,0.0,0.0,1310996,1310996,6620172,197388,0,0,831,2,1,2,0,48,0,0,0,0,0,0,0
21743960000,21743880000,2.992678e-05,0.0036660666,0.005880847,8389351,0,0.373625,0.41428673,0.03642888,0.0060163606,0.010430735,0.0012027303,0.0,0.0,0.0,0.0,1310996,1310996,6620172,197388,0,0,831,2,1,2,0,48,0,0,0,0,0,0,0
21744160000,21744080000,6.939075e-05,0.0061720586,0.012807283,8389351,0,0.37060982,0.41228217,0.014282645,0.017772404,0.003244053,0.0092798285,0.0,0.0,0.0,0.0,1310996,1310996,6620172,197388,0,0,831,2,1,2,0,48,0,0,0,0,0,0,0
21744360000,21744280000,0.00010395432,0.004186372,0.008706112,8389351,0,0.3678489,0.41311505,0.04471097,0.021747272,0.0044221743,0.004764237,0.0,0.0,0.0,0.0,1310996,1310996,6620172,197388,0,0,831,2,1,2,0,48,0,0,0,0,0,0,0
21744560000,21744480000,5.358095e-05,0.0036860155,0.0076148915,8389351,0,0.3653687,0.41110346,0.025424,0.009473703,0.01510961,0.011237825,0.0,0.0,0.0,0.0,1310996,1310996,6620172,197388,0,0,831,2,1,2,0,48,0,0,0,0,0,0,0
21744760000,21744680000,3.1274758e-05,0.0039844094,0.0072481963,8389351,0,0.383483,0.4182061,0.01610542,0.009473703,0.01510961,0.00509316,0.0,0.0,0.0,0.0,1310996,1310996,6620172,197388,0,0,831,2,1,2,0,48,0,0,0,0,0,0,0
21744960000,21744880000,4.8192593e-05,0.004290154,0.008470388,8389351,0,0.37952542,0.41575417,0.006298891,0.011905486,0.008952115,0.008486154,0.0,0.0,0.0,0.0,1310996,1310996,6620172,197388,0,0,831,2,1,2,0,48,0,0,0,0,0,0,0
21745152000,21745072000,2.856707e-05,0.0036840525,0.006394473,8389351,0,0.37523508,0.4156726,0.023053486,0.014703717,0.008279003,0.010435454,0.0,0.0,0.0,0.0,1310996,1310996,6620172,197388,0,0,831,2,1,2,0,48,0,0,0,0,0,0,0
21745360000,21745280000,4.7489662e-05,0.0036088747,0.006844459,8389271,0,0.37272102,0.41686964,0.0025315795,0.004746572,0.008122642,0.008291235,0.0,0.0,0.0,0.0,1310996,1310996,6620172,197388,0,0,831,2,1,2,0,48,0,0,0,0,0,0,0
21745552000,21745472000,6.794721e-05,0.005296434,0.009334842,8389271,0,0.36907354,0.41388378,0.018628553,0.01547517,0.008399685,0.0072052954,0.0,0.0,0.0,0.0,1310996,1310996,6620172,197388,0,0,831,2,1,2,0,48,0,0,0,0,0,0,0
21745760000,21745680000,9.4298426e-05,0.0034327772,0.007484208,8389271,0,0.3670617,0.4150567,0.0002312362,0.032210864,0.00999653,0.004020143,0.0,0.0,0.0,0.0,1310996,1310996,6620172,197388,0,0,831,2,1,2,0,48,0,0,0,0,0,0,0
21745960000,21745880000,4.0339488e-05,0.0024598348,0.004629224,8389271,0,0.3851495,0.41875735,0.0029537727,0.032210864,0.00999653,0.009982012,0.0,0.0,0.0,0.0,1310996,1310996,6620172,197388,0,0,831,2,1,2,0,48,0,0,0,0,0,0,0
21746160000,21746080000,6.285595e-05,0.002630394,0.00565509,8389271,0,0.38106123,0.41909438,0.002643776,0.017956799,0.018361498,0.005122428,0.0,0.0,0.0,0.0,1310996,1310996,6620172,197388,0,0,831,2,1,2,0,48,0,0,0,0,0,0,0
21746352000,21746272000,0.00010597357,0.0023609325,0.004333259,8389271,0,0.3765877,0.41880074,0.01084678,0.0055000265,0.009310343,0.004269831,0.0,0.0,0.0,0.0,1310996,1310996,6620172,197388,0,0,831,2,1,2,0,48,0,0,0,0,0,0,0
21746552000,21746472000,0.00020288916,0.0025949646,0.004631875,8389271,0,0.3732086,0.4161893,0.006484927,0.0061623203,0.010874237,0.0064507974,0.0,0.0,0.0,0.0,1310996,1310996,6620172,197388,0,0,831,2,1,2,0,48,0,0,0,0,0,0,0
21746760000,21746680000,0.00012936092,0.0016597047,0.0028082111,8389271,0,0.370829,0.4171962,0.014676991,0.004705462,0.008313204,0.006491668,0.0,0.0,0.0,0.0,1310996,1310996,6620172,197388,0,0,831,2,1,2,0,48,0,0,0,0,0,0,0
21746960000,21746880000,0.00016980505,0.0025456976,0.0042681983,8389271,0,0.36800572,0.41466486,0.029732011,0.014591676,0.012910646,0.0040286025,0.0,0.0,0.0,0.0,1310996,1310996,6620172,197388,0,0,831,2,1,2,0,48,0,0,0,0,0,0,0
21747160000,21747080000,0.00010460063,0.0025077772,0.005723436,8389271,0,0.36541384,0.4151146,0.0037134555,0.024425613,0.008772645,0.004992373,0.0,0.0,0.0,0.0,1310996,1310996,6620172,197388,0,0,831,2,1,2,0,48,0,0,0,0,0,0,0
21747352000,21747272000,0.00015130609,0.001792436,0.004916334,8389271,0,0.38256982,0.42085627,0.023414379,0.024425613,0.008772645,0.011228963,0.0,0.0,0.0,0.0,1310996,1310996,6620172,197388,0,0,831,2,1,2,0,48,0,0,0,0,0,0,0
21747560000,21747480000,0.00018829452,0.0012445981,0.0021231147,8389271,0,0.37938535,0.41875446,0.006769245,0.01416382,0.012693117,0.0021980703,0.0,0.0,0.0,0.0,1310996,1310996,6620172,197388,0,0,831,2,1,2,0,48,0,0,0,0,0,0,0
21747760000,21747680000,0.00019786571,0.003044979,0.007813098,8389271,0,0.37583143,0.4190748,0.020859763,0.031983122,0.012215148,0.0077893063,0.0,0.0,0.0,0.0,1310996,1310996,6620172,197388,0,0,831,2,1,2,0,48,0,0,0,0,0,0,0
21747952000,21747872000,8.4663945e-05,0.0024629754,0.004237097,8389271,0,0.37190005,0.41585982,0.018801443,0.011392361,0.010997646,0.0014112376,0.0,0.0,0.0,0.0,1310996,1310996,6620172,197388,0,0,831,2,1,2,0,48,0,0,0,0,0,0,0
21748160000,21748080000,0.00016046986,0.0031736486,0.005307507,8389271,0,0.3696666,0.41686094,0.003360028,0.015765438,0.013072403,0.005378432,0.0,0.0,0.0,0.0,1310996,1310996,6620172,197388,0,0,831,2,1,2,0,48,0,0,0,0,0,0,0
21748352000,21748272000,6.48949e-05,0.0038981752,0.008930901,8389271,0,0.36628938,0.4137895,0.0009947062,0.030246971,0.013038749,0.0010641092,0.0,0.0,0.0,0.0,1310996,1310996,6620172,197388,0,0,831,2,1,2,0,48,0,0,0,0,0,0,0
21748560000,21748480000,0.0001547884,0.0020283714,0.0048577175,8389271,0,0.38512933,0.42064402,0.010838352,0.030246971,0.013038749,0.006487444,0.0,0.0,0.0,0.0,1310996,1310996,6620172,197388,0,0,831,2,1,2,0,48,0,0,0,0,0,0,0
21748760000,21748680000,5.585731e-05,0.0032456245,0.008482976,8389271,0,0.38097727,0.4208785,0.0046669412,0.027405985,0.014136279,0.0016154561,0.0,0.0,0.0,0.0,1310996,1310996,6620172,197388,0,0,831,2,1,2,0,48,0,0,0,0,0,0,0
21748952000,21748872000,4.7023637e-05,0.0026666173,0.00792731,8389271,0,0.37651625,0.41751823,0.0026859655,0.023056649,0.014433566,0.002704518,0.0,0.0,0.0,0.0,1310996,1310996,6620172,197388,0,0,831,2,1,2,0,48,0,0,0,0,0,0,0
21749160000,21749080000,6.0424634e-05,0.0024564285,0.0058919303,8389271,0,0.3738668,0.4184018,0.009947056,0.0172789,0.01076913,0.00069086853,0.0,0.0,0.0,0.0,1310996,1310996,6620172,197388,0,0,831,2,1,2,0,48,0,0,0,0,0,0,0
21749360000,21749280000,9.3902396e-05,0.0024486196,0.0069663213,8389271,0,0.37079492,0.4157479,0.0153496815,0.018854342,0.014875277,0.0010839506,0.0,0.0,0.0,0.0,1310996,1310996,6620172,197388,0,0,831,2,1,2,0,48,0,0,0,0,0,0,0
21749560000,21749480000,0.00024558522,0.003088641,0.0078054173,8389271,0,0.3679891,0.41610017,0.024306826,0.034830924,0.011278256,0.005925534,0.0,0.0,0.0,0.0,1310996,1310996,6620172,197388,0,0,831,2,1,2,0,48,0,0,0,0,0,0,0
21749760000,21749680000,0.0001090477,0.0024623873,0.0055506416,8389271,0,0.36541292,0.41358036,0.0051535745,0.017292216,0.013578765,0.0017082667,0.0,0.0,0.0,0.0,1310996,1310996,6620172,197388,0,0,831,2,1,2,0,48,0,0,0,0,0,0,0
21749960000,21749880000,1.45113345e-05,0.002276961,0.0056209886,8389271,0,0.3834445,0.41967916,0.0048910035,0.017292216,0.013578765,0.0019088972,0.0,0.0,0.0,0.0,1310996,1310996,6620172,197388,0,0,831,2,1,2,0,48,0,0,0,0,0,0,0
21750160000,21750080000,6.582263e-05,0.0006782593,0.0016706773,8389271,0,0.37949803,0.4199319,0.008102207,0.01904146,0.01909846,0.0036993108,0.0,0.0,0.0,0.0,1310996,1310996,6620172,197388,0,0,831,2,1,2,0,48,0,0,0,0,0,0,0
21750352000,21750272000,9.34186e-05,0.0025083101,0.0074063567,8389271,0,0.37521565,0.41661537,0.0028101855,0.031277325,0.015993582,0.002184241,0.0,0.0,0.0,0.0,1310996,1310996,6620172,197388,0,0,831,2,1,2,0,48,0,0,0,0,0,0,0
21750560000,21750480000,8.6181906e-05,0.0012423581,0.0045774733,8389271,0,0.37271443,0.41751543,0.0061913426,0.019264977,0.014139626,0.006538338,0.0,0.0,0.0,0.0,1310996,1310996,6620172,197388,0,0,831,2,1,2,0,48,0,0,0,0,0,0,0
21750752000,21750672000,0.00011766106,0.0013403809,0.0035211851,8389271,0,0.3690754,0.4172704,0.023686806,0.019374967,0.013681122,0.0075171753,0.0,0.0,0.0,0.0,1310996,1310996,6620172,197388,0,0,831,2,1,2,0,48,0,0,0,0,0,0,0
21750960000,21750880000,9.914014e-05,0.001204093,0.0015989771,8389271,0,0.36708206,0.4152886,0.004658083,0.0070392853,0.018124282,0.0013437578,0.0,0.0,0.0,0.0,1310996,1310996,6620172,197388,0,0,831,2,1,2,0,48,0,0,0,0,0,0,0
21751160000,21751080000,5.001026e-05,0.0026355297,0.0064035673,8389271,0,0.38531908,0.42134434,0.0031249167,0.0070392853,0.018124282,0.0009955335,0.0,0.0,0.0,0.0,1310996,1310996,6620172,197388,0,0,831,2,1,2,0,48,0,0,0,0,0,0,0
21751360000,21751280000,5.508354e-05,0.002423887,0.0058091795,8389271,0,0.38114867,0.41849017,0.008332801,0.024980508,0.009337934,0.0038271514,0.0,0.0,0.0,0.0,1310996,1310996,6620172,197388,0,0,831,2,1,2,0,48,0,0,0,0,0,0,0
21751552000,21751472000,0.000103939026,0.002442778,0.005486492,8389271,0,0.37667087,0.4180966,0.018219853,0.008567588,0.012906575,0.0055094617,0.0,0.0,0.0,0.0,1310996,1310996,6620172,197388,0,0,831,2,1,2,0,48,0,0,0,0,0,0,0
21751752000,21751672000,2.83699e-05,0.0028860373,0.006050381,8389271,0,0.3732971,0.41831988,0.006992119,0.012462348,0.010308047,0.0002017201,0.0,0.0,0.0,0.0,1310996,1310996,6620172,197388,0,0,831,2,1,2,0,48,0,0,0,0,0,0,0
21751960000,21751880000,0.00013323707,0.002865665,0.0066033998,8389271,0,0.37093082,0.41619104,0.013708235,0.00900292,0.010618513,0.0020838887,0.0,0.0,0.0,0.0,1310996,1310996,6620172,197388,0,0,831,2,1,2,0,48,0,0,0,0,0,0,0
21752160000,21752080000,0.00011519989,0.0022491538,0.005310264,8389271,0,0.36811545,0.41646203,0.008026178,0.008451707,0.009677077,0.0017462951,0.0,0.0,0.0,0.0,1310996,1310996,6620172,197388,0,0,831,2,1,2,0,48,0,0,0,0,0,0,0
21752352000,21752272000,3.5413577e-05,0.0021045122,0.0046537947,8389271,0,0.36484995,0.4161607,0.011410715,0.008110052,0.014046945,0.0038355566,0.0,0.0,0.0,0.0,1310996,1310996,6620172,197388,0,0,831,2,1,2,0,48,0,0,0,0,0,0,0
21752552000,21752472000,0.00018938891,0.0024310711,0.006544981,8389271,0,0.38282603,0.42205536,0.022879448,0.008110052,0.014046945,0.007654474,0.0,0.0,0.0,0.0,1310996,1310996,6620172,197388,0,0,831,2,1,2,0,48,0,0,0,0,0,0,0
21752760000,21752680000,0.00012976135,0.0028661184,0.005570777,8389271,0,0.37962577,0.41974053,0.00539022,0.017448287,0.018116275,0.00010734578,0.0,0.0,0.0,0.0,1310996,1310996,6620172,197388,0,0,831,2,1,2,0,48,0,0,0,0,0,0,0
21752952000,21752872000,6.0123875e-05,0.0035904755,0.006481468,8389271,0,0.37533048,0.41930613,0.010292301,0.01976418,0.016552765,0.00045798547,0.0,0.0,0.0,0.0,1310996,1310996,6620172,197388,0,0,831,2,1,2,0,48,0,0,0,0,0,0,0
21753160000,21753080000,7.144384e-05,0.004381773,0.009911981,8389271,0,0.37281898,0.41712594,0.0029423968,0.019145176,0.012496522,0.005705302,0.0,0.0,0.0,0.0,1310996,1310996,6620172,197388,0,0,831,2,1,2,0,48,0,0,0,0,0,0,0
21753352000,21753272000,0.00014540312,0.0058644447,0.011546299,8389271,0,0.3691698,0.4167768,0.0069533316,0.033568766,0.014612093,0.0010250821,0.0,0.0,0.0,0.0,1310996,1310996,6620172,197388,0,0,831,2,1,2,0,48,0,0,0,0,0,0,0
21753560000,21753480000,0.00015387988,0.0043386463,0.009516485,8389271,0,0.3671673,0.41761708,0.02583541,0.014121599,0.01263601,0.0020952893,0.0,0.0,0.0,0.0,1310996,1310996,6620172,197388,0,0,831,2,1,2,0,48,0,0,0,0,0,0,0
21753760000,21753680000,9.282364e-05,0.0025479554,0.007798776,8389271,0,0.38538784,0.42046824,0.014565735,0.014121599,0.01263601,0.0021321457,0.0,0.0,0.0,0.0,1310996,1310996,6620172,197388,0,0,831,2,1,2,0,48,0,0,0,0,0,0,0
21753960000,21753880000,8.693103e-05,0.002117469,0.0052747373,8389271,0,0.38121024,0.4205968,0.012418092,0.012181219,0.013294969,0.003950277,0.0,0.0,0.0,0.0,1310996,1310996,6620172,197388,0,0,831,2,1,2,0,48,0,0,0,0,0,0,0
21754160000,21754080000,0.00010417809,0.0044466085,0.009963142,8389271,0,0.3774564,0.41774392,0.012562628,0.03329374,0.012607788,0.00841995,0.0,0.0,0.0,0.0,1310996,1310996,6620172,197388,0,0,831,2,1,2,0,48,0,0,0,0,0,0,0
21754360000,21754280000,0.000110387744,0.0035484077,0.0075467364,8389271,0,0.37406024,0.41792795,0.019680718,0.020104723,0.008632933,0.00095231936,0.0,0.0,0.0,0.0,1310996,1310996,6620172,197388,0,0,831,2,1,2,0,48,0,0,0,0,0,0,0
21754552000,21754472000,0.00011437755,0.0048484304,0.009354151,8389271,0,0.37027067,0.41755214,0.0065471735,0.03179877,0.012625154,7.012898e-05,0.0,0.0,0.0,0.0,1310996,1310996,6620172,197388,0,0,831,2,1,2,0,48,0,0,0,0,0,0,0
21754760000,21754680000,9.665434e-05,0.0036170387,0.007616486,8389271,0,0.36815003,0.41540724,0.0063710446,0.019017363,0.0069969837,0.0037263378,0.0,0.0,0.0,0.0,1310996,1310996,6620172,197388,0,0,831,2,1,2,0,48,0,0,0,0,0,0,0
21754960000,21754880000,0.00011180094,0.0043490776,0.010206568,8389271,0,0.36556053,0.41566062,0.01191024,0.029594578,0.011506175,0.0026658324,0.0,0.0,0.0,0.0,1310996,1310996,6620172,197388,0,0,831,2,1,2,0,48,0,0,0,0,0,0,0
21755152000,21755072000,0.00012374151,0.0017055796,0.0056857793,8389271,0,0.38281634,0.42075706,0.014888292,0.029594578,0.011506175,0.001985042,0.0,0.0,0.0,0.0,1310996,1310996,6620172,197388,0,0,831,2,1,2,0,48,0,0,0,0,0,0,0
21755352000,21755272000,9.455866e-05,0.0037953402,0.010009964,8389271,0,0.37887546,0.41785213,0.0064778747,0.03565262,0.013306135,0.0033156779,0.0,0.0,0.0,0.0,1310996,1310996,6620172,197388,0,0,831,2,1,2,0,48,0,0,0,0,0,0,0
21755560000,21755480000,6.2586754e-05,0.002186126,0.0063007358,8389271,0,0.3760452,0.41861665,0.0022233666,0.014718435,0.014091503,0.0039132303,0.0,0.0,0.0,0.0,1310996,1310996,6620172,197388,0,0,831,2,1,2,0,48,0,0,0,0,0,0,0
21755752000,21755672000,0.00014144155,0.0043398226,0.01045476,8389271,0,0.37209782,0.41822535,0.0010362177,0.039152652,0.0093194125,0.008927994,0.0,0.0,0.0,0.0,1310996,1310996,6620172,197388,0,0,831,2,1,2,0,48,0,0,0,0,0,0,0
21755960000,21755880000,0.00014383844,0.0038460004,0.0076840012,8389271,0,0.3698559,0.4160667,0.011600519,0.033312403,0.015225259,0.0020726828,0.0,0.0,0.0,0.0,1310996,1310996,6620172,197388,0,0,831,2,1,2,0,48,0,0,0,0,0,0,0
21756160000,21756080000,0.00014261127,0.004269136,0.009339641,8389271,0,0.3671525,0.4163137,0.0032577617,0.03524064,0.01912263,0.0035931752,0.0,0.0,0.0,0.0,1310996,1310996,6620172,197388,0,0,831,2,1,2,0,48,0,0,0,0,0,0,0
21756360000,21756280000,0.00010425465,0.0009144612,0.004177496,8389271,0,0.38532922,0.4190123,0.006345589,0.03524064,0.01912263,0.0020430826,0.0,0.0,0.0,0.0,1310996,1310996,6620172,197388,0,0,831,2,1,2,0,48,0,0,0,0,0,0,0
21756552000,21756472000,0.00014464716,0.0016847623,0.003683704,8389271,0,0.3804134,0.41859034,0.016009798,0.029031456,0.013449694,0.0035149148,0.0,0.0,0.0,0.0,1310996,1310996,6620172,197388,0,0,831,2,1,2,0,48,0,0,0,0,0,0,0
21756752000,21756672000,0.000118406635,0.0032187435,0.007913727,8389271,0,0.37668103,0.4187837,0.0039031703,0.035952866,0.010735504,0.0064128903,0.0,0.0,0.0,0.0,1310996,1310996,6620172,197388,0,0,831,2,1,2,0,48,0,0,0,0,0,0,0
21756960000,21756880000,8.299486e-05,0.0019182242,0.004971821,8389271,0,0.3740159,0.41662273,0.013959542,0.027022643,0.014234849,0.0048727226,0.0,0.0,0.0,0.0,1310996,1310996,6620172,197388,0,0,831,2,1,2,0,48,0,0,0,0,0,0,0
21757152000,21757072000,0.00020521635,0.003412755,0.008718221,8389271,0,0.37022978,0.41632402,0.008243986,0.037562475,0.008977513,0.0012294956,0.0,0.0,0.0,0.0,1310996,1310996,6620172,197388,0,0,831,2,1,2,0,48,0,0,0,0,0,0,0
21757352000,21757272000,0.00014487564,0.004202652,0.010701392,8389271,0,0.3674207,0.4137004,0.0031950593,0.038403887,0.013722388,0.0024555086,0.0,0.0,0.0,0.0,1310996,1310996,6620172,197388,0,0,831,2,1,2,0,48,0,0,0,0,0,0,0
21757552000,21757472000,0.00015298651,0.004212481,0.011841834,8389271,0,0.36484182,0.41401607,0.006562251,0.040609807,0.008936804,0.0078602685,0.0,0.0,0.0,0.0,1310996,1310996,6620172,197388,0,0,831,2,1,2,0,48,0,0,0,0,0,0,0
21757760000,21757680000,6.9649475e-05,0.002068336,0.004889979,8389271,0,0.38349736,0.4172325,0.008531993,0.040609807,0.008936804,0.009907422,0.0,0.0,0.0,0.0,1310996,1310996,6620172,197388,0,0,831,2,1,2,0,48,0,0,0,0,0,0,0
21757960000,21757880000,9.0179754e-05,0.00092065975,0.001263287,8389271,0,0.37954557,0.41745228,0.0008960654,0.03274192,0.013144096,0.0071322615,0.0,0.0,0.0,0.0,1310996,1310996,6620172,197388,0,0,831,2,1,2,0,48,0,0,0,0,0,0,0
21758152000,21758072000,0.00010857436,0.00166512,0.0059603495,8389271,0,0.37525967,0.41711327,0.011829129,0.035196647,0.017680846,0.0086156,0.0,0.0,0.0,0.0,1310996,1310996,6620172,197388,0,0,831,2,1,2,0,48,0,0,0,0,0,0,0
21758360000,21758280000,9.210618e-05,0.0021830727,0.0051415567,8389271,0,0.37274784,0.41501153,0.0031649072,0.03585069,0.014215988,9.350784e-05,0.0,0.0,0.0,0.0,1310996,1310996,6620172,197388,0,0,831,2,1,2,0,48,0,0,0,0,0,0,0
21758560000,21758480000,3.3850927e-05,0.003858526,0.008494148,8389271,0,0.3697993,0.41532353,0.004620056,0.045751553,0.015200255,0.0031162095,0.0,0.0,0.0,0.0,1310996,1310996,6620172,197388,0,0,831,2,1,2,0,48,0,0,0,0,0,0,0
21758760000,21758680000,0.00012660693,0.0041455063,0.009262289,8389271,0,0.36709902,0.4127746,0.022495614,0.038328405,0.014482316,0.0007844714,0.0,0.0,0.0,0.0,1310996,1310996,6620172,197388,0,0,831,2,1,2,0,48,0,0,0,0,0,0,0
21758952000,21758872000,9.062392e-05,0.003225918,0.004734654,8389271,0,0.3844717,0.41776705,0.022241512,0.038328405,0.014482316,0.0011107567,0.0,0.0,0.0,0.0,1310996,1310996,6620172,197388,0,0,831,2,1,2,0,48,0,0,0,0,0,0,0
21759152000,21759072000,6.3888205e-05,0.004032949,0.007028044,8389271,0,0.38033107,0.41797808,0.006039808,0.01878867,0.00941252,0.0033834577,0.0,0.0,0.0,0.0,1310996,1310996,6620172,197388,0,0,831,2,1,2,0,48,0,0,0,0,0,0,0
21759360000,21759280000,7.961229e-05,0.0020568867,0.0043515465,8389271,0,0.3773319,0.41587934,0.0049381233,0.03769077,0.009326203,0.006833798,0.0,0.0,0.0,0.0,1310996,1310996,6620172,197388,0,0,831,2,1,2,0,48,0,0,0,0,0,0,0
21759560000,21759480000,0.00012836121,0.0018406891,0.0051756725,8389271,0,0.3739453,0.4161916,0.022255642,0.034357313,0.009655175,0.010351388,0.0,0.0,0.0,0.0,1310996,1310996,6620172,197388,0,0,831,2,1,2,0,48,0,0,0,0,0,0,0
21759760000,21759680000,0.0001706543,0.002477184,0.007097363,8389271,0,0.3708638,0.4136474,0.029499667,0.038893,0.010755689,0.0065061487,0.0,0.0,0.0,0.0,1310996,1310996,6620172,197388,0,0,831,2,1,2,0,48,0,0,0,0,0,0,0
21759960000,21759880000,3.7577403e-05,0.0044715097,0.01009993,8389271,0,0.36804703,0.41404262,0.0045445682,0.04412931,0.011001908,0.011236019,0.0,0.0,0.0,0.0,1310996,1310996,6620172,197388,0,0,831,2,1,2,0,48,0,0,0,0,0,0,0
21760152000,21760072000,8.302185e-05,0.004790196,0.012603686,8389271,0,0.36478412,0.41101503,0.012338121,0.049838327,0.012802817,0.0054066656,0.0,0.0,0.0,0.0,1310996,1310996,6620172,197388,0,0,831,2,1,2,0,48,0,0,0,0,0,0,0
21760360000,21760280000,6.792831e-05,0.0031811334,0.005644463,8389271,0,0.38340005,0.41710317,0.020390997,0.049838327,0.012802817,0.004150497,0.0,0.0,0.0,0.0,1310996,1310996,6620172,197388,0,0,831,2,1,2,0,48,0,0,0,0,0,0,0
21760560000,21760480000,6.478388e-05,0.003630865,0.0069873813,8389271,0,0.37945908,0.41443196,0.003947475,0.054792523,0.016973427,0.009593027,0.0,0.0,0.0,0.0,1310996,1310996,6620172,197388,0,0,831,2,1,2,0,48,0,0,0,0,0,0,0
21760760000,21760680000,0.00010853739,0.0041090143,0.010759692,8389271,0,0.37590286,0.4147556,0.0069521503,0.06218211,0.011808974,0.013627157,0.0,0.0,0.0,0.0,1310996,1310996,6620172,197388,0,0,831,2,1,2,0,48,0,0,0,0,0,0,0
21760960000,21760880000,8.0572914e-05,0.0035565437,0.009127464,8389271,0,0.37267512,0.41509366,0.016111884,0.04056724,0.012708351,0.0074810395,0.0,0.0,0.0,0.0,1310996,1310996,6620172,197388,0,0,831,2,1,2,0,48,0,0,0,0,0,0,0
21761160000,21761080000,7.608818e-05,0.003690453,0.007804827,8389271,0,0.36973128,0.4125499,1.8305459e-06,0.034731057,0.011985862,0.0030340056,0.0,0.0,0.0,0.0,1310996,1310996,6620172,197388,0,0,831,2,1,2,0,48,0,0,0,0,0,0,0
21761360000,21761280000,9.621449e-05,0.0034661891,0.0071974117,8389271,0,0.36703512,0.41295448,0.0047722566,0.04758966,0.014082323,0.0015517045,0.0,0.0,0.0,0.0,1310996,1310996,6620172,197388,0,0,831,2,1,2,0,48,0,0,0,0,0,0,0
21761560000,21761480000,8.905946e-05,0.0028846394,0.006266678,8389271,0,0.38514006,0.41852602,0.011716098,0.04758966,0.014082323,0.0081435125,0.0,0.0,0.0,0.0,1310996,1310996,6620172,197388,0,0,831,2,1,2,0,48,0,0,0,0,0,0,0
21761752000,21761672000,5.9199898e-05,0.002122461,0.004708525,8389271,0,0.38024834,0.41524482,0.010417989,0.030047933,0.011356153,0.0025497505,0.0,0.0,0.0,0.0,1310996,1310996,6620172,197388,0,0,831,2,1,2,0,48,0,0,0,0,0,0,0
21761960000,21761880000,0.000120960765,0.0037559068,0.0068061994,8389271,0,0.37725702,0.41609582,0.009612302,0.035413224,0.0115215,0.012046953,0.0,0.0,0.0,0.0,1310996,1310996,6620172,197388,0,0,831,2,1,2,0,48,0,0,0,0,0,0,0
21762152000,21762072000,8.498606e-05,0.0023530703,0.004608731,8389271,0,0.3732329,0.41581476,0.027055157,0.03825653,0.015871234,0.010406529,0.0,0.0,0.0,0.0,1310996,1310996,6620172,197388,0,0,831,2,1,2,0,48,0,0,0,0,0,0,0
21762360000,21762280000,8.580181e-05,0.0030621588,0.006618944,8389271,0,0.370861,0.41377243,0.020527499,0.040428456,0.011072926,0.011819486,0.0,0.0,0.0,0.0,1310996,1310996,6620172,197388,0,0,831,2,1,2,0,48,0,0,0,0,0,0,0
21762560000,21762480000,0.00015066926,0.0047659758,0.0105702095,8389271,0,0.36804307,0.41411382,0.00022409973,0.060523253,0.010066003,0.007920287,0.0,0.0,0.0,0.0,1310996,1310996,6620172,197388,0,0,831,2,1,2,0,48,0,0,0,0,0,0,0
21762752000,21762672000,0.00012943218,0.003326526,0.0070685796,8389271,0,0.36483815,0.4110739,0.008919788,0.03197632,0.011492792,0.002324109,0.0,0.0,0.0,0.0,1310996,1310996,6620172,197388,0,0,831,2,1,2,0,48,0,0,0,0,0,0,0
21762960000,21762880000,1.565927e-05,0.0025044617,0.0059251767,8389271,0,0.38345185,0.4171268,0.002028512,0.03197632,0.011492792,0.010256958,0.0,0.0,0.0,0.0,1310996,1310996,6620172,197388,0,0,831,2,1,2,0,48,0,0,0,0,0,0,0
21763160000,21763080000,0.00017289576,0.0034784393,0.008210991,8389271,0,0.37950364,0.4173995,0.049146812,0.0072118086,0.011964992,0.016119977,0.0,0.0,0.0,0.0,1310996,1310996,6620172,197388,0,0,831,2,1,2,0,48,0,0,0,0,0,0,0
21763352000,21763272000,9.778772e-05,0.0025928763,0.004456644,8389271,0,0.37522227,0.41418427,0.014936892,0.03473578,0.011292743,0.0061940826,0.0,0.0,0.0,0.0,1310996,1310996,6620172,197388,0,0,831,2,1,2,0,48,0,0,0,0,0,0,0
21763552000,21763472000,0.00011594222,0.0027949892,0.0048070755,8389271,0,0.3720033,0.41449496,0.02013136,0.03639461,0.012333517,0.005362178,0.0,0.0,0.0,0.0,1310996,1310996,6620172,197388,0,0,831,2,1,2,0,48,0,0,0,0,0,0,0
21763760000,21763680000,8.728931e-05,0.0020500696,0.003607413,8389271,0,0.36976126,0.4124918,0.0014134434,0.024937097,0.010002164,0.0113781905,0.0,0.0,0.0,0.0,1310996,1310996,6620172,197388,0,0,831,2,1,2,0,48,0,0,0,0,0,0,0
21763952000,21763872000,6.967652e-05,0.0010423185,0.0028396214,8389271,0,0.36637595,0.4122884,0.011983731,0.028211348,0.010268601,0.016590197,0.0,0.0,0.0,0.0,1310996,1310996,6620172,197388,0,0,831,2,1,2,0,48,0,0,0,0,0,0,0
21764152000,21764072000,5.5974524e-05,0.0027558971,0.005880922,8389271,0,0.38439378,0.417755,0.030967971,0.028211348,0.010268601,0.008033449,0.0,0.0,0.0,0.0,1310996,1310996,6620172,197388,0,0,831,2,1,2,0,48,0,0,0,0,0,0,0
21764352000,21764272000,0.0001303296,0.0019457627,0.003203301,8389271,0,0.38026065,0.4150371,0.009426764,0.034488313,0.0062696314,0.0075350204,0.0,0.0,0.0,0.0,1310996,1310996,6620172,197388,0,0,831,2,1,2,0,48,0,0,0,0,0,0,0
21764560000,21764480000,6.307776e-05,0.0012269821,0.0034595162,8389271,0,0.3772661,0.41590935,0.003315879,0.036862284,0.01026387,0.0037923672,0.0,0.0,0.0,0.0,1310996,1310996,6620172,197388,0,0,831,2,1,2,0,48,0,0,0,0,0,0,0
21764760000,21764680000,7.490104e-05,0.001991775,0.004646884,8389271,0,0.37388468,0.41333392,0.0009437359,0.010900525,0.007975206,0.0052141245,0.0,0.0,0.0,0.0,1310996,1310996,6620172,197388,0,0,831,2,1,2,0,48,0,0,0,0,0,0,0
21764960000,21764880000,6.126242e-05,0.0022109416,0.00824397,8389271,0,0.3708064,0.41370144,0.0010497674,0.026710412,0.010211225,0.009860695,0.0,0.0,0.0,0.0,1310996,1310996,6620172,197388,0,0,831,2,1,2,0,48,0,0,0,0,0,0,0
21765160000,21765080000,7.607218e-05,0.0029830914,0.0070941104,8389271,0,0.3679919,0.4140744,0.015480344,0.019147448,0.008355161,0.010422047,0.0,0.0,0.0,0.0,1310996,1310996,6620172,197388,0,0,831,2,1,2,0,48,0,0,0,0,0,0,0
21765360000,21765280000,0.00012211216,0.0017762181,0.0032999578,8389271,0,0.3654082,0.4115924,0.006079871,0.027367493,0.009675246,0.009287612,0.0,0.0,0.0,0.0,1310996,1310996,6620172,197388,0,0,831,2,1,2,0,48,0,0,0,0,0,0,0
21765560000,21765480000,8.6288375e-05,0.003042377,0.007554765,8389271,0,0.38330752,0.41704315,0.022055997,0.027367493,0.009675246,0.012928806,0.0,0.0,0.0,0.0,1310996,1310996,6620172,197388,0,0,831,2,1,2,0,48,0,0,0,0,0,0,0
21765760000,21765680000,0.00010090285,0.002002522,0.005886116,8389271,0,0.37937507,0.417295,0.0042070523,0.025437733,0.013456804,0.0067109205,0.0,0.0,0.0,0.0,1310996,1310996,6620172,197388,0,0,831,2,1,2,0,48,0,0,0,0,0,0,0
21765960000,21765880000,3.5607172e-05,0.0017365654,0.0031954779,8389271,0,0.3758258,0.414633,0.003010513,0.028172234,0.01338694,0.008013049,0.0,0.0,0.0,0.0,1310996,1310996,6620172,197388,0,0,831,2,1,2,0,48,0,0,0,0,0,0,0
21766160000,21766080000,4.689961e-05,0.0024662279,0.006099089,8389271,0,0.37260306,0.41493133,0.005280196,0.012818291,0.0147797875,0.0109339375,0.0,0.0,0.0,0.0,1310996,1310996,6620172,197388,0,0,831,2,1,2,0,48,0,0,0,0,0,0,0
21766352000,21766272000,4.8734397e-05,0.0020861304,0.0059742057,8389271,0,0.36896995,0.41469088,0.00084047,0.019855818,0.013076648,0.007119467,0.0,0.0,0.0,0.0,1310996,1310996,6620172,197388,0,0,831,2,1,2,0,48,0,0,0,0,0,0,0
21766560000,21766480000,5.193286e-05,0.0021375655,0.0053385976,8389271,0,0.36697024,0.4127325,0.0005229876,0.023051802,0.012827433,0.0029847447,0.0,0.0,0.0,0.0,1310996,1310996,6620172,197388,0,0,831,2,1,2,0,48,0,0,0,0,0,0,0
21766752000,21766672000,6.0843875e-05,0.0026172278,0.006016207,8389271,0,0.38427466,0.41763732,0.020726236,0.023051802,0.012827433,0.009158296,0.0,0.0,0.0,0.0,1310996,1310996,6620172,197388,0,0,831,2,1,2,0,48,0,0,0,0,0,0,0
21766960000,21766880000,5.5666133e-05,0.0023568089,0.004850231,8389271,0,0.38089457,0.41551846,0.01023293,0.0317171,0.006406781,0.012899531,0.0,0.0,0.0,0.0,1310996,1310996,6620172,197388,0,0,831,2,1,2,0,48,0,0,0,0,0,0,0
21767160000,21767080000,8.318678e-05,0.0025485689,0.006805749,8389271,0,0.37716952,0.41579905,0.028990429,0.016512446,0.0067493203,0.0059031853,0.0,0.0,0.0,0.0,1310996,1310996,6620172,197388,0,0,831,2,1,2,0,48,0,0,0,0,0,0,0
21767352000,21767272000,2.0755444e-05,0.0026310429,0.0075847846,8389271,0,0.373088,0.41552868,0.0013611811,0.013321626,0.00813315,0.008448238,0.0,0.0,0.0,0.0,1310996,1310996,6620172,197388,0,0,831,2,1,2,0,48,0,0,0,0,0,0,0
21767560000,21767480000,7.655842e-05,0.0008765235,0.0028288495,8389271,0,0.3707259,0.41350314,0.0016792818,0.04186814,0.007398811,0.0033551976,0.0,0.0,0.0,0.0,1310996,1310996,6620172,197388,0,0,831,2,1,2,0,48,0,0,0,0,0,0,0
21767752000,21767672000,0.00011556304,0.0016398708,0.00267177,8389271,0,0.3672326,0.4132755,0.0077782315,0.033614974,0.012370517,0.0046489118,0.0,0.0,0.0,0.0,1310996,1310996,6620172,197388,0,0,831,2,1,2,0,48,0,0,0,0,0,0,0
21767952000,21767872000,1.2121993e-05,0.001795107,0.004538252,8389271,0,0.3852738,0.4158,0.0067320974,0.033614974,0.012370517,0.00495905,0.0,0.0,0.0,0.0,1310996,1310996,6620172,197388,0,0,831,2,1,2,0,48,0,0,0,0,0,0,0
21768160000,21768080000,9.495297e-06,0.0026498234,0.006614892,8389271,0,0.38177255,0.41661796,0.0052369665,0.0071241125,0.014054836,0.008548042,0.0,0.0,0.0,0.0,1310996,1310996,6620172,197388,0,0,831,2,1,2,0,48,0,0,0,0,0,0,0
21768352000,21768272000,5.3365813e-05,0.0011375011,0.0034908962,8389271,0,0.37728667,0.41632703,0.0012568366,0.028880207,0.016367152,0.0042729275,0.0,0.0,0.0,0.0,1310996,1310996,6620172,197388,0,0,831,2,1,2,0,48,0,0,0,0,0,0,0
21768552000,21768472000,5.047316e-05,0.0006110011,0.0023302024,8389271,0,0.37389648,0.41372308,0.0027281828,0.020949677,0.022280809,0.007140537,0.0,0.0,0.0,0.0,1310996,1310996,6620172,197388,0,0,831,2,1,2,0,48,0,0,0,0,0,0,0
21768760000,21768680000,3.079182e-05,0.0017752488,0.0035051734,8389271,0,0.37144497,0.41463742,0.0019964785,0.03747061,0.010351623,0.004223812,0.0,0.0,0.0,0.0,1310996,1310996,6620172,197388,0,0,831,2,1,2,0,48,0,0,0,0,0,0,0
21768952000,21768872000,9.300961e-05,0.00403922,0.008023646,8389271,0,0.36787015,0.41157007,0.009225974,0.026577847,0.014019218,7.966109e-05,0.0,0.0,0.0,0.0,1310996,1310996,6620172,197388,0,0,831,2,1,2,0,48,0,0,0,0,0,0,0
21769152000,21769072000,7.8614925e-05,0.0041138614,0.008571665,8389271,0,0.3652317,0.4119629,0.007647841,0.01977472,0.010914619,0.00818553,0.0,0.0,0.0,0.0,1310996,1310996,6620172,197388,0,0,831,2,1,2,0,48,0,0,0,0,0,0,0
21769360000,21769280000,5.030996e-05,0.0026308408,0.005762168,8389271,0,0.3837993,0.41505817,0.011867676,0.01977472,0.010914619,0.009647365,0.0,0.0,0.0,0.0,1310996,1310996,6620172,197388,0,0,831,2,1,2,0,48,0,0,0,0,0,0,0
21769552000,21769472000,2.8163353e-05,0.0019735866,0.005288684,8389271,0,0.37907118,0.41478488,0.008088154,0.018538976,0.011861,0.004747291,0.0,0.0,0.0,0.0,1310996,1310996,6620172,197388,0,0,831,2,1,2,0,48,0,0,0,0,0,0,0
21769760000,21769680000,2.7637157e-05,0.0022191305,0.0061200107,8389271,0,0.37620202,0.41568717,0.0041917646,0.022103623,0.014167429,0.006546028,0.0,0.0,0.0,0.0,1310996,1310996,6620172,197388,0,0,831,2,1,2,0,48,0,0,0,0,0,0,0
21769960000,21769880000,9.831221e-05,0.004481414,0.010722641,8389271,0,0.3729333,0.41316995,0.0024637987,0.02435001,0.017599428,0.002588127,0.0,0.0,0.0,0.0,1310996,1310996,6620172,197388,0,0,831,2,1,2,0,48,0,0,0,0,0,0,0
21770160000,21770080000,6.1044135e-05,0.0019484506,0.0054344,8389271,0,0.3699532,0.41073096,0.014771197,0.02044255,0.016856955,0.008108345,0.0,0.0,0.0,0.0,1310996,1310996,6620172,197388,0,0,831,2,1,2,0,48,0,0,0,0,0,0,0
21770360000,21770280000,9.34406e-05,0.0025572567,0.0062543913,8389271,0,0.36722344,0.4111887,0.019253453,0.011214141,0.017577749,0.0032905163,0.0,0.0,0.0,0.0,1310996,1310996,6620172,197388,0,0,831,2,1,2,0,48,0,0,0,0,0,0,0
21770552000,21770472000,1.9321755e-05,0.0023080504,0.0068249786,8389271,0,0.38450727,0.41611996,0.0074885804,0.011214141,0.017577749,0.0040182467,0.0,0.0,0.0,0.0,1310996,1310996,6620172,197388,0,0,831,2,1,2,0,48,0,0,0,0,0,0,0
21770760000,21770680000,6.346869e-05,0.0022995207,0.0047829733,8389271,0,0.38109747,0.41408268,0.0108889835,0.023360167,0.009429982,0.0048919055,0.0,0.0,0.0,0.0,1310996,1310996,6620172,197388,0,0,831,2,1,2,0,48,0,0,0,0,0,0,0
21770960000,21770880000,5.7644636e-05,0.0031318378,0.0054461746,8389271,0,0.37734646,0.4144501,0.008252484,0.025415555,0.01435317,0.008392814,0.0,0.0,0.0,0.0,1310996,1310996,6620172,197388,0,0,831,2,1,2,0,48,0,0,0,0,0,0,0
21771160000,21771080000,7.55835e-05,0.0033625616,0.008004224,8389271,0,0.37395027,0.41482162,0.0164917,0.016837565,0.0092685865,0.0019335217,0.0,0.0,0.0,0.0,1310996,1310996,6620172,197388,0,0,831,2,1,2,0,48,0,0,0,0,0,0,0
21771352000,21771272000,6.2390456e-05,0.0026116336,0.005861684,8389271,0,0.370227,0.41179094,3.7531405e-05,0.010665844,0.021250881,0.009734536,0.0,0.0,0.0,0.0,1310996,1310996,6620172,197388,0,0,831,2,1,2,0,48,0,0,0,0,0,0,0
21771552000,21771472000,6.4112515e-05,0.0029674424,0.007491774,8389271,0,0.36740604,0.41222504,0.0018257659,0.017208086,0.009969872,0.006587977,0.0,0.0,0.0,0.0,1310996,1310996,6620172,197388,0,0,831,2,1,2,0,48,0,0,0,0,0,0,0
21771752000,21771672000,0.00011169198,0.0034222829,0.006842848,8389271,0,0.36481604,0.4098449,0.0019055572,0.028054582,0.0137122385,0.0069760806,0.0,0.0,0.0,0.0,1310996,1310996,6620172,197388,0,0,831,2,1,2,0,48,0,0,0,0,0,0,0
21771960000,21771880000,6.174799e-05,0.0020962688,0.007074111,8389271,0,0.3833606,0.4159109,0.016271843,0.028054582,0.0137122385,0.00085719617,0.0,0.0,0.0,0.0,1310996,1310996,6620172,197388,0,0,831,2,1,2,0,48,0,0,0,0,0,0,0
21772160000,21772080000,7.7946795e-05,0.0027395955,0.007133321,8389271,0,0.3794191,0.41338557,0.015197622,0.02089427,0.018111153,0.0029638438,0.0,0.0,0.0,0.0,1310996,1310996,6620172,197388,0,0,831,2,1,2,0,48,0,0,0,0,0,0,0
21772360000,21772280000,7.888967e-05,0.00229469,0.005141878,8389271,0,0.37586197,0.41381535,0.0015573992,0.019125149,0.009667735,0.0035285363,0.0,0.0,0.0,0.0,1310996,1310996,6620172,197388,0,0,831,2,1,2,0,48,0,0,0,0,0,0,0
21772552000,21772472000,5.8157155e-05,0.0023669468,0.006942703,8389271,0,0.37192816,0.4136803,0.010617557,0.015071993,0.019836988,0.0014356927,0.0,0.0,0.0,0.0,1310996,1310996,6620172,197388,0,0,831,2,1,2,0,48,0,0,0,0,0,0,0
21772760000,21772680000,0.00010467244,0.0032459267,0.008775306,8389271,0,0.36968628,0.411828,0.01035865,0.032599892,0.015290385,0.00063039205,0.0,0.0,0.0,0.0,1310996,1310996,6620172,197388,0,0,831,2,1,2,0,48,0,0,0,0,0,0,0
21772960000,21772880000,7.896217e-05,0.0019603393,0.0050738226,8389271,0,0.3669874,0.41231242,0.0012333468,0.019018983,0.017965352,0.0019631255,0.0,0.0,0.0,0.0,1310996,1310996,6620172,197388,0,0,831,2,1,2,0,48,0,0,0,0,0,0,0
21773160000,21773080000,4.8333095e-05,0.0021259922,0.006057379,8389271,0,0.38502613,0.41497943,0.024742888,0.019018983,0.017965352,0.0019974736,0.0,0.0,0.0,0.0,1310996,1310996,6620172,197388,0,0,831,2,1,2,0,48,0,0,0,0,0,0,0
21773360000,21773280000,5.4137152e-05,0.0019819543,0.005618074,8389271,0,0.38095814,0.41536042,0.001744443,0.014584909,0.015084528,0.0035162326,0.0,0.0,0.0,0.0,1310996,1310996,6620172,197388,0,0,831,2,1,2,0,48,0,0,0,0,0,0,0
21773552000,21773472000,6.852472e-05,0.0035611223,0.008544132,8389271,0,0.37650138,0.4151728,0.0026445813,0.019514076,0.010567589,0.0011966629,0.0,0.0,0.0,0.0,1310996,1310996,6620172,197388,0,0,831,2,1,2,0,48,0,0,0,0,0,0,0
21773752000,21773672000,0.00010687249,0.004212921,0.009387393,8389271,0,0.3731351,0.41267926,0.006878593,0.027345825,0.016269045,0.00013334582,0.0,0.0,0.0,0.0,1310996,1310996,6620172,197388,0,0,831,2,1,2,0,48,0,0,0,0,0,0,0
21773960000,21773880000,6.1000308e-05,0.003424528,0.00880833,8389271,0,0.37076607,0.41364983,0.0048914165,0.021254923,0.015986806,0.0012425703,0.0,0.0,0.0,0.0,1310996,1310996,6620172,197388,0,0,831,2,1,2,0,48,0,0,0,0,0,0,0
21774160000,21774080000,5.433562e-05,0.0015203282,0.004134597,8389271,0,0.3680136,0.41121176,0.01878696,0.010416207,0.021182632,0.0012157123,0.0,0.0,0.0,0.0,1310996,1310996,6620172,197388,0,0,831,2,1,2,0,48,0,0,0,0,0,0,0
21774352000,21774272000,7.0961716e-05,0.0012370326,0.0024946604,8389271,0,0.36474866,0.41108805,0.00025371686,0.020857666,0.015289512,0.003436003,0.0,0.0,0.0,0.0,1310996,1310996,6620172,197388,0,0,831,2,1,2,0,48,0,0,0,0,0,0,0
21774552000,21774472000,3.7180096e-05,0.0024130428,0.0064532277,8389271,0,0.3825521,0.41655305,0.0057839127,0.020857666,0.015289512,0.0015722964,0.0,0.0,0.0,0.0,1310996,1310996,6620172,197388,0,0,831,2,1,2,0,48,0,0,0,0,0,0,0
21774760000,21774680000,6.469609e-05,0.0022740841,0.006692923,8389271,0,0.37936968,0.41448158,0.008651066,0.011662487,0.016640384,0.0011298627,0.0,0.0,0.0,0.0,1310996,1310996,6620172,197388,0,0,831,2,1,2,0,48,0,0,0,0,0,0,0
21774960000,21774880000,9.0612164e-05,0.0035946758,0.011690835,8389271,0,0.3758182,0.41479468,0.0070337094,0.026560828,0.0227244,0.0062452783,0.0,0.0,0.0,0.0,1310996,1310996,6620172,197388,0,0,831,2,1,2,0,48,0,0,0,0,0,0,0
21775160000,21775080000,0.00012336878,0.004411006,0.012636461,8389271,0,0.37259492,0.41511545,0.009385956,0.04120911,0.018099217,0.00023724562,0.0,0.0,0.0,0.0,1310996,1310996,6620172,197388,0,0,831,2,1,2,0,48,0,0,0,0,0,0,0
21775360000,21775280000,8.331212e-05,0.0029347504,0.008219504,8389271,0,0.36965415,0.41255534,0.012793935,0.023607312,0.020887157,0.0046600173,0.0,0.0,0.0,0.0,1310996,1310996,6620172,197388,0,0,831,2,1,2,0,48,0,0,0,0,0,0,0
21775560000,21775480000,0.00010298243,0.0019516583,0.006564902,8389271,0,0.36695927,0.41291484,0.025214238,0.018011788,0.016367935,0.0019802926,0.0,0.0,0.0,0.0,1310996,1310996,6620172,197388,0,0,831,2,1,2,0,48,0,0,0,0,0,0,0
21775760000,21775680000,1.40362445e-05,0.0027591472,0.008193235,8389271,0,0.38500294,0.41838244,0.0053252666,0.018011788,0.016367935,0.0035531002,0.0,0.0,0.0,0.0,1310996,1310996,6620172,197388,0,0,831,2,1,2,0,48,0,0,0,0,0,0,0
21775960000,21775880000,9.43147e-05,0.0040111,0.012465518,8389271,0,0.38086587,0.41566926,0.011863411,0.037763417,0.014829311,0.0010865714,0.0,0.0,0.0,0.0,1310996,1310996,6620172,197388,0,0,831,2,1,2,0,48,0,0,0,0,0,0,0
21776152000,21776072000,0.00013179911,0.0035152382,0.011450132,8389271,0,0.37642035,0.41536906,0.00085069786,0.023962751,0.018646875,0.002666724,0.0,0.0,0.0,0.0,1310996,1310996,6620172,197388,0,0,831,2,1,2,0,48,0,0,0,0,0,0,0
21776352000,21776272000,0.0001394223,0.0040038526,0.013490331,8389271,0,0.37306228,0.41276708,0.0010804583,0.033800993,0.014499258,0.005145723,0.0,0.0,0.0,0.0,1310996,1310996,6620172,197388,0,0,831,2,1,2,0,48,0,0,0,0,0,0,0
21776552000,21776472000,0.0002037449,0.0030117384,0.009351596,8389271,0,0.37000552,0.41315234,0.05124555,0.02901336,0.018147314,0.0030696178,0.0,0.0,0.0,0.0,1310996,1310996,6620172,197388,0,0,831,2,1,2,0,48,0,0,0,0,0,0,0
21776752000,21776672000,6.70329e-05,0.0028413092,0.00856762,8389271,0,0.36720884,0.4135421,0.008280993,0.02641034,0.012187481,0.002701675,0.0,0.0,0.0,0.0,1310996,1310996,6620172,197388,0,0,831,2,1,2,0,48,0,0,0,0,0,0,0
21776960000,21776880000,6.8095054e-05,0.0019902436,0.0045086625,8389271,0,0.3653162,0.41164136,0.0072942,0.01728469,0.017141588,0.002281678,0.0,0.0,0.0,0.0,1310996,1310996,6620172,197388,0,0,831,2,1,2,0,48,0,0,0,0,0,0,0
21777152000,21777072000,1.4439159e-05,0.0034281393,0.008364057,8389271,0,0.3824265,0.4165152,0.0059360745,0.01728469,0.017141588,0.0038813944,0.0,0.0,0.0,0.0,1310996,1310996,6620172,197388,0,0,831,2,1,2,0,48,0,0,0,0,0,0,0
21777360000,21777280000,0.000114639166,0.002490722,0.005672864,8389271,0,0.37925804,0.4144232,0.019395929,0.034612425,0.019544354,0.006036336,0.0,0.0,0.0,0.0,1310996,1310996,6620172,197388,0,0,831,2,1,2,0,48,0,0,0,0,0,0,0
21777560000,21777480000,7.789802e-05,0.0017900339,0.0052742683,8389271,0,0.37571964,0.41471764,0.0027044788,0.022342028,0.019392015,0.001219943,0.0,0.0,0.0,0.0,1310996,1310996,6620172,197388,0,0,831,2,1,2,0,48,0,0,0,0,0,0,0
21777760000,21777680000,0.000106373256,0.0026855988,0.00862841,8389271,0,0.3725066,0.4150289,0.007868864,0.038104843,0.02534342,0.0042790915,0.0,0.0,0.0,0.0,1310996,1310996,6620172,197388,0,0,831,2,1,2,0,48,0,0,0,0,0,0,0
21777960000,21777880000,7.112763e-05,0.0034348948,0.011069734,8389271,0,0.36957496,0.41245466,0.021425214,0.041153688,0.024087273,0.006332,0.0,0.0,0.0,0.0,1310996,1310996,6620172,197388,0,0,831,2,1,2,0,48,0,0,0,0,0,0,0
21778160000,21778080000,0.00013421894,0.0026471934,0.0075258208,8389271,0,0.36688793,0.4127993,0.0049935007,0.03007694,0.024084162,0.00073166686,0.0,0.0,0.0,0.0,1310996,1310996,6620172,197388,0,0,831,2,1,2,0,48,0,0,0,0,0,0,0
21778360000,21778280000,0.00010664284,0.002845813,0.0069323997,8389271,0,0.3849195,0.41824174,0.01192086,0.03007694,0.024084162,0.0072941054,0.0,0.0,0.0,0.0,1310996,1310996,6620172,197388,0,0,831,2,1,2,0,48,0,0,0,0,0,0,0
21778560000,21778480000,0.0001397155,0.0017538215,0.0041953414,8389271,0,0.3807918,0.41550428,0.029951014,0.027800899,0.021086061,0.006631023,0.0,0.0,0.0,0.0,1310996,1310996,6620172,197388,0,0,831,2,1,2,0,48,0,0,0,0,0,0,0
21778760000,21778680000,0.000110556735,0.0014198631,0.003942862,8389271,0,0.3770769,0.41577297,0.0072437553,0.027031466,0.010712343,0.0032122082,0.0,0.0,0.0,0.0,1310996,1310996,6620172,197388,0,0,831,2,1,2,0,48,0,0,0,0,0,0,0
21778960000,21778880000,9.771558e-05,0.0012234099,0.0025370116,8389271,0,0.37377772,0.41318873,0.0061401203,0.033082325,0.025302405,0.001987992,0.0,0.0,0.0,0.0,1310996,1310996,6620172,197388,0,0,831,2,1,2,0,48,0,0,0,0,0,0,0
