timestamp,timestamp_sample,q[0],q[1],q[2],q[3],delta_q_reset[0],delta_q_reset[1],delta_q_reset[2],delta_q_reset[3],quat_reset_counter
21726820000,21726820000,0.8600257,0.00044569376,-0.00309566,-0.5102411,0.9994745,1.5110201e-09,5.936117e-10,0.032415096,47
21727320000,21727320000,0.86006063,0.00049467967,-0.0030604177,-0.5101826,0.9994745,1.5110201e-09,5.936117e-10,0.032415096,47
21727816000,21727816000,0.8600612,0.00048558722,-0.0032019042,-0.51018053,0.9994745,1.5110201e-09,5.936117e-10,0.032415096,47
21728320000,21728320000,0.8600832,0.00052700663,-0.0032011676,-0.51014334,0.9994745,1.5110201e-09,5.936117e-10,0.032415096,47
21728820000,21728820000,0.8601088,0.0005974754,-0.0033865354,-0.5100991,0.9994745,1.5110201e-09,5.936117e-10,0.032415096,47
21729320000,21729320000,0.8599979,0.00074868434,-0.0034824128,-0.5102852,0.9994745,1.5110201e-09,5.936117e-10,0.032415096,47
21729816000,21729816000,0.8600036,0.00093088043,-0.0034337556,-0.51027566,0.9994745,1.5110201e-09,5.936117e-10,0.032415096,47
21730320000,21730320000,0.85997456,0.0010825461,-0.0032635538,-0.5103255,0.9994745,1.5110201e-09,5.936117e-10,0.032415096,47
21730816000,21730816000,0.86009824,0.0011430203,-0.0032634202,-0.51011676,0.9994745,1.5110201e-09,5.936117e-10,0.032415096,47
21731320000,21731320000,0.8600845,0.00112681,-0.0033650894,-0.51013947,0.9994745,1.5110201e-09,5.936117e-10,0.032415096,47
21731820000,21731820000,0.860053,0.0013031124,-0.003152497,-0.5101933,0.9994745,1.5110201e-09,5.936117e-10,0.032415096,47
21732320000,21732320000,0.85993356,0.0011366771,-0.0030679936,-0.51039565,0.9994745,1.5110201e-09,5.936117e-10,0.032415096,47
21732820000,21732820000,0.8601166,0.0012153721,-0.0031706835,-0.51008624,0.9994745,1.5110201e-09,5.936117e-10,0.032415096,47
21733316000,21733316000,0.8602268,0.0011938391,-0.003160349,-0.50990045,0.9994745,1.5110201e-09,5.936117e-10,0.032415096,47
21733820000,21733820000,0.86047786,0.0014770833,-0.0026346669,-0.5094789,0.9994745,1.5110201e-09,5.936117e-10,0.032415096,47
21734316000,21734316000,0.8600924,0.00080537645,0.0018912898,-0.51013416,0.9994745,1.5110201e-09,5.936117e-10,0.032415096,47
21734820000,21734820000,0.86010575,0.0019342486,-0.0037959686,-0.510098,0.9994745,1.5110201e-09,5.936117e-10,0.032415096,47
21735320000,21735320000,0.86023915,0.0027673102,-0.0037798467,-0.50986934,0.9994745,1.5110201e-09,5.936117e-10,0.032415096,47
21735816000,21735816000,0.8743307,0.0029828653,-0.0023178076,-0.48531595,0.99928063,-7.6622465e-11,-4.5564702e-10,0.037923757,48
21736316000,21736316000,0.8706059,0.0038494496,-0.00080784893,-0.49196556,0.99928063,-7.6622465e-11,-4.5564702e-10,0.037923757,48
21736820000,21736820000,0.868396,0.0037247937,0.00061633735,-0.49585697,0.99928063,-7.6622465e-11,-4.5564702e-10,0.037923757,48
21737320000,21737320000,0.8671493,0.004548274,0.00020395331,-0.49802765,0.99928063,-7.6622465e-11,-4.5564702e-10,0.037923757,48
21737820000,21737820000,0.8661326,0.0060160086,0.0020857442,-0.4997737,0.99928063,-7.6622465e-11,-4.5564702e-10,0.037923757,48
21738316000,21738316000,0.86392295,0.03147656,0.016070519,-0.50238246,0.99928063,-7.6622465e-11,-4.5564702e-10,0.037923757,48
21738820000,21738820000,0.8576724,0.09338223,0.05259688,-0.50290304,0.99928063,-7.6622465e-11,-4.5564702e-10,0.037923757,48
21739316000,21739316000,0.84910065,0.104408555,0.16390564,-0.49118418,0.99928063,-7.6622465e-11,-4.5564702e-10,0.037923757,48
21739820000,21739820000,0.8485972,0.09621552,0.16932362,-0.49188915,0.99928063,-7.6622465e-11,-4.5564702e-10,0.037923757,48
21740320000,21740320000,0.84841543,0.097244136,0.16278544,-0.4942023,0.99928063,-7.6622465e-11,-4.5564702e-10,0.037923757,48
21740820000,21740820000,0.84837604,0.09965137,0.16446202,-0.49323422,0.99928063,-7.6622465e-11,-4.5564702e-10,0.037923757,48
21741320000,21741320000,0.8478614,0.10157788,0.16786371,-0.49257967,0.99928063,-7.6622465e-11,-4.5564702e-10,0.037923757,48
21741820000,21741820000,0.8476628,0.10303309,0.17114435,-0.49148914,0.99928063,-7.6622465e-11,-4.5564702e-10,0.037923757,48
21742316000,21742316000,0.8472751,0.10451584,0.17444044,-0.4906853,0.99928063,-7.6622465e-11,-4.5564702e-10,0.037923757,48
21742820000,21742820000,0.84685755,0.105810106,0.17727327,-0.49011302,0.99928063,-7.6622465e-11,-4.5564702e-10,0.037923757,48
21743316000,21743316000,0.8464096,0.10736978,0.17915893,-0.4898619,0.99928063,-7.6622465e-11,-4.5564702e-10,0.037923757,48
21743820000,21743820000,0.84611,0.10786409,0.18179287,-0.48930016,0.99928063,-7.6622465e-11,-4.5564702e-10,0.037923757,48
21744320000,21744320000,0.8455949,0.109545775,0.18314688,-0.48931217,0.99928063,-7.6622465e-11,-4.5564702e-10,0.037923757,48
21744820000,21744820000,0.8453238,0.10960458,0.1852096,-0.48899087,0.99928063,-7.6622465e-11,-4.5564702e-10,0.037923757,48
21745320000,21745320000,0.8449031,0.1105476,0.18659027,-0.4889807,0.99928063,-7.6622465e-11,-4.5564702e-10,0.037923757,48
21745820000,21745820000,0.84465915,0.11081506,0.18799292,-0.4888043,0.99928063,-7.6622465e-11,-4.5564702e-10,0.037923757,48
21746320000,21746320000,0.84443706,0.11143996,0.18916944,-0.48859206,0.99928063,-7.6622465e-11,-4.5564702e-10,0.037923757,48
21746820000,21746820000,0.84437144,0.1117737,0.18997182,-0.48831788,0.99928063,-7.6622465e-11,-4.5564702e-10,0.037923757,48
21747320000,21747320000,0.8441611,0.11257673,0.19070841,-0.48821002,0.99928063,-7.6622465e-11,-4.5564702e-10,0.037923757,48
21747820000,21747820000,0.84421104,0.11266326,0.19149826,-0.48779413,0.99928063,-7.6622465e-11,-4.5564702e-10,0.037923757,48
21748316000,21748316000,0.84390384,0.112875044,0.19241646,-0.48791552,0.99928063,-7.6622465e-11,-4.5564702e-10,0.037923757,48
21748820000,21748820000,0.8438586,0.113087624,0.19274534,-0.4878147,0.99928063,-7.6622465e-11,-4.5564702e-10,0.037923757,48
21749320000,21749320000,0.84383357,0.113707624,0.19316645,-0.48754725,0.99928063,-7.6622465e-11,-4.5564702e-10,0.037923757,48
21749820000,21749820000,0.8439046,0.11250511,0.194279,-0.48726103,0.99928063,-7.6622465e-11,-4.5564702e-10,0.037923757,48
21750316000,21750316000,0.84371364,0.11409851,0.1938805,-0.48738015,0.99928063,-7.6622465e-11,-4.5564702e-10,0.037923757,48
21750820000,21750820000,0.8436692,0.11398203,0.19426227,-0.48733234,0.99928063,-7.6622465e-11,-4.5564702e-10,0.037923757,48
21751320000,21751320000,0.84362876,0.11327993,0.19507888,-0.48723957,0.99928063,-7.6622465e-11,-4.5564702e-10,0.037923757,48
21751816000,21751816000,0.84341174,0.11405525,0.19507876,-0.48743442,0.99928063,-7.6622465e-11,-4.5564702e-10,0.037923757,48
21752316000,21752316000,0.84351844,0.11382636,0.19529524,-0.4872167,0.99928063,-7.6622465e-11,-4.5564702e-10,0.037923757,48
21752820000,21752820000,0.84348434,0.113924675,0.19553772,-0.4871555,0.99928063,-7.6622465e-11,-4.5564702e-10,0.037923757,48
21753316000,21753316000,0.8434324,0.11426292,0.1952788,-0.48726994,0.99928063,-7.6622465e-11,-4.5564702e-10,0.037923757,48
21753820000,21753820000,0.84337044,0.11436217,0.19560644,-0.48722246,0.99928063,-7.6622465e-11,-4.5564702e-10,0.037923757,48
21754320000,21754320000,0.8433574,0.1140281,0.19589256,-0.48720855,0.99928063,-7.6622465e-11,-4.5564702e-10,0.037923757,48
21754820000,21754820000,0.8432457,0.11395704,0.19609669,-0.4873363,0.99928063,-7.6622465e-11,-4.5564702e-10,0.037923757,48
21755316000,21755316000,0.8432739,0.1142655,0.19553001,-0.4874429,0.99928063,-7.6622465e-11,-4.5564702e-10,0.037923757,48
21755820000,21755820000,0.8431799,0.113913104,0.19614756,-0.48743996,0.99928063,-7.6622465e-11,-4.5564702e-10,0.037923757,48
21756316000,21756316000,0.8430535,0.11432534,0.19606581,-0.48759505,0.99928063,-7.6622465e-11,-4.5564702e-10,0.037923757,48
21756820000,21756820000,0.84307176,0.11493563,0.19558492,-0.4876129,0.99928063,-7.6622465e-11,-4.5564702e-10,0.037923757,48
21757316000,21757316000,0.8430951,0.114397295,0.19611044,-0.487488,0.99928063,-7.6622465e-11,-4.5564702e-10,0.037923757,48
21757816000,21757816000,0.8429912,0.11485227,0.19572213,-0.48771667,0.99928063,-7.6622465e-11,-4.5564702e-10,0.037923757,48
21758320000,21758320000,0.843092,0.11462461,0.1957711,-0.4875764,0.99928063,-7.6622465e-11,-4.5564702e-10,0.037923757,48
21758820000,21758820000,0.8429942,0.11449418,0.19593409,-0.48771077,0.99928063,-7.6622465e-11,-4.5564702e-10,0.037923757,48
21759320000,21759320000,0.84292907,0.11463067,0.19587928,-0.4878131,0.99928063,-7.6622465e-11,-4.5564702e-10,0.037923757,48
21759820000,21759820000,0.8429217,0.11506754,0.19585314,-0.4877336,0.99928063,-7.6622465e-11,-4.5564702e-10,0.037923757,48
21760320000,21760320000,0.84290594,0.11489296,0.1956862,-0.4878688,0.99928063,-7.6622465e-11,-4.5564702e-10,0.037923757,48
21760820000,21760820000,0.8429538,0.11459672,0.19597411,-0.4877403,0.99928063,-7.6622465e-11,-4.5564702e-10,0.037923757,48
21761316000,21761316000,0.8428988,0.11485365,0.1960719,-0.48773572,0.99928063,-7.6622465e-11,-4.5564702e-10,0.037923757,48
21761820000,21761820000,0.8428416,0.11491618,0.19597694,-0.48785806,0.99928063,-7.6622465e-11,-4.5564702e-10,0.037923757,48
21762320000,21762320000,0.84284914,0.115288354,0.19575086,-0.4878478,0.99928063,-7.6622465e-11,-4.5564702e-10,0.037923757,48
21762820000,21762820000,0.8428705,0.11471461,0.19625413,-0.48774415,0.99928063,-7.6622465e-11,-4.5564702e-10,0.037923757,48
21763316000,21763316000,0.84287816,0.11508401,0.19581595,-0.48781994,0.99928063,-7.6622465e-11,-4.5564702e-10,0.037923757,48
21763820000,21763820000,0.84287816,0.114479914,0.19629411,-0.48777,0.99928063,-7.6622465e-11,-4.5564702e-10,0.037923757,48
21764320000,21764320000,0.8427778,0.11504975,0.19612107,-0.48787898,0.99928063,-7.6622465e-11,-4.5564702e-10,0.037923757,48
21764820000,21764820000,0.8428167,0.114768125,0.19592349,-0.48795733,0.99928063,-7.6622465e-11,-4.5564702e-10,0.037923757,48
21765320000,21765320000,0.8428966,0.11460204,0.19593437,-0.487854,0.99928063,-7.6622465e-11,-4.5564702e-10,0.037923757,48
21765820000,21765820000,0.84295267,0.11457756,0.1960012,-0.48773605,0.99928063,-7.6622465e-11,-4.5564702e-10,0.037923757,48
21766316000,21766316000,0.8426374,0.1155406,0.19603251,-0.48804098,0.99928063,-7.6622465e-11,-4.5564702e-10,0.037923757,48
21766820000,21766820000,0.84289914,0.11462568,0.19609524,-0.4877794,0.99928063,-7.6622465e-11,-4.5564702e-10,0.037923757,48
21767320000,21767320000,0.84264237,0.11550014,0.19589195,-0.48809823,0.99928063,-7.6622465e-11,-4.5564702e-10,0.037923757,48
21767820000,21767820000,0.8427821,0.11478697,0.19654652,-0.4877621,0.99928063,-7.6622465e-11,-4.5564702e-10,0.037923757,48
21768320000,21768320000,0.84268063,0.115349,0.1961337,-0.48797074,0.99928063,-7.6622465e-11,-4.5564702e-10,0.037923757,48
21768820000,21768820000,0.84277827,0.1152063,0.19626808,-0.48778203,0.99928063,-7.6622465e-11,-4.5564702e-10,0.037923757,48
21769320000,21769320000,0.8428656,0.11518229,0.19593628,-0.48777,0.99928063,-7.6622465e-11,-4.5564702e-10,0.037923757,48
21769820000,21769820000,0.8428377,0.11497386,0.19602767,-0.48783073,0.99928063,-7.6622465e-11,-4.5564702e-10,0.037923757,48
21770320000,21770320000,0.84278387,0.114966616,0.19637568,-0.48778552,0.99928063,-7.6622465e-11,-4.5564702e-10,0.037923757,48
21770816000,21770816000,0.842881,0.11486383,0.19606206,-0.48776796,0.99928063,-7.6622465e-11,-4.5564702e-10,0.037923757,48
21771316000,21771316000,0.8428527,0.11503917,0.19609402,-0.4877628,0.99928063,-7.6622465e-11,-4.5564702e-10,0.037923757,48
21771820000,21771820000,0.8427982,0.11497882,0.19622724,-0.48781776,0.99928063,-7.6622465e-11,-4.5564702e-10,0.037923757,48
21772316000,21772316000,0.8427435,0.11517802,0.19628794,-0.48784068,0.99928063,-7.6622465e-11,-4.5564702e-10,0.037923757,48
21772820000,21772820000,0.8427299,0.1152371,0.19617471,-0.48789564,0.99928063,-7.6622465e-11,-4.5564702e-10,0.037923757,48
21773316000,21773316000,0.842602,0.1154902,0.19618163,-0.48805383,0.99928063,-7.6622465e-11,-4.5564702e-10,0.037923757,48
21773820000,21773820000,0.8426814,0.11478765,0.19644864,-0.48797542,0.99928063,-7.6622465e-11,-4.5564702e-10,0.037923757,48
21774320000,21774320000,0.84271073,0.11505146,0.1962987,-0.48792282,0.99928063,-7.6622465e-11,-4.5564702e-10,0.037923757,48
21774820000,21774820000,0.8428089,0.114673026,0.19642861,-0.48779002,0.99928063,-7.6622465e-11,-4.5564702e-10,0.037923757,48
21775316000,21775316000,0.84265375,0.11542537,0.19604498,-0.48803478,0.99928063,-7.6622465e-11,-4.5564702e-10,0.037923757,48
21775820000,21775820000,0.84271836,0.11492802,0.19648162,-0.48786527,0.99928063,-7.6622465e-11,-4.5564702e-10,0.037923757,48
21776316000,21776316000,0.8427865,0.11460382,0.19661663,-0.4877692,0.99928063,-7.6622465e-11,-4.5564702e-10,0.037923757,48
21776820000,21776820000,0.84278584,0.11539508,0.19613853,-0.4877764,0.99928063,-7.6622465e-11,-4.5564702e-10,0.037923757,48
21777320000,21777320000,0.8426285,0.1154404,0.19656637,-0.48786512,0.99928063,-7.6622465e-11,-4.5564702e-10,0.037923757,48
21777820000,21777820000,0.8426782,0.115753934,0.19602661,-0.48792216,0.99928063,-7.6622465e-11,-4.5564702e-10,0.037923757,48
21778320000,21778320000,0.84276634,0.11520354,0.19622122,-0.48782206,0.99928063,-7.6622465e-11,-4.5564702e-10,0.037923757,48
21778820000,21778820000,0.8429325,0.1148451,0.19642524,-0.4875372,0.99928063,-7.6622465e-11,-4.5564702e-10,0.037923757,48
21779320000,21779320000,0.8425834,0.11589903,0.19610094,-0.48802155,0.99928063,-7.6622465e-11,-4.5564702e-10,0.037923757,48
21779820000,21779820000,0.84266883,0.11497941,0.19676268,-0.4878254,0.99928063,-7.6622465e-11,-4.5564702e-10,0.037923757,48
21780320000,21780320000,0.842635,0.115406506,0.1962086,-0.48800603,0.99928063,-7.6622465e-11,-4.5564702e-10,0.037923757,48
21780820000,21780820000,0.8426641,0.11503357,0.19655794,-0.48790306,0.99928063,-7.6622465e-11,-4.5564702e-10,0.037923757,48
21781320000,21781320000,0.84254515,0.11593504,0.1959989,-0.48812026,0.99928063,-7.6622465e-11,-4.5564702e-10,0.037923757,48
21781820000,21781820000,0.8426061,0.115430824,0.19623119,-0.48804107,0.99928063,-7.6622465e-11,-4.5564702e-10,0.037923757,48
21782320000,21782320000,0.8426844,0.11501883,0.19639218,-0.4879382,0.99928063,-7.6622465e-11,-4.5564702e-10,0.037923757,48
21782820000,21782820000,0.84256643,0.11552567,0.19633026,-0.48804727,0.99928063,-7.6622465e-11,-4.5564702e-10,0.037923757,48
21783320000,21783320000,0.8426223,0.115246214,0.19651677,-0.48794177,0.99928063,-7.6622465e-11,-4.5564702e-10,0.037923757,48
21783820000,21783820000,0.8425556,0.115213275,0.19652282,-0.48806226,0.99928063,-7.6622465e-11,-4.5564702e-10,0.037923757,48
21784320000,21784320000,0.8424968,0.11598355,0.19599383,-0.48819396,0.99928063,-7.6622465e-11,-4.5564702e-10,0.037923757,48
21784820000,21784820000,0.84260845,0.115374506,0.19639266,-0.48798534,0.99928063,-7.6622465e-11,-4.5564702e-10,0.037923757,48
21785320000,21785320000,0.84254503,0.11578085,0.19609098,-0.48811987,0.99928063,-7.6622465e-11,-4.5564702e-10,0.037923757,48
21785816000,21785816000,0.84243554,0.11606844,0.19612274,-0.48822787,0.99928063,-7.6622465e-11,-4.5564702e-10,0.037923757,48
21786320000,21786320000,0.8424751,0.1159606,0.19586478,-0.48828852,0.99928063,-7.6622465e-11,-4.5564702e-10,0.037923757,48
21786820000,21786820000,0.8426122,0.11544635,0.19638593,-0.48796466,0.99928063,-7.6622465e-11,-4.5564702e-10,0.037923757,48
21787316000,21787316000,0.84256965,0.11553131,0.1961878,-0.4880978,0.99928063,-7.6622465e-11,-4.5564702e-10,0.037923757,48
21787820000,21787820000,0.84251314,0.115597405,0.19624794,-0.4881555,0.99928063,-7.6622465e-11,-4.5564702e-10,0.037923757,48
21788320000,21788320000,0.8425759,0.11560383,0.19608946,-0.48810926,0.99928063,-7.6622465e-11,-4.5564702e-10,0.037923757,48
21788820000,21788820000,0.842617,0.11515477,0.19619606,-0.48810166,0.99928063,-7.6622465e-11,-4.5564702e-10,0.037923757,48
21789320000,21789320000,0.84258413,0.11524019,0.1963593,-0.4880725,0.99928063,-7.6622465e-11,-4.5564702e-10,0.037923757,48
21789820000,21789820000,0.842568,0.11487421,0.19632472,-0.48820055,0.99928063,-7.6622465e-11,-4.5564702e-10,0.037923757,48
21790320000,21790320000,0.8425565,0.1150735,0.1961541,-0.48824194,0.99928063,-7.6622465e-11,-4.5564702e-10,0.037923757,48
21790820000,21790820000,0.842626,0.11513907,0.19612476,-0.48811826,0.99928063,-7.6622465e-11,-4.5564702e-10,0.037923757,48
21791320000,21791320000,0.84245884,0.11538882,0.19622765,-0.48830658,0.99928063,-7.6622465e-11,-4.5564702e-10,0.037923757,48
21791820000,21791820000,0.84252393,0.11541453,0.19640236,-0.48811802,0.99928063,-7.6622465e-11,-4.5564702e-10,0.037923757,48
21792320000,21792320000,0.8426308,0.11478709,0.19645108,-0.48806196,0.99928063,-7.6622465e-11,-4.5564702e-10,0.037923757,48
21792820000,21792820000,0.8424006,0.11530338,0.1962248,-0.4884282,0.99928063,-7.6622465e-11,-4.5564702e-10,0.037923757,48
21793320000,21793320000,0.84252846,0.115132466,0.19625284,-0.4882369,0.99928063,-7.6622465e-11,-4.5564702e-10,0.037923757,48
21793820000,21793820000,0.8425029,0.11574026,0.1961042,-0.48819694,0.99928063,-7.6622465e-11,-4.5564702e-10,0.037923757,48
21794320000,21794320000,0.8425124,0.11515613,0.1962014,-0.4882797,0.99928063,-7.6622465e-11,-4.5564702e-10,0.037923757,48
21794820000,21794820000,0.8424514,0.11562281,0.1962621,-0.48825034,0.99928063,-7.6622465e-11,-4.5564702e-10,0.037923757,48
21795320000,21795320000,0.84254104,0.11531114,0.19610937,-0.48823053,0.99928063,-7.6622465e-11,-4.5564702e-10,0.037923757,48
21795820000,21795820000,0.8424582,0.11523501,0.1961121,-0.48839048,0.99928063,-7.6622465e-11,-4.5564702e-10,0.037923757,48
21796320000,21796320000,0.84243536,0.11486113,0.19654104,-0.48834562,0.99928063,-7.6622465e-11,-4.5564702e-10,0.037923757,48
21796820000,21796820000,0.84249943,0.1154014,0.19605236,-0.48830387,0.99928063,-7.6622465e-11,-4.5564702e-10,0.037923757,48
21797320000,21797320000,0.84244,0.115547284,0.19637942,-0.48824042,0.99928063,-7.6622465e-11,-4.5564702e-10,0.037923757,48
21797820000,21797820000,0.84247625,0.11524839,0.19615354,-0.4883393,0.99928063,-7.6622465e-11,-4.5564702e-10,0.037923757,48
21798320000,21798320000,0.8425911,0.11472617,0.19638628,-0.48817086,0.99928063,-7.6622465e-11,-4.5564702e-10,0.037923757,48
21798820000,21798820000,0.8425635,0.11497821,0.19639517,-0.48815554,0.99928063,-7.6622465e-11,-4.5564702e-10,0.037923757,48
21799320000,21799320000,0.84249157,0.11470231,0.19645,-0.48832253,0.99928063,-7.6622465e-11,-4.5564702e-10,0.037923757,48
21799820000,21799820000,0.8424223,0.1157469,0.19585718,-0.4884335,0.99928063,-7.6622465e-11,-4.5564702e-10,0.037923757,48
21800316000,21800316000,0.8424902,0.11519975,0.19642468,-0.4882177,0.99928063,-7.6622465e-11,-4.5564702e-10,0.037923757,48
21800820000,21800820000,0.8424408,0.115880795,0.1960054,-0.4883105,0.99928063,-7.6622465e-11,-4.5564702e-10,0.037923757,48
21801320000,21801320000,0.84252864,0.11529826,0.19632146,-0.4881696,0.99928063,-7.6622465e-11,-4.5564702e-10,0.037923757,48
21801820000,21801820000,0.8424127,0.116250634,0.19567955,-0.48840168,0.99928063,-7.6622465e-11,-4.5564702e-10,0.037923757,48
21802320000,21802320000,0.8424683,0.11541524,0.19648749,-0.48817953,0.99928063,-7.6622465e-11,-4.5564702e-10,0.037923757,48
21802820000,21802820000,0.84248275,0.11526118,0.19635357,-0.4882447,0.99928063,-7.6622465e-11,-4.5564702e-10,0.037923757,48
21803316000,21803316000,0.842389,0.11581868,0.19638541,-0.48826185,0.99928063,-7.6622465e-11,-4.5564702e-10,0.037923757,48
21803820000,21803820000,0.84269094,0.11449074,0.19654672,-0.48798907,0.99928063,-7.6622465e-11,-4.5564702e-10,0.037923757,48
21804320000,21804320000,0.84240454,0.116202705,0.19583873,-0.4883635,0.99928063,-7.6622465e-11,-4.5564702e-10,0.037923757,48
21804820000,21804820000,0.842505,0.11489291,0.19692507,-0.48806298,0.99928063,-7.6622465e-11,-4.5564702e-10,0.037923757,48
21805320000,21805320000,0.8423929,0.115888394,0.19655457,-0.48817053,0.99928063,-7.6622465e-11,-4.5564702e-10,0.037923757,48
21805816000,21805816000,0.8424323,0.11576388,0.19617036,-0.48828653,0.99928063,-7.6622465e-11,-4.5564702e-10,0.037923757,48
21806320000,21806320000,0.8424391,0.11529842,0.1964605,-0.48826835,0.99928063,-7.6622465e-11,-4.5564702e-10,0.037923757,48
21806820000,21806820000,0.84654456,0.014635662,-0.30553257,-0.43565813,0.99928063,-7.6622465e-11,-4.5564702e-10,0.037923757,48
21807316000,21807316000,0.85565454,-0.096956246,-0.0028015547,-0.50837684,0.99928063,-7.6622465e-11,-4.5564702e-10,0.037923757,48
21807820000,21807820000,0.8618443,0.014783081,-0.052355763,-0.5042469,0.99928063,-7.6622465e-11,-4.5564702e-10,0.037923757,48
21808320000,21808320000,0.86138356,-0.02290606,-0.049674973,-0.5050012,0.99928063,-7.6622465e-11,-4.5564702e-10,0.037923757,48
21808816000,21808816000,0.8538322,-0.06845638,-0.12791498,-0.4999222,0.99928063,-7.6622465e-11,-4.5564702e-10,0.037923757,48
21809320000,21809320000,0.85044336,-0.07905452,-0.14804558,-0.49857718,0.99928063,-7.6622465e-11,-4.5564702e-10,0.037923757,48
21809820000,21809820000,0.85586286,-0.06941529,-0.12565261,-0.49688205,0.99928063,-7.6622465e-11,-4.5564702e-10,0.037923757,48
21810316000,21810316000,0.85992974,-0.039612707,-0.10236125,-0.4984715,0.99928063,-7.6622465e-11,-4.5564702e-10,0.037923757,48
21810820000,21810820000,0.86563534,-0.003192222,-0.06117617,-0.4969132,0.99928063,-7.6622465e-11,-4.5564702e-10,0.037923757,48
21811316000,21811316000,0.86448205,-0.015003172,-0.035457436,-0.5011872,0.99928063,-7.6622465e-11,-4.5564702e-10,0.037923757,48
21811816000,21811816000,0.86495507,0.0024364197,-0.018187437,-0.5015137,0.99928063,-7.6622465e-11,-4.5564702e-10,0.037923757,48
21812320000,21812320000,0.8647295,0.010895771,0.0040394245,-0.5021033,0.99928063,-7.6622465e-11,-4.5564702e-10,0.037923757,48
21812820000,21812820000,0.86456305,0.012669548,0.014709076,-0.5021493,0.99928063,-7.6622465e-11,-4.5564702e-10,0.037923757,48
21813320000,21813320000,0.8647693,0.009947406,0.0146851465,-0.5018562,0.99928063,-7.6622465e-11,-4.5564702e-10,0.037923757,48
21813816000,21813816000,0.86509943,0.006460268,0.0112772845,-0.5014321,0.99928063,-7.6622465e-11,-4.5564702e-10,0.037923757,48
21814320000,21814320000,0.865425,0.0048022657,0.009595235,-0.5009238,0.99928063,-7.6622465e-11,-4.5564702e-10,0.037923757,48
21814820000,21814820000,0.86556166,0.004565066,0.0046378653,-0.50076014,0.99928063,-7.6622465e-11,-4.5564702e-10,0.037923757,48
21815316000,21815316000,0.86555135,0.0064053293,0.0004169278,-0.50077915,0.99928063,-7.6622465e-11,-4.5564702e-10,0.037923757,48
21815816000,21815816000,0.8656156,0.006156876,-0.0018148011,-0.50066817,0.99928063,-7.6622465e-11,-4.5564702e-10,0.037923757,48
21816320000,21816320000,0.86553884,0.0062788967,-0.0009203552,-0.5008018,0.99928063,-7.6622465e-11,-4.5564702e-10,0.037923757,48
21816820000,21816820000,0.8654674,0.0063488116,-0.0026740723,-0.50091803,0.99928063,-7.6622465e-11,-4.5564702e-10,0.037923757,48
21817320000,21817320000,0.8654454,0.0076825935,-0.0019617293,-0.5009406,0.99928063,-7.6622465e-11,-4.5564702e-10,0.037923757,48
21817820000,21817820000,0.86553013,0.008157802,0.00016186114,-0.5007904,0.99928063,-7.6622465e-11,-4.5564702e-10,0.037923757,48
21818320000,21818320000,0.86547786,0.009926185,0.001250479,-0.5008473,0.99928063,-7.6622465e-11,-4.5564702e-10,0.037923757,48
21818816000,21818816000,0.8653363,0.010337753,0.0014836243,-0.5010828,0.99928063,-7.6622465e-11,-4.5564702e-10,0.037923757,48
21819320000,21819320000,0.8653313,0.009969703,0.0019981926,-0.5010973,0.99928063,-7.6622465e-11,-4.5564702e-10,0.037923757,48
21819820000,21819820000,0.8654186,0.009222472,0.0034007553,-0.5009532,0.99928063,-7.6622465e-11,-4.5564702e-10,0.037923757,48
21820320000,21820320000,0.8654347,0.009244497,0.0026563853,-0.5009296,0.99928063,-7.6622465e-11,-4.5564702e-10,0.037923757,48
21820820000,21820820000,0.8654791,0.008157969,0.002302123,-0.5008735,0.99928063,-7.6622465e-11,-4.5564702e-10,0.037923757,48
21821320000,21821320000,0.8654563,0.0093013,0.0025733574,-0.5008915,0.99928063,-7.6622465e-11,-4.5564702e-10,0.037923757,48
21821820000,21821820000,0.865491,0.009057518,0.0013236309,-0.50084096,0.99928063,-7.6622465e-11,-4.5564702e-10,0.037923757,48
21822316000,21822316000,0.86552525,0.008950759,0.0030877248,-0.5007759,0.99928063,-7.6622465e-11,-4.5564702e-10,0.037923757,48
21822820000,21822820000,0.86550957,0.009630348,0.0028452752,-0.50079167,0.99928063,-7.6622465e-11,-4.5564702e-10,0.037923757,48
21823320000,21823320000,0.86552227,0.009537325,0.0042452384,-0.50076175,0.99928063,-7.6622465e-11,-4.5564702e-10,0.037923757,48
21823820000,21823820000,0.8654964,0.0092301,0.004866601,-0.5008065,0.99928063,-7.6622465e-11,-4.5564702e-10,0.037923757,48
21824320000,21824320000,0.86555415,0.009087329,0.0044943956,-0.50071275,0.99928063,-7.6622465e-11,-4.5564702e-10,0.037923757,48
21824820000,21824820000,0.86556315,0.008524011,0.0032047948,-0.50071716,0.99928063,-7.6622465e-11,-4.5564702e-10,0.037923757,48
21825320000,21825320000,0.8655363,0.0070259976,0.0012265091,-0.50079554,0.99928063,-7.6622465e-11,-4.5564702e-10,0.037923757,48
21825816000,21825816000,0.8656022,0.0071359216,0.0010017658,-0.50068057,0.99928063,-7.6622465e-11,-4.5564702e-10,0.037923757,48
21826320000,21826320000,0.86559623,0.008073639,0.00047708198,-0.5006773,0.99928063,-7.6622465e-11,-4.5564702e-10,0.037923757,48
21826820000,21826820000,0.86551297,0.007745618,0.00033725996,-0.50082654,0.99928063,-7.6622465e-11,-4.5564702e-10,0.037923757,48
21827316000,21827316000,0.86552924,0.008973997,0.0004944204,-0.5007778,0.99928063,-7.6622465e-11,-4.5564702e-10,0.037923757,48
21827820000,21827820000,0.86551285,0.010137684,-0.00011676023,-0.50078416,0.99928063,-7.6622465e-11,-4.5564702e-10,0.037923757,48
21828320000,21828320000,0.86546654,0.0098693855,0.001413572,-0.50086766,0.99928063,-7.6622465e-11,-4.5564702e-10,0.037923757,48
21828816000,21828816000,0.86555463,0.010199946,0.001174848,-0.5007095,0.99928063,-7.6622465e-11,-4.5564702e-10,0.037923757,48
21829320000,21829320000,0.86546683,0.00919332,0.0019540319,-0.50087804,0.99928063,-7.6622465e-11,-4.5564702e-10,0.037923757,48
21829820000,21829820000,0.8654915,0.010784457,0.0016865587,-0.5008046,0.99928063,-7.6622465e-11,-4.5564702e-10,0.037923757,48
21830320000,21830320000,0.8654759,0.011604858,0.0012868564,-0.5008145,0.99928063,-7.6622465e-11,-4.5564702e-10,0.037923757,48
21830820000,21830820000,0.86548394,0.010410047,0.0015245132,-0.50082636,0.99928063,-7.6622465e-11,-4.5564702e-10,0.037923757,48
21831320000,21831320000,0.86548823,0.010863033,0.0019456694,-0.5008078,0.99928063,-7.6622465e-11,-4.5564702e-10,0.037923757,48
21831820000,21831820000,0.8654306,0.009910776,0.0013145339,-0.5009292,0.99928063,-7.6622465e-11,-4.5564702e-10,0.037923757,48
21832320000,21832320000,0.8653932,0.011795308,0.00077244756,-0.50095415,0.99928063,-7.6622465e-11,-4.5564702e-10,0.037923757,48
21832820000,21832820000,0.86539483,0.011907486,0.00088448485,-0.5009484,0.99928063,-7.6622465e-11,-4.5564702e-10,0.037923757,48
21833320000,21833320000,0.8654337,0.010926583,0.0014582823,-0.50090224,0.99928063,-7.6622465e-11,-4.5564702e-10,0.037923757,48
21833816000,21833816000,0.8654629,0.010341553,0.0011383855,-0.5008651,0.99928063,-7.6622465e-11,-4.5564702e-10,0.037923757,48
21834320000,21834320000,0.86544573,0.0102595575,0.0025326733,-0.50089145,0.99928063,-7.6622465e-11,-4.5564702e-10,0.037923757,48
21834820000,21834820000,0.86556214,0.009766003,0.00085786753,-0.50070584,0.99928063,-7.6622465e-11,-4.5564702e-10,0.037923757,48
21835320000,21835320000,0.8655509,0.010060997,0.0005837934,-0.50071955,0.99928063,-7.6622465e-11,-4.5564702e-10,0.037923757,48
21835816000,21835816000,0.8655018,0.0107693225,0.00011400682,-0.50079,0.99928063,-7.6622465e-11,-4.5564702e-10,0.037923757,48
21836320000,21836320000,0.865502,0.00945868,0.00020877224,-0.50081617,0.99928063,-7.6622465e-11,-4.5564702e-10,0.037923757,48
21836816000,21836816000,0.8655358,0.008719591,-7.8877085e-05,-0.5007713,0.99928063,-7.6622465e-11,-4.5564702e-10,0.037923757,48
21837320000,21837320000,0.86552167,0.008651411,-0.0018954313,-0.5007933,0.99928063,-7.6622465e-11,-4.5564702e-10,0.037923757,48
21837820000,21837820000,0.86551607,0.008846014,-0.0008565068,-0.5008025,0.99928063,-7.6622465e-11,-4.5564702e-10,0.037923757,48
21838320000,21838320000,0.8655427,0.008791384,-0.0011628788,-0.5007566,0.99928063,-7.6622465e-11,-4.5564702e-10,0.037923757,48
21838820000,21838820000,0.86553466,0.009417808,0.000679301,-0.5007601,0.99928063,-7.6622465e-11,-4.5564702e-10,0.037923757,48
21839320000,21839320000,0.86551297,0.00963952,0.0008393943,-0.50079316,0.99928063,-7.6622465e-11,-4.5564702e-10,0.037923757,48
21839816000,21839816000,0.86553216,0.009775628,0.0006626033,-0.5007576,0.99928063,-7.6622465e-11,-4.5564702e-10,0.037923757,48
21840320000,21840320000,0.8655035,0.01041813,0.0017488562,-0.50079167,0.99928063,-7.6622465e-11,-4.5564702e-10,0.037923757,48
21840820000,21840820000,0.8654983,0.012466843,0.0014454861,-0.5007547,0.99928063,-7.6622465e-11,-4.5564702e-10,0.037923757,48
21841320000,21841320000,0.8654891,0.012545497,-0.00052970415,-0.50077045,0.99928063,-7.6622465e-11,-4.5564702e-10,0.037923757,48
21841820000,21841820000,0.8653746,0.013779443,-0.0009345778,-0.50093526,0.99928063,-7.6622465e-11,-4.5564702e-10,0.037923757,48
21842320000,21842320000,0.8654317,0.013555594,-0.0027575535,-0.50083596,0.99928063,-7.6622465e-11,-4.5564702e-10,0.037923757,48
21842820000,21842820000,0.86538976,0.012626515,-0.0017218299,-0.5009373,0.99928063,-7.6622465e-11,-4.5564702e-10,0.037923757,48
21843320000,21843320000,0.8654148,0.010705758,-0.00024478545,-0.5009417,0.99928063,-7.6622465e-11,-4.5564702e-10,0.037923757,48
21843820000,21843820000,0.86549765,0.010557248,0.00017140778,-0.5008018,0.99928063,-7.6622465e-11,-4.5564702e-10,0.037923757,48
21844320000,21844320000,0.86546934,0.010697276,0.001796443,-0.5008446,0.99928063,-7.6622465e-11,-4.5564702e-10,0.037923757,48
21844820000,21844820000,0.8655688,0.011168138,0.0011104073,-0.5006642,0.99928063,-7.6622465e-11,-4.5564702e-10,0.037923757,48
21845320000,21845320000,0.8655823,0.011753442,0.00020036209,-0.5006287,0.99928063,-7.6622465e-11,-4.5564702e-10,0.037923757,48
21845816000,21845816000,0.865552,0.011446016,0.00028915028,-0.5006884,0.99928063,-7.6622465e-11,-4.5564702e-10,0.037923757,48
21846320000,21846320000,0.8655784,0.010885504,-0.00031663867,-0.50065506,0.99928063,-7.6622465e-11,-4.5564702e-10,0.037923757,48
21846820000,21846820000,0.8656088,0.009495553,-0.0017738602,-0.50062764,0.99928063,-7.6622465e-11,-4.5564702e-10,0.037923757,48
21847320000,21847320000,0.86558855,0.01089526,-0.0024664986,-0.5006313,0.99928063,-7.6622465e-11,-4.5564702e-10,0.037923757,48
21847820000,21847820000,0.86558527,0.010042323,-0.0027546517,-0.50065345,0.99928063,-7.6622465e-11,-4.5564702e-10,0.037923757,48
21848320000,21848320000,0.86549056,0.00961947,-0.0026818844,-0.50082564,0.99928063,-7.6622465e-11,-4.5564702e-10,0.037923757,48
21848820000,21848820000,0.865539,0.009395968,-0.0029455586,-0.5007448,0.99928063,-7.6622465e-11,-4.5564702e-10,0.037923757,48
21849320000,21849320000,0.86553776,0.009794377,-0.002041925,-0.50074375,0.99928063,-7.6622465e-11,-4.5564702e-10,0.037923757,48
21849820000,21849820000,0.86553115,0.011509478,-0.0020290436,-0.50071883,0.99928063,-7.6622465e-11,-4.5564702e-10,0.037923757,48
21850320000,21850320000,0.8654837,0.010151617,-0.0027075151,-0.50082713,0.99928063,-7.6622465e-11,-4.5564702e-10,0.037923757,48
21850816000,21850816000,0.86550605,0.010617729,-0.0033002808,-0.50077516,0.99928063,-7.6622465e-11,-4.5564702e-10,0.037923757,48
