timestamp,timestamp_sample,gps_hvel[0],gps_hvel[1],gps_vvel,gps_hpos[0],gps_hpos[1],gps_vpos,ev_hvel[0],ev_hvel[1],ev_vvel,ev_hpos[0],ev_hpos[1],ev_vpos,rng_vpos,baro_vpos,aux_hvel[0],aux_hvel[1],aux_vvel,flow[0],flow[1],heading,mag_field[0],mag_field[1],mag_field[2],drag[0],drag[1],airspeed,beta,hagl,hagl_rate
21726672000,21726592000,0.090134524,0.09013452,0.20263943,1.0012062,1.0012062,0.0,0.0,0.0,0.0,0.0,0.0,0.0,0.0,12.25307,0.0,0.0,nan,0.0,0.0,0.09032132,0.002527763,0.002535372,0.0025372955,0.0,0.0,0.0,0.0,0.0,0.0
21727176000,21727096000,0.09014338,0.09014338,0.20264894,1.001205,1.001205,0.0,0.0,0.0,0.0,0.0,0.0,0.0,0.0,12.253063,0.0,0.0,nan,0.0,0.0,0.09032141,0.002527763,0.002535372,0.0025372955,0.0,0.0,0.0,0.0,0.0,0.0
21727672000,21727592000,0.09014339,0.09014339,0.20264894,1.0012037,1.0012037,0.0,0.0,0.0,0.0,0.0,0.0,0.0,0.0,12.253059,0.0,0.0,nan,0.0,0.0,0.09032137,0.002527763,0.002535372,0.0025372955,0.0,0.0,0.0,0.0,0.0,0.0
21728176000,21728096000,0.09008256,0.09008256,0.20258452,1.0012025,1.0012023,0.0,0.0,0.0,0.0,0.0,0.0,0.0,0.0,12.253057,0.0,0.0,nan,0.0,0.0,0.09032134,0.002527763,0.002535372,0.0025372955,0.0,0.0,0.0,0.0,0.0,0.0
21728672000,21728592000,0.090074115,0.090074115,0.20257573,1.0012004,1.0012003,0.0,0.0,0.0,0.0,0.0,0.0,0.0,0.0,12.253049,0.0,0.0,nan,0.0,0.0,0.0903213,0.002527763,0.002535372,0.0025372955,0.0,0.0,0.0,0.0,0.0,0.0
21729176000,21729096000,0.09007412,0.09007412,0.20257573,1.0011997,1.0011997,0.0,0.0,0.0,0.0,0.0,0.0,0.0,0.0,12.253046,0.0,0.0,nan,0.0,0.0,0.09032128,0.002527763,0.002535372,0.0025372955,0.0,0.0,0.0,0.0,0.0,0.0
21729672000,21729592000,0.090024814,0.090024814,0.20252502,1.0011984,1.0011984,0.0,0.0,0.0,0.0,0.0,0.0,0.0,0.0,12.25304,0.0,0.0,nan,0.0,0.0,0.09032113,0.002527763,0.002535372,0.0025372955,0.0,0.0,0.0,0.0,0.0,0.0
21730168000,21730088000,0.09002482,0.09002482,0.20252502,1.0011971,1.0011971,0.0,0.0,0.0,0.0,0.0,0.0,0.0,0.0,12.2530365,0.0,0.0,nan,0.0,0.0,0.090321235,0.002527763,0.002535372,0.0025372955,0.0,0.0,0.0,0.0,0.0,0.0
21730672000,21730592000,0.09019806,0.090198055,0.20270804,1.0011978,1.0011978,0.0,0.0,0.0,0.0,0.0,0.0,0.0,0.0,12.253034,0.0,0.0,nan,0.0,0.0,0.09032107,0.002527763,0.002535372,0.0025372955,0.0,0.0,0.0,0.0,0.0,0.0
21731176000,21731096000,0.090198025,0.090198025,0.20270804,1.0011965,1.0011965,0.0,0.0,0.0,0.0,0.0,0.0,0.0,0.0,12.253027,0.0,0.0,nan,0.0,0.0,0.09032104,0.002527763,0.002535372,0.0025372955,0.0,0.0,0.0,0.0,0.0,0.0
21731672000,21731592000,0.09019807,0.09019808,0.20270804,1.0011952,1.0011952,0.0,0.0,0.0,0.0,0.0,0.0,0.0,0.0,12.253023,0.0,0.0,nan,0.0,0.0,0.09032091,0.002527763,0.002535372,0.0025372955,0.0,0.0,0.0,0.0,0.0,0.0
21732168000,21732088000,0.09013449,0.09013448,0.20263943,1.0011933,1.0011933,0.0,0.0,0.0,0.0,0.0,0.0,0.0,0.0,12.253017,0.0,0.0,nan,0.0,0.0,0.09032089,0.002527763,0.002535372,0.0025372955,0.0,0.0,0.0,0.0,0.0,0.0
21732672000,21732592000,0.0901345,0.0901345,0.20263943,1.0011914,1.0011914,0.0,0.0,0.0,0.0,0.0,0.0,0.0,0.0,12.253014,0.0,0.0,nan,0.0,0.0,0.0903206,0.002527763,0.002535372,0.0025372955,0.0,0.0,0.0,0.0,0.0,0.0
21733176000,21733096000,0.090082526,0.090082526,0.20258452,1.001191,1.001191,0.0,0.0,0.0,0.0,0.0,0.0,0.0,0.0,12.253011,0.0,0.0,nan,0.0,0.0,0.090320595,0.002527763,0.002535372,0.0025372955,0.0,0.0,0.0,0.0,0.0,0.0
21733672000,21733592000,0.090949826,0.090949796,0.20357531,1.0013264,1.0013264,0.0,0.0,0.0,0.0,0.0,0.0,0.0,0.0,12.253178,0.0,0.0,nan,0.0,0.0,0.09032073,0.002527763,0.002535372,0.0025372955,0.0,0.0,0.0,0.0,0.0,0.0
21734176000,21734096000,0.09177178,0.09177174,0.2045527,1.0018119,1.0018119,0.0,0.0,0.0,0.0,0.0,0.0,0.0,0.0,12.25393,0.0,0.0,nan,0.0,0.0,0.09032085,0.002527763,0.002535372,0.0025372955,0.0,0.0,0.0,0.0,0.0,0.0
21734672000,21734592000,0.09346063,0.0934606,0.20625606,1.0036298,1.0036298,0.0,0.0,0.0,0.0,0.0,0.0,0.0,0.0,12.256195,0.0,0.0,nan,0.0,0.0,0.09032097,0.002527763,0.002535372,0.0025372955,0.0,0.0,0.0,0.0,0.0,0.0
21735168000,21735088000,0.09485325,0.09485277,0.20765844,1.0061777,1.0061777,0.0,0.0,0.0,0.0,0.0,0.0,0.0,0.0,12.260091,0.0,0.0,nan,0.0,0.0,0.09032109,0.002527763,0.002535372,0.0025372955,0.0,0.0,0.0,0.0,0.0,0.0
21735672000,21735592000,0.09622446,0.096224226,0.20984396,1.0120063,1.0120062,0.0,0.0,0.0,0.0,0.0,0.0,0.0,0.0,12.267429,0.0,0.0,nan,0.0,0.0,0.09839526,0.002527763,0.002535372,0.0025372955,0.0,0.0,0.0,0.0,0.0,0.0
21736176000,21736096000,0.09645792,0.09645041,0.21123764,1.0168173,1.0168172,0.0,0.0,0.0,0.0,0.0,0.0,0.0,0.0,12.278215,0.0,0.0,nan,0.0,0.0,0.09507849,0.002527763,0.002535372,0.0025372955,0.0,0.0,0.0,0.0,0.0,0.0
21736672000,21736592000,0.09839725,0.09836574,0.21303648,1.0243381,1.024337,0.0,0.0,0.0,0.0,0.0,0.0,0.0,0.0,12.289051,0.0,0.0,nan,0.0,0.0,0.09364046,0.002527763,0.002535372,0.0025372955,0.0,0.0,0.0,0.0,0.0,0.0
21737176000,21737096000,0.10066469,0.100613676,0.2142863,1.0302962,1.0302912,0.0,0.0,0.0,0.0,0.0,0.0,0.0,0.0,12.304794,0.0,0.0,nan,0.0,0.0,0.09283781,0.002527763,0.002535372,0.0025372955,0.0,0.0,0.0,0.0,0.0,0.0
21737672000,21737592000,0.10243267,0.1023743,0.21517864,1.0375271,1.037518,0.0,0.0,0.0,0.0,0.0,0.0,0.0,0.0,12.318965,0.0,0.0,nan,0.0,0.0,0.09232549,0.002527763,0.002535372,0.0025372955,0.0,0.0,0.0,0.0,0.0,0.0
21738176000,21738096000,0.10284449,0.102786906,0.21533947,1.0397207,1.0397105,0.0,0.0,0.0,0.0,0.0,0.0,0.0,0.0,12.337649,0.0,0.0,nan,0.0,0.0,0.09197038,0.002527763,0.002535372,0.0025372955,0.0,0.0,0.0,0.0,0.0,0.0
21738672000,21738592000,0.10480593,0.104656905,0.21619241,1.0498105,1.0497942,0.0,0.0,0.0,0.0,0.0,0.0,0.0,0.0,12.350742,0.0,0.0,nan,0.0,0.0,0.0917081,0.002527763,0.002535372,0.0025372955,0.0,0.0,0.0,0.0,0.0,0.0
21739176000,21739096000,0.104711965,0.10402863,0.21602696,1.0521485,1.0521317,0.0,0.0,0.0,0.0,0.0,0.0,0.0,0.0,12.365461,0.0,0.0,nan,0.0,0.0,0.09149699,0.002527763,0.002535372,0.0025372955,0.0,0.0,0.0,0.0,0.0,0.0
21739672000,21739592000,0.10817908,0.10581955,0.21636708,1.0597602,1.0597388,0.0,0.0,0.0,0.0,0.0,0.0,0.0,0.0,12.377474,0.0,0.0,nan,0.0,0.0,0.091435015,0.0030416818,0.003047015,0.003053717,0.0,0.0,0.0,0.0,0.0,0.0
21740176000,21740096000,0.10714168,0.10571116,0.21601896,1.0604783,1.0604721,0.0,0.0,0.0,0.0,0.0,0.0,0.0,0.0,12.387802,0.0,0.0,nan,0.0,0.0,0.091435015,0.0027203052,0.0027203078,0.002718126,0.0,0.0,0.0,0.0,0.0,0.0
21740672000,21740592000,0.10537803,0.10472378,0.21572556,1.061046,1.0610386,0.0,0.0,0.0,0.0,0.0,0.0,0.0,0.0,12.398002,0.0,0.0,nan,0.0,0.0,0.091435015,0.00263907,0.0026378399,0.0026356715,0.0,0.0,0.0,0.0,0.0,0.0
21741176000,21741096000,0.10481337,0.10460752,0.21605258,1.0664809,1.0664265,0.0,0.0,0.0,0.0,0.0,0.0,0.0,0.0,12.405094,0.0,0.0,nan,0.0,0.0,0.091435015,0.0026004398,0.0025995912,0.0025981576,0.0,0.0,0.0,0.0,0.0,0.0
21741672000,21741592000,0.1025528,0.10259685,0.21561173,1.0654738,1.0654229,0.0,0.0,0.0,0.0,0.0,0.0,0.0,0.0,12.4061165,0.0,0.0,nan,0.0,0.0,0.091435015,0.0025788408,0.0025780161,0.0025769542,0.0,0.0,0.0,0.0,0.0,0.0
21742176000,21742096000,0.10205275,0.102117464,0.21547103,1.0651953,1.0651447,0.0,0.0,0.0,0.0,0.0,0.0,0.0,0.0,12.416187,0.0,0.0,nan,0.0,0.0,0.091435015,0.0025651178,0.0025642328,0.0025633175,0.0,0.0,0.0,0.0,0.0,0.0
21742672000,21742592000,0.10167222,0.10171368,0.2157457,1.0685097,1.0684556,0.0,0.0,0.0,0.0,0.0,0.0,0.0,0.0,12.414951,0.0,0.0,nan,0.0,0.0,0.091435015,0.0025556253,0.0025546814,0.0025538686,0.0,0.0,0.0,0.0,0.0,0.0
21743168000,21743088000,0.101074815,0.10104256,0.21561535,1.0672729,1.0672282,0.0,0.0,0.0,0.0,0.0,0.0,0.0,0.0,12.417645,0.0,0.0,nan,0.0,0.0,0.091435015,0.0025487002,0.002547678,0.0025469123,0.0,0.0,0.0,0.0,0.0,0.0
21743672000,21743592000,0.10153922,0.10136677,0.2159977,1.070608,1.0705823,0.0,0.0,0.0,0.0,0.0,0.0,0.0,0.0,12.419392,0.0,0.0,nan,0.0,0.0,0.091435015,0.0025434012,0.0025423341,0.0025416329,0.0,0.0,0.0,0.0,0.0,0.0
21744176000,21744096000,0.101154715,0.100886814,0.215813,1.0691179,1.0691003,0.0,0.0,0.0,0.0,0.0,0.0,0.0,0.0,12.421289,0.0,0.0,nan,0.0,0.0,0.091435015,0.0025392317,0.0025381383,0.0025373683,0.0,0.0,0.0,0.0,0.0,0.0
21744672000,21744592000,0.1008383,0.100512736,0.21567774,1.0674113,1.0674006,0.0,0.0,0.0,0.0,0.0,0.0,0.0,0.0,12.423924,0.0,0.0,nan,0.0,0.0,0.091435015,0.0025354973,0.0025343262,0.0025335762,0.0,0.0,0.0,0.0,0.0,0.0
21745168000,21745088000,0.1016367,0.10118406,0.21622768,1.0707062,1.0706995,0.0,0.0,0.0,0.0,0.0,0.0,0.0,0.0,12.424184,0.0,0.0,nan,0.0,0.0,0.091435015,0.0025331674,0.0025319764,0.002531195,0.0,0.0,0.0,0.0,0.0,0.0
21745672000,21745592000,0.10116182,0.1007107,0.21595994,1.0681173,1.068108,0.0,0.0,0.0,0.0,0.0,0.0,0.0,0.0,12.421526,0.0,0.0,nan,0.0,0.0,0.09096357,0.002532466,0.002531267,0.0025305348,0.0,0.0,0.0,0.0,0.0,0.0
21746168000,21746088000,0.10212736,0.10162166,0.2164859,1.0721503,1.072118,0.0,0.0,0.0,0.0,0.0,0.0,0.0,0.0,12.426578,0.0,0.0,nan,0.0,0.0,0.09089179,0.002532466,0.002531267,0.0025305348,0.0,0.0,0.0,0.0,0.0,0.0
21746672000,21746592000,0.10144095,0.101036005,0.21614459,1.0693301,1.0692972,0.0,0.0,0.0,0.0,0.0,0.0,0.0,0.0,12.422891,0.0,0.0,nan,0.0,0.0,0.0908174,0.002532466,0.002531267,0.0025305348,0.0,0.0,0.0,0.0,0.0,0.0
21747168000,21747088000,0.10114113,0.100795135,0.21596146,1.0677663,1.0677304,0.0,0.0,0.0,0.0,0.0,0.0,0.0,0.0,12.423254,0.0,0.0,nan,0.0,0.0,0.09076067,0.002532466,0.002531267,0.0025305348,0.0,0.0,0.0,0.0,0.0,0.0
21747672000,21747592000,0.10179064,0.10148136,0.21626976,1.070707,1.0706428,0.0,0.0,0.0,0.0,0.0,0.0,0.0,0.0,12.423469,0.0,0.0,nan,0.0,0.0,0.09071101,0.002532466,0.002531267,0.0025305348,0.0,0.0,0.0,0.0,0.0,0.0
21748176000,21748096000,0.101347424,0.101102866,0.21602978,1.0688741,1.0688152,0.0,0.0,0.0,0.0,0.0,0.0,0.0,0.0,12.424275,0.0,0.0,nan,0.0,0.0,0.09066879,0.002532466,0.002531267,0.0025305348,0.0,0.0,0.0,0.0,0.0,0.0
21748672000,21748592000,0.10215497,0.101943895,0.21637613,1.0724068,1.0723195,0.0,0.0,0.0,0.0,0.0,0.0,0.0,0.0,12.424982,0.0,0.0,nan,0.0,0.0,0.09063206,0.002532466,0.002531267,0.0025305348,0.0,0.0,0.0,0.0,0.0,0.0
21749176000,21749096000,0.10156184,0.10140298,0.21607144,1.0702211,1.0701486,0.0,0.0,0.0,0.0,0.0,0.0,0.0,0.0,12.425533,0.0,0.0,nan,0.0,0.0,0.0906002,0.002532466,0.002531267,0.0025305348,0.0,0.0,0.0,0.0,0.0,0.0
21749672000,21749592000,0.10101036,0.10090961,0.2156572,1.0677519,1.0676917,0.0,0.0,0.0,0.0,0.0,0.0,0.0,0.0,12.425676,0.0,0.0,nan,0.0,0.0,0.090572655,0.002532466,0.002531267,0.0025305348,0.0,0.0,0.0,0.0,0.0,0.0
21750168000,21750088000,0.10191639,0.101816855,0.21607734,1.0718083,1.0717313,0.0,0.0,0.0,0.0,0.0,0.0,0.0,0.0,12.426855,0.0,0.0,nan,0.0,0.0,0.090548374,0.002532466,0.002531267,0.0025305348,0.0,0.0,0.0,0.0,0.0,0.0
21750672000,21750592000,0.10116412,0.10110799,0.21568972,1.0688912,1.0688322,0.0,0.0,0.0,0.0,0.0,0.0,0.0,0.0,12.422129,0.0,0.0,nan,0.0,0.0,0.090526044,0.002532466,0.002531267,0.0025305348,0.0,0.0,0.0,0.0,0.0,0.0
21751176000,21751096000,0.10099706,0.100949846,0.2155285,1.068118,1.0680635,0.0,0.0,0.0,0.0,0.0,0.0,0.0,0.0,12.428569,0.0,0.0,nan,0.0,0.0,0.09050794,0.002532466,0.002531267,0.0025305348,0.0,0.0,0.0,0.0,0.0,0.0
21751672000,21751592000,0.101352215,0.10131869,0.21564245,1.0702533,1.070202,0.0,0.0,0.0,0.0,0.0,0.0,0.0,0.0,12.424013,0.0,0.0,nan,0.0,0.0,0.090490624,0.002532466,0.002531267,0.0025305348,0.0,0.0,0.0,0.0,0.0,0.0
21752168000,21752088000,0.100963846,0.1009379,0.21537486,1.0685154,1.0684731,0.0,0.0,0.0,0.0,0.0,0.0,0.0,0.0,12.424433,0.0,0.0,nan,0.0,0.0,0.0904755,0.002532466,0.002531267,0.0025305348,0.0,0.0,0.0,0.0,0.0,0.0
21752672000,21752592000,0.10170454,0.10167978,0.21567148,1.0718403,1.0717964,0.0,0.0,0.0,0.0,0.0,0.0,0.0,0.0,12.424755,0.0,0.0,nan,0.0,0.0,0.09046175,0.002532466,0.002531267,0.0025305348,0.0,0.0,0.0,0.0,0.0,0.0
21753168000,21753088000,0.10118116,0.10116059,0.2153754,1.0697798,1.0697443,0.0,0.0,0.0,0.0,0.0,0.0,0.0,0.0,12.425494,0.0,0.0,nan,0.0,0.0,0.090449356,0.002532466,0.002531267,0.0025305348,0.0,0.0,0.0,0.0,0.0,0.0
21753672000,21753592000,0.100834206,0.100816205,0.21512951,1.0681388,1.0681093,0.0,0.0,0.0,0.0,0.0,0.0,0.0,0.0,12.426326,0.0,0.0,nan,0.0,0.0,0.09043784,0.002532466,0.002531267,0.0025305348,0.0,0.0,0.0,0.0,0.0,0.0
21754176000,21754096000,0.101445906,0.10142868,0.21533795,1.0712975,1.0712672,0.0,0.0,0.0,0.0,0.0,0.0,0.0,0.0,12.426525,0.0,0.0,nan,0.0,0.0,0.09042735,0.002532466,0.002531267,0.0025305348,0.0,0.0,0.0,0.0,0.0,0.0
21754672000,21754592000,0.100822575,0.10080896,0.21491694,1.0685245,1.0685015,0.0,0.0,0.0,0.0,0.0,0.0,0.0,0.0,12.426771,0.0,0.0,nan,0.0,0.0,0.09041761,0.002532466,0.002531267,0.0025305348,0.0,0.0,0.0,0.0,0.0,0.0
21755168000,21755088000,0.100683525,0.10067066,0.21484983,1.0677872,1.0677661,0.0,0.0,0.0,0.0,0.0,0.0,0.0,0.0,12.427074,0.0,0.0,nan,0.0,0.0,0.090408646,0.002532466,0.002531267,0.0025305348,0.0,0.0,0.0,0.0,0.0,0.0
21755672000,21755592000,0.10105691,0.10104521,0.21494822,1.0697762,1.0697562,0.0,0.0,0.0,0.0,0.0,0.0,0.0,0.0,12.423092,0.0,0.0,nan,0.0,0.0,0.09040025,0.002532466,0.002531267,0.0025305348,0.0,0.0,0.0,0.0,0.0,0.0
21756168000,21756088000,0.100724556,0.100715145,0.21473241,1.0681336,1.0681164,0.0,0.0,0.0,0.0,0.0,0.0,0.0,0.0,12.423795,0.0,0.0,nan,0.0,0.0,0.090392455,0.002532466,0.002531267,0.0025305348,0.0,0.0,0.0,0.0,0.0,0.0
21756672000,21756592000,0.10133717,0.10132846,0.21495298,1.0712832,1.0712643,0.0,0.0,0.0,0.0,0.0,0.0,0.0,0.0,12.423536,0.0,0.0,nan,0.0,0.0,0.090385385,0.002532466,0.002531267,0.0025305348,0.0,0.0,0.0,0.0,0.0,0.0
21757176000,21757096000,0.10089632,0.10088963,0.21472332,1.0693332,1.0693171,0.0,0.0,0.0,0.0,0.0,0.0,0.0,0.0,12.424286,0.0,0.0,nan,0.0,0.0,0.09037881,0.002532466,0.002531267,0.0025305348,0.0,0.0,0.0,0.0,0.0,0.0
21757672000,21757592000,0.10060256,0.10059856,0.21453461,1.0677738,1.0677598,0.0,0.0,0.0,0.0,0.0,0.0,0.0,0.0,12.423731,0.0,0.0,nan,0.0,0.0,0.09037269,0.002532466,0.002531267,0.0025305348,0.0,0.0,0.0,0.0,0.0,0.0
21758176000,21758096000,0.10119443,0.101193376,0.21473934,1.0707273,1.0707114,0.0,0.0,0.0,0.0,0.0,0.0,0.0,0.0,12.424952,0.0,0.0,nan,0.0,0.0,0.09036701,0.002532466,0.002531267,0.0025305348,0.0,0.0,0.0,0.0,0.0,0.0
21758672000,21758592000,0.100641385,0.10064436,0.21440852,1.068117,1.0681043,0.0,0.0,0.0,0.0,0.0,0.0,0.0,0.0,12.424356,0.0,0.0,nan,0.0,0.0,0.090361685,0.002532466,0.002531267,0.0025305348,0.0,0.0,0.0,0.0,0.0,0.0
21759176000,21759096000,0.101544514,0.10154973,0.21479933,1.0724194,1.0724034,0.0,0.0,0.0,0.0,0.0,0.0,0.0,0.0,12.425194,0.0,0.0,nan,0.0,0.0,0.09035619,0.002532466,0.002531267,0.0025305348,0.0,0.0,0.0,0.0,0.0,0.0
21759672000,21759592000,0.100821845,0.100829184,0.21444415,1.0693125,1.0693,0.0,0.0,0.0,0.0,0.0,0.0,0.0,0.0,12.420724,0.0,0.0,nan,0.0,0.0,0.09035245,0.002532466,0.002531267,0.0025305348,0.0,0.0,0.0,0.0,0.0,0.0
21760168000,21760088000,0.100530975,0.10053982,0.2142849,1.067755,1.0677441,0.0,0.0,0.0,0.0,0.0,0.0,0.0,0.0,12.421295,0.0,0.0,nan,0.0,0.0,0.090348326,0.002532466,0.002531267,0.0025305348,0.0,0.0,0.0,0.0,0.0,0.0
21760672000,21760592000,0.1011263,0.10113831,0.21457869,1.0707024,1.0706905,0.0,0.0,0.0,0.0,0.0,0.0,0.0,0.0,12.421226,0.0,0.0,nan,0.0,0.0,0.09034394,0.002532466,0.002531267,0.0025305348,0.0,0.0,0.0,0.0,0.0,0.0
21761168000,21761088000,0.10073907,0.10075261,0.21439427,1.0688697,1.0688597,0.0,0.0,0.0,0.0,0.0,0.0,0.0,0.0,12.422117,0.0,0.0,nan,0.0,0.0,0.09034049,0.002532466,0.002531267,0.0025305348,0.0,0.0,0.0,0.0,0.0,0.0
21761672000,21761592000,0.1014936,0.10151213,0.21467203,1.0723904,1.0723794,0.0,0.0,0.0,0.0,0.0,0.0,0.0,0.0,12.422579,0.0,0.0,nan,0.0,0.0,0.090337336,0.002532466,0.002531267,0.0025305348,0.0,0.0,0.0,0.0,0.0,0.0
21762168000,21762088000,0.100922264,0.10094128,0.21442924,1.0699568,1.0699477,0.0,0.0,0.0,0.0,0.0,0.0,0.0,0.0,12.423855,0.0,0.0,nan,0.0,0.0,0.09033426,0.002532466,0.002531267,0.0025305348,0.0,0.0,0.0,0.0,0.0,0.0
21762672000,21762592000,0.10045833,0.10047878,0.21421969,1.0675161,1.067509,0.0,0.0,0.0,0.0,0.0,0.0,0.0,0.0,12.41963,0.0,0.0,nan,0.0,0.0,0.090331525,0.002532466,0.002531267,0.0025305348,0.0,0.0,0.0,0.0,0.0,0.0
21763168000,21763088000,0.1013673,0.10139318,0.2145446,1.0718073,1.0717992,0.0,0.0,0.0,0.0,0.0,0.0,0.0,0.0,12.4247055,0.0,0.0,nan,0.0,0.0,0.09032895,0.002532466,0.002531267,0.0025305348,0.0,0.0,0.0,0.0,0.0,0.0
21763672000,21763592000,0.10071422,0.100740805,0.21430422,1.0688816,1.0688757,0.0,0.0,0.0,0.0,0.0,0.0,0.0,0.0,12.420814,0.0,0.0,nan,0.0,0.0,0.09032689,0.002532466,0.002531267,0.0025305348,0.0,0.0,0.0,0.0,0.0,0.0
21764168000,21764088000,0.100569844,0.10059692,0.21419224,1.0681055,1.0681,0.0,0.0,0.0,0.0,0.0,0.0,0.0,0.0,12.425057,0.0,0.0,nan,0.0,0.0,0.09032503,0.002532466,0.002531267,0.0025305348,0.0,0.0,0.0,0.0,0.0,0.0
21764672000,21764592000,0.1009468,0.100978985,0.2143849,1.0702102,1.0702057,0.0,0.0,0.0,0.0,0.0,0.0,0.0,0.0,12.421017,0.0,0.0,nan,0.0,0.0,0.09032328,0.002532466,0.002531267,0.0025305348,0.0,0.0,0.0,0.0,0.0,0.0
21765176000,21765096000,0.100600034,0.10063248,0.21422565,1.0684725,1.0684689,0.0,0.0,0.0,0.0,0.0,0.0,0.0,0.0,12.421924,0.0,0.0,nan,0.0,0.0,0.09032182,0.002532466,0.002531267,0.0025305348,0.0,0.0,0.0,0.0,0.0,0.0
21765672000,21765592000,0.10132347,0.101362936,0.21448417,1.0717608,1.0717583,0.0,0.0,0.0,0.0,0.0,0.0,0.0,0.0,12.422351,0.0,0.0,nan,0.0,0.0,0.09032054,0.002532466,0.002531267,0.0025305348,0.0,0.0,0.0,0.0,0.0,0.0
21766176000,21766096000,0.100853026,0.10089119,0.2142973,1.0697095,1.0697078,0.0,0.0,0.0,0.0,0.0,0.0,0.0,0.0,12.422703,0.0,0.0,nan,0.0,0.0,0.09031941,0.002532466,0.002531267,0.0025305348,0.0,0.0,0.0,0.0,0.0,0.0
21766672000,21766592000,0.100534834,0.10057272,0.2141455,1.0680727,1.0680714,0.0,0.0,0.0,0.0,0.0,0.0,0.0,0.0,12.423569,0.0,0.0,nan,0.0,0.0,0.09031835,0.002532466,0.002531267,0.0025305348,0.0,0.0,0.0,0.0,0.0,0.0
21767168000,21767088000,0.10114566,0.10118909,0.21440135,1.0712026,1.071203,0.0,0.0,0.0,0.0,0.0,0.0,0.0,0.0,12.423424,0.0,0.0,nan,0.0,0.0,0.09031743,0.002532466,0.002531267,0.0025305348,0.0,0.0,0.0,0.0,0.0,0.0
21767672000,21767592000,0.10057174,0.10061309,0.21418886,1.0684451,1.0684458,0.0,0.0,0.0,0.0,0.0,0.0,0.0,0.0,12.420484,0.0,0.0,nan,0.0,0.0,0.09031662,0.002532466,0.002531267,0.0025305348,0.0,0.0,0.0,0.0,0.0,0.0
21768176000,21768096000,0.10145455,0.101503044,0.21458095,1.0727144,1.0727174,0.0,0.0,0.0,0.0,0.0,0.0,0.0,0.0,12.424105,0.0,0.0,nan,0.0,0.0,0.09031578,0.002532466,0.002531267,0.0025305348,0.0,0.0,0.0,0.0,0.0,0.0
21768672000,21768592000,0.10074934,0.100794025,0.2142669,1.0695506,1.0695533,0.0,0.0,0.0,0.0,0.0,0.0,0.0,0.0,12.420191,0.0,0.0,nan,0.0,0.0,0.09031538,0.002532466,0.002531267,0.0025305348,0.0,0.0,0.0,0.0,0.0,0.0
21769176000,21769096000,0.10045784,0.10050155,0.21412617,1.0679374,1.0679401,0.0,0.0,0.0,0.0,0.0,0.0,0.0,0.0,12.420694,0.0,0.0,nan,0.0,0.0,0.09031496,0.002532466,0.002531267,0.0025305348,0.0,0.0,0.0,0.0,0.0,0.0
21769672000,21769592000,0.10104342,0.10109248,0.21436083,1.070834,1.0708387,0.0,0.0,0.0,0.0,0.0,0.0,0.0,0.0,12.421492,0.0,0.0,nan,0.0,0.0,0.09031466,0.002532466,0.002531267,0.0025305348,0.0,0.0,0.0,0.0,0.0,0.0
21770176000,21770096000,0.10065849,0.10070515,0.21420196,1.0689672,1.0689716,0.0,0.0,0.0,0.0,0.0,0.0,0.0,0.0,12.421056,0.0,0.0,nan,0.0,0.0,0.09031444,0.002532466,0.002531267,0.0025305348,0.0,0.0,0.0,0.0,0.0,0.0
21770672000,21770592000,0.101408936,0.101462245,0.21449988,1.0724459,1.0724533,0.0,0.0,0.0,0.0,0.0,0.0,0.0,0.0,12.42161,0.0,0.0,nan,0.0,0.0,0.09031444,0.002532466,0.002531267,0.0025305348,0.0,0.0,0.0,0.0,0.0,0.0
21771168000,21771088000,0.10090398,0.100953326,0.21431555,1.0702443,1.0702505,0.0,0.0,0.0,0.0,0.0,0.0,0.0,0.0,12.422548,0.0,0.0,nan,0.0,0.0,0.09031428,0.002532466,0.002531267,0.0025305348,0.0,0.0,0.0,0.0,0.0,0.0
21771672000,21771592000,0.10044853,0.10049532,0.21406984,1.0677719,1.0677775,0.0,0.0,0.0,0.0,0.0,0.0,0.0,0.0,12.422687,0.0,0.0,nan,0.0,0.0,0.090314314,0.002532466,0.002531267,0.0025305348,0.0,0.0,0.0,0.0,0.0,0.0
21772168000,21772088000,0.101295754,0.10134995,0.21444258,1.0717832,1.0717918,0.0,0.0,0.0,0.0,0.0,0.0,0.0,0.0,12.4223385,0.0,0.0,nan,0.0,0.0,0.0903143,0.002532466,0.002531267,0.0025305348,0.0,0.0,0.0,0.0,0.0,0.0
21772672000,21772592000,0.10065601,0.10070496,0.21416442,1.0688578,1.0688648,0.0,0.0,0.0,0.0,0.0,0.0,0.0,0.0,12.422987,0.0,0.0,nan,0.0,0.0,0.090314485,0.002532466,0.002531267,0.0025305348,0.0,0.0,0.0,0.0,0.0,0.0
21773168000,21773088000,0.10051454,0.100562595,0.21413516,1.0680814,1.068088,0.0,0.0,0.0,0.0,0.0,0.0,0.0,0.0,12.423192,0.0,0.0,nan,0.0,0.0,0.090314746,0.002532466,0.002531267,0.0025305348,0.0,0.0,0.0,0.0,0.0,0.0
21773672000,21773592000,0.10090178,0.10095348,0.21428482,1.0701964,1.0702051,0.0,0.0,0.0,0.0,0.0,0.0,0.0,0.0,12.423769,0.0,0.0,nan,0.0,0.0,0.09031492,0.002532466,0.002531267,0.0025305348,0.0,0.0,0.0,0.0,0.0,0.0
21774176000,21774096000,0.1005139,0.10056253,0.21417387,1.0682182,1.0682257,0.0,0.0,0.0,0.0,0.0,0.0,0.0,0.0,12.421462,0.0,0.0,nan,0.0,0.0,0.09031523,0.002532466,0.002531267,0.0025305348,0.0,0.0,0.0,0.0,0.0,0.0
21774672000,21774592000,0.10129604,0.10135171,0.21447295,1.0717587,1.0717694,0.0,0.0,0.0,0.0,0.0,0.0,0.0,0.0,12.421965,0.0,0.0,nan,0.0,0.0,0.090315655,0.002532466,0.002531267,0.0025305348,0.0,0.0,0.0,0.0,0.0,0.0
21775176000,21775096000,0.100827344,0.100878894,0.21428916,1.069706,1.069715,0.0,0.0,0.0,0.0,0.0,0.0,0.0,0.0,12.423266,0.0,0.0,nan,0.0,0.0,0.09031612,0.002532466,0.002531267,0.0025305348,0.0,0.0,0.0,0.0,0.0,0.0
21775672000,21775592000,0.10051342,0.10056307,0.21413885,1.0680679,1.0680759,0.0,0.0,0.0,0.0,0.0,0.0,0.0,0.0,12.423715,0.0,0.0,nan,0.0,0.0,0.09031649,0.002532466,0.002531267,0.0025305348,0.0,0.0,0.0,0.0,0.0,0.0
21776168000,21776088000,0.10112193,0.10117684,0.21439157,1.0711919,1.0712026,0.0,0.0,0.0,0.0,0.0,0.0,0.0,0.0,12.423543,0.0,0.0,nan,0.0,0.0,0.09031703,0.002532466,0.002531267,0.0025305348,0.0,0.0,0.0,0.0,0.0,0.0
21776672000,21776592000,0.10055624,0.10060692,0.21418598,1.0684348,1.0684435,0.0,0.0,0.0,0.0,0.0,0.0,0.0,0.0,12.419309,0.0,0.0,nan,0.0,0.0,0.09031774,0.002532466,0.002531267,0.0025305348,0.0,0.0,0.0,0.0,0.0,0.0
21777168000,21777088000,0.10043191,0.10048177,0.21408604,1.0677005,1.0677088,0.0,0.0,0.0,0.0,0.0,0.0,0.0,0.0,12.424015,0.0,0.0,nan,0.0,0.0,0.09031849,0.002532466,0.002531267,0.0025305348,0.0,0.0,0.0,0.0,0.0,0.0
21777672000,21777592000,0.100812666,0.10086632,0.21427289,1.0696725,1.0696825,0.0,0.0,0.0,0.0,0.0,0.0,0.0,0.0,12.421449,0.0,0.0,nan,0.0,0.0,0.09031899,0.002532466,0.002531267,0.0025305348,0.0,0.0,0.0,0.0,0.0,0.0
21778176000,21778096000,0.100501165,0.10055267,0.21412446,1.0680407,1.0680497,0.0,0.0,0.0,0.0,0.0,0.0,0.0,0.0,12.421864,0.0,0.0,nan,0.0,0.0,0.09031978,0.002532466,0.002531267,0.0025305348,0.0,0.0,0.0,0.0,0.0,0.0
21778672000,21778592000,0.101108156,0.101165116,0.21437913,1.0711669,1.0711787,0.0,0.0,0.0,0.0,0.0,0.0,0.0,0.0,12.422526,0.0,0.0,nan,0.0,0.0,0.090320446,0.002532466,0.002531267,0.0025305348,0.0,0.0,0.0,0.0,0.0,0.0
21779176000,21779096000,0.1006539,0.10070677,0.21418068,1.069011,1.0690211,0.0,0.0,0.0,0.0,0.0,0.0,0.0,0.0,12.421543,0.0,0.0,nan,0.0,0.0,0.090321,0.002532466,0.002531267,0.0025305348,0.0,0.0,0.0,0.0,0.0,0.0
21779672000,21779592000,0.10043179,0.100483604,0.21408436,1.0677216,1.0677308,0.0,0.0,0.0,0.0,0.0,0.0,0.0,0.0,12.421655,0.0,0.0,nan,0.0,0.0,0.09032171,0.002532466,0.002531267,0.0025305348,0.0,0.0,0.0,0.0,0.0,0.0
21780176000,21780096000,0.10102084,0.101078294,0.21433139,1.0706542,1.0706663,0.0,0.0,0.0,0.0,0.0,0.0,0.0,0.0,12.422139,0.0,0.0,nan,0.0,0.0,0.090322286,0.002532466,0.002531267,0.0025305348,0.0,0.0,0.0,0.0,0.0,0.0
21780672000,21780592000,0.100496344,0.100549385,0.21414119,1.0680544,1.0680646,0.0,0.0,0.0,0.0,0.0,0.0,0.0,0.0,12.419845,0.0,0.0,nan,0.0,0.0,0.09032316,0.002532466,0.002531267,0.0025305348,0.0,0.0,0.0,0.0,0.0,0.0
21781176000,21781096000,0.10138116,0.10144259,0.21453837,1.0723305,1.072345,0.0,0.0,0.0,0.0,0.0,0.0,0.0,0.0,12.424446,0.0,0.0,nan,0.0,0.0,0.09032404,0.002532466,0.002531267,0.0025305348,0.0,0.0,0.0,0.0,0.0,0.0
21781672000,21781592000,0.10069235,0.10074765,0.21422869,1.069263,1.0692742,0.0,0.0,0.0,0.0,0.0,0.0,0.0,0.0,12.420953,0.0,0.0,nan,0.0,0.0,0.09032491,0.002532466,0.002531267,0.0025305348,0.0,0.0,0.0,0.0,0.0,0.0
21782176000,21782096000,0.100411505,0.10046483,0.21408945,1.0677084,1.0677185,0.0,0.0,0.0,0.0,0.0,0.0,0.0,0.0,12.421423,0.0,0.0,nan,0.0,0.0,0.09032578,0.002532466,0.002531267,0.0025305348,0.0,0.0,0.0,0.0,0.0,0.0
21782672000,21782592000,0.10099749,0.10105638,0.21439785,1.0706394,1.0706525,0.0,0.0,0.0,0.0,0.0,0.0,0.0,0.0,12.420849,0.0,0.0,nan,0.0,0.0,0.09032665,0.002532466,0.002531267,0.0025305348,0.0,0.0,0.0,0.0,0.0,0.0
21783176000,21783096000,0.10061384,0.10066953,0.21423462,1.0688148,1.0688262,0.0,0.0,0.0,0.0,0.0,0.0,0.0,0.0,12.4225855,0.0,0.0,nan,0.0,0.0,0.090327516,0.002532466,0.002531267,0.0025305348,0.0,0.0,0.0,0.0,0.0,0.0
21783672000,21783592000,0.10130505,0.10136774,0.21448925,1.0720532,1.0720685,0.0,0.0,0.0,0.0,0.0,0.0,0.0,0.0,12.422929,0.0,0.0,nan,0.0,0.0,0.09032837,0.002532466,0.002531267,0.0025305348,0.0,0.0,0.0,0.0,0.0,0.0
21784176000,21784096000,0.10085755,0.10091585,0.21433009,1.0701634,1.0701765,0.0,0.0,0.0,0.0,0.0,0.0,0.0,0.0,12.424072,0.0,0.0,nan,0.0,0.0,0.09032908,0.002532466,0.002531267,0.0025305348,0.0,0.0,0.0,0.0,0.0,0.0
21784672000,21784592000,0.10038886,0.10044339,0.21413676,1.0676961,1.0677072,0.0,0.0,0.0,0.0,0.0,0.0,0.0,0.0,12.420232,0.0,0.0,nan,0.0,0.0,0.090329915,0.002532466,0.002531267,0.0025305348,0.0,0.0,0.0,0.0,0.0,0.0
21785176000,21785096000,0.10122912,0.101291865,0.21450034,1.0717053,1.0717208,0.0,0.0,0.0,0.0,0.0,0.0,0.0,0.0,12.424661,0.0,0.0,nan,0.0,0.0,0.09033075,0.002532466,0.002531267,0.0025305348,0.0,0.0,0.0,0.0,0.0,0.0
21785672000,21785592000,0.100596316,0.10065307,0.21419723,1.0688022,1.0688145,0.0,0.0,0.0,0.0,0.0,0.0,0.0,0.0,12.424875,0.0,0.0,nan,0.0,0.0,0.09033171,0.002532466,0.002531267,0.0025305348,0.0,0.0,0.0,0.0,0.0,0.0
21786168000,21786088000,0.100457974,0.10051363,0.21416262,1.0680306,1.0680424,0.0,0.0,0.0,0.0,0.0,0.0,0.0,0.0,12.425634,0.0,0.0,nan,0.0,0.0,0.090332516,0.002532466,0.002531267,0.0025305348,0.0,0.0,0.0,0.0,0.0,0.0
21786672000,21786592000,0.10083966,0.100899026,0.2142919,1.0701302,1.0701442,0.0,0.0,0.0,0.0,0.0,0.0,0.0,0.0,12.421923,0.0,0.0,nan,0.0,0.0,0.09033314,0.002532466,0.002531267,0.0025305348,0.0,0.0,0.0,0.0,0.0,0.0
21787176000,21787096000,0.10050904,0.10056529,0.21413824,1.0684031,1.0684155,0.0,0.0,0.0,0.0,0.0,0.0,0.0,0.0,12.422259,0.0,0.0,nan,0.0,0.0,0.09033375,0.002532466,0.002531267,0.0025305348,0.0,0.0,0.0,0.0,0.0,0.0
21787672000,21787592000,0.10123023,0.10129389,0.21447322,1.0716797,1.0716962,0.0,0.0,0.0,0.0,0.0,0.0,0.0,0.0,12.422548,0.0,0.0,nan,0.0,0.0,0.09033451,0.002532466,0.002531267,0.0025305348,0.0,0.0,0.0,0.0,0.0,0.0
21788168000,21788088000,0.10077185,0.10083083,0.21429045,1.0696422,1.0696563,0.0,0.0,0.0,0.0,0.0,0.0,0.0,0.0,12.422786,0.0,0.0,nan,0.0,0.0,0.0903351,0.002532466,0.002531267,0.0025305348,0.0,0.0,0.0,0.0,0.0,0.0
21788672000,21788592000,0.100466676,0.10052289,0.21414058,1.0680143,1.0680268,0.0,0.0,0.0,0.0,0.0,0.0,0.0,0.0,12.424427,0.0,0.0,nan,0.0,0.0,0.090335816,0.002532466,0.002531267,0.0025305348,0.0,0.0,0.0,0.0,0.0,0.0
21789176000,21789096000,0.10107846,0.10114035,0.21446848,1.0711386,1.0711546,0.0,0.0,0.0,0.0,0.0,0.0,0.0,0.0,12.42456,0.0,0.0,nan,0.0,0.0,0.09033637,0.002532466,0.002531267,0.0025305348,0.0,0.0,0.0,0.0,0.0,0.0
21789672000,21789592000,0.1005197,0.100576155,0.21417795,1.0683953,1.0684085,0.0,0.0,0.0,0.0,0.0,0.0,0.0,0.0,12.4214,0.0,0.0,nan,0.0,0.0,0.09033675,0.002532466,0.002531267,0.0025305348,0.0,0.0,0.0,0.0,0.0,0.0
21790176000,21790096000,0.10039814,0.10045352,0.21414562,1.0676643,1.0676768,0.0,0.0,0.0,0.0,0.0,0.0,0.0,0.0,12.425923,0.0,0.0,nan,0.0,0.0,0.09033726,0.002532466,0.002531267,0.0025305348,0.0,0.0,0.0,0.0,0.0,0.0
21790672000,21790592000,0.10077742,0.100836314,0.21425743,1.0696396,1.0696542,0.0,0.0,0.0,0.0,0.0,0.0,0.0,0.0,12.421782,0.0,0.0,nan,0.0,0.0,0.09033762,0.002532466,0.002531267,0.0025305348,0.0,0.0,0.0,0.0,0.0,0.0
21791168000,21791088000,0.10047269,0.1005287,0.21411337,1.0680128,1.0680258,0.0,0.0,0.0,0.0,0.0,0.0,0.0,0.0,12.421675,0.0,0.0,nan,0.0,0.0,0.09033809,0.002532466,0.002531267,0.0025305348,0.0,0.0,0.0,0.0,0.0,0.0
21791672000,21791592000,0.10103232,0.10109348,0.21441871,1.0708851,1.070901,0.0,0.0,0.0,0.0,0.0,0.0,0.0,0.0,12.42189,0.0,0.0,nan,0.0,0.0,0.09033841,0.002532466,0.002531267,0.0025305348,0.0,0.0,0.0,0.0,0.0,0.0
21792176000,21792096000,0.10063049,0.100687765,0.21418494,1.0689874,1.0690011,0.0,0.0,0.0,0.0,0.0,0.0,0.0,0.0,12.42188,0.0,0.0,nan,0.0,0.0,0.090338856,0.002532466,0.002531267,0.0025305348,0.0,0.0,0.0,0.0,0.0,0.0
21792672000,21792592000,0.100361906,0.10041695,0.21405314,1.0674653,1.0674777,0.0,0.0,0.0,0.0,0.0,0.0,0.0,0.0,12.423262,0.0,0.0,nan,0.0,0.0,0.09033944,0.002532466,0.002531267,0.0025305348,0.0,0.0,0.0,0.0,0.0,0.0
21793176000,21793096000,0.101004414,0.10106586,0.21439773,1.0706553,1.0706711,0.0,0.0,0.0,0.0,0.0,0.0,0.0,0.0,12.423582,0.0,0.0,nan,0.0,0.0,0.09033999,0.002532466,0.002531267,0.0025305348,0.0,0.0,0.0,0.0,0.0,0.0
21793672000,21793592000,0.10047742,0.10053402,0.21412806,1.0680547,1.0680677,0.0,0.0,0.0,0.0,0.0,0.0,0.0,0.0,12.423506,0.0,0.0,nan,0.0,0.0,0.09034052,0.002532466,0.002531267,0.0025305348,0.0,0.0,0.0,0.0,0.0,0.0
21794168000,21794088000,0.10136172,0.10142718,0.2145236,1.0723282,1.0723462,0.0,0.0,0.0,0.0,0.0,0.0,0.0,0.0,12.424309,0.0,0.0,nan,0.0,0.0,0.090340726,0.002532466,0.002531267,0.0025305348,0.0,0.0,0.0,0.0,0.0,0.0
21794672000,21794592000,0.10067199,0.100730404,0.21422055,1.0692401,1.069254,0.0,0.0,0.0,0.0,0.0,0.0,0.0,0.0,12.423779,0.0,0.0,nan,0.0,0.0,0.09034107,0.002532466,0.002531267,0.0025305348,0.0,0.0,0.0,0.0,0.0,0.0
21795176000,21795096000,0.1003987,0.100454755,0.21408416,1.0676887,1.0677012,0.0,0.0,0.0,0.0,0.0,0.0,0.0,0.0,12.421394,0.0,0.0,nan,0.0,0.0,0.09034129,0.002532466,0.002531267,0.0025305348,0.0,0.0,0.0,0.0,0.0,0.0
21795672000,21795592000,0.10099336,0.101055145,0.21439359,1.0706198,1.0706356,0.0,0.0,0.0,0.0,0.0,0.0,0.0,0.0,12.420824,0.0,0.0,nan,0.0,0.0,0.09034175,0.002532466,0.002531267,0.0025305348,0.0,0.0,0.0,0.0,0.0,0.0
21796176000,21796096000,0.10062068,0.10067868,0.21423168,1.0687985,1.0688121,0.0,0.0,0.0,0.0,0.0,0.0,0.0,0.0,12.422588,0.0,0.0,nan,0.0,0.0,0.09034217,0.002532466,0.002531267,0.0025305348,0.0,0.0,0.0,0.0,0.0,0.0
21796672000,21796592000,0.10137082,0.10143654,0.2145291,1.0723014,1.0723195,0.0,0.0,0.0,0.0,0.0,0.0,0.0,0.0,12.4220915,0.0,0.0,nan,0.0,0.0,0.09034227,0.002532466,0.002531267,0.0025305348,0.0,0.0,0.0,0.0,0.0,0.0
21797168000,21797088000,0.10086647,0.10092715,0.21434678,1.0701321,1.0701472,0.0,0.0,0.0,0.0,0.0,0.0,0.0,0.0,12.42258,0.0,0.0,nan,0.0,0.0,0.09034251,0.002532466,0.002531267,0.0025305348,0.0,0.0,0.0,0.0,0.0,0.0
21797672000,21797592000,0.100406714,0.10046362,0.2140948,1.0676743,1.0676867,0.0,0.0,0.0,0.0,0.0,0.0,0.0,0.0,12.423095,0.0,0.0,nan,0.0,0.0,0.09034286,0.002532466,0.002531267,0.0025305348,0.0,0.0,0.0,0.0,0.0,0.0
21798168000,21798088000,0.10125009,0.101315506,0.21446063,1.0716867,1.0717039,0.0,0.0,0.0,0.0,0.0,0.0,0.0,0.0,12.424436,0.0,0.0,nan,0.0,0.0,0.09034321,0.002532466,0.002531267,0.0025305348,0.0,0.0,0.0,0.0,0.0,0.0
21798672000,21798592000,0.10061609,0.10067525,0.21417089,1.0687904,1.068804,0.0,0.0,0.0,0.0,0.0,0.0,0.0,0.0,12.419684,0.0,0.0,nan,0.0,0.0,0.09034322,0.002532466,0.002531267,0.0025305348,0.0,0.0,0.0,0.0,0.0,0.0
21799176000,21799096000,0.100478604,0.1005364,0.21414097,1.0680207,1.0680335,0.0,0.0,0.0,0.0,0.0,0.0,0.0,0.0,12.424515,0.0,0.0,nan,0.0,0.0,0.09034338,0.002532466,0.002531267,0.0025305348,0.0,0.0,0.0,0.0,0.0,0.0
21799672000,21799592000,0.10087083,0.10093212,0.21435565,1.0701474,1.0701625,0.0,0.0,0.0,0.0,0.0,0.0,0.0,0.0,12.420191,0.0,0.0,nan,0.0,0.0,0.09034366,0.002532466,0.002531267,0.0025305348,0.0,0.0,0.0,0.0,0.0,0.0
21800176000,21800096000,0.100534424,0.100592755,0.21420322,1.0684187,1.068432,0.0,0.0,0.0,0.0,0.0,0.0,0.0,0.0,12.421576,0.0,0.0,nan,0.0,0.0,0.09034392,0.002532466,0.002531267,0.0025305348,0.0,0.0,0.0,0.0,0.0,0.0
21800672000,21800592000,0.101250134,0.10131589,0.2144674,1.0716984,1.071716,0.0,0.0,0.0,0.0,0.0,0.0,0.0,0.0,12.422019,0.0,0.0,nan,0.0,0.0,0.09034417,0.002532466,0.002531267,0.0025305348,0.0,0.0,0.0,0.0,0.0,0.0
21801168000,21801088000,0.100787036,0.1008479,0.21428616,1.0696577,1.0696725,0.0,0.0,0.0,0.0,0.0,0.0,0.0,0.0,12.42284,0.0,0.0,nan,0.0,0.0,0.09034438,0.002532466,0.002531267,0.0025305348,0.0,0.0,0.0,0.0,0.0,0.0
21801672000,21801592000,0.100480005,0.1005375,0.2141396,1.0680281,1.0680412,0.0,0.0,0.0,0.0,0.0,0.0,0.0,0.0,12.421967,0.0,0.0,nan,0.0,0.0,0.09034428,0.002532466,0.002531267,0.0025305348,0.0,0.0,0.0,0.0,0.0,0.0
21802176000,21802096000,0.101101406,0.10116516,0.2144078,1.0711762,1.0711929,0.0,0.0,0.0,0.0,0.0,0.0,0.0,0.0,12.423769,0.0,0.0,nan,0.0,0.0,0.090344325,0.002532466,0.002531267,0.0025305348,0.0,0.0,0.0,0.0,0.0,0.0
21802672000,21802592000,0.10054227,0.10060022,0.21413068,1.0684431,1.0684565,0.0,0.0,0.0,0.0,0.0,0.0,0.0,0.0,12.4232855,0.0,0.0,nan,0.0,0.0,0.09034435,0.002532466,0.002531267,0.0025305348,0.0,0.0,0.0,0.0,0.0,0.0
21803176000,21803096000,0.10037182,0.10042811,0.21406987,1.0674719,1.0674844,0.0,0.0,0.0,0.0,0.0,0.0,0.0,0.0,12.424309,0.0,0.0,nan,0.0,0.0,0.090344355,0.002532466,0.002531267,0.0025305348,0.0,0.0,0.0,0.0,0.0,0.0
21803672000,21803592000,0.10080249,0.100862876,0.21429472,1.0696955,1.0697103,0.0,0.0,0.0,0.0,0.0,0.0,0.0,0.0,12.420469,0.0,0.0,nan,0.0,0.0,0.09034435,0.002532466,0.002531267,0.0025305348,0.0,0.0,0.0,0.0,0.0,0.0
21804176000,21804096000,0.10049095,0.1005477,0.21414946,1.0680586,1.0680717,0.0,0.0,0.0,0.0,0.0,0.0,0.0,0.0,12.421388,0.0,0.0,nan,0.0,0.0,0.09034447,0.002532466,0.002531267,0.0025305348,0.0,0.0,0.0,0.0,0.0,0.0
21804672000,21804592000,0.10110564,0.10116842,0.21441458,1.0712044,1.0712209,0.0,0.0,0.0,0.0,0.0,0.0,0.0,0.0,12.421337,0.0,0.0,nan,0.0,0.0,0.090344295,0.002532466,0.002531267,0.0025305348,0.0,0.0,0.0,0.0,0.0,0.0
21805176000,21805096000,0.10068944,0.10074766,0.214244,1.0692629,1.069277,0.0,0.0,0.0,0.0,0.0,0.0,0.0,0.0,12.4226675,0.0,0.0,nan,0.0,0.0,0.090344116,0.002532466,0.002531267,0.0025305348,0.0,0.0,0.0,0.0,0.0,0.0
21805672000,21805592000,0.10042171,0.10047788,0.21410684,1.067728,1.0677407,0.0,0.0,0.0,0.0,0.0,0.0,0.0,0.0,12.423161,0.0,0.0,nan,0.0,0.0,0.0903442,0.002532466,0.002531267,0.0025305348,0.0,0.0,0.0,0.0,0.0,0.0
21806176000,21806096000,0.101010054,0.101071924,0.2144114,1.0706577,1.0706735,0.0,0.0,0.0,0.0,0.0,0.0,0.0,0.0,12.423466,0.0,0.0,nan,0.0,0.0,0.09034398,0.002532466,0.002531267,0.0025305348,0.0,0.0,0.0,0.0,0.0,0.0
21806672000,21806592000,0.09985079,0.099897206,0.21411784,1.0681074,1.0681202,0.0,0.0,0.0,0.0,0.0,0.0,0.0,0.0,12.419666,0.0,0.0,nan,0.0,0.0,0.09034434,0.002532466,0.002531267,0.0025305348,0.0,0.0,0.0,0.0,0.0,0.0
21807176000,21807096000,0.10066452,0.100309245,0.213299,1.0722363,1.0722532,0.0,0.0,0.0,0.0,0.0,0.0,0.0,0.0,12.423257,0.0,0.0,nan,0.0,0.0,0.09034637,0.0028623554,0.0030330168,0.0030814027,0.0,0.0,0.0,0.0,0.0,0.0
21807672000,21807592000,0.10378823,0.100507416,0.21199888,1.0690541,1.0690614,0.0,0.0,0.0,0.0,0.0,0.0,0.0,0.0,12.419386,0.0,0.0,nan,0.0,0.0,0.09034637,0.0026782514,0.0027000068,0.0027110993,0.0,0.0,0.0,0.0,0.0,0.0
21808168000,21808088000,0.1032568,0.10108264,0.21156542,1.0672505,1.0672278,0.0,0.0,0.0,0.0,0.0,0.0,0.0,0.0,12.418895,0.0,0.0,nan,0.0,0.0,0.09034637,0.0026389458,0.0026278808,0.0026413547,0.0,0.0,0.0,0.0,0.0,0.0
21808672000,21808592000,0.10385192,0.10256275,0.21169472,1.0704557,1.0703049,0.0,0.0,0.0,0.0,0.0,0.0,0.0,0.0,12.41831,0.0,0.0,nan,0.0,0.0,0.09034637,0.0025972961,0.0025952216,0.0026009062,0.0,0.0,0.0,0.0,0.0,0.0
21809168000,21809088000,0.10368408,0.102718696,0.21185619,1.0686716,1.0685117,0.0,0.0,0.0,0.0,0.0,0.0,0.0,0.0,12.416821,0.0,0.0,nan,0.0,0.0,0.09034637,0.0025910311,0.002575269,0.0025789046,0.0,0.0,0.0,0.0,0.0,0.0
21809672000,21809592000,0.104773484,0.10406153,0.21258879,1.0721074,1.0718366,0.0,0.0,0.0,0.0,0.0,0.0,0.0,0.0,12.415922,0.0,0.0,nan,0.0,0.0,0.09034637,0.0025695718,0.002562459,0.0025671637,0.0,0.0,0.0,0.0,0.0,0.0
21810176000,21810096000,0.10382843,0.103479445,0.21296999,1.0702851,1.0700313,0.0,0.0,0.0,0.0,0.0,0.0,0.0,0.0,12.415705,0.0,0.0,nan,0.0,0.0,0.09034637,0.0025536043,0.0025532711,0.0025537,0.0,0.0,0.0,0.0,0.0,0.0
21810672000,21810592000,0.10316981,0.102838576,0.21361084,1.0679007,1.0676796,0.0,0.0,0.0,0.0,0.0,0.0,0.0,0.0,12.412754,0.0,0.0,nan,0.0,0.0,0.09034637,0.0025468913,0.0025476988,0.0025475342,0.0,0.0,0.0,0.0,0.0,0.0
21811176000,21811096000,0.10478303,0.10404494,0.21443436,1.0720795,1.071893,0.0,0.0,0.0,0.0,0.0,0.0,0.0,0.0,12.415962,0.0,0.0,nan,0.0,0.0,0.09034637,0.0025442317,0.0025416042,0.0025425998,0.0,0.0,0.0,0.0,0.0,0.0
21811672000,21811592000,0.10411272,0.103081234,0.21492152,1.0691311,1.0690037,0.0,0.0,0.0,0.0,0.0,0.0,0.0,0.0,12.414251,0.0,0.0,nan,0.0,0.0,0.09034637,0.0025419695,0.002537693,0.0025387895,0.0,0.0,0.0,0.0,0.0,0.0
21812176000,21812096000,0.10393855,0.10282431,0.2151047,1.0683528,1.0682447,0.0,0.0,0.0,0.0,0.0,0.0,0.0,0.0,12.417285,0.0,0.0,nan,0.0,0.0,0.09034637,0.0025445572,0.002533952,0.0025372205,0.0,0.0,0.0,0.0,0.0,0.0
21812672000,21812592000,0.104469575,0.103080004,0.21602575,1.070579,1.0705281,0.0,0.0,0.0,0.0,0.0,0.0,0.0,0.0,12.414162,0.0,0.0,nan,0.0,0.0,0.09026195,0.0025441735,0.0025320116,0.0025358188,0.0,0.0,0.0,0.0,0.0,0.0
21813168000,21813088000,0.103617124,0.10238425,0.21612284,1.0688184,1.0687796,0.0,0.0,0.0,0.0,0.0,0.0,0.0,0.0,12.415468,0.0,0.0,nan,0.0,0.0,0.09025013,0.0025441735,0.0025320116,0.0025358188,0.0,0.0,0.0,0.0,0.0,0.0
21813672000,21813592000,0.10409976,0.10293422,0.21676347,1.072301,1.0722432,0.0,0.0,0.0,0.0,0.0,0.0,0.0,0.0,12.415685,0.0,0.0,nan,0.0,0.0,0.09023984,0.0025441735,0.0025320116,0.0025358188,0.0,0.0,0.0,0.0,0.0,0.0
21814168000,21814088000,0.102958426,0.10206149,0.21669455,1.07018,1.0701281,0.0,0.0,0.0,0.0,0.0,0.0,0.0,0.0,12.416466,0.0,0.0,nan,0.0,0.0,0.09023163,0.0025441735,0.0025320116,0.0025358188,0.0,0.0,0.0,0.0,0.0,0.0
21814672000,21814592000,0.10214463,0.1014348,0.216619,1.0685029,1.0684515,0.0,0.0,0.0,0.0,0.0,0.0,0.0,0.0,12.419315,0.0,0.0,nan,0.0,0.0,0.090225965,0.0025441735,0.0025320116,0.0025358188,0.0,0.0,0.0,0.0,0.0,0.0
21815168000,21815088000,0.10246453,0.10184199,0.21721184,1.0717521,1.0716615,0.0,0.0,0.0,0.0,0.0,0.0,0.0,0.0,12.420807,0.0,0.0,nan,0.0,0.0,0.09022157,0.0025441735,0.0025320116,0.0025358188,0.0,0.0,0.0,0.0,0.0,0.0
21815672000,21815592000,0.10142709,0.10098411,0.2168583,1.0688854,1.0688066,0.0,0.0,0.0,0.0,0.0,0.0,0.0,0.0,12.418206,0.0,0.0,nan,0.0,0.0,0.09021686,0.0025441735,0.0025320116,0.0025358188,0.0,0.0,0.0,0.0,0.0,0.0
21816176000,21816096000,0.1011962,0.10079258,0.21681063,1.0681244,1.0680474,0.0,0.0,0.0,0.0,0.0,0.0,0.0,0.0,12.424453,0.0,0.0,nan,0.0,0.0,0.09021721,0.0025441735,0.0025320116,0.0025358188,0.0,0.0,0.0,0.0,0.0,0.0
21816672000,21816592000,0.10137458,0.10105374,0.21709064,1.0700953,1.0699943,0.0,0.0,0.0,0.0,0.0,0.0,0.0,0.0,12.4206505,0.0,0.0,nan,0.0,0.0,0.090215296,0.0025441735,0.0025320116,0.0025358188,0.0,0.0,0.0,0.0,0.0,0.0
21817168000,21817088000,0.10095265,0.100691676,0.21685158,1.0683975,1.0683069,0.0,0.0,0.0,0.0,0.0,0.0,0.0,0.0,12.4223585,0.0,0.0,nan,0.0,0.0,0.09021544,0.0025441735,0.0025320116,0.0025358188,0.0,0.0,0.0,0.0,0.0,0.0
21817672000,21817592000,0.10152538,0.101289414,0.21722195,1.0715246,1.0714118,0.0,0.0,0.0,0.0,0.0,0.0,0.0,0.0,12.423229,0.0,0.0,nan,0.0,0.0,0.09021587,0.0025441735,0.0025320116,0.0025358188,0.0,0.0,0.0,0.0,0.0,0.0
21818176000,21818096000,0.10105929,0.10086612,0.21693712,1.0695238,1.0694283,0.0,0.0,0.0,0.0,0.0,0.0,0.0,0.0,12.424211,0.0,0.0,nan,0.0,0.0,0.090216696,0.0025441735,0.0025320116,0.0025358188,0.0,0.0,0.0,0.0,0.0,0.0
21818672000,21818592000,0.10075098,0.10058741,0.21671334,1.0679247,1.0678408,0.0,0.0,0.0,0.0,0.0,0.0,0.0,0.0,12.425207,0.0,0.0,nan,0.0,0.0,0.09021784,0.0025441735,0.0025320116,0.0025358188,0.0,0.0,0.0,0.0,0.0,0.0
21819176000,21819096000,0.10134095,0.10119084,0.21705097,1.0708495,1.0707529,0.0,0.0,0.0,0.0,0.0,0.0,0.0,0.0,12.427018,0.0,0.0,nan,0.0,0.0,0.09021926,0.0025441735,0.0025320116,0.0025358188,0.0,0.0,0.0,0.0,0.0,0.0
21819672000,21819592000,0.100774705,0.10066356,0.21664415,1.0681987,1.0681226,0.0,0.0,0.0,0.0,0.0,0.0,0.0,0.0,12.426235,0.0,0.0,nan,0.0,0.0,0.09022079,0.0025441735,0.0025320116,0.0025358188,0.0,0.0,0.0,0.0,0.0,0.0
21820176000,21820096000,0.10163565,0.10152323,0.2171788,1.0722244,1.0721326,0.0,0.0,0.0,0.0,0.0,0.0,0.0,0.0,12.427619,0.0,0.0,nan,0.0,0.0,0.09022242,0.0025441735,0.0025320116,0.0025358188,0.0,0.0,0.0,0.0,0.0,0.0
21820672000,21820592000,0.10095982,0.10087945,0.21685481,1.0693753,1.0693061,0.0,0.0,0.0,0.0,0.0,0.0,0.0,0.0,12.423187,0.0,0.0,nan,0.0,0.0,0.09022411,0.0025441735,0.0025320116,0.0025358188,0.0,0.0,0.0,0.0,0.0,0.0
21821176000,21821096000,0.100666285,0.10060087,0.21664344,1.0678021,1.0677432,0.0,0.0,0.0,0.0,0.0,0.0,0.0,0.0,12.425412,0.0,0.0,nan,0.0,0.0,0.0902259,0.0025441735,0.0025320116,0.0025358188,0.0,0.0,0.0,0.0,0.0,0.0
21821672000,21821592000,0.101276115,0.101215675,0.21699259,1.0707371,1.0706761,0.0,0.0,0.0,0.0,0.0,0.0,0.0,0.0,12.424847,0.0,0.0,nan,0.0,0.0,0.09022786,0.0025441735,0.0025320116,0.0025358188,0.0,0.0,0.0,0.0,0.0,0.0
21822168000,21822088000,0.1008689,0.10081883,0.21674825,1.0688976,1.0688472,0.0,0.0,0.0,0.0,0.0,0.0,0.0,0.0,12.425381,0.0,0.0,nan,0.0,0.0,0.09022987,0.0025441735,0.0025320116,0.0025358188,0.0,0.0,0.0,0.0,0.0,0.0
21822672000,21822592000,0.10163212,0.10158522,0.21718393,1.0724149,1.0723615,0.0,0.0,0.0,0.0,0.0,0.0,0.0,0.0,12.42592,0.0,0.0,nan,0.0,0.0,0.09023196,0.0025441735,0.0025320116,0.0025358188,0.0,0.0,0.0,0.0,0.0,0.0
21823176000,21823096000,0.101112805,0.10107519,0.21690743,1.0702484,1.0702053,0.0,0.0,0.0,0.0,0.0,0.0,0.0,0.0,12.427014,0.0,0.0,nan,0.0,0.0,0.090234086,0.0025441735,0.0025320116,0.0025358188,0.0,0.0,0.0,0.0,0.0,0.0
21823672000,21823592000,0.10056563,0.10053764,0.21658994,1.0675305,1.0674981,0.0,0.0,0.0,0.0,0.0,0.0,0.0,0.0,12.4227295,0.0,0.0,nan,0.0,0.0,0.090236075,0.0025441735,0.0025320116,0.0025358188,0.0,0.0,0.0,0.0,0.0,0.0
21824176000,21824096000,0.10149119,0.10146216,0.21718484,1.0718281,1.0717905,0.0,0.0,0.0,0.0,0.0,0.0,0.0,0.0,12.428131,0.0,0.0,nan,0.0,0.0,0.0902382,0.0025441735,0.0025320116,0.0025358188,0.0,0.0,0.0,0.0,0.0,0.0
21824672000,21824592000,0.10082237,0.10080199,0.2167522,1.0688984,1.0688705,0.0,0.0,0.0,0.0,0.0,0.0,0.0,0.0,12.424563,0.0,0.0,nan,0.0,0.0,0.09024008,0.0025441735,0.0025320116,0.0025358188,0.0,0.0,0.0,0.0,0.0,0.0
21825168000,21825088000,0.10067484,0.10065654,0.2166075,1.0681218,1.0680963,0.0,0.0,0.0,0.0,0.0,0.0,0.0,0.0,12.429659,0.0,0.0,nan,0.0,0.0,0.09024219,0.0025441735,0.0025320116,0.0025358188,0.0,0.0,0.0,0.0,0.0,0.0
21825672000,21825592000,0.10103724,0.101023465,0.21690068,1.0702336,1.0702099,0.0,0.0,0.0,0.0,0.0,0.0,0.0,0.0,12.425844,0.0,0.0,nan,0.0,0.0,0.09024426,0.0025441735,0.0025320116,0.0025358188,0.0,0.0,0.0,0.0,0.0,0.0
21826176000,21826096000,0.100679934,0.10066936,0.21666983,1.0684936,1.068474,0.0,0.0,0.0,0.0,0.0,0.0,0.0,0.0,12.425762,0.0,0.0,nan,0.0,0.0,0.09024623,0.0025441735,0.0025320116,0.0025358188,0.0,0.0,0.0,0.0,0.0,0.0
21826672000,21826592000,0.10140578,0.1013965,0.21716258,1.0717907,1.0717702,0.0,0.0,0.0,0.0,0.0,0.0,0.0,0.0,12.426172,0.0,0.0,nan,0.0,0.0,0.09024817,0.0025441735,0.0025320116,0.0025358188,0.0,0.0,0.0,0.0,0.0,0.0
21827176000,21827096000,0.100922465,0.10091554,0.21689275,1.0697356,1.0697192,0.0,0.0,0.0,0.0,0.0,0.0,0.0,0.0,12.427109,0.0,0.0,nan,0.0,0.0,0.090250105,0.0025441735,0.0025320116,0.0025358188,0.0,0.0,0.0,0.0,0.0,0.0
21827672000,21827592000,0.10060244,0.10059687,0.21667972,1.0680963,1.0680826,0.0,0.0,0.0,0.0,0.0,0.0,0.0,0.0,12.426614,0.0,0.0,nan,0.0,0.0,0.090252005,0.0025441735,0.0025320116,0.0025358188,0.0,0.0,0.0,0.0,0.0,0.0
21828168000,21828088000,0.10120781,0.101202086,0.21707298,1.0712348,1.071221,0.0,0.0,0.0,0.0,0.0,0.0,0.0,0.0,12.428531,0.0,0.0,nan,0.0,0.0,0.090254,0.0025441735,0.0025320116,0.0025358188,0.0,0.0,0.0,0.0,0.0,0.0
21828672000,21828592000,0.10061371,0.10060921,0.216664,1.068472,1.0684617,0.0,0.0,0.0,0.0,0.0,0.0,0.0,0.0,12.427878,0.0,0.0,nan,0.0,0.0,0.09025595,0.0025441735,0.0025320116,0.0025358188,0.0,0.0,0.0,0.0,0.0,0.0
21829176000,21829096000,0.10048634,0.10048208,0.21661429,1.0677361,1.0677266,0.0,0.0,0.0,0.0,0.0,0.0,0.0,0.0,12.429078,0.0,0.0,nan,0.0,0.0,0.09025768,0.0025441735,0.0025320116,0.0025358188,0.0,0.0,0.0,0.0,0.0,0.0
21829672000,21829592000,0.1008557,0.100852,0.2168998,1.0697128,1.069704,0.0,0.0,0.0,0.0,0.0,0.0,0.0,0.0,12.423936,0.0,0.0,nan,0.0,0.0,0.0902596,0.0025441735,0.0025320116,0.0025358188,0.0,0.0,0.0,0.0,0.0,0.0
21830168000,21830088000,0.10054052,0.10053715,0.2166873,1.068076,1.0680687,0.0,0.0,0.0,0.0,0.0,0.0,0.0,0.0,12.425509,0.0,0.0,nan,0.0,0.0,0.09026149,0.0025441735,0.0025320116,0.0025358188,0.0,0.0,0.0,0.0,0.0,0.0
21830672000,21830592000,0.10114804,0.10114456,0.21708006,1.0712075,1.0712003,0.0,0.0,0.0,0.0,0.0,0.0,0.0,0.0,12.424357,0.0,0.0,nan,0.0,0.0,0.09026324,0.0025441735,0.0025320116,0.0025358188,0.0,0.0,0.0,0.0,0.0,0.0
21831168000,21831088000,0.10072956,0.10072694,0.21682945,1.0692679,1.069262,0.0,0.0,0.0,0.0,0.0,0.0,0.0,0.0,12.426439,0.0,0.0,nan,0.0,0.0,0.09026497,0.0025441735,0.0025320116,0.0025358188,0.0,0.0,0.0,0.0,0.0,0.0
21831672000,21831592000,0.10039868,0.10039634,0.21658549,1.0674788,1.0674739,0.0,0.0,0.0,0.0,0.0,0.0,0.0,0.0,12.426654,0.0,0.0,nan,0.0,0.0,0.09026666,0.0025441735,0.0025320116,0.0025358188,0.0,0.0,0.0,0.0,0.0,0.0
21832176000,21832096000,0.101032436,0.101030365,0.21700467,1.0706742,1.0706692,0.0,0.0,0.0,0.0,0.0,0.0,0.0,0.0,12.426668,0.0,0.0,nan,0.0,0.0,0.09026811,0.0025441735,0.0025320116,0.0025358188,0.0,0.0,0.0,0.0,0.0,0.0
21832672000,21832592000,0.10050277,0.100501336,0.21663442,1.0680705,1.0680668,0.0,0.0,0.0,0.0,0.0,0.0,0.0,0.0,12.422992,0.0,0.0,nan,0.0,0.0,0.09026976,0.0025441735,0.0025320116,0.0025358188,0.0,0.0,0.0,0.0,0.0,0.0
21833176000,21833096000,0.10132868,0.101327024,0.21717682,1.0720886,1.0720845,0.0,0.0,0.0,0.0,0.0,0.0,0.0,0.0,12.428533,0.0,0.0,nan,0.0,0.0,0.090271264,0.0025441735,0.0025320116,0.0025358188,0.0,0.0,0.0,0.0,0.0,0.0
21833672000,21833592000,0.10071136,0.1007102,0.21678215,1.0692974,1.0692945,0.0,0.0,0.0,0.0,0.0,0.0,0.0,0.0,12.428011,0.0,0.0,nan,0.0,0.0,0.090272866,0.0025441735,0.0025320116,0.0025358188,0.0,0.0,0.0,0.0,0.0,0.0
21834176000,21834096000,0.10038327,0.10038247,0.216624,1.0675217,1.0675192,0.0,0.0,0.0,0.0,0.0,0.0,0.0,0.0,12.425171,0.0,0.0,nan,0.0,0.0,0.090274535,0.0025441735,0.0025320116,0.0025358188,0.0,0.0,0.0,0.0,0.0,0.0
21834672000,21834592000,0.101020925,0.10102044,0.2170301,1.0707102,1.0707077,0.0,0.0,0.0,0.0,0.0,0.0,0.0,0.0,12.42459,0.0,0.0,nan,0.0,0.0,0.09027619,0.0025441735,0.0025320116,0.0025358188,0.0,0.0,0.0,0.0,0.0,0.0
21835176000,21835096000,0.100632116,0.100631684,0.21678592,1.0688727,1.0688705,0.0,0.0,0.0,0.0,0.0,0.0,0.0,0.0,12.426657,0.0,0.0,nan,0.0,0.0,0.0902778,0.0025441735,0.0025320116,0.0025358188,0.0,0.0,0.0,0.0,0.0,0.0
21835672000,21835592000,0.101368085,0.10136745,0.21722047,1.0723711,1.0723691,0.0,0.0,0.0,0.0,0.0,0.0,0.0,0.0,12.426068,0.0,0.0,nan,0.0,0.0,0.09027915,0.0025441735,0.0025320116,0.0025358188,0.0,0.0,0.0,0.0,0.0,0.0
21836176000,21836096000,0.10086624,0.1008653,0.2169376,1.0701873,1.0701858,0.0,0.0,0.0,0.0,0.0,0.0,0.0,0.0,12.425591,0.0,0.0,nan,0.0,0.0,0.090280466,0.0025441735,0.0025320116,0.0025358188,0.0,0.0,0.0,0.0,0.0,0.0
21836672000,21836592000,0.10040213,0.1004013,0.21658406,1.067714,1.0677128,0.0,0.0,0.0,0.0,0.0,0.0,0.0,0.0,12.4262705,0.0,0.0,nan,0.0,0.0,0.090281874,0.0025441735,0.0025320116,0.0025358188,0.0,0.0,0.0,0.0,0.0,0.0
21837176000,21837096000,0.10124447,0.10124341,0.21713176,1.0717261,1.0717247,0.0,0.0,0.0,0.0,0.0,0.0,0.0,0.0,12.427464,0.0,0.0,nan,0.0,0.0,0.090283126,0.0025441735,0.0025320116,0.0025358188,0.0,0.0,0.0,0.0,0.0,0.0
21837672000,21837592000,0.100613244,0.10061248,0.21671191,1.0688175,1.0688164,0.0,0.0,0.0,0.0,0.0,0.0,0.0,0.0,12.428008,0.0,0.0,nan,0.0,0.0,0.0902846,0.0025441735,0.0025320116,0.0025358188,0.0,0.0,0.0,0.0,0.0,0.0
21838168000,21838088000,0.100475326,0.1004745,0.21665475,1.068045,1.068044,0.0,0.0,0.0,0.0,0.0,0.0,0.0,0.0,12.430275,0.0,0.0,nan,0.0,0.0,0.09028604,0.0025441735,0.0025320116,0.0025358188,0.0,0.0,0.0,0.0,0.0,0.0
21838672000,21838592000,0.100869805,0.10086882,0.21694678,1.0701454,1.0701444,0.0,0.0,0.0,0.0,0.0,0.0,0.0,0.0,12.425393,0.0,0.0,nan,0.0,0.0,0.09028743,0.0025441735,0.0025320116,0.0025358188,0.0,0.0,0.0,0.0,0.0,0.0
21839176000,21839096000,0.10053673,0.100535676,0.21671201,1.0684171,1.0684162,0.0,0.0,0.0,0.0,0.0,0.0,0.0,0.0,12.425818,0.0,0.0,nan,0.0,0.0,0.09028881,0.0025441735,0.0025320116,0.0025358188,0.0,0.0,0.0,0.0,0.0,0.0
21839672000,21839592000,0.101248756,0.10124764,0.21711056,1.0716987,1.0716977,0.0,0.0,0.0,0.0,0.0,0.0,0.0,0.0,12.426767,0.0,0.0,nan,0.0,0.0,0.090290144,0.0025441735,0.0025320116,0.0025358188,0.0,0.0,0.0,0.0,0.0,0.0
21840176000,21840096000,0.100784294,0.10078323,0.21684046,1.0696579,1.069657,0.0,0.0,0.0,0.0,0.0,0.0,0.0,0.0,12.426128,0.0,0.0,nan,0.0,0.0,0.09029132,0.0025441735,0.0025320116,0.0025358188,0.0,0.0,0.0,0.0,0.0,0.0
21840672000,21840592000,0.10047444,0.10047333,0.21662737,1.0680285,1.0680277,0.0,0.0,0.0,0.0,0.0,0.0,0.0,0.0,12.4282255,0.0,0.0,nan,0.0,0.0,0.090292476,0.0025441735,0.0025320116,0.0025358188,0.0,0.0,0.0,0.0,0.0,0.0
21841176000,21841096000,0.101098165,0.101096936,0.21701702,1.0711775,1.0711766,0.0,0.0,0.0,0.0,0.0,0.0,0.0,0.0,12.428074,0.0,0.0,nan,0.0,0.0,0.090293705,0.0025441735,0.0025320116,0.0025358188,0.0,0.0,0.0,0.0,0.0,0.0
21841672000,21841592000,0.100543015,0.10054189,0.21662597,1.0684447,1.068444,0.0,0.0,0.0,0.0,0.0,0.0,0.0,0.0,12.427049,0.0,0.0,nan,0.0,0.0,0.09029491,0.0025441735,0.0025320116,0.0025358188,0.0,0.0,0.0,0.0,0.0,0.0
21842176000,21842096000,0.10041792,0.10041688,0.21657942,1.0677097,1.0677091,0.0,0.0,0.0,0.0,0.0,0.0,0.0,0.0,12.429425,0.0,0.0,nan,0.0,0.0,0.09029596,0.0025441735,0.0025320116,0.0025358188,0.0,0.0,0.0,0.0,0.0,0.0
21842672000,21842592000,0.10077798,0.10077724,0.21686251,1.0696808,1.0696801,0.0,0.0,0.0,0.0,0.0,0.0,0.0,0.0,12.424738,0.0,0.0,nan,0.0,0.0,0.09029698,0.0025441735,0.0025320116,0.0025358188,0.0,0.0,0.0,0.0,0.0,0.0
21843176000,21843096000,0.10046427,0.10046384,0.21664774,1.0680472,1.0680465,0.0,0.0,0.0,0.0,0.0,0.0,0.0,0.0,12.42527,0.0,0.0,nan,0.0,0.0,0.090297975,0.0025441735,0.0025320116,0.0025358188,0.0,0.0,0.0,0.0,0.0,0.0
21843672000,21843592000,0.10106654,0.10106668,0.2170351,1.0711688,1.0711681,0.0,0.0,0.0,0.0,0.0,0.0,0.0,0.0,12.425148,0.0,0.0,nan,0.0,0.0,0.09029907,0.0025441735,0.0025320116,0.0025358188,0.0,0.0,0.0,0.0,0.0,0.0
21844176000,21844096000,0.10065681,0.100657254,0.21678795,1.0692339,1.0692333,0.0,0.0,0.0,0.0,0.0,0.0,0.0,0.0,12.426278,0.0,0.0,nan,0.0,0.0,0.09030001,0.0025441735,0.0025320116,0.0025358188,0.0,0.0,0.0,0.0,0.0,0.0
21844672000,21844592000,0.10038978,0.10039065,0.21659079,1.0676836,1.0676831,0.0,0.0,0.0,0.0,0.0,0.0,0.0,0.0,12.426416,0.0,0.0,nan,0.0,0.0,0.09030104,0.0025441735,0.0025320116,0.0025358188,0.0,0.0,0.0,0.0,0.0,0.0
21845176000,21845096000,0.1009775,0.10097856,0.21695344,1.0706155,1.0706152,0.0,0.0,0.0,0.0,0.0,0.0,0.0,0.0,12.427482,0.0,0.0,nan,0.0,0.0,0.09030204,0.0025441735,0.0025320116,0.0025358188,0.0,0.0,0.0,0.0,0.0,0.0
21845672000,21845592000,0.100452565,0.10045296,0.21666843,1.0680256,1.0680254,0.0,0.0,0.0,0.0,0.0,0.0,0.0,0.0,12.422209,0.0,0.0,nan,0.0,0.0,0.090303004,0.0025441735,0.0025320116,0.0025358188,0.0,0.0,0.0,0.0,0.0,0.0
21846176000,21846096000,0.101335265,0.10133555,0.2171715,1.0722967,1.0722966,0.0,0.0,0.0,0.0,0.0,0.0,0.0,0.0,12.42832,0.0,0.0,nan,0.0,0.0,0.090303816,0.0025441735,0.0025320116,0.0025358188,0.0,0.0,0.0,0.0,0.0,0.0
21846672000,21846592000,0.100651,0.10065114,0.21682163,1.0692172,1.0692171,0.0,0.0,0.0,0.0,0.0,0.0,0.0,0.0,12.423353,0.0,0.0,nan,0.0,0.0,0.090304606,0.0025441735,0.0025320116,0.0025358188,0.0,0.0,0.0,0.0,0.0,0.0
21847176000,21847096000,0.10037656,0.10037659,0.2166222,1.0676702,1.0676702,0.0,0.0,0.0,0.0,0.0,0.0,0.0,0.0,12.425052,0.0,0.0,nan,0.0,0.0,0.09030561,0.0025441735,0.0025320116,0.0025358188,0.0,0.0,0.0,0.0,0.0,0.0
21847672000,21847592000,0.10097577,0.10097574,0.21697912,1.0706024,1.0706023,0.0,0.0,0.0,0.0,0.0,0.0,0.0,0.0,12.425473,0.0,0.0,nan,0.0,0.0,0.09030648,0.0025441735,0.0025320116,0.0025358188,0.0,0.0,0.0,0.0,0.0,0.0
21848176000,21848096000,0.10059248,0.10059246,0.21673533,1.0687852,1.0687852,0.0,0.0,0.0,0.0,0.0,0.0,0.0,0.0,12.425943,0.0,0.0,nan,0.0,0.0,0.0903073,0.0025441735,0.0025320116,0.0025358188,0.0,0.0,0.0,0.0,0.0,0.0
21848672000,21848592000,0.10133774,0.10133773,0.21725656,1.072287,1.072287,0.0,0.0,0.0,0.0,0.0,0.0,0.0,0.0,12.426322,0.0,0.0,nan,0.0,0.0,0.09030797,0.0025441735,0.0025320116,0.0025358188,0.0,0.0,0.0,0.0,0.0,0.0
21849168000,21849088000,0.10083594,0.10083592,0.21696305,1.0701208,1.0701208,0.0,0.0,0.0,0.0,0.0,0.0,0.0,0.0,12.427199,0.0,0.0,nan,0.0,0.0,0.09030864,0.0025441735,0.0025320116,0.0025358188,0.0,0.0,0.0,0.0,0.0,0.0
21849672000,21849592000,0.10037339,0.10037326,0.21659094,1.0676657,1.0676656,0.0,0.0,0.0,0.0,0.0,0.0,0.0,0.0,12.427643,0.0,0.0,nan,0.0,0.0,0.0903094,0.0025441735,0.0025320116,0.0025358188,0.0,0.0,0.0,0.0,0.0,0.0
21850176000,21850096000,0.10121054,0.101210356,0.21712965,1.0716754,1.0716753,0.0,0.0,0.0,0.0,0.0,0.0,0.0,0.0,12.4296255,0.0,0.0,nan,0.0,0.0,0.09031011,0.0025441735,0.0025320116,0.0025358188,0.0,0.0,0.0,0.0,0.0,0.0
21850672000,21850592000,0.10058558,0.100585274,0.2167003,1.0687814,1.0687811,0.0,0.0,0.0,0.0,0.0,0.0,0.0,0.0,12.4284,0.0,0.0,nan,0.0,0.0,0.09031069,0.0025441735,0.0025320116,0.0025358188,0.0,0.0,0.0,0.0,0.0,0.0
21851168000,21851088000,0.10044862,0.10044817,0.21664578,1.0680121,1.068012,0.0,0.0,0.0,0.0,0.0,0.0,0.0,0.0,12.428575,0.0,0.0,nan,0.0,0.0,0.09031111,0.0025441735,0.0025320116,0.0025358188,0.0,0.0,0.0,0.0,0.0,0.0
