timestamp,timestamp_sample,yaw_composite,yaw_variance,yaw[0],yaw[1],yaw[2],yaw[3],yaw[4],innov_vn[0],innov_vn[1],innov_vn[2],innov_vn[3],innov_vn[4],innov_ve[0],innov_ve[1],innov_ve[2],innov_ve[3],innov_ve[4],weight[0],weight[1],weight[2],weight[3],weight[4]
21733224000,21733144000,3.0079389,3.7977512,-2.5132742,-1.2566371,0.0,1.2566371,2.5132742,0.0,0.0,0.0,0.0,0.0,0.0,0.0,0.0,0.0,0.0,0.2,0.2,0.2,0.2,0.2
21733232000,21733152000,-2.9370883,3.7326796,-2.513271,-1.256634,3.0940612e-06,1.2566402,2.5132773,0.0,0.0,0.0,0.0,0.0,0.0,0.0,0.0,0.0,0.0,0.2,0.2,0.2,0.2,0.2
21734224000,21734144000,-2.815614,3.6438167,-2.5134501,-1.2568736,-0.00017882454,1.2565548,2.5131936,-0.00402261,-0.021887682,-0.023234405,-0.0062010013,0.0056723095,0.0044737738,8.496083e-05,-0.018262267,-0.025212483,-0.011160492,0.20004147,0.20000038,0.19995882,0.19997399,0.20002528
21735224000,21735144000,-0.84029305,3.7229984,-2.5126252,-1.2562323,-7.028193e-05,1.2565175,2.5135994,-0.041550137,-0.025995996,-0.007823022,-0.012138956,-0.0329924,-0.0025128652,-0.016563559,-0.006119429,0.014399114,0.016629532,0.19997847,0.20019291,0.2001408,0.19989398,0.19979379
21736224000,21736144000,-0.6507304,3.9051685,-2.5082712,-1.2521683,0.0028677026,1.2590495,2.5170074,-0.0538157,-0.041903198,-0.030709594,-0.03568216,-0.049979195,0.018271973,0.010375312,0.019248676,0.032650672,0.03205588,0.19980292,0.20057093,0.20054965,0.19976865,0.19930792
21737216000,21737136000,-0.67491764,3.8747935,-2.506721,-1.2506639,0.004355834,1.2605731,2.5185702,0.026824074,0.008349021,0.017597724,0.041807115,0.04753504,0.014222227,-0.0015335478,-0.023965694,-0.022123301,0.0014984829,0.19981766,0.2005878,0.20054518,0.1997491,0.19930021
21738224000,21738144000,-1.2686894,3.5398126,-2.5070305,-1.252174,0.0027179534,1.2600573,2.518877,0.02951547,-0.017055046,-0.033821315,0.0023979694,0.041606564,-0.009941384,-0.007498011,-0.05100405,-0.08044834,-0.055042006,0.20030566,0.2009416,0.20027453,0.19922964,0.19924857
21739224000,21739144000,-1.1422386,1.9587001,-2.3154948,-1.2490249,-0.22068104,1.0761452,2.6013207,0.65320116,0.1060017,-0.56109107,-0.5001072,0.3353245,-0.5292076,-0.033181548,-0.33523032,-1.1327589,-1.2743573,0.20912991,0.34108227,0.24683876,0.10813835,0.09481072
21740224000,21740144000,-1.1518356,0.08973255,-1.4567131,-1.1735454,-0.8988484,0.34237316,-2.9975638,1.1728286,0.16196787,-0.6507822,-0.86331666,3.1933093,0.16472363,-0.24918747,-0.5591998,-3.2781773,-2.0080266,0.049277637,0.8203131,0.13023053,8.934378e-05,8.934378e-05
21741224000,21741144000,-1.1569405,0.03858463,-1.1862799,-1.1684902,-1.0768899,0.017106513,-2.6389415,0.6450285,0.31229377,-0.16591561,-0.98239636,3.2253785,-0.09826374,-0.60053086,-0.49606228,-2.888947,-1.2545013,0.03222538,0.8350809,0.13251647,8.862488e-05,8.862488e-05
21742216000,21742136000,-1.1722014,0.028400978,-1.0596178,-1.179594,-1.1772689,-0.15926252,-2.4256613,0.5492004,0.48155606,0.2105887,-0.50702286,2.4000905,-0.62476873,-0.9572146,-0.7635081,-2.3460662,-1.0353296,0.056575716,0.6731509,0.27005342,0.000109991786,0.000109991786
21743216000,21743136000,-1.2001357,0.0289592,-1.0079429,-1.1969898,-1.2375404,-0.23063019,-2.3472176,0.515569,0.4950205,0.30634212,-0.16729498,1.7156538,-0.80272055,-1.0320861,-0.84512615,-1.9202914,-0.94355917,0.08327012,0.4533045,0.46320185,0.00011175173,0.00011175173
21744216000,21744136000,-1.2462648,0.032381576,-0.97420883,-1.2202768,-1.2929841,-0.2643243,-2.3295631,0.620867,0.5756079,0.42400694,0.2457304,1.187748,-0.9944205,-1.1680048,-1.0111334,-1.647974,-1.0146172,0.09040623,0.25013468,0.6592045,0.00012733025,0.00012733025
21745216000,21745136000,-1.2958059,0.034474216,-0.9484582,-1.242167,-1.3384093,-0.2710996,-2.349894,0.66282797,0.5659442,0.42729688,0.50715756,0.7195505,-1.097851,-1.2500918,-1.1295097,-1.4193182,-1.0694144,0.07811622,0.13162178,0.7899851,0.00013846999,0.00013846999
21746224000,21746144000,-1.3516548,0.033863537,-0.9251543,-1.267576,-1.3840117,-0.25948536,-2.4027672,0.71534705,0.54384613,0.40675187,0.75074637,0.28363156,-1.1270301,-1.2746353,-1.1953492,-1.1574612,-1.0472684,0.05601916,0.06388984,0.87970555,0.00014482926,0.00024059268
21747224000,21747144000,-1.3871477,0.03246638,-0.9130865,-1.2854348,-1.4122874,-0.24513486,-2.4490294,0.69466376,0.4857974,0.35273457,0.80985737,0.04194832,-1.0966322,-1.2428565,-1.1892262,-0.9864316,-0.9929576,0.04240588,0.040458385,0.91635484,0.00014015543,0.0006407419
21748224000,21748144000,-1.4142402,0.031988557,-0.9029882,-1.2988576,-1.4330617,-0.2284137,-2.4906065,0.72606874,0.4777794,0.34391165,0.90011764,-0.13308287,-1.0122194,-1.1692224,-1.1375973,-0.77827597,-0.8937683,0.032754496,0.028171413,0.9369159,0.00014590305,0.0020122237
21749224000,21749144000,-1.4360316,0.034766715,-0.89577055,-1.3087484,-1.4478836,-0.21369086,-2.5234237,0.7183149,0.44524384,0.3128302,0.92552793,-0.2704141,-0.94533205,-1.1101291,-1.0948849,-0.62777615,-0.81757355,0.026344335,0.021488784,0.9461154,0.00016049916,0.005890982
21750216000,21750136000,-1.4563484,0.04388019,-0.8902225,-1.3158438,-1.4584856,-0.20187685,-2.5488224,0.69898343,0.41224384,0.28279376,0.9242642,-0.3608849,-0.89594984,-1.0638237,-1.0597687,-0.5273838,-0.7586713,0.022683468,0.017680235,0.9450197,0.00019211079,0.014424472
21751224000,21751144000,-1.483943,0.0659621,-0.8850932,-1.3211714,-1.4666313,-0.19055505,-2.570033,0.6289911,0.35747886,0.2402494,0.8374033,-0.403507,-0.75846624,-0.9235563,-0.9301052,-0.37547016,-0.6503401,0.019633316,0.014839913,0.9315845,0.00023502157,0.033707276
21752216000,21752136000,-1.5071732,0.08827108,-0.88238966,-1.3238769,-1.4708183,-0.1846677,-2.5813553,0.53932214,0.2938409,0.19061303,0.72887325,-0.39770198,-0.670979,-0.8186798,-0.8277626,-0.31576824,-0.57002735,0.0182816,0.0134878345,0.91487724,0.00027240868,0.053080905
21753216000,21753136000,-1.5300189,0.110438496,-0.8809823,-1.3261747,-1.4741242,-0.18105312,-2.5897365,0.46969104,0.24233079,0.149153,0.6488385,-0.39576888,-0.5863924,-0.7191014,-0.72911215,-0.2540269,-0.48262787,0.017400175,0.012584089,0.89693916,0.0003064273,0.07277019
21754224000,21754144000,-1.5484596,0.1281368,-0.8801313,-1.3275201,-1.4760367,-0.17868868,-2.5945907,0.39226842,0.18861818,0.10660243,0.55449677,-0.38283396,-0.48765945,-0.6046381,-0.61479473,-0.18684816,-0.39028788,0.016710542,0.011986891,0.88187766,0.00032635126,0.08909861
21755224000,21755144000,-1.5666517,0.14383626,-0.8808719,-1.329864,-1.4787834,-0.17819048,-2.5994916,0.3430848,0.17777753,0.111724615,0.4729004,-0.29318762,-0.37587786,-0.4732108,-0.48331308,-0.1252389,-0.30380106,0.01610019,0.011515885,0.8679423,0.00033994697,0.10410176
21756216000,21756136000,-1.5765388,0.152552,-0.8808977,-1.3306211,-1.4796971,-0.17750147,-2.6013412,0.26093364,0.12713695,0.07456756,0.37086415,-0.24364018,-0.30866957,-0.38179207,-0.38862658,-0.11161375,-0.23511076,0.01571283,0.011271379,0.8599854,0.00034281288,0.11268757
21757224000,21757144000,-1.5852857,0.1591531,-0.8820934,-1.3323907,-1.4815947,-0.17819482,-2.604047,0.21796489,0.11191344,0.069719076,0.29905844,-0.19723487,-0.2537079,-0.31891823,-0.3269267,-0.087212086,-0.21537828,0.015470493,0.011105914,0.8538647,0.0003465742,0.119212255
21758224000,21758144000,-1.5893794,0.16277866,-0.88202024,-1.3326643,-1.4819602,-0.17789575,-2.6049387,0.18381429,0.09452081,0.0590353,0.25088596,-0.16977882,-0.19605207,-0.25253773,-0.26009607,-0.05286026,-0.16830444,0.015380034,0.0110209985,0.85048383,0.0003509896,0.12276415
21759224000,21759144000,-1.595641,0.16740072,-0.882926,-1.333983,-1.4833722,-0.17846353,-2.606989,0.162009,0.095993996,0.069271564,0.20668411,-0.11164355,-0.12999439,-0.1776371,-0.18525457,-0.016062737,-0.1256051,0.01524042,0.010920485,0.8461339,0.00035449796,0.1273507
21760224000,21760144000,-1.5978488,0.16961142,-0.882605,-1.3338703,-1.4833134,-0.17800085,-2.6072743,0.13880372,0.09692836,0.07877278,0.15733147,-0.057937145,-0.089615345,-0.13142109,-0.13987589,-0.0026197433,-0.11834383,0.015191017,0.010876538,0.84408224,0.000357046,0.1294931
21761224000,21761144000,-1.5993755,0.17077085,-0.88284516,-1.3342255,-1.4837035,-0.17817955,-2.60787,0.12778926,0.105065346,0.09342718,0.12338662,-0.013136625,-0.051783085,-0.09155464,-0.101474285,0.017123222,-0.11385965,0.015174661,0.0108552165,0.84304255,0.00035896106,0.13056861
21762216000,21762136000,-1.6006286,0.17114638,-0.8837456,-1.3351835,-1.4846876,-0.1790894,-2.6089792,0.0791626,0.073783636,0.06844401,0.05755067,-0.002530098,-0.011231899,-0.044916153,-0.05477476,0.035661697,-0.091897964,0.015193447,0.010851833,0.84276104,0.0003610095,0.13083276
21763224000,21763144000,-1.600165,0.17078927,-0.8838018,-1.3352567,-1.4847867,-0.17923565,-2.6091602,0.077301025,0.09002328,0.09066677,0.032915354,0.045968294,0.004075527,-0.028966427,-0.040550232,0.035287857,-0.11155319,0.015256457,0.01086582,0.8431896,0.00036396107,0.13032411
21764224000,21764144000,-1.5996323,0.17004706,-0.88424623,-1.3356893,-1.4852399,-0.17980607,-2.6096544,0.05641532,0.080773115,0.08585739,0.002466917,0.069678545,0.025644302,-0.0009551048,-0.01170826,0.03894472,-0.09599781,0.015337326,0.01088841,0.843987,0.00036698818,0.12942024
21765224000,21765144000,-1.5982939,0.16898578,-0.88425493,-1.3356532,-1.4852172,-0.17996643,-2.6096177,0.055662394,0.083594084,0.09027529,0.00058221817,0.086843014,0.03275156,0.01025629,0.00040578842,0.037899017,-0.08497429,0.015425239,0.010916642,0.84508437,0.00036967036,0.12820406
21766216000,21766136000,-1.5985583,0.16861914,-0.8850345,-1.3363967,-1.4859582,-0.18079145,-2.6103084,0.02646184,0.05326152,0.060531616,-0.019280195,0.07328367,0.06332159,0.050151348,0.043355465,0.057498455,-0.026711464,0.015442418,0.010925115,0.84550613,0.00036975395,0.12775654
21767216000,21767136000,-1.5985652,0.16844033,-0.8853396,-1.3366921,-1.486258,-0.18113285,-2.6106079,0.0073554516,0.040067673,0.049930334,-0.040382624,0.08378625,0.08658171,0.08010578,0.07483673,0.067210674,0.0028319359,0.015462053,0.010931428,0.8457508,0.00037040075,0.12748535
21768224000,21768144000,-1.5976168,0.16812144,-0.8848467,-1.3361696,-1.4857352,-0.18068288,-2.6100483,-8.34465e-05,0.038341284,0.050249577,-0.053605318,0.09573388,0.09129667,0.08671522,0.08146477,0.06473398,0.0011434555,0.015479471,0.01093925,0.8461245,0.0003706392,0.12708627
21769224000,21769144000,-1.5972369,0.1674804,-0.8852991,-1.336566,-1.4861268,-0.18121083,-2.6103632,-0.025134087,0.015868902,0.02865243,-0.08168006,0.0784173,0.04925537,0.045032978,0.039633274,0.020106316,-0.04515028,0.015509913,0.010953397,0.84680367,0.00037088137,0.12636212
21770224000,21770144000,-1.5967573,0.16700822,-0.88545465,-1.3366847,-1.486245,-0.1814297,-2.6104383,-0.01528573,0.021942616,0.033576965,-0.06642318,0.07919288,0.08947754,0.0858798,0.081047535,0.06273794,0.0043964386,0.015538384,0.010964937,0.8473224,0.00037138737,0.12580286
21771224000,21771144000,-1.595782,0.16650587,-0.8851514,-1.3363419,-1.4859021,-0.18119459,-2.6100488,0.0051517487,0.03899479,0.049589157,-0.04119277,0.09134531,0.06619644,0.06308794,0.05874014,0.04170084,-0.010709763,0.015569229,0.010977273,0.84787023,0.0003719342,0.12521136
21772216000,21772136000,-1.595547,0.16614862,-0.8854189,-1.3365821,-1.4861432,-0.18151577,-2.6102622,0.011351347,0.046624422,0.057302,-0.040061235,0.09371114,0.06484032,0.057899475,0.05218649,0.044098854,-0.025418282,0.015594557,0.010986822,0.84827965,0.00037248607,0.124766566
21773224000,21773144000,-1.5954877,0.16619204,-0.8853865,-1.3365293,-1.4860836,-0.18147449,-2.610155,-0.0053122044,0.026672363,0.03675413,-0.048584223,0.07739711,0.078739166,0.076425076,0.0725131,0.05480814,0.007748127,0.015578836,0.010984812,0.8483052,0.00037158307,0.12475962
21774224000,21774144000,-1.5961461,0.16672479,-0.8854887,-1.3366029,-1.4861336,-0.18147945,-2.6100945,-0.021115303,0.0079422,0.01736784,-0.058179617,0.05942726,0.080961704,0.08153486,0.07883263,0.055766582,0.023775578,0.015499449,0.010966677,0.84785926,0.00036809884,0.12530665
21775224000,21775144000,-1.5968174,0.16683005,-0.8861264,-1.3372501,-1.4867861,-0.18212369,-2.6107702,-0.011980534,0.01271081,0.021351814,-0.03813553,0.06924677,0.033816338,0.040638447,0.04036379,0.0042295456,0.0025229454,0.015504707,0.010966955,0.84783286,0.00036851526,0.12532687
21776224000,21776144000,-1.5962094,0.16723393,-0.8851297,-1.3362703,-1.4858078,-0.1810885,-2.609806,-0.034458637,-0.009502649,-0.0005850792,-0.059368372,0.051316023,0.062998295,0.07171297,0.07201481,0.030744553,0.036331654,0.0154818995,0.010958955,0.84752,0.00036799288,0.12567127
21777224000,21777144000,-1.5969588,0.16750689,-0.88565105,-1.336828,-1.4863784,-0.18160857,-2.6104512,-0.016688585,0.007533312,0.0163908,-0.039171696,0.07062173,0.076408386,0.086874485,0.0878129,0.042505264,0.05601263,0.015491107,0.010957437,0.8473361,0.0003690361,0.12584634
21778216000,21778136000,-1.5970911,0.16786987,-0.88544685,-1.3366547,-1.4862142,-0.18138424,-2.610341,-0.055767298,-0.032458067,-0.023990631,-0.07789254,0.027072191,0.04781866,0.05730295,0.05802107,0.015949726,0.026593208,0.015485697,0.010952553,0.8470647,0.00036942726,0.12612768
21779224000,21779144000,-1.5989697,0.16798934,-0.8872729,-1.3384824,-1.4880425,-0.18320765,-2.6121695,-0.052484274,-0.032254457,-0.02433896,-0.06690216,0.030872583,0.016889095,0.030797482,0.03323126,-0.018101215,0.013967037,0.01548168,0.010951234,0.8470239,0.0003693379,0.12617385
21780216000,21780136000,-1.5994321,0.16836546,-0.8873844,-1.33863,-1.4882004,-0.18329944,-2.612393,-0.021001577,0.0030949116,0.012326717,-0.039853096,0.0743072,0.051819324,0.066410065,0.068677425,0.012683392,0.042934895,0.015478999,0.010946565,0.8467407,0.00036991757,0.12646383
21781224000,21781144000,-1.6005162,0.16899495,-0.8878146,-1.3391075,-1.4886863,-0.18367541,-2.6129472,-0.06545639,-0.04419279,-0.035493612,-0.07742953,0.029838324,0.05949545,0.07790804,0.08167839,0.017804623,0.0667758,0.015455763,0.01093531,0.84621394,0.0003698975,0.12702511
21782224000,21782144000,-1.6017464,0.16933243,-0.8887345,-1.3400509,-1.4896353,-0.1845725,-2.613932,-0.01911974,0.0055766106,0.014790297,-0.04052782,0.07357192,0.04487133,0.057350636,0.05888605,0.007947445,0.029008389,0.015445805,0.010930079,0.8459649,0.0003699691,0.1272892
21783224000,21783144000,-1.603516,0.16989166,-0.8899286,-1.3412769,-1.4908634,-0.18571076,-2.615194,-0.07001662,-0.04431367,-0.03471017,-0.09219599,0.026718855,0.06459236,0.07771063,0.07934618,0.02599287,0.048425674,0.015416721,0.010918947,0.8455016,0.00036943436,0.12779336
21784224000,21784144000,-1.6049734,0.17033504,-0.8909534,-1.3423544,-1.4919566,-0.18671647,-2.616386,-0.072589874,-0.044781923,-0.033833027,-0.09189677,0.043349743,0.070222855,0.09000683,0.09355354,0.021250248,0.0679574,0.015419364,0.010914021,0.84515417,0.0003704982,0.12814191
21785216000,21785136000,-1.6061025,0.17098276,-0.89139724,-1.342838,-1.4924443,-0.18709528,-2.616919,-0.0922904,-0.06455779,-0.05396247,-0.11427045,0.016795158,0.05667925,0.07317066,0.075674534,0.012018204,0.045581818,0.015386649,0.010901012,0.84460306,0.0003699679,0.12873931
21786224000,21786144000,-1.6075478,0.17170894,-0.8920795,-1.3436278,-1.4932674,-0.18775128,-2.617953,-0.037831306,-0.005176544,0.0069670677,-0.06649685,0.083943844,0.076435566,0.092555046,0.09445429,0.028104305,0.054348946,0.01540388,0.010894302,0.84398997,0.00037256174,0.12933925
21787224000,21787144000,-1.6090951,0.17231809,-0.8929835,-1.3445711,-1.4942155,-0.18859598,-2.618948,-0.06553745,-0.0326972,-0.020539045,-0.094825506,0.055840492,0.08378458,0.09945631,0.101193905,0.035874367,0.06009388,0.015374689,0.010882338,0.84347355,0.00037215702,0.12989724
21788224000,21788144000,-1.6106943,0.17256236,-0.89438766,-1.3460355,-1.4957045,-0.19002047,-2.620574,-0.06213641,-0.026125431,-0.013293982,-0.098496914,0.060777426,0.10759592,0.119740486,0.1200366,0.06157255,0.067852974,0.015406203,0.010884412,0.8433196,0.0003744954,0.13001534
21789216000,21789136000,-1.6117864,0.17297092,-0.89506334,-1.346713,-1.4963747,-0.1906407,-2.6212134,-0.06049657,-0.020545244,-0.006925583,-0.106012344,0.063440084,0.08511639,0.09243393,0.090806484,0.041981697,0.024249554,0.015366687,0.0108736465,0.8429868,0.0003730384,0.1303997
21790224000,21790144000,-1.6124563,0.1729778,-0.895791,-1.3474091,-1.4970592,-0.191357,-2.6218207,-0.048627615,-0.0073668957,0.006706953,-0.095561266,0.07959771,0.07950258,0.08716583,0.08552027,0.034807205,0.01692772,0.015343762,0.01087078,0.8430377,0.00037167882,0.13037601
21791224000,21791144000,-1.6134171,0.1730084,-0.89680076,-1.3484304,-1.4980885,-0.1923859,-2.6228836,-0.02110815,0.014526844,0.027079344,-0.058325052,0.09763384,0.086402416,0.09697819,0.096821785,0.042692184,0.043141365,0.0153573975,0.010873163,0.8430804,0.00037247632,0.13031662
21792224000,21792144000,-1.6139306,0.17304578,-0.897334,-1.3489155,-1.4985532,-0.19288927,-2.6232252,-0.043239594,-0.0072619915,0.0060737133,-0.075247526,0.09004617,0.06678343,0.084094524,0.08604765,0.014081001,0.041188717,0.015317372,0.010867323,0.8430992,0.00037014578,0.13034596
21793224000,21793144000,-1.6155072,0.17339236,-0.89855784,-1.3500991,-1.4997114,-0.19403614,-2.6242473,-0.057222843,-0.024472713,-0.012160301,-0.08492732,0.06758523,0.032327175,0.049805164,0.052129745,-0.017876148,0.0137171745,0.015248576,0.010852951,0.8428167,0.00036682156,0.13071495
21794224000,21794144000,-1.6170676,0.17362748,-0.8999092,-1.3514317,-1.5010321,-0.19534728,-2.6255004,-0.061171293,-0.035218477,-0.025567055,-0.08404446,0.035588503,0.055363655,0.06814289,0.069645405,0.01695013,0.037697315,0.015212109,0.010844964,0.8426503,0.0003651321,0.13092746
21795224000,21795144000,-1.6170989,0.17379886,-0.89982134,-1.3513417,-1.5009406,-0.19524394,-2.6253948,-0.055351257,-0.034962893,-0.026648521,-0.06714964,0.035483122,0.030836582,0.04821682,0.051736355,-0.008819103,0.036973953,0.015199333,0.010841569,0.8425555,0.00036463968,0.13103898
21796216000,21796136000,-1.618134,0.17408282,-0.90059114,-1.3520899,-1.5016742,-0.1959631,-2.626048,-0.08096647,-0.06769657,-0.061166048,-0.079246044,0.0007610321,0.008152485,0.03065586,0.036510944,-0.032115936,0.042662144,0.015155796,0.0108319605,0.84234214,0.00036261522,0.1313075
21797224000,21797144000,-1.6189302,0.17460467,-0.9008405,-1.352355,-1.5019358,-0.19614829,-2.626302,-0.09504032,-0.08254981,-0.07536745,-0.08470392,0.0028092861,0.004673004,0.036215305,0.045030117,-0.046617985,0.065410614,0.015116601,0.010819651,0.8419033,0.00036139073,0.13179906
21798216000,21798136000,-1.6204631,0.17482595,-0.9021891,-1.3537223,-1.5033085,-0.19748662,-2.627705,-0.09209442,-0.08286452,-0.07620144,-0.073085785,0.007545233,0.00523901,0.042081356,0.05290699,-0.050139427,0.08700943,0.015113099,0.010816679,0.84175915,0.00036160398,0.13194948
21799224000,21799144000,-1.6215305,0.17527051,-0.9027963,-1.3543464,-1.5039312,-0.19804248,-2.6283283,-0.10385275,-0.10193205,-0.09775567,-0.07648516,-0.026791811,-0.018390179,0.017154217,0.028297424,-0.06593847,0.07462549,0.01508197,0.010806448,0.84139204,0.000360719,0.13235882
21800224000,21800144000,-1.6218135,0.1755899,-0.9027786,-1.3543427,-1.5039293,-0.19799513,-2.6283376,-0.05591774,-0.055164576,-0.051912308,-0.03167391,0.0068478584,-0.03826666,-0.008227348,0.0012803078,-0.0777235,0.042098522,0.015065276,0.01080033,0.8411517,0.00036034983,0.13262227
21801224000,21801144000,-1.6223624,0.17540899,-0.9036395,-1.355214,-1.504814,-0.1989129,-2.6292772,-0.042206526,-0.04795885,-0.046777487,-0.009332895,0.0033314228,-0.036076546,-0.005772114,0.0044670105,-0.070388794,0.05816698,0.01510257,0.010809201,0.84140766,0.00036201437,0.13231851
21802224000,21802144000,-1.6223103,0.17526297,-0.903851,-1.3554215,-1.5050277,-0.19916326,-2.6295056,-0.03957224,-0.050126314,-0.05101943,-0.004918337,-0.017764568,-0.025229454,-0.00018501282,0.008856773,-0.048705578,0.064391136,0.015123804,0.010815185,0.8416232,0.00036283297,0.1320749
21803224000,21803144000,-1.6233662,0.1752755,-0.90497905,-1.356543,-1.5061492,-0.20030087,-2.630616,-0.024417639,-0.039424658,-0.041879177,0.014915705,-0.017347813,-0.034943104,-0.011172295,-0.0020961761,-0.053014755,0.060204983,0.015124976,0.010816114,0.841683,0.00036280396,0.13201317
21804216000,21804136000,-1.6234733,0.17528477,-0.90516293,-1.3567286,-1.5063393,-0.20050152,-2.6308174,-0.0713532,-0.08945489,-0.09265566,-0.025874615,-0.06763673,-0.044195175,-0.017895222,-0.0077028275,-0.062922,0.064128876,0.015133592,0.010818196,0.8417473,0.00036320844,0.1319378
21805216000,21805136000,-1.6248093,0.1748743,-0.9070846,-1.3586359,-1.5082542,-0.20250306,-2.632747,-0.03875518,-0.056016922,-0.058962345,0.005513191,-0.03301263,-0.02713728,-0.0009689331,0.009092808,-0.046399593,0.07911873,0.015176372,0.010831121,0.8422224,0.00036467786,0.13140546
21806216000,21806136000,-1.62507,0.17485303,-0.907459,-1.3590062,-1.508627,-0.20289533,-2.6331196,-0.057278156,-0.06856823,-0.06987929,-0.023204327,-0.041107178,-0.014255524,0.008993149,0.017531872,-0.03479433,0.07195616,0.0151836965,0.010833429,0.8423159,0.00036493328,0.13130198
21807216000,21807136000,-1.489997,0.030090824,-0.9564741,-1.3606985,-1.5034661,-0.29418215,-2.5730264,0.39877474,-0.47115862,-0.80957615,1.054785,-3.1235032,-0.0686636,-0.6206987,-0.70994306,1.3945746,0.17645359,0.026294418,0.015577118,0.954905,0.00018076443,0.0030427556
21808224000,21808144000,-1.200933,0.019005543,-1.0082273,-1.1843374,-1.2587333,-0.6633468,-1.9222857,0.11637801,-0.5647341,-0.8798006,1.3710771,-3.9883208,0.43030486,0.084373,-0.0397833,1.392169,-0.045575127,0.2145279,0.057730805,0.7275525,9.439683e-05,9.439683e-05
21809224000,21809144000,-1.1580784,0.011697797,-1.0427655,-1.1561388,-1.2077256,-0.7954177,-1.7476943,-0.19867861,-0.5512021,-0.7305511,0.7319981,-3.1638422,0.67957586,0.46149915,0.3447403,1.1631494,-0.23116857,0.27898768,0.07158518,0.64924216,9.250865e-05,9.250865e-05
21810224000,21810144000,-1.1264678,0.007864076,-1.0465269,-1.1222274,-1.1595248,-0.8611274,-1.6084723,-0.55736864,-0.717758,-0.8068296,0.05788213,-2.408925,1.1704638,1.0562475,0.9725786,1.3480699,0.31355202,0.26846477,0.07398847,0.6572553,0.00014576524,0.00014576524
21811224000,21811144000,-1.1147013,0.0064361636,-1.0513433,-1.1038929,-1.1338809,-0.89650965,-1.5578952,-0.9006431,-0.9005861,-0.89980495,-0.69952756,-1.255778,1.4575112,1.4361628,1.3982549,1.384407,0.9923778,0.20896056,0.06618046,0.7242701,0.00030540183,0.00028345105
21812224000,21812144000,-1.1159406,0.0061668404,-1.0594213,-1.1019651,-1.1296775,-0.9131161,-1.5596236,-0.9139987,-0.88033336,-0.8531735,-0.8722442,-0.6602206,1.4282336,1.440742,1.4280814,1.2663671,1.2830396,0.17496103,0.05914248,0.7644321,0.0006648683,0.00079946325
21813224000,21813144000,-1.1127373,0.0061726603,-1.0603322,-1.096979,-1.1234455,-0.91915554,-1.5559219,-0.760698,-0.72650015,-0.695024,-0.7798937,-0.31647158,1.0894047,1.108906,1.1075149,0.9191501,1.0972065,0.15701583,0.054401733,0.78527725,0.0011978158,0.0021073052
21814216000,21814136000,-1.1079308,0.0062654163,-1.057799,-1.0913161,-1.1170927,-0.91991407,-1.5488555,-0.5751073,-0.5499475,-0.5246406,-0.5999188,-0.18395999,0.8007007,0.8177927,0.8198899,0.6586517,0.8599746,0.14943565,0.051925804,0.79362404,0.0017273696,0.0032870704
21815216000,21815136000,-1.0963526,0.0063622533,-1.0507901,-1.0781276,-1.1042073,-0.92341363,-1.5562323,-0.3537929,-0.33782572,-0.32097977,-0.36673248,-0.09566975,0.55659616,0.5672816,0.56819177,0.45947877,0.59380233,0.14667366,0.05083107,0.7965247,0.0021098373,0.0038607179
21816224000,21816144000,-1.0967743,0.0064881407,-1.0517147,-1.0783067,-1.1042217,-0.92515177,-1.5560951,-0.1977092,-0.1893535,-0.18030266,-0.19864644,-0.07230598,0.30306014,0.3070954,0.30571038,0.25236338,0.29682347,0.14480516,0.0502187,0.7983597,0.0023268189,0.0042895647
21817224000,21817144000,-1.0977298,0.006594412,-1.0527987,-1.0791533,-1.1050199,-0.9264791,-1.5569549,-0.1414994,-0.13669339,-0.13141899,-0.13750476,-0.07550753,0.2003228,0.2024067,0.20090652,0.16823602,0.18990856,0.14403987,0.05001123,0.7990907,0.0023900736,0.0044681537
21818224000,21818144000,-1.0984964,0.0066859503,-1.053624,-1.0798725,-1.1057211,-0.9274203,-1.5577396,-0.10728842,-0.10486117,-0.10214793,-0.100139335,-0.08003156,0.10025835,0.10142496,0.10017252,0.07938017,0.09274392,0.143706,0.049922958,0.7994115,0.0024196033,0.004540012
21819216000,21819136000,-1.0994842,0.006767614,-1.054633,-1.0808437,-1.1066908,-0.9284925,-1.558785,-0.07288626,-0.07217569,-0.071311645,-0.06307048,-0.072107494,0.00384747,0.0049049053,0.004223152,-0.011469347,0.006202842,0.14359063,0.049895935,0.7995276,0.0024297542,0.00455606
21820216000,21820136000,-1.099715,0.0068436973,-1.0548652,-1.0810789,-1.1069324,-0.9287443,-1.5591166,-0.06321588,-0.06458296,-0.06595642,-0.04737174,-0.09807238,-0.090221494,-0.08920685,-0.08943557,-0.10131467,-0.07666659,0.14360525,0.049903154,0.7995219,0.0024323517,0.004537176
21821216000,21821136000,-1.0997959,0.0069191214,-1.0549194,-1.0811604,-1.1070259,-0.92878604,-1.5593042,-0.007073676,-0.010642178,-0.014392242,0.015888987,-0.081740454,-0.1538494,-0.15313219,-0.15315904,-0.15996708,-0.13266328,0.14362505,0.04992152,0.79950744,0.0024236767,0.004522202
21822216000,21822136000,-1.1003891,0.006990528,-1.0554986,-1.0817609,-1.1076367,-0.9293643,-1.5599848,-0.0011574142,-0.006185306,-0.0115175275,0.02674978,-0.10488045,-0.20756574,-0.20763965,-0.20802687,-0.20810957,-0.19022508,0.14367484,0.04993961,0.7994692,0.0024185146,0.004497874
21823224000,21823144000,-1.1010455,0.007059912,-1.0561451,-1.0824256,-1.1083107,-0.93001235,-1.5607138,0.024084076,0.017780906,0.011075534,0.056687426,-0.10417711,-0.25601465,-0.25645247,-0.25693995,-0.2533602,-0.2375172,0.14372526,0.049953636,0.7994332,0.0024152736,0.004472788
21824224000,21824144000,-1.101459,0.0071311146,-1.0565263,-1.0828272,-1.1087213,-0.93037313,-1.5611919,0.059763525,0.052359723,0.044466645,0.09637995,-0.09048824,-0.3156961,-0.3166688,-0.31741217,-0.30933684,-0.2994098,0.14368376,0.049948145,0.79947823,0.002408202,0.0044817384
21825216000,21825136000,-1.1022125,0.0072078146,-1.057242,-1.0835507,-1.109449,-0.9310779,-1.5619547,0.09243175,0.0843577,0.07573019,0.13139813,-0.07354598,-0.328972,-0.33088034,-0.3322475,-0.31774476,-0.32288718,0.14355208,0.04992059,0.79960406,0.002399276,0.0045238575
21826224000,21826144000,-1.1030238,0.0072791437,-1.058036,-1.0843457,-1.1102453,-0.9318824,-1.5627316,0.10237147,0.09409596,0.085234955,0.14168236,-0.06995097,-0.3084917,-0.31119874,-0.31311658,-0.2933537,-0.31275067,0.1434746,0.049892258,0.7996906,0.0023957428,0.0045466977
21827224000,21827144000,-1.1041306,0.007344645,-1.0591437,-1.08545,-1.1113504,-0.93301857,-1.5637996,0.10116063,0.09285295,0.08394541,0.1401483,-0.07382802,-0.31584525,-0.31922165,-0.32161108,-0.29754344,-0.3294185,0.14347291,0.049867664,0.79971135,0.0023985018,0.0045495676
21828216000,21828136000,-1.1049179,0.007406418,-1.0599444,-1.0862489,-1.1121502,-0.93384635,-1.5645686,0.10904957,0.101167634,0.09271398,0.1457471,-0.057902824,-0.30341572,-0.30696124,-0.3094675,-0.28443205,-0.32112092,0.14354865,0.04985252,0.79965943,0.002406923,0.0045325053
21829216000,21829136000,-1.1053079,0.0074629565,-1.0603559,-1.0866654,-1.1125722,-0.93426794,-1.5650268,0.111874245,0.104069136,0.09570833,0.1481409,-0.051610447,-0.3183886,-0.32147923,-0.32362574,-0.30130625,-0.3297403,0.14374268,0.049848225,0.79949063,0.0024251074,0.004493433
21830224000,21830144000,-1.1060523,0.007531171,-1.0610994,-1.0874094,-1.1133213,-0.93501645,-1.565824,0.09112495,0.08358029,0.07550284,0.12615485,-0.06600891,-0.30365705,-0.3064347,-0.30834243,-0.28799877,-0.311539,0.14379676,0.04983237,0.7994434,0.0024339075,0.0044935816
21831224000,21831144000,-1.106929,0.0075953985,-1.0619819,-1.0882925,-1.1142111,-0.9359069,-1.5667801,0.09927551,0.09131971,0.08279896,0.13613541,-0.06649786,-0.33564174,-0.33861184,-0.34064597,-0.31889117,-0.34447643,0.14389741,0.04982079,0.7993526,0.0024465933,0.004482669
21832224000,21832144000,-1.1072682,0.0076584294,-1.0623279,-1.0886407,-1.1145635,-0.9362546,-1.5671747,0.08746686,0.07917314,0.070301756,0.12599955,-0.08311537,-0.3231182,-0.32562837,-0.32730138,-0.30817777,-0.3238331,0.14398497,0.049809646,0.79927754,0.0024583987,0.004469473
21833224000,21833144000,-1.1076146,0.0077125607,-1.06269,-1.0890058,-1.1149344,-0.93662,-1.5676018,0.069487624,0.060879648,0.051680602,0.10957177,-0.105740756,-0.37411326,-0.37623817,-0.3776075,-0.36067382,-0.3678901,0.14411801,0.049802937,0.7991655,0.0024749993,0.004438596
21834224000,21834144000,-1.1075296,0.007769231,-1.0626261,-1.0889437,-1.1148732,-0.93656373,-1.5675342,0.04666895,0.038290467,0.029346071,0.08579223,-0.12210034,-0.33304244,-0.33463442,-0.33560613,-0.3220295,-0.32010183,0.14422062,0.04980209,0.7990877,0.0024870506,0.0044025783
21835224000,21835144000,-1.1078763,0.007840097,-1.0629498,-1.0892633,-1.1151916,-0.93688536,-1.5678406,0.0738821,0.06543288,0.056420382,0.11341122,-0.095039845,-0.3257146,-0.32698354,-0.32770795,-0.31606662,-0.30780044,0.14406247,0.04976656,0.79924595,0.0024825383,0.0044423975
21836216000,21836136000,-1.1085883,0.007903604,-1.063661,-1.0899684,-1.1158961,-0.937615,-1.5685248,0.06251901,0.05418175,0.04528107,0.101397336,-0.10568208,-0.3240232,-0.32569423,-0.3267236,-0.3126634,-0.3123839,0.14400357,0.049745034,0.7993176,0.002484096,0.0044497624
21837224000,21837144000,-1.1093059,0.007966816,-1.0643747,-1.0906767,-1.1166043,-0.93834275,-1.5692228,0.062140092,0.054041415,0.04540208,0.0999481,-0.10034251,-0.30534714,-0.3067393,-0.30756408,-0.29531735,-0.29070783,0.14394167,0.04971945,0.79939103,0.0024865468,0.0044612046
21838224000,21838144000,-1.1097596,0.008028499,-1.0648425,-1.0911381,-1.1170633,-0.93883747,-1.5696238,0.039804436,0.032005824,0.023689335,0.07618524,-0.11663296,-0.28949493,-0.29084653,-0.2916482,-0.27978772,-0.27556512,0.14393774,0.04970863,0.79941666,0.0024902155,0.0044467496
21839224000,21839144000,-1.1100533,0.008090896,-1.065151,-1.0914446,-1.1173698,-0.93916345,-1.5699075,0.041138653,0.034259684,0.026932465,0.07325369,-0.09597211,-0.2671667,-0.26814598,-0.2686924,-0.25953656,-0.25182605,0.14397769,0.049706213,0.7993955,0.0024963918,0.004424074
21840224000,21840144000,-1.1107084,0.008159752,-1.0658064,-1.092096,-1.1180221,-0.9398327,-1.5705596,0.03083612,0.024211567,0.017163416,0.061811432,-0.100199245,-0.26871887,-0.2694066,-0.2697402,-0.26248628,-0.25027323,0.14394478,0.04969647,0.7994361,0.002497443,0.004425189
21841224000,21841144000,-1.1111819,0.008233061,-1.0662603,-1.0925472,-1.1184744,-0.940284,-1.5710273,0.041938268,0.035692573,0.029052433,0.07114373,-0.081215575,-0.2510076,-0.2515694,-0.25181806,-0.24550982,-0.23237467,0.14382446,0.049672972,0.7995528,0.0024936749,0.004456052
21842224000,21842144000,-1.1118009,0.008303534,-1.0668759,-1.0931624,-1.1190946,-0.94090015,-1.5717069,0.025071146,0.018611433,0.011740495,0.055247765,-0.102757916,-0.27448562,-0.2751869,-0.27553493,-0.26827145,-0.25694445,0.14382733,0.04966809,0.79955083,0.0024973315,0.0044563934
21843224000,21843144000,-1.1119062,0.008360468,-1.0670116,-1.0933049,-1.1192447,-0.94103646,-1.5719378,-0.032099843,-0.038593575,-0.045492087,-0.0016161352,-0.15872657,-0.27877024,-0.2789581,-0.27891877,-0.2747808,-0.25367707,0.14403515,0.049695395,0.799363,0.0025141207,0.0043922407
21844224000,21844144000,-1.1120648,0.008422557,-1.0671825,-1.0934753,-1.1194155,-0.94121706,-1.5721034,-0.029185046,-0.035992756,-0.043203462,0.0030662194,-0.15798303,-0.27115422,-0.27027747,-0.2694273,-0.27166086,-0.2293702,0.14404832,0.04970234,0.7993651,0.0025169938,0.0043673427
21845224000,21845144000,-1.1126789,0.008495444,-1.0677791,-1.0940636,-1.1200014,-0.94182557,-1.5726519,0.00048553757,-0.0063371677,-0.013552016,0.03294205,-0.12667418,-0.26290324,-0.2615093,-0.26026875,-0.26566252,-0.2136001,0.14385167,0.04968272,0.7995611,0.0025056135,0.0043988507
21846224000,21846144000,-1.1130764,0.008564578,-1.0681607,-1.0944412,-1.1203778,-0.94221044,-1.5730152,-0.004584996,-0.011121165,-0.018046046,0.026307171,-0.12899713,-0.28405684,-0.28343165,-0.282778,-0.28359765,-0.24706614,0.14369094,0.049666595,0.7997226,0.002497537,0.0044223736
21847224000,21847144000,-1.113654,0.008636039,-1.0687276,-1.0950035,-1.1209406,-0.9427857,-1.5735741,0.013889428,0.0074732825,0.0006660167,0.04412126,-0.10969226,-0.24655499,-0.24632642,-0.24597494,-0.24441953,-0.215789,0.1435852,0.049653407,0.79982924,0.0024928902,0.004439284
21848224000,21848144000,-1.1141868,0.008701281,-1.0692676,-1.0955386,-1.1214752,-0.943345,-1.5740818,0.024249906,0.017923703,0.011205626,0.05395736,-0.09884098,-0.22514978,-0.22526632,-0.22517736,-0.22155023,-0.19975092,0.14355664,0.049650338,0.7998702,0.0024930986,0.004429738
21849216000,21849136000,-1.114494,0.008764681,-1.0695908,-1.0958571,-1.1217911,-0.9436922,-1.5743434,0.001135741,-0.00478626,-0.011069582,0.028935183,-0.11374967,-0.2059839,-0.20602353,-0.20588776,-0.20291984,-0.18122566,0.14356081,0.049651574,0.79988384,0.0024948744,0.004408835
21850224000,21850144000,-1.1151414,0.008833791,-1.0702417,-1.0965025,-1.1224364,-0.9443607,-1.574965,0.0074140313,0.002288192,-0.003149195,0.0313516,-0.09290146,-0.18873972,-0.18905085,-0.18914156,-0.18488124,-0.17132838,0.14352316,0.049645368,0.79993016,0.0024944087,0.004406941
