timestamp,timestamp_sample,q[0],q[1],q[2],q[3],delta_q_reset[0],delta_q_reset[1],delta_q_reset[2],delta_q_reset[3],quat_reset_counter
21726360000,0,0.8541896,-0.0016766568,-0.0023711508,-0.5199623,0.0,0.0,0.0,0.0,0
21726364000,0,0.85418963,-0.0016766809,-0.0023711368,-0.51996225,0.0,0.0,0.0,0.0,0
21726372000,0,0.85418963,-0.0016767427,-0.002371101,-0.51996225,0.0,0.0,0.0,0.0,0
21726380000,0,0.8541897,-0.0016767131,-0.0023711203,-0.5199622,0.0,0.0,0.0,0.0,0
21726392000,0,0.85418975,-0.0016767086,-0.0023711147,-0.5199621,0.0,0.0,0.0,0.0,0
21726400000,0,0.8541898,-0.0016767256,-0.0023710842,-0.519962,0.0,0.0,0.0,0.0,0
21726412000,0,0.85418993,-0.0016766265,-0.002371091,-0.5199618,0.0,0.0,0.0,0.0,0
21726420000,0,0.85419,-0.001676611,-0.0023710516,-0.51996166,0.0,0.0,0.0,0.0,0
21726432000,0,0.8541901,-0.0016764859,-0.002371035,-0.5199615,0.0,0.0,0.0,0.0,0
21726440000,0,0.8541902,-0.0016764513,-0.0023709852,-0.5199613,0.0,0.0,0.0,0.0,0
21726452000,0,0.8541903,-0.001676281,-0.0023709896,-0.5199611,0.0,0.0,0.0,0.0,0
21726460000,0,0.8541904,-0.0016762022,-0.0023709692,-0.519961,0.0,0.0,0.0,0.0,0
21726472000,0,0.8541905,-0.0016759378,-0.0023710174,-0.5199608,0.0,0.0,0.0,0.0,0
21726476000,0,0.8541905,-0.0016758641,-0.0023710248,-0.51996076,0.0,0.0,0.0,0.0,0
21726492000,0,0.8541907,-0.0016755671,-0.002371067,-0.5199605,0.0,0.0,0.0,0.0,0
21726496000,0,0.8541907,-0.0016755442,-0.0023710453,-0.51996046,0.0,0.0,0.0,0.0,0
21726512000,0,0.8541909,-0.0016754613,-0.002370955,-0.5199602,0.0,0.0,0.0,0.0,0
21726520000,0,0.85419095,-0.0016753945,-0.0023709496,-0.5199601,0.0,0.0,0.0,0.0,0
21726532000,0,0.85419106,-0.0016754048,-0.0023708853,-0.5199599,0.0,0.0,0.0,0.0,0
21726540000,0,0.8541911,-0.0016752905,-0.0023709221,-0.5199598,0.0,0.0,0.0,0.0,0
21726552000,0,0.85419124,-0.0016752456,-0.002370899,-0.5199596,0.0,0.0,0.0,0.0,0
21726560000,0,0.8541913,-0.0016751538,-0.0023709228,-0.51995957,0.0,0.0,0.0,0.0,0
21726572000,0,0.85419136,-0.0016752435,-0.002370819,-0.5199594,0.0,0.0,0.0,0.0,0
21726580000,0,0.8541914,-0.001675297,-0.0023707573,-0.5199593,0.0,0.0,0.0,0.0,0
21726592000,0,0.85419154,-0.0016755696,-0.0023705433,-0.5199591,0.0,0.0,0.0,0.0,0
21726600000,0,0.8541916,-0.0016756866,-0.0023704339,-0.519959,0.0,0.0,0.0,0.0,0
21726612000,0,0.8541917,-0.001675922,-0.0023702234,-0.5199588,0.0,0.0,0.0,0.0,0
21726616000,0,0.8541918,-0.0016760291,-0.0023701338,-0.51995873,0.0,0.0,0.0,0.0,0
21726628000,0,0.85419184,-0.0016763535,-0.0023698574,-0.5199586,0.0,0.0,0.0,0.0,0
21726640000,0,0.85419196,-0.0016765862,-0.00236963,-0.51995844,0.0,0.0,0.0,0.0,0
21726648000,0,0.854192,-0.0016767643,-0.00236946,-0.5199583,0.0,0.0,0.0,0.0,0
21726660000,0,0.85419214,-0.0016768208,-0.0023693254,-0.51995814,0.0,0.0,0.0,0.0,0
21726672000,0,0.8541922,-0.001676729,-0.0023692816,-0.519958,0.0,0.0,0.0,0.0,0
21726676000,0,0.85419226,-0.0016767094,-0.002369262,-0.51995796,0.0,0.0,0.0,0.0,0
21726692000,0,0.8541924,-0.0016764589,-0.0023693016,-0.5199577,0.0,0.0,0.0,0.0,0
21726700000,0,0.85419244,-0.0016763833,-0.0023692867,-0.51995766,0.0,0.0,0.0,0.0,0
21726712000,0,0.85419255,-0.0016762207,-0.0023692972,-0.5199575,0.0,0.0,0.0,0.0,0
21726720000,0,0.8541926,-0.0016762015,-0.002369257,-0.51995736,0.0,0.0,0.0,0.0,0
21726728000,0,0.8541927,-0.0016760904,-0.0023692818,-0.51995724,0.0,0.0,0.0,0.0,0
21726740000,0,0.8541928,-0.0016760435,-0.002369253,-0.5199571,0.0,0.0,0.0,0.0,0
21726752000,0,0.85419285,-0.0016758692,-0.0023693012,-0.51995695,0.0,0.0,0.0,0.0,0
21726760000,0,0.8541929,-0.0016757938,-0.0023693023,-0.5199568,0.0,0.0,0.0,0.0,0
21726772000,0,0.85419303,-0.001675607,-0.0023693398,-0.5199567,0.0,0.0,0.0,0.0,0
21726780000,0,0.8541931,-0.0016755626,-0.0023693205,-0.5199566,0.0,0.0,0.0,0.0,0
21726788000,0,0.85419315,-0.0016754064,-0.0023693722,-0.5199565,0.0,0.0,0.0,0.0,0
21726796000,0,0.8541932,-0.0016753254,-0.0023693724,-0.5199564,0.0,0.0,0.0,0.0,0
21726808000,0,0.8541933,-0.0016750804,-0.0023694343,-0.51995623,0.0,0.0,0.0,0.0,0
21726820000,0,0.8541934,-0.0016748599,-0.0023694937,-0.5199561,0.0,0.0,0.0,0.0,0
21726832000,0,0.8541935,-0.0016748115,-0.0023694565,-0.51995593,0.0,0.0,0.0,0.0,0
21726840000,0,0.85419357,-0.0016747135,-0.0023694627,-0.5199559,0.0,0.0,0.0,0.0,0
21726848000,0,0.8541936,-0.0016747257,-0.0023694055,-0.51995575,0.0,0.0,0.0,0.0,0
21726856000,0,0.8541937,-0.0016746435,-0.002369425,-0.51995564,0.0,0.0,0.0,0.0,0
21726868000,0,0.85419375,-0.0016746231,-0.002369423,-0.5199555,0.0,0.0,0.0,0.0,0
21726876000,0,0.8541938,-0.0016744994,-0.0023694914,-0.5199554,0.0,0.0,0.0,0.0,0
21726892000,0,0.8541939,-0.0016744337,-0.0023695007,-0.5199552,0.0,0.0,0.0,0.0,0
21726900000,0,0.854194,-0.0016743803,-0.0023695237,-0.5199551,0.0,0.0,0.0,0.0,0
21726912000,0,0.85419405,-0.0016745384,-0.0023694218,-0.519955,0.0,0.0,0.0,0.0,0
21726920000,0,0.8541941,-0.0016746367,-0.0023693545,-0.51995486,0.0,0.0,0.0,0.0,0
21726932000,0,0.8541942,-0.0016749565,-0.0023691372,-0.51995474,0.0,0.0,0.0,0.0,0
21726936000,0,0.8541942,-0.0016749862,-0.002369109,-0.5199547,0.0,0.0,0.0,0.0,0
21726952000,0,0.85419434,-0.0016754548,-0.002368772,-0.5199545,0.0,0.0,0.0,0.0,0
21726956000,0,0.8541944,-0.0016754834,-0.002368739,-0.51995444,0.0,0.0,0.0,0.0,0
21726972000,0,0.8541945,-0.0016759322,-0.0023683908,-0.51995426,0.0,0.0,0.0,0.0,0
21726980000,0,0.8541946,-0.00167603,-0.0023682879,-0.51995414,0.0,0.0,0.0,0.0,0
21726992000,0,0.85419464,-0.0016761856,-0.0023681272,-0.519954,0.0,0.0,0.0,0.0,0
21727000000,0,0.8541947,-0.001676127,-0.002368124,-0.51995397,0.0,0.0,0.0,0.0,0
21727012000,0,0.85419476,-0.0016760755,-0.0023680974,-0.5199538,0.0,0.0,0.0,0.0,0
21727020000,0,0.8541948,-0.0016759308,-0.0023681498,-0.5199537,0.0,0.0,0.0,0.0,0
21727032000,0,0.85419494,-0.0016758554,-0.002368144,-0.5199536,0.0,0.0,0.0,0.0,0
21727040000,0,0.854195,-0.0016757493,-0.0023681791,-0.5199535,0.0,0.0,0.0,0.0,0
21727052000,0,0.85419506,-0.0016756819,-0.0023681764,-0.51995337,0.0,0.0,0.0,0.0,0
21727060000,0,0.8541951,-0.0016757246,-0.0023681263,-0.51995325,0.0,0.0,0.0,0.0,0
21727072000,0,0.8541952,-0.0016757202,-0.0023681049,-0.51995313,0.0,0.0,0.0,0.0,0
21727080000,0,0.85419524,-0.0016757644,-0.0023680625,-0.5199531,0.0,0.0,0.0,0.0,0
21727092000,0,0.85419536,-0.0016756925,-0.002368076,-0.5199529,0.0,0.0,0.0,0.0,0
21727096000,0,0.85419536,-0.0016756882,-0.0023680653,-0.5199529,0.0,0.0,0.0,0.0,0
21727112000,0,0.8541955,-0.0016755495,-0.002368098,-0.5199527,0.0,0.0,0.0,0.0,0
21727116000,0,0.8541955,-0.0016755296,-0.0023681007,-0.51995265,0.0,0.0,0.0,0.0,0
21727132000,0,0.8541956,-0.0016753614,-0.002368153,-0.5199525,0.0,0.0,0.0,0.0,0
21727136000,0,0.85419565,-0.0016753236,-0.0023681577,-0.5199524,0.0,0.0,0.0,0.0,0
21727148000,0,0.8541957,-0.0016751464,-0.002368212,-0.5199523,0.0,0.0,0.0,0.0,0
21727156000,0,0.8541958,-0.0016751518,-0.0023681887,-0.5199522,0.0,0.0,0.0,0.0,0
21727168000,0,0.85419583,-0.0016751667,-0.002368152,-0.51995206,0.0,0.0,0.0,0.0,0
21727176000,0,0.8541959,-0.001675276,-0.0023680525,-0.519952,0.0,0.0,0.0,0.0,0
21727188000,0,0.85419595,-0.0016753118,-0.0023679938,-0.5199519,0.0,0.0,0.0,0.0,0
21727200000,0,0.8541961,-0.001675398,-0.0023679603,-0.51995176,0.0,0.0,0.0,0.0,0
21727212000,0,0.85419613,-0.0016753542,-0.0023680092,-0.5199516,0.0,0.0,0.0,0.0,0
21727216000,0,0.85419613,-0.0016753619,-0.0023680069,-0.5199516,0.0,0.0,0.0,0.0,0
21727228000,0,0.85419625,-0.0016753522,-0.002368022,-0.51995146,0.0,0.0,0.0,0.0,0
21727240000,0,0.8541963,-0.0016754577,-0.0023679866,-0.5199513,0.0,0.0,0.0,0.0,0
21727248000,0,0.85419637,-0.0016756385,-0.0023678946,-0.5199512,0.0,0.0,0.0,0.0,0
21727256000,0,0.8541964,-0.0016758508,-0.0023677775,-0.51995116,0.0,0.0,0.0,0.0,0
21727268000,0,0.8541965,-0.0016761017,-0.002367631,-0.519951,0.0,0.0,0.0,0.0,0
21727280000,0,0.85419655,-0.0016763504,-0.002367475,-0.51995087,0.0,0.0,0.0,0.0,0
21727292000,0,0.8541966,-0.0016766954,-0.00236725,-0.51995075,0.0,0.0,0.0,0.0,0
21727300000,0,0.85419667,-0.001676821,-0.0023671554,-0.5199507,0.0,0.0,0.0,0.0,0
21727312000,0,0.8541968,-0.0016771096,-0.0023669398,-0.51995057,0.0,0.0,0.0,0.0,0
21727320000,0,0.8541968,-0.0016771404,-0.0023668983,-0.51995045,0.0,0.0,0.0,0.0,0
21727332000,0,0.8541969,-0.0016771986,-0.002366841,-0.51995033,0.0,0.0,0.0,0.0,0
21727340000,0,0.8541969,-0.001677088,-0.0023668911,-0.5199503,0.0,0.0,0.0,0.0,0
21727352000,0,0.854197,-0.001677029,-0.0023669002,-0.51995015,0.0,0.0,0.0,0.0,0
21727360000,0,0.8541971,-0.0016769101,-0.0023669624,-0.5199501,0.0,0.0,0.0,0.0,0
21727372000,0,0.85419714,-0.0016768901,-0.0023669684,-0.5199499,0.0,0.0,0.0,0.0,0
21727380000,0,0.8541972,-0.0016767962,-0.002367017,-0.51994985,0.0,0.0,0.0,0.0,0
21727392000,0,0.85419726,-0.0016768391,-0.0023669833,-0.51994973,0.0,0.0,0.0,0.0,0
21727400000,0,0.8541973,-0.0016767721,-0.002367026,-0.5199497,0.0,0.0,0.0,0.0,0
21727408000,0,0.8541973,-0.0016767761,-0.0023670285,-0.5199496,0.0,0.0,0.0,0.0,0
21727420000,0,0.85419744,-0.0016766494,-0.0023671086,-0.51994944,0.0,0.0,0.0,0.0,0
21727432000,0,0.8541975,-0.0016765051,-0.0023671868,-0.5199493,0.0,0.0,0.0,0.0,0
21727440000,0,0.85419756,-0.0016764659,-0.0023672036,-0.51994926,0.0,0.0,0.0,0.0,0
21727452000,0,0.8541976,-0.0016763168,-0.002367295,-0.51994914,0.0,0.0,0.0,0.0,0
21727460000,0,0.8541977,-0.0016762773,-0.0023673163,-0.5199491,0.0,0.0,0.0,0.0,0
21727472000,0,0.85419774,-0.0016761048,-0.0023673987,-0.51994896,0.0,0.0,0.0,0.0,0
21727480000,0,0.8541978,-0.0016760638,-0.0023674073,-0.51994884,0.0,0.0,0.0,0.0,0
21727492000,0,0.85419786,-0.0016759682,-0.0023674641,-0.5199488,0.0,0.0,0.0,0.0,0
21727496000,0,0.85419786,-0.001675979,-0.0023674576,-0.5199487,0.0,0.0,0.0,0.0,0
21727508000,0,0.854198,-0.0016759386,-0.0023674697,-0.5199486,0.0,0.0,0.0,0.0,0
21727516000,0,0.854198,-0.0016759569,-0.0023674471,-0.5199485,0.0,0.0,0.0,0.0,0
21727528000,0,0.8541981,-0.0016758564,-0.0023675293,-0.5199484,0.0,0.0,0.0,0.0,0
21727540000,0,0.85419816,-0.0016758362,-0.0023675917,-0.5199483,0.0,0.0,0.0,0.0,0
21727552000,0,0.8541982,-0.0016757334,-0.0023676956,-0.5199482,0.0,0.0,0.0,0.0,0
21727560000,0,0.8541983,-0.0016757745,-0.0023676993,-0.51994807,0.0,0.0,0.0,0.0,0
21727572000,0,0.85419834,-0.0016758912,-0.002367683,-0.519948,0.0,0.0,0.0,0.0,0
21727576000,0,0.85419834,-0.0016760131,-0.002367627,-0.51994795,0.0,0.0,0.0,0.0,0
21727592000,0,0.85419846,-0.0016764541,-0.0023674192,-0.51994777,0.0,0.0,0.0,0.0,0
21727600000,0,0.8541985,-0.0016766369,-0.002367329,-0.5199477,0.0,0.0,0.0,0.0,0
21727612000,0,0.8541986,-0.0016770402,-0.0023671056,-0.5199476,0.0,0.0,0.0,0.0,0
21727620000,0,0.85419863,-0.0016772088,-0.0023670113,-0.5199475,0.0,0.0,0.0,0.0,0
21727632000,0,0.8541987,-0.0016775813,-0.0023667833,-0.5199474,0.0,0.0,0.0,0.0,0
21727640000,0,0.85419875,-0.001677701,-0.002366698,-0.5199473,0.0,0.0,0.0,0.0,0
21727648000,0,0.85419875,-0.0016778675,-0.0023665861,-0.51994723,0.0,0.0,0.0,0.0,0
21727656000,0,0.8541988,-0.0016779691,-0.0023665258,-0.5199472,0.0,0.0,0.0,0.0,0
21727672000,0,0.85419893,-0.0016779394,-0.0023665456,-0.519947,0.0,0.0,0.0,0.0,0
21727676000,0,0.85419893,-0.0016778447,-0.002366601,-0.519947,0.0,0.0,0.0,0.0,0
21727692000,0,0.85419905,-0.0016778236,-0.0023666266,-0.5199468,0.0,0.0,0.0,0.0,0
21727696000,0,0.85419905,-0.0016777313,-0.0023666911,-0.5199468,0.0,0.0,0.0,0.0,0
21727712000,0,0.8541992,-0.0016776649,-0.0023667507,-0.51994663,0.0,0.0,0.0,0.0,0
21727720000,0,0.8541992,-0.001677706,-0.0023667372,-0.5199466,0.0,0.0,0.0,0.0,0
21727728000,0,0.85419923,-0.0016777462,-0.0023667286,-0.51994646,0.0,0.0,0.0,0.0,0
21727736000,0,0.8541993,-0.0016776755,-0.0023667894,-0.5199464,0.0,0.0,0.0,0.0,0
21727748000,0,0.85419935,-0.0016775904,-0.0023668676,-0.5199463,0.0,0.0,0.0,0.0,0
21727756000,0,0.8541994,-0.0016775823,-0.0023668848,-0.5199462,0.0,0.0,0.0,0.0,0
21727768000,0,0.85419947,-0.0016774477,-0.002366976,-0.5199461,0.0,0.0,0.0,0.0,0
21727780000,0,0.8541995,-0.0016773965,-0.0023670269,-0.519946,0.0,0.0,0.0,0.0,0
21727788000,0,0.8541996,-0.0016772683,-0.0023671202,-0.5199459,0.0,0.0,0.0,0.0,0
21727796000,0,0.85419965,-0.0016772427,-0.0023671447,-0.51994586,0.0,0.0,0.0,0.0,0
21727808000,0,0.8541997,-0.0016771241,-0.0023672157,-0.51994574,0.0,0.0,0.0,0.0,0
21727820000,0,0.85419977,-0.0016770455,-0.002367272,-0.5199456,0.0,0.0,0.0,0.0,0
21727832000,0,0.8541998,-0.0016770932,-0.002367259,-0.5199455,0.0,0.0,0.0,0.0,0
21727836000,0,0.8541998,-0.0016771179,-0.0023672478,-0.5199455,0.0,0.0,0.0,0.0,0
21727848000,0,0.85419995,-0.0016770799,-0.0023672888,-0.5199454,0.0,0.0,0.0,0.0,0
21727860000,0,0.8542,-0.0016770131,-0.0023673568,-0.51994526,0.0,0.0,0.0,0.0,0
21727872000,0,0.85420007,-0.0016769955,-0.0023674238,-0.5199451,0.0,0.0,0.0,0.0,0
21727880000,0,0.8542001,-0.0016768655,-0.0023675472,-0.519945,0.0,0.0,0.0,0.0,0
21727892000,0,0.8542002,-0.0016768817,-0.0023676076,-0.51994497,0.0,0.0,0.0,0.0,0
21727896000,0,0.8542002,-0.0016768131,-0.002367671,-0.5199449,0.0,0.0,0.0,0.0,0
21727908000,0,0.85420024,-0.0016769794,-0.0023676392,-0.5199448,0.0,0.0,0.0,0.0,0
21727916000,0,0.8542003,-0.0016770923,-0.0023676162,-0.5199447,0.0,0.0,0.0,0.0,0
21727928000,0,0.85420036,-0.0016774704,-0.0023674436,-0.5199446,0.0,0.0,0.0,0.0,0
21727940000,0,0.8542004,-0.0016777819,-0.0023672986,-0.5199445,0.0,0.0,0.0,0.0,0
21727952000,0,0.8542005,-0.0016780818,-0.002367148,-0.51994437,0.0,0.0,0.0,0.0,0
21727960000,0,0.85420054,-0.001678326,-0.0023670113,-0.5199443,0.0,0.0,0.0,0.0,0
21727972000,0,0.8542006,-0.0016785407,-0.0023668818,-0.5199442,0.0,0.0,0.0,0.0,0
21727980000,0,0.85420066,-0.0016786963,-0.0023667905,-0.51994413,0.0,0.0,0.0,0.0,0
21727988000,0,0.8542007,-0.0016787273,-0.0023667838,-0.5199441,0.0,0.0,0.0,0.0,0
21727996000,0,0.8542008,-0.0016788132,-0.002366745,-0.519944,0.0,0.0,0.0,0.0,0
21728012000,0,0.85420084,-0.0016787816,-0.0023667815,-0.51994383,0.0,0.0,0.0,0.0,0
21728016000,0,0.8542009,-0.0016787754,-0.0023667961,-0.5199438,0.0,0.0,0.0,0.0,0
21728028000,0,0.85420096,-0.0016786796,-0.0023668972,-0.5199437,0.0,0.0,0.0,0.0,0
21728036000,0,0.85420096,-0.0016786859,-0.0023669158,-0.51994365,0.0,0.0,0.0,0.0,0
21728048000,0,0.854201,-0.0016786262,-0.002366979,-0.51994354,0.0,0.0,0.0,0.0,0
21728056000,0,0.8542011,-0.0016786628,-0.0023669843,-0.5199434,0.0,0.0,0.0,0.0,0
21728068000,0,0.85420114,-0.0016786018,-0.002367063,-0.5199433,0.0,0.0,0.0,0.0,0
21728076000,0,0.8542012,-0.0016784788,-0.0023671638,-0.51994324,0.0,0.0,0.0,0.0,0
21728088000,0,0.85420126,-0.0016784373,-0.0023672218,-0.5199432,0.0,0.0,0.0,0.0,0
21728100000,0,0.8542013,-0.0016782932,-0.0023673323,-0.51994306,0.0,0.0,0.0,0.0,0
21728108000,0,0.8542014,-0.0016782593,-0.0023673736,-0.519943,0.0,0.0,0.0,0.0,0
21728116000,0,0.85420144,-0.0016781422,-0.0023674706,-0.5199429,0.0,0.0,0.0,0.0,0
21728132000,0,0.8542015,-0.0016780694,-0.0023675538,-0.51994276,0.0,0.0,0.0,0.0,0
21728140000,0,0.85420156,-0.0016780917,-0.0023675521,-0.5199427,0.0,0.0,0.0,0.0,0
21728152000,0,0.8542016,-0.0016780591,-0.0023675924,-0.5199426,0.0,0.0,0.0,0.0,0
21728156000,0,0.8542016,-0.0016780844,-0.0023675836,-0.5199425,0.0,0.0,0.0,0.0,0
21728168000,0,0.8542017,-0.0016780592,-0.0023676257,-0.51994246,0.0,0.0,0.0,0.0,0
21728176000,0,0.85420173,-0.001678133,-0.0023676108,-0.51994234,0.0,0.0,0.0,0.0,0
21728188000,0,0.8542018,-0.0016781102,-0.002367665,-0.5199422,0.0,0.0,0.0,0.0,0
21728200000,0,0.85420185,-0.001678061,-0.0023677335,-0.51994216,0.0,0.0,0.0,0.0,0
21728208000,0,0.8542019,-0.0016781109,-0.0023677503,-0.51994205,0.0,0.0,0.0,0.0,0
21728216000,0,0.854202,-0.0016781103,-0.0023678099,-0.519942,0.0,0.0,0.0,0.0,0
21728228000,0,0.85420203,-0.0016783093,-0.0023677733,-0.51994187,0.0,0.0,0.0,0.0,0
21728240000,0,0.8542021,-0.0016784547,-0.0023677591,-0.51994175,0.0,0.0,0.0,0.0,0
21728252000,0,0.85420215,-0.0016787607,-0.0023676485,-0.5199417,0.0,0.0,0.0,0.0,0
21728260000,0,0.8542022,-0.0016789035,-0.0023676069,-0.51994157,0.0,0.0,0.0,0.0,0
21728268000,0,0.8542023,-0.0016791773,-0.0023674795,-0.5199415,0.0,0.0,0.0,0.0,0
21728280000,0,0.85420233,-0.0016795171,-0.0023673193,-0.5199414,0.0,0.0,0.0,0.0,0
21728292000,0,0.8542024,-0.0016798046,-0.0023671738,-0.51994133,0.0,0.0,0.0,0.0,0
21728300000,0,0.85420245,-0.0016800207,-0.0023670527,-0.5199412,0.0,0.0,0.0,0.0,0
21728308000,0,0.85420245,-0.0016800995,-0.002367016,-0.51994115,0.0,0.0,0.0,0.0,0
21728316000,0,0.8542025,-0.0016802482,-0.0023669405,-0.5199411,0.0,0.0,0.0,0.0,0
21728328000,0,0.85420257,-0.0016803645,-0.0023668932,-0.519941,0.0,0.0,0.0,0.0,0
21728336000,0,0.8542026,-0.0016804533,-0.0023668506,-0.5199409,0.0,0.0,0.0,0.0,0
21728352000,0,0.85420275,-0.0016804918,-0.0023668883,-0.51994073,0.0,0.0,0.0,0.0,0
21728356000,0,0.85420275,-0.0016805227,-0.002366888,-0.51994073,0.0,0.0,0.0,0.0,0
21728372000,0,0.8542039,-0.0016737399,-0.0023705817,-0.5199389,0.0,0.0,0.0,0.0,0
21728376000,0,0.8542019,-0.001677939,-0.0023668893,-0.51994205,0.0,0.0,0.0,0.0,0
21728392000,0,0.85420203,-0.0016502673,-0.0023834459,-0.5199419,0.0,0.0,0.0,0.0,0
21728400000,0,0.8542021,-0.0016559536,-0.0023799515,-0.5199418,0.0,0.0,0.0,0.0,0
21728412000,0,0.8542022,-0.0017032152,-0.0023511953,-0.51994157,0.0,0.0,0.0,0.0,0
21728420000,0,0.8542021,-0.0017062207,-0.002349289,-0.51994175,0.0,0.0,0.0,0.0,0
21728428000,0,0.85420245,-0.0016649569,-0.0023737869,-0.5199412,0.0,0.0,0.0,0.0,0
21728440000,0,0.8542021,-0.001644531,-0.0023869108,-0.51994187,0.0,0.0,0.0,0.0,0
21728448000,0,0.854201,-0.0016588445,-0.0023780162,-0.51994354,0.0,0.0,0.0,0.0,0
21728460000,0,0.85420173,-0.0017034031,-0.0023512458,-0.5199424,0.0,0.0,0.0,0.0,0
21728468000,0,0.8542018,-0.0017057535,-0.0023498798,-0.5199423,0.0,0.0,0.0,0.0,0
21728476000,0,0.85420185,-0.0017080335,-0.0023485145,-0.5199421,0.0,0.0,0.0,0.0,0
21728488000,0,0.854202,-0.0016590704,-0.0023777143,-0.51994205,0.0,0.0,0.0,0.0,0
21728500000,0,0.8542019,-0.001699721,-0.0023537911,-0.5199421,0.0,0.0,0.0,0.0,0
21728512000,0,0.85420126,-0.001661445,-0.0023769161,-0.5199432,0.0,0.0,0.0,0.0,0
21728520000,0,0.8542013,-0.0016640222,-0.0023753832,-0.51994306,0.0,0.0,0.0,0.0,0
21728532000,0,0.8542024,-0.001663691,-0.0023752307,-0.51994133,0.0,0.0,0.0,0.0,0
21728540000,0,0.854202,-0.0016493468,-0.0023843613,-0.51994205,0.0,0.0,0.0,0.0,0
21728552000,0,0.85420156,-0.0017060635,-0.0023501688,-0.51994264,0.0,0.0,0.0,0.0,0
21728560000,0,0.85420173,-0.0017078125,-0.0023493033,-0.51994234,0.0,0.0,0.0,0.0,0
21728572000,0,0.85420144,-0.0016709341,-0.0023717312,-0.5199429,0.0,0.0,0.0,0.0,0
21728580000,0,0.854202,-0.0016606298,-0.0023777653,-0.519942,0.0,0.0,0.0,0.0,0
21728588000,0,0.85420215,-0.0016460309,-0.0023874193,-0.5199417,0.0,0.0,0.0,0.0,0
21728596000,0,0.8542012,-0.0016604121,-0.002378698,-0.5199433,0.0,0.0,0.0,0.0,0
21728608000,0,0.8542019,-0.0017042225,-0.0023521988,-0.5199421,0.0,0.0,0.0,0.0,0
21728620000,0,0.85420156,-0.0016675479,-0.002374404,-0.5199427,0.0,0.0,0.0,0.0,0
21728632000,0,0.85420203,-0.0016501151,-0.002385016,-0.51994187,0.0,0.0,0.0,0.0,0
21728640000,0,0.8542011,-0.0016641321,-0.002376333,-0.5199435,0.0,0.0,0.0,0.0,0
21728652000,0,0.85420185,-0.0017085727,-0.0023496398,-0.51994216,0.0,0.0,0.0,0.0,0
21728660000,0,0.85420233,-0.0016658572,-0.0023753182,-0.5199414,0.0,0.0,0.0,0.0,0
21728668000,0,0.854202,-0.001651301,-0.002384567,-0.519942,0.0,0.0,0.0,0.0,0
21728680000,0,0.8542012,-0.0016585737,-0.0023804486,-0.5199433,0.0,0.0,0.0,0.0,0
21728692000,0,0.8542019,-0.0017029657,-0.0023536696,-0.51994205,0.0,0.0,0.0,0.0,0
21728700000,0,0.85420203,-0.0017051446,-0.002352385,-0.51994187,0.0,0.0,0.0,0.0,0
21728712000,0,0.85420215,-0.0016560485,-0.002381934,-0.51994175,0.0,0.0,0.0,0.0,0
21728720000,0,0.8542019,-0.0017034477,-0.0023534202,-0.5199421,0.0,0.0,0.0,0.0,0
21728732000,0,0.8542014,-0.0016649326,-0.0023767173,-0.519943,0.0,0.0,0.0,0.0,0
21728740000,0,0.8542015,-0.0016674926,-0.0023753042,-0.51994276,0.0,0.0,0.0,0.0,0
21728752000,0,0.8542021,-0.00165023,-0.0023860666,-0.5199418,0.0,0.0,0.0,0.0,0
21728760000,0,0.8542011,-0.0016639351,-0.0023774793,-0.5199434,0.0,0.0,0.0,0.0,0
21728768000,0,0.8542013,-0.0016662211,-0.002376244,-0.519943,0.0,0.0,0.0,0.0,0
21728780000,0,0.85420245,-0.001665791,-0.002376552,-0.5199412,0.0,0.0,0.0,0.0,0
21728788000,0,0.8542021,-0.0016513753,-0.00238571,-0.5199418,0.0,0.0,0.0,0.0,0
21728796000,0,0.8542011,-0.0016651955,-0.0023771431,-0.5199434,0.0,0.0,0.0,0.0,0
21728812000,0,0.8542015,-0.0016698322,-0.0023746025,-0.51994276,0.0,0.0,0.0,0.0,0
21728820000,0,0.8542021,-0.00165958,-0.0023806614,-0.51994187,0.0,0.0,0.0,0.0,0
21728832000,0,0.8542021,-0.001700174,-0.0023568817,-0.51994175,0.0,0.0,0.0,0.0,0
21728840000,0,0.8542019,-0.00170185,-0.0023559027,-0.51994205,0.0,0.0,0.0,0.0,0
21728852000,0,0.8542016,-0.001664185,-0.0023786172,-0.5199426,0.0,0.0,0.0,0.0,0
21728860000,0,0.85420173,-0.0016665756,-0.0023771774,-0.51994234,0.0,0.0,0.0,0.0,0
21728868000,0,0.8542023,-0.0016565741,-0.0023829404,-0.51994145,0.0,0.0,0.0,0.0,0
21728880000,0,0.8542013,-0.001663337,-0.0023791215,-0.5199431,0.0,0.0,0.0,0.0,0
21728892000,0,0.8542021,-0.0017070838,-0.002352948,-0.51994175,0.0,0.0,0.0,0.0,0
21728900000,0,0.8542026,-0.0016649041,-0.002378154,-0.5199409,0.0,0.0,0.0,0.0,0
21728912000,0,0.85420203,-0.0017048293,-0.0023544943,-0.51994187,0.0,0.0,0.0,0.0,0
21728920000,0,0.8542019,-0.0017066124,-0.0023534836,-0.51994205,0.0,0.0,0.0,0.0,0
21728932000,0,0.8542017,-0.0016688124,-0.002376582,-0.51994246,0.0,0.0,0.0,0.0,0
21728940000,0,0.8542023,-0.0016584215,-0.0023826559,-0.5199415,0.0,0.0,0.0,0.0,0
21728952000,0,0.85420126,-0.0016650643,-0.0023788384,-0.5199431,0.0,0.0,0.0,0.0,0
21728960000,0,0.8542015,-0.0016672593,-0.0023776398,-0.5199427,0.0,0.0,0.0,0.0,0
21728972000,0,0.8542026,-0.0016665075,-0.0023780346,-0.5199409,0.0,0.0,0.0,0.0,0
21728980000,0,0.8542023,-0.0016517643,-0.0023873544,-0.5199415,0.0,0.0,0.0,0.0,0
21728992000,0,0.854202,-0.0017083089,-0.0023530095,-0.519942,0.0,0.0,0.0,0.0,0
21729000000,0,0.85420215,-0.0017097392,-0.0023522773,-0.5199417,0.0,0.0,0.0,0.0,0
21729012000,0,0.85420233,-0.0016597529,-0.0023824356,-0.51994145,0.0,0.0,0.0,0.0,0
21729020000,0,0.8542021,-0.0017074819,-0.0023537052,-0.51994175,0.0,0.0,0.0,0.0,0
21729032000,0,0.85420156,-0.0016683727,-0.002377415,-0.51994264,0.0,0.0,0.0,0.0,0
21729040000,0,0.85420173,-0.0016705999,-0.0023761727,-0.51994234,0.0,0.0,0.0,0.0,0
21729048000,0,0.85420233,-0.0016603717,-0.0023823862,-0.5199414,0.0,0.0,0.0,0.0,0
21729060000,0,0.8542014,-0.0016666545,-0.0023786705,-0.51994294,0.0,0.0,0.0,0.0,0
21729072000,0,0.8542022,-0.0017104631,-0.0023524743,-0.5199415,0.0,0.0,0.0,0.0,0
21729080000,0,0.85420275,-0.0016679156,-0.0023780877,-0.5199407,0.0,0.0,0.0,0.0,0
21729092000,0,0.8542022,-0.0017077867,-0.0023543036,-0.51994157,0.0,0.0,0.0,0.0,0
21729100000,0,0.8542021,-0.0017092372,-0.0023534554,-0.51994175,0.0,0.0,0.0,0.0,0
21729112000,0,0.85420233,-0.0016583551,-0.0023841406,-0.5199414,0.0,0.0,0.0,0.0,0
21729120000,0,0.85420215,-0.0017062805,-0.0023554147,-0.5199417,0.0,0.0,0.0,0.0,0
21729132000,0,0.8542016,-0.0016670224,-0.0023791697,-0.5199425,0.0,0.0,0.0,0.0,0
21729140000,0,0.8542018,-0.0016692131,-0.0023779792,-0.5199422,0.0,0.0,0.0,0.0,0
21729152000,0,0.85420245,-0.0016516986,-0.002388767,-0.5199413,0.0,0.0,0.0,0.0,0
21729160000,0,0.8542015,-0.0016655341,-0.0023802726,-0.5199428,0.0,0.0,0.0,0.0,0
21729172000,0,0.85420233,-0.0017094009,-0.0023540428,-0.51994133,0.0,0.0,0.0,0.0,0
21729180000,0,0.85420287,-0.0016667254,-0.0023795047,-0.5199405,0.0,0.0,0.0,0.0,0
21729192000,0,0.8542023,-0.0017067207,-0.002355786,-0.5199414,0.0,0.0,0.0,0.0,0
21729200000,0,0.8542022,-0.0017081969,-0.0023549492,-0.5199416,0.0,0.0,0.0,0.0,0
21729212000,0,0.8542024,-0.0016570735,-0.002385702,-0.5199413,0.0,0.0,0.0,0.0,0
21729220000,0,0.8542023,-0.0017044207,-0.0023574042,-0.5199415,0.0,0.0,0.0,0.0,0
21729232000,0,0.85420173,-0.001665922,-0.0023808603,-0.51994234,0.0,0.0,0.0,0.0,0
21729240000,0,0.8542019,-0.0016681281,-0.002379659,-0.51994205,0.0,0.0,0.0,0.0,0
21729252000,0,0.8542025,-0.0016503802,-0.002390546,-0.5199411,0.0,0.0,0.0,0.0,0
21729260000,0,0.85420156,-0.001664218,-0.0023821522,-0.51994264,0.0,0.0,0.0,0.0,0
21729272000,0,0.85420245,-0.0017078058,-0.0023559644,-0.5199412,0.0,0.0,0.0,0.0,0
21729280000,0,0.854203,-0.0016653363,-0.0023813338,-0.5199403,0.0,0.0,0.0,0.0,0
21729288000,0,0.8542026,-0.0016507892,-0.0023905768,-0.5199409,0.0,0.0,0.0,0.0,0
21729300000,0,0.8542023,-0.0017067423,-0.0023566303,-0.5199414,0.0,0.0,0.0,0.0,0
21729312000,0,0.8542025,-0.0016558847,-0.0023873905,-0.5199411,0.0,0.0,0.0,0.0,0
21729320000,0,0.85420233,-0.0017035758,-0.002358732,-0.51994133,0.0,0.0,0.0,0.0,0
21729332000,0,0.85420185,-0.0016646383,-0.0023823238,-0.51994216,0.0,0.0,0.0,0.0,0
21729340000,0,0.85420203,-0.0016669089,-0.002381062,-0.5199418,0.0,0.0,0.0,0.0,0
21729352000,0,0.8542027,-0.0016496191,-0.0023917917,-0.51994085,0.0,0.0,0.0,0.0,0
21729360000,0,0.85420173,-0.0016632839,-0.0023831998,-0.5199424,0.0,0.0,0.0,0.0,0
21729372000,0,0.8542029,-0.0016622365,-0.002383879,-0.5199404,0.0,0.0,0.0,0.0,0
21729380000,0,0.8542026,-0.0016477051,-0.0023931228,-0.5199409,0.0,0.0,0.0,0.0,0
21729392000,0,0.85420233,-0.0017042072,-0.0023589,-0.51994133,0.0,0.0,0.0,0.0,0
21729396000,0,0.854202,-0.0016637852,-0.0023833043,-0.519942,0.0,0.0,0.0,0.0,0
21729412000,0,0.85420275,-0.0016560572,-0.0023880787,-0.5199407,0.0,0.0,0.0,0.0,0
21729420000,0,0.85420257,-0.0017031365,-0.00235975,-0.51994103,0.0,0.0,0.0,0.0,0
21729428000,0,0.85420245,-0.0017046401,-0.002358882,-0.51994115,0.0,0.0,0.0,0.0,0
21729436000,0,0.8542027,-0.0017061022,-0.0023580848,-0.5199408,0.0,0.0,0.0,0.0,0
21729452000,0,0.85420245,-0.0017086933,-0.0023561867,-0.5199412,0.0,0.0,0.0,0.0,0
21729456000,0,0.8542017,-0.0016673137,-0.0023810389,-0.51994246,0.0,0.0,0.0,0.0,0
21729472000,0,0.8542027,-0.0016590633,-0.0023862207,-0.5199408,0.0,0.0,0.0,0.0,0
21729480000,0,0.85420257,-0.001707115,-0.0023575886,-0.51994103,0.0,0.0,0.0,0.0,0
21729492000,0,0.85420203,-0.0016678027,-0.002381506,-0.5199418,0.0,0.0,0.0,0.0,0
21729496000,0,0.85420305,-0.0016644495,-0.0023833017,-0.5199402,0.0,0.0,0.0,0.0,0
21729512000,0,0.8542018,-0.0016636036,-0.0023842473,-0.5199422,0.0,0.0,0.0,0.0,0
21729520000,0,0.8542021,-0.0016656776,-0.002383157,-0.5199418,0.0,0.0,0.0,0.0,0
21729528000,0,0.85420275,-0.00165507,-0.0023894089,-0.51994073,0.0,0.0,0.0,0.0,0
21729536000,0,0.85420257,-0.0017026942,-0.0023608976,-0.519941,0.0,0.0,0.0,0.0,0
21729552000,0,0.8542027,-0.0017054054,-0.0023595088,-0.51994073,0.0,0.0,0.0,0.0,0
21729556000,0,0.85420233,-0.0016662099,-0.0023832233,-0.5199414,0.0,0.0,0.0,0.0,0
21729568000,0,0.85420245,-0.001707623,-0.0023578126,-0.51994115,0.0,0.0,0.0,0.0,0
21729576000,0,0.85420245,-0.001709401,-0.002356846,-0.5199412,0.0,0.0,0.0,0.0,0
21729592000,0,0.85420275,-0.001650778,-0.0023926378,-0.5199407,0.0,0.0,0.0,0.0,0
21729600000,0,0.85420185,-0.0016648088,-0.0023841767,-0.51994216,0.0,0.0,0.0,0.0,0
21729608000,0,0.85420215,-0.0016668026,-0.0023831239,-0.5199417,0.0,0.0,0.0,0.0,0
21729616000,0,0.85420275,-0.0016560288,-0.0023895404,-0.5199406,0.0,0.0,0.0,0.0,0
21729628000,0,0.85420185,-0.0016626408,-0.002385792,-0.5199421,0.0,0.0,0.0,0.0,0
21729636000,0,0.85420215,-0.0016646832,-0.0023846715,-0.5199416,0.0,0.0,0.0,0.0,0
21729652000,0,0.854203,-0.0016565833,-0.0023895109,-0.5199403,0.0,0.0,0.0,0.0,0
21729660000,0,0.8542018,-0.0016673268,-0.002382608,-0.5199422,0.0,0.0,0.0,0.0,0
21729668000,0,0.85420215,-0.0016694418,-0.002381521,-0.5199417,0.0,0.0,0.0,0.0,0
21729680000,0,0.85420287,-0.0016516203,-0.0023927663,-0.5199405,0.0,0.0,0.0,0.0,0
21729692000,0,0.8542026,-0.0017079412,-0.002358728,-0.51994085,0.0,0.0,0.0,0.0,0
21729696000,0,0.8542022,-0.0016672403,-0.0023832496,-0.5199415,0.0,0.0,0.0,0.0,0
21729712000,0,0.85420275,-0.0017045292,-0.0023609973,-0.5199407,0.0,0.0,0.0,0.0,0
21729720000,0,0.8542027,-0.0017057761,-0.0023602997,-0.5199408,0.0,0.0,0.0,0.0,0
21729732000,0,0.8542029,-0.0016548019,-0.0023911095,-0.5199404,0.0,0.0,0.0,0.0,0
21729740000,0,0.85420275,-0.0017023076,-0.002362564,-0.5199406,0.0,0.0,0.0,0.0,0
21729752000,0,0.85420233,-0.0016633103,-0.0023861537,-0.5199414,0.0,0.0,0.0,0.0,0
21729756000,0,0.8542033,-0.0016601938,-0.0023879572,-0.5199398,0.0,0.0,0.0,0.0,0
21729772000,0,0.8542025,-0.0017070108,-0.0023594955,-0.51994103,0.0,0.0,0.0,0.0,0
21729780000,0,0.85420316,-0.001663075,-0.0023860047,-0.51994,0.0,0.0,0.0,0.0,0
21729792000,0,0.85420275,-0.0017036446,-0.0023620597,-0.5199407,0.0,0.0,0.0,0.0,0
21729800000,0,0.8542027,-0.0017049977,-0.0023613642,-0.5199408,0.0,0.0,0.0,0.0,0
21729812000,0,0.8542029,-0.0016537855,-0.0023921507,-0.5199404,0.0,0.0,0.0,0.0,0
21729820000,0,0.8542018,-0.0016650038,-0.0023851502,-0.5199422,0.0,0.0,0.0,0.0,0
21729832000,0,0.85420316,-0.0016640173,-0.0023857339,-0.51994,0.0,0.0,0.0,0.0,0
21729840000,0,0.85420287,-0.0016491631,-0.0023953037,-0.5199405,0.0,0.0,0.0,0.0,0
21729852000,0,0.8542027,-0.0017056112,-0.0023613363,-0.5199408,0.0,0.0,0.0,0.0,0
21729860000,0,0.8542033,-0.0016618391,-0.0023875528,-0.5199398,0.0,0.0,0.0,0.0,0
21729868000,0,0.854203,-0.0016472436,-0.0023968704,-0.5199403,0.0,0.0,0.0,0.0,0
21729880000,0,0.85420275,-0.0017032479,-0.0023630264,-0.5199407,0.0,0.0,0.0,0.0,0
21729892000,0,0.854203,-0.001652486,-0.0023935374,-0.51994026,0.0,0.0,0.0,0.0,0
21729900000,0,0.85420185,-0.0016635767,-0.0023866487,-0.5199421,0.0,0.0,0.0,0.0,0
21729912000,0,0.8542032,-0.0016625888,-0.0023871919,-0.5199399,0.0,0.0,0.0,0.0,0
21729920000,0,0.8542029,-0.0016477038,-0.0023967766,-0.5199404,0.0,0.0,0.0,0.0,0
21729932000,0,0.8542027,-0.0017042065,-0.0023627942,-0.5199407,0.0,0.0,0.0,0.0,0
21729936000,0,0.85420233,-0.0016637777,-0.0023872042,-0.51994133,0.0,0.0,0.0,0.0,0
21729952000,0,0.85420185,-0.0016642123,-0.0023865814,-0.51994216,0.0,0.0,0.0,0.0,0
21729956000,0,0.85420257,-0.0017072997,-0.002360607,-0.5199409,0.0,0.0,0.0,0.0,0
21729972000,0,0.8542029,-0.0016484875,-0.002396678,-0.5199404,0.0,0.0,0.0,0.0,0
21729980000,0,0.85420203,-0.0016624156,-0.0023880925,-0.5199418,0.0,0.0,0.0,0.0,0
21729988000,0,0.8542024,-0.0016643755,-0.0023870312,-0.51994133,0.0,0.0,0.0,0.0,0
21729996000,0,0.85420305,-0.0016538528,-0.0023933887,-0.5199402,0.0,0.0,0.0,0.0,0
21730012000,0,0.8542023,-0.0016670767,-0.0023851832,-0.5199415,0.0,0.0,0.0,0.0,0
21730020000,0,0.8542029,-0.0016565137,-0.002391727,-0.5199403,0.0,0.0,0.0,0.0,0
21730028000,0,0.85420287,-0.0017041205,-0.0023632848,-0.5199405,0.0,0.0,0.0,0.0,0
21730040000,0,0.8542024,-0.001664701,-0.0023871006,-0.5199412,0.0,0.0,0.0,0.0,0
21730052000,0,0.8542027,-0.0017069656,-0.002361306,-0.5199408,0.0,0.0,0.0,0.0,0
21730060000,0,0.8542027,-0.0017083623,-0.0023605265,-0.5199408,0.0,0.0,0.0,0.0,0
21730072000,0,0.854203,-0.0016568984,-0.0023917793,-0.51994026,0.0,0.0,0.0,0.0,0
21730080000,0,0.85420287,-0.0017043775,-0.0023632792,-0.51994044,0.0,0.0,0.0,0.0,0
21730088000,0,0.85420287,-0.0017055968,-0.002362591,-0.5199405,0.0,0.0,0.0,0.0,0
21730096000,0,0.85420346,-0.0016618998,-0.0023889919,-0.5199395,0.0,0.0,0.0,0.0,0
21730108000,0,0.854202,-0.0016653378,-0.0023865912,-0.5199419,0.0,0.0,0.0,0.0,0
21730116000,0,0.85420233,-0.0016674747,-0.002385483,-0.51994133,0.0,0.0,0.0,0.0,0
21730132000,0,0.8542029,-0.001704686,-0.0023635041,-0.5199403,0.0,0.0,0.0,0.0,0
21730136000,0,0.8542022,-0.0016633805,-0.0023882969,-0.51994157,0.0,0.0,0.0,0.0,0
21730152000,0,0.85420316,-0.0016545022,-0.0023937516,-0.51993996,0.0,0.0,0.0,0.0,0
21730156000,0,0.8542028,-0.0017068979,-0.0023618843,-0.5199406,0.0,0.0,0.0,0.0,0
21730168000,0,0.8542024,-0.0016675378,-0.0023857795,-0.5199412,0.0,0.0,0.0,0.0,0
21730176000,0,0.8542031,-0.0016568132,-0.0023922028,-0.5199401,0.0,0.0,0.0,0.0,0
21730188000,0,0.8542023,-0.0016632893,-0.0023887195,-0.51994145,0.0,0.0,0.0,0.0,0
21730196000,0,0.85420257,-0.0016651344,-0.002387761,-0.5199409,0.0,0.0,0.0,0.0,0
21730212000,0,0.85420215,-0.0016654482,-0.0023871558,-0.5199417,0.0,0.0,0.0,0.0,0
21730220000,0,0.8542025,-0.0016675697,-0.0023860608,-0.5199411,0.0,0.0,0.0,0.0,0
21730232000,0,0.8542032,-0.0016492459,-0.002397457,-0.5199399,0.0,0.0,0.0,0.0,0
21730236000,0,0.85420305,-0.0017037571,-0.002364508,-0.51994014,0.0,0.0,0.0,0.0,0
21730252000,0,0.85420364,-0.0016613577,-0.0023899444,-0.5199392,0.0,0.0,0.0,0.0,0
21730256000,0,0.8542033,-0.0016539501,-0.0023945642,-0.5199397,0.0,0.0,0.0,0.0,0
21730268000,0,0.8542029,-0.0017079649,-0.0023618797,-0.5199404,0.0,0.0,0.0,0.0,0
21730276000,0,0.8542036,-0.0016638412,-0.0023883537,-0.51993936,0.0,0.0,0.0,0.0,0
21730292000,0,0.8542024,-0.001662743,-0.0023895109,-0.5199412,0.0,0.0,0.0,0.0,0
21730300000,0,0.8542027,-0.0016646301,-0.0023884745,-0.51994073,0.0,0.0,0.0,0.0,0
21730312000,0,0.854203,-0.0017063381,-0.0023628664,-0.51994026,0.0,0.0,0.0,0.0,0
21730320000,0,0.854203,-0.0017078018,-0.0023620755,-0.51994026,0.0,0.0,0.0,0.0,0
21730328000,0,0.85420364,-0.0016637638,-0.0023886387,-0.5199392,0.0,0.0,0.0,0.0,0
21730336000,0,0.8542034,-0.0016489115,-0.002398132,-0.51993966,0.0,0.0,0.0,0.0,0
21730348000,0,0.85420316,-0.0017048991,-0.002364237,-0.51993996,0.0,0.0,0.0,0.0,0
21730356000,0,0.8542038,-0.0016611953,-0.002390504,-0.51993895,0.0,0.0,0.0,0.0,0
21730372000,0,0.85420305,-0.0017076663,-0.0023623551,-0.51994014,0.0,0.0,0.0,0.0,0
21730376000,0,0.8542027,-0.0016665907,-0.0023871558,-0.51994073,0.0,0.0,0.0,0.0,0
21730388000,0,0.85420346,-0.0016487818,-0.0023984134,-0.5199395,0.0,0.0,0.0,0.0,0
21730400000,0,0.8542033,-0.0017048429,-0.0023644408,-0.5199398,0.0,0.0,0.0,0.0,0
21730412000,0,0.8542036,-0.0016537698,-0.0023953267,-0.5199393,0.0,0.0,0.0,0.0,0
21730420000,0,0.85420245,-0.0016644588,-0.0023884673,-0.5199412,0.0,0.0,0.0,0.0,0
21730432000,0,0.8542038,-0.0016634425,-0.0023891658,-0.5199389,0.0,0.0,0.0,0.0,0
21730440000,0,0.8542036,-0.0016487151,-0.002398583,-0.51993936,0.0,0.0,0.0,0.0,0
21730452000,0,0.85420334,-0.0017046549,-0.0023647968,-0.51993966,0.0,0.0,0.0,0.0,0
21730460000,0,0.854204,-0.0016608645,-0.0023909493,-0.51993865,0.0,0.0,0.0,0.0,0
21730472000,0,0.8542025,-0.0017156787,-0.0023573358,-0.5199411,0.0,0.0,0.0,0.0,0
21730480000,0,0.8542034,-0.001670285,-0.0023846873,-0.5199396,0.0,0.0,0.0,0.0,0
21730492000,0,0.8542032,-0.001709279,-0.0023618666,-0.5199399,0.0,0.0,0.0,0.0,0
21730500000,0,0.8542032,-0.0017101015,-0.0023615921,-0.51993984,0.0,0.0,0.0,0.0,0
21730508000,0,0.85420394,-0.0016658099,-0.00238811,-0.5199387,0.0,0.0,0.0,0.0,0
21730520000,0,0.8542035,-0.0017051473,-0.0023647633,-0.51993936,0.0,0.0,0.0,0.0,0
21730528000,0,0.85420346,-0.0017061578,-0.002364214,-0.5199395,0.0,0.0,0.0,0.0,0
21730540000,0,0.85420376,-0.0016549628,-0.0023950436,-0.519939,0.0,0.0,0.0,0.0,0
21730548000,0,0.8542026,-0.0016657026,-0.0023882734,-0.5199408,0.0,0.0,0.0,0.0,0
21730560000,0,0.854204,-0.0016642439,-0.0023890247,-0.5199386,0.0,0.0,0.0,0.0,0
21730572000,0,0.8542036,-0.0017036606,-0.0023657966,-0.51993924,0.0,0.0,0.0,0.0,0
21730580000,0,0.8542036,-0.0017049321,-0.0023651724,-0.5199393,0.0,0.0,0.0,0.0,0
21730592000,0,0.854203,-0.0017121012,-0.0023601337,-0.51994026,0.0,0.0,0.0,0.0,0
21730596000,0,0.854202,-0.001673025,-0.002383421,-0.519942,0.0,0.0,0.0,0.0,0
21730608000,0,0.8542036,-0.0016704262,-0.0023851153,-0.51993924,0.0,0.0,0.0,0.0,0
21730616000,0,0.8542035,-0.0016547685,-0.0023952965,-0.5199394,0.0,0.0,0.0,0.0,0
21730632000,0,0.8542031,-0.0016694797,-0.0023866422,-0.5199401,0.0,0.0,0.0,0.0,0
21730636000,0,0.8542041,-0.001666058,-0.0023885283,-0.5199384,0.0,0.0,0.0,0.0,0
21730652000,0,0.854203,-0.0016641871,-0.002389864,-0.51994026,0.0,0.0,0.0,0.0,0
21730660000,0,0.8542033,-0.0016656385,-0.0023890364,-0.5199397,0.0,0.0,0.0,0.0,0
21730672000,0,0.8542021,-0.001673927,-0.0023829327,-0.51994175,0.0,0.0,0.0,0.0,0
21730676000,0,0.85420316,-0.0016698337,-0.0023853967,-0.51993996,0.0,0.0,0.0,0.0,0
21730688000,0,0.8542032,-0.0017096722,-0.0023620834,-0.5199399,0.0,0.0,0.0,0.0,0
21730696000,0,0.85420334,-0.0017102958,-0.002361997,-0.5199397,0.0,0.0,0.0,0.0,0
21730708000,0,0.85420376,-0.001657984,-0.002393743,-0.519939,0.0,0.0,0.0,0.0,0
21730716000,0,0.8542037,-0.0017053693,-0.002365319,-0.5199391,0.0,0.0,0.0,0.0,0
21730728000,0,0.8542033,-0.0016653915,-0.002389505,-0.5199398,0.0,0.0,0.0,0.0,0
21730736000,0,0.8542031,-0.0017128376,-0.0023599975,-0.5199401,0.0,0.0,0.0,0.0,0
21730752000,0,0.8542032,-0.0016536731,-0.0023961838,-0.5199399,0.0,0.0,0.0,0.0,0
21730756000,0,0.8542032,-0.0017095945,-0.0023622592,-0.5199399,0.0,0.0,0.0,0.0,0
21730768000,0,0.854203,-0.0016688715,-0.0023873248,-0.51994026,0.0,0.0,0.0,0.0,0
21730776000,0,0.85420376,-0.0016578662,-0.0023941034,-0.519939,0.0,0.0,0.0,0.0,0
21730792000,0,0.85420364,-0.0017059144,-0.0023654932,-0.5199391,0.0,0.0,0.0,0.0,0
21730796000,0,0.8542033,-0.0016651507,-0.0023899293,-0.5199398,0.0,0.0,0.0,0.0,0
21730812000,0,0.8542028,-0.0017162506,-0.002358349,-0.5199405,0.0,0.0,0.0,0.0,0
21730816000,0,0.85420257,-0.0016745265,-0.002383632,-0.5199409,0.0,0.0,0.0,0.0,0
21730832000,0,0.8542036,-0.0017095461,-0.0023630096,-0.5199393,0.0,0.0,0.0,0.0,0
21730840000,0,0.85420394,-0.0016641314,-0.002390302,-0.51993865,0.0,0.0,0.0,0.0,0
21730852000,0,0.85420364,-0.0017032267,-0.0023671945,-0.5199391,0.0,0.0,0.0,0.0,0
21730860000,0,0.85420364,-0.0017041825,-0.002366727,-0.5199391,0.0,0.0,0.0,0.0,0
21730872000,0,0.8542031,-0.0017107616,-0.0023620261,-0.51994,0.0,0.0,0.0,0.0,0
21730880000,0,0.85420287,-0.0017146551,-0.0023596296,-0.5199405,0.0,0.0,0.0,0.0,0
21730892000,0,0.8542035,-0.001661392,-0.0023919633,-0.51993936,0.0,0.0,0.0,0.0,0
21730900000,0,0.8542036,-0.0017079627,-0.002364376,-0.5199393,0.0,0.0,0.0,0.0,0
21730908000,0,0.85420364,-0.0017088035,-0.002364098,-0.5199392,0.0,0.0,0.0,0.0,0
21730916000,0,0.8542043,-0.0016645228,-0.0023905225,-0.5199381,0.0,0.0,0.0,0.0,0
21730932000,0,0.85420364,-0.0017103794,-0.002362913,-0.5199392,0.0,0.0,0.0,0.0,0
21730936000,0,0.8542033,-0.0016691419,-0.0023878138,-0.5199398,0.0,0.0,0.0,0.0,0
21730948000,0,0.85420406,-0.0016508274,-0.0023992173,-0.5199385,0.0,0.0,0.0,0.0,0
21730960000,0,0.8542039,-0.0017064895,-0.0023654297,-0.51993877,0.0,0.0,0.0,0.0,0
21730968000,0,0.85420454,-0.0016626159,-0.002391914,-0.51993775,0.0,0.0,0.0,0.0,0
21730980000,0,0.8542034,-0.0016699703,-0.0023864727,-0.5199396,0.0,0.0,0.0,0.0,0
21730992000,0,0.8542034,-0.0017096427,-0.002363267,-0.51993954,0.0,0.0,0.0,0.0,0
21731000000,0,0.8542035,-0.001710166,-0.002363243,-0.51993936,0.0,0.0,0.0,0.0,0
21731012000,0,0.854204,-0.0016579031,-0.0023949638,-0.51993865,0.0,0.0,0.0,0.0,0
21731020000,0,0.8542039,-0.0017048651,-0.0023668415,-0.5199387,0.0,0.0,0.0,0.0,0
21731028000,0,0.8542039,-0.0017056778,-0.0023663838,-0.51993877,0.0,0.0,0.0,0.0,0
21731036000,0,0.85420454,-0.0016617129,-0.0023927002,-0.5199377,0.0,0.0,0.0,0.0,0
21731052000,0,0.8542033,-0.0016608628,-0.0023924836,-0.5199398,0.0,0.0,0.0,0.0,0
21731060000,0,0.85420346,-0.0017090214,-0.0023637414,-0.5199395,0.0,0.0,0.0,0.0,0
21731072000,0,0.8542032,-0.0016681859,-0.002388853,-0.51993984,0.0,0.0,0.0,0.0,0
21731080000,0,0.854204,-0.0016571543,-0.0023956555,-0.5199386,0.0,0.0,0.0,0.0,0
21731092000,0,0.8542037,-0.0017106654,-0.002363038,-0.51993906,0.0,0.0,0.0,0.0,0
21731096000,0,0.85420334,-0.0016693095,-0.0023881425,-0.51993966,0.0,0.0,0.0,0.0,0
21731112000,0,0.854204,-0.0017057436,-0.0023664853,-0.5199385,0.0,0.0,0.0,0.0,0
21731116000,0,0.8542033,-0.0016643349,-0.0023913325,-0.5199398,0.0,0.0,0.0,0.0,0
21731128000,0,0.8542046,-0.0016624335,-0.002392405,-0.5199376,0.0,0.0,0.0,0.0,0
21731140000,0,0.8542035,-0.001669815,-0.0023870254,-0.5199394,0.0,0.0,0.0,0.0,0
21731152000,0,0.8542035,-0.0017093566,-0.002363924,-0.5199393,0.0,0.0,0.0,0.0,0
21731160000,0,0.85420364,-0.001709939,-0.0023638413,-0.5199391,0.0,0.0,0.0,0.0,0
21731172000,0,0.85420406,-0.0016576526,-0.0023956082,-0.51993847,0.0,0.0,0.0,0.0,0
21731180000,0,0.854204,-0.0017044962,-0.0023675533,-0.5199385,0.0,0.0,0.0,0.0,0
21731188000,0,0.854204,-0.0017053555,-0.002367103,-0.5199385,0.0,0.0,0.0,0.0,0
21731196000,0,0.85420465,-0.0016613925,-0.0023934082,-0.5199375,0.0,0.0,0.0,0.0,0
21731212000,0,0.8542034,-0.0016605345,-0.0023931803,-0.5199396,0.0,0.0,0.0,0.0,0
21731220000,0,0.8542036,-0.001707973,-0.002365088,-0.51993924,0.0,0.0,0.0,0.0,0
21731228000,0,0.8542037,-0.0017086266,-0.002365018,-0.51993906,0.0,0.0,0.0,0.0,0
21731236000,0,0.8542044,-0.0016640641,-0.0023916648,-0.5199379,0.0,0.0,0.0,0.0,0
21731248000,0,0.8542031,-0.0016669772,-0.0023899227,-0.5199401,0.0,0.0,0.0,0.0,0
21731260000,0,0.85420454,-0.0016652219,-0.002390985,-0.51993775,0.0,0.0,0.0,0.0,0
21731272000,0,0.8542041,-0.0017050613,-0.0023673784,-0.51993835,0.0,0.0,0.0,0.0,0
21731276000,0,0.8542034,-0.001663601,-0.002392418,-0.51993954,0.0,0.0,0.0,0.0,0
21731292000,0,0.8542036,-0.0017123461,-0.0023620394,-0.5199393,0.0,0.0,0.0,0.0,0
21731300000,0,0.85420364,-0.001669173,-0.0023879507,-0.5199392,0.0,0.0,0.0,0.0,0
21731308000,0,0.8542037,-0.0016531361,-0.002398346,-0.5199391,0.0,0.0,0.0,0.0,0
21731316000,0,0.85420305,-0.0016667097,-0.0023901288,-0.5199402,0.0,0.0,0.0,0.0,0
21731332000,0,0.85420424,-0.0016569879,-0.0023964192,-0.5199382,0.0,0.0,0.0,0.0,0
21731340000,0,0.85420316,-0.0016673026,-0.0023898026,-0.5199399,0.0,0.0,0.0,0.0,0
21731352000,0,0.85420465,-0.0016656794,-0.0023909772,-0.5199376,0.0,0.0,0.0,0.0,0
21731360000,0,0.8542044,-0.0016506043,-0.0024005917,-0.51993793,0.0,0.0,0.0,0.0,0
21731372000,0,0.85420424,-0.0017059122,-0.0023670956,-0.5199382,0.0,0.0,0.0,0.0,0
21731380000,0,0.8542049,-0.0016619057,-0.002393525,-0.51993716,0.0,0.0,0.0,0.0,0
21731392000,0,0.85420376,-0.001669129,-0.0023881765,-0.519939,0.0,0.0,0.0,0.0,0
21731400000,0,0.8542038,-0.0016531585,-0.0023985158,-0.5199389,0.0,0.0,0.0,0.0,0
21731408000,0,0.8542031,-0.001666819,-0.0023902399,-0.51994,0.0,0.0,0.0,0.0,0
21731420000,0,0.85420465,-0.0016647348,-0.0023916906,-0.5199375,0.0,0.0,0.0,0.0,0
21731432000,0,0.8542033,-0.0016675527,-0.0023898426,-0.5199398,0.0,0.0,0.0,0.0,0
21731440000,0,0.8542037,-0.0016690841,-0.0023890764,-0.51993906,0.0,0.0,0.0,0.0,0
21731452000,0,0.85420454,-0.0016506346,-0.0024006744,-0.51993775,0.0,0.0,0.0,0.0,0
21731460000,0,0.85420364,-0.0016639384,-0.0023924082,-0.5199392,0.0,0.0,0.0,0.0,0
21731472000,0,0.85420406,-0.0017047786,-0.002367652,-0.51993847,0.0,0.0,0.0,0.0,0
21731480000,0,0.85420406,-0.0017058927,-0.0023670099,-0.5199384,0.0,0.0,0.0,0.0,0
21731488000,0,0.8542048,-0.0016614373,-0.0023937398,-0.51993734,0.0,0.0,0.0,0.0,0
21731500000,0,0.8542034,-0.0016648769,-0.0023917288,-0.5199396,0.0,0.0,0.0,0.0,0
21731508000,0,0.85420376,-0.0016667442,-0.002390805,-0.51993895,0.0,0.0,0.0,0.0,0
21731516000,0,0.85420454,-0.0016558033,-0.0023973342,-0.51993775,0.0,0.0,0.0,0.0,0
21731528000,0,0.8542042,-0.0017094484,-0.0023648373,-0.5199383,0.0,0.0,0.0,0.0,0
21731540000,0,0.85420454,-0.001657313,-0.002396412,-0.5199377,0.0,0.0,0.0,0.0,0
21731548000,0,0.8542045,-0.0017041023,-0.0023684783,-0.51993775,0.0,0.0,0.0,0.0,0
21731560000,0,0.8542041,-0.0016645595,-0.002392356,-0.5199384,0.0,0.0,0.0,0.0,0
21731572000,0,0.85420287,-0.0016726961,-0.0023864768,-0.51994044,0.0,0.0,0.0,0.0,0
21731580000,0,0.8542038,-0.0016602193,-0.0023939938,-0.5199389,0.0,0.0,0.0,0.0,0
21731592000,0,0.85420334,-0.0016660148,-0.0023910932,-0.51993966,0.0,0.0,0.0,0.0,0
21731596000,0,0.8542041,-0.0017088267,-0.002365445,-0.51993835,0.0,0.0,0.0,0.0,0
21731612000,0,0.85420424,-0.0017088531,-0.002365237,-0.5199382,0.0,0.0,0.0,0.0,0
21731620000,0,0.8542043,-0.0017097165,-0.0023647374,-0.5199381,0.0,0.0,0.0,0.0,0
21731628000,0,0.85420495,-0.0016650889,-0.0023917584,-0.519937,0.0,0.0,0.0,0.0,0
21731640000,0,0.8542036,-0.0016680217,-0.0023898215,-0.51993924,0.0,0.0,0.0,0.0,0
21731652000,0,0.85420454,-0.0016480469,-0.0024023897,-0.5199377,0.0,0.0,0.0,0.0,0
21731660000,0,0.8542037,-0.0016616974,-0.002393941,-0.51993906,0.0,0.0,0.0,0.0,0
21731668000,0,0.85420406,-0.0016633584,-0.002393124,-0.51993847,0.0,0.0,0.0,0.0,0
21731676000,0,0.8542039,-0.0017108008,-0.0023639023,-0.5199387,0.0,0.0,0.0,0.0,0
21731692000,0,0.8542046,-0.0016688523,-0.0023891276,-0.51993763,0.0,0.0,0.0,0.0,0
21731696000,0,0.85420436,-0.0016609959,-0.0023941107,-0.519938,0.0,0.0,0.0,0.0,0
21731708000,0,0.85420376,-0.0016662357,-0.0023912506,-0.519939,0.0,0.0,0.0,0.0,0
21731720000,0,0.85420465,-0.0016462333,-0.0024038344,-0.5199375,0.0,0.0,0.0,0.0,0
21731732000,0,0.85420454,-0.0017024507,-0.002369592,-0.5199377,0.0,0.0,0.0,0.0,0
21731740000,0,0.8542052,-0.0016581331,-0.0023964094,-0.5199366,0.0,0.0,0.0,0.0,0
21731748000,0,0.854203,-0.0016698852,-0.002388321,-0.51994026,0.0,0.0,0.0,0.0,0
21731760000,0,0.85420465,-0.0016671892,-0.002390113,-0.5199375,0.0,0.0,0.0,0.0,0
21731768000,0,0.8542046,-0.0016515611,-0.0024002495,-0.51993763,0.0,0.0,0.0,0.0,0
21731776000,0,0.8542038,-0.0016647743,-0.0023921744,-0.5199389,0.0,0.0,0.0,0.0,0
21731792000,0,0.85420364,-0.0016633096,-0.0023928343,-0.5199392,0.0,0.0,0.0,0.0,0
21731796000,0,0.8542044,-0.001706497,-0.0023671351,-0.51993793,0.0,0.0,0.0,0.0,0
21731812000,0,0.8542044,-0.0017066805,-0.0023667868,-0.5199379,0.0,0.0,0.0,0.0,0
21731820000,0,0.8542045,-0.0017078201,-0.0023661612,-0.51993775,0.0,0.0,0.0,0.0,0
21731832000,0,0.8542049,-0.0016558776,-0.0023977482,-0.51993716,0.0,0.0,0.0,0.0,0
21731840000,0,0.8542038,-0.001666623,-0.0023911058,-0.5199389,0.0,0.0,0.0,0.0,0
21731852000,0,0.85420525,-0.0016648225,-0.0023921023,-0.51993656,0.0,0.0,0.0,0.0,0
21731856000,0,0.85420495,-0.0016572456,-0.002396869,-0.51993704,0.0,0.0,0.0,0.0,0
21731868000,0,0.85420495,-0.001663945,-0.0023924045,-0.51993704,0.0,0.0,0.0,0.0,0
21731880000,0,0.85420465,-0.0017032456,-0.0023692995,-0.51993746,0.0,0.0,0.0,0.0,0
21731892000,0,0.8542043,-0.0016633448,-0.0023934918,-0.51993805,0.0,0.0,0.0,0.0,0
21731900000,0,0.8542042,-0.0017107736,-0.0023643347,-0.51993835,0.0,0.0,0.0,0.0,0
21731912000,0,0.85420364,-0.001672436,-0.0023873309,-0.5199392,0.0,0.0,0.0,0.0,0
21731920000,0,0.8542046,-0.0016607522,-0.0023945041,-0.51993763,0.0,0.0,0.0,0.0,0
21731932000,0,0.85420394,-0.0016660283,-0.0023917204,-0.51993865,0.0,0.0,0.0,0.0,0
21731940000,0,0.85420483,-0.0016538786,-0.002399031,-0.5199373,0.0,0.0,0.0,0.0,0
21731952000,0,0.85420406,-0.0016597174,-0.002395816,-0.51993847,0.0,0.0,0.0,0.0,0
21731956000,0,0.8542048,-0.0017022173,-0.0023700437,-0.5199373,0.0,0.0,0.0,0.0,0
21731972000,0,0.8542032,-0.0016696879,-0.0023887376,-0.51993984,0.0,0.0,0.0,0.0,0
21731980000,0,0.85420376,-0.001670521,-0.0023883816,-0.51993895,0.0,0.0,0.0,0.0,0
21731988000,0,0.8542047,-0.0016590388,-0.0023955724,-0.51993746,0.0,0.0,0.0,0.0,0
21731996000,0,0.8542048,-0.0017056414,-0.0023679633,-0.51993734,0.0,0.0,0.0,0.0,0
21732012000,0,0.8542046,-0.0017049484,-0.0023681475,-0.5199376,0.0,0.0,0.0,0.0,0
21732016000,0,0.8542039,-0.0016625426,-0.0023935365,-0.51993877,0.0,0.0,0.0,0.0,0
21732028000,0,0.85420537,-0.0016612125,-0.002394539,-0.5199363,0.0,0.0,0.0,0.0,0
21732036000,0,0.8542047,-0.0017063378,-0.0023671715,-0.5199374,0.0,0.0,0.0,0.0,0
21732048000,0,0.8542044,-0.0016660244,-0.0023916727,-0.51993793,0.0,0.0,0.0,0.0,0
21732060000,0,0.8542048,-0.0017080767,-0.002365938,-0.5199373,0.0,0.0,0.0,0.0,0
21732068000,0,0.85420483,-0.0017091034,-0.0023653933,-0.51993716,0.0,0.0,0.0,0.0,0
21732076000,0,0.8542055,-0.001664249,-0.002392603,-0.5199361,0.0,0.0,0.0,0.0,0
21732092000,0,0.85420525,-0.0016634131,-0.0023928045,-0.51993656,0.0,0.0,0.0,0.0,0
21732096000,0,0.85420495,-0.0016553135,-0.0023979007,-0.519937,0.0,0.0,0.0,0.0,0
21732108000,0,0.85420424,-0.0016614373,-0.0023945032,-0.5199382,0.0,0.0,0.0,0.0,0
21732116000,0,0.8542046,-0.0016630832,-0.002393651,-0.5199376,0.0,0.0,0.0,0.0,0
21732128000,0,0.8542034,-0.0016713915,-0.0023877132,-0.51993954,0.0,0.0,0.0,0.0,0
21732136000,0,0.8542044,-0.0016589094,-0.0023953603,-0.51993793,0.0,0.0,0.0,0.0,0
21732148000,0,0.85420394,-0.0016648447,-0.0023924892,-0.5199387,0.0,0.0,0.0,0.0,0
21732156000,0,0.8542044,-0.0016661984,-0.0023920005,-0.51993793,0.0,0.0,0.0,0.0,0
21732168000,0,0.85420483,-0.0017070798,-0.0023668834,-0.5199372,0.0,0.0,0.0,0.0,0
21732176000,0,0.8542049,-0.0017080787,-0.0023663915,-0.51993716,0.0,0.0,0.0,0.0,0
21732192000,0,0.8542049,-0.0017083754,-0.0023660704,-0.51993704,0.0,0.0,0.0,0.0,0
21732200000,0,0.8542053,-0.0016625184,-0.0023935263,-0.51993644,0.0,0.0,0.0,0.0,0
21732212000,0,0.854205,-0.0017018104,-0.0023704444,-0.51993686,0.0,0.0,0.0,0.0,0
21732220000,0,0.854205,-0.0017027727,-0.0023700462,-0.51993686,0.0,0.0,0.0,0.0,0
21732228000,0,0.85420567,-0.0016584767,-0.0023963843,-0.5199358,0.0,0.0,0.0,0.0,0
21732236000,0,0.8542035,-0.0016702132,-0.002388642,-0.5199394,0.0,0.0,0.0,0.0,0
21732252000,0,0.85420495,-0.0016593891,-0.002395516,-0.51993704,0.0,0.0,0.0,0.0,0
21732260000,0,0.854205,-0.0017065492,-0.0023673815,-0.51993686,0.0,0.0,0.0,0.0,0
21732268000,0,0.8542054,-0.001660739,-0.0023948988,-0.5199362,0.0,0.0,0.0,0.0,0
21732276000,0,0.8542049,-0.0017058888,-0.002367529,-0.51993716,0.0,0.0,0.0,0.0,0
21732288000,0,0.85420454,-0.0016651598,-0.0023924422,-0.51993763,0.0,0.0,0.0,0.0,0
21732300000,0,0.85420495,-0.0017068421,-0.002366907,-0.519937,0.0,0.0,0.0,0.0,0
21732312000,0,0.85420465,-0.001666522,-0.0023914215,-0.51993746,0.0,0.0,0.0,0.0,0
21732316000,0,0.8542057,-0.0016632936,-0.0023933027,-0.5199357,0.0,0.0,0.0,0.0,0
21732332000,0,0.8542054,-0.0016622769,-0.0023937048,-0.5199362,0.0,0.0,0.0,0.0,0
21732340000,0,0.8542053,-0.0016463872,-0.0024039084,-0.5199365,0.0,0.0,0.0,0.0,0
21732352000,0,0.8542052,-0.0017027261,-0.0023699994,-0.5199366,0.0,0.0,0.0,0.0,0
21732356000,0,0.85420483,-0.0016616528,-0.0023947058,-0.5199372,0.0,0.0,0.0,0.0,0
21732372000,0,0.8542048,-0.0016659652,-0.0023909213,-0.51993734,0.0,0.0,0.0,0.0,0
21732380000,0,0.85420483,-0.001655008,-0.0023981056,-0.51993716,0.0,0.0,0.0,0.0,0
21732388000,0,0.8542041,-0.0016695383,-0.0023891819,-0.5199384,0.0,0.0,0.0,0.0,0
21732396000,0,0.854205,-0.0016595882,-0.0023953177,-0.51993686,0.0,0.0,0.0,0.0,0
21732408000,0,0.8542043,-0.001670774,-0.002388667,-0.51993805,0.0,0.0,0.0,0.0,0
21732416000,0,0.85420525,-0.0016600406,-0.0023952005,-0.5199365,0.0,0.0,0.0,0.0,0
21732432000,0,0.8542056,-0.0016657985,-0.0023916129,-0.5199359,0.0,0.0,0.0,0.0,0
21732436000,0,0.8542054,-0.0016589756,-0.0023958595,-0.51993626,0.0,0.0,0.0,0.0,0
21732448000,0,0.85420465,-0.0016687837,-0.002389929,-0.5199375,0.0,0.0,0.0,0.0,0
21732460000,0,0.8542056,-0.0016554969,-0.0023981417,-0.5199359,0.0,0.0,0.0,0.0,0
21732468000,0,0.85420465,-0.0016700674,-0.0023891686,-0.5199375,0.0,0.0,0.0,0.0,0
21732476000,0,0.8542054,-0.0016598157,-0.0023951328,-0.5199362,0.0,0.0,0.0,0.0,0
21732488000,0,0.85420465,-0.0016709288,-0.0023885723,-0.5199375,0.0,0.0,0.0,0.0,0
21732496000,0,0.8542055,-0.0016597083,-0.0023951612,-0.51993614,0.0,0.0,0.0,0.0,0
21732508000,0,0.8542048,-0.0016695423,-0.0023893968,-0.51993734,0.0,0.0,0.0,0.0,0
21732520000,0,0.8542057,-0.0016543635,-0.0023986578,-0.5199357,0.0,0.0,0.0,0.0,0
21732532000,0,0.8542059,-0.0016640909,-0.0023922382,-0.5199355,0.0,0.0,0.0,0.0,0
21732540000,0,0.85420537,-0.001713833,-0.0023620687,-0.5199363,0.0,0.0,0.0,0.0,0
21732548000,0,0.8542057,-0.0016655666,-0.0023907775,-0.5199357,0.0,0.0,0.0,0.0,0
21732556000,0,0.85420567,-0.0016576201,-0.0023960127,-0.51993585,0.0,0.0,0.0,0.0,0
21732568000,0,0.85420585,-0.0016678915,-0.0023894776,-0.5199355,0.0,0.0,0.0,0.0,0
21732580000,0,0.8542057,-0.0017153965,-0.0023611148,-0.5199357,0.0,0.0,0.0,0.0,0
21732588000,0,0.8542061,-0.0016666614,-0.0023903039,-0.5199352,0.0,0.0,0.0,0.0,0
21732600000,0,0.8542048,-0.001670463,-0.0023875693,-0.51993734,0.0,0.0,0.0,0.0,0
21732608000,0,0.8542058,-0.0016592022,-0.0023944469,-0.5199357,0.0,0.0,0.0,0.0,0
21732620000,0,0.85420513,-0.0016682913,-0.0023889327,-0.51993674,0.0,0.0,0.0,0.0,0
21732632000,0,0.8542057,-0.001713953,-0.0023608208,-0.5199357,0.0,0.0,0.0,0.0,0
21732640000,0,0.8542061,-0.0016645202,-0.002390621,-0.51993513,0.0,0.0,0.0,0.0,0
21732648000,0,0.85420567,-0.001716373,-0.0023590184,-0.51993585,0.0,0.0,0.0,0.0,0
21732660000,0,0.85420585,-0.0016608539,-0.0023926492,-0.51993555,0.0,0.0,0.0,0.0,0
21732672000,0,0.85420513,-0.0016745781,-0.0023844999,-0.5199367,0.0,0.0,0.0,0.0,0
21732676000,0,0.8542063,-0.0016697402,-0.0023873213,-0.5199348,0.0,0.0,0.0,0.0,0
21732688000,0,0.85420513,-0.0016755991,-0.0023834389,-0.5199367,0.0,0.0,0.0,0.0,0
21732696000,0,0.8542062,-0.0016650184,-0.002389742,-0.519935,0.0,0.0,0.0,0.0,0
21732712000,0,0.85420674,-0.0016723773,-0.0023852065,-0.5199341,0.0,0.0,0.0,0.0,0
21732720000,0,0.85420835,-0.0016702458,-0.0023861155,-0.51993144,0.0,0.0,0.0,0.0,0
21732732000,0,0.85420644,-0.0016322075,-0.0024085727,-0.51993465,0.0,0.0,0.0,0.0,0
21732740000,0,0.8542058,-0.0016870452,-0.0023753676,-0.5199356,0.0,0.0,0.0,0.0,0
21732748000,0,0.8542074,-0.0016815916,-0.0023783897,-0.51993304,0.0,0.0,0.0,0.0,0
21732760000,0,0.8542073,-0.0016806114,-0.0023783848,-0.5199332,0.0,0.0,0.0,0.0,0
21732768000,0,0.85420525,-0.0016980628,-0.0023675284,-0.51993656,0.0,0.0,0.0,0.0,0
21732776000,0,0.85420716,-0.0016937298,-0.0023706146,-0.5199334,0.0,0.0,0.0,0.0,0
21732792000,0,0.85420537,-0.0016609335,-0.0023895598,-0.5199363,0.0,0.0,0.0,0.0,0
21732796000,0,0.85420656,-0.0016569104,-0.0023920068,-0.51993436,0.0,0.0,0.0,0.0,0
21732808000,0,0.854206,-0.0016649367,-0.0023865886,-0.5199353,0.0,0.0,0.0,0.0,0
21732816000,0,0.85420614,-0.0017203328,-0.0023532123,-0.51993513,0.0,0.0,0.0,0.0,0
21732832000,0,0.85420483,-0.0016783952,-0.002378115,-0.5199372,0.0,0.0,0.0,0.0,0
21732836000,0,0.8542062,-0.0016731232,-0.0023814503,-0.519935,0.0,0.0,0.0,0.0,0
21732848000,0,0.85420555,-0.001677826,-0.0023789224,-0.5199361,0.0,0.0,0.0,0.0,0
21732856000,0,0.85420835,-0.0016170713,-0.002415753,-0.5199315,0.0,0.0,0.0,0.0,0
21732868000,0,0.85420823,-0.0016199634,-0.0024134782,-0.51993173,0.0,0.0,0.0,0.0,0
21732880000,0,0.8542082,-0.0016200074,-0.0024128146,-0.51993173,0.0,0.0,0.0,0.0,0
21732888000,0,0.8542079,-0.0016774135,-0.0023779012,-0.51993227,0.0,0.0,0.0,0.0,0
21732900000,0,0.8542079,-0.0016775889,-0.0023773105,-0.5199322,0.0,0.0,0.0,0.0,0
21732912000,0,0.85420793,-0.001677938,-0.0023767476,-0.51993215,0.0,0.0,0.0,0.0,0
21732916000,0,0.8542083,-0.0016190191,-0.0024119513,-0.51993155,0.0,0.0,0.0,0.0,0
21732932000,0,0.854207,-0.0016829533,-0.0023722642,-0.5199337,0.0,0.0,0.0,0.0,0
21732940000,0,0.8542156,-0.0016255914,-0.0024056288,-0.5199195,0.0,0.0,0.0,0.0,0
21732952000,0,0.85421944,-0.0016875855,-0.002367597,-0.51991326,0.0,0.0,0.0,0.0,0
21732960000,0,0.8542232,-0.0016851954,-0.002370102,-0.51990706,0.0,0.0,0.0,0.0,0
21732972000,0,0.854225,-0.0016842114,-0.0023717345,-0.5199042,0.0,0.0,0.0,0.0,0
21732980000,0,0.85422415,-0.0016255431,-0.0024073499,-0.51990557,0.0,0.0,0.0,0.0,0
21732992000,0,0.8542236,-0.001686507,-0.0023697345,-0.51990634,0.0,0.0,0.0,0.0,0
21733000000,0,0.854226,-0.001682622,-0.002371877,-0.51990247,0.0,0.0,0.0,0.0,0
21733008000,0,0.8542248,-0.0016225714,-0.0024079783,-0.5199045,0.0,0.0,0.0,0.0,0
21733016000,0,0.8542251,-0.0016867373,-0.0023693186,-0.5199039,0.0,0.0,0.0,0.0,0
21733028000,0,0.85422695,-0.0016818637,-0.0023711305,-0.51990086,0.0,0.0,0.0,0.0,0
21733040000,0,0.85422796,-0.0016819661,-0.0023713666,-0.5198993,0.0,0.0,0.0,0.0,0
21733052000,0,0.85422784,-0.0016175705,-0.0024087904,-0.5198995,0.0,0.0,0.0,0.0,0
21733060000,0,0.85422903,-0.0016883654,-0.002366215,-0.5198975,0.0,0.0,0.0,0.0,0
21733072000,0,0.854232,-0.0016889481,-0.0023660115,-0.51989263,0.0,0.0,0.0,0.0,0
21733080000,0,0.854233,-0.0016175337,-0.0024082642,-0.519891,0.0,0.0,0.0,0.0,0
21733092000,0,0.854236,-0.0016194951,-0.0024075361,-0.5198861,0.0,0.0,0.0,0.0,0
21733100000,0,0.8542395,-0.0016920834,-0.0023631803,-0.5198803,0.0,0.0,0.0,0.0,0
21733108000,0,0.8542409,-0.001618769,-0.0024064446,-0.5198781,0.0,0.0,0.0,0.0,0
21733116000,0,0.8542441,-0.0016954024,-0.0023603057,-0.5198728,0.0,0.0,0.0,0.0,0
21733128000,0,0.8542481,-0.0017069889,-0.0023531788,-0.5198661,0.0,0.0,0.0,0.0,0
21733136000,0,0.85424685,-0.0016312681,-0.0023984916,-0.5198683,0.0,0.0,0.0,0.0,0
21733148000,0,0.8542484,-0.0017203789,-0.0023441482,-0.5198657,0.0,0.0,0.0,0.0,0
21733160000,0,0.854254,-0.001725902,-0.0023398777,-0.51985645,0.0,0.0,0.0,0.0,0
21733168000,0,0.85426116,-0.0016524353,-0.0023827907,-0.5198448,0.0,0.0,0.0,0.0,0
21733176000,0,0.8542605,-0.0017442765,-0.00232666,-0.51984584,0.0,0.0,0.0,0.0,0
21733188000,0,0.85426754,-0.0016668778,-0.0023723673,-0.5198343,0.0,0.0,0.0,0.0,0
21733196000,0,0.8542666,-0.0016770473,-0.0023664227,-0.5198358,0.0,0.0,0.0,0.0,0
21733212000,0,0.85428923,-0.0016873963,-0.0023582703,-0.51979864,0.0,0.0,0.0,0.0,0
21733220000,0,0.8542897,-0.0016015181,-0.0024102882,-0.51979786,0.0,0.0,0.0,0.0,0
21733232000,0,0.85429966,-0.0016121177,-0.0024020004,-0.51978153,0.0,0.0,0.0,0.0,0
21733240000,0,0.8543026,-0.0016227909,-0.0023952264,-0.5197767,0.0,0.0,0.0,0.0,0
21733252000,0,0.8543092,-0.001645552,-0.0023795366,-0.5197658,0.0,0.0,0.0,0.0,0
21733256000,0,0.854309,-0.0016511414,-0.0023763028,-0.51976615,0.0,0.0,0.0,0.0,0
21733272000,0,0.8543171,-0.0016827872,-0.0023556151,-0.51975286,0.0,0.0,0.0,0.0,0
21733280000,0,0.85432386,-0.0015791242,-0.0024178925,-0.5197418,0.0,0.0,0.0,0.0,0
21733292000,0,0.85433704,-0.0016995809,-0.002344735,-0.5197201,0.0,0.0,0.0,0.0,0
21733300000,0,0.85434204,-0.0016027442,-0.0024037112,-0.5197119,0.0,0.0,0.0,0.0,0
21733308000,0,0.8543395,-0.0017360132,-0.002322436,-0.51971596,0.0,0.0,0.0,0.0,0
21733320000,0,0.85434943,-0.00163408,-0.0023812538,-0.5196997,0.0,0.0,0.0,0.0,0
21733332000,0,0.8543513,-0.0016601546,-0.0023637007,-0.51969665,0.0,0.0,0.0,0.0,0
21733340000,0,0.8543827,-0.0016758367,-0.0023532957,-0.51964504,0.0,0.0,0.0,0.0,0
21733348000,0,0.8543816,-0.0016896264,-0.0023442083,-0.5196468,0.0,0.0,0.0,0.0,0
21733360000,0,0.8543864,-0.0015852017,-0.0024051839,-0.5196391,0.0,0.0,0.0,0.0,0
21733372000,0,0.85439783,-0.0016105182,-0.0023843527,-0.51962024,0.0,0.0,0.0,0.0,0
21733376000,0,0.85440314,-0.0016117363,-0.0023842708,-0.5196115,0.0,0.0,0.0,0.0,0
21733392000,0,0.85441476,-0.0016633123,-0.002348734,-0.5195924,0.0,0.0,0.0,0.0,0
21733400000,0,0.85442483,-0.0016621226,-0.00234806,-0.51957583,0.0,0.0,0.0,0.0,0
21733412000,0,0.85445696,-0.0016985282,-0.0023247122,-0.51952296,0.0,0.0,0.0,0.0,0
21733420000,0,0.8544599,-0.0017064828,-0.002316077,-0.51951814,0.0,0.0,0.0,0.0,0
21733432000,0,0.8544669,-0.0015801251,-0.0023881586,-0.5195067,0.0,0.0,0.0,0.0,0
21733440000,0,0.85446477,-0.0017622972,-0.0022752974,-0.51951015,0.0,0.0,0.0,0.0,0
21733452000,0,0.85449994,-0.0016181597,-0.0023552421,-0.5194524,0.0,0.0,0.0,0.0,0
21733460000,0,0.85449064,-0.0016247524,-0.0023447995,-0.5194677,0.0,0.0,0.0,0.0,0
21733472000,0,0.85453933,-0.0016674681,-0.0023208342,-0.5193876,0.0,0.0,0.0,0.0,0
21733480000,0,0.85455596,-0.0016705252,-0.0023116004,-0.51936024,0.0,0.0,0.0,0.0,0
21733492000,0,0.8545562,-0.0015167658,-0.0023967293,-0.51935995,0.0,0.0,0.0,0.0,0
21733496000,0,0.8545601,-0.0015071098,-0.00238769,-0.5193537,0.0,0.0,0.0,0.0,0
21733508000,0,0.85455763,-0.0016834697,-0.0022661136,-0.5193577,0.0,0.0,0.0,0.0,0
21733516000,0,0.85456854,-0.0015010003,-0.0023680108,-0.51933986,0.0,0.0,0.0,0.0,0
21733532000,0,0.85454965,-0.001500382,-0.0023412143,-0.5193711,0.0,0.0,0.0,0.0,0
21733540000,0,0.8545636,-0.0016675208,-0.0022276102,-0.5193481,0.0,0.0,0.0,0.0,0
21733548000,0,0.8545781,-0.0014755501,-0.002335884,-0.51932436,0.0,0.0,0.0,0.0,0
21733560000,0,0.85456675,-0.0014704105,-0.0023144174,-0.51934314,0.0,0.0,0.0,0.0,0
21733568000,0,0.8545712,-0.0016532172,-0.0021939713,-0.5193357,0.0,0.0,0.0,0.0,0
21733576000,0,0.8545803,-0.0016289961,-0.0022016342,-0.5193209,0.0,0.0,0.0,0.0,0
21733592000,0,0.85458577,-0.0014341705,-0.0022868894,-0.519312,0.0,0.0,0.0,0.0,0
21733596000,0,0.8545795,-0.0014376885,-0.0022814926,-0.51932234,0.0,0.0,0.0,0.0,0
21733608000,0,0.8546078,-0.0016265494,-0.002164274,-0.51927567,0.0,0.0,0.0,0.0,0
21733616000,0,0.854644,-0.0013749651,-0.0022914645,-0.5192163,0.0,0.0,0.0,0.0,0
21733632000,0,0.8546022,-0.0013599572,-0.002244578,-0.5192853,0.0,0.0,0.0,0.0,0
21733636000,0,0.854596,-0.001356072,-0.0022384464,-0.5192956,0.0,0.0,0.0,0.0,0
21733652000,0,0.85462195,-0.0014804658,-0.0021354954,-0.519253,0.0,0.0,0.0,0.0,0
21733660000,0,0.8546285,-0.0012605136,-0.0022531217,-0.5192423,0.0,0.0,0.0,0.0,0
21733672000,0,0.8546162,-0.001247322,-0.0022152446,-0.5192627,0.0,0.0,0.0,0.0,0
21733676000,0,0.8546066,-0.0012476762,-0.0022081425,-0.51927847,0.0,0.0,0.0,0.0,0
21733688000,0,0.85464287,-0.0014122044,-0.0021003936,-0.5192189,0.0,0.0,0.0,0.0,0
21733696000,0,0.85462356,-0.0013683415,-0.002109303,-0.5192508,0.0,0.0,0.0,0.0,0
