timestamp,timestamp_sample,q[0],q[1],q[2],q[3],delta_q_reset[0],delta_q_reset[1],delta_q_reset[2],delta_q_reset[3],quat_reset_counter
21726812000,21726812000,0.86003995,0.00047252214,-0.0031001824,-0.5102172,0.9994751,6.252646e-10,-1.9912905e-11,0.032397438,47
21727312000,21727312000,0.8600822,0.0004947418,-0.003054073,-0.51014626,0.9994751,6.252646e-10,-1.9912905e-11,0.032397438,47
21727816000,21727816000,0.86007893,0.0004968231,-0.003199952,-0.51015085,0.9994751,6.252646e-10,-1.9912905e-11,0.032397438,47
21728316000,21728316000,0.8601037,0.00052832224,-0.0032005755,-0.5101089,0.9994751,6.252646e-10,-1.9912905e-11,0.032397438,47
21728816000,21728816000,0.8601277,0.00060490443,-0.0033894973,-0.5100672,0.9994751,6.252646e-10,-1.9912905e-11,0.032397438,47
21729316000,21729316000,0.8600173,0.00078063214,-0.003509742,-0.51025224,0.9994751,6.252646e-10,-1.9912905e-11,0.032397438,47
21729812000,21729812000,0.8600206,0.00095510844,-0.0034490612,-0.51024693,0.9994751,6.252646e-10,-1.9912905e-11,0.032397438,47
21730312000,21730312000,0.85998476,0.0011082672,-0.0032738717,-0.5103082,0.9994751,6.252646e-10,-1.9912905e-11,0.032397438,47
21730816000,21730816000,0.8601159,0.0011542473,-0.003261454,-0.51008695,0.9994751,6.252646e-10,-1.9912905e-11,0.032397438,47
21731316000,21731316000,0.86009943,0.001126303,-0.0033648002,-0.5101142,0.9994751,6.252646e-10,-1.9912905e-11,0.032397438,47
21731812000,21731812000,0.86006165,0.0013042826,-0.0031437145,-0.5101788,0.9994751,6.252646e-10,-1.9912905e-11,0.032397438,47
21732312000,21732312000,0.8599448,0.0011169821,-0.0030578433,-0.51037663,0.9994751,6.252646e-10,-1.9912905e-11,0.032397438,47
21732816000,21732816000,0.8601361,0.001223273,-0.0031675708,-0.51005334,0.9994751,6.252646e-10,-1.9912905e-11,0.032397438,47
21733316000,21733316000,0.8602444,0.0012050726,-0.003158383,-0.5098707,0.9994751,6.252646e-10,-1.9912905e-11,0.032397438,47
21733816000,21733816000,0.86049306,0.0014687623,-0.0026441962,-0.5094534,0.9994751,6.252646e-10,-1.9912905e-11,0.032397438,47
21734316000,21734316000,0.8601102,0.00081643707,0.0018932435,-0.5101042,0.9994751,6.252646e-10,-1.9912905e-11,0.032397438,47
21734816000,21734816000,0.86012053,0.0019809515,-0.0038073848,-0.5100728,0.9994751,6.252646e-10,-1.9912905e-11,0.032397438,47
21735316000,21735316000,0.8602525,0.002776228,-0.00383204,-0.5098463,0.9994751,6.252646e-10,-1.9912905e-11,0.032397438,47
21735812000,21735812000,0.8744107,0.0030399968,-0.0023568475,-0.48517126,0.9992809,3.4832148e-10,-4.1189133e-10,0.037916638,48
21736312000,21736312000,0.87064207,0.0038420486,-0.0008470621,-0.4919013,0.9992809,3.4832148e-10,-4.1189133e-10,0.037916638,48
21736816000,21736816000,0.8684293,0.0037308263,0.00061356,-0.4957988,0.9992809,3.4832148e-10,-4.1189133e-10,0.037916638,48
21737316000,21737316000,0.86718404,0.0045272075,0.0001941317,-0.49796718,0.9992809,3.4832148e-10,-4.1189133e-10,0.037916638,48
21737816000,21737816000,0.8661587,0.0060292105,0.0020474514,-0.49972847,0.9992809,3.4832148e-10,-4.1189133e-10,0.037916638,48
21738312000,21738312000,0.8639619,0.031082215,0.015862625,-0.50234663,0.9992809,3.4832148e-10,-4.1189133e-10,0.037916638,48
21738816000,21738816000,0.85777694,0.09283713,0.0523366,-0.50285274,0.9992809,3.4832148e-10,-4.1189133e-10,0.037916638,48
21739312000,21739312000,0.84923184,0.104962476,0.16147776,-0.49164343,0.9992809,3.4832148e-10,-4.1189133e-10,0.037916638,48
21739816000,21739816000,0.8486184,0.09621203,0.16945192,-0.49180904,0.9992809,3.4832148e-10,-4.1189133e-10,0.037916638,48
21740316000,21740316000,0.8484376,0.097276956,0.16277453,-0.49416122,0.9992809,3.4832148e-10,-4.1189133e-10,0.037916638,48
21740812000,21740812000,0.8484095,0.09969946,0.16433637,-0.493209,0.9992809,3.4832148e-10,-4.1189133e-10,0.037916638,48
21741316000,21741316000,0.8478709,0.1015898,0.1678383,-0.4925698,0.9992809,3.4832148e-10,-4.1189133e-10,0.037916638,48
21741816000,21741816000,0.8476125,0.10336177,0.1709252,-0.49158338,0.9992809,3.4832148e-10,-4.1189133e-10,0.037916638,48
21742312000,21742312000,0.84728885,0.10453701,0.17440252,-0.49067026,0.9992809,3.4832148e-10,-4.1189133e-10,0.037916638,48
21742816000,21742816000,0.84687555,0.10579512,0.17728058,-0.4900824,0.9992809,3.4832148e-10,-4.1189133e-10,0.037916638,48
21743312000,21743312000,0.8464242,0.10737008,0.17912331,-0.4898495,0.9992809,3.4832148e-10,-4.1189133e-10,0.037916638,48
21743816000,21743816000,0.84612423,0.10785685,0.18179215,-0.48927733,0.9992809,3.4832148e-10,-4.1189133e-10,0.037916638,48
21744316000,21744316000,0.8456128,0.10954713,0.18313117,-0.48928657,0.9992809,3.4832148e-10,-4.1189133e-10,0.037916638,48
21744812000,21744812000,0.84537995,0.10937691,0.18529351,-0.4889129,0.9992809,3.4832148e-10,-4.1189133e-10,0.037916638,48
21745316000,21745316000,0.84493065,0.11056045,0.18657044,-0.48893765,0.9992809,3.4832148e-10,-4.1189133e-10,0.037916638,48
21745816000,21745816000,0.84466916,0.11082569,0.18799125,-0.48878515,0.9992809,3.4832148e-10,-4.1189133e-10,0.037916638,48
21746316000,21746316000,0.84445024,0.111427985,0.1891647,-0.4885739,0.9992809,3.4832148e-10,-4.1189133e-10,0.037916638,48
21746816000,21746816000,0.84438556,0.111833096,0.1899345,-0.48829427,0.9992809,3.4832148e-10,-4.1189133e-10,0.037916638,48
21747312000,21747312000,0.8441662,0.112611994,0.19070996,-0.48819232,0.9992809,3.4832148e-10,-4.1189133e-10,0.037916638,48
21747816000,21747816000,0.8442196,0.112698294,0.19147524,-0.48778033,0.9992809,3.4832148e-10,-4.1189133e-10,0.037916638,48
21748316000,21748316000,0.84391373,0.112881176,0.19241717,-0.48789662,0.9992809,3.4832148e-10,-4.1189133e-10,0.037916638,48
21748816000,21748816000,0.8438672,0.113089815,0.19274344,-0.48779994,0.9992809,3.4832148e-10,-4.1189133e-10,0.037916638,48
21749316000,21749316000,0.8438491,0.113681115,0.19318944,-0.48751742,0.9992809,3.4832148e-10,-4.1189133e-10,0.037916638,48
21749816000,21749816000,0.8439065,0.11258732,0.19424947,-0.48725063,0.9992809,3.4832148e-10,-4.1189133e-10,0.037916638,48
21750312000,21750312000,0.8437209,0.11411435,0.19386457,-0.48737004,0.9992809,3.4832148e-10,-4.1189133e-10,0.037916638,48
21750816000,21750816000,0.84367913,0.114004225,0.19425113,-0.48731425,0.9992809,3.4832148e-10,-4.1189133e-10,0.037916638,48
21751316000,21751316000,0.8436305,0.11326294,0.19509527,-0.48723415,0.9992809,3.4832148e-10,-4.1189133e-10,0.037916638,48
21751816000,21751816000,0.8434194,0.114064515,0.1950869,-0.48741582,0.9992809,3.4832148e-10,-4.1189133e-10,0.037916638,48
21752312000,21752312000,0.84352213,0.11382703,0.19531648,-0.48720157,0.9992809,3.4832148e-10,-4.1189133e-10,0.037916638,48
21752812000,21752812000,0.8434966,0.113983214,0.1955134,-0.48713028,0.9992809,3.4832148e-10,-4.1189133e-10,0.037916638,48
21753316000,21753316000,0.8434412,0.11426976,0.1952823,-0.4872518,0.9992809,3.4832148e-10,-4.1189133e-10,0.037916638,48
21753812000,21753812000,0.8433741,0.11433914,0.1956441,-0.48720655,0.9992809,3.4832148e-10,-4.1189133e-10,0.037916638,48
21754316000,21754316000,0.8433205,0.11427246,0.19574669,-0.4872735,0.9992809,3.4832148e-10,-4.1189133e-10,0.037916638,48
21754816000,21754816000,0.843248,0.11397074,0.19609867,-0.48732817,0.9992809,3.4832148e-10,-4.1189133e-10,0.037916638,48
21755316000,21755316000,0.8432827,0.114272036,0.19553234,-0.4874251,0.9992809,3.4832148e-10,-4.1189133e-10,0.037916638,48
21755816000,21755816000,0.84319484,0.11390671,0.19617142,-0.48740596,0.9992809,3.4832148e-10,-4.1189133e-10,0.037916638,48
21756316000,21756316000,0.84306216,0.1143322,0.19606847,-0.48757735,0.9992809,3.4832148e-10,-4.1189133e-10,0.037916638,48
21756812000,21756812000,0.8430844,0.11489401,0.1956001,-0.4875949,0.9992809,3.4832148e-10,-4.1189133e-10,0.037916638,48
21757312000,21757312000,0.8431797,0.11393097,0.19638352,-0.48734105,0.9992809,3.4832148e-10,-4.1189133e-10,0.037916638,48
21757812000,21757812000,0.84299463,0.11485178,0.19574097,-0.4877034,0.9992809,3.4832148e-10,-4.1189133e-10,0.037916638,48
21758316000,21758316000,0.84309655,0.11463292,0.195774,-0.48756552,0.9992809,3.4832148e-10,-4.1189133e-10,0.037916638,48
21758816000,21758816000,0.84299046,0.11452115,0.19594167,-0.48770776,0.9992809,3.4832148e-10,-4.1189133e-10,0.037916638,48
21759312000,21759312000,0.8429365,0.11468382,0.1958598,-0.48779583,0.9992809,3.4832148e-10,-4.1189133e-10,0.037916638,48
21759812000,21759812000,0.84294087,0.115100466,0.19582638,-0.4877036,0.9992809,3.4832148e-10,-4.1189133e-10,0.037916638,48
21760316000,21760316000,0.84290886,0.11491801,0.19567464,-0.48786286,0.9992809,3.4832148e-10,-4.1189133e-10,0.037916638,48
21760816000,21760816000,0.84296453,0.11459148,0.19598372,-0.4877192,0.9992809,3.4832148e-10,-4.1189133e-10,0.037916638,48
21761316000,21761316000,0.84290695,0.11486181,0.19607715,-0.4877176,0.9992809,3.4832148e-10,-4.1189133e-10,0.037916638,48
21761816000,21761816000,0.8428539,0.11491925,0.19598588,-0.4878325,0.9992809,3.4832148e-10,-4.1189133e-10,0.037916638,48
21762316000,21762316000,0.84285736,0.11527718,0.19577098,-0.48782837,0.9992809,3.4832148e-10,-4.1189133e-10,0.037916638,48
21762816000,21762816000,0.84287614,0.11473076,0.19625756,-0.48772922,0.9992809,3.4832148e-10,-4.1189133e-10,0.037916638,48
21763312000,21763312000,0.8428892,0.115099125,0.1958265,-0.4877929,0.9992809,3.4832148e-10,-4.1189133e-10,0.037916638,48
21763816000,21763816000,0.8428313,0.11481357,0.19610247,-0.48784938,0.9992809,3.4832148e-10,-4.1189133e-10,0.037916638,48
21764312000,21764312000,0.84278417,0.11506123,0.1961433,-0.48785624,0.9992809,3.4832148e-10,-4.1189133e-10,0.037916638,48
21764816000,21764816000,0.8428226,0.114778906,0.19593892,-0.48793828,0.9992809,3.4832148e-10,-4.1189133e-10,0.037916638,48
21765312000,21765312000,0.8429029,0.11466816,0.19590205,-0.4878405,0.9992809,3.4832148e-10,-4.1189133e-10,0.037916638,48
21765816000,21765816000,0.8429564,0.114601314,0.19601098,-0.48771992,0.9992809,3.4832148e-10,-4.1189133e-10,0.037916638,48
21766316000,21766316000,0.84264606,0.11554854,0.19603743,-0.48802206,0.9992809,3.4832148e-10,-4.1189133e-10,0.037916638,48
21766816000,21766816000,0.84299153,0.1141583,0.19636267,-0.48762164,0.9992809,3.4832148e-10,-4.1189133e-10,0.037916638,48
21767316000,21767316000,0.8426573,0.11551135,0.19588943,-0.48807076,0.9992809,3.4832148e-10,-4.1189133e-10,0.037916638,48
21767816000,21767816000,0.84278995,0.11480204,0.19654466,-0.4877456,0.9992809,3.4832148e-10,-4.1189133e-10,0.037916638,48
21768316000,21768316000,0.84269124,0.11534736,0.19613913,-0.48795074,0.9992809,3.4832148e-10,-4.1189133e-10,0.037916638,48
21768812000,21768812000,0.84279037,0.11525013,0.19625771,-0.48775476,0.9992809,3.4832148e-10,-4.1189133e-10,0.037916638,48
21769312000,21769312000,0.84285814,0.115241796,0.19595277,-0.48776224,0.9992809,3.4832148e-10,-4.1189133e-10,0.037916638,48
21769816000,21769816000,0.84283066,0.11503266,0.19602174,-0.48783147,0.9992809,3.4832148e-10,-4.1189133e-10,0.037916638,48
21770312000,21770312000,0.84280425,0.11493747,0.19637741,-0.4877563,0.9992809,3.4832148e-10,-4.1189133e-10,0.037916638,48
21770816000,21770816000,0.8428904,0.11487044,0.1960661,-0.48774868,0.9992809,3.4832148e-10,-4.1189133e-10,0.037916638,48
21771316000,21771316000,0.84286314,0.115043715,0.1960928,-0.48774397,0.9992809,3.4832148e-10,-4.1189133e-10,0.037916638,48
21771816000,21771816000,0.842806,0.11500115,0.19624114,-0.48779333,0.9992809,3.4832148e-10,-4.1189133e-10,0.037916638,48
21772316000,21772316000,0.8427533,0.115183756,0.19628878,-0.48782215,0.9992809,3.4832148e-10,-4.1189133e-10,0.037916638,48
21772816000,21772816000,0.8427397,0.11524524,0.19615848,-0.4878834,0.9992809,3.4832148e-10,-4.1189133e-10,0.037916638,48
21773316000,21773316000,0.8426113,0.115496986,0.19618435,-0.48803508,0.9992809,3.4832148e-10,-4.1189133e-10,0.037916638,48
21773816000,21773816000,0.8426931,0.11479201,0.19644292,-0.48795635,0.9992809,3.4832148e-10,-4.1189133e-10,0.037916638,48
21774312000,21774312000,0.8427237,0.11504125,0.19626349,-0.48791695,0.9992809,3.4832148e-10,-4.1189133e-10,0.037916638,48
21774816000,21774816000,0.8428175,0.11467251,0.19642957,-0.4877748,0.9992809,3.4832148e-10,-4.1189133e-10,0.037916638,48
21775312000,21775312000,0.84266126,0.115439,0.19606364,-0.48801133,0.9992809,3.4832148e-10,-4.1189133e-10,0.037916638,48
21775812000,21775812000,0.84272337,0.1148633,0.19651793,-0.48785707,0.9992809,3.4832148e-10,-4.1189133e-10,0.037916638,48
21776312000,21776312000,0.84273463,0.11494178,0.19643103,-0.48785412,0.9992809,3.4832148e-10,-4.1189133e-10,0.037916638,48
21776812000,21776812000,0.84278744,0.11538261,0.19616808,-0.48776466,0.9992809,3.4832148e-10,-4.1189133e-10,0.037916638,48
21777316000,21777316000,0.8426366,0.115471266,0.1965609,-0.48784626,0.9992809,3.4832148e-10,-4.1189133e-10,0.037916638,48
21777812000,21777812000,0.84269077,0.115740925,0.19606307,-0.487889,0.9992809,3.4832148e-10,-4.1189133e-10,0.037916638,48
21778316000,21778316000,0.84276974,0.115223765,0.19621348,-0.48781455,0.9992809,3.4832148e-10,-4.1189133e-10,0.037916638,48
21778816000,21778816000,0.84293777,0.11485359,0.19644538,-0.48751804,0.9992809,3.4832148e-10,-4.1189133e-10,0.037916638,48
21779316000,21779316000,0.84265375,0.115554795,0.19630097,-0.48790133,0.9992809,3.4832148e-10,-4.1189133e-10,0.037916638,48
21779816000,21779816000,0.84268016,0.11499433,0.19673471,-0.48781338,0.9992809,3.4832148e-10,-4.1189133e-10,0.037916638,48
21780316000,21780316000,0.8426427,0.115413696,0.1962108,-0.48799023,0.9992809,3.4832148e-10,-4.1189133e-10,0.037916638,48
21780812000,21780812000,0.84266627,0.11501812,0.19659323,-0.48788875,0.9992809,3.4832148e-10,-4.1189133e-10,0.037916638,48
21781312000,21781312000,0.8425638,0.115906954,0.19601612,-0.48808768,0.9992809,3.4832148e-10,-4.1189133e-10,0.037916638,48
21781816000,21781816000,0.8426157,0.115453996,0.19621195,-0.48802677,0.9992809,3.4832148e-10,-4.1189133e-10,0.037916638,48
21782316000,21782316000,0.8426812,0.11503531,0.19640034,-0.48793676,0.9992809,3.4832148e-10,-4.1189133e-10,0.037916638,48
21782816000,21782816000,0.8425704,0.11553986,0.19631699,-0.48804238,0.9992809,3.4832148e-10,-4.1189133e-10,0.037916638,48
21783316000,21783316000,0.84262115,0.11526149,0.19653267,-0.48793367,0.9992809,3.4832148e-10,-4.1189133e-10,0.037916638,48
21783816000,21783816000,0.8425678,0.115243375,0.1965146,-0.48803753,0.9992809,3.4832148e-10,-4.1189133e-10,0.037916638,48
21784316000,21784316000,0.8425119,0.115936,0.19601429,-0.4881711,0.9992809,3.4832148e-10,-4.1189133e-10,0.037916638,48
21784816000,21784816000,0.84261996,0.11539523,0.19637422,-0.48796788,0.9992809,3.4832148e-10,-4.1189133e-10,0.037916638,48
21785316000,21785316000,0.84255016,0.11578871,0.19609466,-0.48810783,0.9992809,3.4832148e-10,-4.1189133e-10,0.037916638,48
21785816000,21785816000,0.8424448,0.116075456,0.19612655,-0.48820868,0.9992809,3.4832148e-10,-4.1189133e-10,0.037916638,48
21786316000,21786316000,0.84248376,0.115976304,0.19586132,-0.4882715,0.9992809,3.4832148e-10,-4.1189133e-10,0.037916638,48
21786812000,21786812000,0.8426301,0.1154291,0.19638744,-0.48793718,0.9992809,3.4832148e-10,-4.1189133e-10,0.037916638,48
21787312000,21787312000,0.8425743,0.115541056,0.19619177,-0.4880856,0.9992809,3.4832148e-10,-4.1189133e-10,0.037916638,48
21787816000,21787816000,0.8425161,0.115621686,0.19625048,-0.48814347,0.9992809,3.4832148e-10,-4.1189133e-10,0.037916638,48
21788316000,21788316000,0.84258175,0.11562112,0.19609018,-0.48809475,0.9992809,3.4832148e-10,-4.1189133e-10,0.037916638,48
21788816000,21788816000,0.84271586,0.11470687,0.19644956,-0.4879346,0.9992809,3.4832148e-10,-4.1189133e-10,0.037916638,48
21789316000,21789316000,0.84258455,0.11524798,0.19636439,-0.48806795,0.9992809,3.4832148e-10,-4.1189133e-10,0.037916638,48
21789816000,21789816000,0.8425772,0.1148765,0.19631658,-0.48818734,0.9992809,3.4832148e-10,-4.1189133e-10,0.037916638,48
21790316000,21790316000,0.8425547,0.11507492,0.19617331,-0.48823696,0.9992809,3.4832148e-10,-4.1189133e-10,0.037916638,48
21790812000,21790812000,0.8426375,0.11518886,0.19612935,-0.4880849,0.9992809,3.4832148e-10,-4.1189133e-10,0.037916638,48
21791316000,21791316000,0.8424662,0.11541044,0.19622117,-0.48829132,0.9992809,3.4832148e-10,-4.1189133e-10,0.037916638,48
21791816000,21791816000,0.84253585,0.115452915,0.19638427,-0.48809558,0.9992809,3.4832148e-10,-4.1189133e-10,0.037916638,48
21792316000,21792316000,0.8426362,0.114788175,0.19645496,-0.48805067,0.9992809,3.4832148e-10,-4.1189133e-10,0.037916638,48
21792816000,21792816000,0.8424143,0.11531249,0.19622338,-0.4884032,0.9992809,3.4832148e-10,-4.1189133e-10,0.037916638,48
21793316000,21793316000,0.84253705,0.11514855,0.19626383,-0.48821384,0.9992809,3.4832148e-10,-4.1189133e-10,0.037916638,48
21793816000,21793816000,0.8425256,0.11569659,0.196131,-0.4881575,0.9992809,3.4832148e-10,-4.1189133e-10,0.037916638,48
21794312000,21794312000,0.84253204,0.11520278,0.19618116,-0.4882427,0.9992809,3.4832148e-10,-4.1189133e-10,0.037916638,48
21794816000,21794816000,0.842462,0.11564866,0.19625488,-0.48822853,0.9992809,3.4832148e-10,-4.1189133e-10,0.037916638,48
21795312000,21795312000,0.8425472,0.11532784,0.19611046,-0.48821563,0.9992809,3.4832148e-10,-4.1189133e-10,0.037916638,48
21795816000,21795816000,0.8424656,0.115244485,0.19611216,-0.48837537,0.9992809,3.4832148e-10,-4.1189133e-10,0.037916638,48
21796312000,21796312000,0.84243524,0.11487195,0.1965459,-0.48834106,0.9992809,3.4832148e-10,-4.1189133e-10,0.037916638,48
21796816000,21796816000,0.8425039,0.11542216,0.19606033,-0.48828807,0.9992809,3.4832148e-10,-4.1189133e-10,0.037916638,48
21797316000,21797316000,0.84245044,0.11555658,0.19637996,-0.48822024,0.9992809,3.4832148e-10,-4.1189133e-10,0.037916638,48
21797816000,21797816000,0.8424862,0.115259744,0.19615015,-0.488321,0.9992809,3.4832148e-10,-4.1189133e-10,0.037916638,48
21798316000,21798316000,0.84254307,0.11498515,0.19624487,-0.4882495,0.9992809,3.4832148e-10,-4.1189133e-10,0.037916638,48
21798812000,21798812000,0.84256077,0.11499643,0.19641635,-0.4881473,0.9992809,3.4832148e-10,-4.1189133e-10,0.037916638,48
21799316000,21799316000,0.84249246,0.11472026,0.19644693,-0.48831797,0.9992809,3.4832148e-10,-4.1189133e-10,0.037916638,48
21799816000,21799816000,0.84242594,0.11576744,0.19585957,-0.4884216,0.9992809,3.4832148e-10,-4.1189133e-10,0.037916638,48
21800316000,21800316000,0.8424986,0.11520738,0.19642855,-0.48819998,0.9992809,3.4832148e-10,-4.1189133e-10,0.037916638,48
21800816000,21800816000,0.84244454,0.115896046,0.19601083,-0.4882981,0.9992809,3.4832148e-10,-4.1189133e-10,0.037916638,48
21801316000,21801316000,0.84259605,0.11491555,0.19653034,-0.4880597,0.9992809,3.4832148e-10,-4.1189133e-10,0.037916638,48
21801812000,21801812000,0.8424295,0.11625402,0.19568618,-0.4883692,0.9992809,3.4832148e-10,-4.1189133e-10,0.037916638,48
21802312000,21802312000,0.8424744,0.115420714,0.1964919,-0.48816577,0.9992809,3.4832148e-10,-4.1189133e-10,0.037916638,48
21802816000,21802816000,0.8424889,0.11527351,0.19635461,-0.48823088,0.9992809,3.4832148e-10,-4.1189133e-10,0.037916638,48
21803316000,21803316000,0.84239733,0.11582684,0.19639018,-0.48824364,0.9992809,3.4832148e-10,-4.1189133e-10,0.037916638,48
21803812000,21803812000,0.8426951,0.1145031,0.19653024,-0.48798555,0.9992809,3.4832148e-10,-4.1189133e-10,0.037916638,48
21804316000,21804316000,0.8424103,0.11623471,0.19584416,-0.4883435,0.9992809,3.4832148e-10,-4.1189133e-10,0.037916638,48
21804812000,21804812000,0.842519,0.11486887,0.19694781,-0.48803547,0.9992809,3.4832148e-10,-4.1189133e-10,0.037916638,48
21805316000,21805316000,0.8423952,0.115916304,0.19655743,-0.4881589,0.9992809,3.4832148e-10,-4.1189133e-10,0.037916638,48
21805812000,21805812000,0.8424453,0.11575954,0.19616932,-0.48826572,0.9992809,3.4832148e-10,-4.1189133e-10,0.037916638,48
21806316000,21806316000,0.84244925,0.115344614,0.19645017,-0.48824412,0.9992809,3.4832148e-10,-4.1189133e-10,0.037916638,48
21806816000,21806816000,0.8463165,0.013316163,-0.3055256,-0.4361481,0.9992809,3.4832148e-10,-4.1189133e-10,0.037916638,48
21807316000,21807316000,0.8556653,-0.09694429,-0.0028008576,-0.508361,0.9992809,3.4832148e-10,-4.1189133e-10,0.037916638,48
21807812000,21807812000,0.861704,0.013815801,-0.054518513,-0.504285,0.9992809,3.4832148e-10,-4.1189133e-10,0.037916638,48
21808316000,21808316000,0.8614728,-0.022568736,-0.048065446,-0.50502,0.9992809,3.4832148e-10,-4.1189133e-10,0.037916638,48
21808816000,21808816000,0.8538519,-0.068444274,-0.12792972,-0.49988633,0.9992809,3.4832148e-10,-4.1189133e-10,0.037916638,48
21809316000,21809316000,0.8504015,-0.07935901,-0.14809011,-0.4985867,0.9992809,3.4832148e-10,-4.1189133e-10,0.037916638,48
21809812000,21809812000,0.8558459,-0.069166616,-0.12655826,-0.49671614,0.9992809,3.4832148e-10,-4.1189133e-10,0.037916638,48
21810316000,21810316000,0.8599464,-0.039601605,-0.102362774,-0.4984433,0.9992809,3.4832148e-10,-4.1189133e-10,0.037916638,48
21810816000,21810816000,0.8656678,-0.002961551,-0.061303023,-0.4968424,0.9992809,3.4832148e-10,-4.1189133e-10,0.037916638,48
21811316000,21811316000,0.86449933,-0.0149941305,-0.035455335,-0.5011578,0.9992809,3.4832148e-10,-4.1189133e-10,0.037916638,48
21811812000,21811812000,0.8649634,0.002384453,-0.018522833,-0.5014874,0.9992809,3.4832148e-10,-4.1189133e-10,0.037916638,48
21812316000,21812316000,0.8647554,0.010885135,0.003918729,-0.50206023,0.9992809,3.4832148e-10,-4.1189133e-10,0.037916638,48
21812816000,21812816000,0.8645972,0.012331391,0.014858578,-0.5020946,0.9992809,3.4832148e-10,-4.1189133e-10,0.037916638,48
21813316000,21813316000,0.86478466,0.010011915,0.014665971,-0.50182885,0.9992809,3.4832148e-10,-4.1189133e-10,0.037916638,48
21813816000,21813816000,0.8651143,0.0064696064,0.011280073,-0.50140613,0.9992809,3.4832148e-10,-4.1189133e-10,0.037916638,48
21814316000,21814316000,0.8654351,0.004822013,0.009612658,-0.50090563,0.9992809,3.4832148e-10,-4.1189133e-10,0.037916638,48
21814816000,21814816000,0.86557907,0.004585339,0.004680387,-0.5007295,0.9992809,3.4832148e-10,-4.1189133e-10,0.037916638,48
21815316000,21815316000,0.8655651,0.0064157457,0.0004183289,-0.50075525,0.9992809,3.4832148e-10,-4.1189133e-10,0.037916638,48
21815812000,21815812000,0.86563003,0.0062522925,-0.0018297044,-0.500642,0.9992809,3.4832148e-10,-4.1189133e-10,0.037916638,48
21816316000,21816316000,0.86554754,0.0062669823,-0.00088871946,-0.50078684,0.9992809,3.4832148e-10,-4.1189133e-10,0.037916638,48
21816816000,21816816000,0.8654791,0.0063943844,-0.0027226144,-0.5008969,0.9992809,3.4832148e-10,-4.1189133e-10,0.037916638,48
21817312000,21817312000,0.865452,0.007688645,-0.0019489144,-0.5009293,0.9992809,3.4832148e-10,-4.1189133e-10,0.037916638,48
21817816000,21817816000,0.8655378,0.0081585655,0.00012231909,-0.500777,0.9992809,3.4832148e-10,-4.1189133e-10,0.037916638,48
21818316000,21818316000,0.8654921,0.009966851,0.0012157483,-0.500822,0.9992809,3.4832148e-10,-4.1189133e-10,0.037916638,48
21818812000,21818812000,0.8653564,0.0103542255,0.0015161706,-0.5010478,0.9992809,3.4832148e-10,-4.1189133e-10,0.037916638,48
21819316000,21819316000,0.865323,0.010354971,0.0018054409,-0.50110453,0.9992809,3.4832148e-10,-4.1189133e-10,0.037916638,48
21819816000,21819816000,0.86543685,0.009222538,0.003387881,-0.5009217,0.9992809,3.4832148e-10,-4.1189133e-10,0.037916638,48
21820316000,21820316000,0.8654447,0.009271101,0.0026796916,-0.50091153,0.9992809,3.4832148e-10,-4.1189133e-10,0.037916638,48
21820812000,21820812000,0.865498,0.008180889,0.0022662464,-0.50084066,0.9992809,3.4832148e-10,-4.1189133e-10,0.037916638,48
21821316000,21821316000,0.8654701,0.009328768,0.0025445663,-0.50086737,0.9992809,3.4832148e-10,-4.1189133e-10,0.037916638,48
21821816000,21821816000,0.8655032,0.009083261,0.0012902904,-0.5008195,0.9992809,3.4832148e-10,-4.1189133e-10,0.037916638,48
21822316000,21822316000,0.86553866,0.008961408,0.0030855169,-0.5007525,0.9992809,3.4832148e-10,-4.1189133e-10,0.037916638,48
21822816000,21822816000,0.865516,0.009639794,0.0028342335,-0.5007805,0.9992809,3.4832148e-10,-4.1189133e-10,0.037916638,48
21823316000,21823316000,0.86553705,0.009519269,0.0042587863,-0.5007364,0.9992809,3.4832148e-10,-4.1189133e-10,0.037916638,48
21823816000,21823816000,0.86550754,0.009235857,0.0048574423,-0.5007872,0.9992809,3.4832148e-10,-4.1189133e-10,0.037916638,48
21824316000,21824316000,0.86556077,0.009135257,0.004481666,-0.5007005,0.9992809,3.4832148e-10,-4.1189133e-10,0.037916638,48
21824812000,21824812000,0.8655863,0.00851913,0.0033224518,-0.5006764,0.9992809,3.4832148e-10,-4.1189133e-10,0.037916638,48
21825316000,21825316000,0.86554754,0.0070906654,0.0012113948,-0.500775,0.9992809,3.4832148e-10,-4.1189133e-10,0.037916638,48
21825812000,21825812000,0.8656137,0.007142218,0.0009739684,-0.50066066,0.9992809,3.4832148e-10,-4.1189133e-10,0.037916638,48
21826316000,21826316000,0.8656115,0.008098118,0.0004527057,-0.50065064,0.9992809,3.4832148e-10,-4.1189133e-10,0.037916638,48
21826816000,21826816000,0.8655318,0.0077498564,0.00031502175,-0.50079393,0.9992809,3.4832148e-10,-4.1189133e-10,0.037916638,48
21827316000,21827316000,0.8655433,0.008984591,0.00049273693,-0.50075334,0.9992809,3.4832148e-10,-4.1189133e-10,0.037916638,48
21827816000,21827816000,0.86552423,0.010200335,-9.669142e-05,-0.5007633,0.9992809,3.4832148e-10,-4.1189133e-10,0.037916638,48
21828316000,21828316000,0.8654812,0.009851992,0.0014102666,-0.50084263,0.9992809,3.4832148e-10,-4.1189133e-10,0.037916638,48
21828816000,21828816000,0.86556876,0.010210432,0.0011733738,-0.5006846,0.9992809,3.4832148e-10,-4.1189133e-10,0.037916638,48
21829312000,21829312000,0.86549205,0.009144592,0.0019940338,-0.5008354,0.9992809,3.4832148e-10,-4.1189133e-10,0.037916638,48
21829816000,21829816000,0.86550045,0.010780384,0.001672192,-0.50078946,0.9992809,3.4832148e-10,-4.1189133e-10,0.037916638,48
21830316000,21830316000,0.8654962,0.011608877,0.0012675682,-0.50077945,0.9992809,3.4832148e-10,-4.1189133e-10,0.037916638,48
21830812000,21830812000,0.8654892,0.010495268,0.0014795257,-0.50081545,0.9992809,3.4832148e-10,-4.1189133e-10,0.037916638,48
21831316000,21831316000,0.8655015,0.010855745,0.0019517264,-0.50078475,0.9992809,3.4832148e-10,-4.1189133e-10,0.037916638,48
21831816000,21831816000,0.8654301,0.010188524,0.001179425,-0.50092477,0.9992809,3.4832148e-10,-4.1189133e-10,0.037916638,48
21832316000,21832316000,0.8654082,0.011779229,0.00077563955,-0.5009286,0.9992809,3.4832148e-10,-4.1189133e-10,0.037916638,48
21832816000,21832816000,0.8654058,0.011921839,0.00088473514,-0.5009292,0.9992809,3.4832148e-10,-4.1189133e-10,0.037916638,48
21833312000,21833312000,0.86545116,0.011087718,0.0013913077,-0.50086874,0.9992809,3.4832148e-10,-4.1189133e-10,0.037916638,48
21833812000,21833812000,0.86548185,0.010388596,0.001095031,-0.5008314,0.9992809,3.4832148e-10,-4.1189133e-10,0.037916638,48
21834316000,21834316000,0.86545604,0.010295429,0.0025195775,-0.50087285,0.9992809,3.4832148e-10,-4.1189133e-10,0.037916638,48
21834816000,21834816000,0.86559534,0.009396956,0.0010812728,-0.50065494,0.9992809,3.4832148e-10,-4.1189133e-10,0.037916638,48
21835316000,21835316000,0.8655733,0.010010853,0.0005826815,-0.5006818,0.9992809,3.4832148e-10,-4.1189133e-10,0.037916638,48
21835816000,21835816000,0.8655168,0.010779756,0.00011292045,-0.5007641,0.9992809,3.4832148e-10,-4.1189133e-10,0.037916638,48
21836316000,21836316000,0.86551183,0.009513398,0.00021797615,-0.5007982,0.9992809,3.4832148e-10,-4.1189133e-10,0.037916638,48
21836816000,21836816000,0.8655508,0.0087300595,-7.9976955e-05,-0.50074506,0.9992809,3.4832148e-10,-4.1189133e-10,0.037916638,48
21837316000,21837316000,0.8655387,0.008666149,-0.0019129582,-0.5007636,0.9992809,3.4832148e-10,-4.1189133e-10,0.037916638,48
21837816000,21837816000,0.8655253,0.008880021,-0.0008750035,-0.50078595,0.9992809,3.4832148e-10,-4.1189133e-10,0.037916638,48
21838316000,21838316000,0.8655495,0.008810496,-0.0011855116,-0.5007446,0.9992809,3.4832148e-10,-4.1189133e-10,0.037916638,48
21838816000,21838816000,0.8655531,0.009400379,0.0006838659,-0.50072867,0.9992809,3.4832148e-10,-4.1189133e-10,0.037916638,48
21839316000,21839316000,0.86552423,0.009642244,0.00083148485,-0.5007735,0.9992809,3.4832148e-10,-4.1189133e-10,0.037916638,48
21839816000,21839816000,0.86554736,0.009786049,0.0006615829,-0.5007312,0.9992809,3.4832148e-10,-4.1189133e-10,0.037916638,48
21840312000,21840312000,0.8655265,0.010481466,0.0016742925,-0.50075066,0.9992809,3.4832148e-10,-4.1189133e-10,0.037916638,48
21840816000,21840816000,0.86550725,0.012491835,0.0014650364,-0.5007386,0.9992809,3.4832148e-10,-4.1189133e-10,0.037916638,48
21841316000,21841316000,0.8654919,0.0128928935,-0.00071615743,-0.5007564,0.9992809,3.4832148e-10,-4.1189133e-10,0.037916638,48
21841812000,21841812000,0.8654023,0.013779527,-0.00087645935,-0.5008877,0.9992809,3.4832148e-10,-4.1189133e-10,0.037916638,48
21842316000,21842316000,0.8654407,0.013567024,-0.002751046,-0.50082004,0.9992809,3.4832148e-10,-4.1189133e-10,0.037916638,48
21842816000,21842816000,0.8654066,0.012670655,-0.0017358755,-0.5009072,0.9992809,3.4832148e-10,-4.1189133e-10,0.037916638,48
21843316000,21843316000,0.86543,0.010767265,-0.00027441268,-0.50091416,0.9992809,3.4832148e-10,-4.1189133e-10,0.037916638,48
21843816000,21843816000,0.86551267,0.010570665,0.0001765067,-0.5007755,0.9992809,3.4832148e-10,-4.1189133e-10,0.037916638,48
21844316000,21844316000,0.86550397,0.010232282,0.0020722002,-0.5007933,0.9992809,3.4832148e-10,-4.1189133e-10,0.037916638,48
21844816000,21844816000,0.86557925,0.011160638,0.0011240037,-0.5006465,0.9992809,3.4832148e-10,-4.1189133e-10,0.037916638,48
21845316000,21845316000,0.865595,0.011772037,0.00020795247,-0.50060624,0.9992809,3.4832148e-10,-4.1189133e-10,0.037916638,48
21845816000,21845816000,0.86556715,0.011456477,0.0002881501,-0.5006617,0.9992809,3.4832148e-10,-4.1189133e-10,0.037916638,48
21846316000,21846316000,0.8655856,0.010953575,-0.00036575153,-0.5006411,0.9992809,3.4832148e-10,-4.1189133e-10,0.037916638,48
21846816000,21846816000,0.86562276,0.009547746,-0.0017851987,-0.5006027,0.9992809,3.4832148e-10,-4.1189133e-10,0.037916638,48
21847316000,21847316000,0.8656019,0.010962551,-0.0024980267,-0.5006065,0.9992809,3.4832148e-10,-4.1189133e-10,0.037916638,48
21847816000,21847816000,0.8656021,0.010020408,-0.0027380663,-0.50062466,0.9992809,3.4832148e-10,-4.1189133e-10,0.037916638,48
21848316000,21848316000,0.86549985,0.0096284,-0.002671886,-0.50080943,0.9992809,3.4832148e-10,-4.1189133e-10,0.037916638,48
21848816000,21848816000,0.8655554,0.009420577,-0.0029594982,-0.500716,0.9992809,3.4832148e-10,-4.1189133e-10,0.037916638,48
21849312000,21849312000,0.8655526,0.009847669,-0.0020933547,-0.500717,0.9992809,3.4832148e-10,-4.1189133e-10,0.037916638,48
21849816000,21849816000,0.8655451,0.011523469,-0.0020305277,-0.50069445,0.9992809,3.4832148e-10,-4.1189133e-10,0.037916638,48
21850316000,21850316000,0.8654941,0.010164322,-0.0026848218,-0.50080884,0.9992809,3.4832148e-10,-4.1189133e-10,0.037916638,48
21850812000,21850812000,0.8655176,0.010620182,-0.0032823547,-0.5007552,0.9992809,3.4832148e-10,-4.1189133e-10,0.037916638,48
