timestamp,time_utc_usec,device_id,lat,lon,alt,alt_ellipsoid,s_variance_m_s,c_variance_rad,eph,epv,hdop,vdop,noise_per_ms,jamming_indicator,vel_m_s,vel_n_m_s,vel_e_m_s,vel_d_m_s,cog_rad,timestamp_time_relative,heading,heading_offset,heading_accuracy,automatic_gain_control,fix_type,jamming_state,vel_ned_valid,satellites_used
21727024000,1694492999082077,0,416066981,-863556160,229259,229259,0.25,0.5,1.0,1.0,0.0,0.0,0,0,0.0,0.0,0.0,0.0,2.4326396,0,nan,nan,0.0,0,3,0,1,10
21728008000,1694493000066077,0,416066980,-863556160,229268,229268,0.25,0.5,1.0,1.0,0.0,0.0,0,0,0.0,0.01,0.0,0.0,0.45186573,0,nan,nan,0.0,0,3,0,1,10
21728836000,1694493000902077,0,416066980,-863556159,229269,229269,0.25,0.5,1.0,1.0,0.0,0.0,0,0,0.0,0.0,0.0,0.02,4.2523203,0,nan,nan,0.0,0,3,0,1,10
21730036000,1694493002094077,0,416066980,-863556160,229274,229274,0.25,0.5,1.0,1.0,0.0,0.0,0,0,0.0,-0.02,0.0,-0.04,3.5529666,0,nan,nan,0.0,0,3,0,1,10
21731024000,1694493003086077,0,416066980,-863556160,229260,229260,0.25,0.5,1.0,1.0,0.0,0.0,0,0,0.0,0.01,0.01,-0.01,0.8023278,0,nan,nan,0.0,0,3,0,1,10
21732008000,1694493004070077,0,416066980,-863556160,229275,229275,0.25,0.5,1.0,1.0,0.0,0.0,0,0,0.0,0.01,0.0,-0.049999997,0.15620697,0,nan,nan,0.0,0,3,0,1,10
21733000000,1694493005062077,0,416066981,-863556160,229274,229274,0.25,0.5,1.0,1.0,0.0,0.0,0,0,0.0,-0.01,0.0,0.01,3.6048028,0,nan,nan,0.0,0,3,0,1,10
21734040000,1694493006098077,0,416066980,-863556160,229265,229265,0.25,0.5,1.0,1.0,0.0,0.0,0,0,0.0,0.0,0.01,0.0,2.3270476,0,nan,nan,0.0,0,3,0,1,10
21735028000,1694493007090077,0,416066979,-863556160,230023,230023,0.25,0.5,1.0,1.0,0.0,0.0,0,0,0.02,0.01,0.0,-1.5799999,0.24294983,0,nan,nan,0.0,0,3,0,1,10
21736016000,1694493008074077,0,416066981,-863556163,231094,231094,0.25,0.5,1.0,1.0,0.0,0.0,0,0,0.03,0.04,-0.03,-0.71,5.641602,0,nan,nan,0.0,0,3,0,1,10
21737004000,1694493009066077,0,416066982,-863556164,231498,231498,0.25,0.5,1.0,1.0,0.0,0.0,0,0,0.01,-0.02,0.0,-0.28,2.9510026,0,nan,nan,0.0,0,3,0,1,10
21737836000,1694493009894077,0,416066983,-863556162,231599,231599,0.25,0.5,1.0,1.0,0.0,0.0,0,0,0.02,0.0,0.01,0.08,2.072404,0,nan,nan,0.0,0,3,0,1,10
21739028000,1694493011086077,0,416066984,-863556129,231834,231834,0.25,0.5,1.0,1.0,0.0,0.0,0,0,0.77,0.0,0.77,-0.55,1.5591025,0,nan,nan,0.0,0,3,0,1,10
21740020000,1694493012078077,0,416066948,-863555926,232884,232884,0.25,0.5,1.0,1.0,0.0,0.0,0,0,2.83,-1.15,2.58,-1.78,1.9901989,0,nan,nan,0.0,0,3,0,1,10
21741008000,1694493013070077,0,416066811,-863555560,235396,235396,0.25,0.5,1.0,1.0,0.0,0.0,0,0,3.84,-1.77,3.3999999,-3.1599998,2.0504127,0,nan,nan,0.0,0,3,0,1,10
21741840000,1694493013898077,0,416066666,-863555198,238356,238356,0.25,0.5,1.0,1.0,0.0,0.0,0,0,4.36,-2.08,3.83,-3.9299998,2.0692623,0,nan,nan,0.0,0,3,0,1,10
21743036000,1694493015094077,0,416066427,-863554609,243508,243508,0.25,0.5,1.0,1.0,0.0,0.0,0,0,4.89,-2.35,4.29,-4.61,2.072404,0,nan,nan,0.0,0,3,0,1,10
21744024000,1694493016082077,0,416066208,-863554082,248265,248265,0.25,0.5,1.0,1.0,0.0,0.0,0,0,5.2,-2.54,4.54,-5.0299997,2.0811305,0,nan,nan,0.0,0,3,0,1,10
21745012000,1694493017070077,0,416065978,-863553528,253325,253325,0.25,0.5,1.0,1.0,0.0,0.0,0,0,5.42,-2.6299999,4.73,-5.19,2.0786872,0,nan,nan,0.0,0,3,0,1,10
21745996000,1694493018062077,0,416065737,-863552952,258568,258568,0.25,0.5,1.0,1.0,0.0,0.0,0,0,5.5899997,-2.73,4.87,-5.33,2.082527,0,nan,nan,0.0,0,3,0,1,10
21747040000,1694493019098077,0,416065477,-863552335,264165,264165,0.25,0.5,1.0,1.0,0.0,0.0,0,0,5.73,-2.79,5.0099998,-5.52,2.079036,0,nan,nan,0.0,0,3,0,1,10
21748024000,1694493020086077,0,416065224,-863551735,269620,269620,0.25,0.5,1.0,1.0,0.0,0.0,0,0,5.81,-2.86,5.0499997,-5.56,2.0860174,0,nan,nan,0.0,0,3,0,1,10
21749016000,1694493021074077,0,416064967,-863551128,275107,275107,0.25,0.5,1.0,1.0,0.0,0.0,0,0,5.8799996,-2.8999999,5.1,-5.5899997,2.0874138,0,nan,nan,0.0,0,3,0,1,10
21750004000,1694493022066077,0,416064706,-863550512,280656,280656,0.25,0.5,1.0,1.0,0.0,0.0,0,0,5.93,-2.9299998,5.16,-5.62,2.088461,0,nan,nan,0.0,0,3,0,1,10
21750836000,1694493022898077,0,416064486,-863549992,285335,285335,0.25,0.5,1.0,1.0,0.0,0.0,0,0,5.96,-2.9199998,5.2,-5.66,2.0827012,0,nan,nan,0.0,0,3,0,1,10
21752032000,1694493024090077,0,416064171,-863549244,292070,292070,0.25,0.5,1.0,1.0,0.0,0.0,0,0,5.99,-2.9399998,5.23,-5.66,2.083923,0,nan,nan,0.0,0,3,0,1,10
21753020000,1694493025078077,0,416063909,-863548621,297668,297668,0.25,0.5,1.0,1.0,0.0,0.0,0,0,6.0,-2.9399998,5.24,-5.7,2.082527,0,nan,nan,0.0,0,3,0,1,10
21754008000,1694493026070077,0,416063645,-863547994,303296,303296,0.25,0.5,1.0,1.0,0.0,0.0,0,0,6.0099998,-2.9299998,5.23,-5.7,2.0820034,0,nan,nan,0.0,0,3,0,1,10
21754840000,1694493026902077,0,416063423,-863547469,308017,308017,0.25,0.5,1.0,1.0,0.0,0.0,0,0,6.02,-2.9399998,5.24,-5.7,2.083225,0,nan,nan,0.0,0,3,0,1,10
21756036000,1694493028098077,0,416063103,-863546710,314813,314813,0.25,0.5,1.0,1.0,0.0,0.0,0,0,6.0299997,-2.96,5.24,-5.71,2.0853193,0,nan,nan,0.0,0,3,0,1,10
21757024000,1694493029082077,0,416062839,-863546087,320408,320408,0.25,0.5,1.0,1.0,0.0,0.0,0,0,6.04,-2.96,5.2599998,-5.7,2.083574,0,nan,nan,0.0,0,3,0,1,10
21758012000,1694493030074077,0,416062573,-863545457,326053,326053,0.25,0.5,1.0,1.0,0.0,0.0,0,0,6.0499997,-2.96,5.25,-5.69,2.0847957,0,nan,nan,0.0,0,3,0,1,10
21759000000,1694493031058077,0,416062309,-863544831,331648,331648,0.25,0.5,1.0,1.0,0.0,0.0,0,0,6.06,-2.98,5.2999997,-5.6299996,2.083574,0,nan,nan,0.0,0,3,0,1,10
21760040000,1694493032102077,0,416062027,-863544166,337601,337601,0.25,0.5,1.0,1.0,0.0,0.0,0,0,6.06,-2.99,5.27,-5.7,2.0874138,0,nan,nan,0.0,0,3,0,1,10
21761028000,1694493033086077,0,416061762,-863543539,343182,343182,0.25,0.5,1.0,1.0,0.0,0.0,0,0,6.06,-3.0,5.2799997,-5.68,2.0872393,0,nan,nan,0.0,0,3,0,1,10
21762012000,1694493034074077,0,416061496,-863542909,348823,348823,0.25,0.5,1.0,1.0,0.0,0.0,0,0,6.0699997,-2.98,5.2799997,-5.69,2.0851448,0,nan,nan,0.0,0,3,0,1,10
21763000000,1694493035062077,0,416061229,-863542279,354452,354452,0.25,0.5,1.0,1.0,0.0,0.0,0,0,6.08,-2.97,5.31,-5.6299996,2.0814795,0,nan,nan,0.0,0,3,0,1,10
21763836000,1694493035894077,0,416061005,-863541747,359184,359184,0.25,0.5,1.0,1.0,0.0,0.0,0,0,6.08,-2.97,5.2999997,-5.69,2.082527,0,nan,nan,0.0,0,3,0,1,10
21765032000,1694493037090077,0,416060682,-863540981,366001,366001,0.25,0.5,1.0,1.0,0.0,0.0,0,0,6.0899997,-3.0,5.33,-5.68,2.083225,0,nan,nan,0.0,0,3,0,1,10
21766020000,1694493038082077,0,416060414,-863540346,371652,371652,0.25,0.5,1.0,1.0,0.0,0.0,0,0,6.1,-2.99,5.2999997,-5.66,2.0840976,0,nan,nan,0.0,0,3,0,1,10
21767008000,1694493039066077,0,416060150,-863539714,377259,377259,0.25,0.5,1.0,1.0,0.0,0.0,0,0,6.1,-2.99,5.29,-5.65,2.0858428,0,nan,nan,0.0,0,3,0,1,10
21768000000,1694493040062077,0,416059881,-863539074,382935,382935,0.25,0.5,1.0,1.0,0.0,0.0,0,0,6.1,-2.98,5.3199997,-5.67,2.0818286,0,nan,nan,0.0,0,3,0,1,10
21769040000,1694493041098077,0,416059602,-863538408,388845,388845,0.25,0.5,1.0,1.0,0.0,0.0,0,0,6.1099997,-2.97,5.35,-5.67,2.07764,0,nan,nan,0.0,0,3,0,1,10
21770028000,1694493042090077,0,416059334,-863537771,394490,394490,0.25,0.5,1.0,1.0,0.0,0.0,0,0,6.1099997,-2.98,5.31,-5.71,2.0823522,0,nan,nan,0.0,0,3,0,1,10
21771016000,1694493043074077,0,416059069,-863537138,400097,400097,0.25,0.5,1.0,1.0,0.0,0.0,0,0,6.1099997,-3.0,5.33,-5.68,2.0833995,0,nan,nan,0.0,0,3,0,1,10
21772000000,1694493044066077,0,416058802,-863536500,405756,405756,0.25,0.5,1.0,1.0,0.0,0.0,0,0,6.1099997,-3.0,5.3399997,-5.69,2.083225,0,nan,nan,0.0,0,3,0,1,10
21772836000,1694493044898077,0,416058578,-863535964,410495,410495,0.25,0.5,1.0,1.0,0.0,0.0,0,0,6.1099997,-2.98,5.33,-5.74,2.0807815,0,nan,nan,0.0,0,3,0,1,10
21774028000,1694493046090077,0,416058258,-863535196,417304,417304,0.25,0.5,1.0,1.0,0.0,0.0,0,0,6.1,-2.97,5.31,-5.71,2.0807815,0,nan,nan,0.0,0,3,0,1,10
21775020000,1694493047078077,0,416057993,-863534562,422935,422935,0.25,0.5,1.0,1.0,0.0,0.0,0,0,6.1,-2.99,5.3399997,-5.7,2.0820034,0,nan,nan,0.0,0,3,0,1,10
21776008000,1694493048070077,0,416057727,-863533925,428597,428597,0.25,0.5,1.0,1.0,0.0,0.0,0,0,6.0899997,-2.97,5.31,-5.69,2.0804324,0,nan,nan,0.0,0,3,0,1,10
21776840000,1694493048902077,0,416057503,-863533392,433337,433337,0.25,0.5,1.0,1.0,0.0,0.0,0,0,6.0899997,-2.96,5.2999997,-5.73,2.080258,0,nan,nan,0.0,0,3,0,1,10
21778036000,1694493050098077,0,416057183,-863532625,440159,440159,0.25,0.5,1.0,1.0,0.0,0.0,0,0,6.08,-2.95,5.31,-5.7,2.0788617,0,nan,nan,0.0,0,3,0,1,10
21779020000,1694493051082077,0,416056919,-863531995,445776,445776,0.25,0.5,1.0,1.0,0.0,0.0,0,0,6.0699997,-2.96,5.33,-5.71,2.0778143,0,nan,nan,0.0,0,3,0,1,10
21780012000,1694493052074077,0,416056654,-863531362,451432,451432,0.25,0.5,1.0,1.0,0.0,0.0,0,0,6.06,-2.99,5.2999997,-5.68,2.0840976,0,nan,nan,0.0,0,3,0,1,10
21781000000,1694493053058077,0,416056391,-863530734,457053,457053,0.25,0.5,1.0,1.0,0.0,0.0,0,0,6.06,-2.9399998,5.31,-5.68,2.0772908,0,nan,nan,0.0,0,3,0,1,10
21782040000,1694493054098077,0,416056113,-863530070,462981,462981,0.25,0.5,1.0,1.0,0.0,0.0,0,0,6.0499997,-2.98,5.2999997,-5.73,2.082876,0,nan,nan,0.0,0,3,0,1,10
21783028000,1694493055086077,0,416055851,-863529440,468616,468616,0.25,0.5,1.0,1.0,0.0,0.0,0,0,6.04,-2.9299998,5.2799997,-5.68,2.0778143,0,nan,nan,0.0,0,3,0,1,10
21784016000,1694493056074077,0,416055587,-863528811,474251,474251,0.25,0.5,1.0,1.0,0.0,0.0,0,0,6.04,-2.9399998,5.27,-5.73,2.0804324,0,nan,nan,0.0,0,3,0,1,10
21785004000,1694493057062077,0,416055324,-863528183,479885,479885,0.25,0.5,1.0,1.0,0.0,0.0,0,0,6.0299997,-2.9099998,5.2799997,-5.68,2.075371,0,nan,nan,0.0,0,3,0,1,10
21785836000,1694493057898077,0,416055102,-863527651,484643,484643,0.25,0.5,1.0,1.0,0.0,0.0,0,0,6.0299997,-2.95,5.23,-5.69,2.0840976,0,nan,nan,0.0,0,3,0,1,10
21787032000,1694493059090077,0,416054786,-863526894,491432,491432,0.25,0.5,1.0,1.0,0.0,0.0,0,0,6.0299997,-2.9299998,5.25,-5.69,2.0804324,0,nan,nan,0.0,0,3,0,1,10
21788016000,1694493060082077,0,416054522,-863526265,497076,497076,0.25,0.5,1.0,1.0,0.0,0.0,0,0,6.0299997,-2.9299998,5.23,-5.67,2.082527,0,nan,nan,0.0,0,3,0,1,10
21789008000,1694493061066077,0,416054261,-863525640,502689,502689,0.25,0.5,1.0,1.0,0.0,0.0,0,0,6.0299997,-2.9199998,5.2599998,-5.7,2.0771163,0,nan,nan,0.0,0,3,0,1,10
21789840000,1694493061902077,0,416054039,-863525108,507468,507468,0.25,0.5,1.0,1.0,0.0,0.0,0,0,6.0299997,-2.95,5.27,-5.68,2.0811305,0,nan,nan,0.0,0,3,0,1,10
21791036000,1694493063094077,0,416053723,-863524350,514236,514236,0.25,0.5,1.0,1.0,0.0,0.0,0,0,6.0299997,-2.96,5.25,-5.69,2.0840976,0,nan,nan,0.0,0,3,0,1,10
21792020000,1694493064078077,0,416053463,-863523724,519847,519847,0.25,0.5,1.0,1.0,0.0,0.0,0,0,6.0299997,-2.95,5.27,-5.64,2.080956,0,nan,nan,0.0,0,3,0,1,10
21793012000,1694493065070077,0,416053201,-863523093,525488,525488,0.25,0.5,1.0,1.0,0.0,0.0,0,0,6.0299997,-2.9299998,5.2999997,-5.67,2.0762436,0,nan,nan,0.0,0,3,0,1,10
21794000000,1694493066062077,0,416052939,-863522462,531139,531139,0.25,0.5,1.0,1.0,0.0,0.0,0,0,6.0299997,-2.9199998,5.2799997,-5.71,2.075371,0,nan,nan,0.0,0,3,0,1,10
21795040000,1694493067098077,0,416052666,-863521801,537053,537053,0.25,0.5,1.0,1.0,0.0,0.0,0,0,6.04,-2.9199998,5.2799997,-5.7,2.0755455,0,nan,nan,0.0,0,3,0,1,10
21796028000,1694493068086077,0,416052405,-863521170,542680,542680,0.25,0.5,1.0,1.0,0.0,0.0,0,0,6.0299997,-2.8999999,5.29,-5.67,2.0729275,0,nan,nan,0.0,0,3,0,1,10
21797016000,1694493069074077,0,416052145,-863520540,548295,548295,0.25,0.5,1.0,1.0,0.0,0.0,0,0,6.0299997,-2.8999999,5.29,-5.7,2.0720549,0,nan,nan,0.0,0,3,0,1,10
21798004000,1694493070066077,0,416051885,-863519908,553949,553949,0.25,0.5,1.0,1.0,0.0,0.0,0,0,6.04,-2.9099998,5.2799997,-5.71,2.0751963,0,nan,nan,0.0,0,3,0,1,10
21798836000,1694493070894077,0,416051667,-863519380,558672,558672,0.25,0.5,1.0,1.0,0.0,0.0,0,0,6.0299997,-2.8999999,5.29,-5.69,2.0725784,0,nan,nan,0.0,0,3,0,1,10
21800032000,1694493072090077,0,416051353,-863518617,565480,565480,0.25,0.5,1.0,1.0,0.0,0.0,0,0,6.0299997,-2.9199998,5.31,-5.7,2.073451,0,nan,nan,0.0,0,3,0,1,10
21801020000,1694493073082077,0,416051092,-863517984,571119,571119,0.25,0.5,1.0,1.0,0.0,0.0,0,0,6.04,-2.9299998,5.29,-5.72,2.0772908,0,nan,nan,0.0,0,3,0,1,10
21802008000,1694493074066077,0,416050833,-863517356,576734,576734,0.25,0.5,1.0,1.0,0.0,0.0,0,0,6.0299997,-2.8899999,5.2799997,-5.72,2.0722294,0,nan,nan,0.0,0,3,0,1,10
21802836000,1694493074898077,0,416050614,-863516826,581465,581465,0.25,0.5,1.0,1.0,0.0,0.0,0,0,6.0299997,-2.9099998,5.29,-5.7,2.0744984,0,nan,nan,0.0,0,3,0,1,10
21804036000,1694493076094077,0,416050299,-863516064,588281,588281,0.25,0.5,1.0,1.0,0.0,0.0,0,0,6.02,-2.8899999,5.27,-5.71,2.073451,0,nan,nan,0.0,0,3,0,1,10
21805024000,1694493077086077,0,416050039,-863515434,593943,593943,0.25,0.5,1.0,1.0,0.0,0.0,0,0,6.0099998,-2.9199998,5.25,-5.67,2.0785124,0,nan,nan,0.0,0,3,0,1,10
21806012000,1694493078070077,0,416049780,-863514810,599554,599554,0.25,0.5,1.0,1.0,0.0,0.0,0,0,6.0,-2.8999999,5.25,-5.7,2.076069,0,nan,nan,0.0,0,3,0,1,10
21807000000,1694493079062077,0,416049542,-863514216,604194,604194,0.25,0.5,1.0,1.0,0.0,0.0,0,0,4.0299997,-1.64,3.6799998,-2.1299999,1.9896753,0,nan,nan,0.0,0,3,0,1,10
21808036000,1694493080094077,0,416049456,-863514032,605610,605610,0.25,0.5,1.0,1.0,0.0,0.0,0,0,0.41,-0.32999998,0.22999999,-0.97999996,2.5286329,0,nan,nan,0.0,0,3,0,1,10
21809024000,1694493081086077,0,416049451,-863514046,606111,606111,0.25,0.5,1.0,1.0,0.0,0.0,0,0,0.89,0.39999998,-0.81,0.02,5.169316,0,nan,nan,0.0,0,3,0,1,10
21810016000,1694493082074077,0,416049516,-863514214,605685,605685,0.25,0.5,1.0,1.0,0.0,0.0,0,0,1.9399999,0.9,-1.7199999,0.75,5.1974163,0,nan,nan,0.0,0,3,0,1,10
21811004000,1694493083062077,0,416049597,-863514402,604879,604879,0.25,0.5,1.0,1.0,0.0,0.0,0,0,1.4599999,0.84999996,-1.1899999,0.93,5.3319807,0,nan,nan,0.0,0,3,0,1,10
21811836000,1694493083894077,0,416049648,-863514496,604119,604119,0.25,0.5,1.0,1.0,0.0,0.0,0,0,0.88,0.52,-0.71,0.94,5.3440237,0,nan,nan,0.0,0,3,0,1,10
21813028000,1694493085090077,0,416049681,-863514551,603018,603018,0.25,0.5,1.0,1.0,0.0,0.0,0,0,0.14,0.11,-0.099999994,0.89,5.5532885,0,nan,nan,0.0,0,3,0,1,10
21814020000,1694493086078077,0,416049682,-863514552,602087,602087,0.25,0.5,1.0,1.0,0.0,0.0,0,0,0.06,-0.03,0.02,0.96999997,2.548006,0,nan,nan,0.0,0,3,0,1,10
21815008000,1694493087070077,0,416049676,-863514549,601140,601140,0.25,0.5,1.0,1.0,0.0,0.0,0,0,0.07,-0.08,0.0,0.96,3.2210052,0,nan,nan,0.0,0,3,0,1,10
21815840000,1694493087902077,0,416049672,-863514550,600337,600337,0.25,0.5,1.0,1.0,0.0,0.0,0,0,0.03,-0.03,-0.03,1.0,3.918613,0,nan,nan,0.0,0,3,0,1,10
21817036000,1694493089098077,0,416049672,-863514555,599155,599155,0.25,0.5,1.0,1.0,0.0,0.0,0,0,0.049999997,0.01,-0.04,0.96,5.098281,0,nan,nan,0.0,0,3,0,1,10
21818024000,1694493090082077,0,416049674,-863514561,598168,598168,0.25,0.5,1.0,1.0,0.0,0.0,0,0,0.049999997,0.03,-0.04,1.02,5.3850384,0,nan,nan,0.0,0,3,0,1,10
21819012000,1694493091074077,0,416049676,-863514564,597192,597192,0.25,0.5,1.0,1.0,0.0,0.0,0,0,0.02,0.02,-0.01,1.01,5.627814,0,nan,nan,0.0,0,3,0,1,10
21819996000,1694493092058077,0,416049679,-863514564,596222,596222,0.25,0.5,1.0,1.0,0.0,0.0,0,0,0.02,0.03,0.01,0.98999995,0.38711402,0,nan,nan,0.0,0,3,0,1,10
21821036000,1694493093102077,0,416049680,-863514564,595168,595168,0.25,0.5,1.0,1.0,0.0,0.0,0,0,0.0,-0.01,0.0,1.04,2.4387484,0,nan,nan,0.0,0,3,0,1,10
21822028000,1694493094086077,0,416049680,-863514563,594177,594177,0.25,0.5,1.0,1.0,0.0,0.0,0,0,0.0,0.01,0.0,1.03,0.355349,0,nan,nan,0.0,0,3,0,1,10
21823016000,1694493095078077,0,416049681,-863514564,593154,593154,0.25,0.5,1.0,1.0,0.0,0.0,0,0,0.0,0.0,0.0,1.0,0.5843362,0,nan,nan,0.0,0,3,0,1,10
21824004000,1694493096062077,0,416049681,-863514563,592132,592132,0.25,0.5,1.0,1.0,0.0,0.0,0,0,0.02,-0.01,0.0,1.05,2.6567402,0,nan,nan,0.0,0,3,0,1,10
21824836000,1694493096898077,0,416049678,-863514561,591275,591275,0.25,0.5,1.0,1.0,0.0,0.0,0,0,0.02,-0.02,0.0,1.04,2.7391198,0,nan,nan,0.0,0,3,0,1,10
21826032000,1694493098090077,0,416049675,-863514562,590041,590041,0.25,0.5,1.0,1.0,0.0,0.0,0,0,0.02,-0.02,-0.02,1.04,3.8744562,0,nan,nan,0.0,0,3,0,1,10
21827020000,1694493099082077,0,416049675,-863514564,589015,589015,0.25,0.5,1.0,1.0,0.0,0.0,0,0,0.03,0.0,-0.02,1.04,4.598419,0,nan,nan,0.0,0,3,0,1,10
21828008000,1694493100066077,0,416049675,-863514567,588003,588003,0.25,0.5,1.0,1.0,0.0,0.0,0,0,0.02,0.0,-0.02,0.96,4.514294,0,nan,nan,0.0,0,3,0,1,10
21828840000,1694493100902077,0,416049675,-863514570,587158,587158,0.25,0.5,1.0,1.0,0.0,0.0,0,0,0.01,0.02,0.0,1.06,0.011868239,0,nan,nan,0.0,0,3,0,1,10
21830036000,1694493102094077,0,416049675,-863514571,585923,585923,0.25,0.5,1.0,1.0,0.0,0.0,0,0,0.0,0.0,0.0,1.0,3.6596062,0,nan,nan,0.0,0,3,0,1,10
21831024000,1694493103086077,0,416049676,-863514569,584953,584953,0.25,0.5,1.0,1.0,0.0,0.0,0,0,0.01,0.0,0.02,0.97999996,1.5566591,0,nan,nan,0.0,0,3,0,1,10
21832012000,1694493104070077,0,416049675,-863514567,583970,583970,0.25,0.5,1.0,1.0,0.0,0.0,0,0,0.01,0.0,0.0,0.97999996,4.7584653,0,nan,nan,0.0,0,3,0,1,10
21832996000,1694493105058077,0,416049677,-863514565,582997,582997,0.25,0.5,1.0,1.0,0.0,0.0,0,0,0.02,0.02,0.01,1.06,0.5799729,0,nan,nan,0.0,0,3,0,1,10
21834036000,1694493106098077,0,416049678,-863514563,581962,581962,0.25,0.5,1.0,1.0,0.0,0.0,0,0,0.01,0.02,0.01,0.96999997,0.44837505,0,nan,nan,0.0,0,3,0,1,10
21835028000,1694493107086077,0,416049678,-863514562,580988,580988,0.25,0.5,1.0,1.0,0.0,0.0,0,0,0.0,-0.02,0.0,0.98999995,2.7213173,0,nan,nan,0.0,0,3,0,1,10
21836016000,1694493108074077,0,416049678,-863514562,579999,579999,0.25,0.5,1.0,1.0,0.0,0.0,0,0,0.0,0.0,0.0,1.0,0.63739425,0,nan,nan,0.0,0,3,0,1,10
21837004000,1694493109066077,0,416049679,-863514561,579003,579003,0.25,0.5,1.0,1.0,0.0,0.0,0,0,0.01,-0.01,0.0,1.01,3.535688,0,nan,nan,0.0,0,3,0,1,10
21837836000,1694493109890077,0,416049679,-863514563,578160,578160,0.25,0.5,1.0,1.0,0.0,0.0,0,0,0.02,0.0,-0.01,1.05,5.034053,0,nan,nan,0.0,0,3,0,1,10
21839032000,1694493111090077,0,416049680,-863514567,576936,576936,0.25,0.5,1.0,1.0,0.0,0.0,0,0,0.02,0.0,-0.01,0.96,5.2317986,0,nan,nan,0.0,0,3,0,1,10
21840020000,1694493112078077,0,416049679,-863514568,575940,575940,0.25,0.5,1.0,1.0,0.0,0.0,0,0,0.01,0.0,0.0,1.0,3.8479273,0,nan,nan,0.0,0,3,0,1,10
21841008000,1694493113070077,0,416049678,-863514569,574931,574931,0.25,0.5,1.0,1.0,0.0,0.0,0,0,0.01,-0.01,0.02,1.05,2.08881,0,nan,nan,0.0,0,3,0,1,10
21841840000,1694493113898077,0,416049678,-863514568,574091,574091,0.25,0.5,1.0,1.0,0.0,0.0,0,0,0.02,0.0,0.02,0.95,1.4620622,0,nan,nan,0.0,0,3,0,1,10
21843036000,1694493115094077,0,416049681,-863514565,572891,572891,0.25,0.5,1.0,1.0,0.0,0.0,0,0,0.03,0.049999997,0.03,0.96999997,0.56653386,0,nan,nan,0.0,0,3,0,1,10
21844024000,1694493116086077,0,416049683,-863514563,571866,571866,0.25,0.5,1.0,1.0,0.0,0.0,0,0,0.01,0.02,0.01,1.04,0.6084218,0,nan,nan,0.0,0,3,0,1,10
21845012000,1694493117070077,0,416049681,-863514562,570879,570879,0.25,0.5,1.0,1.0,0.0,0.0,0,0,0.02,-0.03,0.0,0.96999997,3.2703977,0,nan,nan,0.0,0,3,0,1,10
21846000000,1694493118062077,0,416049680,-863514560,569875,569875,0.25,0.5,1.0,1.0,0.0,0.0,0,0,0.02,-0.03,0.0,0.95,3.0412362,0,nan,nan,0.0,0,3,0,1,10
21847040000,1694493119098077,0,416049678,-863514559,568834,568834,0.25,0.5,1.0,1.0,0.0,0.0,0,0,0.01,-0.02,0.0,1.06,2.895676,0,nan,nan,0.0,0,3,0,1,10
21848028000,1694493120090077,0,416049677,-863514559,567849,567849,0.25,0.5,1.0,1.0,0.0,0.0,0,0,0.01,-0.02,-0.02,1.02,3.8034215,0,nan,nan,0.0,0,3,0,1,10
21849016000,1694493121074077,0,416049676,-863514562,566883,566883,0.25,0.5,1.0,1.0,0.0,0.0,0,0,0.02,0.0,-0.03,1.0,4.557229,0,nan,nan,0.0,0,3,0,1,10
21850004000,1694493122066077,0,416049675,-863514564,565905,565905,0.25,0.5,1.0,1.0,0.0,0.0,0,0,0.01,0.0,0.0,0.98999995,2.4115214,0,nan,nan,0.0,0,3,0,1,10
21850836000,1694493122898077,0,416049675,-863514566,565095,565095,0.25,0.5,1.0,1.0,0.0,0.0,0,0,0.01,-0.02,-0.01,0.96,3.685437,0,nan,nan,0.0,0,3,0,1,10
