timestamp,timestamp_sample,yaw_composite,yaw_variance,yaw[0],yaw[1],yaw[2],yaw[3],yaw[4],innov_vn[0],innov_vn[1],innov_vn[2],innov_vn[3],innov_vn[4],innov_ve[0],innov_ve[1],innov_ve[2],innov_ve[3],innov_ve[4],weight[0],weight[1],weight[2],weight[3],weight[4]
21733224000,21733144000,3.0079389,3.7977512,-2.5132742,-1.2566371,0.0,1.2566371,2.5132742,0.0,0.0,0.0,0.0,0.0,0.0,0.0,0.0,0.0,0.0,0.2,0.2,0.2,0.2,0.2
21733232000,21733152000,-2.9370883,3.7326796,-2.513271,-1.256634,3.0561364e-06,1.2566402,2.5132773,0.0,0.0,0.0,0.0,0.0,0.0,0.0,0.0,0.0,0.0,0.2,0.2,0.2,0.2,0.2
21734224000,21734144000,-2.8151722,3.6435478,-2.513455,-1.256878,-0.00018356871,1.2565498,2.5131893,-0.004022547,-0.021886995,-0.023234028,-0.0062014926,0.005671645,0.0044730566,8.480251e-05,-0.018261645,-0.025211953,-0.011160773,0.20004149,0.20000038,0.19995882,0.199974,0.20002528
21735224000,21735144000,-0.8405734,3.7227728,-2.512635,-1.2562419,-7.977538e-05,1.256508,2.5135906,-0.041550174,-0.025993263,-0.0078212675,-0.012140688,-0.03299523,-0.0025158136,-0.016564481,-0.0061170785,0.014401474,0.016628645,0.19997849,0.20019294,0.20014077,0.199894,0.19979379
21736224000,21736144000,-0.6510904,3.9047499,-2.5082853,-1.2521832,0.0028532199,1.2590356,2.5169947,-0.05381543,-0.04189796,-0.030706566,-0.035685573,-0.049984414,0.018266428,0.010373883,0.019253295,0.032654982,0.032053947,0.19980298,0.20057109,0.2005496,0.19976847,0.19930778
21737216000,21737136000,-0.67515576,3.8745394,-2.50674,-1.2506831,0.004336642,1.2605543,2.5185523,0.026825055,0.00835778,0.017602213,0.0418011,0.047526687,0.014213151,-0.0015353578,-0.02395775,-0.022116553,0.001494845,0.19981778,0.20058791,0.20054524,0.19974898,0.19930004
21738224000,21738144000,-1.2685708,3.5398052,-2.5070536,-1.252197,0.0026942608,1.260033,2.5188546,0.029516976,-0.017041737,-0.03381455,0.002388804,0.041594006,-0.009955086,-0.0075007193,-0.050991982,-0.08043814,-0.055047527,0.20030561,0.20094162,0.20027474,0.19922966,0.19924834
21739224000,21739144000,-1.1422123,1.9587102,-2.3155212,-1.249041,-0.22070383,1.0761076,2.6012824,0.6532068,0.10602805,-0.56107414,-0.5001288,0.3352937,-0.52923775,-0.033186495,-0.33520615,-1.1327318,-1.274373,0.20912264,0.34108034,0.24684626,0.10814192,0.0948089
21740224000,21740144000,-1.151832,0.08973299,-1.4567261,-1.1735483,-0.8988613,0.34230635,-2.9976394,1.1728721,0.16197675,-0.65074575,-0.8633982,3.193293,0.16471887,-0.24919057,-0.55918336,-3.2780662,-2.008163,0.049267597,0.82030314,0.13025057,8.9343695e-05,8.9343695e-05
21741224000,21741144000,-1.1569465,0.03858487,-1.1862894,-1.1684979,-1.076904,0.017030116,-2.6390328,0.6450424,0.31228554,-0.16589522,-0.98245335,3.2254064,-0.098259926,-0.6005411,-0.49606705,-2.888826,-1.2546368,0.03221668,0.8350641,0.13254194,8.8624955e-05,8.8624955e-05
21742216000,21742136000,-1.1722219,0.028400801,-1.0596328,-1.1796123,-1.1772897,-0.15934539,-2.4257603,0.54918456,0.48152804,0.2105751,-0.50705624,2.4001062,-0.62477994,-0.95723414,-0.7635224,-2.3460085,-1.0353954,0.056560267,0.6731219,0.27009788,0.000109991546,0.000109991546
21743216000,21743136000,-1.2001731,0.028958183,-1.0079689,-1.1970211,-1.2375703,-0.23071963,-2.3473213,0.51553655,0.49497628,0.30630088,-0.16732502,1.7156408,-0.8027477,-1.0321112,-0.8451421,-1.9202871,-0.943578,0.08324516,0.45326883,0.46326256,0.00011175095,0.00011175095
21744216000,21744136000,-1.2463208,0.032378267,-0.9742504,-1.2203248,-1.2930244,-0.2644218,-2.329672,0.6208097,0.5755352,0.4239304,0.24569607,1.1876945,-0.9944706,-1.1680391,-1.0111535,-1.6480315,-1.0145898,0.0903706,0.25010073,0.65927404,0.00012732808,0.00012732808
21745216000,21745136000,-1.2958798,0.03446739,-0.9485182,-1.2422328,-1.338461,-0.27120686,-2.3500092,0.66274166,0.5658386,0.4271829,0.5071194,0.71946025,-1.0979261,-1.2501376,-1.1295321,-1.4194334,-1.0693464,0.07807247,0.13159393,0.79005665,0.00013846661,0.00013846661
21746224000,21746144000,-1.3517464,0.033852637,-0.9252384,-1.2676642,-1.3840771,-0.25960526,-2.4028907,0.71522355,0.5436938,0.4065981,0.7507019,0.28350806,-1.1271424,-1.2746937,-1.1953771,-1.1576364,-1.0471563,0.05597153,0.06386934,0.87977356,0.00014482504,0.00024071544
21747224000,21747144000,-1.3872519,0.032453783,-0.91319,-1.2855408,-1.4123638,-0.24526592,-2.4491608,0.6945193,0.48562002,0.35256028,0.809813,0.04181409,-1.0967653,-1.2429197,-1.1892562,-0.9866352,-0.9928217,0.042358648,0.040442254,0.9164176,0.00014015191,0.000641333
21748224000,21748144000,-1.4143572,0.031976927,-0.9031097,-1.2989799,-1.433149,-0.22855558,-2.490745,0.725898,0.4775684,0.34370875,0.9000764,-0.13323617,-1.0123806,-1.1692975,-1.1376312,-0.77851677,-0.8936062,0.032708693,0.02815779,0.9369729,0.00014582108,0.002014839
21749224000,21749144000,-1.436164,0.03476261,-0.8959075,-1.3088846,-1.4479808,-0.21384257,-2.5235686,0.71812177,0.44500327,0.31260324,0.92548895,-0.27057695,-0.94551563,-1.1102138,-1.0949216,-0.6280432,-0.8173914,0.02630048,0.02147675,0.9461621,0.00016030445,0.0059004026
21750216000,21750136000,-1.4565058,0.04389613,-0.89037263,-1.3159922,-1.4585916,-0.20203748,-2.5489733,0.6987729,0.41197968,0.28254676,0.92422557,-0.36105895,-0.8961539,-1.0639191,-1.0598116,-0.5276723,-0.7584696,0.022640154,0.01766886,0.94504815,0.00019177198,0.014451086
21751224000,21751144000,-1.4841499,0.066026635,-0.88525635,-1.3213315,-1.4667463,-0.19072434,-2.5701897,0.6287713,0.35720515,0.23999023,0.8373687,-0.40368676,-0.7586818,-0.9236584,-0.93015003,-0.37576866,-0.6501293,0.019590339,0.014828618,0.9315704,0.00023447395,0.033776186
21752216000,21752136000,-1.5074322,0.08838355,-0.8825622,-1.3240454,-1.4709404,-0.18484376,-2.5815172,0.5391066,0.293576,0.19036317,0.7288408,-0.3978715,-0.671185,-0.81877136,-0.8278041,-0.31605864,-0.5698223,0.018238228,0.013476331,0.91481936,0.00027167643,0.05319445
21753216000,21753136000,-1.5303321,0.110595375,-0.8811625,-1.326351,-1.4742526,-0.18123531,-2.5899038,0.46947312,0.24206138,0.14890122,0.6488054,-0.3959365,-0.58659935,-0.71918917,-0.7291479,-0.25431776,-0.48241997,0.017355932,0.012572235,0.8968373,0.00030551056,0.07292894
21754224000,21754144000,-1.5488191,0.12832642,-0.88031864,-1.3277032,-1.4761711,-0.17887646,-2.5947628,0.39204907,0.18834972,0.10635042,0.55446243,-0.38299942,-0.48786354,-0.6047292,-0.61483,-0.18714046,-0.3900776,0.016665945,0.011974655,0.8817399,0.00032530332,0.08929417
21755216000,21755136000,-1.5670009,0.14405109,-0.88101345,-1.3300005,-1.4788709,-0.17833105,-2.5996146,0.3428688,0.17751837,0.11147761,0.47286654,-0.29334497,-0.3760767,-0.47329473,-0.4833436,-0.12552261,-0.3035984,0.016055444,0.0115032485,0.8677727,0.00033878698,0.10432986
21756216000,21756136000,-1.5769655,0.15277992,-0.8810981,-1.3308157,-1.4798422,-0.17769983,-2.6015215,0.26073194,0.12689996,0.07433915,0.3708291,-0.24378085,-0.30884647,-0.3818674,-0.38864994,-0.111870766,-0.23492527,0.015668182,0.011258491,0.8597987,0.00034160292,0.11293296
21757224000,21757144000,-1.585733,0.15939,-0.88229966,-1.3325907,-1.4817448,-0.17839819,-2.6042318,0.21776867,0.11168575,0.06949425,0.2990265,-0.19737172,-0.25388145,-0.31899548,-0.32695007,-0.08746195,-0.2152009,0.015425715,0.011092754,0.8536653,0.0003453161,0.11947088
21758224000,21758144000,-1.5898407,0.16302034,-0.88223153,-1.3328695,-1.4821153,-0.178104,-2.6051288,0.18362117,0.094298124,0.058813095,0.25085115,-0.16991138,-0.19622517,-0.25261402,-0.26011753,-0.05310583,-0.16812754,0.015334972,0.011007594,0.8502777,0.0003496932,0.12303007
21759224000,21759144000,-1.5961187,0.16764817,-0.883143,-1.3341937,-1.4835323,-0.17867686,-2.6071832,0.16182303,0.09578395,0.06905866,0.20664811,-0.111774206,-0.13016081,-0.17771578,-0.18527317,-0.016304493,-0.1254344,0.015195029,0.010906741,0.84591895,0.00035315883,0.12762605
21760224000,21760144000,-1.5983366,0.1698613,-0.8828275,-1.3340862,-1.4834782,-0.17821899,-2.607473,0.13863301,0.096739054,0.0785768,0.15729976,-0.05806279,-0.08977318,-0.13149977,-0.13989449,-0.002837181,-0.11819029,0.015145379,0.0108625395,0.8438636,0.0003556799,0.12977271
21761224000,21761144000,-1.5998704,0.17102158,-0.8830726,-1.3344462,-1.4838731,-0.17840226,-2.6080728,0.12762403,0.10488391,0.093238115,0.12335849,-0.013264418,-0.05193758,-0.09163284,-0.10149813,0.016912937,-0.11371422,0.015128908,0.01084106,0.8428224,0.00035757717,0.13085014
21762216000,21762136000,-1.601129,0.17139737,-0.8839774,-1.3354088,-1.4848619,-0.17931676,-2.6091864,0.07900405,0.0736115,0.068262815,0.05752325,-0.0026550293,-0.011381626,-0.04499483,-0.05479622,0.03546095,-0.09175968,0.015147596,0.010837571,0.84254026,0.00035961185,0.13111481
21763224000,21763144000,-1.6006701,0.1710409,-0.8840385,-1.3354865,-1.4849656,-0.17946759,-2.6093721,0.07715607,0.08986187,0.0904932,0.03289175,0.04584217,0.003932476,-0.029052258,-0.04057455,0.035098076,-0.11142588,0.015210402,0.010851459,0.8429692,0.0003625472,0.1306064
21764224000,21764144000,-1.6001422,0.17029944,-0.88448757,-1.3359239,-1.4854233,-0.18004239,-2.6098714,0.056275606,0.08061957,0.085689306,0.0024416447,0.069554806,0.025504112,-0.001042366,-0.01173687,0.03876114,-0.095878124,0.015290979,0.010873974,0.8437668,0.00036555773,0.12970264
21765224000,21765144000,-1.5988084,0.16923879,-0.8845009,-1.3358926,-1.4854054,-0.18020728,-2.6098394,0.055532694,0.08345413,0.09012103,0.00055885315,0.08672595,0.032620907,0.010174751,0.00038051605,0.037728786,-0.08486843,0.015378568,0.010902148,0.84486467,0.00036822396,0.12848635
21766216000,21766136000,-1.5990776,0.16887298,-0.88528496,-1.3366406,-1.4861509,-0.18103658,-2.6105347,0.026333332,0.05312562,0.060381413,-0.019308329,0.0731678,0.06319952,0.050079823,0.043329716,0.057332516,-0.026604652,0.015395714,0.010910628,0.8452861,0.00036830586,0.12803932
21767216000,21767136000,-1.5990893,0.1686947,-0.8855949,-1.3369405,-1.4864551,-0.18138237,-2.6108382,0.0072300434,0.03993821,0.049785376,-0.040411234,0.08367205,0.086467266,0.08003664,0.074807644,0.06705427,0.002931118,0.015415288,0.010916953,0.84553015,0.00036894766,0.1277686
21768216000,21768136000,-1.5981038,0.16837622,-0.8850638,-1.3363802,-1.4858944,-0.18089463,-2.6102407,-0.0002014637,0.038221598,0.050114393,-0.053631783,0.09562135,0.09118748,0.08664513,0.081433296,0.06458807,0.0012311935,0.015432624,0.010924795,0.845903,0.00036918157,0.12737034
21769224000,21769144000,-1.5977708,0.16773674,-0.88556296,-1.3368232,-1.4863328,-0.18146926,-2.6106029,-0.025241375,0.015758753,0.028528452,-0.08170509,0.07831025,0.049158096,0.044967175,0.03959894,0.019968987,-0.045069695,0.015462893,0.010938938,0.8465822,0.00036941827,0.12664656
21770224000,21770144000,-1.5972962,0.16726524,-0.8857232,-1.3369467,-1.4864556,-0.18169235,-2.610682,-0.015393496,0.021834612,0.03345394,-0.06644797,0.07908583,0.089383125,0.08581209,0.081012726,0.06260252,0.004477501,0.015491195,0.010950481,0.8471007,0.00036991795,0.1260878
21771224000,21771144000,-1.5963258,0.16676359,-0.8854245,-1.3366085,-1.4861171,-0.18146157,-2.610297,0.0050451756,0.038888216,0.04946494,-0.041220903,0.09124088,0.06610489,0.06301737,0.05870819,0.041567802,-0.010632515,0.015521853,0.010962814,0.8476482,0.00037045768,0.12549666
21772216000,21772136000,-1.5960956,0.16640684,-0.88569623,-1.3368533,-1.4863628,-0.18178728,-2.6105146,0.0112473965,0.046521187,0.057178736,-0.04008794,0.09360647,0.06474781,0.057826042,0.052152157,0.04396534,-0.025342464,0.015547037,0.010972369,0.8480573,0.00037100364,0.12505217
21773224000,21773144000,-1.5960414,0.16645119,-0.8856685,-1.3368049,-1.4863075,-0.18175039,-2.6104121,-0.0054159164,0.026572704,0.03663659,-0.048615456,0.07730031,0.07865572,0.07635927,0.072479725,0.0546813,0.007823944,0.015531303,0.0109704025,0.848082,0.00037010235,0.12504612
21774224000,21774144000,-1.5967059,0.16698521,-0.88577473,-1.3368828,-1.4863619,-0.18175946,-2.610356,-0.021213293,0.007851124,0.017261028,-0.058214188,0.059339046,0.08088732,0.08147764,0.078804016,0.055651665,0.023845196,0.01545209,0.010952318,0.84763426,0.00036663222,0.1255948
21775224000,21775144000,-1.5973817,0.16709058,-0.8864167,-1.3375344,-1.4870186,-0.18240798,-2.6110353,-0.012080193,0.012619972,0.021248102,-0.03817582,0.06916356,0.03374386,0.04058838,0.040338516,0.0041151047,0.0025868416,0.015457274,0.010952618,0.84760773,0.00036704462,0.12561531
21776216000,21776136000,-1.5974778,0.1674945,-0.88612354,-1.3372582,-1.4867432,-0.18207577,-2.6107745,-0.034558296,-0.009589434,-0.00068569183,-0.05940795,0.051237106,0.062925816,0.071662426,0.07199144,0.03063488,0.036391735,0.015434469,0.010944649,0.84729373,0.00036652287,0.12596059
21777224000,21777144000,-1.5975332,0.16776831,-0.8859502,-1.3371208,-1.4866195,-0.1819014,-2.6107252,-0.016785383,0.0074527264,0.01629591,-0.03921008,0.07054949,0.07633877,0.08682728,0.08778906,0.042402267,0.05606842,0.015443595,0.010943181,0.84710956,0.00036755996,0.12613605
21778216000,21778136000,-1.5976706,0.16813159,-0.8857502,-1.336952,-1.4864595,-0.18168122,-2.610619,-0.055856705,-0.03253126,-0.024079084,-0.077928305,0.027005434,0.047751904,0.05725813,0.05799818,0.015852451,0.026644707,0.015438156,0.010938341,0.84683764,0.0003679485,0.12641795
21779224000,21779144000,-1.5995541,0.16825156,-0.88758105,-1.3387841,-1.4882922,-0.1835091,-2.612452,-0.052574396,-0.032327175,-0.02442503,-0.066940546,0.030810356,0.0168252,0.030759335,0.033213615,-0.018196106,0.014019489,0.015434092,0.010937054,0.84679633,0.000367857,0.12646465
21780216000,21780136000,-1.6000216,0.16862798,-0.8876964,-1.3389361,-1.4884545,-0.18360521,-2.6126795,-0.021091461,0.0030274391,0.012246132,-0.039889336,0.07424736,0.05175972,0.06637573,0.06866121,0.012594223,0.042986393,0.015431391,0.010932425,0.8465125,0.00036843383,0.12675522
21781224000,21781144000,-1.6011114,0.16925842,-0.8881306,-1.3394177,-1.4889444,-0.18398535,-2.6132379,-0.06554818,-0.04425764,-0.03557086,-0.07746482,0.02978468,0.05943775,0.07788229,0.081665516,0.017717838,0.06682396,0.01540813,0.010921206,0.84598434,0.00036841282,0.1273179
21782224000,21782144000,-1.6023468,0.16959633,-0.88905483,-1.3403655,-1.4898978,-0.18488681,-2.6142268,-0.019201756,0.0055201054,0.01472044,-0.040557146,0.07352066,0.04481268,0.05731964,0.05886793,0.007865906,0.029051304,0.015398131,0.010915987,0.84573466,0.0003684827,0.12758268
21783216000,21783136000,-1.6040297,0.17015575,-0.8901608,-1.3415031,-1.4910378,-0.18593696,-2.615401,-0.070099115,-0.044367075,-0.034777164,-0.09222627,0.026670456,0.0645318,0.07767773,0.07932758,0.025911331,0.048462868,0.01536906,0.010904884,0.84527016,0.00036794896,0.12808803
21784224000,21784144000,-1.6055846,0.17059995,-0.8912826,-1.3426776,-1.4922278,-0.18703946,-2.6166894,-0.072674036,-0.044830322,-0.033895254,-0.0919292,0.04330778,0.0701704,0.08997393,0.09353542,0.021176338,0.06799173,0.01537159,0.01089999,0.84492224,0.00036900662,0.12843713
21785216000,21785136000,-1.6067196,0.1712485,-0.8917308,-1.3431652,-1.4927198,-0.18742257,-2.6172268,-0.09237337,-0.06460476,-0.05402255,-0.11429858,0.016752005,0.056621075,0.07313347,0.075651646,0.011943817,0.045609474,0.015338838,0.010887023,0.84436977,0.00036847612,0.12903588
21786216000,21786136000,-1.608141,0.17197427,-0.89238816,-1.3439301,-1.4935179,-0.18805385,-2.6182358,-0.037911177,-0.005216837,0.006914377,-0.06651878,0.083902836,0.0763793,0.09251785,0.0944252,0.028037548,0.054365635,0.015355896,0.010880351,0.8437562,0.00037105702,0.12963653
21787224000,21787144000,-1.6097233,0.1725846,-0.8933255,-1.3449069,-1.4944996,-0.18893208,-2.6192641,-0.065612555,-0.032729864,-0.020585775,-0.09484434,0.055801153,0.08373642,0.09942198,0.10116625,0.035815716,0.060103893,0.01532662,0.010868401,0.84323865,0.0003706507,0.13019563
21788224000,21788144000,-1.611327,0.17282876,-0.8947338,-1.3463757,-1.4959929,-0.19036096,-2.6208947,-0.062209368,-0.026151896,-0.013339281,-0.098511934,0.060736418,0.10754871,0.119701385,0.120004654,0.061513424,0.067855835,0.015357909,0.010870483,0.8430849,0.00037297636,0.13031372
21789216000,21789136000,-1.6124243,0.1732376,-0.8954141,-1.3470576,-1.4966674,-0.1909855,-2.6215382,-0.06056595,-0.020567656,-0.0069675446,-0.10602188,0.063397884,0.08506298,0.09238815,0.090768814,0.041925907,0.024246693,0.015318359,0.010859737,0.8427516,0.00037152166,0.13069879
21790224000,21790144000,-1.6130984,0.17324416,-0.8961465,-1.3477582,-1.4973563,-0.19170608,-2.62215,-0.048695803,-0.007386446,0.0066714287,-0.09556723,0.07955408,0.07945013,0.087118626,0.08547783,0.034751892,0.01692009,0.015295334,0.010856874,0.84280276,0.00037016315,0.13067481
21791224000,21791144000,-1.6140633,0.17327453,-0.8971603,-1.3487839,-1.4983898,-0.19273925,-2.6232176,-0.021173954,0.014508724,0.027045012,-0.05833125,0.09759283,0.0863595,0.096933365,0.09677839,0.042640686,0.043136597,0.015308756,0.010859247,0.842846,0.00037095344,0.1306151
21792224000,21792144000,-1.6145812,0.17331178,-0.89769787,-1.3492732,-1.4988589,-0.19324699,-2.6235638,-0.04330492,-0.0072767735,0.0060436726,-0.075255394,0.0900116,0.06674528,0.084049225,0.086006165,0.014036179,0.04118347,0.015268605,0.010853427,0.8428649,0.00036862816,0.13064443
21793224000,21793144000,-1.6161628,0.17365882,-0.8989264,-1.350461,-1.5000212,-0.19439803,-2.6245902,-0.05728817,-0.024485588,-0.012191057,-0.08493495,0.06754923,0.03228998,0.049756527,0.052088737,-0.017924309,0.013708115,0.015199751,0.0108390935,0.84258175,0.0003653135,0.13101423
21794224000,21794144000,-1.617728,0.17389387,-0.900282,-1.3517982,-1.5013463,-0.19571346,-2.6258476,-0.061237812,-0.03523469,-0.025600195,-0.0840497,0.035548925,0.055323124,0.06808758,0.06959963,0.016897678,0.037691593,0.015163091,0.01083113,0.8424152,0.00036362626,0.13122699
21795224000,21795144000,-1.6177639,0.17406505,-0.9001985,-1.3517125,-1.5012591,-0.19561447,-2.625746,-0.05541706,-0.034980536,-0.026680946,-0.067157745,0.035448074,0.03080368,0.04816723,0.051696777,-0.008866787,0.036972523,0.015150141,0.0108277565,0.8423204,0.00036313257,0.13133858
21796216000,21796136000,-1.6188043,0.17434953,-0.9009728,-1.3524649,-1.5019971,-0.19633803,-2.626404,-0.08103967,-0.067717075,-0.061199427,-0.079261065,0.00072717667,0.0081243515,0.030612469,0.03647518,-0.032166004,0.04266405,0.0151064675,0.010818156,0.8421064,0.0003611125,0.1316079
21797224000,21797144000,-1.6196065,0.17487203,-0.90122664,-1.3527343,-1.5022632,-0.19652753,-2.626662,-0.09511685,-0.08256674,-0.07539797,-0.08472371,0.00278306,0.0046520233,0.036183357,0.044999123,-0.046661377,0.065412045,0.01506705,0.010805866,0.8416665,0.00035988877,0.13210075
21798216000,21798136000,-1.6211447,0.17509355,-0.90257955,-1.3541061,-1.5036403,-0.19787012,-2.6280694,-0.092175245,-0.08288121,-0.07623315,-0.073111534,0.007521391,0.0052227974,0.042051792,0.052879333,-0.050184727,0.08701229,0.015063192,0.01080291,0.8415221,0.00036009663,0.13225177
21799224000,21799144000,-1.6222181,0.17553873,-0.9031917,-1.3547344,-1.5042673,-0.19843037,-2.6286972,-0.103940964,-0.101953745,-0.097788095,-0.076514244,-0.026815891,-0.018409252,0.017129421,0.028265953,-0.065988064,0.07463217,0.015031705,0.010792698,0.8411541,0.0003592091,0.1326623
21800224000,21800144000,-1.6225067,0.17585877,-0.90317833,-1.3547353,-1.5042697,-0.19838732,-2.6287112,-0.056001663,-0.055184364,-0.05194521,-0.031698942,0.0068211555,-0.038289547,-0.0082502365,0.0012493134,-0.077773094,0.04210329,0.015014744,0.010786592,0.84091306,0.0003588372,0.13292667
21801224000,21801144000,-1.6230596,0.17567742,-0.9040433,-1.3556106,-1.5051589,-0.19930945,-2.6296546,-0.042297363,-0.047983885,-0.04681301,-0.009358883,0.0033020973,-0.036099434,-0.0057902336,0.004436016,-0.070439816,0.058175087,0.015051667,0.010795475,0.84116983,0.00036049265,0.13262254
21802224000,21802144000,-1.623012,0.17553134,-0.9042591,-1.3558226,-1.5053768,-0.19956402,-2.629887,-0.03966999,-0.05015731,-0.051057577,-0.004944086,-0.017798662,-0.025259018,-0.00020551682,0.008821487,-0.048763275,0.06439924,0.015072551,0.010801473,0.8413857,0.00036130543,0.13237895
21803224000,21803144000,-1.6240727,0.17554414,-0.9053908,-1.3569484,-1.5065026,-0.20070606,-2.6310017,-0.024523735,-0.039458036,-0.04192233,0.014890194,-0.01738286,-0.03497219,-0.011192322,-0.002129078,-0.053076267,0.060218334,0.015073552,0.010802422,0.8414452,0.0003612753,0.13231753
21804216000,21804136000,-1.6241845,0.17555365,-0.9055791,-1.3571383,-1.5066972,-0.20091088,-2.6312075,-0.071457624,-0.08948827,-0.09269786,-0.025903702,-0.067667484,-0.044220448,-0.017903805,-0.0077319145,-0.062978745,0.06414366,0.015081964,0.010804531,0.8415093,0.00036167717,0.1322425
21805216000,21805136000,-1.6255237,0.17514248,-0.9075049,-1.3590498,-1.5086163,-0.20291671,-2.6331408,-0.038857937,-0.056047916,-0.059001684,0.005486965,-0.03304577,-0.027160645,-0.0009775162,0.009060383,-0.046452522,0.07913065,0.015124454,0.0108174775,0.8419857,0.0003631408,0.13170925
21806216000,21806136000,-1.625789,0.17512128,-0.9078837,-1.3594245,-1.5089935,-0.20331335,-2.6335177,-0.0573771,-0.06859231,-0.06991339,-0.0232234,-0.041143417,-0.014280796,0.008983135,0.017493725,-0.034845352,0.07196283,0.015131567,0.01081981,0.84207934,0.00036339418,0.1316059
21807216000,21807136000,-1.4903778,0.03007843,-0.95684993,-1.3610814,-1.5038102,-0.29458568,-2.5734177,0.39801574,-0.47209036,-0.81044614,1.0547154,-3.124105,-0.06940079,-0.62104964,-0.7101526,1.3935528,0.17718172,0.026238581,0.015565819,0.95496774,0.00018044171,0.0030473818
21808224000,21808144000,-1.2009382,0.019029377,-1.0083779,-1.1845119,-1.2589037,-0.66357255,-1.922655,0.11574833,-0.56542265,-0.8805172,1.3703175,-3.9897923,0.42998615,0.08402449,-0.040109187,1.391346,-0.044884965,0.21517204,0.05772707,0.7269121,9.442043e-05,9.442043e-05
21809224000,21809144000,-1.1580336,0.011710426,-1.0428623,-1.1562593,-1.2078488,-0.79559404,-1.7480443,-0.1990253,-0.55154014,-0.7309369,0.7313175,-3.1652493,0.67944854,0.4612108,0.34441423,1.162684,-0.23087281,0.27996224,0.07157535,0.6482774,9.251196e-05,9.251196e-05
21810224000,21810144000,-1.1264327,0.007870166,-1.0465817,-1.1223074,-1.1596093,-0.8612697,-1.6087632,-0.55773926,-0.71809644,-0.80721486,0.05726379,-2.4103684,1.171018,1.0565956,0.97284955,1.3484488,0.31390905,0.26944536,0.074005574,0.65625745,0.00014585957,0.00014585957
21811224000,21811144000,-1.1147221,0.006438505,-1.0513872,-1.1039604,-1.1339545,-0.8966555,-1.5581919,-0.90072125,-0.90053636,-0.8997642,-0.6997047,-1.2560084,1.4578128,1.4363269,1.3983551,1.3846684,0.9924636,0.20950666,0.06621995,0.72368443,0.00030543192,0.00028350748
21812224000,21812144000,-1.1159867,0.006168067,-1.0594605,-1.1020306,-1.1297514,-0.9132676,-1.559933,-0.9139652,-0.88014525,-0.8529798,-0.8721819,-0.6599418,1.428447,1.4408618,1.4281473,1.2666401,1.283088,0.1752533,0.059182826,0.76409984,0.0006642793,0.0007998103
21813224000,21813144000,-1.1127975,0.006173785,-1.060369,-1.097044,-1.1235205,-0.91931003,-1.556237,-0.76062393,-0.7262736,-0.69478524,-0.7797325,-0.31602168,1.0895654,1.1090049,1.1075692,0.9194087,1.0972373,0.15715714,0.054438222,0.78509986,0.0011958273,0.0021088528
21814216000,21814136000,-1.1079993,0.0062666642,-1.0578359,-1.0913821,-1.1171694,-0.92007005,-1.5491732,-0.57501644,-0.5497158,-0.52439505,-0.5997346,-0.18351386,0.800836,0.8178852,0.8199423,0.65888053,0.85999817,0.14949344,0.051958885,0.7935344,0.0017237018,0.00328958
21815216000,21815136000,-1.0964264,0.0063637607,-1.0508208,-1.0781944,-1.1042871,-0.923573,-1.5565646,-0.35369527,-0.33760107,-0.32074296,-0.36655378,-0.09529704,0.5567159,0.56736773,0.5682394,0.45966446,0.59380335,0.146686,0.05086174,0.7964839,0.0021048181,0.0038635917
21816224000,21816144000,-1.096854,0.0064897463,-1.0517489,-1.0783769,-1.1043054,-0.92531425,-1.5564307,-0.19760768,-0.1891389,-0.18007793,-0.19847766,-0.072014645,0.30316675,0.3071761,0.30575266,0.25250423,0.2967949,0.14478692,0.05024751,0.7983517,0.0023209176,0.0042928914
21817224000,21817144000,-1.0978141,0.006596079,-1.0528367,-1.079227,-1.1051073,-0.9266452,-1.557294,-0.1414007,-0.13649261,-0.13120951,-0.13734798,-0.075259574,0.20042077,0.20248404,0.2009477,0.16835627,0.18987703,0.1440082,0.05003917,0.79909694,0.0023838629,0.0044717733
21818224000,21818144000,-1.0985855,0.006687661,-1.0536655,-1.0799502,-1.1058127,-0.92759025,-1.5580825,-0.107187174,-0.104661606,-0.10194031,-0.0999839,-0.07980188,0.100354925,0.10150476,0.10021625,0.079492435,0.09271222,0.14366584,0.049950372,0.7994266,0.0024132214,0.0045438427
21819216000,21819136000,-1.0995775,0.006769333,-1.0546786,-1.0809253,-1.1067861,-0.9286663,-1.5591314,-0.07278319,-0.07197639,-0.07110466,-0.06291619,-0.071887866,0.003944376,0.0049879365,0.0042702323,-0.011359582,0.006175946,0.14354576,0.04992324,0.7995478,0.002423303,0.004559979
21820216000,21820136000,-1.0998123,0.006845413,-1.0549146,-1.0811642,-1.1070317,-0.92892253,-1.5594666,-0.0631136,-0.064386986,-0.06575346,-0.04722429,-0.09787055,-0.09012448,-0.08912154,-0.08938614,-0.10120765,-0.07668471,0.14355773,0.04993075,0.79954445,0.0024258792,0.0045411102
21821216000,21821136000,-1.0998969,0.0069208476,-1.0549724,-1.0812496,-1.107129,-0.92896813,-1.5596579,-0.0069810934,-0.010464663,-0.014209231,0.016015919,-0.08157635,-0.15375933,-0.1530516,-0.1531121,-0.15987143,-0.13267122,0.14357868,0.049949892,0.79952806,0.0024172503,0.0045261495
21822216000,21822136000,-1.1004939,0.0069922614,-1.0555553,-1.0818539,-1.1077437,-0.9295501,-1.5603423,-0.0010680193,-0.0060125277,-0.011339983,0.02686925,-0.1047364,-0.20747802,-0.20756094,-0.20798199,-0.20802133,-0.19023344,0.14363109,0.04996882,0.79948604,0.002412125,0.00450182
21823224000,21823144000,-1.1011539,0.007061651,-1.0562057,-1.0825223,-1.1084216,-0.93020207,-1.5610752,0.024169747,0.017948875,0.011247666,0.056799095,-0.1040499,-0.2559286,-0.25637493,-0.25689656,-0.25327703,-0.23752262,0.14368547,0.049983878,0.7994449,0.0024089203,0.004476726
21824224000,21824144000,-1.1015708,0.007132883,-1.0565909,-1.0829277,-1.108836,-0.93056685,-1.5615572,0.05984312,0.052520253,0.044630617,0.09648207,-0.09038064,-0.31561366,-0.31659454,-0.3173721,-0.30926144,-0.29941466,0.14365093,0.049979847,0.7994817,0.002401914,0.004485687
21825216000,21825136000,-1.1023278,0.0072096265,-1.0573106,-1.0836548,-1.1095678,-0.93127584,-1.5623239,0.09250717,0.08451474,0.07589021,0.1314956,-0.073452465,-0.32889286,-0.33081007,-0.33221212,-0.3176778,-0.32289833,0.14352655,0.0499535,0.7995991,0.002393056,0.00452785
21826224000,21826144000,-1.1031425,0.0072809914,-1.0581082,-1.0844538,-1.1103679,-0.9320843,-1.5631049,0.10243806,0.09423934,0.08538066,0.14176838,-0.06987825,-0.30842105,-0.31113666,-0.3130879,-0.29329932,-0.3127668,0.14345716,0.04992635,0.7996763,0.0023895707,0.0045507173
21827224000,21827144000,-1.1042528,0.0073465095,-1.05922,-1.0855621,-1.1114769,-0.9332245,-1.5641768,0.10122353,0.09299376,0.084088475,0.14023244,-0.073762074,-0.31577837,-0.31916356,-0.32158712,-0.29749608,-0.32944214,0.14346404,0.049902905,0.7996871,0.002392357,0.004553573
21828216000,21828136000,-1.1050436,0.0074082897,-1.0600247,-1.0863649,-1.1122807,-0.93405646,-1.5649498,0.109109715,0.101307854,0.092856824,0.14583242,-0.057834994,-0.30335152,-0.30690572,-0.3094465,-0.2843882,-0.3211505,0.14354825,0.04988892,0.79962564,0.0024007878,0.0045364676
21829216000,21829136000,-1.1054369,0.007464824,-1.0604401,-1.0867854,-1.1127067,-0.934482,-1.5654118,0.11192821,0.10420381,0.095845975,0.14822096,-0.05154544,-0.31832686,-0.32142547,-0.32360643,-0.30126387,-0.32976666,0.14375257,0.049886137,0.79944503,0.002418962,0.004497291
21830224000,21830144000,-1.1061846,0.0075330487,-1.0611875,-1.0875334,-1.1134596,-0.9352354,-1.566213,0.091171585,0.08370388,0.07562935,0.12622611,-0.06595205,-0.30360034,-0.3063853,-0.3083257,-0.28796065,-0.31156182,0.14381474,0.04987147,0.7993886,0.0024277745,0.004497398
21831224000,21831144000,-1.1070645,0.0075972807,-1.0620737,-1.0884204,-1.114353,-0.93612945,-1.5671729,0.09931562,0.09143703,0.08291937,0.13619943,-0.066452324,-0.33558837,-0.33856556,-0.34063253,-0.3188583,-0.34449923,0.14392383,0.049861174,0.7992882,0.0024404614,0.0044864262
21832224000,21832144000,-1.1074071,0.0076603172,-1.0624237,-1.0887723,-1.1147091,-0.9364811,-1.5675715,0.08750084,0.07928519,0.070417084,0.1260568,-0.08307595,-0.32306573,-0.32558227,-0.3272887,-0.30814543,-0.32385004,0.1440194,0.04985134,0.79920393,0.002452269,0.004473181
21833224000,21833144000,-1.1077567,0.0077144485,-1.0627897,-1.0891414,-1.1150839,-0.9368508,-1.5680025,0.06951329,0.060983263,0.051787518,0.109619565,-0.105711326,-0.37406346,-0.3761939,-0.37759674,-0.36064416,-0.36790136,0.14416182,0.049846407,0.7990807,0.0024688647,0.0044422285
21834216000,21834136000,-1.1076986,0.007770474,-1.0627531,-1.0891068,-1.1150498,-0.93682253,-1.5679626,0.046688195,0.038384248,0.029443037,0.085832044,-0.12207684,-0.33299586,-0.33459246,-0.3355961,-0.32200125,-0.32010725,0.14427096,0.049846917,0.7989951,0.0024809102,0.0044061476
21835224000,21835144000,-1.1080251,0.007842014,-1.0630572,-1.0894068,-1.1153486,-0.9371248,-1.5682492,0.07389609,0.06552244,0.056513302,0.11344628,-0.09501986,-0.32566935,-0.32694262,-0.3276991,-0.31603914,-0.3078027,0.1441199,0.049812727,0.7991449,0.0024764463,0.004445999
21836216000,21836136000,-1.1087408,0.007905535,-1.0637724,-1.090116,-1.116057,-0.9378578,-1.5689374,0.06252847,0.05426804,0.04537087,0.101429924,-0.10566729,-0.32398164,-0.32565767,-0.32671943,-0.31264204,-0.3123918,0.14406776,0.049792532,0.7992083,0.002478032,0.004453354
21837224000,21837144000,-1.1094618,0.007968777,-1.0644901,-1.0908282,-1.1167693,-0.9385896,-1.5696393,0.062144026,0.054123066,0.045487612,0.0999771,-0.10032916,-0.30530804,-0.30670467,-0.30756187,-0.29529786,-0.2907146,0.14401422,0.04976854,0.799272,0.0024805167,0.0044647907
21838224000,21838144000,-1.1099191,0.008030465,-1.0649618,-1.0912935,-1.1172322,-0.93908876,-1.5700443,0.039805025,0.032086357,0.023774138,0.07621418,-0.116618164,-0.28945786,-0.29081398,-0.29164836,-0.2797703,-0.27557465,0.14401607,0.049758907,0.79929066,0.0024842022,0.0044503096
21839224000,21839144000,-1.1102163,0.008092856,-1.0652745,-1.0916038,-1.1175424,-0.9394184,-1.570332,0.041137516,0.034335904,0.027013168,0.07328275,-0.09595231,-0.2671325,-0.26811573,-0.26869312,-0.25951952,-0.251836,0.14406122,0.04975765,0.7992631,0.0024903861,0.0044275974
21840224000,21840144000,-1.1108749,0.0081617255,-1.0659337,-1.092259,-1.1181986,-0.94009167,-1.5709879,0.030831503,0.024286078,0.017242795,0.061839487,-0.10017767,-0.2686856,-0.26937714,-0.26974183,-0.26246965,-0.2502827,0.14403303,0.04974901,0.7992978,0.0024914574,0.004428708
21841224000,21841144000,-1.111352,0.008235063,-1.0663916,-1.0927141,-1.1186546,-0.94054693,-1.5714595,0.04192955,0.035763882,0.02912902,0.07117012,-0.081193924,-0.2509769,-0.2515422,-0.25182214,-0.24549562,-0.23238589,0.14391884,0.049726803,0.799407,0.002487731,0.0044596004
21842224000,21842144000,-1.1119746,0.008305546,-1.0670111,-1.0933332,-1.1192788,-0.9411669,-1.5721431,0.025056753,0.01867881,0.0118135335,0.05526964,-0.10274327,-0.27445734,-0.27516225,-0.27554214,-0.26826143,-0.25695702,0.14392638,0.04972302,0.7993992,0.0024913994,0.0044599297
21843224000,21843144000,-1.1120834,0.0083624525,-1.067151,-1.0934796,-1.1194327,-0.94130677,-1.572378,-0.032119274,-0.038535133,-0.04542827,-0.0016025342,-0.15871856,-0.2787428,-0.27893367,-0.27892452,-0.27477023,-0.25368094,0.14413747,0.04975154,0.79920715,0.0025081565,0.0043956917
21844216000,21844136000,-1.1122134,0.008423897,-1.0672934,-1.0936215,-1.119575,-0.9414576,-1.5725147,-0.029210612,-0.03593965,-0.04314486,0.0030724034,-0.15797664,-0.2711235,-0.27024886,-0.26942873,-0.2716446,-0.22935967,0.14415334,0.04975964,0.7992052,0.0025110333,0.004370773
21845224000,21845144000,-1.1128638,0.008497457,-1.0679262,-1.0942464,-1.1201974,-0.9421036,-1.5730999,0.00045569055,-0.006286716,-0.01349582,0.032945003,-0.12666756,-0.2628717,-0.26147965,-0.26026934,-0.26564428,-0.2135841,0.1439595,0.049741104,0.79939735,0.0024997005,0.0044023334
21846216000,21846136000,-1.1132122,0.008567816,-1.0682636,-1.0945791,-1.1205285,-0.94244915,-1.5734012,0.017125193,0.010530859,0.003463339,0.048721984,-0.109856114,-0.25914395,-0.25848866,-0.25783816,-0.2587742,-0.2211072,0.14382628,0.049728572,0.7995322,0.0024925352,0.004420504
21847224000,21847144000,-1.1138463,0.008638103,-1.0688823,-1.095194,-1.1211444,-0.94307107,-1.5740299,0.013853509,0.0075147664,0.00071286596,0.04411971,-0.10969983,-0.24653418,-0.24630794,-0.24598636,-0.24441652,-0.21578825,0.14370035,0.04971415,0.7996556,0.0024870497,0.004442836
21848224000,21848144000,-1.1143827,0.008703349,-1.0694263,-1.0957333,-1.121683,-0.9436346,-1.5745417,0.02421103,0.017963212,0.011250693,0.053954776,-0.09885226,-0.22513242,-0.22525153,-0.22519298,-0.22155225,-0.19975603,0.14367522,0.04971214,0.79969203,0.0024872734,0.004433288
21849216000,21849136000,-1.1146938,0.00876675,-1.0697534,-1.0960556,-1.1220028,-0.9439859,-1.5748073,0.0010960196,-0.004745788,-0.011023204,0.0289348,-0.11375623,-0.20596755,-0.2060098,-0.20590487,-0.20292245,-0.18123373,0.1436826,0.04971438,0.7997016,0.0024890606,0.0044123637
21850224000,21850144000,-1.1153448,0.008835867,-1.0704079,-1.0967054,-1.1226519,-0.944658,-1.5754327,0.0073757907,0.0023314569,-0.0030994974,0.03135737,-0.09290028,-0.1887268,-0.18904082,-0.18916279,-0.18488735,-0.17134617,0.14364901,0.049709275,0.7997427,0.0024886152,0.0044104564
