timestamp,timestamp_sample,states[0],states[1],states[2],states[3],states[4],states[5],states[6],states[7],states[8],states[9],states[10],states[11],states[12],states[13],states[14],states[15],states[16],states[17],states[18],states[19],states[20],states[21],states[22],states[23],covariances[0],covariances[1],covariances[2],covariances[3],covariances[4],covariances[5],covariances[6],covariances[7],covariances[8],covariances[9],covariances[10],covariances[11],covariances[12],covariances[13],covariances[14],covariances[15],covariances[16],covariances[17],covariances[18],covariances[19],covariances[20],covariances[21],covariances[22],covariances[23],n_states
21727152000,21727072000,0.8600431,0.00047264263,-0.0031058546,-0.51021177,-0.00041481658,0.00056559464,0.0010475856,-0.66580427,-1.1535316,0.13740724,8.474295e-06,7.7661673e-07,-1.988094e-06,-0.00012203004,-1.8413986e-05,-0.00024347412,0.19278048,-0.016818365,0.489507,0.012723287,-0.0057870857,-0.001231411,0.0,0.0,2.1743977e-05,4.790454e-06,4.8241786e-06,5.9436657e-05,4.917958e-05,4.9179467e-05,4.99057e-05,0.0012035428,0.0012035103,0.003062424,8.846078e-12,8.846205e-12,2.2944084e-11,8.709743e-08,8.754841e-08,5.000022e-08,0.0,0.0,0.0,0.0,0.0,0.0,0.0,0.0,24
21728152000,21728072000,0.8600039,0.0004288134,-0.0033234437,-0.5102766,-9.601317e-05,-6.929933e-05,-0.00031691094,-0.66544914,-1.1536363,0.13784337,8.251799e-06,8.6637664e-07,-1.9998245e-06,-0.0001220749,-1.8406561e-05,-0.0002525039,0.19278048,-0.016818365,0.489507,0.012723287,-0.0057870857,-0.001231411,0.0,0.0,2.1761085e-05,4.7670624e-06,4.8006527e-06,5.944897e-05,8.878082e-06,8.87808e-06,8.900981e-06,0.0012016097,0.0012015778,0.0030532929,8.825654e-12,8.8258255e-12,2.2948456e-11,8.7101846e-08,8.7552856e-08,5.0000036e-08,0.0,0.0,0.0,0.0,0.0,0.0,0.0,0.0,24
21729152000,21729072000,0.8601204,0.0005688087,-0.003464762,-0.5100791,-0.0011880893,-0.0012015785,0.002412788,-0.66577506,-1.1537249,0.13848121,7.954553e-06,8.560327e-07,-2.0174068e-06,-0.00012210384,-1.8418154e-05,-0.000261432,0.19278048,-0.016818365,0.489507,0.012723287,-0.0057870857,-0.001231411,0.0,0.0,2.1758719e-05,4.8679467e-06,4.9015316e-06,5.948182e-05,0.00018872779,0.00018872703,0.0001979182,0.0012007391,0.0012007076,0.0030453994,8.911604e-12,8.9119484e-12,2.2952985e-11,8.710637e-08,8.755734e-08,5.000081e-08,0.0,0.0,0.0,0.0,0.0,0.0,0.0,0.0,24
21730152000,21730072000,0.8600222,0.001082546,-0.0033559662,-0.5102444,-0.00013826932,-0.003383755,0.00292589,-0.66542155,-1.1538708,0.13806449,7.7060595e-06,7.2571123e-07,-2.04507e-06,-0.00012207348,-1.840296e-05,-0.00027480995,0.19278048,-0.016818365,0.489507,0.012723287,-0.0057870857,-0.001231411,0.0,0.0,2.1787531e-05,4.842616e-06,4.876513e-06,5.9484813e-05,0.00014332717,0.00014332432,0.00014891128,0.0011964712,0.0011964401,0.003035419,8.890698e-12,8.891178e-12,2.2957783e-11,8.7110436e-08,8.756139e-08,5.0000516e-08,0.0,0.0,0.0,0.0,0.0,0.0,0.0,0.0,24
21731144000,21731064000,0.86005336,0.0012303677,-0.0032274479,-0.51019233,0.00045317202,-0.00050945795,-0.0014841189,-0.6654538,-1.154013,0.13802214,7.766144e-06,6.9754026e-07,-2.0486434e-06,-0.00012207824,-1.8411241e-05,-0.00026442687,0.19278048,-0.016818365,0.489507,0.012723287,-0.0057870857,-0.001231411,0.0,0.0,2.1785316e-05,4.8154297e-06,4.8495035e-06,5.9486654e-05,9.105813e-05,9.105819e-05,9.341011e-05,0.0011940496,0.0011940189,0.0030259322,8.866548e-12,8.86681e-12,2.2958772e-11,8.711475e-08,8.7565745e-08,5.0000406e-08,0.0,0.0,0.0,0.0,0.0,0.0,0.0,0.0,24
21732144000,21732064000,0.8599653,0.0011960245,-0.0031715431,-0.51034135,0.001124492,0.00047033007,0.000766247,-0.6655625,-1.1536266,0.13812779,7.794745e-06,6.561327e-07,-2.0061457e-06,-0.00012208555,-1.8414486e-05,-0.00025489822,0.19278048,-0.016818365,0.489507,0.012723287,-0.0057870857,-0.001231411,0.0,0.0,2.1798816e-05,4.7925605e-06,4.8266406e-06,5.9505343e-05,4.9181235e-05,4.9181595e-05,4.990575e-05,0.0011920648,0.0011920346,0.0030169599,8.846228e-12,8.846379e-12,2.296388e-11,8.711905e-08,8.757016e-08,5.000022e-08,0.0,0.0,0.0,0.0,0.0,0.0,0.0,0.0,24
21733152000,21733072000,0.86012846,0.0011808114,-0.0032759933,-0.5100656,-0.00051822525,0.0036278218,0.00488051,-0.66568154,-1.15339,0.13865821,7.814211e-06,9.0087036e-07,-2.0287564e-06,-0.0001221311,-1.8454873e-05,-0.00015813588,0.19278048,-0.016818365,0.489507,0.012723287,-0.0057870857,-0.001231411,0.0,0.0,2.1725335e-05,4.9056157e-06,4.9395485e-06,5.9360224e-05,0.0002452788,0.00024527416,0.00025997942,0.0011932355,0.0011932056,0.003011462,8.937637e-12,8.9375755e-12,2.2936895e-11,8.712311e-08,8.7574264e-08,5.000066e-08,0.0,0.0,0.0,0.0,0.0,0.0,0.0,0.0,24
21734152000,21734072000,0.85994166,0.0013120796,0.002979667,-0.51038206,-0.018361965,0.015662279,-0.03935772,-0.66835165,-1.145208,0.14800109,7.818786e-06,9.0733585e-07,-1.99278e-06,-0.00012213257,-1.8451745e-05,-0.00015616261,0.19278048,-0.016818365,0.489507,0.012723287,-0.0057870857,-0.001231411,0.0,0.0,2.1755417e-05,5.5203423e-06,5.5548626e-06,5.936944e-05,0.0019939619,0.001993946,0.0023204011,0.002027696,0.0020276434,0.0039945766,9.4260025e-12,9.425931e-12,2.2942398e-11,8.712764e-08,8.75788e-08,5.0000114e-08,0.0,0.0,0.0,0.0,0.0,0.0,0.0,0.0,24
21735152000,21735072000,0.86021763,0.0015296816,-0.0045759496,-0.5099043,-0.007928326,-0.0070525086,-1.4343158,-0.691502,-1.1367476,-0.8051147,7.803468e-06,9.411639e-07,-1.9827492e-06,-0.00012149672,-1.8084274e-05,-0.00016425876,0.19278048,-0.016818365,0.489507,0.012723287,-0.0057870857,-0.001231411,0.0,0.0,2.1799624e-05,5.9822282e-06,6.0146735e-06,5.9642378e-05,0.0050264825,0.005026069,0.005516574,0.0072703403,0.007270288,0.0104601905,9.784561e-12,9.7844875e-12,2.298317e-11,8.7065956e-08,8.751649e-08,5.000015e-08,0.0,0.0,0.0,0.0,0.0,0.0,0.0,0.0,24
21736152000,21736072000,0.8709637,0.0036859226,-0.0016464449,-0.49133086,0.002070412,-0.008833446,-0.5267223,-0.68193287,-1.1552194,-1.7314023,7.765539e-06,1.031243e-06,-1.9841327e-06,-0.00012344435,-1.9152578e-05,-0.00013819247,0.19333822,-0.01666349,0.4894435,0.012723287,-0.0057870857,-0.001231411,0.0,0.0,0.0002895937,6.40871e-06,6.4570627e-06,0.0009817496,0.006526748,0.006515514,0.008991539,0.018768534,0.018768236,0.027536273,1.0032953e-11,1.0032903e-11,2.3313688e-11,8.677604e-08,8.722364e-08,5.000011e-08,0.0,0.0,0.0,0.0,0.0,0.0,0.0,0.0,24
21737152000,21737072000,0.86737823,0.0038384215,0.00034406007,-0.49763462,-0.012582554,0.0015961124,-0.1918193,-0.6734875,-1.1581086,-2.0788932,7.71595e-06,1.0561084e-06,-1.9756392e-06,-0.00012470395,-2.4585439e-05,-0.00012262241,0.19333822,-0.01666349,0.4894435,0.012723287,-0.0057870857,-0.001231411,0.0,0.0,0.00016186465,6.3938023e-06,6.4328083e-06,0.0005494185,0.010744674,0.010693955,0.011813037,0.033059355,0.03304946,0.055664256,1.03495676e-11,1.0349424e-11,2.3824871e-11,8.311979e-08,8.353133e-08,5.000011e-08,0.0,0.0,0.0,0.0,0.0,0.0,0.0,0.0,24
21738144000,21738064000,0.8650686,0.011749674,0.005072215,-0.50149035,-0.012672965,0.027325137,-0.010136357,-0.6711262,-1.1522236,-2.107662,7.677339e-06,1.0725124e-06,-1.9605616e-06,-0.0001248976,-3.413141e-05,-0.000115576426,0.19333822,-0.01666349,0.4894435,0.012723287,-0.0057870857,-0.001231411,0.0,0.0,0.000110239685,5.901941e-06,5.9755243e-06,0.00037352095,0.014267272,0.014204697,0.0134128425,0.047890984,0.04786337,0.08851952,1.0734213e-11,1.0733832e-11,2.4330234e-11,7.603226e-08,7.638206e-08,5.000011e-08,0.0,0.0,0.0,0.0,0.0,0.0,0.0,0.0,24
21739152000,21739072000,0.85344887,0.11562377,0.068211995,-0.50359035,-0.0069607846,0.9777171,-0.5674254,-0.65955,-0.7847128,-2.4394705,7.647789e-06,1.0954894e-06,-1.9493243e-06,-0.0001298194,-4.198025e-05,-0.00010853621,0.19333822,-0.01666349,0.4894435,0.012723287,-0.0057870857,-0.001231411,0.0,0.0,8.4833315e-05,6.7868573e-06,9.497359e-06,0.00027879546,0.013750715,0.01292131,0.013124407,0.053580377,0.053560104,0.11380948,1.1157636e-11,1.11567e-11,2.4841502e-11,6.849508e-08,6.881245e-08,5.000011e-08,0.0,0.0,0.0,0.0,0.0,0.0,0.0,0.0,24
21740144000,21740064000,0.8481842,0.09666094,0.1645174,-0.49413982,-1.3265531,2.6712277,-2.0487123,-1.2077714,1.1166956,-3.6754193,7.546389e-06,1.1384112e-06,-1.9306162e-06,-0.00013960603,-6.902804e-05,-0.00011970368,0.19250119,-0.016588395,0.4914453,0.011105832,-0.0062626777,0.0009107666,0.0,0.0,6.957059e-05,1.18999615e-05,6.6457624e-06,0.00023787703,0.015332656,0.014310989,0.013073661,0.061351668,0.061296914,0.13684553,1.16110975e-11,1.1604385e-11,2.5347429e-11,6.55584e-08,6.620267e-08,5.000004e-08,0.0012844114,2.4071764e-05,0.0012935844,0.00068528566,0.00094940723,0.0011866018,0.0,0.0,24
21741152000,21741072000,0.84779036,0.10093245,0.16612597,-0.4934232,-1.8426008,3.4400349,-3.342426,-2.809952,4.2859387,-6.422138,7.4682443e-06,1.0759809e-06,-1.9241695e-06,-0.00012955141,-7.950271e-05,-0.00012813165,0.19200172,-0.016552132,0.49150664,0.011790008,-0.007326022,0.001232799,0.0,0.0,6.090922e-05,9.845125e-06,6.26311e-06,0.00021174384,0.013374733,0.013252733,0.013081418,0.067377776,0.06728892,0.15432388,1.2066333e-11,1.20398925e-11,2.5859386e-11,6.425774e-08,6.5390665e-08,5.0000075e-08,0.0012576357,2.356399e-05,0.0012665867,0.000612898,0.00090206106,0.0011538948,0.0,0.0,24
21742152000,21742072000,0.84753805,0.1046297,0.17230332,-0.49096173,-2.1495063,3.9370527,-4.1648865,-4.808217,8.022705,-10.204597,7.4310037e-06,1.0196155e-06,-1.9326267e-06,-0.00012209138,-8.2562634e-05,-0.00013495158,0.1919947,-0.016556239,0.49173743,0.012137066,-0.007733002,0.0016913334,0.0,0.0,5.77568e-05,9.497072e-06,6.3469533e-06,0.00020394317,0.012274269,0.0123477895,0.013252254,0.07194274,0.071877375,0.16570054,1.2491077e-11,1.2438054e-11,2.6353354e-11,6.349917e-08,6.50495e-08,5.000011e-08,0.0012494731,2.3209128e-05,0.0012577572,0.00059366546,0.0008861666,0.001140546,0.0,0.0,24
21743152000,21743072000,0.84658724,0.10708085,0.17810301,-0.49000317,-2.3800895,4.2950625,-4.6895227,-7.080502,12.194269,-14.668289,7.3747096e-06,9.305455e-07,-1.962486e-06,-0.000116938776,-8.4279156e-05,-0.00013389451,0.19209307,-0.016567975,0.4918134,0.012345225,-0.007966163,0.0020092821,0.0,0.0,5.7251924e-05,9.590711e-06,6.5004433e-06,0.00020307372,0.010278046,0.010224569,0.012710922,0.06655442,0.06652336,0.16698842,1.2789196e-11,1.2704658e-11,2.6782828e-11,6.257179e-08,6.4813314e-08,5.000011e-08,0.0012448014,2.2891027e-05,0.0012512302,0.00058601017,0.0008773693,0.0011304022,0.0,0.0,24
21744152000,21744072000,0.8458087,0.10895163,0.18217617,-0.48943758,-2.5302193,4.548596,-5.0320992,-9.545047,16.653683,-19.568443,7.351641e-06,8.4493377e-07,-1.9816885e-06,-0.00011514755,-8.531981e-05,-0.00012927073,0.19207892,-0.01656949,0.49180102,0.01246157,-0.008267199,0.0022035956,0.0,0.0,5.7077476e-05,1.0153393e-05,6.9133994e-06,0.0002022685,0.010429585,0.010165258,0.012938862,0.06841638,0.06840797,0.16945104,1.3002069e-11,1.2900468e-11,2.7138021e-11,6.169299e-08,6.467978e-08,5.0000036e-08,0.0012410295,2.2589576e-05,0.001244567,0.0005819127,0.0008715543,0.0011209723,0.0,0.0,24
21745152000,21745072000,0.84507877,0.11011875,0.18602882,-0.48898774,-2.6405349,4.7459707,-5.2465343,-12.141238,21.332853,-24.736614,7.350586e-06,7.7367287e-07,-1.9929637e-06,-0.00011330244,-8.581882e-05,-0.00012673979,0.19241934,-0.01660413,0.49173993,0.012374831,-0.008581994,0.0026982592,0.0,0.0,5.626073e-05,1.0908203e-05,7.355725e-06,0.0001986688,0.0109467665,0.010523222,0.013311505,0.0704105,0.07039088,0.1727837,1.3117657e-11,1.2992626e-11,2.7405944e-11,6.0747716e-08,6.4578934e-08,5.0000036e-08,0.0012372581,2.2279211e-05,0.0012368656,0.0005787469,0.0008667926,0.0011110009,0.0,0.0,24
21746152000,21746072000,0.84467053,0.11097431,0.18867558,-0.48848546,-2.7275598,4.878988,-5.382956,-14.846165,26.17019,-30.065514,7.373691e-06,7.016608e-07,-1.9757479e-06,-0.000109551256,-8.5542975e-05,-0.00013083797,0.1924015,-0.016602265,0.49169207,0.012412617,-0.008561002,0.002714964,0.0,0.0,4.7990325e-05,1.0981021e-05,7.5339385e-06,0.00016834421,0.011435751,0.0109924,0.013619729,0.07235542,0.07228769,0.17511424,1.3182294e-11,1.2997318e-11,2.7558058e-11,5.978438e-08,6.435408e-08,5.000007e-08,0.0,0.0,0.0,0.0,0.0,0.0,0.0,0.0,24
21747144000,21747064000,0.8442999,0.11266678,0.19036308,-0.48808393,-2.7931504,4.9861526,-5.4921417,-17.60958,31.088789,-35.484562,7.3848105e-06,6.1876534e-07,-1.9783874e-06,-0.00011005973,-8.5888416e-05,-0.00012614623,0.1924015,-0.016602265,0.49169207,0.012412617,-0.008561002,0.002714964,0.0,0.0,4.108929e-05,1.1013292e-05,7.600677e-06,0.00014278443,0.010290648,0.010001496,0.012942868,0.06629758,0.066245995,0.17133023,1.308071e-11,1.276071e-11,2.7595558e-11,5.8658827e-08,6.4192555e-08,5.0000036e-08,0.0,0.0,0.0,0.0,0.0,0.0,0.0,0.0,24
21748152000,21748072000,0.84400904,0.11268402,0.19196625,-0.48795494,-2.8421206,5.0616317,-5.569941,-20.479916,36.178,-41.06846,7.454598e-06,5.1121015e-07,-1.9294262e-06,-0.000108820976,-8.606464e-05,-0.00012647867,0.1924015,-0.016602265,0.49169207,0.012412617,-0.008561002,0.002714964,0.0,0.0,3.626787e-05,1.1191378e-05,7.723822e-06,0.00012491838,0.010603933,0.010396195,0.013112882,0.06810973,0.06803099,0.17327279,1.30616845e-11,1.258711e-11,2.769611e-11,5.78361e-08,6.408577e-08,5.000015e-08,0.0,0.0,0.0,0.0,0.0,0.0,0.0,0.0,24
21749152000,21749072000,0.84384686,0.11331714,0.19302022,-0.48767307,-2.8788257,5.1131434,-5.6160703,-23.371761,41.284878,-46.6421,7.560053e-06,4.044882e-07,-1.8571762e-06,-0.000103581064,-8.652139e-05,-0.00013835842,0.1924015,-0.016602265,0.49169207,0.012412617,-0.008561002,0.002714964,0.0,0.0,3.243443e-05,1.1312609e-05,7.825811e-06,0.00011082699,0.010808288,0.010676993,0.013174075,0.06966596,0.06957752,0.17455526,1.3022955e-11,1.237257e-11,2.7779317e-11,5.7123014e-08,6.399634e-08,5.000004e-08,0.0,0.0,0.0,0.0,0.0,0.0,0.0,0.0,24
21750144000,21750064000,0.84384894,0.11333263,0.19385444,-0.4873347,-2.907667,5.1529136,-5.6503115,-26.266481,46.413826,-52.21545,7.5834205e-06,2.4584304e-07,-1.8553786e-06,-9.97277e-05,-8.685928e-05,-0.00014799078,0.1924015,-0.016602265,0.49169207,0.012412617,-0.008561002,0.002714964,0.0,0.0,2.9742876e-05,1.1448713e-05,7.91243e-06,0.000100866484,0.011132071,0.011048312,0.013206411,0.071493745,0.07140465,0.17532356,1.2999075e-11,1.2173129e-11,2.7870076e-11,5.6535495e-08,6.392286e-08,5.0000036e-08,0.0,0.0,0.0,0.0,0.0,0.0,0.0,0.0,24
21751152000,21751072000,0.8436303,0.113762915,0.19474126,-0.48725936,-2.9230876,5.201184,-5.660167,-29.232136,51.66254,-57.8973,7.624719e-06,1.343569e-07,-1.84001e-06,-9.67107e-05,-8.727748e-05,-0.00015668885,0.1924015,-0.016602265,0.49169207,0.012412617,-0.008561002,0.002714964,0.0,0.0,2.7688675e-05,1.1570693e-05,8.003145e-06,9.308152e-05,0.011546074,0.011504336,0.013282065,0.073980026,0.07389953,0.17701502,1.2987295e-11,1.1990097e-11,2.7963552e-11,5.605722e-08,6.385281e-08,5.000011e-08,0.0,0.0,0.0,0.0,0.0,0.0,0.0,0.0,24
21752152000,21752072000,0.843463,0.11395675,0.19515952,-0.48733637,-2.946845,5.220694,-5.6594176,-32.184067,56.886246,-63.548313,7.6502265e-06,1.1895811e-07,-1.8414735e-06,-9.471695e-05,-8.762092e-05,-0.00016321741,0.1924015,-0.016602265,0.49169207,0.012412617,-0.008561002,0.002714964,0.0,0.0,2.6038411e-05,1.1420337e-05,7.830351e-06,8.676418e-05,0.010216249,0.010194468,0.012447298,0.0675223,0.06747798,0.17295326,1.2844878e-11,1.1629715e-11,2.7937612e-11,5.560756e-08,6.3776675e-08,5.0000075e-08,0.0,0.0,0.0,0.0,0.0,0.0,0.0,0.0,24
21753152000,21753072000,0.8434726,0.11396937,0.19537827,-0.4872292,-2.9688313,5.238331,-5.658736,-35.142197,62.136993,-69.212944,7.594728e-06,1.3512563e-07,-1.9321803e-06,-9.4630544e-05,-8.766628e-05,-0.00016223172,0.1924015,-0.016602265,0.49169207,0.012412617,-0.008561002,0.002714964,0.0,0.0,2.4640134e-05,1.1346654e-05,7.830077e-06,8.139795e-05,0.01048147,0.010463784,0.012435815,0.0692508,0.06921343,0.17350411,1.2837936e-11,1.1473459e-11,2.8006836e-11,5.532861e-08,6.370286e-08,5e-08,0.0,0.0,0.0,0.0,0.0,0.0,0.0,0.0,24
21754152000,21754072000,0.8433595,0.11442326,0.19538826,-0.48731458,-2.9796772,5.2506924,-5.6516304,-38.105724,67.3888,-74.88867,7.516136e-06,2.6176716e-07,-2.0552745e-06,-9.497231e-05,-8.760969e-05,-0.00015725358,0.1924015,-0.016602265,0.49169207,0.012412617,-0.008561002,0.002714964,0.0,0.0,2.3618231e-05,1.1249094e-05,7.837291e-06,7.728251e-05,0.010733412,0.010718799,0.012427257,0.07097786,0.07094547,0.17401758,1.2845777e-11,1.1337909e-11,2.8075623e-11,5.511642e-08,6.363413e-08,5e-08,0.0,0.0,0.0,0.0,0.0,0.0,0.0,0.0,24
21755144000,21755064000,0.84323376,0.114333674,0.19595844,-0.48732442,-2.9897516,5.262834,-5.6258717,-41.048904,72.60232,-80.499374,7.4552386e-06,4.2703095e-07,-2.1436208e-06,-9.479906e-05,-8.745591e-05,-0.00015277525,0.1924015,-0.016602265,0.49169207,0.012412617,-0.008561002,0.002714964,0.0,0.0,2.2753291e-05,1.1174759e-05,7.845625e-06,7.381182e-05,0.011130254,0.0111172125,0.012514009,0.07300039,0.07297067,0.17653555,1.288308e-11,1.124769e-11,2.815616e-11,5.4961586e-08,6.356978e-08,5.0000065e-08,0.0,0.0,0.0,0.0,0.0,0.0,0.0,0.0,24
21756152000,21756072000,0.843126,0.1143111,0.1960546,-0.4874772,-3.0113037,5.268796,-5.6293645,-44.049034,77.9078,-86.22119,7.3485357e-06,6.96938e-07,-2.284315e-06,-9.517434e-05,-8.707048e-05,-0.0001387866,0.1924015,-0.016602265,0.49169207,0.012412617,-0.008561002,0.002714964,0.0,0.0,2.2042672e-05,1.0825294e-05,7.6289048e-06,7.087647e-05,0.010012861,0.010004681,0.01185157,0.06715775,0.06713904,0.17284076,1.28220976e-11,1.1015014e-11,2.8144792e-11,5.48244e-08,6.3499414e-08,5.0000146e-08,0.0,0.0,0.0,0.0,0.0,0.0,0.0,0.0,24
21757152000,21757072000,0.84299797,0.11513529,0.19561258,-0.48768246,-3.005715,5.27819,-5.615848,-47.034237,83.18155,-91.88727,7.251038e-06,9.042953e-07,-2.4426392e-06,-9.533805e-05,-8.6851716e-05,-0.00012565218,0.1924015,-0.016602265,0.49169207,0.012412617,-0.008561002,0.002714964,0.0,0.0,2.14744e-05,1.062751e-05,7.6080096e-06,6.835876e-05,0.010192469,0.010186878,0.01187343,0.068543896,0.068526186,0.17332569,1.2865361e-11,1.09300026e-11,2.8211421e-11,5.473936e-08,6.344098e-08,5.0000146e-08,0.0,0.0,0.0,0.0,0.0,0.0,0.0,0.0,24
21758152000,21758072000,0.84310013,0.11483463,0.19570042,-0.4875414,-3.0032768,5.2715883,-5.6102295,-50.018234,88.46031,-97.56372,7.1435356e-06,1.0953444e-06,-2.5909828e-06,-9.586108e-05,-8.641396e-05,-0.000106752566,0.1924015,-0.016602265,0.49169207,0.012412617,-0.008561002,0.002714964,0.0,0.0,2.0970545e-05,1.0484962e-05,7.583607e-06,6.625108e-05,0.010522365,0.010522079,0.011949088,0.07041889,0.07040092,0.17398348,1.2934322e-11,1.0876481e-11,2.8285893e-11,5.467535e-08,6.3388896e-08,5.0000185e-08,0.0,0.0,0.0,0.0,0.0,0.0,0.0,0.0,24
21759144000,21759064000,0.8429325,0.11482302,0.19586462,-0.4877679,-3.0018115,5.275439,-5.593924,-52.98941,93.715065,-103.1806,7.0521887e-06,1.1216663e-06,-2.708537e-06,-9.7155316e-05,-8.5929205e-05,-8.556303e-05,0.1924015,-0.016602265,0.49169207,0.012412617,-0.008561002,0.002714964,0.0,0.0,2.0577378e-05,1.0344487e-05,7.557527e-06,6.440966e-05,0.010793041,0.01079854,0.011999961,0.072053626,0.072035976,0.17421961,1.30091155e-11,1.0828749e-11,2.8351963e-11,5.462562e-08,6.334229e-08,5.000015e-08,0.0,0.0,0.0,0.0,0.0,0.0,0.0,0.0,24
21760144000,21760064000,0.8429777,0.11468035,0.19607176,-0.4876402,-2.9970171,5.2966866,-5.5924106,-55.98598,99.00904,-108.869446,7.0331157e-06,1.2381192e-06,-2.772179e-06,-9.822489e-05,-8.618545e-05,-5.2565065e-05,0.1924015,-0.016602265,0.49169207,0.012412617,-0.008561002,0.002714964,0.0,0.0,2.0231142e-05,1.0033091e-05,7.3509027e-06,6.287207e-05,0.009759452,0.009767532,0.011445578,0.066293366,0.06628183,0.1708311,1.3011139e-11,1.0671992e-11,2.8355653e-11,5.4579488e-08,6.3295296e-08,5.0000185e-08,0.0,0.0,0.0,0.0,0.0,0.0,0.0,0.0,24
21761152000,21761072000,0.84290993,0.11472531,0.19627188,-0.48766625,-2.9883118,5.3049946,-5.60163,-59.01293,104.35398,-114.59807,7.085424e-06,1.3690824e-06,-2.7583058e-06,-9.864616e-05,-8.692492e-05,-2.1556847e-05,0.1924015,-0.016602265,0.49169207,0.012412617,-0.008561002,0.002714964,0.0,0.0,1.9978239e-05,9.928297e-06,7.3313126e-06,6.1576444e-05,0.010060579,0.010073341,0.011500519,0.06809937,0.06808837,0.16973287,1.31002076e-11,1.0642511e-11,2.8425205e-11,5.4547424e-08,6.3258156e-08,5e-08,0.0,0.0,0.0,0.0,0.0,0.0,0.0,0.0,24
21762144000,21762064000,0.84296495,0.11425814,0.19604702,-0.48777136,-2.9892926,5.3150983,-5.608154,-61.98836,109.61523,-120.23773,7.153462e-06,1.5165748e-06,-2.7283086e-06,-9.851693e-05,-8.772193e-05,3.6682625e-06,0.1924015,-0.016602265,0.49169207,0.012412617,-0.008561002,0.002714964,0.0,0.0,1.9709216e-05,9.791768e-06,7.283167e-06,6.025292e-05,0.0102526825,0.010270286,0.011630418,0.069392234,0.06938268,0.17242809,1.3177886e-11,1.0609437e-11,2.8467763e-11,5.4520576e-08,6.322347e-08,5.000011e-08,0.0,0.0,0.0,0.0,0.0,0.0,0.0,0.0,24
21763152000,21763072000,0.8428638,0.114925995,0.19609246,-0.48777077,-2.9748325,5.320306,-5.6134033,-65.00359,114.96264,-125.978134,7.2351054e-06,1.6751831e-06,-2.7117358e-06,-9.8132165e-05,-8.865732e-05,2.7528095e-05,0.1924015,-0.016602265,0.49169207,0.012412617,-0.008561002,0.002714964,0.0,0.0,1.957566e-05,9.737895e-06,7.3044757e-06,5.9346756e-05,0.010700107,0.010724239,0.01179775,0.07173649,0.07172853,0.17374112,1.3281731e-11,1.0608819e-11,2.8535799e-11,5.4497796e-08,6.3194186e-08,5.0000224e-08,0.0,0.0,0.0,0.0,0.0,0.0,0.0,0.0,24
21764152000,21764072000,0.8428,0.11493023,0.19608235,-0.48788425,-2.9752514,5.3289466,-5.631442,-67.99574,120.28681,-131.68124,7.311204e-06,1.7465088e-06,-2.6752298e-06,-9.815726e-05,-8.939449e-05,5.030095e-05,0.1924015,-0.016602265,0.49169207,0.012412617,-0.008561002,0.002714964,0.0,0.0,1.9484345e-05,9.68534e-06,7.3071124e-06,5.859912e-05,0.011104387,0.01113542,0.011932651,0.07388187,0.073876716,0.17451926,1.3380983e-11,1.0607887e-11,2.859178e-11,5.447774e-08,6.316812e-08,5.000015e-08,0.0,0.0,0.0,0.0,0.0,0.0,0.0,0.0,24
21765152000,21765072000,0.8427541,0.11521311,0.19604056,-0.4879135,-2.9775066,5.3301396,-5.6340346,-70.99448,125.62045,-137.3871,7.3969222e-06,1.7960621e-06,-2.6466357e-06,-9.808366e-05,-9.017055e-05,7.2400646e-05,0.1924015,-0.016602265,0.49169207,0.012412617,-0.008561002,0.002714964,0.0,0.0,1.9416788e-05,9.415985e-06,7.09444e-06,5.7982e-05,0.009897004,0.009926594,0.0113843335,0.067458175,0.06745513,0.17099315,1.3377731e-11,1.0466743e-11,2.8579899e-11,5.445406e-08,6.314075e-08,5.0000185e-08,0.0,0.0,0.0,0.0,0.0,0.0,0.0,0.0,24
21766152000,21766072000,0.8428147,0.11495924,0.19588178,-0.4879325,-2.9832847,5.3160295,-5.6440907,-73.98846,130.94882,-143.09329,7.4337318e-06,1.8602653e-06,-2.674252e-06,-9.787031e-05,-9.061162e-05,8.895966e-05,0.1924015,-0.016602265,0.49169207,0.012412617,-0.008561002,0.002714964,0.0,0.0,1.9390603e-05,9.3671415e-06,7.089686e-06,5.750756e-05,0.010189624,0.010224454,0.011508355,0.06915428,0.06915368,0.1716987,1.3466378e-11,1.046359e-11,2.861328e-11,5.443854e-08,6.312065e-08,5.000011e-08,0.0,0.0,0.0,0.0,0.0,0.0,0.0,0.0,24
21767152000,21767072000,0.84277284,0.11498015,0.19590804,-0.4879893,-2.9899592,5.313229,-5.6511626,-76.98618,136.27182,-148.79837,7.4531163e-06,1.9071992e-06,-2.6802352e-06,-9.770994e-05,-9.08224e-05,0.00010361844,0.1924015,-0.016602265,0.49169207,0.012412617,-0.008561002,0.002714964,0.0,0.0,1.939028e-05,9.331051e-06,7.09235e-06,5.7135512e-05,0.010469235,0.010508625,0.011634018,0.070854746,0.07085708,0.17241457,1.3550737e-11,1.046176e-11,2.8634919e-11,5.4425193e-08,6.310327e-08,5.000011e-08,0.0,0.0,0.0,0.0,0.0,0.0,0.0,0.0,24
21768144000,21768064000,0.8428777,0.11494966,0.19606099,-0.4877538,-2.9849632,5.313768,-5.649734,-79.9545,141.55954,-154.46211,7.4411614e-06,1.9241538e-06,-2.69215e-06,-9.7631935e-05,-9.080146e-05,0.0001207469,0.1924015,-0.016602265,0.49169207,0.012412617,-0.008561002,0.002714964,0.0,0.0,1.9385994e-05,9.304552e-06,7.093397e-06,5.686211e-05,0.010708638,0.010752058,0.011725334,0.07230855,0.07231411,0.17261425,1.3629284e-11,1.0461331e-11,2.8642467e-11,5.441393e-08,6.308834e-08,5.0000075e-08,0.0,0.0,0.0,0.0,0.0,0.0,0.0,0.0,24
21769152000,21769072000,0.8428329,0.11509353,0.19611013,-0.4877776,-2.982474,5.3201756,-5.657617,-82.981316,146.94687,-160.2211,7.4466393e-06,1.8895195e-06,-2.6863297e-06,-9.777812e-05,-9.085499e-05,0.00014127606,0.1924015,-0.016602265,0.49169207,0.012412617,-0.008561002,0.002714964,0.0,0.0,1.9428573e-05,9.128584e-06,6.945221e-06,5.668725e-05,0.009739233,0.009778162,0.011262843,0.066695146,0.06669905,0.16971344,1.3634588e-11,1.0362029e-11,2.8607233e-11,5.440193e-08,6.3074076e-08,5.000011e-08,0.0,0.0,0.0,0.0,0.0,0.0,0.0,0.0,24
21770152000,21770072000,0.84274393,0.115339406,0.19578555,-0.4880036,-2.977618,5.313671,-5.6676607,-85.9837,152.29306,-165.92108,7.441476e-06,1.8131612e-06,-2.67444e-06,-9.8143784e-05,-9.0808746e-05,0.00015452101,0.1924015,-0.016602265,0.49169207,0.012412617,-0.008561002,0.002714964,0.0,0.0,1.9505787e-05,9.105957e-06,6.960698e-06,5.6570727e-05,0.009990896,0.01003292,0.011394472,0.06817346,0.06817976,0.17059155,1.3706483e-11,1.0366072e-11,2.8592772e-11,5.4394626e-08,6.306357e-08,5.000022e-08,0.0,0.0,0.0,0.0,0.0,0.0,0.0,0.0,24
21771152000,21771072000,0.8427876,0.11559215,0.195886,-0.48782805,-2.975025,5.3046317,-5.6830683,-88.98306,157.6394,-171.63254,7.4148525e-06,1.6629864e-06,-2.6700243e-06,-9.8846984e-05,-9.0660345e-05,0.00016428113,0.1924015,-0.016602265,0.49169207,0.012412617,-0.008561002,0.002714964,0.0,0.0,1.950686e-05,9.087759e-06,6.97e-06,5.634131e-05,0.010228639,0.010273071,0.011526732,0.06965057,0.06965925,0.17160697,1.37672755e-11,1.0369144e-11,2.8535176e-11,5.438841e-08,6.305397e-08,5.0000178e-08,0.0,0.0,0.0,0.0,0.0,0.0,0.0,0.0,24
21772152000,21772072000,0.8427549,0.11512232,0.1961005,-0.48790947,-2.9692504,5.3069425,-5.6992626,-91.98116,162.98798,-177.34897,7.40936e-06,1.4903995e-06,-2.6426776e-06,-9.962392e-05,-9.058915e-05,0.0001704379,0.1924015,-0.016602265,0.49169207,0.012412617,-0.008561002,0.002714964,0.0,0.0,1.9604926e-05,9.119043e-06,6.9993866e-06,5.635661e-05,0.010637618,0.010686459,0.011634906,0.071695365,0.0717076,0.17041679,1.3843825e-11,1.0392942e-11,2.8496459e-11,5.4383626e-08,6.30464e-08,5.0000036e-08,0.0,0.0,0.0,0.0,0.0,0.0,0.0,0.0,24
21773152000,21773072000,0.84273046,0.11490826,0.1964501,-0.48786145,-2.9690473,5.296531,-5.711224,-94.96822,168.3332,-183.07655,7.3482547e-06,1.3407594e-06,-2.6161786e-06,-0.000100257,-9.025962e-05,0.0001772057,0.1924015,-0.016602265,0.49169207,0.012412617,-0.008561002,0.002714964,0.0,0.0,1.9702204e-05,9.161082e-06,7.0338215e-06,5.6425328e-05,0.011044221,0.011096935,0.011813907,0.07382284,0.073838964,0.17172937,1.3915613e-11,1.0417512e-11,2.844456e-11,5.4379928e-08,6.30401e-08,5.000007e-08,0.0,0.0,0.0,0.0,0.0,0.0,0.0,0.0,24
21774152000,21774072000,0.8427241,0.11501773,0.19618128,-0.48795483,-2.9641106,5.2912254,-5.722135,-97.94122,173.68275,-188.79733,7.244099e-06,1.2009851e-06,-2.670763e-06,-0.00010081465,-8.988426e-05,0.0001770729,0.1924015,-0.016602265,0.49169207,0.012412617,-0.008561002,0.002714964,0.0,0.0,1.981448e-05,8.984677e-06,6.870083e-06,5.651519e-05,0.00987541,0.009919103,0.011369393,0.06746011,0.06746971,0.17099723,1.3883157e-11,1.0306362e-11,2.8338517e-11,5.4375445e-08,6.303384e-08,5.0000253e-08,0.0,0.0,0.0,0.0,0.0,0.0,0.0,0.0,24
21775144000,21775064000,0.8426034,0.11539641,0.19632564,-0.4880158,-2.975042,5.2820287,-5.7378488,-100.90775,178.97644,-194.4755,7.206319e-06,9.940128e-07,-2.7115107e-06,-0.000101569516,-8.9805304e-05,0.00017226857,0.1924015,-0.016602265,0.49169207,0.012412617,-0.008561002,0.002714964,0.0,0.0,1.9940258e-05,8.998186e-06,6.8980203e-06,5.6619167e-05,0.010122003,0.010168076,0.011470682,0.06888486,0.06889632,0.1713827,1.3931629e-11,1.03172245e-11,2.8257062e-11,5.4373576e-08,6.302962e-08,5.000011e-08,0.0,0.0,0.0,0.0,0.0,0.0,0.0,0.0,24
21776152000,21776072000,0.842565,0.11524518,0.1964008,-0.48808777,-2.9735925,5.275699,-5.7459292,-103.91161,184.34918,-200.2361,7.082647e-06,8.2436003e-07,-2.7204521e-06,-0.000102138816,-8.937356e-05,0.00016152467,0.1924015,-0.016602265,0.49169207,0.012412617,-0.008561002,0.002714964,0.0,0.0,2.001476e-05,9.016029e-06,6.92404e-06,5.662682e-05,0.010450078,0.010499476,0.011624749,0.070839055,0.07085323,0.17253146,1.3974087e-11,1.0335866e-11,2.8140523e-11,5.4372602e-08,6.302614e-08,5.0000114e-08,0.0,0.0,0.0,0.0,0.0,0.0,0.0,0.0,24
21777144000,21777064000,0.84278375,0.115224965,0.19611235,-0.4878306,-2.9730744,5.267795,-5.7570305,-106.870834,189.6289,-205.91179,7.0132105e-06,6.570292e-07,-2.8151308e-06,-0.00010266403,-8.92693e-05,0.00015106556,0.1924015,-0.016602265,0.49169207,0.012412617,-0.008561002,0.002714964,0.0,0.0,2.0200292e-05,9.06275e-06,6.9821504e-06,5.7025103e-05,0.010871422,0.01092548,0.011771384,0.072830416,0.07284817,0.1730055,1.4034605e-11,1.0369815e-11,2.8077445e-11,5.437241e-08,6.302412e-08,5.000011e-08,0.0,0.0,0.0,0.0,0.0,0.0,0.0,0.0,24
21778152000,21778072000,0.8428119,0.11476309,0.19643475,-0.48776135,-2.9754539,5.264286,-5.751787,-109.885666,195.00504,-211.65578,6.926967e-06,4.2845693e-07,-2.9113041e-06,-0.000103305916,-8.9164525e-05,0.0001290099,0.1924015,-0.016602265,0.49169207,0.012412617,-0.008561002,0.002714964,0.0,0.0,2.027537e-05,8.91401e-06,6.8282206e-06,5.7058154e-05,0.009817539,0.009863374,0.011290982,0.067047775,0.06705881,0.16994353,1.3979951e-11,1.0273586e-11,2.7904911e-11,5.437182e-08,6.3021744e-08,5.000004e-08,0.0,0.0,0.0,0.0,0.0,0.0,0.0,0.0,24
21779152000,21779072000,0.8427376,0.115624554,0.19603409,-0.48784718,-2.9757836,5.261584,-5.754172,-112.869156,200.33177,-217.38733,6.83293e-06,1.9595474e-07,-3.0562346e-06,-0.00010390895,-8.907458e-05,0.0001221781,0.1924015,-0.016602265,0.49169207,0.012412617,-0.008561002,0.002714964,0.0,0.0,2.0439818e-05,8.9170635e-06,6.8663694e-06,5.727115e-05,0.010029957,0.010077749,0.011403716,0.068471186,0.06848402,0.17055598,1.4005964e-11,1.0285199e-11,2.7784712e-11,5.437294e-08,6.302112e-08,5.000011e-08,0.0,0.0,0.0,0.0,0.0,0.0,0.0,0.0,24
21780144000,21780064000,0.8426481,0.115193695,0.19648272,-0.4879235,-2.9791207,5.260369,-5.7561274,-115.820244,205.5988,-223.05324,6.7654023e-06,3.9210285e-08,-3.1785955e-06,-0.00010426013,-8.9064335e-05,0.00010656779,0.1924015,-0.016602265,0.49169207,0.012412617,-0.008561002,0.002714964,0.0,0.0,2.0596746e-05,8.959915e-06,6.8920026e-06,5.7473568e-05,0.010320638,0.0103718275,0.011540434,0.07005708,0.0700725,0.1711505,1.4032196e-11,1.030592e-11,2.7656672e-11,5.4374652e-08,6.302122e-08,5.000011e-08,0.0,0.0,0.0,0.0,0.0,0.0,0.0,0.0,24
21781152000,21781072000,0.842891,0.11387189,0.19724888,-0.48750475,-2.9769151,5.25321,-5.7530065,-118.81173,210.94746,-228.80838,6.661201e-06,-1.10068065e-07,-3.3292624e-06,-0.00010455902,-8.899303e-05,9.1445836e-05,0.1924015,-0.016602265,0.49169207,0.012412617,-0.008561002,0.002714964,0.0,0.0,2.0735115e-05,9.028156e-06,6.9129337e-06,5.777744e-05,0.010704343,0.010759231,0.011718839,0.07222374,0.07224279,0.17247218,1.4061137e-11,1.0334592e-11,2.7528806e-11,5.4376855e-08,6.302196e-08,5.0000036e-08,0.0,0.0,0.0,0.0,0.0,0.0,0.0,0.0,24
21782144000,21782064000,0.84263754,0.115270376,0.19644916,-0.4879369,-2.9636931,5.263742,-5.7331915,-121.75496,216.22017,-234.47418,6.567207e-06,-2.7686033e-07,-3.4942152e-06,-0.000104869345,-8.895556e-05,8.200639e-05,0.1924015,-0.016602265,0.49169207,0.012412617,-0.008561002,0.002714964,0.0,0.0,2.091055e-05,8.870152e-06,6.807779e-06,5.795026e-05,0.009654819,0.00970167,0.011265272,0.06623744,0.066249266,0.17096247,1.3994163e-11,1.0246551e-11,2.7357283e-11,5.437906e-08,6.3023e-08,5.000026e-08,0.0,0.0,0.0,0.0,0.0,0.0,0.0,0.0,24
21783152000,21783072000,0.84269917,0.11538135,0.19640566,-0.48782185,-2.9579546,5.261334,-5.710734,-124.73833,221.56702,-240.21777,6.522879e-06,-3.9321014e-07,-3.6904376e-06,-0.00010505955,-8.9058696e-05,7.522539e-05,0.1924015,-0.016602265,0.49169207,0.012412617,-0.008561002,0.002714964,0.0,0.0,2.1078424e-05,8.906701e-06,6.8474587e-06,5.8217527e-05,0.009951319,0.010001146,0.011423319,0.06803051,0.06804476,0.17211764,1.4007889e-11,1.0269227e-11,2.7213594e-11,5.4382227e-08,6.3024956e-08,5.000026e-08,0.0,0.0,0.0,0.0,0.0,0.0,0.0,0.0,24
21784152000,21784072000,0.8425177,0.11558771,0.196333,-0.48811564,-2.9664328,5.2601633,-5.6819077,-127.699745,226.85777,-245.90584,6.4972664e-06,-4.4711675e-07,-3.836279e-06,-0.00010514417,-8.91436e-05,7.62524e-05,0.1924015,-0.016602265,0.49169207,0.012412617,-0.008561002,0.002714964,0.0,0.0,2.1257709e-05,8.932623e-06,6.8818804e-06,5.8430454e-05,0.0101871425,0.010239344,0.011538266,0.06957364,0.06959014,0.17265193,1.4010707e-11,1.0286502e-11,2.706066e-11,5.438571e-08,6.302736e-08,5.0000146e-08,0.0,0.0,0.0,0.0,0.0,0.0,0.0,0.0,24
21785152000,21785072000,0.84261554,0.11509933,0.19648795,-0.48799974,-2.9516003,5.25692,-5.644726,-130.65166,232.14778,-251.56581,6.4584683e-06,-4.8505166e-07,-4.0515606e-06,-0.00010517982,-8.927897e-05,7.9334284e-05,0.1924015,-0.016602265,0.49169207,0.012412617,-0.008561002,0.002714964,0.0,0.0,2.1411752e-05,8.992102e-06,6.9282783e-06,5.8668666e-05,0.010578479,0.010634996,0.011684516,0.071615495,0.07163582,0.17315337,1.4023226e-11,1.0321646e-11,2.6906862e-11,5.4389513e-08,6.303019e-08,5.0000075e-08,0.0,0.0,0.0,0.0,0.0,0.0,0.0,0.0,24
21786152000,21786072000,0.84250504,0.11555464,0.19648962,-0.48808217,-2.949516,5.2545457,-5.624791,-133.60854,237.42303,-257.2442,6.460904e-06,-4.3402392e-07,-4.1071917e-06,-0.00010513277,-8.932118e-05,9.699935e-05,0.1924015,-0.016602265,0.49169207,0.012412617,-0.008561002,0.002714964,0.0,0.0,2.162866e-05,9.06095e-06,6.9972866e-06,5.9104645e-05,0.010985385,0.01104645,0.011833354,0.07375384,0.073778644,0.17363173,1.4041628e-11,1.0356942e-11,2.6788525e-11,5.4393478e-08,6.30334e-08,5.0000036e-08,0.0,0.0,0.0,0.0,0.0,0.0,0.0,0.0,24
21787152000,21787072000,0.84261125,0.11574725,0.1961357,-0.4879955,-2.945842,5.2527633,-5.6126604,-136.5602,242.70639,-262.93268,6.4729484e-06,-4.1864448e-07,-4.2451184e-06,-0.000105090774,-8.9430396e-05,0.00012344765,0.1924015,-0.016602265,0.49169207,0.012412617,-0.008561002,0.002714964,0.0,0.0,2.1755905e-05,8.90151e-06,6.85064e-06,5.9323742e-05,0.009817771,0.009867913,0.0113022495,0.06738124,0.06739611,0.16987094,1.3939524e-11,1.0255501e-11,2.6596393e-11,5.4397336e-08,6.3036644e-08,5e-08,0.0,0.0,0.0,0.0,0.0,0.0,0.0,0.0,24
21788152000,21788072000,0.8425176,0.11587695,0.19610131,-0.48814014,-2.9422662,5.2592664,-5.6135707,-139.52362,247.98076,-268.61652,6.576968e-06,-3.9403625e-07,-4.3384807e-06,-0.00010505162,-8.961988e-05,0.00014860868,0.1924015,-0.016602265,0.49169207,0.012412617,-0.008561002,0.002714964,0.0,0.0,2.1905824e-05,8.935073e-06,6.8902104e-06,5.951725e-05,0.01012136,0.010174367,0.011503152,0.069078505,0.06909604,0.17270711,1.393202e-11,1.0278839e-11,2.6429466e-11,5.440134e-08,6.3040076e-08,5.000018e-08,0.0,0.0,0.0,0.0,0.0,0.0,0.0,0.0,24
21789152000,21789072000,0.84251195,0.11568519,0.19610493,-0.48819402,-2.9256334,5.267345,-5.618576,-142.4669,253.26205,-274.2979,6.634275e-06,-3.649831e-07,-4.472068e-06,-0.00010498495,-8.978256e-05,0.00017165706,0.1924015,-0.016602265,0.49169207,0.012412617,-0.008561002,0.002714964,0.0,0.0,2.196996e-05,8.955477e-06,6.911658e-06,5.9486647e-05,0.010411821,0.010467386,0.01162518,0.070783176,0.070803426,0.17305061,1.391045e-11,1.02996405e-11,2.6218121e-11,5.440528e-08,6.304355e-08,5.000007e-08,0.0,0.0,0.0,0.0,0.0,0.0,0.0,0.0,24
21790152000,21790072000,0.84246445,0.115555435,0.196305,-0.48822635,-2.9274256,5.2722697,-5.6156535,-145.41371,258.5512,-279.98108,6.718098e-06,-3.6923979e-07,-4.5229417e-06,-0.00010496589,-8.994253e-05,0.00019379058,0.1924015,-0.016602265,0.49169207,0.012412617,-0.008561002,0.002714964,0.0,0.0,2.2094475e-05,9.022375e-06,6.9671446e-06,5.9674876e-05,0.010883371,0.010943615,0.0117858285,0.07306723,0.073092185,0.17343272,1.3914646e-11,1.0342476e-11,2.6051918e-11,5.440919e-08,6.304713e-08,5e-08,0.0,0.0,0.0,0.0,0.0,0.0,0.0,0.0,24
21791152000,21791072000,0.8424961,0.115290456,0.19641149,-0.48819152,-2.9403362,5.2655153,-5.624309,-148.371,263.84064,-285.66843,6.8115464e-06,-3.6361342e-07,-4.591998e-06,-0.000104928615,-9.011819e-05,0.0002176489,0.1924015,-0.016602265,0.49169207,0.012412617,-0.008561002,0.002714964,0.0,0.0,2.2197555e-05,8.879764e-06,6.8153286e-06,5.98507e-05,0.009794448,0.0098443655,0.011281788,0.06701929,0.06703469,0.1697588,1.3809009e-11,1.0247554e-11,2.5855236e-11,5.4412922e-08,6.3050706e-08,5.000004e-08,0.0,0.0,0.0,0.0,0.0,0.0,0.0,0.0,24
21792144000,21792064000,0.84257835,0.11529765,0.19610469,-0.48817146,-2.9506633,5.270642,-5.627165,-151.28992,269.09598,-291.30652,6.7769392e-06,-3.629783e-07,-4.701931e-06,-0.0001048817,-9.0126836e-05,0.00023730625,0.1924015,-0.016602265,0.49169207,0.012412617,-0.008561002,0.002714964,0.0,0.0,2.2290113e-05,8.880085e-06,6.8280556e-06,6.0009956e-05,0.009963844,0.010015087,0.011377257,0.06819067,0.06820732,0.16996144,1.3784606e-11,1.0258185e-11,2.5678362e-11,5.441674e-08,6.305438e-08,5.0000036e-08,0.0,0.0,0.0,0.0,0.0,0.0,0.0,0.0,24
21793144000,21793064000,0.8424044,0.11568486,0.19615312,-0.4883602,-2.940019,5.2704244,-5.6227064,-154.22209,274.39386,-296.99252,6.6662833e-06,-3.5900106e-07,-4.8064776e-06,-0.00010483187,-9.002735e-05,0.00025478148,0.1924015,-0.016602265,0.49169207,0.012412617,-0.008561002,0.002714964,0.0,0.0,2.2396825e-05,8.9188825e-06,6.8734703e-06,6.0154132e-05,0.010303173,0.010358015,0.011601251,0.07005706,0.070076525,0.17310788,1.3775226e-11,1.0286503e-11,2.5506925e-11,5.4420653e-08,6.305823e-08,5.000022e-08,0.0,0.0,0.0,0.0,0.0,0.0,0.0,0.0,24
21794152000,21794072000,0.84240174,0.1159452,0.19600493,-0.48836276,-2.9307704,5.2632866,-5.6228228,-157.18259,279.72916,-302.73608,6.6271123e-06,-3.7766276e-07,-4.9395767e-06,-0.00010481199,-9.001338e-05,0.00027949197,0.1924015,-0.016602265,0.49169207,0.012412617,-0.008561002,0.002714964,0.0,0.0,2.2418377e-05,8.945817e-06,6.9207777e-06,6.009907e-05,0.010681836,0.010740642,0.011705646,0.07221925,0.07224231,0.17186357,1.3760694e-11,1.0317556e-11,2.5295733e-11,5.442471e-08,6.3062224e-08,5e-08,0.0,0.0,0.0,0.0,0.0,0.0,0.0,0.0,24
21795144000,21795064000,0.84255314,0.11525745,0.19626944,-0.4881582,-2.9360065,5.2531395,-5.637757,-160.08852,284.9792,-308.38254,6.5516138e-06,-4.3026458e-07,-5.040293e-06,-0.000104847444,-8.994484e-05,0.00030207416,0.1924015,-0.016602265,0.49169207,0.012412617,-0.008561002,0.002714964,0.0,0.0,2.24569e-05,8.822502e-06,6.7771193e-06,6.0219376e-05,0.009645196,0.0096944375,0.011260484,0.06621808,0.066232376,0.1704743,1.366392e-11,1.0231582e-11,2.5093207e-11,5.4428654e-08,6.3066196e-08,5.0000217e-08,0.0,0.0,0.0,0.0,0.0,0.0,0.0,0.0,24
21796152000,21796072000,0.8424398,0.1152883,0.19628245,-0.48834118,-2.9438794,5.2482123,-5.6596084,-163.0435,290.33023,-314.12555,6.3699777e-06,-5.637081e-07,-5.142351e-06,-0.00010497988,-8.973581e-05,0.0003170634,0.1924015,-0.016602265,0.49169207,0.012412617,-0.008561002,0.002714964,0.0,0.0,2.2539436e-05,8.855327e-06,6.812865e-06,6.03588e-05,0.0099577345,0.010009644,0.0114209,0.06801606,0.06803267,0.17165367,1.3654906e-11,1.0255152e-11,2.4921157e-11,5.443272e-08,6.307031e-08,5.0000214e-08,0.0,0.0,0.0,0.0,0.0,0.0,0.0,0.0,24
21797152000,21797072000,0.84260523,0.11460109,0.19655159,-0.4881092,-2.9566848,5.247461,-5.671052,-165.96846,295.62778,-319.82925,6.1620804e-06,-6.3603096e-07,-5.3384933e-06,-0.000105047926,-8.948967e-05,0.00032620443,0.1924015,-0.016602265,0.49169207,0.012412617,-0.008561002,0.002714964,0.0,0.0,2.258215e-05,8.883353e-06,6.825766e-06,6.0485283e-05,0.010197107,0.010251461,0.011486822,0.06954535,0.06956386,0.17018212,1.363836e-11,1.0271721e-11,2.4747615e-11,5.4436732e-08,6.307435e-08,5e-08,0.0,0.0,0.0,0.0,0.0,0.0,0.0,0.0,24
21798152000,21798072000,0.84247994,0.11529887,0.19613816,-0.48832738,-2.962667,5.2437553,-5.6765203,-168.89977,300.9209,-325.53214,5.934556e-06,-6.8220453e-07,-5.4884376e-06,-0.00010509186,-8.9241905e-05,0.00033321258,0.1924015,-0.016602265,0.49169207,0.012412617,-0.008561002,0.002714964,0.0,0.0,2.2646114e-05,8.914076e-06,6.893657e-06,6.057e-05,0.010596929,0.0106559405,0.011720627,0.07160102,0.07162329,0.17347649,1.36354435e-11,1.0307214e-11,2.458174e-11,5.4440836e-08,6.307847e-08,5.0000178e-08,0.0,0.0,0.0,0.0,0.0,0.0,0.0,0.0,24
21799152000,21799072000,0.8424969,0.11538329,0.19614156,-0.48827693,-2.9544094,5.232316,-5.6857038,-171.82796,306.21936,-331.25546,5.6994554e-06,-7.6548235e-07,-5.6277695e-06,-0.00010516749,-8.900634e-05,0.0003438076,0.1924015,-0.016602265,0.49169207,0.012412617,-0.008561002,0.002714964,0.0,0.0,2.2681663e-05,8.959444e-06,6.9488206e-06,6.06664e-05,0.011006347,0.0110695185,0.011816558,0.073751554,0.07377828,0.17206399,1.3633288e-11,1.0342823e-11,2.4418887e-11,5.4445035e-08,6.308274e-08,5e-08,0.0,0.0,0.0,0.0,0.0,0.0,0.0,0.0,24
21800152000,21800072000,0.8424168,0.11565878,0.19640034,-0.4882456,-2.9343429,5.242962,-5.695626,-174.73674,311.53516,-336.9662,5.391286e-06,-9.414928e-07,-5.8226447e-06,-0.00010532096,-8.875625e-05,0.00034686833,0.1924015,-0.016602265,0.49169207,0.012412617,-0.008561002,0.002714964,0.0,0.0,2.2705639e-05,8.8143e-06,6.8040295e-06,6.07191e-05,0.009840574,0.009892572,0.0113648325,0.06739894,0.067414865,0.1711111,1.35267205e-11,1.02425915e-11,2.422709e-11,5.4449195e-08,6.308702e-08,5.000022e-08,0.0,0.0,0.0,0.0,0.0,0.0,0.0,0.0,24
21801152000,21801072000,0.8425342,0.11547534,0.19624203,-0.4881502,-2.9342833,5.22344,-5.7007446,-177.6601,316.82397,-342.68097,5.2271894e-06,-1.0744739e-06,-5.946696e-06,-0.0001054325,-8.862785e-05,0.00035287536,0.1924015,-0.016602265,0.49169207,0.012412617,-0.008561002,0.002714964,0.0,0.0,2.2725817e-05,8.84441e-06,6.8404206e-06,6.0793842e-05,0.010136175,0.010190764,0.011500213,0.069095425,0.06911394,0.17189915,1.35197764e-11,1.0266829e-11,2.4063737e-11,5.4453537e-08,6.309143e-08,5.0000185e-08,0.0,0.0,0.0,0.0,0.0,0.0,0.0,0.0,24
21802152000,21802072000,0.8425114,0.11576214,0.1961366,-0.48816395,-2.9209812,5.216408,-5.7091904,-180.58493,322.11603,-348.3812,5.045519e-06,-1.3024434e-06,-6.091328e-06,-0.000105590196,-8.852503e-05,0.00035184307,0.1924015,-0.016602265,0.49169207,0.012412617,-0.008561002,0.002714964,0.0,0.0,2.2752625e-05,8.875753e-06,6.8829086e-06,6.0833027e-05,0.010430502,0.010487673,0.011641263,0.07082199,0.070843145,0.17281634,1.3514104e-11,1.0289771e-11,2.3901497e-11,5.4457892e-08,6.309586e-08,5.000022e-08,0.0,0.0,0.0,0.0,0.0,0.0,0.0,0.0,24
21803152000,21803072000,0.84254414,0.11512245,0.19669911,-0.4880323,-2.9151888,5.206908,-5.7234926,-183.50548,327.40268,-354.10275,4.9126324e-06,-1.5584139e-06,-6.2226322e-06,-0.00010577066,-8.84379e-05,0.0003556302,0.1924015,-0.016602265,0.49169207,0.012412617,-0.008561002,0.002714964,0.0,0.0,2.2687482e-05,8.948598e-06,6.932114e-06,6.0640617e-05,0.010916018,0.010977888,0.011822925,0.07314763,0.07317355,0.17382637,1.3517256e-11,1.0334748e-11,2.3708115e-11,5.4462273e-08,6.310032e-08,5.0000217e-08,0.0,0.0,0.0,0.0,0.0,0.0,0.0,0.0,24
21804152000,21804072000,0.84258544,0.11492188,0.19655423,-0.4880667,-2.9272888,5.2062097,-5.72361,-186.4345,332.7144,-359.8078,4.757219e-06,-1.9139025e-06,-6.3855346e-06,-0.00010597313,-8.836711e-05,0.00035290443,0.1924015,-0.016602265,0.49169207,0.012412617,-0.008561002,0.002714964,0.0,0.0,2.2702325e-05,8.805665e-06,6.7878864e-06,6.065228e-05,0.009808141,0.009858522,0.01131577,0.06706341,0.06707908,0.17046313,1.3420559e-11,1.0239674e-11,2.3528726e-11,5.4466604e-08,6.3104785e-08,5.0000178e-08,0.0,0.0,0.0,0.0,0.0,0.0,0.0,0.0,24
21805152000,21805072000,0.84246993,0.11589794,0.19620438,-0.4881761,-2.9273217,5.2032557,-5.7214737,-189.35678,337.98917,-365.51105,4.651805e-06,-2.155948e-06,-6.5501645e-06,-0.000106067695,-8.8328445e-05,0.00034591233,0.1924015,-0.016602265,0.49169207,0.012412617,-0.008561002,0.002714964,0.0,0.0,2.2732584e-05,8.818506e-06,6.8314e-06,6.064021e-05,0.0100102825,0.010062227,0.011430438,0.06845337,0.0684705,0.17126252,1.3408763e-11,1.0254128e-11,2.3379647e-11,5.4471027e-08,6.3109304e-08,5.0000143e-08,0.0,0.0,0.0,0.0,0.0,0.0,0.0,0.0,24
21806152000,21806072000,0.84232086,0.11595906,0.19635373,-0.48835886,-2.9177284,5.2207255,-5.741171,-192.28091,343.27258,-371.2405,4.531647e-06,-2.3730865e-06,-6.6991647e-06,-0.00010617387,-8.8269e-05,0.00034701687,0.1924015,-0.016602265,0.49169207,0.012412617,-0.008561002,0.002714964,0.0,0.0,2.2766219e-05,8.865728e-06,6.8747086e-06,6.0624378e-05,0.010361651,0.010417318,0.011574452,0.070326075,0.07034609,0.17198168,1.3405468e-11,1.02834885e-11,2.3242597e-11,5.4475482e-08,6.3113866e-08,5.0000075e-08,0.0,0.0,0.0,0.0,0.0,0.0,0.0,0.0,24
21807152000,21807072000,0.84452766,-0.09637588,0.01996159,-0.52638984,-1.0272689,2.7296622,-1.6582571,-194.70508,347.93835,-375.31912,4.5791853e-06,-2.8519878e-06,-6.9424136e-06,-0.00010506548,-8.822029e-05,0.00036141754,0.19086285,-0.016487084,0.48732442,0.012165268,-0.009572553,0.0010975228,0.0,0.0,2.548584e-05,5.9758913e-06,6.9909474e-06,6.0283648e-05,0.010828105,0.010098806,0.01027508,0.0719001,0.07191038,0.17235391,1.352251e-11,1.0358876e-11,2.2881643e-11,5.4467826e-08,6.310504e-08,5.0000516e-08,0.00064089923,1.7542681e-05,0.00068306754,0.00036013764,0.00049422757,0.00066368695,0.0,0.0,24
21808144000,21808064000,0.86305547,0.0067923814,0.041191157,-0.50338095,-0.25675705,0.27195576,-1.0206872,-195.49936,349.0603,-376.55753,4.529204e-06,-3.3196343e-06,-6.537377e-06,-0.00010167533,-7.9818776e-05,0.0003585002,0.19277687,-0.016698232,0.48515478,0.014228683,-0.008669877,0.0014758732,0.0,0.0,1.9775978e-05,6.4591795e-06,6.086896e-06,5.2822408e-05,0.012050538,0.010442971,0.008798192,0.06602249,0.065947495,0.1673913,1.3954361e-11,1.03897255e-11,2.0741313e-11,5.409535e-08,6.2667866e-08,5.0000427e-08,0.000460614,1.5788151e-05,0.0005253354,0.00021765998,0.0003544916,0.0005149388,0.0,0.0,24
21809144000,21809064000,0.84860283,-0.0949236,-0.14668867,-0.49934492,0.52155477,-0.978428,0.111762054,-195.48639,348.84515,-376.9309,4.5663655e-06,-3.3754586e-06,-6.2211557e-06,-9.7659366e-05,-6.340111e-05,0.00035802697,0.19427367,-0.01687383,0.48512116,0.015204876,-0.009543339,0.0006178938,0.0,0.0,1.9338675e-05,5.2120986e-06,5.441851e-06,5.1264065e-05,0.012674944,0.011866467,0.009234614,0.06772967,0.06751039,0.16572392,1.4438935e-11,1.0496434e-11,2.0215931e-11,5.2188483e-08,6.049038e-08,5.000011e-08,0.0004306598,1.5244131e-05,0.00048091073,0.0001872408,0.00032507261,0.00047236404,0.0,0.0,24
21810152000,21810072000,0.8566921,-0.06250937,-0.11181463,-0.49966875,0.892762,-1.6603088,0.7662033,-194.71976,347.34366,-376.4065,4.6331124e-06,-3.2003543e-06,-6.0629113e-06,-0.000112102825,-4.7695237e-05,0.00037006487,0.19484119,-0.016941953,0.48528963,0.015129216,-0.009987477,-0.0002666474,0.0,0.0,1.9277715e-05,4.881628e-06,4.9735986e-06,5.212282e-05,0.012813885,0.012549847,0.010397461,0.06983527,0.0695705,0.1649205,1.487733e-11,1.0669216e-11,2.033106e-11,5.0000217e-08,5.7494827e-08,5.0000185e-08,0.00041694636,1.4885527e-05,0.00045358663,0.00017670251,0.00031183663,0.00044357602,0.0,0.0,24
21811152000,21811072000,0.864883,-0.013766085,-0.049850974,-0.4993025,0.71280307,-1.0359795,1.0063543,-193.84288,345.87967,-375.52045,4.589633e-06,-2.904956e-06,-6.0415714e-06,-0.00013536119,-5.0965562e-05,0.00039435746,0.19473489,-0.01693981,0.48548892,0.014876173,-0.010125096,-0.0002287171,0.0,0.0,1.9460218e-05,5.444916e-06,5.163277e-06,5.3186868e-05,0.013852515,0.013081637,0.011816869,0.07215882,0.07202705,0.1649685,1.5008743e-11,1.0897618e-11,2.0725387e-11,5.000011e-08,5.4487156e-08,5.000011e-08,0.0004111787,1.4628131e-05,0.00044377262,0.00016987736,0.00030411957,0.00043564185,0.0,0.0,24
21812144000,21812064000,0.8648213,0.008390763,-0.0060912506,-0.50197285,0.33291602,-0.5095953,1.0691842,-193.27208,345.07834,-374.56372,4.3357e-06,-2.6980258e-06,-5.8663395e-06,-0.00014443313,-6.456236e-05,0.00043809455,0.19506282,-0.016990373,0.48578086,0.014710485,-0.010546632,0.00026115388,0.0,0.0,1.9171843e-05,6.0012862e-06,5.329358e-06,5.1488674e-05,0.0147704985,0.0134131005,0.013108836,0.074299514,0.074219234,0.16590622,1.4701865e-11,1.1141253e-11,2.0762668e-11,5.0000075e-08,5.2042544e-08,5.0000075e-08,0.00040390802,1.4341072e-05,0.00042591992,0.00016197932,0.00029719615,0.00041981228,0.0,0.0,24
21813144000,21813064000,0.8645987,0.011547271,0.014968579,-0.5021073,0.031349223,-0.08303331,1.0550183,-193.02339,344.79434,-373.60913,3.9261554e-06,-2.507339e-06,-5.533484e-06,-0.00014772176,-7.8641824e-05,0.00050349464,0.19517055,-0.017010106,0.48596677,0.014597108,-0.010826532,0.0003707616,0.0,0.0,1.736442e-05,5.7833763e-06,5.1251504e-06,4.615034e-05,0.012384816,0.011347195,0.013192168,0.067646064,0.06760231,0.1645697,1.3940113e-11,1.131333e-11,2.0132852e-11,5.0000146e-08,5.037026e-08,5.0000146e-08,0.0,0.0,0.0,0.0,0.0,0.0,0.0,0.0,24
21814152000,21814072000,0.8652201,0.006252039,0.009964577,-0.5012544,-0.069671854,0.010112298,1.0746105,-193.02634,344.78888,-372.6051,3.7148827e-06,-2.4645772e-06,-5.3903505e-06,-0.00014590088,-8.337218e-05,0.0005475756,0.19517055,-0.017010106,0.48596677,0.014597108,-0.010826532,0.0003707616,0.0,0.0,1.6172018e-05,5.660638e-06,5.222762e-06,4.2917967e-05,0.011940359,0.0111862905,0.013822287,0.069756456,0.069668114,0.1660988,1.3550689e-11,1.1529315e-11,1.9772796e-11,5.0000146e-08,5.0000576e-08,5.0000146e-08,0.0,0.0,0.0,0.0,0.0,0.0,0.0,0.0,24
21815152000,21815072000,0.86558926,0.004782718,0.0026086005,-0.500725,-0.055135872,-0.009725436,1.0629822,-193.10143,344.80237,-371.59952,3.768389e-06,-2.5243605e-06,-5.4814923e-06,-0.00014295775,-8.2742816e-05,0.00058535,0.19517055,-0.017010106,0.48596677,0.014597108,-0.010826532,0.0003707616,0.0,0.0,1.553073e-05,5.6822446e-06,5.411739e-06,4.112989e-05,0.011564405,0.0110370815,0.014236546,0.07150802,0.071373835,0.1694427,1.3273097e-11,1.1691263e-11,1.965341e-11,5.0000075e-08,5.0000594e-08,5.0000075e-08,0.0,0.0,0.0,0.0,0.0,0.0,0.0,0.0,24
21816152000,21816072000,0.86556715,0.0052927253,-0.0009966586,-0.5007639,0.008437404,-0.035710655,1.0718075,-193.13164,344.79218,-370.6037,3.8114774e-06,-2.5969089e-06,-5.561788e-06,-0.00014136868,-8.2533246e-05,0.0006204752,0.19517055,-0.017010106,0.48596677,0.014597108,-0.010826532,0.0003707616,0.0,0.0,1.5261638e-05,5.8512032e-06,5.6583635e-06,4.0382118e-05,0.011629653,0.011239459,0.014559025,0.073768124,0.07358907,0.17251562,1.3082154e-11,1.1817416e-11,1.9703844e-11,5.0000153e-08,5.0001255e-08,5.000004e-08,0.0,0.0,0.0,0.0,0.0,0.0,0.0,0.0,24
21817152000,21817072000,0.86552876,0.006444862,-0.0021101318,-0.5008133,0.025005843,-0.03586902,1.0546151,-193.12943,344.7688,-369.61993,3.9101633e-06,-2.6997157e-06,-5.66324e-06,-0.0001410509,-8.263479e-05,0.00065965427,0.19517055,-0.017010106,0.48596677,0.014597108,-0.010826532,0.0003707616,0.0,0.0,1.5124248e-05,5.7945995e-06,5.6616277e-06,4.0069328e-05,0.010199044,0.009979257,0.013767635,0.06741281,0.06730528,0.1699659,1.2699673e-11,1.174594e-11,1.9811564e-11,5.0000217e-08,5.000047e-08,5e-08,0.0,0.0,0.0,0.0,0.0,0.0,0.0,0.0,24
21818152000,21818072000,0.8655366,0.008828389,0.0010991719,-0.5007668,0.023781324,-0.019092653,1.0380125,-193.1034,344.71838,-368.59534,4.0143177e-06,-2.6122923e-06,-5.7571438e-06,-0.00014113572,-8.327968e-05,0.0006676652,0.19517055,-0.017010106,0.48596677,0.014597108,-0.010826532,0.0003707616,0.0,0.0,1.5191781e-05,5.9005265e-06,5.797287e-06,4.0345534e-05,0.01033407,0.010169391,0.01387881,0.06871953,0.06860928,0.1717667,1.24665165e-11,1.1715755e-11,2.0005041e-11,5.0000402e-08,5.000052e-08,5e-08,0.0,0.0,0.0,0.0,0.0,0.0,0.0,0.0,24
21819152000,21819072000,0.8653719,0.010430717,0.0018946514,-0.50101835,0.003958923,0.014819792,1.035742,-193.07704,344.69846,-367.60565,4.036564e-06,-2.479686e-06,-5.8133096e-06,-0.00014098798,-8.3446044e-05,0.00068496447,0.19517055,-0.017010106,0.48596677,0.014597108,-0.010826532,0.0003707616,0.0,0.0,1.535056e-05,5.9831964e-06,5.9123713e-06,4.082019e-05,0.010653107,0.010524751,0.014145833,0.07052651,0.070415184,0.17597482,1.2251336e-11,1.1661402e-11,2.0219916e-11,5.0000583e-08,5.0000615e-08,5.0000185e-08,0.0,0.0,0.0,0.0,0.0,0.0,0.0,0.0,24
21820152000,21820072000,0.86539495,0.009068141,0.0032047033,-0.5009982,-0.014290288,0.024322873,1.0450739,-193.04584,344.703,-366.6193,3.9138117e-06,-2.2918555e-06,-5.828134e-06,-0.00013996729,-8.190419e-05,0.0007035481,0.19517055,-0.017010106,0.48596677,0.014597108,-0.010826532,0.0003707616,0.0,0.0,1.5501066e-05,6.0323277e-06,5.985213e-06,4.134477e-05,0.010983469,0.010888483,0.014261686,0.07241906,0.07231436,0.17507981,1.2041547e-11,1.1580489e-11,2.042599e-11,5.0000697e-08,5.000068e-08,5e-08,0.0,0.0,0.0,0.0,0.0,0.0,0.0,0.0,24
21821144000,21821064000,0.8655312,0.008748576,0.0029167575,-0.5007703,-0.028897349,0.015949568,1.0459538,-193.0417,344.71002,-365.61526,3.8034868e-06,-2.1365631e-06,-5.8444293e-06,-0.00013883547,-8.0357175e-05,0.0007178934,0.19517055,-0.017010106,0.48596677,0.014597108,-0.010826532,0.0003707616,0.0,0.0,1.5694593e-05,5.8212013e-06,5.8074615e-06,4.2021726e-05,0.009875053,0.009820247,0.0135722235,0.066333435,0.06627284,0.17339925,1.1680739e-11,1.133968e-11,2.0643211e-11,5.0000445e-08,5.0000438e-08,5.000015e-08,0.0,0.0,0.0,0.0,0.0,0.0,0.0,0.0,24
21822152000,21822072000,0.8655006,0.008640736,0.0020868704,-0.50082904,-0.02612552,0.0151329385,1.0392225,-193.04008,344.71133,-364.6067,3.6705778e-06,-1.9721579e-06,-5.885043e-06,-0.00013734268,-7.842614e-05,0.00073298335,0.19517055,-0.017010106,0.48596677,0.014597108,-0.010826532,0.0003707616,0.0,0.0,1.5951862e-05,5.81205e-06,5.8191085e-06,4.2783144e-05,0.010175251,0.0101327365,0.013791562,0.068125054,0.068071544,0.17491665,1.1499758e-11,1.1231432e-11,2.0871445e-11,5.0000537e-08,5.0000555e-08,5.0000146e-08,0.0,0.0,0.0,0.0,0.0,0.0,0.0,0.0,24
21823152000,21823072000,0.8654546,0.009885064,0.0034664846,-0.5008779,-0.03340629,0.009764175,1.0286399,-193.03459,344.7101,-363.5961,3.5242413e-06,-1.8124323e-06,-5.9506256e-06,-0.00013559444,-7.633147e-05,0.0007433938,0.19517055,-0.017010106,0.48596677,0.014597108,-0.010826532,0.0003707616,0.0,0.0,1.6214572e-05,5.7859397e-06,5.808617e-06,4.3538403e-05,0.010413923,0.0103821475,0.013977644,0.069676615,0.069630764,0.17598264,1.1336106e-11,1.1122053e-11,2.1087427e-11,5.0000565e-08,5.000059e-08,5.000022e-08,0.0,0.0,0.0,0.0,0.0,0.0,0.0,0.0,24
21824152000,21824072000,0.8655823,0.008379991,0.005174879,-0.50066996,-0.03417194,0.013371462,1.0221831,-193.03926,344.71573,-362.577,3.4024254e-06,-1.7030242e-06,-5.9967015e-06,-0.0001341533,-7.466677e-05,0.0007446245,0.19517055,-0.017010106,0.48596677,0.014597108,-0.010826532,0.0003707616,0.0,0.0,1.6462089e-05,5.790273e-06,5.819779e-06,4.4319087e-05,0.010813206,0.010788859,0.014227636,0.071765244,0.07172432,0.17713492,1.1218823e-11,1.1043852e-11,2.1292718e-11,5.000062e-08,5.0000665e-08,5.000011e-08,0.0,0.0,0.0,0.0,0.0,0.0,0.0,0.0,24
21825152000,21825072000,0.8656327,0.007291338,0.0025664363,-0.50062,-0.032453433,0.018603487,1.0031656,-193.06194,344.72684,-361.56335,3.3560407e-06,-1.6459157e-06,-6.0618413e-06,-0.00013323412,-7.402091e-05,0.0007401931,0.19517055,-0.017010106,0.48596677,0.014597108,-0.010826532,0.0003707616,0.0,0.0,1.6720063e-05,5.7902557e-06,5.8272763e-06,4.508594e-05,0.011210902,0.01119316,0.014464329,0.07392355,0.073887214,0.17811775,1.1120831e-11,1.09749735e-11,2.1486233e-11,5.00013e-08,5.0001436e-08,5.000007e-08,0.0,0.0,0.0,0.0,0.0,0.0,0.0,0.0,24
21826152000,21826072000,0.86558783,0.0073917904,0.0009028392,-0.5007018,-0.013485566,0.0022495305,1.0057342,-193.08185,344.71915,-360.55853,3.395514e-06,-1.5434263e-06,-6.1345995e-06,-0.00013186251,-7.440859e-05,0.0007377437,0.19517055,-0.017010106,0.48596677,0.014597108,-0.010826532,0.0003707616,0.0,0.0,1.698366e-05,5.542239e-06,5.583165e-06,4.583292e-05,0.00996699,0.009958353,0.01367924,0.06748427,0.06746382,0.17377537,1.0877952e-11,1.075822e-11,2.1667324e-11,5.000046e-08,5.0000512e-08,5.0000036e-08,0.0,0.0,0.0,0.0,0.0,0.0,0.0,0.0,24
21827152000,21827072000,0.86558515,0.008082582,0.0009245772,-0.5006959,0.0027223467,0.009390764,0.98734385,-193.09099,344.70175,-359.5379,3.4888778e-06,-1.4374137e-06,-6.22782e-06,-0.00013032553,-7.53208e-05,0.0007239292,0.19517055,-0.017010106,0.48596677,0.014597108,-0.010826532,0.0003707616,0.0,0.0,1.7241937e-05,5.5393966e-06,5.581128e-06,4.6570993e-05,0.010256029,0.010250301,0.013882628,0.06918722,0.0691697,0.17458425,1.080938e-11,1.07048415e-11,2.1836586e-11,5.0000512e-08,5.0000583e-08,5e-08,0.0,0.0,0.0,0.0,0.0,0.0,0.0,0.0,24
21828144000,21828064000,0.8654634,0.009665928,0.00040913068,-0.5008788,0.0075535933,0.027327888,0.9719331,-193.09024,344.6832,-358.55865,3.6060499e-06,-1.2691933e-06,-6.299167e-06,-0.00012832962,-7.6448654e-05,0.00071839243,0.19517055,-0.017010106,0.48596677,0.014597108,-0.010826532,0.0003707616,0.0,0.0,1.7449856e-05,5.5306823e-06,5.5730948e-06,4.7131904e-05,0.010474389,0.010469673,0.014123827,0.07062257,0.0706079,0.17748784,1.0747754e-11,1.0655738e-11,2.1963249e-11,5.000054e-08,5.0000576e-08,5.000022e-08,0.0,0.0,0.0,0.0,0.0,0.0,0.0,0.0,24
21829152000,21829072000,0.8655294,0.009733958,0.0021090168,-0.5007591,0.000868985,0.041035872,0.9799614,-193.07906,344.68375,-357.5449,3.6612805e-06,-1.1075565e-06,-6.378687e-06,-0.00012650584,-7.689801e-05,0.0007054428,0.19517055,-0.017010106,0.48596677,0.014597108,-0.010826532,0.0003707616,0.0,0.0,1.7693228e-05,5.5815717e-06,5.6207814e-06,4.7865688e-05,0.010976976,0.01097264,0.014348414,0.07317941,0.073166244,0.17649822,1.0732155e-11,1.0650485e-11,2.211083e-11,5.0001283e-08,5.0001372e-08,5e-08,0.0,0.0,0.0,0.0,0.0,0.0,0.0,0.0,24
21830144000,21830064000,0.8654939,0.010574578,0.001313082,-0.5008061,-0.003572159,0.042679764,0.97940415,-193.083,344.67444,-356.5512,3.7777772e-06,-9.093161e-07,-6.444771e-06,-0.00012452216,-7.786534e-05,0.0006944533,0.19517055,-0.017010106,0.48596677,0.014597108,-0.010826532,0.0003707616,0.0,0.0,1.7922663e-05,5.3825224e-06,5.4200723e-06,4.8528935e-05,0.009806365,0.009803494,0.013655533,0.06683843,0.066831,0.17450368,1.05644556e-11,1.0494557e-11,2.2237663e-11,5.000047e-08,5.000046e-08,5.0000185e-08,0.0,0.0,0.0,0.0,0.0,0.0,0.0,0.0,24
21831152000,21831072000,0.8654901,0.010635071,0.002316181,-0.5008078,-1.0276301e-05,0.038951322,0.97027004,-193.08032,344.68564,-355.54688,3.83233e-06,-7.7685576e-07,-6.517539e-06,-0.0001233039,-7.8255885e-05,0.00068407116,0.19517055,-0.017010106,0.48596677,0.014597108,-0.010826532,0.0003707616,0.0,0.0,1.815854e-05,5.393253e-06,5.42807e-06,4.9218983e-05,0.010047211,0.010044997,0.013866349,0.068465546,0.068459354,0.17592892,1.0534242e-11,1.0472921e-11,2.2361463e-11,5.000054e-08,5.0000533e-08,5.000026e-08,0.0,0.0,0.0,0.0,0.0,0.0,0.0,0.0,24
21832152000,21832072000,0.86541015,0.010308707,0.00019031418,-0.500958,-0.010395124,0.029754212,0.98648554,-193.07634,344.6983,-354.5627,3.8556677e-06,-6.4908824e-07,-6.508972e-06,-0.00012224312,-7.846755e-05,0.00068155257,0.19517055,-0.017010106,0.48596677,0.014597108,-0.010826532,0.0003707616,0.0,0.0,1.8377317e-05,5.4260045e-06,5.4602046e-06,4.9872266e-05,0.010378829,0.010377325,0.014026315,0.07034802,0.07034275,0.17466684,1.0524119e-11,1.0470305e-11,2.2470296e-11,5.0000608e-08,5.0000608e-08,5.000004e-08,0.0,0.0,0.0,0.0,0.0,0.0,0.0,0.0,24
21833152000,21833072000,0.8653533,0.01194069,8.3127954e-05,-0.50102013,-0.011586894,0.026855899,1.0095936,-193.06741,344.70688,-353.56815,3.805166e-06,-5.2998024e-07,-6.4960423e-06,-0.00012132699,-7.818511e-05,0.00068045815,0.19517055,-0.017010106,0.48596677,0.014597108,-0.010826532,0.0003707616,0.0,0.0,1.8583878e-05,5.4614648e-06,5.4968646e-06,5.0510054e-05,0.010708352,0.010707054,0.014261817,0.07227239,0.072268054,0.17596832,1.0518574e-11,1.0471538e-11,2.2569441e-11,5.000069e-08,5.0000672e-08,5e-08,0.0,0.0,0.0,0.0,0.0,0.0,0.0,0.0,24
21834152000,21834072000,0.86543894,0.010513309,0.0019353505,-0.5009003,-0.012382342,0.017787118,0.9960873,-193.04861,344.7163,-352.58142,3.6966942e-06,-3.9261155e-07,-6.5045783e-06,-0.00012033939,-7.751448e-05,0.0006860685,0.19517055,-0.017010106,0.48596677,0.014597108,-0.010826532,0.0003707616,0.0,0.0,1.8773433e-05,5.3128e-06,5.344145e-06,5.114098e-05,0.00972502,0.009724426,0.013642554,0.06655474,0.066552244,0.17466837,1.0401208e-11,1.0361583e-11,2.2658935e-11,5.0000512e-08,5.00005e-08,5.000026e-08,0.0,0.0,0.0,0.0,0.0,0.0,0.0,0.0,24
