timestamp,timestamp_sample,gyro_device_id,gyro_bias[0],gyro_bias[1],gyro_bias[2],gyro_bias_limit,gyro_bias_variance[0],gyro_bias_variance[1],gyro_bias_variance[2],accel_device_id,accel_bias[0],accel_bias[1],accel_bias[2],accel_bias_limit,accel_bias_variance[0],accel_bias_variance[1],accel_bias_variance[2],mag_device_id,mag_bias[0],mag_bias[1],mag_bias[2],mag_bias_limit,mag_bias_variance[0],mag_bias_variance[1],mag_bias_variance[2],gyro_bias_valid,gyro_bias_stable,accel_bias_valid,accel_bias_stable,mag_bias_valid,mag_bias_stable
21726068000,21725988000,1310988,0.0010146495,6.968327e-05,-0.00022511034,0.34906584,1.3783935e-07,1.3784027e-07,3.5922287e-07,1310988,-0.018321475,-0.0048063034,-0.029551825,0.4,0.0013628304,0.0013696776,0.00078123936,197644,0.012257942,-0.005905553,-0.0017324948,0.5,2.3022552e-05,6.652221e-05,8.220243e-05,1,1,1,0,1,0
21726692000,21726612000,1310988,0.000987228,7.9150974e-05,-0.0002246078,0.34906584,1.3783374e-07,1.3783634e-07,3.591059e-07,1310988,-0.018325083,-0.0048011085,-0.03178582,0.4,0.0013628727,0.00136972,0.00078123936,197644,0.012257942,-0.005905553,-0.0017324948,0.5,2.3022552e-05,6.652221e-05,8.220243e-05,1,1,1,0,1,0
21727316000,21727236000,1310988,0.0009675163,8.685924e-05,-0.0002220641,0.34906584,1.378326e-07,1.3783601e-07,3.5899245e-07,1310988,-0.01832911,-0.0047996384,-0.032978218,0.4,0.0013629168,0.0013697632,0.00078123936,197644,0.012257942,-0.005905553,-0.0017324948,0.5,2.3022552e-05,6.652221e-05,8.220243e-05,1,1,1,0,1,0
21727524000,21727444000,1310988,0.0009619915,8.695579e-05,-0.00022737432,0.34906584,1.3783061e-07,1.3783442e-07,3.5895647e-07,1310988,-0.018329738,-0.004798483,-0.034101155,0.4,0.0013629313,0.0013697777,0.00078123936,197644,0.012257942,-0.005905553,-0.0017324948,0.5,2.3022552e-05,6.652221e-05,8.220243e-05,1,1,1,0,1,0
21727732000,21727652000,1310988,0.0009552953,8.3538056e-05,-0.00022490458,0.34906584,1.378333e-07,1.3783786e-07,3.5892e-07,1310988,-0.018330542,-0.0048013073,-0.03307647,0.4,0.0013629457,0.0013697922,0.00078123936,197644,0.012257942,-0.005905553,-0.0017324948,0.5,2.3022552e-05,6.652221e-05,8.220243e-05,1,1,1,0,1,0
21727940000,21727860000,1310988,0.00094963366,9.2174705e-05,-0.00022413206,0.34906584,1.3783179e-07,1.3783595e-07,3.5888195e-07,1310988,-0.018331844,-0.0047991555,-0.034214742,0.4,0.0013629593,0.0013698067,0.00078123936,197644,0.012257942,-0.005905553,-0.0017324948,0.5,2.3022552e-05,6.652221e-05,8.220243e-05,1,1,1,0,1,0
21728940000,21728860000,1310988,0.00091992685,9.25399e-05,-0.000228273,0.34906584,1.3917601e-07,1.3918202e-07,3.589442e-07,1310988,-0.018334808,-0.004800797,-0.034727693,0.4,0.0013630294,0.0013698761,0.0007812462,197644,0.012257942,-0.005905553,-0.0017324948,0.5,2.3022552e-05,6.652221e-05,8.220243e-05,1,1,1,0,1,0
21729188000,21729108000,1310988,0.00090724806,9.215555e-05,-0.00022721812,0.34906584,1.3783908e-07,1.378457e-07,3.592276e-07,1310988,-0.01833553,-0.0048054736,-0.03207056,0.4,0.001363046,0.0013698926,0.00078123936,197644,0.012257942,-0.005905553,-0.0017324948,0.5,2.3022552e-05,6.652221e-05,8.220243e-05,1,1,1,0,1,0
21730020000,21729940000,1310988,0.00088380254,7.884199e-05,-0.000229641,0.34906584,1.3782807e-07,1.3783631e-07,3.5908266e-07,1310988,-0.018332794,-0.004800371,-0.035848584,0.4,0.0013631004,0.0013699471,0.00078123936,197644,0.012257942,-0.005905553,-0.0017324948,0.5,2.3022552e-05,6.652221e-05,8.220243e-05,1,1,1,0,1,0
21730436000,21730356000,1310988,0.00088860583,7.917429e-05,-0.00022915543,0.34906584,1.3783445e-07,1.3784096e-07,3.590069e-07,1310988,-0.018334158,-0.0048016827,-0.033900164,0.4,0.0013631284,0.0013699747,0.00078123936,197644,0.012257942,-0.005905553,-0.0017324948,0.5,2.3022552e-05,6.652221e-05,8.220243e-05,1,1,1,0,1,0
21730644000,21730564000,1310988,0.0008884556,8.572341e-05,-0.00022861188,0.34906584,1.3783212e-07,1.3783774e-07,3.5897096e-07,1310988,-0.018333547,-0.0048015215,-0.035286646,0.4,0.0013631426,0.0013699891,0.00078123936,197644,0.012257942,-0.005905553,-0.0017324948,0.5,2.3022552e-05,6.652221e-05,8.220243e-05,1,1,1,0,1,0
21731268000,21731188000,1310988,0.0008923314,7.0528054e-05,-0.00022988304,0.34906584,1.3783516e-07,1.3784027e-07,3.5886757e-07,1310988,-0.018333385,-0.004800657,-0.034112167,0.4,0.0013631851,0.001370033,0.00078123936,197644,0.012257942,-0.005905553,-0.0017324948,0.5,2.3022552e-05,6.652221e-05,8.220243e-05,1,1,1,0,1,0
21731892000,21731812000,1310988,0.0008930879,6.153164e-05,-0.00022649282,0.34906584,1.3783095e-07,1.3783566e-07,3.5876195e-07,1310988,-0.018333351,-0.0048001683,-0.03555614,0.4,0.0013632278,0.0013700759,0.00078123936,197644,0.012257942,-0.005905553,-0.0017324948,0.5,2.3022552e-05,6.652221e-05,8.220243e-05,1,1,1,0,1,0
21732100000,21732020000,1310988,0.0008931783,7.237704e-05,-0.00022407838,0.34906584,1.3783621e-07,1.3783998e-07,3.5872537e-07,1310988,-0.018334897,-0.004801745,-0.033734523,0.4,0.0013632408,0.0013700898,0.00078123936,197644,0.012257942,-0.005905553,-0.0017324948,0.5,2.3022552e-05,6.652221e-05,8.220243e-05,1,1,1,0,1,0
21732308000,21732228000,1310988,0.0009016919,7.323111e-05,-0.00022341612,0.34906584,1.3784256e-07,1.3784525e-07,3.586914e-07,1310988,-0.018338282,-0.004801809,-0.030723276,0.4,0.0013632537,0.0013701019,0.00078123936,197644,0.012257942,-0.005905553,-0.0017324948,0.5,2.3022552e-05,6.652221e-05,8.220243e-05,1,1,1,0,1,0
21732516000,21732436000,1310988,0.000896338,8.402665e-05,-0.00022348214,0.34906584,1.3785153e-07,1.3785386e-07,3.5865452e-07,1310988,-0.018339366,-0.0048058014,-0.026294542,0.4,0.0013632644,0.0013701132,0.00078123936,197644,0.012257942,-0.005905553,-0.0017324948,0.5,2.3022552e-05,6.652221e-05,8.220243e-05,1,1,1,0,1,0
21732724000,21732644000,1310988,0.00089235493,9.6355245e-05,-0.00022360859,0.34906584,1.3785524e-07,1.378569e-07,3.5861768e-07,1310988,-0.018339105,-0.0048069404,-0.023737224,0.4,0.0013632776,0.0013701272,0.00078123936,197644,0.012257942,-0.005905553,-0.0017324948,0.5,2.3022552e-05,6.652221e-05,8.220243e-05,1,1,1,0,1,0
21732932000,21732852000,1310988,0.00089421635,0.000102985636,-0.00022265138,0.34906584,1.3785818e-07,1.3785905e-07,3.585866e-07,1310988,-0.018340234,-0.004807545,-0.021013364,0.4,0.0013632918,0.0013701415,0.00078123936,197644,0.012257942,-0.005905553,-0.0017324948,0.5,2.3022552e-05,6.652221e-05,8.220243e-05,1,1,1,0,1,0
21733932000,21733852000,1310988,0.0008950731,0.00010316767,-0.00023156725,0.34906584,1.4566264e-07,1.4566325e-07,3.5867754e-07,1310988,-0.01834061,-0.00480752,-0.020823415,0.4,0.001363363,0.0013702124,0.00078124163,197644,0.012257942,-0.005905553,-0.0017324948,0.5,2.3022552e-05,6.652221e-05,8.220243e-05,1,0,1,0,1,0
21734828000,21734748000,1310988,0.00089467084,0.00010682026,-0.00023046452,0.34906584,1.5110035e-07,1.511007e-07,3.590531e-07,1310988,-0.018279485,-0.004804997,-0.022116903,0.4,0.0013628165,0.0013696601,0.00078123936,197644,0.012257942,-0.005905553,-0.0017324948,0.5,2.3022552e-05,6.652221e-05,8.220243e-05,1,0,1,0,1,0
21735604000,21735524000,1310988,0.0008907928,0.00011386731,-0.00023233244,0.34906584,1.543027e-07,1.543032e-07,3.595943e-07,1310988,-0.018213524,-0.0047477777,-0.020765483,0.4,0.0013620963,0.0013689334,0.00078123936,197644,0.012257942,-0.005905553,-0.0017324948,0.5,0.0025000002,0.0025000002,0.0025000002,1,0,1,0,1,0
21736020000,21735940000,1310988,0.00088831136,0.00011882918,-0.0002321651,0.34906584,1.5552669e-07,1.5552733e-07,3.6292178e-07,1310988,-0.018417725,-0.0048529273,-0.018962296,0.4,0.0013590916,0.0013658996,0.00078123936,197644,0.012257942,-0.005905553,-0.0017324948,0.5,0.0025000002,0.0025000002,0.0025000002,1,0,1,0,1,0
21736644000,21736564000,1310988,0.00088163005,0.00012122213,-0.00023147416,0.34906584,1.5804257e-07,1.5804265e-07,3.6790965e-07,1310988,-0.01857051,-0.0056131147,-0.017874857,0.4,0.0013300445,0.0013365689,0.00078123936,197644,0.012257942,-0.005905553,-0.0017324948,0.5,0.0025000002,0.0025000002,0.0025000002,1,0,1,0,1,0
21737212000,21737132000,1310988,0.0008805258,0.00012205306,-0.00023088756,0.34906584,1.6126225e-07,1.6126094e-07,3.724444e-07,1310988,-0.018562132,-0.005885314,-0.016824938,0.4,0.0012809276,0.0012869975,0.00078123936,197644,0.012257942,-0.005905553,-0.0017324948,0.5,0.0025000002,0.0025000002,0.0025000002,1,0,1,0,1,0
21738204000,21738124000,1310988,0.00087755814,0.00012262972,-0.00022952852,0.34906584,1.6742459e-07,1.6741944e-07,3.8034415e-07,1310988,-0.018226942,-0.0065659983,-0.016162261,0.4,0.0011664368,0.0011715756,0.00078123936,197644,0.012257942,-0.005905553,-0.0017324948,0.5,0.0025000002,0.0025000002,0.0025000002,1,0,1,0,1,0
21739204000,21739124000,1310988,0.000875078,0.00012389345,-0.00022776939,0.34906584,1.7431933e-07,1.7430706e-07,3.882648e-07,1310988,-0.018353706,-0.007185054,-0.01542665,0.4,0.001077053,0.0010818739,0.0007812411,197644,0.012257942,-0.005905553,-0.0017324948,0.5,0.0025000002,0.0025000002,0.0025000002,1,0,1,0,1,0
21739348000,21739268000,1310988,0.0008739732,0.00012461007,-0.00022752736,0.34906584,1.75261e-07,1.7524464e-07,3.8940908e-07,1310988,-0.018578662,-0.007539978,-0.015367405,0.4,0.0010618542,0.0010669038,0.0007812428,197644,0.010141335,-0.006920998,-0.00020033043,0.5,0.0014248746,0.0015465411,0.0016288533,1,0,1,0,1,0
21739412000,21739332000,1310988,0.0008739744,0.00012461004,-0.00022752736,0.34906584,1.75773e-07,1.7575664e-07,3.899211e-07,1310988,-0.018579075,-0.007539757,-0.015326228,0.4,0.0010618586,0.0010669084,0.0007812434,197644,0.010738387,-0.0067466795,0.00064654753,0.5,0.001121664,0.0012968514,0.0014325095,1,0,1,0,1,0
21739604000,21739524000,1310988,0.00086989265,0.00012727262,-0.00022692078,0.34906584,1.770768e-07,1.7704495e-07,3.9145297e-07,1310988,-0.019298205,-0.008790982,-0.01599688,0.4,0.0010484478,0.001054556,0.00078123936,197644,0.010973139,-0.0065452643,0.0007907278,0.5,0.00089501555,0.0011065771,0.0012942089,1,0,1,0,1,0
21739820000,21739740000,1310988,0.00086596137,0.00012824051,-0.00022623494,0.34906584,1.7859217e-07,1.7853245e-07,3.9317507e-07,1310988,-0.019451607,-0.009825895,-0.016191265,0.4,0.0010378165,0.0010457492,0.00078123936,197644,0.011226382,-0.0062717083,0.0012235626,0.5,0.0007682381,0.0010076442,0.001225426,1,0,1,0,1,0
21740028000,21739948000,1310988,0.00086284184,0.00012821051,-0.00022570313,0.34906584,1.8005859e-07,1.7995927e-07,3.9483388e-07,1310988,-0.019299734,-0.010528866,-0.016940113,0.4,0.0010294003,0.0010395073,0.00078123936,197644,0.011496319,-0.0066501983,0.0013866076,0.5,0.0007084348,0.0009656176,0.0011968456,1,0,1,0,1,0
21740444000,21740364000,1310988,0.0008579621,0.00012540624,-0.00022507856,0.34906584,1.8300757e-07,1.8279844e-07,3.9815436e-07,1310988,-0.018647734,-0.011353372,-0.017421419,0.4,0.0010172678,0.0010316592,0.00078123936,197644,0.01182873,-0.0071960883,0.0013730876,0.5,0.0006499165,0.0009273864,0.0011711117,1,0,1,0,1,0
21741012000,21740932000,1310988,0.00085320574,0.000119539305,-0.00022511718,0.34906584,1.870184e-07,1.866276e-07,4.0265087e-07,1310988,-0.017823217,-0.011868595,-0.017863024,0.4,0.0010082752,0.0010263906,0.00078123936,197644,0.012286261,-0.007688892,0.001820649,0.5,0.00061630335,0.0009051444,0.0011555123,1,0,1,0,1,0
21741636000,21741556000,1310988,0.0008478847,0.00011248063,-0.00022630846,0.34906584,1.9109744e-07,1.9041292e-07,4.0747997e-07,1310988,-0.016889952,-0.01223773,-0.018895485,0.4,0.0009987772,0.0010218305,0.00078123936,197644,0.012569357,-0.007968414,0.00189489,0.5,0.00060034235,0.0008933246,0.0011462611,1,0,1,0,1,0
21742636000,21742556000,1310988,0.0008423125,9.870166e-05,-0.00022781457,0.34906584,1.969228e-07,1.9583278e-07,4.1472742e-07,1310988,-0.01627971,-0.012379211,-0.018366825,0.4,0.0009871309,0.0010179561,0.00078124,197644,0.01241996,-0.008005494,0.0020279281,0.5,0.0005874962,0.0008812564,0.0011341806,1,0,1,0,1,0
21743636000,21743556000,1310988,0.0008342324,8.622742e-05,-0.00023344788,0.34906584,2.0125906e-07,1.9987544e-07,4.2095905e-07,1310988,-0.01562778,-0.012626414,-0.01850772,0.4,0.00097425195,0.0010153297,0.00078123994,197644,0.012535313,-0.008341722,0.0023429263,0.5,0.0005820623,0.0008745539,0.0011245977,1,0,1,0,1,0
21744268000,21744188000,1310988,0.00083470484,7.203641e-05,-0.00023311298,0.34906584,2.0266285e-07,2.0109908e-07,4.2393378e-07,1310988,-0.015659686,-0.012661608,-0.01750059,0.4,0.0009637568,0.0010138237,0.00078123936,197644,0.012616082,-0.008557791,0.002463576,0.5,0.0005796804,0.0008712896,0.0011186816,1,0,1,0,1,0
21745268000,21745188000,1310988,0.0008346906,5.3598418e-05,-0.00023301317,0.34906584,2.0424807e-07,2.0219659e-07,4.2771995e-07,1310988,-0.015442963,-0.012655123,-0.016982079,0.4,0.0009486138,0.0010119341,0.0007812405,197644,0.01251799,-0.008665477,0.0027867933,0.5,0.00057683216,0.00086742645,0.0011101544,1,0,1,0,1,0
21746268000,21746188000,1310988,0.0008394203,2.8963981e-05,-0.00022967288,0.34906584,2.0509906e-07,2.0186044e-07,4.2989035e-07,1310988,-0.014831239,-0.012644106,-0.017538492,0.4,0.00093343674,0.001008282,0.00078123994,197644,0.01251799,-0.008665477,0.0027867933,0.5,0.00057683216,0.00086742645,0.0011101544,1,0,1,0,1,0
21747268000,21747188000,1310988,0.0008428145,2.3201003e-06,-0.00022857364,0.34906584,2.0565936e-07,2.0064132e-07,4.3203326e-07,1310988,-0.014890097,-0.012704751,-0.016728373,0.4,0.00091934815,0.0010059163,0.0007812405,197644,0.01251799,-0.008665477,0.0027867933,0.5,0.00057683216,0.00086742645,0.0011101544,1,0,1,0,1,0
21748268000,21748188000,1310988,0.00086075993,-3.7733866e-05,-0.00021679225,0.34906584,2.0346936e-07,1.9527482e-07,4.3224213e-07,1310988,-0.014454568,-0.0127955945,-0.017210154,0.4,0.00090373383,0.0010042402,0.0007812411,197644,0.01251799,-0.008665477,0.0027867933,0.5,0.00057683216,0.00086742645,0.0011101544,1,0,1,0,1,0
21749020000,21748940000,1310988,0.00087434595,-6.184707e-05,-0.00020659012,0.34906584,2.0294327e-07,1.9255982e-07,4.331906e-07,1310988,-0.014005626,-0.012846533,-0.018138196,0.4,0.00089539646,0.0010032097,0.00078123936,197644,0.01251799,-0.008665477,0.0027867933,0.5,0.00057683216,0.00086742645,0.0011101544,1,0,1,0,1,0
21749644000,21749564000,1310988,0.0008779636,-8.801994e-05,-0.00020604748,0.34906584,2.0201296e-07,1.8951707e-07,4.3359503e-07,1310988,-0.013568519,-0.012903481,-0.019186126,0.4,0.00088846503,0.0010025083,0.00078123936,197644,0.01251799,-0.008665477,0.0027867933,0.5,0.00057683216,0.00086742645,0.0011101544,1,0,1,0,1,0
21750428000,21750348000,1310988,0.0008896798,-0.00011369802,-0.00019702269,0.34906584,2.0174924e-07,1.8706776e-07,4.3470874e-07,1310988,-0.013220356,-0.012964217,-0.020206688,0.4,0.00088221364,0.0010016005,0.00078123936,197644,0.01251799,-0.008665477,0.0027867933,0.5,0.00057683216,0.00086742645,0.0011101544,1,0,1,0,1,0
21751428000,21751348000,1310988,0.000900235,-0.0001310596,-0.00019030969,0.34906584,2.0128535e-07,1.8396186e-07,4.3592652e-07,1310988,-0.012937099,-0.013053265,-0.02114078,0.4,0.0008754353,0.0010004004,0.00078123936,197644,0.01251799,-0.008665477,0.0027867933,0.5,0.00057683216,0.00086742645,0.0011101544,1,0,1,0,1,0
21752428000,21752348000,1310988,0.0009088687,-0.00014078624,-0.0001887423,0.34906584,2.0140787e-07,1.8168008e-07,4.374421e-07,1310988,-0.0128293885,-0.013189645,-0.021540392,0.4,0.0008702274,0.0009993496,0.0007812428,197644,0.01251799,-0.008665477,0.0027867933,0.5,0.00057683216,0.00086742645,0.0011101544,1,0,1,0,1,0
21753428000,21753348000,1310988,0.0009031578,-0.00013776596,-0.00020040879,0.34906584,2.0122849e-07,1.7916466e-07,4.3850034e-07,1310988,-0.012848764,-0.013218501,-0.021260997,0.4,0.00086608937,0.0009982245,0.00078124227,197644,0.01251799,-0.008665477,0.0027867933,0.5,0.00057683216,0.00086742645,0.0011101544,1,0,1,0,1,0
21754428000,21754348000,1310988,0.0008995272,-0.00012220217,-0.00021148947,0.34906584,1.9961014e-07,1.746893e-07,4.3812997e-07,1310988,-0.01283638,-0.013270773,-0.020803997,0.4,0.0008624679,0.0009969985,0.00078123936,197644,0.01251799,-0.008665477,0.0027867933,0.5,0.00057683216,0.00086742645,0.0011101544,1,0,1,0,1,0
21755420000,21755340000,1310988,0.000901905,-0.00010081811,-0.00021593724,0.34906584,2.0000212e-07,1.7310212e-07,4.3926346e-07,1310988,-0.012873328,-0.013364874,-0.019774942,0.4,0.00086027617,0.0009959618,0.00078123936,197644,0.01251799,-0.008665477,0.0027867933,0.5,0.00057683216,0.00086742645,0.0011101544,1,0,1,0,1,0
21756420000,21756340000,1310988,0.00089666754,-6.757977e-05,-0.00023071276,0.34906584,2.0058259e-07,1.7183041e-07,4.4036045e-07,1310988,-0.012790998,-0.013409387,-0.018978389,0.4,0.0008586359,0.000994948,0.00078124,197644,0.01251799,-0.008665477,0.0027867933,0.5,0.00057683216,0.00086742645,0.0011101544,1,0,1,0,1,0
21757028000,21756948000,1310988,0.0008896979,-4.7158872e-05,-0.00024144835,0.34906584,2.0019182e-07,1.6988382e-07,4.4038728e-07,1310988,-0.012822838,-0.01339468,-0.017457286,0.4,0.0008577292,0.0009943342,0.00078123936,197644,0.01251799,-0.008665477,0.0027867933,0.5,0.00057683216,0.00086742645,0.0011101544,1,0,1,0,1,0
21757444000,21757364000,1310988,0.000887206,-3.250377e-05,-0.0002494817,0.34906584,2.002385e-07,1.6901251e-07,4.4058407e-07,1310988,-0.012850866,-0.013422604,-0.016098283,0.4,0.0008572245,0.0009939416,0.00078123936,197644,0.01251799,-0.008665477,0.0027867933,0.5,0.00057683216,0.00086742645,0.0011101544,1,0,1,0,1,0
21758220000,21758140000,1310988,0.000882113,-1.44105425e-05,-0.00026165877,0.34906584,2.0107291e-07,1.6839851e-07,4.414895e-07,1310988,-0.012864581,-0.013436985,-0.014584761,0.4,0.0008565105,0.0009933113,0.00078123936,197644,0.01251799,-0.008665477,0.0027867933,0.5,0.00057683216,0.00086742645,0.0011101544,1,0,1,0,1,0
21758644000,21758564000,1310988,0.0008795798,-9.173764e-06,-0.00026602446,0.34906584,2.0124531e-07,1.6762246e-07,4.4169525e-07,1310988,-0.012937548,-0.013435896,-0.013032024,0.4,0.00085612433,0.0009929667,0.00078123936,197644,0.01251799,-0.008665477,0.0027867933,0.5,0.00057683216,0.00086742645,0.0011101544,1,0,1,0,1,0
21759212000,21759132000,1310988,0.0008784775,-3.3196482e-06,-0.00027088536,0.34906584,2.0217142e-07,1.6758126e-07,4.424995e-07,1310988,-0.012969355,-0.013453445,-0.011975175,0.4,0.000855756,0.0009925808,0.00078123936,197644,0.01251799,-0.008665477,0.0027867933,0.5,0.00057683216,0.00086742645,0.0011101544,1,0,1,0,1,0
21759628000,21759548000,1310988,0.00087635464,4.4108465e-06,-0.00027701462,0.34906584,2.022522e-07,1.6668918e-07,4.4257598e-07,1310988,-0.013005237,-0.013465629,-0.010511284,0.4,0.00085544446,0.0009922676,0.00078123936,197644,0.01251799,-0.008665477,0.0027867933,0.5,0.00057683216,0.00086742645,0.0011101544,1,0,1,0,1,0
21760044000,21759964000,1310988,0.0008810273,1.0841737e-05,-0.00027592314,0.34906584,2.0248632e-07,1.660242e-07,4.4276658e-07,1310988,-0.013056315,-0.013528181,-0.008703185,0.4,0.0008551823,0.0009919789,0.00078123936,197644,0.01251799,-0.008665477,0.0027867933,0.5,0.00057683216,0.00086742645,0.0011101544,1,0,1,0,1,0
21760412000,21760332000,1310988,0.0008835843,1.4465224e-05,-0.0002757206,0.34906584,2.0356606e-07,1.6668714e-07,4.4363114e-07,1310988,-0.013083574,-0.013563705,-0.0075853653,0.4,0.0008550384,0.0009917968,0.00078123936,197644,0.01251799,-0.008665477,0.0027867933,0.5,0.00057683216,0.00086742645,0.0011101544,1,0,1,0,1,0
21760612000,21760532000,1310988,0.0008855886,2.2330096e-05,-0.0002751924,0.34906584,2.0350618e-07,1.6613271e-07,4.435708e-07,1310988,-0.013070664,-0.013593265,-0.006461547,0.4,0.0008549169,0.0009916548,0.00078123936,197644,0.01251799,-0.008665477,0.0027867933,0.5,0.00057683216,0.00086742645,0.0011101544,1,0,1,0,1,0
21761036000,21760956000,1310988,0.000891812,3.3519555e-05,-0.00027321235,0.34906584,2.0371665e-07,1.6541205e-07,4.4372828e-07,1310988,-0.0130615225,-0.013667668,-0.004935303,0.4,0.0008546875,0.0009913881,0.00078123936,197644,0.01251799,-0.008665477,0.0027867933,0.5,0.00057683216,0.00086742645,0.0011101544,1,0,1,0,1,0
21761452000,21761372000,1310988,0.0008947158,4.101381e-05,-0.00027308668,0.34906584,2.0531644e-07,1.6675115e-07,4.4485265e-07,1310988,-0.013053777,-0.0137070855,-0.0039299224,0.4,0.0008545733,0.0009912194,0.00078123936,197644,0.01251799,-0.008665477,0.0027867933,0.5,0.00057683216,0.00086742645,0.0011101544,1,0,1,0,1,0
21761812000,21761732000,1310988,0.00090190227,5.0610353e-05,-0.00026871386,0.34906584,2.0486003e-07,1.6522264e-07,4.4453645e-07,1310988,-0.013028257,-0.01377725,-0.002651001,0.4,0.00085435493,0.0009909763,0.00078123936,197644,0.01251799,-0.008665477,0.0027867933,0.5,0.00057683216,0.00086742645,0.0011101544,1,0,1,0,1,0
21762228000,21762148000,1310988,0.0009076092,6.2872285e-05,-0.00026529102,0.34906584,2.0501292e-07,1.6447738e-07,4.4461692e-07,1310988,-0.012996775,-0.013836924,-0.0010162751,0.4,0.00085416244,0.0009907425,0.00078123936,197644,0.01251799,-0.008665477,0.0027867933,0.5,0.00057683216,0.00086742645,0.0011101544,1,0,1,0,1,0
21762436000,21762356000,1310988,0.00091305334,7.077901e-05,-0.00026163599,0.34906584,2.0514567e-07,1.6418868e-07,4.446883e-07,1310988,-0.012967994,-0.01388794,0.00010972321,0.4,0.00085407513,0.0009906325,0.00078123936,197644,0.01251799,-0.008665477,0.0027867933,0.5,0.00057683216,0.00086742645,0.0011101544,1,0,1,0,1,0
21763108000,21763028000,1310988,0.0009167972,8.244758e-05,-0.00026575904,0.34906584,2.0704884e-07,1.6545195e-07,4.4581714e-07,1310988,-0.0129298745,-0.013947197,0.0011338224,0.4,0.00085390155,0.0009903678,0.00078123936,197644,0.01251799,-0.008665477,0.0027867933,0.5,0.00057683216,0.00086742645,0.0011101544,1,0,1,0,1,0
21763428000,21763348000,1310988,0.00092298444,8.6778724e-05,-0.00026281664,0.34906584,2.0649446e-07,1.6386959e-07,4.455295e-07,1310988,-0.012925429,-0.014005122,0.0025858535,0.4,0.0008537299,0.0009901876,0.00078123936,197644,0.01251799,-0.008665477,0.0027867933,0.5,0.00057683216,0.00086742645,0.0011101544,1,1,1,0,1,0
21763844000,21763764000,1310988,0.0009278917,9.67506e-05,-0.00025851847,0.34906584,2.067372e-07,1.6330016e-07,4.456096e-07,1310988,-0.012886184,-0.014047289,0.0037676399,0.4,0.00085357705,0.0009899989,0.00078123936,197644,0.01251799,-0.008665477,0.0027867933,0.5,0.00057683216,0.00086742645,0.0011101544,1,1,1,0,1,0
21764412000,21764332000,1310988,0.0009327534,0.00010300599,-0.00025442935,0.34906584,2.0775805e-07,1.6354578e-07,4.4618585e-07,1310988,-0.012870803,-0.014088536,0.0053860587,0.4,0.00085342175,0.0009897894,0.00078123936,197644,0.01251799,-0.008665477,0.0027867933,0.5,0.00057683216,0.00086742645,0.0011101544,1,1,1,0,1,0
21765036000,21764956000,1310988,0.0009402587,0.00010777089,-0.00025262396,0.34906584,2.0804794e-07,1.626631e-07,4.4619807e-07,1310988,-0.012854889,-0.014154744,0.0066197803,0.4,0.0008532183,0.00098954,0.00078123936,197644,0.01251799,-0.008665477,0.0027867933,0.5,0.00057683216,0.00086742645,0.0011101544,1,1,1,0,1,0
21765612000,21765532000,1310988,0.000942097,0.00011758218,-0.0002577134,0.34906584,2.0928441e-07,1.6324051e-07,4.4679928e-07,1310988,-0.012808996,-0.014190215,0.0078600105,0.4,0.00085309823,0.0009893709,0.00078123936,197644,0.01251799,-0.008665477,0.0027867933,0.5,0.00057683216,0.00086742645,0.0011101544,1,1,1,0,1,0
21766228000,21766148000,1310988,0.00094925205,0.00012245987,-0.00025555832,0.34906584,2.0948889e-07,1.6221665e-07,4.4687445e-07,1310988,-0.012793112,-0.01424653,0.009169004,0.4,0.00085292105,0.0009891703,0.00078123936,197644,0.01251799,-0.008665477,0.0027867933,0.5,0.00057683216,0.00086742645,0.0011101544,1,1,1,0,1,0
21766804000,21766724000,1310988,0.0009492876,0.0001262734,-0.0002600438,0.34906584,2.1066187e-07,1.6277619e-07,4.4733792e-07,1310988,-0.01277865,-0.014262054,0.0105104875,0.4,0.0008528213,0.0009890273,0.00078123936,197644,0.01251799,-0.008665477,0.0027867933,0.5,0.00057683216,0.00086742645,0.0011101544,1,1,1,0,1,0
21767428000,21767348000,1310988,0.0009497403,0.00013483406,-0.00025681304,0.34906584,2.107757e-07,1.6181006e-07,4.470509e-07,1310988,-0.012735587,-0.014262747,0.011739088,0.4,0.00085267157,0.0009888482,0.00078123936,197644,0.01251799,-0.008665477,0.0027867933,0.5,0.00057683216,0.00086742645,0.0011101544,1,1,1,0,1,0
21768132000,21768052000,1310988,0.0009502829,0.000136141,-0.00026050233,0.34906584,2.1275217e-07,1.6339453e-07,4.4768709e-07,1310988,-0.012731559,-0.014277076,0.012761981,0.4,0.0008526008,0.0009887199,0.00078123936,197644,0.01251799,-0.008665477,0.0027867933,0.5,0.00057683216,0.00086742645,0.0011101544,1,1,1,0,1,0
21768484000,21768404000,1310988,0.00095244107,0.0001429839,-0.00025966772,0.34906584,2.1232043e-07,1.6219163e-07,4.4723114e-07,1310988,-0.012695451,-0.01429191,0.013781421,0.4,0.00085251365,0.0009886257,0.00078123936,197644,0.01251799,-0.008665477,0.0027867933,0.5,0.00057683216,0.00086742645,0.0011101544,1,1,1,0,1,0
21768836000,21768756000,1310988,0.00095466536,0.00013836137,-0.00025834085,0.34906584,2.120493e-07,1.612355e-07,4.4684793e-07,1310988,-0.012715414,-0.01430417,0.015093976,0.4,0.00085243856,0.0009885416,0.00078123936,197644,0.01251799,-0.008665477,0.0027867933,0.5,0.00057683216,0.00086742645,0.0011101544,1,1,1,0,1,0
21769612000,21769532000,1310988,0.00094985095,0.00013577436,-0.00026070702,0.34906584,2.1308533e-07,1.6149949e-07,4.4677185e-07,1310988,-0.012728155,-0.014281349,0.016287038,0.4,0.0008523497,0.0009884103,0.00078123936,197644,0.01251799,-0.008665477,0.0027867933,0.5,0.00057683216,0.00086742645,0.0011101544,1,1,1,0,1,0
21770284000,21770204000,1310988,0.0009510928,0.00012746533,-0.00025880468,0.34906584,2.1363365e-07,1.6120626e-07,4.4660806e-07,1310988,-0.012769217,-0.014285474,0.017307987,0.4,0.00085227,0.0009883055,0.00078123936,197644,0.01251799,-0.008665477,0.0027867933,0.5,0.00057683216,0.00086742645,0.0011101544,1,1,1,0,1,0
21771228000,21771148000,1310988,0.0009488106,0.000112123955,-0.00026000722,0.34906584,2.1420368e-07,1.6077183e-07,4.456376e-07,1310988,-0.0128403725,-0.014275478,0.018527469,0.4,0.0008521727,0.0009881647,0.00078123936,197644,0.01251799,-0.008665477,0.0027867933,0.5,0.00057683216,0.00086742645,0.0011101544,1,1,1,0,1,0
21772228000,21772148000,1310988,0.00094959344,9.2206e-05,-0.0002580588,0.34906584,2.1532075e-07,1.6104391e-07,4.4499612e-07,1310988,-0.01292913,-0.014276046,0.019308032,0.4,0.0008521008,0.0009880504,0.0007812405,197644,0.01251799,-0.008665477,0.0027867933,0.5,0.00057683216,0.00086742645,0.0011101544,1,1,1,0,1,0
21773228000,21773148000,1310988,0.0009421319,7.833839e-05,-0.00025836492,0.34906584,2.1633294e-07,1.6128791e-07,4.4414261e-07,1310988,-0.01298653,-0.014240805,0.019788442,0.4,0.0008520456,0.0009879557,0.0007812411,197644,0.01251799,-0.008665477,0.0027867933,0.5,0.00057683216,0.00086742645,0.0011101544,1,1,1,0,1,0
21774228000,21774148000,1310988,0.00092913606,6.932141e-05,-0.00026699595,0.34906584,2.1733067e-07,1.616493e-07,4.431558e-07,1310988,-0.013023041,-0.014195907,0.019947343,0.4,0.00085200794,0.0009878804,0.00078123994,197644,0.01251799,-0.008665477,0.0027867933,0.5,0.00057683216,0.00086742645,0.0011101544,1,1,1,0,1,0
21775228000,21775148000,1310988,0.0009220558,4.3305114e-05,-0.00027435317,0.34906584,2.1679786e-07,1.6002498e-07,4.41367e-07,1310988,-0.013117404,-0.014179318,0.019151278,0.4,0.00085195707,0.0009878039,0.00078123936,197644,0.01251799,-0.008665477,0.0027867933,0.5,0.00057683216,0.00086742645,0.0011101544,1,1,1,0,1,0
21776012000,21775932000,1310988,0.000913273,2.9400248e-05,-0.00027759207,0.34906584,2.1737878e-07,1.6039267e-07,4.39845e-07,1310988,-0.013163433,-0.014152802,0.01799093,0.4,0.00085194776,0.0009877632,0.00078123936,197644,0.01251799,-0.008665477,0.0027867933,0.5,0.00057683216,0.00086742645,0.0011101544,1,1,1,0,1,0
21776636000,21776556000,1310988,0.0009091149,1.3970074e-05,-0.00028772588,0.34906584,2.1731938e-07,1.59786e-07,4.3908565e-07,1310988,-0.013212126,-0.014152303,0.016824607,0.4,0.00085193577,0.0009877372,0.00078123936,197644,0.01251799,-0.008665477,0.0027867933,0.5,0.00057683216,0.00086742645,0.0011101544,1,1,1,0,1,0
21777420000,21777340000,1310988,0.0009037,4.3263253e-06,-0.00029288614,0.34906584,2.1796136e-07,1.6022364e-07,4.3790408e-07,1310988,-0.0132403765,-0.0141423335,0.015772074,0.4,0.0008519383,0.0009877151,0.00078123936,197644,0.01251799,-0.008665477,0.0027867933,0.5,0.00057683216,0.00086742645,0.0011101544,1,1,1,0,1,0
21777836000,21777756000,1310988,0.00090189563,-5.4975862e-06,-0.00029660953,0.34906584,2.1776896e-07,1.5979339e-07,4.369592e-07,1310988,-0.013266949,-0.014144593,0.014334269,0.4,0.0008519369,0.0009877024,0.00078123936,197644,0.01251799,-0.008665477,0.0027867933,0.5,0.00057683216,0.00086742645,0.0011101544,1,1,1,0,1,0
21778836000,21778756000,1310988,0.0008927599,-2.6961807e-05,-0.0003132605,0.34906584,2.1823502e-07,1.600208e-07,4.3516246e-07,1310988,-0.013323877,-0.01413719,0.0133937,0.4,0.0008519522,0.0009876905,0.00078123936,197644,0.01251799,-0.008665477,0.0027867933,0.5,0.00057683216,0.00086742645,0.0011101544,1,1,1,0,1,0
21779444000,21779364000,1310988,0.0008815058,-3.9144004e-05,-0.00032548592,0.34906584,2.178896e-07,1.5945228e-07,4.3353262e-07,1310988,-0.013351894,-0.014123095,0.01176295,0.4,0.0008519623,0.0009876854,0.00078123936,197644,0.01251799,-0.008665477,0.0027867933,0.5,0.00057683216,0.00086742645,0.0011101544,1,1,1,0,1,0
21780436000,21780356000,1310988,0.0008755705,-5.748721e-05,-0.00034014892,0.34906584,2.1815697e-07,1.5963697e-07,4.3148208e-07,1310988,-0.013393437,-0.014126126,0.010389516,0.4,0.00085199106,0.0009876906,0.00078123936,197644,0.01251799,-0.008665477,0.0027867933,0.5,0.00057683216,0.00086742645,0.0011101544,1,1,1,0,1,0
21781004000,21780924000,1310988,0.00086861016,-6.477213e-05,-0.00035451623,0.34906584,2.1870247e-07,1.6030268e-07,4.3039685e-07,1310988,-0.013406395,-0.014125831,0.009286571,0.4,0.0008520137,0.0009876998,0.00078123936,197644,0.01251799,-0.008665477,0.0027867933,0.5,0.00057683216,0.00086742645,0.0011101544,1,1,1,0,1,0
21781420000,21781340000,1310988,0.00086210796,-7.272008e-05,-0.00036459402,0.34906584,2.1827984e-07,1.5975202e-07,4.2922542e-07,1310988,-0.01342081,-0.0141227525,0.008210642,0.4,0.0008520268,0.0009877052,0.00078123936,197644,0.01251799,-0.008665477,0.0027867933,0.5,0.00057683216,0.00086742645,0.0011101544,1,1,1,0,1,0
21782420000,21782340000,1310988,0.0008592563,-8.289629e-05,-0.00038085986,0.34906584,2.1880463e-07,1.602776e-07,4.276512e-07,1310988,-0.013440292,-0.014132239,0.0075916136,0.4,0.0008520722,0.0009877329,0.00078124,197644,0.01251799,-0.008665477,0.0027867933,0.5,0.00057683216,0.00086742645,0.0011101544,1,1,1,1,1,0
21783420000,21783340000,1310988,0.00085166725,-9.5097654e-05,-0.0004085227,0.34906584,2.191185e-07,1.6080018e-07,4.253766e-07,1310988,-0.0134585835,-0.014143114,0.0070553413,0.4,0.0008521232,0.0009877663,0.0007812411,197644,0.01251799,-0.008665477,0.0027867933,0.5,0.00057683216,0.00086742645,0.0011101544,1,1,1,1,1,0
21784420000,21784340000,1310988,0.00085279974,-9.580158e-05,-0.00042983567,0.34906584,2.1912257e-07,1.6103412e-07,4.2296674e-07,1310988,-0.013460718,-0.014163498,0.007361772,0.4,0.00085217896,0.0009878065,0.00078123936,197644,0.01251799,-0.008665477,0.0027867933,0.5,0.00057683216,0.00086742645,0.0011101544,1,1,1,1,1,0
21785420000,21785340000,1310988,0.0008479425,-9.240594e-05,-0.00044892274,0.34906584,2.1923914e-07,1.6148662e-07,4.205194e-07,1310988,-0.013456769,-0.014173405,0.008103123,0.4,0.00085223926,0.0009878533,0.00078124227,197644,0.01251799,-0.008665477,0.0027867933,0.5,0.00057683216,0.00086742645,0.0011101544,1,1,1,1,1,0
21785636000,21785556000,1310988,0.0008468606,-8.9557405e-05,-0.00045550044,0.34906584,2.1763152e-07,1.5949097e-07,4.1951014e-07,1310988,-0.013453101,-0.014176756,0.009484776,0.4,0.00085224974,0.0009878628,0.00078123936,197644,0.01251799,-0.008665477,0.0027867933,0.5,0.00057683216,0.00086742645,0.0011101544,1,1,1,1,1,0
21786204000,21786124000,1310988,0.00085223606,-8.61828e-05,-0.00046104606,0.34906584,2.1798321e-07,1.60179e-07,4.1815304e-07,1310988,-0.013449575,-0.014187216,0.010849078,0.4,0.0008522859,0.0009878918,0.00078123936,197644,0.01251799,-0.008665477,0.0027867933,0.5,0.00057683216,0.00086742645,0.0011101544,1,1,1,1,1,0
21786620000,21786540000,1310988,0.0008522291,-8.726185e-05,-0.00046994706,0.34906584,2.174001e-07,1.5964824e-07,4.1682318e-07,1310988,-0.013449659,-0.014193454,0.01191029,0.4,0.00085231126,0.0009879131,0.00078123936,197644,0.01251799,-0.008665477,0.0027867933,0.5,0.00057683216,0.00086742645,0.0011101544,1,1,1,1,1,0
21787036000,21786956000,1310988,0.0008522969,-8.1491984e-05,-0.00047724877,0.34906584,2.1698045e-07,1.5933756e-07,4.155347e-07,1310988,-0.013442156,-0.014199114,0.013251215,0.4,0.00085233693,0.0009879348,0.00078123936,197644,0.01251799,-0.008665477,0.0027867933,0.5,0.00057683216,0.00086742645,0.0011101544,1,1,1,1,1,0
21787612000,21787532000,1310988,0.00086080056,-7.945033e-05,-0.00048255132,0.34906584,2.173919e-07,1.6013031e-07,4.1419935e-07,1310988,-0.0134392185,-0.014212675,0.014823342,0.4,0.0008523738,0.0009879663,0.00078123936,197644,0.01251799,-0.008665477,0.0027867933,0.5,0.00057683216,0.00086742645,0.0011101544,1,1,1,1,1,0
21787820000,21787740000,1310988,0.00086299673,-8.053721e-05,-0.00048455555,0.34906584,2.1706273e-07,1.5983466e-07,4.1351413e-07,1310988,-0.013439195,-0.014216617,0.015929323,0.4,0.0008523863,0.0009879774,0.00078123936,197644,0.01251799,-0.008665477,0.0027867933,0.5,0.00057683216,0.00086742645,0.0011101544,1,1,1,1,1,0
21788236000,21788156000,1310988,0.00086563214,-7.5551805e-05,-0.00049140636,0.34906584,2.1655592e-07,1.5944613e-07,4.121849e-07,1310988,-0.013431827,-0.014225113,0.01736441,0.4,0.0008524115,0.0009879997,0.00078123936,197644,0.01251799,-0.008665477,0.0027867933,0.5,0.00057683216,0.00086742645,0.0011101544,1,1,1,1,1,0
21788804000,21788724000,1310988,0.0008710062,-7.2200535e-05,-0.0004999684,0.34906584,2.1683859e-07,1.6012734e-07,4.107468e-07,1310988,-0.013426345,-0.014237138,0.018562818,0.4,0.00085244724,0.0009880319,0.00078123936,197644,0.01251799,-0.008665477,0.0027867933,0.5,0.00057683216,0.00086742645,0.0011101544,1,1,1,1,1,0
21789220000,21789140000,1310988,0.0008730193,-6.874826e-05,-0.0005038553,0.34906584,2.1635321e-07,1.595888e-07,4.1001996e-07,1310988,-0.013420147,-0.014243974,0.019981684,0.4,0.0008524717,0.0009880554,0.00078123936,197644,0.01251799,-0.008665477,0.0027867933,0.5,0.00057683216,0.00086742645,0.0011101544,1,1,1,1,1,0
21789636000,21789556000,1310988,0.00087760214,-6.799447e-05,-0.0005068499,0.34906584,2.1588373e-07,1.5927279e-07,4.0869773e-07,1310988,-0.0134171005,-0.014253517,0.021513717,0.4,0.00085249625,0.0009880782,0.00078123936,197644,0.01251799,-0.008665477,0.0027867933,0.5,0.00057683216,0.00086742645,0.0011101544,1,1,1,1,1,0
21790212000,21790132000,1310988,0.00088377873,-6.784089e-05,-0.0005120295,0.34906584,2.1609608e-07,1.6006169e-07,4.066694e-07,1310988,-0.013415371,-0.014264969,0.022620292,0.4,0.00085253216,0.0009881109,0.00078123936,197644,0.01251799,-0.008665477,0.0027867933,0.5,0.00057683216,0.00086742645,0.0011101544,1,1,1,1,1,0
21790620000,21790540000,1310988,0.0008895615,-6.501703e-05,-0.00051496126,0.34906584,2.1556328e-07,1.5949331e-07,4.0587616e-07,1310988,-0.013410656,-0.014275093,0.023710323,0.4,0.0008525562,0.0009881342,0.00078123936,197644,0.01251799,-0.008665477,0.0027867933,0.5,0.00057683216,0.00086742645,0.0011101544,1,1,1,1,1,0
21791044000,21790964000,1310988,0.00089495943,-6.4914e-05,-0.00051858486,0.34906584,2.1515851e-07,1.5924606e-07,4.0460162e-07,1310988,-0.013408504,-0.014284703,0.025058381,0.4,0.00085258146,0.0009881587,0.00078123936,197644,0.01251799,-0.008665477,0.0027867933,0.5,0.00057683216,0.00086742645,0.0011101544,1,1,1,1,1,0
21791612000,21791532000,1310988,0.0008937029,-6.214091e-05,-0.0005250302,0.34906584,2.15283e-07,1.5976032e-07,4.0310024e-07,1310988,-0.01340166,-0.014287402,0.026689617,0.4,0.00085261615,0.0009881923,0.00078123936,197644,0.01251799,-0.008665477,0.0027867933,0.5,0.00057683216,0.00086742645,0.0011101544,1,1,1,1,1,0
21792236000,21792156000,1310988,0.0008892854,-5.965476e-05,-0.000536154,0.34906584,2.1449456e-07,1.592173e-07,4.010897e-07,1310988,-0.013395075,-0.014285702,0.028009752,0.4,0.00085265265,0.0009882282,0.00078123936,197644,0.01251799,-0.008665477,0.0027867933,0.5,0.00057683216,0.00086742645,0.0011101544,1,1,1,1,1,0
21792804000,21792724000,1310988,0.00088311546,-5.95737e-05,-0.00054542883,0.34906584,2.1480453e-07,1.5996326e-07,3.9962558e-07,1310988,-0.013391908,-0.014280919,0.029321957,0.4,0.0008526881,0.0009882629,0.00078123936,197644,0.01251799,-0.008665477,0.0027867933,0.5,0.00057683216,0.00086742645,0.0011101544,1,1,1,1,1,0
21793228000,21793148000,1310988,0.00088038354,-6.0976454e-05,-0.0005544895,0.34906584,2.1422161e-07,1.5950435e-07,3.9829746e-07,1310988,-0.0133908475,-0.014279577,0.030552384,0.4,0.0008527133,0.000988288,0.00078123936,197644,0.01251799,-0.008665477,0.0027867933,0.5,0.00057683216,0.00086742645,0.0011101544,1,1,1,1,1,0
21793636000,21793556000,1310988,0.0008761019,-6.3082225e-05,-0.00055637374,0.34906584,2.1370697e-07,1.5915175e-07,3.968769e-07,1310988,-0.013391022,-0.014275638,0.032014992,0.4,0.00085273833,0.0009883131,0.00078123936,197644,0.01251799,-0.008665477,0.0027867933,0.5,0.00057683216,0.00086742645,0.0011101544,1,1,1,1,1,0
21794212000,21794132000,1310988,0.00087436696,-6.280928e-05,-0.0005653627,0.34906584,2.139122e-07,1.5973319e-07,3.9539916e-07,1310988,-0.013388917,-0.014275627,0.03340395,0.4,0.0008527752,0.0009883498,0.00078123936,197644,0.01251799,-0.008665477,0.0027867933,0.5,0.00057683216,0.00086742645,0.0011101544,1,1,1,1,1,0
21794628000,21794548000,1310988,0.00087137753,-6.706444e-05,-0.0005682033,0.34906584,2.1338346e-07,1.5932763e-07,3.9400476e-07,1310988,-0.013392488,-0.014272771,0.03450307,0.4,0.0008528011,0.0009883757,0.00078123936,197644,0.01251799,-0.008665477,0.0027867933,0.5,0.00057683216,0.00086742645,0.0011101544,1,1,1,1,1,0
21795044000,21794964000,1310988,0.00086802756,-6.949616e-05,-0.00057367905,0.34906584,2.129918e-07,1.5909403e-07,3.926502e-07,1310988,-0.013394254,-0.014269475,0.03572638,0.4,0.00085282716,0.0009884019,0.00078123936,197644,0.01251799,-0.008665477,0.0027867933,0.5,0.00057683216,0.00086742645,0.0011101544,1,1,1,1,1,0
21795620000,21795540000,1310988,0.0008574686,-7.430887e-05,-0.00058001047,0.34906584,2.1321668e-07,1.5969523e-07,3.9118646e-07,1310988,-0.013398493,-0.014257471,0.03717732,0.4,0.00085286394,0.0009884393,0.00078123936,197644,0.01251799,-0.008665477,0.0027867933,0.5,0.00057683216,0.00086742645,0.0011101544,1,1,1,1,1,0
21796332000,21796252000,1310988,0.00084204396,-8.7347405e-05,-0.00059114123,0.34906584,2.1303212e-07,1.5986386e-07,3.8918174e-07,1310988,-0.013411841,-0.014238979,0.038215555,0.4,0.00085290853,0.0009884845,0.00078123936,197644,0.01251799,-0.008665477,0.0027867933,0.5,0.00057683216,0.00086742645,0.0011101544,1,1,1,1,1,0
21797332000,21797252000,1310988,0.0008173238,-9.637264e-05,-0.000616698,0.34906584,2.1275346e-07,1.6010513e-07,3.8645376e-07,1310988,-0.013420293,-0.014209214,0.039185755,0.4,0.00085297134,0.0009885477,0.00078123936,197644,0.01251799,-0.008665477,0.0027867933,0.5,0.00057683216,0.00086742645,0.0011101544,1,1,1,1,1,0
21798332000,21798252000,1310988,0.0007880677,-9.907454e-05,-0.00063101976,0.34906584,2.1262002e-07,1.6055914e-07,3.8382552e-07,1310988,-0.013422485,-0.014179227,0.0399987,0.4,0.0008530357,0.0009886128,0.0007812433,197644,0.01251799,-0.008665477,0.0027867933,0.5,0.00057683216,0.00086742645,0.0011101544,1,1,1,1,1,0
21799156000,21799076000,1310988,0.00077025726,-0.00010630225,-0.0006437347,0.34906584,2.13002e-07,1.6162434e-07,3.8153408e-07,1310988,-0.013428828,-0.01416084,0.04101971,0.4,0.00085309043,0.0009886684,0.00078123936,197644,0.01251799,-0.008665477,0.0027867933,0.5,0.00057683216,0.00086742645,0.0011101544,1,1,1,1,1,0
21800156000,21800076000,1310988,0.0007340147,-0.00012753769,-0.0006668122,0.34906584,2.1150376e-07,1.6008511e-07,3.7914603e-07,1310988,-0.013447333,-0.014131168,0.041428052,0.4,0.0008531555,0.0009887354,0.00078124343,197644,0.01251799,-0.008665477,0.0027867933,0.5,0.00057683216,0.00086742645,0.0011101544,1,1,1,1,1,0
21801156000,21801076000,1310988,0.0007145269,-0.00014206015,-0.0006807567,0.34906584,2.1136698e-07,1.6043857e-07,3.7655118e-07,1310988,-0.013459511,-0.014115844,0.042183783,0.4,0.00085322326,0.0009888043,0.00078124285,197644,0.01251799,-0.008665477,0.0027867933,0.5,0.00057683216,0.00086742645,0.0011101544,1,1,1,1,1,0
21802156000,21802076000,1310988,0.0006935678,-0.00016937246,-0.00069948914,0.34906584,2.1112201e-07,1.608031e-07,3.7335488e-07,1310988,-0.013478232,-0.014103553,0.042032693,0.4,0.00085329125,0.0009888735,0.00078124274,197644,0.01251799,-0.008665477,0.0027867933,0.5,0.00057683216,0.00086742645,0.0011101544,1,1,1,1,1,0
21803156000,21803076000,1310988,0.0006765667,-0.00020003128,-0.00071315374,0.34906584,2.1131689e-07,1.6150777e-07,3.7092954e-07,1310988,-0.0134998355,-0.014092587,0.04251681,0.4,0.00085335964,0.0009889433,0.00078124326,197644,0.01251799,-0.008665477,0.0027867933,0.5,0.00057683216,0.00086742645,0.0011101544,1,1,1,1,1,0
21804156000,21804076000,1310988,0.0006578593,-0.00024286022,-0.00073385227,0.34906584,2.0978167e-07,1.5999946e-07,3.6808294e-07,1310988,-0.013523642,-0.014083377,0.04221386,0.4,0.0008534273,0.0009890129,0.0007812426,197644,0.01251799,-0.008665477,0.0027867933,0.5,0.00057683216,0.00086742645,0.0011101544,1,1,1,1,1,0
21805156000,21805076000,1310988,0.00064499857,-0.0002729859,-0.0007542943,0.34906584,2.0961515e-07,1.602567e-07,3.6572453e-07,1310988,-0.013535353,-0.014078001,0.041348115,0.4,0.0008534964,0.0009890837,0.00078124227,197644,0.01251799,-0.008665477,0.0027867933,0.5,0.00057683216,0.00086742645,0.0011101544,1,1,1,1,1,0
21806156000,21806076000,1310988,0.0006292235,-0.00029861403,-0.00077181525,0.34906584,2.0954384e-07,1.6069887e-07,3.6354848e-07,1310988,-0.013547658,-0.014070095,0.04147528,0.4,0.00085356605,0.000989155,0.0007812411,197644,0.01251799,-0.008665477,0.0027867933,0.5,0.00057683216,0.00086742645,0.0011101544,1,1,1,1,1,0
21806876000,21806796000,1310988,0.0006286232,-0.0003202054,-0.00079293345,0.34906584,2.0963643e-07,1.6115742e-07,3.6119394e-07,1310988,-0.013545972,-0.014065457,0.04074304,0.4,0.0008536012,0.0009891914,0.0007812446,197644,0.012194015,-0.009186357,8.490123e-05,0.5,0.00048490072,0.00067757076,0.00085260655,1,1,1,0,1,0
21806948000,21806868000,1310988,0.0006282191,-0.00032095928,-0.000791262,0.34906584,2.1005265e-07,1.6171057e-07,3.6139974e-07,1310988,-0.013545983,-0.014065463,0.040743027,0.4,0.0008536064,0.0009891965,0.0007812497,197644,0.011075323,-0.009855605,0.0011786084,0.5,0.00043319105,0.0005843837,0.0007625213,1,1,1,0,1,0
21807012000,21806932000,1310988,0.00063161534,-0.0003536094,-0.00079744274,0.34906584,2.1030019e-07,1.607471e-07,3.5705602e-07,1310988,-0.013545983,-0.014065463,0.040743027,0.4,0.0008536069,0.0009891972,0.0007812503,197644,0.010862334,-0.011007462,0.0012220389,0.5,0.00039413228,0.00053144357,0.000711739,1,1,1,0,1,0
21807156000,21807076000,1310988,0.00063284475,-0.00035299783,-0.00079974375,0.34906584,2.1129719e-07,1.6187306e-07,3.5784572e-07,1310988,-0.013545983,-0.014065463,0.040743027,0.4,0.0008536069,0.0009891972,0.0007812503,197644,0.012021426,-0.010593938,0.0010460533,0.5,0.00033248903,0.00046510145,0.00062544155,1,1,1,0,1,0
21807300000,21807220000,1310988,0.0006339168,-0.00037396158,-0.00080997014,0.34906584,2.1225415e-07,1.6159404e-07,3.5139024e-07,1310988,-0.013545983,-0.014065463,0.040743027,0.4,0.0008536093,0.0009891995,0.00078125263,197644,0.01243264,-0.009331731,0.0014797687,0.5,0.00029423172,0.00042389418,0.0005736728,1,1,1,0,1,0
21807588000,21807508000,1310988,0.0006328728,-0.0003922061,-0.0008076424,0.34906584,2.1428565e-07,1.6241579e-07,3.4472419e-07,1310988,-0.013357297,-0.014037195,0.04065949,0.4,0.00085346145,0.0009890064,0.0007812514,197644,0.01336205,-0.0091248965,0.001157684,0.5,0.0002538921,0.00038626694,0.00053973397,1,1,1,0,1,0
21808220000,21808140000,1310988,0.0006269518,-0.0004048993,-0.0007535506,0.34906584,2.1864665e-07,1.6294753e-07,3.2503013e-07,1310988,-0.013147128,-0.013098677,0.040381487,0.4,0.00084753113,0.0009820745,0.0007812499,197644,0.014411356,-0.009443219,0.0018320127,0.5,0.00020987875,0.0003480073,0.0005066874,1,1,1,0,1,0
21808788000,21808708000,1310988,0.0006282952,-0.00041067516,-0.0007346639,0.34906584,2.2297925e-07,1.6411204e-07,3.2008245e-07,1310988,-0.012784044,-0.012241712,0.040480185,0.4,0.0008338626,0.00096630276,0.0007812405,197644,0.015171747,-0.009778505,0.0011421443,0.5,0.00019348992,0.00033185293,0.0004908124,1,1,1,0,1,0
21809140000,21809060000,1310988,0.0006303365,-0.0004143343,-0.00071948126,0.34906584,2.2562412e-07,1.6398864e-07,3.1614996e-07,1310988,-0.01248878,-0.011323426,0.040426727,0.4,0.0008172078,0.00094753626,0.0007812405,197644,0.015310165,-0.010099505,0.00015322032,0.5,0.00018710717,0.00032517556,0.00047306513,1,1,1,0,1,0
21809604000,21809524000,1310988,0.0006336822,-0.00040796015,-0.0007054388,0.34906584,2.2900464e-07,1.6490111e-07,3.154574e-07,1310988,-0.013015594,-0.010212673,0.04127138,0.4,0.00079770724,0.00092487404,0.00078123936,197644,0.015182981,-0.01034166,-0.00033971228,0.5,0.00018137251,0.00031838697,0.00045428556,1,1,1,0,1,0
21810020000,21809940000,1310988,0.0006367086,-0.00039499853,-0.00070158445,0.34906584,2.3152194e-07,1.6570509e-07,3.1695296e-07,1310988,-0.014120138,-0.009626651,0.042099655,0.4,0.00078123936,0.00090060115,0.00078123936,197644,0.015086649,-0.010392899,-0.0006064659,0.5,0.00017755748,0.0003131022,0.00044544638,1,1,1,0,1,0
21810228000,21810148000,1310988,0.0006359854,-0.00038608527,-0.000702483,0.34906584,2.3244861e-07,1.6622833e-07,3.1829168e-07,1310988,-0.014823855,-0.009751132,0.04288236,0.4,0.00078123936,0.0008889013,0.00078123936,197644,0.015085233,-0.010420249,-0.0006664389,0.5,0.0001760822,0.0003114403,0.00044356278,1,1,1,0,1,0
21810644000,21810564000,1310988,0.0006359957,-0.00036948506,-0.0007024633,0.34906584,2.3331533e-07,1.6747063e-07,3.2114372e-07,1310988,-0.016073668,-0.009683925,0.044336725,0.4,0.00078123936,0.00086622237,0.00078123936,197644,0.015060869,-0.010527639,-0.00080815895,0.5,0.00017322363,0.00030796113,0.00044141617,1,1,1,0,1,0
21811012000,21810932000,1310988,0.00062801596,-0.00036019445,-0.000697997,0.34906584,2.3356955e-07,1.692296e-07,3.2307545e-07,1310988,-0.016756,-0.010232114,0.045334265,0.4,0.00078123936,0.0008534805,0.00078123936,197644,0.014977412,-0.010515794,-0.0007571371,0.5,0.00017072327,0.00030522016,0.0004375491,1,1,1,0,1,0
21811220000,21811140000,1310988,0.00062057615,-0.00035363826,-0.0006935844,0.34906584,2.323558e-07,1.698033e-07,3.2344923e-07,1310988,-0.017078826,-0.010734762,0.046819486,0.4,0.00078123936,0.0008420375,0.00078123936,197644,0.0149372695,-0.010628197,-0.00065428653,0.5,0.0001691745,0.0003036999,0.0004355519,1,1,1,0,1,0
21811420000,21811340000,1310988,0.000613452,-0.00034722924,-0.00068890495,0.34906584,2.3089633e-07,1.7037632e-07,3.2341123e-07,1310988,-0.017319886,-0.01110918,0.048344653,0.4,0.00078123936,0.0008319333,0.00078123936,197644,0.014986567,-0.010682438,-0.0005738052,0.5,0.00016747045,0.00030211417,0.00043303697,1,1,1,0,1,0
21811636000,21811556000,1310988,0.0006035647,-0.0003425599,-0.00068147,0.34906584,2.2934908e-07,1.7110409e-07,3.231288e-07,1310988,-0.01744558,-0.011567801,0.049852613,0.4,0.00078123936,0.0008229594,0.00078123936,197644,0.014957874,-0.010705101,-0.0005439338,0.5,0.00016584212,0.000300691,0.0004303649,1,1,1,0,1,0
21811844000,21811764000,1310988,0.00059433986,-0.0003385394,-0.00067391683,0.34906584,2.2762136e-07,1.7179413e-07,3.2249034e-07,1310988,-0.017618943,-0.012015515,0.05109456,0.4,0.00078123936,0.0008151198,0.00078123936,197644,0.014766568,-0.010781998,-0.0006304854,0.5,0.0001641724,0.0002992419,0.0004269075,1,1,1,0,1,0
21812204000,21812124000,1310988,0.0005878005,-0.00033084175,-0.0006690892,0.34906584,2.2614451e-07,1.7350315e-07,3.220665e-07,1310988,-0.017827597,-0.012296184,0.053006645,0.4,0.00078123936,0.00080758467,0.00078123936,197644,0.014694357,-0.010970448,-0.00042691504,0.5,0.0001610912,0.00029656276,0.00041860726,1,1,1,0,1,0
21812412000,21812332000,1310988,0.0005759021,-0.00032499025,-0.00065928063,0.34906584,2.2371545e-07,1.7406816e-07,3.2050067e-07,1310988,-0.01797777,-0.012759567,0.05441613,0.4,0.00078123936,0.0008014118,0.00078123936,197644,0.014649046,-0.011190359,-0.00027865675,0.5,0.00015906831,0.0002946505,0.00041279627,1,1,1,0,1,0
21812620000,21812540000,1310988,0.00056297565,-0.00032345473,-0.0006481727,0.34906584,2.2140607e-07,1.7467485e-07,3.186711e-07,1310988,-0.01780284,-0.013223479,0.05633449,0.4,0.00078123936,0.00079636206,0.00078123936,197644,0.0145632,-0.0112865465,-0.0002438847,0.5,0.00015786462,0.0002935924,0.00040875058,1,1,1,0,1,0
21812828000,21812748000,1310988,0.00055375707,-0.00032329207,-0.000640316,0.34906584,2.192169e-07,1.7532722e-07,3.1641557e-07,1310988,-0.017623411,-0.0135079585,0.057792835,0.4,0.00078123936,0.0007922538,0.00078123936,197644,0.0145632,-0.0112865465,-0.0002438847,0.5,0.00015786462,0.0002935924,0.00040875058,1,1,1,0,1,0
21813036000,21812956000,1310988,0.00054365577,-0.0003225655,-0.00063157716,0.34906584,2.1722592e-07,1.7598197e-07,3.1435025e-07,1310988,-0.017447855,-0.013782955,0.05962309,0.4,0.00078123936,0.00078892196,0.00078123936,197644,0.0145632,-0.0112865465,-0.0002438847,0.5,0.00015786462,0.0002935924,0.00040875058,1,1,1,0,1,0
21813244000,21813164000,1310988,0.0005375429,-0.0003241565,-0.00062674325,0.34906584,2.1542529e-07,1.7662988e-07,3.125109e-07,1310988,-0.017219735,-0.013938047,0.061063215,0.4,0.00078123936,0.0007862306,0.00078123936,197644,0.0145632,-0.0112865465,-0.0002438847,0.5,0.00015786462,0.0002935924,0.00040875058,1,1,1,0,1,0
21813612000,21813532000,1310988,0.0005265253,-0.00032421126,-0.000617536,0.34906584,2.143926e-07,1.7832458e-07,3.1128423e-07,1310988,-0.017058438,-0.014175033,0.062932014,0.4,0.00078123936,0.0007839318,0.00078123936,197644,0.0145632,-0.0112865465,-0.0002438847,0.5,0.00015786462,0.0002935924,0.00040875058,1,1,1,0,1,0
21813820000,21813740000,1310988,0.0005242231,-0.0003237176,-0.0006161677,0.34906584,2.1252681e-07,1.7875963e-07,3.0973777e-07,1310988,-0.016982736,-0.014209542,0.06430013,0.4,0.00078123936,0.0007821612,0.00078123936,197644,0.0145632,-0.0112865465,-0.0002438847,0.5,0.00015786462,0.0002935924,0.00040875058,1,1,1,0,1,0
21814028000,21813948000,1310988,0.0005177601,-0.00032391658,-0.0006119597,0.34906584,2.1091763e-07,1.792018e-07,3.0851467e-07,1310988,-0.016904445,-0.014333644,0.06544907,0.4,0.00078123936,0.00078123936,0.00078123936,197644,0.0145632,-0.0112865465,-0.0002438847,0.5,0.00015786462,0.0002935924,0.00040875058,1,1,1,0,1,0
21814236000,21814156000,1310988,0.00052041776,-0.000326039,-0.0006160768,0.34906584,2.0950847e-07,1.7963924e-07,3.0756715e-07,1310988,-0.016762406,-0.0142859,0.06693712,0.4,0.00078123936,0.00078123936,0.00078123936,197644,0.0145632,-0.0112865465,-0.0002438847,0.5,0.00015786462,0.0002935924,0.00040875058,1,1,1,0,1,0
21814436000,21814356000,1310988,0.00051996345,-0.0003302492,-0.000615875,0.34906584,2.0824746e-07,1.8001046e-07,3.0705385e-07,1310988,-0.016586443,-0.014284159,0.068073854,0.4,0.00078123936,0.00078123936,0.00078123936,197644,0.0145632,-0.0112865465,-0.0002438847,0.5,0.00015786462,0.0002935924,0.00040875058,1,1,1,0,1,0
21814804000,21814724000,1310988,0.00052408216,-0.0003339414,-0.0006214491,0.34906584,2.0782711e-07,1.8144118e-07,3.0690492e-07,1310988,-0.016463371,-0.014243145,0.06908415,0.4,0.00078123936,0.00078123936,0.00078123936,197644,0.0145632,-0.0112865465,-0.0002438847,0.5,0.00015786462,0.0002935924,0.00040875058,1,1,1,0,1,0
21815012000,21814932000,1310988,0.0005271517,-0.00033673403,-0.0006248131,0.34906584,2.0643867e-07,1.8161082e-07,3.0647715e-07,1310988,-0.016372906,-0.014209442,0.070385665,0.4,0.00078123936,0.00078123936,0.00078123936,197644,0.0145632,-0.0112865465,-0.0002438847,0.5,0.00015786462,0.0002935924,0.00040875058,1,1,1,0,1,0
21815220000,21815140000,1310988,0.00053102314,-0.00034274996,-0.0006273667,0.34906584,2.0523427e-07,1.8178558e-07,3.064894e-07,1310988,-0.016228376,-0.014170379,0.07154643,0.4,0.00078123936,0.00078123936,0.00078123936,197644,0.0145632,-0.0112865465,-0.0002438847,0.5,0.00015786462,0.0002935924,0.00040875058,1,1,1,0,1,0
21815428000,21815348000,1310988,0.0005294368,-0.00034412724,-0.00062824314,0.34906584,2.0412243e-07,1.819541e-07,3.0640896e-07,1310988,-0.016192358,-0.014183621,0.072733104,0.4,0.00078123936,0.00078123936,0.00078123936,197644,0.0145632,-0.0112865465,-0.0002438847,0.5,0.00015786462,0.0002935924,0.00040875058,1,1,1,0,1,0
21815636000,21815556000,1310988,0.0005294994,-0.00034688902,-0.0006294737,0.34906584,2.0310004e-07,1.8210858e-07,3.0645802e-07,1310988,-0.016139144,-0.01417734,0.0742994,0.4,0.00078123936,0.00078123936,0.00078123936,197644,0.0145632,-0.0112865465,-0.0002438847,0.5,0.00015786462,0.0002935924,0.00040875058,1,1,1,0,1,0
21816212000,21816132000,1310988,0.00053683284,-0.00035399655,-0.0006372337,0.34906584,2.020171e-07,1.8331725e-07,3.0757812e-07,1310988,-0.01607163,-0.014159757,0.07651661,0.4,0.00078123936,0.00078123936,0.00078123936,197644,0.0145632,-0.0112865465,-0.0002438847,0.5,0.00015786462,0.0002935924,0.00040875058,1,1,1,0,1,0
21816412000,21816332000,1310988,0.0005369779,-0.0003579727,-0.00063876907,0.34906584,2.007401e-07,1.8309278e-07,3.0779077e-07,1310988,-0.016047992,-0.014157114,0.07770873,0.4,0.00078123936,0.00078123936,0.00078123936,197644,0.0145632,-0.0112865465,-0.0002438847,0.5,0.00015786462,0.0002935924,0.00040875058,1,1,1,0,1,0
21816836000,21816756000,1310988,0.00054343126,-0.0003611008,-0.0006459547,0.34906584,1.9860788e-07,1.8283448e-07,3.0862796e-07,1310988,-0.016052214,-0.014168127,0.07910657,0.4,0.00078123936,0.00078123936,0.00078123936,197644,0.0145632,-0.0112865465,-0.0002438847,0.5,0.00015786462,0.0002935924,0.00040875058,1,1,1,0,1,0
21817044000,21816964000,1310988,0.0005463934,-0.00036118794,-0.000648178,0.34906584,1.9760328e-07,1.82669e-07,3.0910317e-07,1310988,-0.01607539,-0.014176406,0.08020704,0.4,0.00078123936,0.00078123936,0.00078123936,197644,0.0145632,-0.0112865465,-0.0002438847,0.5,0.00015786462,0.0002935924,0.00040875058,1,1,1,0,1,0
21818028000,21817948000,1310988,0.0005583983,-0.00034861465,-0.0006587426,0.34906584,1.9383998e-07,1.8209018e-07,3.1198803e-07,1310988,-0.016083548,-0.014250038,0.081319995,0.4,0.00078123936,0.00078123936,0.00078123936,197644,0.0145632,-0.0112865465,-0.0002438847,0.5,0.00015786462,0.0002935924,0.00040875058,1,1,1,0,1,0
21818444000,21818364000,1310988,0.00056221336,-0.00033960646,-0.0006627848,0.34906584,1.9179706e-07,1.8131095e-07,3.1325246e-07,1310988,-0.016090766,-0.014283812,0.08279511,0.4,0.00078123936,0.00078123936,0.00078123936,197644,0.0145632,-0.0112865465,-0.0002438847,0.5,0.00015786462,0.0002935924,0.00040875058,1,1,1,0,1,0
21819228000,21819148000,1310988,0.0005574234,-0.00032600603,-0.0006660412,0.34906584,1.891849e-07,1.8051855e-07,3.1595096e-07,1310988,-0.016042307,-0.014224707,0.084261686,0.4,0.00078123936,0.00078123936,0.00078123936,197644,0.0145632,-0.0112865465,-0.0002438847,0.5,0.00015786462,0.0002935924,0.00040875058,1,1,1,0,1,0
21819684000,21819604000,1310988,0.00054821157,-0.00031151946,-0.0006648413,0.34906584,1.8742557e-07,1.7973039e-07,3.1764677e-07,1310988,-0.01594557,-0.014112232,0.085269384,0.4,0.0007812426,0.00078124274,0.00078123936,197644,0.0145632,-0.0112865465,-0.0002438847,0.5,0.00015786462,0.0002935924,0.00040875058,1,1,1,0,1,0
21820212000,21820132000,1310988,0.0005419605,-0.00030205282,-0.00066722493,0.34906584,1.856783e-07,1.7893399e-07,3.193566e-07,1310988,-0.015901806,-0.014022813,0.08669806,0.4,0.00078123936,0.00078123936,0.00078123936,197644,0.0145632,-0.0112865465,-0.0002438847,0.5,0.00015786462,0.0002935924,0.00040875058,1,1,1,0,1,0
21820836000,21820756000,1310988,0.0005299512,-0.0002895781,-0.0006670369,0.34906584,1.8258329e-07,1.769584e-07,3.2146446e-07,1310988,-0.015810221,-0.013855941,0.087866254,0.4,0.00078123936,0.00078123936,0.00078123936,197644,0.0145632,-0.0112865465,-0.0002438847,0.5,0.00015786462,0.0002935924,0.00040875058,1,1,1,0,1,0
21821612000,21821532000,1310988,0.00051901664,-0.00027366818,-0.0006679333,0.34906584,1.8056505e-07,1.7588273e-07,3.244826e-07,1310988,-0.015665751,-0.013700006,0.089231,0.4,0.00078123936,0.00078123936,0.00078123936,197644,0.0145632,-0.0112865465,-0.0002438847,0.5,0.00015786462,0.0002935924,0.00040875058,1,1,1,0,1,0
21822236000,21822156000,1310988,0.0005065607,-0.0002590313,-0.0006725133,0.34906584,1.7783593e-07,1.7388797e-07,3.2655657e-07,1310988,-0.015517839,-0.013518044,0.09035263,0.4,0.00078123936,0.00078123936,0.00078123936,197644,0.0145632,-0.0112865465,-0.0002438847,0.5,0.00015786462,0.0002935924,0.00040875058,1,1,1,0,1,0
21823236000,21823156000,1310988,0.000488529,-0.00024069102,-0.0006781276,0.34906584,1.7529203e-07,1.7214083e-07,3.299246e-07,1310988,-0.015301382,-0.01326333,0.09122663,0.4,0.00078124,0.00078124,0.00078124,197644,0.0145632,-0.0112865465,-0.0002438847,0.5,0.00015786462,0.0002935924,0.00040875058,1,1,1,0,1,0
21824236000,21824156000,1310988,0.00047303888,-0.00022827693,-0.000684823,0.34906584,1.733802e-07,1.7080342e-07,3.3312034e-07,1310988,-0.015137654,-0.013051336,0.09135517,0.4,0.0007812405,0.0007812405,0.0007812405,197644,0.0145632,-0.0112865465,-0.0002438847,0.5,0.00015786462,0.0002935924,0.00040875058,1,1,1,0,1,0
21825236000,21825156000,1310988,0.00046986033,-0.0002195412,-0.00069174473,0.34906584,1.7178763e-07,1.6963523e-07,3.36128e-07,1310988,-0.015012207,-0.013004798,0.091209285,0.4,0.0007812417,0.0007812417,0.0007812417,197644,0.0145632,-0.0112865465,-0.0002438847,0.5,0.00015786462,0.0002935924,0.00040875058,1,1,1,0,1,0
21826236000,21826156000,1310988,0.00047445926,-0.00020703483,-0.00070351735,0.34906584,1.7061404e-07,1.6877e-07,3.3856512e-07,1310988,-0.014833296,-0.013044459,0.09045119,0.4,0.0007812524,0.00078125345,0.0007812417,197644,0.0145632,-0.0112865465,-0.0002438847,0.5,0.00015786462,0.0002935924,0.00040875058,1,1,1,0,1,0
21826820000,21826740000,1310988,0.00048420858,-0.00019616491,-0.0007107422,0.34906584,1.684123e-07,1.6674902e-07,3.4017492e-07,1310988,-0.01467694,-0.013141681,0.08919204,0.4,0.00078123936,0.00078123936,0.00078123936,197644,0.0145632,-0.0112865465,-0.0002438847,0.5,0.00015786462,0.0002935924,0.00040875058,1,1,1,0,1,0
21827228000,21827148000,1310988,0.00049025717,-0.00018716129,-0.0007134745,0.34906584,1.6732209e-07,1.657589e-07,3.4149193e-07,1310988,-0.014552383,-0.013200767,0.08809005,0.4,0.00078123936,0.00078123936,0.00078123936,197644,0.0145632,-0.0112865465,-0.0002438847,0.5,0.00015786462,0.0002935924,0.00040875058,1,1,1,0,1,0
21828228000,21828148000,1310988,0.00050255645,-0.0001658689,-0.00072312425,0.34906584,1.6641401e-07,1.6503773e-07,3.4350552e-07,1310988,-0.014309835,-0.0133134285,0.08762244,0.4,0.00078123994,0.0007812398,0.00078124,197644,0.0145632,-0.0112865465,-0.0002438847,0.5,0.00015786462,0.0002935924,0.00040875058,1,1,1,0,1,0
21828844000,21828764000,1310988,0.000507193,-0.00014924764,-0.00072802184,0.34906584,1.6522503e-07,1.6396304e-07,3.4514304e-07,1310988,-0.014124325,-0.013351985,0.086322784,0.4,0.00078123936,0.00078123936,0.00078123936,197644,0.0145632,-0.0112865465,-0.0002438847,0.5,0.00015786462,0.0002935924,0.00040875058,1,1,1,0,1,0
21829620000,21829540000,1310988,0.00051961985,-0.00013268625,-0.000734093,0.34906584,1.6486351e-07,1.6371806e-07,3.4672868e-07,1310988,-0.01395623,-0.013454274,0.08533037,0.4,0.00078123936,0.00078123936,0.00078123936,197644,0.0145632,-0.0112865465,-0.0002438847,0.5,0.00015786462,0.0002935924,0.00040875058,1,1,1,0,1,0
21830612000,21830532000,1310988,0.00052535674,-0.00011711253,-0.0007427248,0.34906584,1.6435217e-07,1.6334454e-07,3.4861475e-07,1310988,-0.013804961,-0.013494813,0.083488844,0.4,0.00078123936,0.00078123936,0.00078123936,197644,0.0145632,-0.0112865465,-0.0002438847,0.5,0.00015786462,0.0002935924,0.00040875058,1,1,1,0,1,0
21831612000,21831532000,1310988,0.0005316501,-0.00010383954,-0.0007451226,0.34906584,1.6440559e-07,1.6351476e-07,3.5039736e-07,1310988,-0.0136901345,-0.013542036,0.08355804,0.4,0.0007812511,0.0007812509,0.00078123936,197644,0.0145632,-0.0112865465,-0.0002438847,0.5,0.00015786462,0.0002935924,0.00040875058,1,1,1,0,1,0
