timestamp,timestamp_sample,device_id,x,y,z,temperature,error_count,samples
21727052000,21727052000,1310996,-0.001594093,-0.011098723,0.0006842743,13.515131,0,1
21728052000,21728052000,1310996,0.007923686,-0.0060757934,-0.011357699,13.515131,0,1
21729052000,21729052000,1310996,0.0022717528,-0.0007002687,-0.0045248247,13.515131,0,1
21730052000,21730052000,1310996,-0.03197147,-0.004891465,-0.009829399,13.515131,0,1
21731052000,21731052000,1310996,-0.001438089,-0.0031732125,-0.0026683202,13.515131,0,1
21732052000,21732052000,1310996,0.0046020183,-0.0067485287,-0.0021722715,13.515131,0,1
21733052000,21733052000,1310996,0.052354958,0.008430396,-0.005681952,13.515131,0,1
21734052000,21734052000,1310996,-0.03361506,0.061160434,-0.0039732684,13.515131,0,1
21735052000,21735052000,1310996,0.013550331,0.0025255452,0.010189118,13.508966,0,1
21736052000,21736052000,1310996,0.00015309938,0.010152809,0.0073481984,13.50268,0,1
21737052000,21737052000,1310996,-0.014282835,-0.0025418003,0.00046230466,13.5003605,0,1
21738052000,21738052000,1310996,0.06520722,0.09270785,-0.00070629735,13.500116,0,1
21739052000,21739052000,1310996,0.05861031,0.13547413,-0.016998794,13.498011,0,1
21740052000,21740052000,1310996,0.013139428,-0.022850124,0.012038464,13.490076,0,1
21741052000,21741052000,1310996,-0.005962038,0.010881543,0.0061548674,13.472254,0,1
21742052000,21742052000,1310996,0.019137109,0.020977294,0.0093761645,13.447504,0,1
21743052000,21743052000,1310996,-0.41599292,0.018536616,0.029260835,13.419062,0,1
21744052000,21744052000,1310996,0.007369951,0.006695233,-0.002503607,13.387201,0,1
21745052000,21745052000,1310996,-0.008732592,0.0084863305,-0.0037308577,13.35351,0,1
21746052000,21746052000,1310996,0.47775164,0.006992824,-0.020190667,13.319544,0,1
21747052000,21747052000,1310996,0.019913841,0.016292311,-0.0010509732,13.28396,0,1
21748052000,21748052000,1310996,-0.0070537557,-0.0013476304,-0.0032714857,13.247858,0,1
21749052000,21749052000,1310996,-0.031163728,0.005540846,0.0014614174,13.212244,0,1
21750052000,21750052000,1310996,0.015222335,0.009555158,-0.0068875914,13.175562,0,1
21751052000,21751052000,1310996,-0.0049010674,-0.006346911,-0.005311401,13.138636,0,1
21752052000,21752052000,1310996,-0.0026186425,-0.0010625321,0.009461567,13.102503,0,1
21753052000,21753052000,1310996,0.00920047,0.012922173,0.0059749945,13.065393,0,1
21754052000,21754052000,1310996,-0.0039857794,-0.0063811825,-0.0052831927,13.028223,0,1
21755052000,21755052000,1310996,0.017298166,-0.007021681,0.002440061,12.991877,0,1
21756052000,21756052000,1310996,0.0057121348,-0.0026962317,0.008632328,12.954645,0,1
21757052000,21757052000,1310996,-0.020240948,0.004501724,-0.012874901,12.917383,0,1
21758052000,21758052000,1310996,0.0026347004,-0.005599321,-0.0096821785,12.881006,0,1
21759052000,21759052000,1310996,-0.00576011,-0.012433095,0.0063758884,12.843714,0,1
21760052000,21760052000,1310996,-0.0041577495,0.0012717134,-0.0064527853,12.806421,0,1
21761052000,21761052000,1310996,-0.0157993,0.008672122,-0.002935873,12.770014,0,1
21762052000,21762052000,1310996,0.0012932732,0.0046767425,0.0050792294,12.732691,0,1
21763052000,21763052000,1310996,0.0033085889,-0.00014037844,0.007646823,12.695368,0,1
21764052000,21764052000,1310996,0.0027118817,-0.006192979,-0.006258181,12.65896,0,1
21765052000,21765052000,1310996,-0.41318792,0.000982122,0.0204773,12.621637,0,1
21766052000,21766052000,1310996,0.004442861,0.0017247001,0.00012215902,12.584314,0,1
21767052000,21767052000,1310996,0.00316773,-0.006392858,-0.011121212,12.547876,0,1
21768052000,21768052000,1310996,0.47058627,-0.00143774,-0.023451118,12.510553,0,1
21769052000,21769052000,1310996,0.009308811,-0.0029512173,-0.0069685667,12.4732,0,1
21770052000,21770052000,1310996,-0.014590605,-0.003775315,0.0013365023,12.436762,0,1
21771052000,21771052000,1310996,-0.015660336,0.0075802216,0.011710993,12.399408,0,1
21772052000,21772052000,1310996,0.0016415024,0.002781327,-0.0108821485,12.362055,0,1
21773052000,21773052000,1310996,-0.0032994153,0.00430069,0.01144325,12.325586,0,1
21774052000,21774052000,1310996,0.0015137473,0.0004501193,0.0073470594,12.288202,0,1
21775052000,21775052000,1310996,0.0059506884,-0.0062009604,0.007222231,12.250818,0,1
21776052000,21776052000,1310996,-0.0033828684,0.00864724,-0.0007388459,12.21435,0,1
21777052000,21777052000,1310996,-0.002296599,0.003754559,-0.005417198,12.176966,0,1
21778052000,21778052000,1310996,0.004550497,-0.0019521165,0.002189197,12.139582,0,1
21779052000,21779052000,1310996,-0.000971311,0.00062798656,0.007151958,12.103113,0,1
21780052000,21780052000,1310996,-0.010320975,0.003530442,0.0050510033,12.065729,0,1
21781052000,21781052000,1310996,0.019340765,-0.0009934778,0.01245082,12.028345,0,1
21782052000,21782052000,1310996,-0.00759808,0.0017357052,-0.0040326724,11.991877,0,1
21783052000,21783052000,1310996,0.021450019,-0.006716505,0.007820554,11.954493,0,1
21784052000,21784052000,1310996,0.0033108846,-0.0062631383,0.0022380422,11.917139,0,1
21785052000,21785052000,1310996,-0.00557247,0.010874221,0.006229342,11.880671,0,1
21786052000,21786052000,1310996,-0.0066049295,0.005284203,0.0034701915,11.843317,0,1
21787052000,21787052000,1310996,-0.39848375,0.0031605493,0.022221366,11.805994,0,1
21788052000,21788052000,1310996,0.0060779373,0.0072640674,-0.0020732388,11.769556,0,1
21789052000,21789052000,1310996,-0.016172133,0.0032525219,-0.0061308704,11.732264,0,1
21790052000,21790052000,1310996,0.47894204,-0.0070434576,-0.03620082,11.694941,0,1
21791048000,21791048000,1310996,-0.0041940263,0.005879909,0.00040420718,11.658533,0,1
21792052000,21792052000,1310996,-0.00896149,0.0020220813,0.0015570874,11.62121,0,1
21793052000,21793052000,1310996,-0.020941384,0.0037619236,-0.0012970612,11.583887,0,1
21794052000,21794052000,1310996,-0.010154829,-0.009791886,0.0017189165,11.54748,0,1
21795052000,21795052000,1310996,0.0027623002,-0.008333883,0.0009781697,11.510157,0,1
21796052000,21796052000,1310996,-0.0076740147,0.0042250054,0.0042038527,11.472834,0,1
21797052000,21797052000,1310996,-0.0085226055,-0.0032253158,0.0054268944,11.436396,0,1
21798052000,21798052000,1310996,-0.0021575887,-0.01250522,0.011254251,11.399103,0,1
21799052000,21799052000,1310996,0.0014289016,0.006778794,-0.004029997,11.36178,0,1
21800052000,21800052000,1310996,0.0006850637,-0.00757437,0.00061632256,11.325342,0,1
21801052000,21801052000,1310996,-0.0021579205,0.0029829075,0.00061950146,11.288019,0,1
21802052000,21802052000,1310996,-0.011258977,0.007403211,0.0011907325,11.250696,0,1
21803052000,21803052000,1310996,0.010152871,-0.0037725214,-0.0043217037,11.214258,0,1
21804052000,21804052000,1310996,-0.0039261626,-0.0075653563,-0.0055742627,11.176935,0,1
21805052000,21805052000,1310996,0.0056144665,-0.0108122965,-0.009952506,11.139582,0,1
21806052000,21806052000,1310996,-0.0041148495,-0.0007064579,-0.0045405156,11.103144,0,1
21807052000,21807052000,1310996,-1.7490971,0.65065217,0.21397936,11.076227,0,1
21808052000,21808052000,1310996,-0.5953519,0.09320445,-0.023034107,11.0681095,0,1
21809052000,21809052000,1310996,-0.08105524,-0.2404468,-0.0033675442,11.06576,0,1
21810052000,21810052000,1310996,0.09640579,0.08815304,0.008916365,11.069117,0,1
21811052000,21811052000,1310996,-0.1212711,0.05704218,-0.022762168,11.07464,0,1
21812052000,21812052000,1310996,-0.019855903,0.09185525,0.0074263527,11.0805,0,1
21813052000,21813052000,1310996,-0.028968291,-0.014036472,-0.0041845716,11.086573,0,1
21814052000,21814052000,1310996,-0.043081354,-0.009439372,-0.0012754783,11.092737,0,1
21815052000,21815052000,1310996,0.016394911,-0.006528851,-0.0008027416,11.098902,0,1
21816052000,21816052000,1310996,-0.029550705,-0.0077743405,-0.0134557,11.105249,0,1
21817052000,21817052000,1310996,-0.00039675506,0.0028684638,-0.005659799,11.11175,0,1
21818052000,21818052000,1310996,0.0142140305,0.0018094925,-0.0057871295,11.118097,0,1
21819052000,21819052000,1310996,0.0006428454,-0.007410315,-0.004351101,11.124506,0,1
21820052000,21820052000,1310996,0.0085308505,-0.007848794,0.0008429397,11.131037,0,1
21821052000,21821052000,1310996,0.008849265,-0.0017816181,-0.008616948,11.137537,0,1
21822052000,21822052000,1310996,-0.0062253764,0.011341759,0.0069979974,11.144129,0,1
21823052000,21823052000,1310996,0.006949796,-0.0007912913,-0.0053611044,11.150873,0,1
21824052000,21824052000,1310996,0.0066228034,-0.008346734,0.004345519,11.157465,0,1
21825052000,21825052000,1310996,-0.0006357233,-0.014209818,-0.0065756314,11.16424,0,1
21826052000,21826052000,1310996,0.00477794,-0.0034940431,0.0055908663,11.171045,0,1
21827052000,21827052000,1310996,0.00923222,0.010216068,0.0020266348,11.177698,0,1
21828052000,21828052000,1310996,-0.017006349,0.011550182,-0.005348216,11.18432,0,1
21829052000,21829052000,1310996,-0.028351296,0.001366812,0.0026218267,11.191004,0,1
21830052000,21830052000,1310996,0.01151059,-0.01082926,-0.01593763,11.197535,0,1
21831052000,21831052000,1310996,-3.666575e-05,0.017204475,-0.00084936694,11.204096,0,1
21832052000,21832052000,1310996,-0.011138974,0.004671944,0.0018045919,11.210596,0,1
21833052000,21833052000,1310996,0.09959388,-0.01260536,-0.0066946284,11.216944,0,1
21834052000,21834052000,1310996,0.020840824,0.0037101442,-8.218369e-07,11.223413,0,1
21835052000,21835052000,1310996,0.03522915,-0.0041007386,0.003089845,11.229853,0,1
21836052000,21836052000,1310996,-0.044469636,-0.005178693,0.0047934437,11.236231,0,1
21837052000,21837052000,1310996,0.003648289,-0.0053212633,-0.0010980068,11.242853,0,1
21838052000,21838052000,1310996,0.021885345,0.0012364676,-0.007274108,11.249598,0,1
21839052000,21839052000,1310996,-0.010643153,-0.008516198,0.0049661845,11.256067,0,1
21840052000,21840052000,1310996,0.008162205,0.005906011,-0.0018604755,11.26272,0,1
21841052000,21841052000,1310996,0.0014351264,-0.017965093,-0.0032051604,11.269373,0,1
21842052000,21842052000,1310996,0.013308034,0.00029003664,-0.0057336,11.275782,0,1
21843052000,21843052000,1310996,0.0045704995,0.016201602,-0.0051074065,11.282434,0,1
21844052000,21844052000,1310996,-0.012258111,0.009307666,0.0025387271,11.289148,0,1
21845052000,21845052000,1310996,0.0044115926,-0.0003606705,-0.0044300477,11.295618,0,1
21846052000,21846052000,1310996,0.010872299,-0.012643738,-0.002781731,11.30224,0,1
21847052000,21847052000,1310996,-0.012667152,0.007449508,-0.015979907,11.308832,0,1
21848052000,21848052000,1310996,-0.007550827,0.008022132,0.00021890551,11.315149,0,1
21849052000,21849052000,1310996,0.018187957,-0.0005040896,-0.017413707,11.3215885,0,1
21850052000,21850052000,1310996,0.0017748019,-0.00917715,-0.010440462,11.328028,0,1
21851052000,21851052000,1310996,-0.024400515,0.00069204904,0.00883151,11.334253,0,1
