timestamp,data_rate,rate_multiplier,tx_rate_avg,tx_error_rate_avg,tx_message_count,tx_buffer_overruns,rx_rate_avg,rx_message_count,rx_message_lost_count,rx_buffer_overruns,rx_parse_errors,rx_packet_drop_count,rx_message_lost_rate,type,mode,flow_control,forwarding,mavlink_v2,ftp,streams,heartbeat_type_antenna_tracker,heartbeat_type_gcs,heartbeat_type_onboard_controller,heartbeat_type_gimbal,heartbeat_type_adsb,heartbeat_type_camera,heartbeat_type_parachute,heartbeat_component_telemetry_radio,heartbeat_component_log,heartbeat_component_osd,heartbeat_component_obstacle_avoidance,heartbeat_component_vio,heartbeat_component_pairing_manager,heartbeat_component_udp_bridge,heartbeat_component_uart_bridge,avoidance_system_healthy,parachute_system_healthy
21727192000,4000.0,0.13674296,3966.1355,0.0,1381606,0,0.0,0,0,0,0,0,0.0,0,2,0,1,1,1,56,0,0,0,0,0,0,0,0,0,0,0,0,0,0,0,0,0
21728192000,4000.0,0.13674296,3650.3984,0.0,1381664,0,0.0,0,0,0,0,0,0.0,0,2,0,1,1,1,56,0,0,0,0,0,0,0,0,0,0,0,0,0,0,0,0,0
21728448000,4000.0,0.13674296,3650.3984,0.0,1381680,0,0.0,0,0,0,0,0,0.0,0,2,0,1,1,1,56,0,0,0,0,0,0,0,0,0,0,0,0,0,0,0,0,0
21729696000,4000.0,0.13674296,3926.295,0.0,1381760,0,0.0,0,0,0,0,0,0.0,0,2,0,1,1,1,56,0,0,0,0,0,0,0,0,0,0,0,0,0,0,0,0,0
21730960000,4000.0,0.13674296,3582.6694,0.0,1381843,0,0.0,0,0,0,0,0,0.0,0,2,0,1,1,1,56,0,0,0,0,0,0,0,0,0,0,0,0,0,0,0,0,0
21732220000,4000.0,0.13674296,3915.3389,0.0,1381916,0,0.0,0,0,0,0,0,0.0,0,2,0,1,1,1,56,0,0,0,0,0,0,0,0,0,0,0,0,0,0,0,0,0
21733220000,4000.0,0.13674296,3619.522,0.0,1381986,0,0.0,0,0,0,0,0,0.0,0,2,0,1,1,1,56,0,0,0,0,0,0,0,0,0,0,0,0,0,0,0,0,0
21733476000,4000.0,0.13674296,3619.522,0.0,1382000,0,0.0,0,0,0,0,0,0.0,0,2,0,1,1,1,56,0,0,0,0,0,0,0,0,0,0,0,0,0,0,0,0,0
21734736000,4000.0,0.13674296,4185.2593,0.0,1382089,0,0.0,0,0,0,0,0,0.0,0,2,0,1,1,1,56,0,0,0,0,0,0,0,0,0,0,0,0,0,0,0,0,0
21735992000,4000.0,0.13674296,3461.1555,0.0,1382168,0,0.0,0,0,0,0,0,0.0,0,2,0,1,1,1,56,0,0,0,0,0,0,0,0,0,0,0,0,0,0,0,0,0
21737244000,4000.0,0.13674296,3521.9124,0.0,1382241,0,0.0,0,0,0,0,0,0.0,0,2,0,1,1,1,56,0,0,0,0,0,0,0,0,0,0,0,0,0,0,0,0,0
21738244000,4000.0,0.13674296,3979.0837,0.0,1382310,0,0.0,0,0,0,0,0,0.0,0,2,0,1,1,1,56,0,0,0,0,0,0,0,0,0,0,0,0,0,0,0,0,0
21738496000,4000.0,0.13674296,3979.0837,0.0,1382325,0,0.0,0,0,0,0,0,0.0,0,2,0,1,1,1,56,0,0,0,0,0,0,0,0,0,0,0,0,0,0,0,0,0
21739756000,4000.0,0.13674296,3826.6934,0.0,1382406,0,0.0,0,0,0,0,0,0.0,0,2,0,1,1,1,56,0,0,0,0,0,0,0,0,0,0,0,0,0,0,0,0,0
21741012000,4000.0,0.13674296,3512.9482,0.0,1382479,0,0.0,0,0,0,0,0,0.0,0,2,0,1,1,1,56,0,0,0,0,0,0,0,0,0,0,0,0,0,0,0,0,0
21742268000,4000.0,0.13674296,3696.2153,0.0,1382559,0,0.0,0,0,0,0,0,0.0,0,2,0,1,1,1,56,0,0,0,0,0,0,0,0,0,0,0,0,0,0,0,0,0
21743268000,4000.0,0.13674296,3797.8088,0.0,1382628,0,0.0,0,0,0,0,0,0.0,0,2,0,1,1,1,56,0,0,0,0,0,0,0,0,0,0,0,0,0,0,0,0,0
21743520000,4000.0,0.13674296,3797.8088,0.0,1382642,0,0.0,0,0,0,0,0,0.0,0,2,0,1,1,1,56,0,0,0,0,0,0,0,0,0,0,0,0,0,0,0,0,0
21744772000,4000.0,0.13674296,3398.4065,0.0,1382721,0,0.0,0,0,0,0,0,0.0,0,2,0,1,1,1,56,0,0,0,0,0,0,0,0,0,0,0,0,0,0,0,0,0
21746032000,4000.0,0.13674296,3777.8887,0.0,1382791,0,0.0,0,0,0,0,0,0.0,0,2,0,1,1,1,56,0,0,0,0,0,0,0,0,0,0,0,0,0,0,0,0,0
21747284000,4000.0,0.13674296,3552.789,0.0,1382872,0,0.0,0,0,0,0,0,0.0,0,2,0,1,1,1,56,0,0,0,0,0,0,0,0,0,0,0,0,0,0,0,0,0
21748284000,4000.0,0.13674296,3679.283,0.0,1382932,0,0.0,0,0,0,0,0,0.0,0,2,0,1,1,1,56,0,0,0,0,0,0,0,0,0,0,0,0,0,0,0,0,0
21748536000,4000.0,0.13674296,3679.283,0.0,1382950,0,0.0,0,0,0,0,0,0.0,0,2,0,1,1,1,56,0,0,0,0,0,0,0,0,0,0,0,0,0,0,0,0,0
21749796000,4000.0,0.13674296,4038.8447,0.0,1383030,0,0.0,0,0,0,0,0,0.0,0,2,0,1,1,1,56,0,0,0,0,0,0,0,0,0,0,0,0,0,0,0,0,0
21751052000,4000.0,0.13674296,3723.1077,0.0,1383108,0,0.0,0,0,0,0,0,0.0,0,2,0,1,1,1,56,0,0,0,0,0,0,0,0,0,0,0,0,0,0,0,0,0
21752308000,4000.0,0.13674296,3398.4065,0.0,1383191,0,0.0,0,0,0,0,0,0.0,0,2,0,1,1,1,56,0,0,0,0,0,0,0,0,0,0,0,0,0,0,0,0,0
21753308000,4000.0,0.13674296,3512.9482,0.0,1383247,0,0.0,0,0,0,0,0,0.0,0,2,0,1,1,1,56,0,0,0,0,0,0,0,0,0,0,0,0,0,0,0,0,0
21753560000,4000.0,0.13674296,3512.9482,0.0,1383270,0,0.0,0,0,0,0,0,0.0,0,2,0,1,1,1,56,0,0,0,0,0,0,0,0,0,0,0,0,0,0,0,0,0
21754816000,4000.0,0.13674296,3369.522,0.0,1383339,0,0.0,0,0,0,0,0,0.0,0,2,0,1,1,1,56,0,0,0,0,0,0,0,0,0,0,0,0,0,0,0,0,0
21756072000,4000.0,0.13674296,3816.7332,0.0,1383419,0,0.0,0,0,0,0,0,0.0,0,2,0,1,1,1,56,0,0,0,0,0,0,0,0,0,0,0,0,0,0,0,0,0
21757324000,4000.0,0.13674296,3533.8647,0.0,1383501,0,0.0,0,0,0,0,0,0.0,0,2,0,1,1,1,56,0,0,0,0,0,0,0,0,0,0,0,0,0,0,0,0,0
21758324000,4000.0,0.13674296,3641.4343,0.0,1383562,0,0.0,0,0,0,0,0,0.0,0,2,0,1,1,1,56,0,0,0,0,0,0,0,0,0,0,0,0,0,0,0,0,0
21758580000,4000.0,0.13674296,3641.4343,0.0,1383574,0,0.0,0,0,0,0,0,0.0,0,2,0,1,1,1,56,0,0,0,0,0,0,0,0,0,0,0,0,0,0,0,0,0
21759836000,4000.0,0.13674296,3499.0042,0.0,1383655,0,0.0,0,0,0,0,0,0.0,0,2,0,1,1,1,56,0,0,0,0,0,0,0,0,0,0,0,0,0,0,0,0,0
21761092000,4000.0,0.13674296,3358.566,0.0,1383733,0,0.0,0,0,0,0,0,0.0,0,2,0,1,1,1,56,0,0,0,0,0,0,0,0,0,0,0,0,0,0,0,0,0
21762092000,4000.0,0.13674296,3693.2273,0.0,1383789,0,0.0,0,0,0,0,0,0.0,0,2,0,1,1,1,56,0,0,0,0,0,0,0,0,0,0,0,0,0,0,0,0,0
21762348000,4000.0,0.13674296,3693.2273,0.0,1383815,0,0.0,0,0,0,0,0,0.0,0,2,0,1,1,1,56,0,0,0,0,0,0,0,0,0,0,0,0,0,0,0,0,0
21763596000,4000.0,0.13674296,3553.785,0.0,1383883,0,0.0,0,0,0,0,0,0.0,0,2,0,1,1,1,56,0,0,0,0,0,0,0,0,0,0,0,0,0,0,0,0,0
21764856000,4000.0,0.13674296,3338.6455,0.0,1383970,0,0.0,0,0,0,0,0,0.0,0,2,0,1,1,1,56,0,0,0,0,0,0,0,0,0,0,0,0,0,0,0,0,0
21766108000,4000.0,0.13674296,3459.1633,0.0,1384047,0,0.0,0,0,0,0,0,0.0,0,2,0,1,1,1,56,0,0,0,0,0,0,0,0,0,0,0,0,0,0,0,0,0
21767108000,4000.0,0.13674296,4005.9763,0.0,1384108,0,0.0,0,0,0,0,0,0.0,0,2,0,1,1,1,56,0,0,0,0,0,0,0,0,0,0,0,0,0,0,0,0,0
21767360000,4000.0,0.13674296,4005.9763,0.0,1384121,0,0.0,0,0,0,0,0,0.0,0,2,0,1,1,1,56,0,0,0,0,0,0,0,0,0,0,0,0,0,0,0,0,0
21768612000,4000.0,0.13674296,3467.1316,0.0,1384202,0,0.0,0,0,0,0,0,0.0,0,2,0,1,1,1,56,0,0,0,0,0,0,0,0,0,0,0,0,0,0,0,0,0
21769872000,4000.0,0.13674296,3679.283,0.0,1384280,0,0.0,0,0,0,0,0,0.0,0,2,0,1,1,1,56,0,0,0,0,0,0,0,0,0,0,0,0,0,0,0,0,0
21771132000,4000.0,0.13674296,3412.3506,0.0,1384364,0,0.0,0,0,0,0,0,0.0,0,2,0,1,1,1,56,0,0,0,0,0,0,0,0,0,0,0,0,0,0,0,0,0
21772132000,4000.0,0.13674296,3844.6216,0.0,1384420,0,0.0,0,0,0,0,0,0.0,0,2,0,1,1,1,56,0,0,0,0,0,0,0,0,0,0,0,0,0,0,0,0,0
21772384000,4000.0,0.13674296,3844.6216,0.0,1384433,0,0.0,0,0,0,0,0,0.0,0,2,0,1,1,1,56,0,0,0,0,0,0,0,0,0,0,0,0,0,0,0,0,0
21773636000,4000.0,0.13674296,3506.9722,0.0,1384514,0,0.0,0,0,0,0,0,0.0,0,2,0,1,1,1,56,0,0,0,0,0,0,0,0,0,0,0,0,0,0,0,0,0
21774896000,4000.0,0.13674296,4005.9763,0.0,1384591,0,0.0,0,0,0,0,0,0.0,0,2,0,1,1,1,56,0,0,0,0,0,0,0,0,0,0,0,0,0,0,0,0,0
21776152000,4000.0,0.13674296,3459.1633,0.0,1384670,0,0.0,0,0,0,0,0,0.0,0,2,0,1,1,1,56,0,0,0,0,0,0,0,0,0,0,0,0,0,0,0,0,0
21777152000,4000.0,0.13674296,3383.4663,0.0,1384731,0,0.0,0,0,0,0,0,0.0,0,2,0,1,1,1,56,0,0,0,0,0,0,0,0,0,0,0,0,0,0,0,0,0
21777408000,4000.0,0.13674296,3383.4663,0.0,1384746,0,0.0,0,0,0,0,0,0.0,0,2,0,1,1,1,56,0,0,0,0,0,0,0,0,0,0,0,0,0,0,0,0,0
21778664000,4000.0,0.13674296,3762.9482,0.0,1384832,0,0.0,0,0,0,0,0,0.0,0,2,0,1,1,1,56,0,0,0,0,0,0,0,0,0,0,0,0,0,0,0,0,0
21779920000,4000.0,0.13674296,3554.781,0.0,1384912,0,0.0,0,0,0,0,0,0.0,0,2,0,1,1,1,56,0,0,0,0,0,0,0,0,0,0,0,0,0,0,0,0,0
21781180000,4000.0,0.13674296,3601.5938,0.0,1384979,0,0.0,0,0,0,0,0,0.0,0,2,0,1,1,1,56,0,0,0,0,0,0,0,0,0,0,0,0,0,0,0,0,0
21782180000,4000.0,0.13674296,3499.0042,0.0,1385048,0,0.0,0,0,0,0,0,0.0,0,2,0,1,1,1,56,0,0,0,0,0,0,0,0,0,0,0,0,0,0,0,0,0
21782440000,4000.0,0.13674296,3499.0042,0.0,1385063,0,0.0,0,0,0,0,0,0.0,0,2,0,1,1,1,56,0,0,0,0,0,0,0,0,0,0,0,0,0,0,0,0,0
21783692000,4000.0,0.13674296,3737.052,0.0,1385141,0,0.0,0,0,0,0,0,0.0,0,2,0,1,1,1,56,0,0,0,0,0,0,0,0,0,0,0,0,0,0,0,0,0
21784948000,4000.0,0.13674296,3459.1633,0.0,1385220,0,0.0,0,0,0,0,0,0.0,0,2,0,1,1,1,56,0,0,0,0,0,0,0,0,0,0,0,0,0,0,0,0,0
21786204000,4000.0,0.13674296,3885.4583,0.0,1385296,0,0.0,0,0,0,0,0,0.0,0,2,0,1,1,1,56,0,0,0,0,0,0,0,0,0,0,0,0,0,0,0,0,0
21787204000,4000.0,0.13674296,3379.4822,0.0,1385362,0,0.0,0,0,0,0,0,0.0,0,2,0,1,1,1,56,0,0,0,0,0,0,0,0,0,0,0,0,0,0,0,0,0
21787460000,4000.0,0.13674296,3379.4822,0.0,1385377,0,0.0,0,0,0,0,0,0.0,0,2,0,1,1,1,56,0,0,0,0,0,0,0,0,0,0,0,0,0,0,0,0,0
21788720000,4000.0,0.13674296,3459.1633,0.0,1385457,0,0.0,0,0,0,0,0,0.0,0,2,0,1,1,1,56,0,0,0,0,0,0,0,0,0,0,0,0,0,0,0,0,0
21789972000,4000.0,0.13674296,3453.1873,0.0,1385526,0,0.0,0,0,0,0,0,0.0,0,2,0,1,1,1,56,0,0,0,0,0,0,0,0,0,0,0,0,0,0,0,0,0
21791224000,4000.0,0.13674296,3723.1077,0.0,1385604,0,0.0,0,0,0,0,0,0.0,0,2,0,1,1,1,56,0,0,0,0,0,0,0,0,0,0,0,0,0,0,0,0,0
21792224000,4000.0,0.13674296,3672.3108,0.0,1385663,0,0.0,0,0,0,0,0,0.0,0,2,0,1,1,1,56,0,0,0,0,0,0,0,0,0,0,0,0,0,0,0,0,0
21792476000,4000.0,0.13674296,3672.3108,0.0,1385687,0,0.0,0,0,0,0,0,0.0,0,2,0,1,1,1,56,0,0,0,0,0,0,0,0,0,0,0,0,0,0,0,0,0
21793732000,4000.0,0.13674296,3398.4065,0.0,1385772,0,0.0,0,0,0,0,0,0.0,0,2,0,1,1,1,56,0,0,0,0,0,0,0,0,0,0,0,0,0,0,0,0,0
21794988000,4000.0,0.13674296,3567.7292,0.0,1385844,0,0.0,0,0,0,0,0,0.0,0,2,0,1,1,1,56,0,0,0,0,0,0,0,0,0,0,0,0,0,0,0,0,0
21796240000,4000.0,0.13674296,3358.566,0.0,1385923,0,0.0,0,0,0,0,0,0.0,0,2,0,1,1,1,56,0,0,0,0,0,0,0,0,0,0,0,0,0,0,0,0,0
21797240000,4000.0,0.13674296,3762.9482,0.0,1385981,0,0.0,0,0,0,0,0,0.0,0,2,0,1,1,1,56,0,0,0,0,0,0,0,0,0,0,0,0,0,0,0,0,0
21797492000,4000.0,0.13674296,3762.9482,0.0,1386005,0,0.0,0,0,0,0,0,0.0,0,2,0,1,1,1,56,0,0,0,0,0,0,0,0,0,0,0,0,0,0,0,0,0
21798748000,4000.0,0.13674296,3512.9482,0.0,1386074,0,0.0,0,0,0,0,0,0.0,0,2,0,1,1,1,56,0,0,0,0,0,0,0,0,0,0,0,0,0,0,0,0,0
21800008000,4000.0,0.13674296,3398.4065,0.0,1386152,0,0.0,0,0,0,0,0,0.0,0,2,0,1,1,1,56,0,0,0,0,0,0,0,0,0,0,0,0,0,0,0,0,0
21801268000,4000.0,0.13674296,3864.542,0.0,1386236,0,0.0,0,0,0,0,0,0.0,0,2,0,1,1,1,56,0,0,0,0,0,0,0,0,0,0,0,0,0,0,0,0,0
21802268000,4000.0,0.13674296,3689.2432,0.0,1386295,0,0.0,0,0,0,0,0,0.0,0,2,0,1,1,1,56,0,0,0,0,0,0,0,0,0,0,0,0,0,0,0,0,0
21802520000,4000.0,0.13674296,3689.2432,0.0,1386316,0,0.0,0,0,0,0,0,0.0,0,2,0,1,1,1,56,0,0,0,0,0,0,0,0,0,0,0,0,0,0,0,0,0
21803780000,4000.0,0.13674296,3413.3467,0.0,1386388,0,0.0,0,0,0,0,0,0.0,0,2,0,1,1,1,56,0,0,0,0,0,0,0,0,0,0,0,0,0,0,0,0,0
21805032000,4000.0,0.13674296,3723.1077,0.0,1386469,0,0.0,0,0,0,0,0,0.0,0,2,0,1,1,1,56,0,0,0,0,0,0,0,0,0,0,0,0,0,0,0,0,0
21806292000,4000.0,0.13674296,3438.247,0.0,1386549,0,0.0,0,0,0,0,0,0.0,0,2,0,1,1,1,56,0,0,0,0,0,0,0,0,0,0,0,0,0,0,0,0,0
21807292000,4000.0,0.13674296,3777.8887,0.0,1386608,0,0.0,0,0,0,0,0,0.0,0,2,0,1,1,1,56,0,0,0,0,0,0,0,0,0,0,0,0,0,0,0,0,0
21807548000,4000.0,0.13674296,3777.8887,0.0,1386622,0,0.0,0,0,0,0,0,0.0,0,2,0,1,1,1,56,0,0,0,0,0,0,0,0,0,0,0,0,0,0,0,0,0
21808804000,4000.0,0.13674296,3981.076,0.0,1386709,0,0.0,0,0,0,0,0,0.0,0,2,0,1,1,1,56,0,0,0,0,0,0,0,0,0,0,0,0,0,0,0,0,0
21810064000,4000.0,0.13674296,3799.801,0.0,1386792,0,0.0,0,0,0,0,0,0.0,0,2,0,1,1,1,56,0,0,0,0,0,0,0,0,0,0,0,0,0,0,0,0,0
21811324000,4000.0,0.13674296,3624.5022,0.0,1386874,0,0.0,0,0,0,0,0,0.0,0,2,0,1,1,1,56,0,0,0,0,0,0,0,0,0,0,0,0,0,0,0,0,0
21812324000,4000.0,0.13674296,3515.9363,0.0,1386936,0,0.0,0,0,0,0,0,0.0,0,2,0,1,1,1,56,0,0,0,0,0,0,0,0,0,0,0,0,0,0,0,0,0
21812584000,4000.0,0.13674296,3515.9363,0.0,1386949,0,0.0,0,0,0,0,0,0.0,0,2,0,1,1,1,56,0,0,0,0,0,0,0,0,0,0,0,0,0,0,0,0,0
21813840000,4000.0,0.13674296,3862.5498,0.0,1387031,0,0.0,0,0,0,0,0,0.0,0,2,0,1,1,1,56,0,0,0,0,0,0,0,0,0,0,0,0,0,0,0,0,0
21815100000,4000.0,0.13674296,3934.2632,0.0,1387113,0,0.0,0,0,0,0,0,0.0,0,2,0,1,1,1,56,0,0,0,0,0,0,0,0,0,0,0,0,0,0,0,0,0
21816100000,4000.0,0.13674296,3518.9243,0.0,1387172,0,0.0,0,0,0,0,0,0.0,0,2,0,1,1,1,56,0,0,0,0,0,0,0,0,0,0,0,0,0,0,0,0,0
21816356000,4000.0,0.13674296,3518.9243,0.0,1387185,0,0.0,0,0,0,0,0,0.0,0,2,0,1,1,1,56,0,0,0,0,0,0,0,0,0,0,0,0,0,0,0,0,0
21817612000,4000.0,0.13674296,3804.781,0.0,1387269,0,0.0,0,0,0,0,0,0.0,0,2,0,1,1,1,56,0,0,0,0,0,0,0,0,0,0,0,0,0,0,0,0,0
21818868000,4000.0,0.13674296,3785.8567,0.0,1387349,0,0.0,0,0,0,0,0,0.0,0,2,0,1,1,1,56,0,0,0,0,0,0,0,0,0,0,0,0,0,0,0,0,0
21820124000,4000.0,0.13674296,3521.9124,0.0,1387430,0,0.0,0,0,0,0,0,0.0,0,2,0,1,1,1,56,0,0,0,0,0,0,0,0,0,0,0,0,0,0,0,0,0
21821124000,4000.0,0.13674296,3796.8127,0.0,1387493,0,0.0,0,0,0,0,0,0.0,0,2,0,1,1,1,56,0,0,0,0,0,0,0,0,0,0,0,0,0,0,0,0,0
21821384000,4000.0,0.13674296,3796.8127,0.0,1387505,0,0.0,0,0,0,0,0,0.0,0,2,0,1,1,1,56,0,0,0,0,0,0,0,0,0,0,0,0,0,0,0,0,0
21822636000,4000.0,0.13674296,3537.8486,0.0,1387594,0,0.0,0,0,0,0,0,0.0,0,2,0,1,1,1,56,0,0,0,0,0,0,0,0,0,0,0,0,0,0,0,0,0
21823892000,4000.0,0.13674296,4167.3306,0.0,1387672,0,0.0,0,0,0,0,0,0.0,0,2,0,1,1,1,56,0,0,0,0,0,0,0,0,0,0,0,0,0,0,0,0,0
21825144000,4000.0,0.13674296,3490.04,0.0,1387750,0,0.0,0,0,0,0,0,0.0,0,2,0,1,1,1,56,0,0,0,0,0,0,0,0,0,0,0,0,0,0,0,0,0
21826144000,4000.0,0.13674296,4068.7253,0.0,1387814,0,0.0,0,0,0,0,0,0.0,0,2,0,1,1,1,56,0,0,0,0,0,0,0,0,0,0,0,0,0,0,0,0,0
21826396000,4000.0,0.13674296,4068.7253,0.0,1387828,0,0.0,0,0,0,0,0,0.0,0,2,0,1,1,1,56,0,0,0,0,0,0,0,0,0,0,0,0,0,0,0,0,0
21827648000,4000.0,0.13674296,3624.5022,0.0,1387909,0,0.0,0,0,0,0,0,0.0,0,2,0,1,1,1,56,0,0,0,0,0,0,0,0,0,0,0,0,0,0,0,0,0
21828900000,4000.0,0.13674296,3435.259,0.0,1387991,0,0.0,0,0,0,0,0,0.0,0,2,0,1,1,1,56,0,0,0,0,0,0,0,0,0,0,0,0,0,0,0,0,0
21830156000,4000.0,0.13674296,3733.0679,0.0,1388067,0,0.0,0,0,0,0,0,0.0,0,2,0,1,1,1,56,0,0,0,0,0,0,0,0,0,0,0,0,0,0,0,0,0
21831156000,4000.0,0.13674296,3657.3706,0.0,1388134,0,0.0,0,0,0,0,0,0.0,0,2,0,1,1,1,56,0,0,0,0,0,0,0,0,0,0,0,0,0,0,0,0,0
21831408000,4000.0,0.13674296,3657.3706,0.0,1388149,0,0.0,0,0,0,0,0,0.0,0,2,0,1,1,1,56,0,0,0,0,0,0,0,0,0,0,0,0,0,0,0,0,0
21832664000,4000.0,0.13674296,3727.0918,0.0,1388229,0,0.0,0,0,0,0,0,0.0,0,2,0,1,1,1,56,0,0,0,0,0,0,0,0,0,0,0,0,0,0,0,0,0
21833916000,4000.0,0.13674296,3521.9124,0.0,1388307,0,0.0,0,0,0,0,0,0.0,0,2,0,1,1,1,56,0,0,0,0,0,0,0,0,0,0,0,0,0,0,0,0,0
21835168000,4000.0,0.13674296,3484.064,0.0,1388382,0,0.0,0,0,0,0,0,0.0,0,2,0,1,1,1,56,0,0,0,0,0,0,0,0,0,0,0,0,0,0,0,0,0
21836168000,4000.0,0.13674296,3532.8687,0.0,1388449,0,0.0,0,0,0,0,0,0.0,0,2,0,1,1,1,56,0,0,0,0,0,0,0,0,0,0,0,0,0,0,0,0,0
21836428000,4000.0,0.13674296,3532.8687,0.0,1388465,0,0.0,0,0,0,0,0,0.0,0,2,0,1,1,1,56,0,0,0,0,0,0,0,0,0,0,0,0,0,0,0,0,0
21837684000,4000.0,0.13674296,4141.4346,0.0,1388554,0,0.0,0,0,0,0,0,0.0,0,2,0,1,1,1,56,0,0,0,0,0,0,0,0,0,0,0,0,0,0,0,0,0
21838940000,4000.0,0.13674296,3523.9045,0.0,1388626,0,0.0,0,0,0,0,0,0.0,0,2,0,1,1,1,56,0,0,0,0,0,0,0,0,0,0,0,0,0,0,0,0,0
21840196000,4000.0,0.13674296,3686.2551,0.0,1388707,0,0.0,0,0,0,0,0,0.0,0,2,0,1,1,1,56,0,0,0,0,0,0,0,0,0,0,0,0,0,0,0,0,0
21841196000,4000.0,0.13674296,3461.1555,0.0,1388765,0,0.0,0,0,0,0,0,0.0,0,2,0,1,1,1,56,0,0,0,0,0,0,0,0,0,0,0,0,0,0,0,0,0
21841456000,4000.0,0.13674296,3461.1555,0.0,1388792,0,0.0,0,0,0,0,0,0.0,0,2,0,1,1,1,56,0,0,0,0,0,0,0,0,0,0,0,0,0,0,0,0,0
21842712000,4000.0,0.13674296,3785.8567,0.0,1388868,0,0.0,0,0,0,0,0,0.0,0,2,0,1,1,1,56,0,0,0,0,0,0,0,0,0,0,0,0,0,0,0,0,0
21843964000,4000.0,0.13674296,3892.4304,0.0,1388943,0,0.0,0,0,0,0,0,0.0,0,2,0,1,1,1,56,0,0,0,0,0,0,0,0,0,0,0,0,0,0,0,0,0
21845224000,4000.0,0.13674296,3934.2632,0.0,1389027,0,0.0,0,0,0,0,0,0.0,0,2,0,1,1,1,56,0,0,0,0,0,0,0,0,0,0,0,0,0,0,0,0,0
21846224000,4000.0,0.13674296,3564.7412,0.0,1389088,0,0.0,0,0,0,0,0,0.0,0,2,0,1,1,1,56,0,0,0,0,0,0,0,0,0,0,0,0,0,0,0,0,0
21846480000,4000.0,0.13674296,3564.7412,0.0,1389110,0,0.0,0,0,0,0,0,0.0,0,2,0,1,1,1,56,0,0,0,0,0,0,0,0,0,0,0,0,0,0,0,0,0
21847732000,4000.0,0.13674296,3476.0957,0.0,1389182,0,0.0,0,0,0,0,0,0.0,0,2,0,1,1,1,56,0,0,0,0,0,0,0,0,0,0,0,0,0,0,0,0,0
21848984000,4000.0,0.13674296,3928.2869,0.0,1389264,0,0.0,0,0,0,0,0,0.0,0,2,0,1,1,1,56,0,0,0,0,0,0,0,0,0,0,0,0,0,0,0,0,0
21850240000,4000.0,0.13674296,3785.8567,0.0,1389345,0,0.0,0,0,0,0,0,0.0,0,2,0,1,1,1,56,0,0,0,0,0,0,0,0,0,0,0,0,0,0,0,0,0
