timestamp,gyro_rad[0],gyro_rad[1],gyro_rad[2],gyro_integral_dt,accelerometer_timestamp_relative,accelerometer_m_s2[0],accelerometer_m_s2[1],accelerometer_m_s2[2],accelerometer_integral_dt,accelerometer_clipping,accel_calibration_count,gyro_calibration_count
21726360000,0.0026631611,0.00026631754,0.0002663145,4000,0,-0.04601646,-0.10366528,-9.783644,4000,0,20,0
21726364000,0.0021305296,-0.0005326328,0.0007989477,4000,0,-0.08312658,-0.06416094,-9.837513,4000,0,20,0
21726368000,0.0015978962,-0.00026631824,0.0034621095,4000,0,-0.10108309,-0.043810233,-9.854271,4000,0,20,0
21726372000,0.0031957945,-0.00079894596,0.0021305291,4000,0,-0.073549785,-0.022262413,-9.824343,4000,0,20,0
21726376000,0.0066579054,-0.0013315729,-0.0029294773,4000,0,-0.04960775,-0.007897201,-9.794415,4000,0,20,0
21726380000,0.0031957952,-0.00026631154,-0.003462109,4000,0,-0.059184555,-0.035430524,-9.80998,4000,0,20,0
21726384000,-0.0021305284,0.00079895026,0.0005326329,4000,0,-0.084323674,-0.08690586,-9.861454,4000,0,20,0
21726388000,-0.0018642124,1.1448867e-09,0.0021305298,4000,0,-0.12382801,-0.10965079,-9.853073,4000,0,20,0
21726392000,-0.0018642102,-0.0037284258,0.0023968476,4000,0,-0.11784252,-0.045007326,-9.819557,4000,0,20,0
21726396000,-0.00479369,-0.0031957964,0.0021305252,4000,0,-0.056790367,0.031607136,-9.8423,4000,0,20,0
21726404000,0.0013315813,0.0069242204,0.0010652551,4000,0,-0.04601646,-0.049795732,-9.868638,4000,0,20,0
21726408000,0.0010652614,0.0034621102,-0.00079894933,4000,0,-0.066367164,-0.06535804,-9.909338,4000,0,20,0
21726412000,-0.0015979034,-0.0013315784,-0.0053263213,4000,0,-0.041228045,-0.03423342,-9.90814,4000,0,20,0
21726416000,-0.0021305329,-0.003195792,-0.004261058,4000,0,0.017429896,-0.055781245,-9.883001,4000,0,20,0
21726420000,3.7826292e-10,-0.0029294803,-0.0042610564,4000,0,-0.006512117,-0.047401536,-9.878215,4000,0,20,0
21726424000,0.0029294775,-0.003195798,-0.004527372,4000,0,-0.047213554,0.022030324,-9.877018,4000,0,20,0
21726428000,0.0018642026,-0.0055926433,0.0018642094,4000,0,-0.04003094,0.008862213,-9.856667,4000,0,20,0
21726432000,-0.0018642185,-0.0071905395,0.0053263153,4000,0,-0.04003094,-0.04620443,-9.831528,4000,0,20,0
21726440000,-0.00026631026,0.0007989441,-0.005060007,4000,0,0.06291973,-0.06775225,-9.836314,4000,0,20,0
21726444000,-0.0002663181,-0.00053263217,-0.0039947424,4000,0,-0.010103424,-0.08451166,-9.893776,4000,0,20,0
21726448000,-0.00079894694,0.0007989494,-0.0026631614,4000,0,-0.11544832,-0.074934855,-9.877018,4000,0,20,0
21726452000,0.0013315838,0.0039947405,-0.0018642143,4000,0,-0.10706859,-0.07852617,-9.844694,4000,0,20,0
21726456000,0.002929477,0.0010652632,-0.001065268,4000,0,-0.073549785,-0.060569644,-9.879411,4000,0,20,0
21726460000,0.0018642127,-0.002130531,0.0010652618,4000,0,-0.04841066,-0.046204425,-9.9213085,4000,0,20,0
21726468000,0.002396843,0.0007989509,0.0018642145,4000,0,-0.041228037,-0.08451166,-9.851877,4000,0,20,0
21726472000,0.0029294766,0.00079895207,-0.0021305296,4000,0,-0.006512117,-0.08451166,-9.859061,4000,0,20,0
21726480000,0.002130529,-0.00026631865,0.0005326332,4000,0,-0.016088923,-0.011488504,-9.799206,4000,0,20,0
21726484000,0.0018642124,0.0021305277,0.0026631628,4000,0,-0.059184555,-0.045007326,-9.80998,4000,0,20,0
21726488000,0.0018642109,0.0031957948,0.0010652654,4000,0,-0.016088923,-0.03662762,-9.829134,4000,0,20,0
21726492000,0.001597896,0.00053263316,-0.0005326336,4000,0,0.00905019,-0.031839218,-9.782446,4000,0,20,0
21726496000,-0.001331582,-0.004527373,-0.00292948,4000,0,-0.03524255,-0.08211746,-9.778852,4000,0,20,0
21726500000,-0.005060005,-0.0058589526,-0.00452738,4000,0,-0.09030921,-0.11683338,-9.854271,4000,0,20,0
21726504000,-0.0042610625,-0.0047936863,-0.0015978973,4000,0,-0.08192948,-0.08690586,-9.886595,4000,0,20,0
21726512000,-0.0018642165,1.3918005e-09,0.005592638,4000,0,-0.020877337,-0.08930006,-9.823146,4000,0,20,0
21726516000,-0.0013315766,-0.00213053,0.0029294791,4000,0,-0.06397297,-0.1443667,-9.807583,4000,0,20,0
21726520000,-0.0010652631,-0.00213053,0.0007989486,4000,0,-0.06876136,-0.106059484,-9.814766,4000,0,20,0
21726528000,2.4587086e-09,0.0053263227,0.0010652627,4000,0,-0.037636746,-0.089300066,-9.808783,4000,0,20,0
21726536000,0.0050600073,0.0010652681,0.003728423,4000,0,-0.07594398,-0.03662762,-9.850681,4000,0,20,0
21726540000,0.0010652625,0.002130528,0.0015979,4000,0,-0.060381673,-0.05578124,-9.865045,4000,0,20,0
21726544000,-0.0039947433,0.001597895,-0.0010652611,4000,0,-0.07235267,-0.11443919,-9.868638,4000,0,20,0
21726548000,-0.004261059,-0.00026631568,-0.0007989458,4000,0,-0.07953528,-0.09169427,-9.851877,4000,0,20,0
21726552000,-0.002929478,-0.00026631163,0.0026631614,4000,0,-0.05798745,-0.040218927,-9.849484,4000,0,20,0
21726560000,0.0018642124,0.0013315809,-0.0005326333,4000,0,-0.09150631,-0.0031087957,-9.868637,4000,0,20,0
21726564000,0.0037284268,0.0013315796,0.0007989475,4000,0,-0.06517007,-0.043810233,-9.7932205,4000,0,20,0
21726568000,0.00079894846,-0.0005326317,-0.0002663172,4000,0,-0.07714108,-0.09887687,-9.784839,4000,0,20,0
21726572000,-0.0010652645,-0.003462109,-0.002929479,4000,0,-0.0795353,-0.10127107,-9.811176,4000,0,20,0
21726576000,0.001597894,-0.005592641,-0.0021305252,4000,0,-0.014891823,-0.08211746,-9.808783,4000,0,20,0
21726580000,0.0039947415,-0.0031957964,-0.0007989427,4000,0,0.013838594,-0.08331456,-9.83392,4000,0,20,0
21726584000,0.0005326339,-0.0013315784,-0.0018642143,4000,0,-0.026862843,-0.06775225,-9.843496,4000,0,20,0
21726588000,-0.0039947443,-0.0034621076,0.000798946,4000,0,-0.037636746,-0.06416094,-9.823146,4000,0,20,0
21726592000,-0.0031957957,-0.0034621076,0.0023968462,4000,0,-0.04601645,-0.07373775,-9.845891,4000,0,20,0
21726596000,-0.00079894805,-0.0015978967,0.0007989493,4000,0,-0.073549785,-0.046204425,-9.8423,4000,0,20,0
21726604000,0.0010652656,-0.0018642124,-0.0005326327,4000,0,-0.03524255,-0.05937254,-9.859061,4000,0,20,0
21726608000,-0.004527374,-0.002130528,-0.0018642165,4000,0,-0.03524255,-0.05817544,-9.885397,4000,0,20,0
21726616000,0.0007989459,0.00133159,0.0045273723,4000,0,-0.102280185,-0.05697834,-9.873425,4000,0,20,0
21726620000,0.0029294775,0.0010652682,0.0029294768,4000,0,-0.06876136,-0.06176674,-9.836314,4000,0,20,0
21726624000,0.0015978953,0.0015978982,0.0002663172,4000,0,-0.043622255,-0.077329054,-9.838711,4000,0,20,0
21726628000,0.0013315792,0.0045273765,-0.0021305277,4000,0,-0.044819355,-0.053387035,-9.873425,4000,0,20,0
21726632000,-0.0018642092,0.0042610597,0.0005326371,4000,0,-0.06277587,-0.042613134,-9.855468,4000,0,20,0
21726636000,-0.0034621079,0.0013315809,0.0015979009,4000,0,-0.102280185,-0.06894935,-9.811176,4000,0,20,0
21726644000,-0.0034621092,-4.976729e-10,-0.003994743,4000,0,-0.04601645,-0.024656616,-9.8015995,4000,0,20,0
21726648000,-0.0034621072,0.0021305315,-0.0018642154,4000,0,-0.05319906,-0.023459513,-9.832724,4000,0,20,0
21726652000,-0.0034621083,0.0026631632,-5.6819616e-10,4000,0,-0.08432369,-0.018671108,-9.881804,4000,0,20,0
21726656000,-0.002929474,0.00372843,0.0037284244,4000,0,-0.08552079,-0.027050816,-9.890184,4000,0,20,0
21726660000,-0.002396843,0.003994744,0.0055926386,4000,0,-0.08552079,-0.05817544,-9.827936,4000,0,20,0
21726668000,0.002130531,-0.0007989451,0.0031957936,4000,0,-0.11425122,-0.048598636,-9.783644,4000,0,20,0
21726672000,0.0013315813,-0.0007989474,0.0005326321,4000,0,-0.09629471,-0.018671108,-9.798006,4000,0,20,0
21726676000,-0.0010652632,-0.0029294766,-0.0031957955,4000,0,-0.08552079,-0.0031087964,-9.829134,4000,0,20,0
21726684000,0.0010652686,-0.001065275,-0.009587378,4000,0,-0.067564264,-0.049795732,-9.829134,4000,0,20,0
21726688000,0.0037284223,-0.0015979073,-0.0039947415,4000,0,-0.020877337,-0.09289137,-9.850681,4000,0,20,0
21726692000,0.0015978952,-0.001065267,0.00026631562,4000,0,0.0042617843,-0.076131955,-9.8411045,4000,0,20,0
21726696000,0.0010652656,-0.00053263083,-0.002396845,4000,0,-0.03165124,-0.027050817,-9.838711,4000,0,20,0
21726700000,0.0013315806,-0.0010652639,-0.00479369,4000,0,-0.05080485,-0.03303632,-9.83033,4000,0,20,0
21726704000,-8.9837415e-10,-0.001331579,-0.0034621102,4000,0,-0.024468627,-0.10246817,-9.81716,4000,0,20,0
21726708000,-0.0013315809,-0.0002663146,-5.956838e-10,4000,0,-0.017286036,-0.14915511,-9.84709,4000,0,20,0
21726716000,-1.8913144e-09,0.0010652655,0.0031957936,4000,0,-0.018483138,-0.13000147,-9.920111,4000,0,20,0
21726720000,-0.0015979024,0.0053263213,0.0005326329,4000,0,-0.013694723,-0.12521309,-9.86265,4000,0,20,0
21726724000,0.0013315827,0.004793691,0.0015978921,4000,0,-0.042425137,-0.107256584,-9.783644,4000,0,20,0
21726728000,0.006391591,0.00079895084,0.0021305196,4000,0,-0.04003094,-0.074934855,-9.744139,4000,0,20,0
21726732000,0.0058589564,-0.0018642065,-0.0010652703,4000,0,-0.011300531,-0.07972326,-9.795612,4000,0,20,0
21726736000,0.002396845,-0.0021305282,-0.0010652671,4000,0,-0.020877337,-0.06655515,-9.898563,4000,0,20,0
21726740000,0.0013315766,-0.0031957976,0.0039947405,4000,0,-0.036439646,-0.030642116,-9.9213085,4000,0,20,0
21726744000,2.695123e-09,-0.005858958,0.0047936873,4000,0,-0.04960775,-0.05099284,-9.890184,4000,0,20,0
21726748000,-0.0031957836,-0.006391593,-6.3528915e-09,4000,0,-0.06876136,-0.09887687,-9.863848,4000,0,20,0
21726752000,-0.0018642091,-0.0042610606,-0.0018642126,4000,0,-0.07474688,-0.13359278,-9.845891,4000,0,20,0
21726756000,-0.0005326307,-3.1238762e-10,-0.0010652655,4000,0,-0.08073238,-0.122818895,-9.843496,4000,0,20,0
21726760000,-0.0018642126,0.0013315813,-2.1317381e-10,4000,0,-0.07115557,-0.08810296,-9.854271,4000,0,20,0
21726764000,-0.0015978963,-0.0013315801,0.0010652661,4000,0,-0.05559326,-0.06416094,-9.83392,4000,0,20,0
21726768000,-0.0010652641,-0.0018642133,0.0002663166,4000,0,-0.085520774,-0.05937254,-9.798006,4000,0,20,0
21726772000,0.0018642137,-0.003728426,-0.0005326299,4000,0,-0.09988599,-0.07134355,-9.826737,4000,0,20,0
21726776000,0.0034621123,-0.0066579017,-0.0029294775,4000,0,-0.054396156,-0.05697834,-9.868638,4000,0,20,0
21726780000,0.0015978984,-0.0045273737,-0.0026631628,4000,0,-0.05319906,-0.040218927,-9.871031,4000,0,20,0
21726784000,0.0026631565,-0.003462113,0.0013315828,4000,0,-0.06995846,-0.05937254,-9.867441,4000,0,20,0
21726788000,0.003195797,-0.0063915853,-0.00026631824,4000,0,-0.059184555,-0.047401536,-9.868638,4000,0,20,0
21726792000,0.0023968522,-0.008522114,-0.0037284298,4000,0,-0.08791498,-0.05578124,-9.893776,4000,0,20,0
21726796000,0.0023968464,-0.008788434,-0.0042610588,4000,0,-0.11185701,-0.10246817,-9.893776,4000,0,20,0
21726800000,0.0026631663,-0.0026631625,-0.0029294717,4000,0,-0.09988599,-0.076131955,-9.827936,4000,0,20,0
21726804000,0.0045273816,0.0058589512,-0.00053262303,4000,0,-0.087914996,-0.02705082,-9.763292,4000,0,20,0
21726808000,0.0055926405,0.005060005,-3.1978453e-09,4000,0,-0.05200196,-0.043810233,-9.744139,4000,0,20,0
21726812000,0.003994741,0.00026631763,-0.00079895474,4000,0,0.0066559915,-0.07972326,-9.79681,4000,0,20,0
21726816000,-0.0007989489,-0.0018642135,0.0005326299,4000,0,0.024612505,-0.07014645,-9.879411,4000,0,20,0
21726820000,-0.003994743,-0.00079894887,0.0010652622,4000,0,0.005458884,-0.047401533,-9.896172,4000,0,20,0
21726828000,0.0037284256,0.00079894636,-0.0018642145,4000,0,-0.09150631,-0.009094301,-9.871031,4000,0,20,0
21726832000,0.006391588,0.0015978948,-0.0015978967,4000,0,-0.12741934,-0.019868208,-9.849484,4000,0,20,0
21726836000,0.0026631616,0.0013315803,-0.00053263083,4000,0,-0.0927034,-0.043810233,-9.792023,4000,0,20,0
21726840000,-0.0015978975,0.001864215,-0.0021305268,4000,0,-0.087914996,-0.074934855,-9.774067,4000,0,20,0
21726844000,-0.0031957936,0.0039947424,-0.0042610588,4000,0,-0.06995846,-0.07852617,-9.792023,4000,0,20,0
21726848000,-0.0013315766,0.0047936896,-0.0021305324,4000,0,-0.034045443,-0.061766747,-9.815964,4000,0,20,0
21726852000,0.0034621127,0.0058589526,-0.0007989565,4000,0,-0.020877337,-0.05218994,-9.853073,4000,0,20,0
21726856000,0.004527382,0.0039947373,0.0031957896,4000,0,-0.005315021,-0.09169427,-9.872228,4000,0,20,0
21726864000,-0.00026631865,0.0013315754,0.0039947433,4000,0,-0.0101034315,-0.06176674,-9.857864,4000,0,20,0
21726868000,-0.003195795,-0.00026632063,-0.0031957922,4000,0,0.0030646883,-0.07014646,-9.838711,4000,0,20,0
21726872000,-0.0029294807,-0.0034621088,-0.0018642097,4000,0,-0.054396156,-0.06296384,-9.811176,4000,0,20,0
21726876000,-0.0002663168,-0.001597897,-0.00026631495,4000,0,-0.14178453,-0.01867111,-9.835117,4000,0,20,0
21726884000,0.0039947424,0.0015978971,-0.0010652652,4000,0,-0.09150631,0.0028767094,-9.904551,4000,0,20,0
21726892000,4.7282867e-10,0.0010652643,-0.001065265,4000,0,-0.11784252,-0.05937254,-9.835117,4000,0,20,0
21726896000,0.0021305305,0.002929477,-7.0539674e-10,4000,0,-0.04481936,-0.05697834,-9.815964,4000,0,20,0
21726904000,-0.007723167,0.0031957899,0.0045273774,4000,0,-0.012497623,-0.018671108,-9.811176,4000,0,20,0
21726908000,-0.0071905376,0.0042610597,0.0045273714,4000,0,-0.05679036,-0.037824724,-9.831528,4000,0,20,0
21726916000,-0.0013315803,0.00026631614,0.0010652652,4000,0,-0.0927034,-0.08690586,-9.872227,4000,0,20,0
21726920000,0.0021305277,0.0042610588,-0.0013315827,4000,0,-0.07714108,-0.06775225,-9.872227,4000,0,20,0
21726924000,0.0018642135,0.006924219,-0.0018642105,4000,0,-0.037636746,-0.06535804,-9.888988,4000,0,20,0
21726932000,-0.0021305296,-0.00026631504,2.1467221e-09,4000,0,-0.024468627,-0.040218927,-9.794415,4000,0,20,0
21726940000,0.0031957945,0.0013315796,-0.0029294775,4000,0,-0.08312658,-0.06535804,-9.78125,4000,0,20,0
21726944000,0.004261061,0.003728425,-0.0029294756,4000,0,-0.044819355,-0.04261313,-9.799206,4000,0,20,0
21726948000,0.0026631623,0.0045273765,-0.0026631583,4000,0,-0.018483138,-0.027050816,-9.884201,4000,0,20,0
21726952000,0.003994742,0.005060005,-0.0031957955,4000,0,-0.0005266145,-0.07373775,-9.888988,4000,0,20,0
21726956000,0.004793689,0.004261058,-0.0031957964,4000,0,-0.032848332,-0.06655515,-9.854271,4000,0,20,0
21726960000,0.0018642095,0.0010652676,-0.0031957948,4000,0,-0.07235267,-0.021065312,-9.844694,4000,0,20,0
21726964000,-0.00053263525,-0.0018642105,-0.0029294787,4000,0,-0.06277587,-0.045007326,-9.830331,4000,0,20,0
21726968000,-0.0005326302,-3.414049e-11,-0.0034621097,4000,0,-0.06876136,-0.09289137,-9.832724,4000,0,20,0
21726972000,0.001065267,0.0021305275,-0.0029294782,4000,0,-0.078338176,-0.11443919,-9.863848,4000,0,20,0
21726976000,0.0007989476,-0.0007989493,-8.6503577e-10,4000,0,-0.07115557,-0.076131955,-9.856667,4000,0,20,0
21726980000,-0.0010652654,-0.004527376,0.00266316,4000,0,-0.07594398,-0.047401536,-9.809979,4000,0,20,0
21726984000,-0.0007989497,-0.0045273746,0.00346211,4000,0,-0.07235267,-0.040218927,-9.831528,4000,0,20,0
21726992000,0.00213053,1.7300715e-09,-0.0015978959,4000,0,-0.087914996,-0.05817544,-9.892578,4000,0,20,0
21726996000,0.00026631632,0.00026631812,-0.0029294775,4000,0,-0.073549785,-0.05099284,-9.883001,4000,0,20,0
21727000000,-0.0018642099,0.0029294796,0.0005326328,4000,0,-0.073549785,-0.0078972,-9.8818035,4000,0,20,0
21727004000,-0.0031957896,0.0034621123,0.005060007,4000,0,-0.09749181,-0.009094302,-9.829134,4000,0,20,0
21727008000,-0.00506,-0.0005326355,0.005060013,4000,0,-0.11784252,-0.017474007,-9.778853,4000,0,20,0
21727012000,-0.0039947387,-0.0023968471,0.0029294807,4000,0,-0.11185701,-0.0031087967,-9.78843,4000,0,20,0
21727016000,-0.0005326328,-0.0010652626,0.0018642141,4000,0,-0.10706859,0.031607136,-9.789629,4000,0,20,0
21727020000,0.0010652652,-0.0010652639,0.0005326328,4000,0,-0.09150631,-0.015079806,-9.802797,4000,0,20,0
21727024000,0.00079894863,-0.0010652646,-1.13158094e-10,4000,0,-0.03284834,-0.118030496,-9.824343,4000,0,20,0
21727028000,0.0005326317,-0.00079894887,0.0015978969,4000,0,-0.022074427,-0.08690587,-9.807583,4000,0,20,0
21727032000,0.0010652655,-0.0029294777,0.0029294775,4000,0,-0.06876136,-0.0019116958,-9.837513,4000,0,20,0
21727036000,0.0034621109,-0.0055926377,0.00426106,4000,0,-0.08073238,-0.041416023,-9.865045,4000,0,20,0
21727040000,0.006125273,-0.009054748,0.0058589564,4000,0,-0.07594398,-0.10366527,-9.819557,4000,0,20,0
21727044000,0.0037284326,-0.011984232,0.0055926256,4000,0,-0.07115557,-0.09648268,-9.799206,4000,0,20,0
21727048000,-0.0023968443,-0.007190544,0.0031957752,4000,0,-0.04003094,-0.09408847,-9.836314,4000,0,20,0
21727052000,-0.0042610564,-0.003195798,0.0005326246,4000,0,-0.05080485,-0.06655515,-9.844694,4000,0,20,0
21727056000,-0.0013315803,-0.0026631614,2.3176616e-09,4000,0,-0.05200196,-0.010291402,-9.812374,4000,0,20,0
21727060000,0.0026631593,-0.00079894735,0.002663164,4000,0,-0.025665728,0.0004825053,-9.799206,4000,0,20,0
21727064000,0.0047936905,-0.0010652621,0.0021305296,4000,0,-0.07714109,-0.024656616,-9.7932205,4000,0,20,0
21727068000,0.0034621104,0.0010652745,-0.004527372,4000,0,-0.14417875,-0.056978345,-9.787233,4000,0,20,0
21727072000,0.0015978982,0.0018642156,-0.0042610574,4000,0,-0.12143381,-0.05937254,-9.800404,4000,0,20,0
21727076000,0.0013315817,-0.00026631932,0.002396844,4000,0,-0.03165124,-0.06416094,-9.835117,4000,0,20,0
21727080000,0.001597895,0.0015978961,0.0042610597,4000,0,0.001867585,-0.08331456,-9.851877,4000,0,20,0
21727084000,0.0007989419,0.0053263223,0.0018642154,4000,0,-0.041228037,-0.074934855,-9.839908,4000,0,20,0
21727088000,-0.0005326357,0.0047936896,-0.00026631387,4000,0,-0.041228037,-0.06775225,-9.820754,4000,0,20,0
21727092000,-0.0013315784,0.0023968455,0.0013315823,4000,0,-0.0017237143,-0.05817544,-9.821951,4000,0,20,0
21727096000,-0.003994741,0.0015978961,0.0023968478,4000,0,-0.0077092163,-0.06176674,-9.885397,4000,0,20,0
21727100000,-0.0055926405,0.002396842,0.0010652645,4000,0,-0.008906324,-0.10605948,-9.936871,4000,0,20,0
21727104000,-0.0015978994,0.004261056,-0.0010652711,4000,0,-0.029257042,-0.15753481,-9.920112,4000,0,20,0
21727108000,-3.2152343e-09,0.0015978954,-0.002663162,4000,0,-0.07833819,-0.16112609,-9.880608,4000,0,20,0
21727112000,-0.0010652667,-0.0021305284,-0.0005326318,4000,0,-0.055593267,-0.08451166,-9.836314,4000,0,20,0
21727116000,0.0023968432,-0.0039947424,0.0015978997,4000,0,-0.03284834,-0.005502999,-9.817161,4000,0,20,0
21727120000,0.001597896,-0.0050600073,0.0026631597,4000,0,-0.04721356,0.0052709104,-9.839908,4000,0,20,0
21727124000,-0.0031958,-0.002929483,0.005326316,4000,0,-0.044819355,-0.0019116956,-9.829134,4000,0,20,0
21727128000,-0.0007989567,0.0018642169,0.005060003,4000,0,-0.041228037,-0.03423342,-9.792023,4000,0,20,0
21727136000,0.0013315746,0.011451595,3.887931e-09,4000,0,-0.055593267,-0.16591452,-9.775262,4000,0,20,0
21727140000,0.0010652563,0.007456853,-0.0021305298,4000,0,-0.08671789,-0.11204498,-9.763292,4000,0,20,0
21727144000,-0.00079895573,0.0018642148,-0.0034621072,4000,0,-0.0950976,-0.040218927,-9.770474,4000,0,20,0
21727152000,-0.0026631574,0.00639159,0.0021305275,4000,0,-0.11544832,-0.025853712,-9.836314,4000,0,20,0
21727156000,0.000532635,0.006657907,0.0034621027,4000,0,-0.059184555,-0.03423342,-9.879411,4000,0,20,0
21727164000,0.005326318,0.0039947466,-0.0015979013,4000,0,-0.0077092163,-0.053387035,-9.855468,4000,0,20,0
21727168000,0.0021305312,0.0034621088,3.370225e-09,4000,0,-0.034045443,-0.048598636,-9.868638,4000,0,20,0
21727172000,0.00053263264,0.0013315803,0.0002663165,4000,0,-0.05679036,-0.07373775,-9.930885,4000,0,20,0
21727176000,2.8369718e-10,-0.001864213,0.00026631576,4000,0,-0.09030921,-0.07014645,-9.914127,4000,0,20,0
21727184000,-0.00053263234,-3.3098002e-10,-3.7826284e-10,4000,0,-0.05080485,-0.072540656,-9.829134,4000,0,20,0
21727188000,-0.00026631617,0.0013315803,-0.0026631614,4000,0,-0.012497623,-0.10605948,-9.854271,4000,0,20,0
21727192000,0.00053262996,-0.0023968455,-0.0005326324,4000,0,-0.059184555,-0.092891365,-9.838711,4000,0,20,0
21727196000,0.0023968413,-0.0055926405,0.0031957948,4000,0,-0.07594399,-0.06416094,-9.827936,4000,0,20,0
21727200000,0.0021305282,-0.0021305287,0.0018642151,4000,0,-0.084323674,-0.024656616,-9.84709,4000,0,20,0
21727204000,0.001597896,0.0013315816,2.1036861e-09,4000,0,-0.13939032,-0.043810233,-9.885397,4000,0,20,0
21727208000,0.0029294787,0.0007989474,0.0018642121,4000,0,-0.16093816,-0.08690586,-9.915325,4000,0,20,0
21727212000,0.0029294787,-0.0007989481,0.0015978952,4000,0,-0.15255845,-0.074934855,-9.884198,4000,0,20,0
21727216000,0.0002663175,-0.0018642115,-0.0013315823,4000,0,-0.13220774,-0.07014645,-9.868638,4000,0,20,0
21727220000,-0.001864213,-0.0021305284,-0.0015978983,4000,0,-0.085520774,-0.074934855,-9.892578,4000,0,20,0
21727228000,0.0010652642,0.0007989489,0.0002663164,4000,0,-0.036439646,-0.04620443,-9.855469,4000,0,20,0
21727232000,0.0026631607,0.0029294787,-0.0018642127,4000,0,-0.06995846,-0.056978345,-9.853074,4000,0,20,0
21727236000,0.0023968462,0.002396844,-0.0005326325,4000,0,-0.073549785,-0.024656616,-9.850681,4000,0,20,0
21727240000,0.0021305268,-0.001331579,-0.002663164,4000,0,-0.013694723,-0.028247917,-9.859061,4000,0,20,0
21727244000,0.0037284228,-0.006391587,-0.0055926414,4000,0,-0.0005266182,-0.094088465,-9.829134,4000,0,20,0
21727248000,0.0029294728,-0.006391589,-0.003462111,4000,0,-0.04841066,-0.10965079,-9.811176,4000,0,20,0
21727252000,-0.0018642147,-0.0010652626,0.00026631114,4000,0,-0.0795353,-0.05817544,-9.851876,4000,0,20,0
21727256000,-0.0031957945,0.0031957943,0.0010652614,4000,0,-0.102280185,-0.045007326,-9.843496,4000,0,20,0
21727260000,0.0023968446,0.0015978977,-4.227569e-09,4000,0,-0.07714108,-0.06775225,-9.818359,4000,0,20,0
21727264000,0.006657902,-0.0015978955,-0.0015979017,4000,0,-0.043622248,-0.06894935,-9.874621,4000,0,20,0
21727268000,0.0047936924,-0.0010652569,-0.004527375,4000,0,-0.08073238,-0.045007326,-9.932085,4000,0,20,0
21727272000,0.0015978971,-0.0010652589,-0.005060007,4000,0,-0.109462805,-0.033036314,-9.926099,4000,0,20,0
21727276000,-1.2529954e-09,-0.0018642099,-0.005326323,4000,0,-0.08791498,-0.056978345,-9.9213085,4000,0,20,0
21727280000,-0.0015978948,-0.0005326293,-0.005060007,4000,0,-0.04601645,-0.053387035,-9.885397,4000,0,20,0
21727284000,-0.0021305282,0.000532635,-0.0018642137,4000,0,-0.029257042,-0.028247917,-9.825541,4000,0,20,0
21727288000,0.0013315813,0.0007989486,0.00133158,4000,0,-0.02805994,-0.009094303,-9.823146,4000,0,20,0
21727296000,0.0037284293,-0.004261061,0.0031957866,4000,0,-0.089112096,-0.029445017,-9.856667,4000,0,20,0
21727300000,-0.00079894636,-0.00585896,0.0029294693,4000,0,-0.089112096,-0.077329054,-9.856667,4000,0,20,0
21727304000,-0.0007989498,-0.0023968453,0.0018642121,4000,0,-0.0927034,-0.08331456,-9.831528,4000,0,20,0
21727312000,0.0042610583,1.0495191e-09,-0.0005326346,4000,0,-0.0927034,-0.08092036,-9.782446,4000,0,20,0
21727316000,0.005592639,-0.002130529,-0.0010652676,4000,0,-0.04960775,-0.023459513,-9.802797,4000,0,20,0
21727324000,0.0013315813,0.0018642135,-0.001065263,4000,0,-0.03165124,-0.05458413,-9.805189,4000,0,20,0
21727328000,0.0034621095,0.0005326311,-0.00026631803,4000,0,-0.013694723,-0.043810233,-9.861454,4000,0,20,0
21727336000,-0.0015978962,0.0015978988,-0.0018642119,4000,0,-0.09868889,-0.09767977,-9.824343,4000,0,20,0
21727340000,1.4184859e-09,0.0031957934,-0.0010652662,4000,0,-0.14058742,-0.1264102,-9.805189,4000,0,20,0
21727344000,0.0029294763,0.0026631604,-0.0021305322,4000,0,-0.13101064,-0.09528557,-9.818359,4000,0,20,0
21727352000,-0.00026631646,-0.00026631536,-0.0005326326,4000,0,-0.014891829,-0.07373775,-9.902155,4000,0,20,0
21727356000,-0.003728426,-0.0010652642,-0.0018642133,4000,0,-0.07235267,-0.022262413,-9.902155,4000,0,20,0
21727360000,-0.000532632,-0.0007989511,-0.002396844,4000,0,-0.16213526,-0.040218927,-9.838711,4000,0,20,0
21727364000,0.0013315802,-0.0021305312,-0.004261058,4000,0,-0.14537585,-0.072540656,-9.831528,4000,0,20,0
21727372000,-0.0061252816,-0.005858945,0.0013315734,4000,0,-0.026862843,-0.074934855,-9.81716,4000,0,20,0
21727376000,-0.007190541,-0.0018642093,0.0034620995,4000,0,-0.034045443,-0.10965078,-9.808783,4000,0,20,0
21727380000,-0.004527376,0.00053262775,0.00026631204,4000,0,-0.06517007,-0.09887687,-9.771673,4000,0,20,0
21727384000,-0.001864214,0.00159789,-0.0045273774,4000,0,-0.09629471,-0.016276909,-9.783644,4000,0,20,0
21727392000,0.0010652615,-0.0010652664,-0.0013315814,4000,0,-0.05200196,-0.049795732,-9.873425,4000,0,20,0
21727400000,0.0018642108,0.0010652634,0.0018642158,4000,0,-0.056790367,0.011256414,-9.856667,4000,0,20,0
21727404000,0.0005326312,0.00399474,0.003994744,4000,0,-0.01608893,-0.034233425,-9.839908,4000,0,20,0
21727408000,0.0007989513,0.0010652652,0.0031957927,4000,0,-0.010103424,-0.08211746,-9.845891,4000,0,20,0
21727412000,0.0007989498,-0.0007989479,0.0013315803,4000,0,-0.01608893,-0.089300066,-9.845891,4000,0,20,0
21727416000,-0.00053263246,-3.8755898e-10,0.0005326322,4000,0,-0.03165124,-0.061766747,-9.854271,4000,0,20,0
21727420000,-0.0018642126,-0.0026631614,4.2634765e-10,4000,0,-0.036439646,-0.031839218,-9.877018,4000,0,20,0
21727424000,-0.0010652645,-0.0055926396,-0.00026631373,4000,0,-0.012497623,-0.060569648,-9.836314,4000,0,20,0
21727432000,0.0013315851,-0.0013315801,-0.0034621083,4000,0,-0.019680236,-0.08092036,-9.880608,4000,0,20,0
21727436000,0.004527381,0.0031957906,-0.005060002,4000,0,-0.020877337,-0.049795732,-9.898563,4000,0,20,0
21727440000,0.0042610634,0.004261053,-0.0015978948,4000,0,-0.03284834,-0.03902183,-9.9213085,4000,0,20,0
21727444000,0.0013315778,-0.0013315792,-0.0015979005,4000,0,-0.017286036,-0.06176674,-9.906945,4000,0,20,0
21727452000,-0.0005326298,-0.0005326306,-0.004261059,4000,0,-0.018483138,-0.024656616,-9.777657,4000,0,20,0
21727460000,-0.0029294777,-0.00026631381,-0.0010652654,4000,0,-0.061578766,-0.08331456,-9.837513,4000,0,20,0
21727464000,0.001597897,0.0005326326,0.000798948,4000,0,-0.12622224,-0.10246817,-9.843497,4000,0,20,0
21727468000,0.003994743,-0.0007989486,0.0021305282,4000,0,-0.17290914,-0.11922758,-9.837513,4000,0,20,0
21727472000,0.0026631637,-0.0039947424,0.0013315758,4000,0,-0.1369961,-0.08570876,-9.863848,4000,0,20,0
21727476000,0.0013315803,-0.004527376,0.0018642105,4000,0,-0.084323674,-0.076131955,-9.881804,4000,0,20,0
21727480000,0.003195793,-0.0007989468,0.0007989529,4000,0,-0.04003094,-0.08211746,-9.83392,4000,0,20,0
21727484000,0.003728426,0.0029294817,-0.0031957896,4000,0,-0.0017237106,-0.05817544,-9.782446,4000,0,20,0
21727488000,0.002929477,0.0031957962,-0.004261058,4000,0,-0.005315021,-0.05937254,-9.790827,4000,0,20,0
21727492000,0.0037284235,0.0018642126,-0.004793693,4000,0,0.0054588877,-0.045007326,-9.848288,4000,0,20,0
21727496000,0.003728425,0.0021305322,-0.0071905353,4000,0,0.017429896,0.011256416,-9.879411,4000,0,20,0
21727500000,0.0055926405,0.0018642052,-0.004527377,4000,0,-0.0029208176,-0.011488504,-9.832723,4000,0,20,0
21727504000,0.007723166,-0.00026632682,-0.00053263764,4000,0,0.001867585,-0.05099284,-9.784839,4000,0,20,0
21727508000,0.003994743,-0.00026630855,-0.003195794,4000,0,0.024612505,-0.029445017,-9.787233,4000,0,20,0
21727512000,4.066326e-09,0.0034621155,-0.0042610536,4000,0,0.0162328,-0.023459513,-9.772869,4000,0,20,0
21727516000,-0.001065255,0.006391589,0.0005326336,4000,0,-0.008906324,-0.028247919,-9.75132,4000,0,20,0
21727520000,-0.0018642029,0.0039947433,0.0050600087,4000,0,-0.02805994,-0.047401533,-9.778852,4000,0,20,0
21727524000,-0.00026630753,0.0015979017,0.008522117,4000,0,-0.04841066,-0.09169427,-9.818359,4000,0,20,0
21727528000,0.0010652607,0.0034621137,0.010918962,4000,0,-0.04721356,-0.11204498,-9.813569,4000,0,20,0
21727536000,0.002396854,-0.0034621044,0.0013315784,4000,0,-0.047213554,-0.090497166,-9.836314,4000,0,20,0
21727540000,-0.0002663128,-0.0013315789,-0.0023968467,4000,0,-0.09030921,-0.072540656,-9.863848,4000,0,20,0
21727544000,1.15843e-09,0.0015978969,0.00026631606,4000,0,-0.102280185,-0.062963836,-9.860257,4000,0,20,0
21727548000,0.0029294791,0.0034621097,0.003195792,4000,0,-0.07474688,-0.046204425,-9.850681,4000,0,20,0
21727556000,0.0010652638,0.0013315812,-0.00026631673,4000,0,-0.102280185,-0.047401533,-9.8411045,4000,0,20,0
21727564000,0.0010652645,-0.00026631638,-0.0007989487,4000,0,-0.11664542,-0.08690587,-9.853074,4000,0,20,0
21727572000,0.001597899,-0.005592637,-0.0023968492,4000,0,-0.017286036,-0.024656614,-9.874623,4000,0,20,0
21727576000,2.8369715e-09,-0.004527373,-0.0034621123,4000,0,-0.019680236,-0.045007326,-9.871031,4000,0,20,0
21727584000,0.00053263165,-0.0007989489,-0.0002663161,4000,0,-0.04601645,-0.015079807,-9.790827,4000,0,20,0
21727588000,-0.0018642131,0.0021305294,0.0010652646,4000,0,-0.078338176,-0.071343556,-9.826737,4000,0,20,0
21727592000,0.00026631475,0.0029294775,-0.00053263427,4000,0,-0.0939005,-0.10965079,-9.867441,4000,0,20,0
21727596000,0.0039947415,-0.0018642137,-0.00079895253,4000,0,-0.04841066,-0.08930006,-9.855468,4000,0,20,0
21727604000,-0.00026631763,-0.0026631623,0.0010652614,4000,0,-0.067564264,0.0016796065,-9.821951,4000,0,20,0
21727608000,-3.3098002e-10,-0.0010652646,0.0007989486,4000,0,-0.061578766,-0.03303632,-9.827936,4000,0,20,0
21727612000,0.004793689,-0.000532631,0.0010652662,4000,0,-0.047213554,-0.05937254,-9.800403,4000,0,20,0
21727616000,0.0082558,0.0010652666,0.00053263543,4000,0,-0.13220774,-0.043810233,-9.798006,4000,0,20,0
21727624000,-0.0005326363,-0.001331573,-0.0047936924,4000,0,-0.073549785,-0.08810296,-9.800403,4000,0,20,0
21727628000,-0.0015979019,-0.0037284237,-0.0021305294,4000,0,0.00905019,-0.11084788,-9.845891,4000,0,20,0
21727632000,-0.0018642172,-0.00079894555,0.0029294759,4000,0,0.004261788,-0.10965079,-9.923704,4000,0,20,0
21727636000,-0.0029294798,0.0013315795,0.00266316,4000,0,-0.031651232,-0.08570876,-9.945252,4000,0,20,0
21727640000,-0.003195793,-0.00079895154,-0.000266314,4000,0,-0.044819355,-0.056978345,-9.911732,4000,0,20,0
21727644000,-0.0010652642,-0.0026631637,-0.0023968425,4000,0,-0.07474688,-0.072540656,-9.839907,4000,0,20,0
21727648000,-0.00026631402,-0.0023968467,-0.0045273746,4000,0,-0.07474688,-0.076131955,-9.820753,4000,0,20,0
21727656000,-0.00479369,-0.0018642102,-0.0018642151,4000,0,-0.08073238,-0.07852617,-9.836314,4000,0,20,0
21727660000,-0.008522115,-0.0031958,-0.007456852,4000,0,-0.11425122,-0.11922759,-9.851877,4000,0,20,0
21727664000,-0.0066579143,-0.0069242194,-0.005858942,4000,0,-0.09150631,-0.09169427,-9.877018,4000,0,20,0
21727668000,0.0002663015,-0.0071905362,0.0002663326,4000,0,-0.09629471,-0.07014645,-9.862651,4000,0,20,0
21727672000,0.002396844,-0.0029294775,0.0005326377,4000,0,-0.104674384,-0.05578124,-9.817161,4000,0,20,0
21727676000,-0.0021305317,0.0007989459,0.0026631602,4000,0,-0.09030921,-0.06775225,-9.786036,4000,0,20,0
21727680000,-0.00026631562,0.001331585,0.0063915867,4000,0,-0.09629471,-0.10007397,-9.784839,4000,0,20,0
21727684000,0.00745686,-0.002929461,0.0050600027,4000,0,-0.102280185,-0.09408847,-9.776459,4000,0,20,0
21727688000,0.0055926484,-0.0071905316,0.0021305163,4000,0,-0.08073238,-0.049795732,-9.771673,4000,0,20,0
21727692000,0.0034621195,-0.006924213,-0.0021305338,4000,0,-0.06277587,-0.016276909,-9.821951,4000,0,20,0
21727696000,0.007456859,-0.0029294782,-0.0042610443,4000,0,-0.07594399,-0.007897201,-9.837513,4000,0,20,0
21727700000,0.0050600106,0.0029294703,1.2273747e-08,4000,0,-0.11185701,0.012453515,-9.802797,4000,0,20,0
21727704000,-0.0013315787,0.004261055,0.0021305378,4000,0,-0.09988599,-0.010291402,-9.815964,4000,0,20,0
21727708000,-0.003994741,-0.00053263485,0.0007989544,4000,0,-0.05798745,-0.06535804,-9.825541,4000,0,20,0
21727712000,-0.003728426,-0.00053263194,0.0010652647,4000,0,-0.041228037,-0.06176674,-9.825541,4000,0,20,0
21727716000,-0.0034621109,0.0023968485,0.0034621062,4000,0,-0.04841066,-0.049795732,-9.883001,4000,0,20,0
21727720000,-0.0042610546,-0.0002663156,0.0047936942,4000,0,-0.07474688,-0.041416027,-9.892578,4000,0,20,0
21727724000,-0.004261056,-0.0018642144,0.0037284284,4000,0,-0.089112096,-0.053387035,-9.874621,4000,0,20,0
21727732000,0.0005326339,-0.0021305277,0.0013315825,4000,0,-0.036439646,-0.08570876,-9.950039,4000,0,20,0
21727736000,0.0010652667,0.0007989496,-0.003462109,4000,0,0.00067048526,-0.07134355,-9.951238,4000,0,20,0
21727740000,0.0015978997,0.003728426,-0.0053263213,4000,0,-0.034045443,-0.08690586,-9.9213085,4000,0,20,0
21727744000,0.0018642131,0.0026631602,-0.003728427,4000,0,-0.073549785,-0.089300066,-9.905748,4000,0,20,0
21727748000,-0.0007989473,0.0026631637,-0.0023968427,4000,0,-0.061578766,-0.09408847,-9.893778,4000,0,20,0
21727752000,0.00026631728,0.0034621092,-0.0018642141,4000,0,-0.03883385,-0.11084788,-9.873425,4000,0,20,0
21727756000,0.0037284256,0.0021305268,-0.0015979009,4000,0,-0.06397297,-0.11803049,-9.83392,4000,0,20,0
21727764000,-0.00079894654,0.003462109,0.0021305312,4000,0,-0.09030921,-0.061766747,-9.803992,4000,0,20,0
21727768000,0.0002663189,0.0055926405,0.005858953,4000,0,-0.09030921,-0.046204425,-9.844694,4000,0,20,0
21727772000,0.0015979016,0.0037284286,0.0063915844,4000,0,-0.05679036,-0.03662762,-9.879411,4000,0,20,0
21727776000,0.0021305322,0.0007989508,0.00399474,4000,0,-0.034045443,-0.053387035,-9.850681,4000,0,20,0
21727784000,0.0031957934,0.00026632103,-0.0013315806,4000,0,-0.037636746,-0.049795732,-9.794415,4000,0,20,0
21727788000,0.0034621088,-0.0013315754,-0.0063915895,4000,0,-0.07474688,-0.019868208,-9.818359,4000,0,20,0
21727796000,0.0029294773,-0.0021305298,-0.0021305298,4000,0,-0.1381932,-0.031839218,-9.795612,4000,0,20,0
21727804000,0.002929479,0.0039947415,-0.0021305294,4000,0,-0.09150631,-0.01627691,-9.739349,4000,0,20,0
21727808000,0.0013315745,-0.0013315775,-0.0039947447,4000,0,-0.09749181,-0.007897202,-9.75252,4000,0,20,0
21727816000,-0.0010652657,-0.003462109,-0.0013315821,4000,0,-0.104674384,-0.02345951,-9.869834,4000,0,20,0
21727820000,-0.0018642138,-0.0010652638,0.00026631434,4000,0,-0.08192948,-0.003108796,-9.863848,4000,0,20,0
21727828000,-0.00026631763,-0.0007989513,-0.005858955,4000,0,-0.06876136,-0.08690587,-9.924902,4000,0,20,0
21727832000,0.0007989422,-0.003994744,-0.005592639,4000,0,-0.06517007,-0.08810297,-9.885397,4000,0,20,0
21727836000,0.000532628,-0.00479369,-0.00346211,4000,0,-0.102280185,-0.07014645,-9.843496,4000,0,20,0
21727844000,0.0050600097,-0.0013315809,-0.005060002,4000,0,-0.03284834,-0.049795732,-9.909338,4000,0,20,0
21727848000,0.007989487,-0.00026631827,-0.0066579,4000,0,0.02940091,-0.05937254,-9.87582,4000,0,20,0
21727852000,0.008788433,-0.00026633136,-0.0015978968,4000,0,-0.025665728,-0.09169427,-9.868638,4000,0,20,0
21727860000,0.0053263213,-0.00079894887,0.0018642154,4000,0,-0.06876136,-0.048598636,-9.859061,4000,0,20,0
21727864000,0.004793689,0.0013315832,0.00026631984,4000,0,-0.05200196,-0.03423342,-9.845892,4000,0,20,0
21727868000,0.0042610588,-0.0007989485,0.00026631297,4000,0,-0.07714108,-0.024656616,-9.849484,4000,0,20,0
21727872000,0.0037284256,-0.001331583,0.0018642121,4000,0,-0.073549785,-0.016276909,-9.851877,4000,0,20,0
21727876000,0.0026631595,0.0026631618,0.00079895294,4000,0,-0.04721356,-0.0126856025,-9.881804,4000,0,20,0
21727880000,-0.0023968471,0.0034621097,-0.0010652593,4000,0,0.0054588877,-0.018671107,-9.899761,4000,0,20,0
21727884000,-0.0047936877,0.0013315837,0.0015979012,4000,0,0.0054588877,-0.015079805,-9.893776,4000,0,20,0
21727888000,4.964699e-10,0.0023968513,0.0039947387,4000,0,-0.024468627,0.006468011,-9.893776,4000,0,20,0
21727896000,-0.0018642092,0.00026631233,0.0053263237,4000,0,-0.0927034,0.0052709095,-9.843496,4000,0,20,0
21727900000,-0.0034621086,-0.0005326361,0.0037284268,4000,0,-0.12263091,0.030410027,-9.853073,4000,0,20,0
21727904000,-0.0058589587,0.0026631532,-0.0005326363,4000,0,-0.109462805,0.005270909,-9.825541,4000,0,20,0
21727908000,-0.006657906,0.007456845,-0.0039947503,4000,0,-0.09150631,-0.015079807,-9.788429,4000,0,20,0
21727912000,-0.002929474,0.0074568503,-0.0026631702,4000,0,-0.0939005,-0.00071459456,-9.819557,4000,0,20,0
21727916000,0.001331582,0.0045273723,-0.0010652721,4000,0,-0.102280185,-0.0007145938,-9.861454,4000,0,20,0
21727920000,0.0007989455,-0.00026631556,-0.0018642143,4000,0,-0.067564264,-0.03064212,-9.826737,4000,0,20,0
21727924000,-0.00079895183,-0.0055926386,-0.0015978987,4000,0,-0.022074427,-0.07852617,-9.80998,4000,0,20,0
21727928000,-0.0010652659,-0.007190536,-0.0013315808,4000,0,-0.014891823,-0.10605948,-9.863848,4000,0,20,0
21727932000,-0.001597899,-0.004527374,-2.3013118e-09,4000,0,-0.011300524,-0.09767977,-9.939265,4000,0,20,0
21727936000,-0.0037284305,-0.0005326306,0.0031957887,4000,0,-0.012497623,-0.08690586,-9.959616,4000,0,20,0
21727940000,-0.005060007,0.0002663153,0.003728425,4000,0,-0.060381673,-0.06176674,-9.872227,4000,0,20,0
21727944000,-0.0037284256,-0.00026631638,0.0026631618,4000,0,-0.08552079,-0.035430524,-9.78843,4000,0,20,0
21727948000,-0.0023968434,-0.0021305282,0.0026631637,4000,0,-0.06397297,-0.029445019,-9.7537155,4000,0,20,0
21727952000,-0.0015978941,-0.0034621106,0.0002663177,4000,0,-0.04721356,-0.043810233,-9.772869,4000,0,20,0
21727956000,-0.0005326316,-0.0007989488,-0.0005326325,4000,0,-0.05798745,-0.08810296,-9.827936,4000,0,20,0
21727960000,-0.00053263275,0.00026631646,0.0015978967,4000,0,-0.07714108,-0.06894935,-9.815964,4000,0,20,0
21727964000,-0.0010652643,-0.00053263275,0.0010652649,4000,0,-0.07235267,-0.01867111,-9.78843,4000,0,20,0
21727972000,-0.006125271,0.0015978965,-0.0010652663,4000,0,-0.04003094,-0.09408847,-9.757305,4000,0,20,0
21727976000,-0.0061252713,0.0047936854,-0.0031958001,4000,0,-0.022074427,-0.071343556,-9.771672,4000,0,20,0
21727980000,-0.0005326349,0.0047936817,-0.0047937,4000,0,-0.05679036,-0.025853712,-9.798006,4000,0,20,0
21727984000,0.0026631607,0.0029294726,-0.0031957987,4000,0,-0.07594398,-0.010291404,-9.788429,4000,0,20,0
21727988000,0.00026631638,0.0023968471,-0.0023968432,4000,0,-0.066367164,-0.013882705,-9.757305,4000,0,20,0
21727992000,-0.0015979004,-0.0013315792,-0.0031957924,4000,0,-0.05559326,-0.003108798,-9.738152,4000,0,20,0
21727996000,0.002130529,-0.0015979004,-0.0026631597,4000,0,-0.03165124,-0.03662762,-9.734562,4000,0,20,0
21728004000,-0.0007989491,0.0007989497,-0.00079894665,4000,0,-0.08312658,-0.08451166,-9.774067,4000,0,20,0
21728012000,0.0018642156,-0.0037284337,-0.0069242143,4000,0,-0.05080485,-0.11922759,-9.886595,4000,0,20,0
21728016000,0.005592639,-0.0015979082,-0.0026631556,4000,0,-0.014891823,-0.09648268,-9.817161,4000,0,20,0
21728020000,0.0031957973,0.002929478,-0.0015978898,4000,0,-0.012497623,-0.07134355,-9.780052,4000,0,20,0
21728024000,-3.735345e-09,0.003728432,-0.005858951,4000,0,-0.03045414,-0.055781238,-9.808783,4000,0,20,0
21728028000,0.0023968397,0.0007989439,-0.0058589582,4000,0,-0.07115557,-0.043810233,-9.8411045,4000,0,20,0
21728032000,0.005592636,-0.0015979063,-0.0018642157,4000,0,-0.10108309,-0.07972326,-9.838711,4000,0,20,0
21728036000,0.007989483,-0.0021305366,0.0013315808,4000,0,-0.0950976,-0.11204498,-9.868638,4000,0,20,0
21728040000,0.007989483,-0.0007989542,0.0034621134,4000,0,-0.07594398,-0.11324209,-9.893776,4000,0,20,0
21728044000,0.0039947415,-4.6705035e-09,0.0034621106,4000,0,-0.09868889,-0.10007397,-9.845891,4000,0,20,0
21728052000,0.0023968492,-0.0047936873,-0.00479369,4000,0,-0.15734683,-0.035430524,-9.896172,4000,0,20,0
21728056000,0.0037284333,-0.00213053,-0.006657899,4000,0,-0.10826572,-0.06775225,-9.878215,4000,0,20,0
21728060000,0.0031958027,0.0029294752,-0.0037284198,4000,0,-0.08432369,-0.06894935,-9.904551,4000,0,20,0
21728068000,-0.0029294791,-0.005858955,0.0005326311,4000,0,-0.14537586,-0.07972326,-9.920111,4000,0,20,0
21728072000,-0.0034621083,-0.0055926405,-0.00026631757,4000,0,-0.06277587,-0.062963836,-9.878215,4000,0,20,0
21728076000,-0.0029294784,-0.0013315802,0.00026631218,4000,0,-0.014891829,-0.05099284,-9.8411045,4000,0,20,0
21728080000,-0.0029294777,-0.00053263234,0.00026631536,4000,0,-0.06517007,-0.05099284,-9.79681,4000,0,20,0
21728084000,0.0002663162,0.0034621079,-0.0018642162,4000,0,-0.11305412,-0.056978345,-9.815964,4000,0,20,0
21728088000,0.0010652675,0.0071905353,-0.001331581,4000,0,-0.12382801,-0.08451166,-9.83392,4000,0,20,0
21728092000,-0.0013315819,0.0015978978,-0.00079894473,4000,0,-0.09749181,-0.09648268,-9.821951,4000,0,20,0
21728100000,0.005059999,-0.0026631628,0.0055926447,4000,0,-0.05679036,-0.104862384,-9.866243,4000,0,20,0
21728104000,0.0045273644,0.0026631602,0.005858963,4000,0,-0.042425137,-0.08331456,-9.83033,4000,0,20,0
21728108000,0.0058589503,0.0037284335,0.0026631616,4000,0,-0.043622255,-0.05578124,-9.835117,4000,0,20,0
21728112000,0.005326325,0.0007989479,0.0026631565,4000,0,-0.09150631,-0.053387035,-9.853073,4000,0,20,0
21728116000,0.0021305333,-0.0034621165,0.004793683,4000,0,-0.086717874,0.00048250705,-9.898563,4000,0,20,0
21728120000,0.00053263456,-0.0042610606,0.00399474,4000,0,-0.044819355,0.007665113,-9.920111,4000,0,20,0
21728124000,2.3641441e-11,0.00026631623,-0.0002663161,4000,0,-0.020877337,-0.05218994,-9.8411045,4000,0,20,0
21728128000,-0.00053263234,0.0021305294,-0.0021305294,4000,0,0.0054588877,-0.07972326,-9.806387,4000,0,20,0
21728132000,-0.0015978954,0.0023968464,-0.00053263153,4000,0,-0.0017237143,-0.120424695,-9.853073,4000,0,20,0
21728136000,-0.0005326306,0.006924219,0.00053262914,4000,0,-0.061578766,-0.118030496,-9.868638,4000,0,20,0
21728144000,0.00079893507,-0.00026631283,-0.0053263246,4000,0,-0.06277587,-0.062963836,-9.8411045,4000,0,20,0
21728148000,-0.0047936947,-0.002663152,-0.0023968464,4000,0,-0.03524255,-0.10007397,-9.83392,4000,0,20,0
21728152000,-0.0066579008,0.004261066,0.0018642002,4000,0,-0.043622255,-0.07852617,-9.866243,4000,0,20,0
21728156000,-0.0031957924,0.0061252774,0.0034621004,4000,0,-0.06397297,-0.08331456,-9.890184,4000,0,20,0
21728160000,-0.0005326318,0.004261061,0.002663158,4000,0,-0.08671789,-0.09528557,-9.855468,4000,0,20,0
21728164000,0.0005326274,0.007723169,0.0013315787,4000,0,-0.11544832,-0.062963836,-9.8423,4000,0,20,0
21728172000,0.00053262996,0.0021305298,-0.00026631757,4000,0,-0.09868889,-0.07373775,-9.79681,4000,0,20,0
21728176000,0.0037284235,-0.00079894805,-0.0034621125,4000,0,-0.05798745,-0.122818895,-9.758503,4000,0,20,0
21728184000,-0.0018642141,-0.0018642186,0.005592637,4000,0,-0.03165124,-0.029445015,-9.880608,4000,0,20,0
21728188000,-0.0015978954,-0.0013315825,0.0018642129,4000,0,-0.060381673,-0.02106531,-9.902155,4000,0,20,0
21728192000,0.00053263275,0.0002663158,-0.0013315805,4000,0,-0.036439646,-0.040218927,-9.83033,4000,0,20,0
21728196000,0.0026631614,0.0007989474,-0.0007989486,4000,0,0.013838594,-0.06894935,-9.826737,4000,0,20,0
21728200000,0.0045273756,0.0010652621,0.0013315803,4000,0,-0.010103424,-0.10246817,-9.8650465,4000,0,20,0
21728204000,0.002130529,0.003728422,0.0031957987,4000,0,-0.05559326,-0.124016,-9.861454,4000,0,20,0
21728208000,-0.0007989505,0.0066578994,0.0039947475,4000,0,-0.036439646,-0.08211746,-9.887792,4000,0,20,0
21728216000,-0.0018642077,0.0021305284,0.0037284289,4000,0,-0.09629471,0.01724192,-9.861454,4000,0,20,0
21728220000,6.666882e-09,-0.002929475,0.0042610606,4000,0,-0.0939005,-0.029445019,-9.808783,4000,0,20,0
21728224000,0.0055926405,-0.003195786,0.002663167,4000,0,-0.084323674,-0.061766747,-9.790826,4000,0,20,0
21728232000,0.0047936896,0.00026631466,0.001331582,4000,0,-0.04601645,-0.025853714,-9.853073,4000,0,20,0
21728236000,0.0055926405,-0.0015979008,0.003994739,4000,0,-0.06277587,-0.045007326,-9.826737,4000,0,20,0
21728244000,0.003462113,-0.003462108,0.0034621088,4000,0,-0.10108309,0.00646801,-9.848288,4000,0,20,0
21728252000,-0.00079894403,0.00026631955,-0.0037284268,4000,0,-0.06995846,-0.09767977,-9.835117,4000,0,20,0
21728256000,-0.001864209,0.0034621113,-0.0018642137,4000,0,-0.07594399,-0.08092036,-9.84709,4000,0,20,0
21728260000,0.00026631745,0.0010652648,0.0005326313,4000,0,-0.07115557,-0.072540656,-9.857864,4000,0,20,0
21728268000,0.0018642104,0.0031957945,0.0021305303,4000,0,0.00067048526,-0.10845368,-9.84709,4000,0,20,0
21728272000,0.0053263213,0.0066579054,0.003195792,4000,0,-0.006512117,-0.1371841,-9.83392,4000,0,20,0
21728276000,0.005060014,0.0047936854,0.0055926368,4000,0,-0.054396156,-0.11683338,-9.821951,4000,0,20,0
21728280000,0.00026632115,0.0005326264,0.0037284265,4000,0,-0.073549785,-0.09648268,-9.83392,4000,0,20,0
21728284000,-0.0034621092,-0.00026632065,0.00213053,4000,0,-0.06876136,-0.07014645,-9.850681,4000,0,20,0
21728288000,-0.004261059,0.00053263165,0.0021305284,4000,0,-0.059184555,-0.033036318,-9.873425,4000,0,20,0
21728296000,0.0023968457,-0.0018642122,2.1661162e-09,4000,0,0.001867585,0.037592635,-9.825541,4000,0,20,0
21728300000,0.006657903,-0.0005326321,-0.00026631245,4000,0,0.046160318,0.031607136,-9.803992,4000,0,20,0
21728304000,0.0037284263,0.0007989511,-0.0013315784,4000,0,0.021021204,-0.0019116953,-9.849484,4000,0,20,0
21728308000,0.002396845,0.0013315827,-0.002396844,4000,0,-0.03045414,-0.031839218,-9.888988,4000,0,20,0
21728312000,0.0018642147,0.00426106,-0.0034621074,4000,0,-0.04601645,-0.07134355,-9.8411045,4000,0,20,0
21728316000,-0.00079895294,0.004261063,-0.0066578994,4000,0,-0.07833819,-0.08211746,-9.799206,4000,0,20,0
21728324000,0.0031958001,0.0034621037,-0.00026631766,4000,0,-0.13101064,-0.05817544,-9.824343,4000,0,20,0
21728328000,0.0010652688,0.004527371,0.0031957976,4000,0,-0.12981354,-0.05937254,-9.832723,4000,0,20,0
21728332000,-0.0010652649,0.00399474,0.0026631642,4000,0,-0.086717874,-0.05099284,-9.865045,4000,0,20,0
21728336000,-0.005326322,0.002130525,0.0015979033,4000,0,-0.0795353,-0.076131955,-9.831528,4000,0,20,0
21728340000,-0.007190537,0.002663158,0.00026631655,4000,0,-0.0950976,-0.08690586,-9.808783,4000,0,20,0
21728344000,-0.0037284286,0.003195787,-0.0026631658,4000,0,-0.06397297,-0.06416094,-9.839907,4000,0,20,0
21728348000,0.0018642114,0.0026631549,-0.0037284312,4000,0,-0.03045414,-0.072540656,-9.826737,4000,0,20,0
21728352000,0.004527379,0.0026631558,0.00026631387,4000,0,-0.041228045,-0.072540656,-9.814766,4000,0,20,0
21728356000,0.0021305326,0.00053262594,0.004261058,4000,0,-0.04481936,-0.046204425,-9.854271,4000,0,20,0
21728360000,0.0013315817,-0.0005326322,0.0023968443,4000,0,-0.018483138,-0.05817544,-9.883001,4000,0,20,0
21728364000,-0.0007989501,0.0021305287,8.409933e-10,4000,0,-0.0005266182,-0.05937254,-9.8818035,4000,0,20,0
21728372000,0.01251686,-0.0015978962,0.00026630412,4000,0,-0.06995846,-0.09408847,-9.823146,4000,0,20,0
21728380000,-0.008788436,-1.8765682e-09,0.0018642045,4000,0,-0.13340482,-0.08092036,-9.6747055,4000,0,20,0
21728384000,-0.005858957,0.001864204,-0.0018642185,4000,0,-0.1381932,-0.048598632,-10.088902,4000,0,20,0
21728388000,-0.0047936947,-0.0002663255,-0.0063915835,4000,0,-0.11065991,-0.08451165,-10.139181,4000,0,20,0
21728392000,0.0021305317,0.0010652512,-0.0055926405,4000,0,-0.103477284,-0.11563628,-9.868637,4000,0,20,0
21728396000,0.005326332,0.0055926326,-0.0042610564,4000,0,-0.14178453,-0.07373775,-9.744139,4000,0,20,0
21728404000,-0.0002663198,0.0037284286,-0.0042610564,4000,0,-0.026862843,-0.040218927,-9.7932205,4000,0,20,0
21728408000,-0.00079895253,0.0007989493,-0.004261058,4000,0,0.018626995,-0.048598636,-9.819557,4000,0,20,0
21728412000,-2.033163e-09,-0.0013315807,-0.000532632,4000,0,0.018626995,-0.09767977,-9.856667,4000,0,20,0
21728416000,-0.00079894933,-0.00026631606,0.0018642127,4000,0,-0.0101034315,-0.12880437,-9.891381,4000,0,20,0
21728420000,-0.0018642136,0.00026631603,0.003994742,4000,0,-0.04960775,-0.11204498,-9.854271,4000,0,20,0
21728424000,-0.0037284265,0.00079894735,0.0063915877,4000,0,-0.059184555,-0.10127107,-9.817161,4000,0,20,0
21728428000,0.0013315794,0.0010652726,0.004261057,4000,0,-0.03284834,-0.09767977,-9.628021,4000,0,20,0
21728432000,0.003994737,0.0034621162,-0.0015978967,4000,0,-0.005315021,-0.09289137,-9.617245,4000,0,20,0
21728436000,-1.9858795e-09,0.00665791,-0.004793682,4000,0,-0.005315021,-0.08810297,-10.013485,4000,0,20,0
21728440000,-0.00053263333,0.002663162,-0.0023968439,4000,0,-0.013694723,-0.10127106,-10.084116,4000,0,20,0
21728444000,-0.009321063,-0.003195786,0.0034621188,4000,0,-0.036439646,-0.077329054,-9.883001,4000,0,20,0
21728448000,-0.013049487,-0.0069242185,0.0053263307,4000,0,-0.08791498,-0.013882706,-9.80998,4000,0,20,0
21728452000,-0.006391572,-0.008522129,-0.00026629397,4000,0,-0.07235267,-0.015079807,-9.770474,4000,0,20,0
21728456000,-0.001597886,-0.0058589624,-0.003994734,4000,0,-0.01608893,-0.06535804,-9.805189,4000,0,20,0
21728460000,0.0031957896,-0.00452738,-0.0010652561,4000,0,-0.01608893,-0.06535804,-9.848288,4000,0,20,0
21728464000,0.0037284216,-0.004261062,0.0018642141,4000,0,0.00067048526,-0.043810233,-9.855468,4000,0,20,0
21728468000,0.0015978952,0.00079894846,0.0007989517,4000,0,0.005458884,-0.089300066,-9.89138,4000,0,20,0
21728472000,0.0002663149,0.004527375,-0.00026631376,4000,0,-0.03883385,-0.14436668,-9.903353,4000,0,20,0
21728476000,0.00026631763,0.0034621095,0.0007989484,4000,0,-0.06876136,-0.12042469,-9.850681,4000,0,20,0
21728480000,0.0021305315,0.003195794,0.0029294754,4000,0,-0.07474688,-0.077329054,-9.80998,4000,0,20,0
21728484000,0.007456852,0.0037284305,0.0034621046,4000,0,-0.084323674,-0.090497166,-9.635201,4000,0,20,0
21728492000,-0.0007989444,-0.0013315919,0.0050600036,4000,0,-0.11903962,-0.10605948,-10.015879,4000,0,20,0
21728500000,-0.009321063,-0.0026631732,0.002929471,4000,0,-0.10946282,-0.046204425,-9.9213085,4000,0,20,0
21728504000,-0.010652646,-0.0013315788,0.003994737,4000,0,-0.06876136,0.03041003,-9.824343,4000,0,20,0
21728508000,0.001864212,1.095143e-08,0.0023968462,4000,0,-0.03045414,0.031607136,-9.756109,4000,0,20,0
21728512000,0.0055926396,3.6175392e-09,0.0013315806,4000,0,-0.059184555,-0.02705082,-9.736956,4000,0,20,0
21728516000,0.0018642137,-0.0015979,0.0021305261,4000,0,-0.09988599,-0.03423342,-9.762095,4000,0,20,0
21728520000,-0.002663158,-0.0058589582,0.0013315754,4000,0,-0.09150631,-0.040218927,-9.802797,4000,0,20,0
21728524000,-0.0023968427,-0.0061252723,0.00026631678,4000,0,-0.073549785,-0.076131955,-9.836314,4000,0,20,0
21728528000,-0.0007989481,-0.0029294777,6.581136e-10,4000,0,-0.041228037,-0.12880437,-9.848288,4000,0,20,0
21728536000,0.0053263227,-0.0005326318,-0.0005326277,4000,0,-0.06397297,-0.15274644,-9.632807,4000,0,20,0
21728540000,0.003994743,0.00079895003,-0.0013315786,4000,0,-0.04721356,-0.15873191,-10.001516,4000,0,20,0
21728544000,-0.0013315819,-0.0015978935,-0.0021305312,4000,0,-0.023271529,-0.11443918,-10.109253,4000,0,20,0
21728548000,-0.00053263083,-7.573276e-10,-0.0026631614,4000,0,-0.05679036,-0.03423342,-9.905748,4000,0,20,0
21728552000,0.005326323,0.0010652595,-0.002929478,4000,0,-0.06277587,-0.022262413,-9.807584,4000,0,20,0
21728556000,0.0015978948,-0.0007989433,-0.0037284282,4000,0,-0.006512117,-0.040218927,-9.792023,4000,0,20,0
21728560000,0.00053262967,-0.002396845,-0.0010652656,4000,0,0.001867585,-0.027050817,-9.815964,4000,0,20,0
21728564000,0.003195792,-0.0018642143,0.0010652668,4000,0,-0.073549785,-0.029445017,-9.851877,4000,0,20,0
21728568000,0.003994744,0.0013315866,-0.0042610546,4000,0,-0.11784252,-0.048598636,-9.896172,4000,0,20,0
21728572000,0.0018642109,0.00079895544,-0.0071905353,4000,0,-0.061578773,-0.048598636,-9.915325,4000,0,20,0
21728580000,0.0039947396,-0.0031957973,-0.00079894846,4000,0,-0.020877337,-0.11683339,-9.632807,4000,0,20,0
21728584000,0.0023968476,-0.0018642099,-0.0026631611,4000,0,-0.0077092163,-0.10965079,-10.031443,4000,0,20,0
21728588000,0.0053263213,-0.0042610606,-0.0034621095,4000,0,0.005458884,-0.050992828,-10.139181,4000,0,20,0
21728592000,-0.006924226,-0.005326315,-1.9384368e-08,4000,0,-0.011300531,-0.011488503,-9.890183,4000,0,20,0
21728596000,-0.011185281,-0.002663159,0.001065251,4000,0,-0.019680236,-0.02944502,-9.723788,4000,0,20,0
21728600000,-0.0013315794,0.0013315722,-0.0021305352,4000,0,-0.060381666,-0.07014645,-9.698649,4000,0,20,0
21728604000,-0.00026631614,0.0031957915,-0.0050600073,4000,0,-0.12622224,-0.040218927,-9.778853,4000,0,20,0
21728608000,-0.00053263095,0.00346211,-0.0042610583,4000,0,-0.13460192,-0.031839218,-9.820753,4000,0,20,0
21728612000,-0.0005326328,0.0023968453,-0.0034621092,4000,0,-0.08073238,-0.10605948,-9.815964,4000,0,20,0
21728616000,-0.0023968492,-0.0007989463,-0.003728424,4000,0,-0.041228037,-0.1252131,-9.783644,4000,0,20,0
21728624000,0.009853691,-0.00292948,0.0023968597,4000,0,-0.008906324,-0.13598701,-9.696255,4000,0,20,0
21728632000,0.0042610625,-0.00372844,0.0055926265,4000,0,-0.03284834,-0.05697834,-10.067356,4000,0,20,0
21728636000,-0.0031957922,-0.0034621211,0.0039947326,4000,0,-0.08791498,-0.019868203,-10.111648,4000,0,20,0
21728644000,-0.0015979002,0.0037284228,-0.00053264364,4000,0,-0.11425122,0.008862213,-9.807584,4000,0,20,0
21728652000,0.0015978978,0.008255801,-0.001864211,4000,0,-0.037636746,-0.042613134,-9.839908,4000,0,20,0
21728656000,0.0015978906,0.0018642135,-0.0026631646,4000,0,-0.041228037,-0.076131955,-9.838711,4000,0,20,0
21728660000,0.009853694,-0.00053263945,-0.0029294838,4000,0,-0.04841066,-0.12042469,-9.687876,4000,0,20,0
21728664000,0.010652646,0.0021305217,-0.00079893955,4000,0,-0.05559326,-0.13957831,-9.711816,4000,0,20,0
21728668000,0.004793691,0.0047936896,-0.00026630244,4000,0,-0.06517007,-0.11683338,-10.134394,4000,0,20,0
21728672000,0.0053263204,0.0047936933,-0.0018642137,4000,0,-0.085520774,-0.09169426,-10.221781,4000,0,20,0
21728676000,-0.004261057,0.0047936947,-0.000798933,4000,0,-0.10587149,-0.06535804,-9.971588,4000,0,20,0
21728680000,-0.009321057,0.0034621174,0.0034621195,4000,0,-0.10108309,-0.022262415,-9.820753,4000,0,20,0
21728684000,-0.002396839,0.00079896546,0.006391588,4000,0,-0.08671789,0.00048250466,-9.762095,4000,0,20,0
21728688000,0.0039947457,-0.001597886,0.002929478,4000,0,-0.07474688,-0.033036318,-9.754913,4000,0,20,0
21728692000,0.0055926386,0.001331588,-0.0013315758,4000,0,-0.06517007,-0.09767977,-9.748926,4000,0,20,0
21728696000,0.0013315823,0.004527376,-0.0007989405,4000,0,-0.0939005,-0.11922759,-9.758503,4000,0,20,0
21728704000,0.0031957952,-0.0050600055,0.00053262967,4000,0,-0.11544832,-0.07852617,-9.803992,4000,0,20,0
21728708000,0.008788438,-0.0069242166,-0.0015978896,4000,0,-0.0950976,-0.07972326,-9.6830845,4000,0,20,0
21728716000,0.0010652676,-0.011185273,-0.0015979318,4000,0,-0.06995846,-0.09289137,-10.012289,4000,0,20,0
21728720000,-0.009587362,-0.0055926316,-0.0055926773,4000,0,-0.044819355,-0.065358035,-10.054186,4000,0,20,0
21728724000,-0.0077231587,-0.00266317,-0.007190541,4000,0,-0.054396156,-0.024656614,-9.89138,4000,0,20,0
21728732000,0.00079894735,-0.00079895,-0.0029294775,4000,0,-0.06397297,-0.12042469,-9.861454,4000,0,20,0
21728736000,0.003994738,-0.0023968508,0.005858956,4000,0,-0.043622255,-0.10246817,-9.856667,4000,0,20,0
21728740000,0.0050600064,-0.0029294768,0.006657903,4000,0,-0.042425144,-0.090497166,-9.861454,4000,0,20,0
21728744000,0.010386336,-0.00319577,-0.00053262763,4000,0,-0.06517007,-0.16711164,-9.663932,4000,0,20,0
21728752000,0.0039947433,-0.001597887,-0.004261061,4000,0,-0.04601646,-0.12521307,-10.029049,4000,0,20,0
21728756000,-0.001864215,-0.0021305243,-0.0015979006,4000,0,-0.036439646,-0.052189935,-10.130801,4000,0,20,0
21728760000,-0.0055926414,-0.0039947387,0.00079894694,4000,0,-0.042425137,-0.017474005,-9.893776,4000,0,20,0
21728764000,-0.0021305282,-0.004261059,5.03218e-09,4000,0,-0.05200196,-0.05578124,-9.781249,4000,0,20,0
21728768000,0.00213053,-0.001065265,-0.00053262844,4000,0,-0.01608893,-0.10007397,-9.795612,4000,0,20,0
21728772000,0.0034621102,0.0023968448,-0.00053262926,4000,0,-0.0077092163,-0.10605948,-9.815964,4000,0,20,0
21728776000,0.0037284272,0.0013315788,0.0010652631,4000,0,-0.05080485,-0.10007397,-9.798007,4000,0,20,0
21728780000,0.011451596,-0.000532632,0.0029294717,4000,0,-0.10108309,-0.08331456,-9.630415,4000,0,20,0
21728784000,0.008255801,0.00026631507,0.0023968478,4000,0,-0.09629471,-0.08451166,-9.645975,4000,0,20,0
21728788000,0.00053263264,-0.00026631722,0.0005326315,4000,0,-0.054396156,-0.06176674,-10.038626,4000,0,20,0
21728792000,-0.0029294768,-0.0031957943,-0.00026631702,4000,0,-0.08312658,-0.009094296,-10.110451,4000,0,20,0
21728796000,-0.0029294777,-0.0061252713,-0.00026631338,4000,0,-0.11065991,-0.019868206,-9.886595,4000,0,20,0
21728800000,0.002130531,-0.0061252727,-0.0010652544,4000,0,-0.08671789,-0.07014645,-9.829134,4000,0,20,0
21728804000,-0.00079895515,-0.0021305312,0.0029294745,4000,0,-0.089112096,-0.04620443,-9.854271,4000,0,20,0
21728808000,-0.0042610625,0.0005326296,0.005858952,4000,0,-0.0939005,-0.016276909,-9.836314,4000,0,20,0
21728812000,-0.0023968462,0.0005326283,0.000532632,4000,0,-0.06277587,-0.06775225,-9.800404,4000,0,20,0
21728816000,0.0066579026,0.0010652641,-0.0021305312,4000,0,-0.019680236,-0.09648268,-9.607668,4000,0,20,0
21728820000,0.0069242204,0.0021305273,-0.0013315785,4000,0,-0.010103424,-0.061766755,-9.624428,4000,0,20,0
21728824000,0.0023968439,0.001597902,-0.0026631595,4000,0,-0.054396156,0.00048251014,-10.074539,4000,0,20,0
21728828000,0.0047936887,0.0010652641,-0.004527377,4000,0,-0.09030921,0.05914046,-10.163124,4000,0,20,0
21728832000,-0.0031957936,0.0013315938,-0.0050600027,4000,0,-0.05798746,0.07829407,-9.898563,4000,0,20,0
21728836000,-0.0066579063,-0.00053262577,-0.004527371,4000,0,-0.03045414,0.04716944,-9.7932205,4000,0,20,0
21728840000,-0.0005326365,-0.0031958004,-0.0034621027,4000,0,-0.05080485,-0.042613134,-9.826737,4000,0,20,0
21728844000,0.000266311,-0.0037284263,0.0007989494,4000,0,-0.07594398,-0.11922758,-9.848288,4000,0,20,0
21728848000,0.0010652607,0.0013315806,0.0029294791,4000,0,-0.0927034,-0.1264102,-9.780052,4000,0,20,0
21728852000,0.003462103,0.0063915914,-0.0010652639,4000,0,-0.08192948,-0.107256584,-9.723788,4000,0,20,0
21728856000,0.00026630756,0.0029294826,-0.004527372,4000,0,-0.066367164,-0.071343556,-9.73576,4000,0,20,0
21728860000,-0.0034621162,-0.0013315751,-0.0045273714,4000,0,-0.06517007,-0.03902183,-9.766882,4000,0,20,0
21728864000,0.008788436,0.0015978817,-0.0015978948,4000,0,-0.07594398,-0.04740154,-9.624428,4000,0,20,0
21728868000,0.014381073,0.0034620995,0.000798951,4000,0,-0.084323674,-0.09408847,-9.620838,4000,0,20,0
21728872000,0.007456857,-0.0013315954,0.0034620948,4000,0,-0.104674384,-0.08690586,-10.036231,4000,0,20,0
21728876000,-0.0013315805,-0.0021305424,0.004793684,4000,0,-0.102280185,0.014847724,-10.166714,4000,0,20,0
21728880000,-0.006391592,0.00079894,0.0039947373,4000,0,-0.014891829,0.04357814,-9.914127,4000,0,20,0
21728884000,-0.0034621104,0.0013315834,0.003462108,4000,0,0.022218298,-0.017474007,-9.789629,4000,0,20,0
21728888000,-0.0034621137,0.0029294721,-0.0010652663,4000,0,-0.018483138,-0.05817544,-9.843496,4000,0,20,0
21728892000,-0.0029294803,0.0010652617,-0.0034621083,4000,0,-0.04721356,-0.074934855,-9.902155,4000,0,20,0
21728900000,0.0055926377,-0.0047936924,9.27834e-09,4000,0,-0.0077092163,-0.11204498,-9.61964,4000,0,20,0
21728904000,0.009054752,-0.006125269,-0.0013315778,4000,0,-0.05080485,-0.13957831,-9.59929,4000,0,20,0
21728908000,0.0023968432,-0.0039947433,-7.2330755e-09,4000,0,-0.0950976,-0.04620442,-10.02426,4000,0,20,0
21728912000,-0.0074568572,-0.0010652678,0.0039947308,4000,0,-0.042425144,0.03160714,-10.132,4000,0,20,0
21728916000,-0.009587376,-0.002396858,2.5114408e-09,4000,0,-0.008906324,-0.019868208,-9.900957,4000,0,20,0
21728920000,-0.002929474,-0.0031958076,-0.0042610504,4000,0,-0.006512117,-0.09408847,-9.7932205,4000,0,20,0
21728924000,-0.00026631812,-0.0015978968,-0.00026631492,4000,0,-0.005315021,-0.11683338,-9.790827,4000,0,20,0
21728928000,0.001065264,0.00026631617,0.0013315812,4000,0,-0.018483138,-0.09528557,-9.790827,4000,0,20,0
21728932000,0.00079894846,-0.00026631536,-0.0010652648,4000,0,-0.037636746,-0.037824728,-9.8015995,4000,0,20,0
21728940000,0.008522113,-0.0029294894,0.0045273765,4000,0,-0.03284834,-0.10127108,-9.550207,4000,0,20,0
21728948000,-0.011984224,-0.0013316058,0.003728427,4000,0,-0.043622255,-0.029445013,-10.069749,4000,0,20,0
21728952000,-0.017310541,-0.0026631958,-0.0031957906,4000,0,-0.09030921,0.014847718,-9.84709,4000,0,20,0
21728956000,-0.0053263144,0.00079890515,-0.008522125,4000,0,-0.09150631,-0.030642116,-9.784839,4000,0,20,0
21728960000,0.0037284307,0.0023968222,-0.006924225,4000,0,-0.07115557,-0.12880439,-9.781249,4000,0,20,0
21728964000,0.004261053,-0.0007989536,-0.00372843,4000,0,-0.04601645,-0.11683338,-9.766882,4000,0,20,0
21728968000,-5.437529e-09,-0.0042610597,0.0005326262,4000,0,-0.037636746,-0.08092036,-9.790826,4000,0,20,0
21728972000,0.0055926396,-0.0013315798,0.00026632403,4000,0,-0.04601645,-0.089300066,-9.620838,4000,0,20,0
21728980000,0.0021305312,0.0074568545,-0.0013315642,4000,0,-0.05319906,-0.039021824,-9.965601,4000,0,20,0
