timestamp,timestamp_sample,gps_hvel[0],gps_hvel[1],gps_vvel,gps_hpos[0],gps_hpos[1],gps_vpos,ev_hvel[0],ev_hvel[1],ev_vvel,ev_hpos[0],ev_hpos[1],ev_vpos,rng_vpos,baro_vpos,aux_hvel[0],aux_hvel[1],aux_vvel,flow[0],flow[1],heading,mag_field[0],mag_field[1],mag_field[2],drag[0],drag[1],airspeed,beta,hagl,hagl_rate
21726676000,21726596000,0.09013452,0.09013452,0.20263943,1.0012063,1.0012062,0.0,0.0,0.0,0.0,0.0,0.0,0.0,0.0,12.25307,0.0,0.0,nan,0.0,0.0,0.090321384,0.0025308093,0.0025396005,0.002540772,0.0,0.0,0.0,0.0,0.0,0.0
21727180000,21727100000,0.090134494,0.090134494,0.20263943,1.0012048,1.0012048,0.0,0.0,0.0,0.0,0.0,0.0,0.0,0.0,12.253063,0.0,0.0,nan,0.0,0.0,0.090321474,0.0025308093,0.0025396005,0.002540772,0.0,0.0,0.0,0.0,0.0,0.0
21727676000,21727596000,0.09013451,0.09013451,0.20263943,1.0012035,1.0012035,0.0,0.0,0.0,0.0,0.0,0.0,0.0,0.0,12.253058,0.0,0.0,nan,0.0,0.0,0.09032131,0.0025308093,0.0025396005,0.002540772,0.0,0.0,0.0,0.0,0.0,0.0
21728180000,21728100000,0.09007412,0.09007412,0.20257573,1.0012025,1.0012023,0.0,0.0,0.0,0.0,0.0,0.0,0.0,0.0,12.253057,0.0,0.0,nan,0.0,0.0,0.09032128,0.0025308093,0.0025396005,0.002540772,0.0,0.0,0.0,0.0,0.0,0.0
21728676000,21728596000,0.090074115,0.090074115,0.20257573,1.0012004,1.0012004,0.0,0.0,0.0,0.0,0.0,0.0,0.0,0.0,12.253049,0.0,0.0,nan,0.0,0.0,0.09032124,0.0025308093,0.0025396005,0.002540772,0.0,0.0,0.0,0.0,0.0,0.0
21729180000,21729100000,0.09007412,0.09007412,0.20257573,1.0011997,1.0011997,0.0,0.0,0.0,0.0,0.0,0.0,0.0,0.0,12.253045,0.0,0.0,nan,0.0,0.0,0.09032121,0.0025308093,0.0025396005,0.002540772,0.0,0.0,0.0,0.0,0.0,0.0
21729676000,21729596000,0.09001682,0.09001682,0.20251691,1.0011984,1.0011984,0.0,0.0,0.0,0.0,0.0,0.0,0.0,0.0,12.25304,0.0,0.0,nan,0.0,0.0,0.0903212,0.0025308093,0.0025396005,0.002540772,0.0,0.0,0.0,0.0,0.0,0.0
21730180000,21730100000,0.09002482,0.09002482,0.20252502,1.0011971,1.0011971,0.0,0.0,0.0,0.0,0.0,0.0,0.0,0.0,12.2530365,0.0,0.0,nan,0.0,0.0,0.09032116,0.0025308093,0.0025396005,0.002540772,0.0,0.0,0.0,0.0,0.0,0.0
21730676000,21730596000,0.09018883,0.09018882,0.20269793,1.0011976,1.0011976,0.0,0.0,0.0,0.0,0.0,0.0,0.0,0.0,12.253033,0.0,0.0,nan,0.0,0.0,0.090321004,0.0025308093,0.0025396005,0.002540772,0.0,0.0,0.0,0.0,0.0,0.0
21731180000,21731100000,0.090188734,0.09018874,0.20269793,1.0011963,1.0011963,0.0,0.0,0.0,0.0,0.0,0.0,0.0,0.0,12.253027,0.0,0.0,nan,0.0,0.0,0.090321,0.0025308093,0.0025396005,0.002540772,0.0,0.0,0.0,0.0,0.0,0.0
21731676000,21731596000,0.0901888,0.0901888,0.20269793,1.001195,1.001195,0.0,0.0,0.0,0.0,0.0,0.0,0.0,0.0,12.253023,0.0,0.0,nan,0.0,0.0,0.090320975,0.0025308093,0.0025396005,0.002540772,0.0,0.0,0.0,0.0,0.0,0.0
21732180000,21732100000,0.09012568,0.09012567,0.20263003,1.0011933,1.0011932,0.0,0.0,0.0,0.0,0.0,0.0,0.0,0.0,12.253017,0.0,0.0,nan,0.0,0.0,0.09032082,0.0025308093,0.0025396005,0.002540772,0.0,0.0,0.0,0.0,0.0,0.0
21732676000,21732596000,0.090125665,0.09012567,0.20263003,1.0011913,1.0011913,0.0,0.0,0.0,0.0,0.0,0.0,0.0,0.0,12.253014,0.0,0.0,nan,0.0,0.0,0.09032068,0.0025308093,0.0025396005,0.002540772,0.0,0.0,0.0,0.0,0.0,0.0
21733180000,21733100000,0.09007412,0.09007412,0.20257573,1.001191,1.001191,0.0,0.0,0.0,0.0,0.0,0.0,0.0,0.0,12.253011,0.0,0.0,nan,0.0,0.0,0.090320535,0.0025308093,0.0025396005,0.002540772,0.0,0.0,0.0,0.0,0.0,0.0
21733676000,21733596000,0.09093557,0.09093554,0.20355876,1.0013214,1.0013214,0.0,0.0,0.0,0.0,0.0,0.0,0.0,0.0,12.253179,0.0,0.0,nan,0.0,0.0,0.09032066,0.0025308093,0.0025396005,0.002540772,0.0,0.0,0.0,0.0,0.0,0.0
21734180000,21734100000,0.09175422,0.091754176,0.20453152,1.0017973,1.0017973,0.0,0.0,0.0,0.0,0.0,0.0,0.0,0.0,12.253909,0.0,0.0,nan,0.0,0.0,0.090320796,0.0025308093,0.0025396005,0.002540772,0.0,0.0,0.0,0.0,0.0,0.0
21734676000,21734596000,0.09346407,0.093464024,0.20625722,1.0036321,1.0036321,0.0,0.0,0.0,0.0,0.0,0.0,0.0,0.0,12.256145,0.0,0.0,nan,0.0,0.0,0.09032091,0.0025308093,0.0025396005,0.002540772,0.0,0.0,0.0,0.0,0.0,0.0
21735180000,21735100000,0.09482409,0.094823584,0.2076273,1.0061132,1.006113,0.0,0.0,0.0,0.0,0.0,0.0,0.0,0.0,12.260757,0.0,0.0,nan,0.0,0.0,0.090321034,0.0025308093,0.0025396005,0.002540772,0.0,0.0,0.0,0.0,0.0,0.0
21735676000,21735596000,0.096425876,0.09642575,0.20981053,1.0118942,1.0118941,0.0,0.0,0.0,0.0,0.0,0.0,0.0,0.0,12.26744,0.0,0.0,nan,0.0,0.0,0.099259004,0.0025308093,0.0025396005,0.002540772,0.0,0.0,0.0,0.0,0.0,0.0
21736180000,21736100000,0.09644376,0.09643801,0.21120587,1.0167507,1.0167505,0.0,0.0,0.0,0.0,0.0,0.0,0.0,0.0,12.278243,0.0,0.0,nan,0.0,0.0,0.095382184,0.0025308093,0.0025396005,0.002540772,0.0,0.0,0.0,0.0,0.0,0.0
21736676000,21736596000,0.098207176,0.09817804,0.21300995,1.0243075,1.0243068,0.0,0.0,0.0,0.0,0.0,0.0,0.0,0.0,12.289104,0.0,0.0,nan,0.0,0.0,0.093793795,0.0025308093,0.0025396005,0.002540772,0.0,0.0,0.0,0.0,0.0,0.0
21737180000,21737100000,0.100423016,0.10037399,0.21426126,1.030252,1.0302478,0.0,0.0,0.0,0.0,0.0,0.0,0.0,0.0,12.304512,0.0,0.0,nan,0.0,0.0,0.09293003,0.0025308093,0.0025396005,0.002540772,0.0,0.0,0.0,0.0,0.0,0.0
21737676000,21737596000,0.10236327,0.10230393,0.21520634,1.0376774,1.037669,0.0,0.0,0.0,0.0,0.0,0.0,0.0,0.0,12.3186655,0.0,0.0,nan,0.0,0.0,0.092387,0.0025308093,0.0025396005,0.002540772,0.0,0.0,0.0,0.0,0.0,0.0
21738180000,21738100000,0.102802694,0.102743775,0.21536621,1.0398586,1.039849,0.0,0.0,0.0,0.0,0.0,0.0,0.0,0.0,12.340706,0.0,0.0,nan,0.0,0.0,0.09201429,0.0025308093,0.0025396005,0.002540772,0.0,0.0,0.0,0.0,0.0,0.0
21738676000,21738596000,0.104780026,0.104632854,0.21617308,1.0496618,1.0496461,0.0,0.0,0.0,0.0,0.0,0.0,0.0,0.0,12.350407,0.0,0.0,nan,0.0,0.0,0.091741025,0.0025308093,0.0025396005,0.002540772,0.0,0.0,0.0,0.0,0.0,0.0
21739180000,21739100000,0.104847066,0.10414456,0.21605586,1.0522774,1.0522611,0.0,0.0,0.0,0.0,0.0,0.0,0.0,0.0,12.36567,0.0,0.0,nan,0.0,0.0,0.09152221,0.0025308093,0.0025396005,0.002540772,0.0,0.0,0.0,0.0,0.0,0.0
21739676000,21739596000,0.10820958,0.105855584,0.2163497,1.0595725,1.0595522,0.0,0.0,0.0,0.0,0.0,0.0,0.0,0.0,12.377703,0.0,0.0,nan,0.0,0.0,0.09145821,0.0030419668,0.0030471524,0.003053713,0.0,0.0,0.0,0.0,0.0,0.0
21740180000,21740100000,0.10729303,0.1058716,0.21604423,1.0605825,1.0605757,0.0,0.0,0.0,0.0,0.0,0.0,0.0,0.0,12.388035,0.0,0.0,nan,0.0,0.0,0.09145821,0.0027204768,0.0027203665,0.002718124,0.0,0.0,0.0,0.0,0.0,0.0
21740676000,21740596000,0.10548094,0.104850896,0.21574761,1.0611289,1.0611209,0.0,0.0,0.0,0.0,0.0,0.0,0.0,0.0,12.397644,0.0,0.0,nan,0.0,0.0,0.09145821,0.0026396762,0.0026381754,0.0026357237,0.0,0.0,0.0,0.0,0.0,0.0
21741180000,21741100000,0.1048431,0.104663596,0.21603261,1.066287,1.0662335,0.0,0.0,0.0,0.0,0.0,0.0,0.0,0.0,12.40476,0.0,0.0,nan,0.0,0.0,0.09145821,0.0026007371,0.002599773,0.0025981844,0.0,0.0,0.0,0.0,0.0,0.0
21741676000,21741596000,0.10258374,0.10264583,0.21559721,1.0653387,1.0652876,0.0,0.0,0.0,0.0,0.0,0.0,0.0,0.0,12.405827,0.0,0.0,nan,0.0,0.0,0.09145821,0.002579007,0.002578131,0.0025769675,0.0,0.0,0.0,0.0,0.0,0.0
21742180000,21742100000,0.10208351,0.10216269,0.2155644,1.0650747,1.0650238,0.0,0.0,0.0,0.0,0.0,0.0,0.0,0.0,12.416485,0.0,0.0,nan,0.0,0.0,0.09145821,0.0025652228,0.0025643175,0.0025633227,0.0,0.0,0.0,0.0,0.0,0.0
21742676000,21742596000,0.10169642,0.10173729,0.2157331,1.0683976,1.068344,0.0,0.0,0.0,0.0,0.0,0.0,0.0,0.0,12.414685,0.0,0.0,nan,0.0,0.0,0.09145821,0.0025556863,0.0025547456,0.002553862,0.0,0.0,0.0,0.0,0.0,0.0
21743180000,21743100000,0.10109057,0.10104993,0.21560307,1.0671635,1.0671191,0.0,0.0,0.0,0.0,0.0,0.0,0.0,0.0,12.417393,0.0,0.0,nan,0.0,0.0,0.09145821,0.00254872,0.0025477242,0.0025468983,0.0,0.0,0.0,0.0,0.0,0.0
21743676000,21743596000,0.10161967,0.10142307,0.21603091,1.0707803,1.0707564,0.0,0.0,0.0,0.0,0.0,0.0,0.0,0.0,12.419143,0.0,0.0,nan,0.0,0.0,0.09145821,0.002543415,0.0025423758,0.0025416082,0.0,0.0,0.0,0.0,0.0,0.0
21744180000,21744100000,0.10116707,0.10087483,0.21589363,1.0690043,1.0689876,0.0,0.0,0.0,0.0,0.0,0.0,0.0,0.0,12.421578,0.0,0.0,nan,0.0,0.0,0.09145821,0.0025387045,0.0025376487,0.0025368033,0.0,0.0,0.0,0.0,0.0,0.0
21744676000,21744596000,0.10091273,0.10055402,0.2157093,1.0675609,1.0675515,0.0,0.0,0.0,0.0,0.0,0.0,0.0,0.0,12.424221,0.0,0.0,nan,0.0,0.0,0.09145821,0.0025354833,0.0025343571,0.002533538,0.0,0.0,0.0,0.0,0.0,0.0
21745180000,21745100000,0.101717584,0.101225,0.21625996,1.0708655,1.0708581,0.0,0.0,0.0,0.0,0.0,0.0,0.0,0.0,12.424476,0.0,0.0,nan,0.0,0.0,0.09145821,0.0025328065,0.0025316558,0.0025307955,0.0,0.0,0.0,0.0,0.0,0.0
21745676000,21745596000,0.101221256,0.100742586,0.21598843,1.0682518,1.0682412,0.0,0.0,0.0,0.0,0.0,0.0,0.0,0.0,12.421294,0.0,0.0,nan,0.0,0.0,0.09096349,0.0025328065,0.0025316558,0.0025307955,0.0,0.0,0.0,0.0,0.0,0.0
21746180000,21746100000,0.10218401,0.10165101,0.21651345,1.0722867,1.0722507,0.0,0.0,0.0,0.0,0.0,0.0,0.0,0.0,12.426858,0.0,0.0,nan,0.0,0.0,0.09089117,0.0025328065,0.0025316558,0.0025307955,0.0,0.0,0.0,0.0,0.0,0.0
21746676000,21746596000,0.10143728,0.10101748,0.21613094,1.0692229,1.0691879,0.0,0.0,0.0,0.0,0.0,0.0,0.0,0.0,12.423168,0.0,0.0,nan,0.0,0.0,0.090815865,0.0025328065,0.0025316558,0.0025307955,0.0,0.0,0.0,0.0,0.0,0.0
21747180000,21747100000,0.10114122,0.100783765,0.21595035,1.0676805,1.0676422,0.0,0.0,0.0,0.0,0.0,0.0,0.0,0.0,12.423032,0.0,0.0,nan,0.0,0.0,0.090758815,0.0025328065,0.0025316558,0.0025307955,0.0,0.0,0.0,0.0,0.0,0.0
21747676000,21747596000,0.10185094,0.1015312,0.21630237,1.0708885,1.0708185,0.0,0.0,0.0,0.0,0.0,0.0,0.0,0.0,12.423748,0.0,0.0,nan,0.0,0.0,0.09070885,0.0025328065,0.0025316558,0.0025307955,0.0,0.0,0.0,0.0,0.0,0.0
21748180000,21748100000,0.101332456,0.10108414,0.21601705,1.0687754,1.0687138,0.0,0.0,0.0,0.0,0.0,0.0,0.0,0.0,12.424056,0.0,0.0,nan,0.0,0.0,0.090666495,0.0025328065,0.0025316558,0.0025307955,0.0,0.0,0.0,0.0,0.0,0.0
21748676000,21748596000,0.102135,0.101923734,0.21636222,1.0722952,1.0722044,0.0,0.0,0.0,0.0,0.0,0.0,0.0,0.0,12.42476,0.0,0.0,nan,0.0,0.0,0.09062973,0.0025328065,0.0025316558,0.0025307955,0.0,0.0,0.0,0.0,0.0,0.0
21749180000,21749100000,0.10154908,0.10139039,0.21606022,1.0701334,1.0700579,0.0,0.0,0.0,0.0,0.0,0.0,0.0,0.0,12.425315,0.0,0.0,nan,0.0,0.0,0.0905979,0.0025328065,0.0025316558,0.0025307955,0.0,0.0,0.0,0.0,0.0,0.0
21749676000,21749596000,0.1010051,0.100904964,0.21573019,1.06769,1.067627,0.0,0.0,0.0,0.0,0.0,0.0,0.0,0.0,12.42129,0.0,0.0,nan,0.0,0.0,0.09056877,0.0025328065,0.0025316558,0.0025307955,0.0,0.0,0.0,0.0,0.0,0.0
21750180000,21750100000,0.10196695,0.10186841,0.21610898,1.0720103,1.0719297,0.0,0.0,0.0,0.0,0.0,0.0,0.0,0.0,12.427164,0.0,0.0,nan,0.0,0.0,0.09054628,0.0025328065,0.0025316558,0.0025307955,0.0,0.0,0.0,0.0,0.0,0.0
21750676000,21750596000,0.10119097,0.10113706,0.21571282,1.0690334,1.0689722,0.0,0.0,0.0,0.0,0.0,0.0,0.0,0.0,12.421913,0.0,0.0,nan,0.0,0.0,0.090524,0.0025328065,0.0025316558,0.0025307955,0.0,0.0,0.0,0.0,0.0,0.0
21751180000,21751100000,0.1010187,0.10097367,0.21554935,1.0682453,1.0681889,0.0,0.0,0.0,0.0,0.0,0.0,0.0,0.0,12.428854,0.0,0.0,nan,0.0,0.0,0.090506084,0.0025328065,0.0025316558,0.0025307955,0.0,0.0,0.0,0.0,0.0,0.0
21751676000,21751596000,0.101328336,0.10129705,0.21562651,1.0701426,1.0700908,0.0,0.0,0.0,0.0,0.0,0.0,0.0,0.0,12.424287,0.0,0.0,nan,0.0,0.0,0.09048884,0.0025328065,0.0025316558,0.0025307955,0.0,0.0,0.0,0.0,0.0,0.0
21752180000,21752100000,0.10094928,0.10092487,0.21536085,1.0684267,1.0683839,0.0,0.0,0.0,0.0,0.0,0.0,0.0,0.0,12.424711,0.0,0.0,nan,0.0,0.0,0.090473846,0.0025328065,0.0025316558,0.0025307955,0.0,0.0,0.0,0.0,0.0,0.0
21752676000,21752596000,0.1017507,0.10172664,0.21569577,1.0720237,1.0719795,0.0,0.0,0.0,0.0,0.0,0.0,0.0,0.0,12.425998,0.0,0.0,nan,0.0,0.0,0.09046028,0.0025328065,0.0025316558,0.0025307955,0.0,0.0,0.0,0.0,0.0,0.0
21753180000,21753100000,0.10121259,0.10119207,0.21539542,1.0699244,1.069889,0.0,0.0,0.0,0.0,0.0,0.0,0.0,0.0,12.425766,0.0,0.0,nan,0.0,0.0,0.09044793,0.0025328065,0.0025316558,0.0025307955,0.0,0.0,0.0,0.0,0.0,0.0
21753676000,21753596000,0.100856155,0.100837685,0.21514551,1.0682541,1.0682247,0.0,0.0,0.0,0.0,0.0,0.0,0.0,0.0,12.426593,0.0,0.0,nan,0.0,0.0,0.090436555,0.0025328065,0.0025316558,0.0025307955,0.0,0.0,0.0,0.0,0.0,0.0
21754180000,21754100000,0.10141951,0.10140109,0.21531846,1.0711632,1.0711335,0.0,0.0,0.0,0.0,0.0,0.0,0.0,0.0,12.426795,0.0,0.0,nan,0.0,0.0,0.09042609,0.0025328065,0.0025316558,0.0025307955,0.0,0.0,0.0,0.0,0.0,0.0
21754676000,21754596000,0.10081109,0.10079555,0.21497926,1.0684292,1.0684066,0.0,0.0,0.0,0.0,0.0,0.0,0.0,0.0,12.422507,0.0,0.0,nan,0.0,0.0,0.09041642,0.0025328065,0.0025316558,0.0025307955,0.0,0.0,0.0,0.0,0.0,0.0
21755180000,21755100000,0.10067569,0.10066077,0.21483482,1.0677017,1.0676808,0.0,0.0,0.0,0.0,0.0,0.0,0.0,0.0,12.428323,0.0,0.0,nan,0.0,0.0,0.09040757,0.0025328065,0.0025316558,0.0025307955,0.0,0.0,0.0,0.0,0.0,0.0
21755676000,21755596000,0.101091996,0.10107753,0.21496487,1.0699166,1.0698967,0.0,0.0,0.0,0.0,0.0,0.0,0.0,0.0,12.423347,0.0,0.0,nan,0.0,0.0,0.09039923,0.0025328065,0.0025316558,0.0025307955,0.0,0.0,0.0,0.0,0.0,0.0
21756180000,21756100000,0.10074845,0.10073632,0.21474542,1.068246,1.068229,0.0,0.0,0.0,0.0,0.0,0.0,0.0,0.0,12.42404,0.0,0.0,nan,0.0,0.0,0.09039147,0.0025328065,0.0025316558,0.0025307955,0.0,0.0,0.0,0.0,0.0,0.0
21756676000,21756596000,0.10131286,0.10130105,0.21493168,1.0711474,1.0711286,0.0,0.0,0.0,0.0,0.0,0.0,0.0,0.0,12.423307,0.0,0.0,nan,0.0,0.0,0.090384424,0.0025328065,0.0025316558,0.0025307955,0.0,0.0,0.0,0.0,0.0,0.0
21757180000,21757100000,0.100881964,0.10087235,0.2147048,1.0692255,1.0692095,0.0,0.0,0.0,0.0,0.0,0.0,0.0,0.0,12.42406,0.0,0.0,nan,0.0,0.0,0.0903779,0.0025328065,0.0025316558,0.0025307955,0.0,0.0,0.0,0.0,0.0,0.0
21757676000,21757596000,0.10059444,0.100587785,0.21451826,1.0676876,1.0676734,0.0,0.0,0.0,0.0,0.0,0.0,0.0,0.0,12.423997,0.0,0.0,nan,0.0,0.0,0.09037171,0.0025328065,0.0025316558,0.0025307955,0.0,0.0,0.0,0.0,0.0,0.0
21758180000,21758100000,0.10124296,0.10123931,0.2147579,1.0709083,1.0708917,0.0,0.0,0.0,0.0,0.0,0.0,0.0,0.0,12.425221,0.0,0.0,nan,0.0,0.0,0.09036607,0.0025328065,0.0025316558,0.0025307955,0.0,0.0,0.0,0.0,0.0,0.0
21758676000,21758596000,0.100685224,0.10068622,0.21442659,1.0682876,1.0682743,0.0,0.0,0.0,0.0,0.0,0.0,0.0,0.0,12.424144,0.0,0.0,nan,0.0,0.0,0.09036006,0.0025328065,0.0025316558,0.0025307955,0.0,0.0,0.0,0.0,0.0,0.0
21759180000,21759100000,0.101530775,0.10153385,0.21478224,1.0723283,1.0723115,0.0,0.0,0.0,0.0,0.0,0.0,0.0,0.0,12.424978,0.0,0.0,nan,0.0,0.0,0.090355396,0.0025328065,0.0025316558,0.0025307955,0.0,0.0,0.0,0.0,0.0,0.0
21759676000,21759596000,0.100816034,0.100821756,0.21450427,1.0692492,1.0692363,0.0,0.0,0.0,0.0,0.0,0.0,0.0,0.0,12.42099,0.0,0.0,nan,0.0,0.0,0.09035099,0.0025328065,0.0025316558,0.0025307955,0.0,0.0,0.0,0.0,0.0,0.0
21760180000,21760100000,0.100529075,0.100536436,0.21427149,1.0677046,1.0676934,0.0,0.0,0.0,0.0,0.0,0.0,0.0,0.0,12.421566,0.0,0.0,nan,0.0,0.0,0.090346955,0.0025328065,0.0025316558,0.0025307955,0.0,0.0,0.0,0.0,0.0,0.0
21760676000,21760596000,0.1011153,0.101126075,0.21456335,1.0706373,1.0706248,0.0,0.0,0.0,0.0,0.0,0.0,0.0,0.0,12.421028,0.0,0.0,nan,0.0,0.0,0.09034323,0.0025328065,0.0025316558,0.0025307955,0.0,0.0,0.0,0.0,0.0,0.0
21761180000,21761100000,0.10078233,0.100795016,0.21441273,1.0690624,1.0690515,0.0,0.0,0.0,0.0,0.0,0.0,0.0,0.0,12.421916,0.0,0.0,nan,0.0,0.0,0.09033982,0.0025328065,0.0025316558,0.0025307955,0.0,0.0,0.0,0.0,0.0,0.0
21761676000,21761596000,0.101472735,0.10149042,0.21465373,1.0723001,1.072288,0.0,0.0,0.0,0.0,0.0,0.0,0.0,0.0,12.422373,0.0,0.0,nan,0.0,0.0,0.09033659,0.0025328065,0.0025316558,0.0025307955,0.0,0.0,0.0,0.0,0.0,0.0
21762180000,21762100000,0.100959145,0.10097775,0.21444485,1.0701354,1.0701255,0.0,0.0,0.0,0.0,0.0,0.0,0.0,0.0,12.424117,0.0,0.0,nan,0.0,0.0,0.09033354,0.0025328065,0.0025316558,0.0025307955,0.0,0.0,0.0,0.0,0.0,0.0
21762676000,21762596000,0.100493774,0.10051408,0.21416272,1.067684,1.0676763,0.0,0.0,0.0,0.0,0.0,0.0,0.0,0.0,12.423581,0.0,0.0,nan,0.0,0.0,0.09033084,0.0025328065,0.0025316558,0.0025307955,0.0,0.0,0.0,0.0,0.0,0.0
21763180000,21763100000,0.10134674,0.10137235,0.21452488,1.0717154,1.0717064,0.0,0.0,0.0,0.0,0.0,0.0,0.0,0.0,12.424476,0.0,0.0,nan,0.0,0.0,0.090327986,0.0025328065,0.0025316558,0.0025307955,0.0,0.0,0.0,0.0,0.0,0.0
21763676000,21763596000,0.10073681,0.10076353,0.21431541,1.0690185,1.0690119,0.0,0.0,0.0,0.0,0.0,0.0,0.0,0.0,12.420593,0.0,0.0,nan,0.0,0.0,0.090325974,0.0025328065,0.0025316558,0.0025307955,0.0,0.0,0.0,0.0,0.0,0.0
21764180000,21764100000,0.10058808,0.10061534,0.21420251,1.0682279,1.0682219,0.0,0.0,0.0,0.0,0.0,0.0,0.0,0.0,12.426233,0.0,0.0,nan,0.0,0.0,0.090324424,0.0025328065,0.0025316558,0.0025307955,0.0,0.0,0.0,0.0,0.0,0.0
21764676000,21764596000,0.100923955,0.10095629,0.21436355,1.0700965,1.0700917,0.0,0.0,0.0,0.0,0.0,0.0,0.0,0.0,12.420796,0.0,0.0,nan,0.0,0.0,0.09032247,0.0025328065,0.0025316558,0.0025307955,0.0,0.0,0.0,0.0,0.0,0.0
21765180000,21765100000,0.1005838,0.10061656,0.21420658,1.0683814,1.0683776,0.0,0.0,0.0,0.0,0.0,0.0,0.0,0.0,12.4221735,0.0,0.0,nan,0.0,0.0,0.090321064,0.0025328065,0.0025316558,0.0025307955,0.0,0.0,0.0,0.0,0.0,0.0
21765676000,21765596000,0.10136428,0.10140461,0.2144986,1.0719402,1.0719376,0.0,0.0,0.0,0.0,0.0,0.0,0.0,0.0,12.422599,0.0,0.0,nan,0.0,0.0,0.09032,0.0025328065,0.0025316558,0.0025307955,0.0,0.0,0.0,0.0,0.0,0.0
21766172000,21766092000,0.100887254,0.100926295,0.21431059,1.0698737,1.0698718,0.0,0.0,0.0,0.0,0.0,0.0,0.0,0.0,12.422949,0.0,0.0,nan,0.0,0.0,0.09031892,0.0025328065,0.0025316558,0.0025307955,0.0,0.0,0.0,0.0,0.0,0.0
21766676000,21766596000,0.100567296,0.10060599,0.21415861,1.0682256,1.0682243,0.0,0.0,0.0,0.0,0.0,0.0,0.0,0.0,12.423336,0.0,0.0,nan,0.0,0.0,0.09031787,0.0025328065,0.0025316558,0.0025307955,0.0,0.0,0.0,0.0,0.0,0.0
21767180000,21767100000,0.101126686,0.101170644,0.21438172,1.0711056,1.071106,0.0,0.0,0.0,0.0,0.0,0.0,0.0,0.0,12.423195,0.0,0.0,nan,0.0,0.0,0.09031707,0.0025328065,0.0025316558,0.0025307955,0.0,0.0,0.0,0.0,0.0,0.0
21767676000,21767596000,0.10061081,0.100653045,0.21420425,1.068617,1.0686179,0.0,0.0,0.0,0.0,0.0,0.0,0.0,0.0,12.42073,0.0,0.0,nan,0.0,0.0,0.0903161,0.0025328065,0.0025316558,0.0025307955,0.0,0.0,0.0,0.0,0.0,0.0
21768180000,21768100000,0.10143681,0.101485856,0.21456215,1.0726233,1.0726264,0.0,0.0,0.0,0.0,0.0,0.0,0.0,0.0,12.424364,0.0,0.0,nan,0.0,0.0,0.09031548,0.0025328065,0.0025316558,0.0025307955,0.0,0.0,0.0,0.0,0.0,0.0
21768676000,21768596000,0.100723565,0.10076865,0.21424633,1.0694448,1.0694475,0.0,0.0,0.0,0.0,0.0,0.0,0.0,0.0,12.42043,0.0,0.0,nan,0.0,0.0,0.09031498,0.0025328065,0.0025316558,0.0025307955,0.0,0.0,0.0,0.0,0.0,0.0
21769180000,21769100000,0.1004399,0.10048405,0.21410733,1.0678518,1.0678546,0.0,0.0,0.0,0.0,0.0,0.0,0.0,0.0,12.420938,0.0,0.0,nan,0.0,0.0,0.090314575,0.0025328065,0.0025316558,0.0025307955,0.0,0.0,0.0,0.0,0.0,0.0
21769676000,21769596000,0.101021655,0.1010712,0.21434076,1.0707356,1.0707406,0.0,0.0,0.0,0.0,0.0,0.0,0.0,0.0,12.421268,0.0,0.0,nan,0.0,0.0,0.09031441,0.0025328065,0.0025316558,0.0025307955,0.0,0.0,0.0,0.0,0.0,0.0
21770180000,21770100000,0.10069322,0.1007408,0.21421587,1.069132,1.0691367,0.0,0.0,0.0,0.0,0.0,0.0,0.0,0.0,12.421304,0.0,0.0,nan,0.0,0.0,0.09031422,0.0025328065,0.0025316558,0.0025307955,0.0,0.0,0.0,0.0,0.0,0.0
21770676000,21770596000,0.101391725,0.10144569,0.21448119,1.0723544,1.0723621,0.0,0.0,0.0,0.0,0.0,0.0,0.0,0.0,12.421863,0.0,0.0,nan,0.0,0.0,0.0903141,0.0025328065,0.0025316558,0.0025307955,0.0,0.0,0.0,0.0,0.0,0.0
21771180000,21771100000,0.10089194,0.100941926,0.21429867,1.0701725,1.0701791,0.0,0.0,0.0,0.0,0.0,0.0,0.0,0.0,12.422811,0.0,0.0,nan,0.0,0.0,0.09031408,0.0025328065,0.0025316558,0.0025307955,0.0,0.0,0.0,0.0,0.0,0.0
21771676000,21771596000,0.1004345,0.10048187,0.21405308,1.0677018,1.0677077,0.0,0.0,0.0,0.0,0.0,0.0,0.0,0.0,12.422472,0.0,0.0,nan,0.0,0.0,0.09031413,0.0025328065,0.0025316558,0.0025307955,0.0,0.0,0.0,0.0,0.0,0.0
21772180000,21772100000,0.101284415,0.10133928,0.21442626,1.0717139,1.0717229,0.0,0.0,0.0,0.0,0.0,0.0,0.0,0.0,12.422135,0.0,0.0,nan,0.0,0.0,0.090314135,0.0025328065,0.0025316558,0.0025307955,0.0,0.0,0.0,0.0,0.0,0.0
21772676000,21772596000,0.10069043,0.10074039,0.21417975,1.069031,1.0690384,0.0,0.0,0.0,0.0,0.0,0.0,0.0,0.0,12.422779,0.0,0.0,nan,0.0,0.0,0.09031433,0.0025328065,0.0025316558,0.0025307955,0.0,0.0,0.0,0.0,0.0,0.0
21773180000,21773100000,0.10054253,0.10059151,0.21414867,1.068237,1.068244,0.0,0.0,0.0,0.0,0.0,0.0,0.0,0.0,12.423449,0.0,0.0,nan,0.0,0.0,0.09031448,0.0025328065,0.0025316558,0.0025307955,0.0,0.0,0.0,0.0,0.0,0.0
21773676000,21773596000,0.10087501,0.100927226,0.21433711,1.0700902,1.0700989,0.0,0.0,0.0,0.0,0.0,0.0,0.0,0.0,12.420641,0.0,0.0,nan,0.0,0.0,0.0903146,0.0025328065,0.0025316558,0.0025307955,0.0,0.0,0.0,0.0,0.0,0.0
21774180000,21774100000,0.10054484,0.10059449,0.21418661,1.0683725,1.0683802,0.0,0.0,0.0,0.0,0.0,0.0,0.0,0.0,12.421239,0.0,0.0,nan,0.0,0.0,0.090314984,0.0025328065,0.0025316558,0.0025307955,0.0,0.0,0.0,0.0,0.0,0.0
21774676000,21774596000,0.10132704,0.101383895,0.21448511,1.0719198,1.071931,0.0,0.0,0.0,0.0,0.0,0.0,0.0,0.0,12.421738,0.0,0.0,nan,0.0,0.0,0.09031554,0.0025328065,0.0025316558,0.0025307955,0.0,0.0,0.0,0.0,0.0,0.0
21775180000,21775100000,0.10084735,0.100899935,0.21429889,1.0698328,1.0698423,0.0,0.0,0.0,0.0,0.0,0.0,0.0,0.0,12.423505,0.0,0.0,nan,0.0,0.0,0.09031589,0.0025328065,0.0025316558,0.0025307955,0.0,0.0,0.0,0.0,0.0,0.0
21775676000,21775596000,0.10053442,0.10058507,0.21414828,1.0681899,1.0681983,0.0,0.0,0.0,0.0,0.0,0.0,0.0,0.0,12.423951,0.0,0.0,nan,0.0,0.0,0.09031627,0.0025328065,0.0025316558,0.0025307955,0.0,0.0,0.0,0.0,0.0,0.0
21776180000,21776100000,0.10109469,0.10115031,0.21436916,1.071066,1.0710771,0.0,0.0,0.0,0.0,0.0,0.0,0.0,0.0,12.423307,0.0,0.0,nan,0.0,0.0,0.09031683,0.0025328065,0.0025316558,0.0025307955,0.0,0.0,0.0,0.0,0.0,0.0
21776676000,21776596000,0.10054157,0.100593,0.21416698,1.0683453,1.0683542,0.0,0.0,0.0,0.0,0.0,0.0,0.0,0.0,12.419546,0.0,0.0,nan,0.0,0.0,0.09031755,0.0025328065,0.0025316558,0.0025307955,0.0,0.0,0.0,0.0,0.0,0.0
21777180000,21777100000,0.10042015,0.100470774,0.21406807,1.06762,1.0676287,0.0,0.0,0.0,0.0,0.0,0.0,0.0,0.0,12.425187,0.0,0.0,nan,0.0,0.0,0.0903183,0.0025328065,0.0025316558,0.0025307955,0.0,0.0,0.0,0.0,0.0,0.0
21777676000,21777596000,0.100840986,0.10089576,0.21428448,1.0698152,1.0698259,0.0,0.0,0.0,0.0,0.0,0.0,0.0,0.0,12.421218,0.0,0.0,nan,0.0,0.0,0.09031894,0.0025328065,0.0025316558,0.0025307955,0.0,0.0,0.0,0.0,0.0,0.0
21778180000,21778100000,0.10051883,0.10057123,0.21413364,1.0681552,1.0681647,0.0,0.0,0.0,0.0,0.0,0.0,0.0,0.0,12.421624,0.0,0.0,nan,0.0,0.0,0.0903196,0.0025328065,0.0025316558,0.0025307955,0.0,0.0,0.0,0.0,0.0,0.0
21778676000,21778596000,0.10107839,0.10113584,0.2144311,1.0710342,1.0710464,0.0,0.0,0.0,0.0,0.0,0.0,0.0,0.0,12.422291,0.0,0.0,nan,0.0,0.0,0.090320274,0.0025328065,0.0025316558,0.0025307955,0.0,0.0,0.0,0.0,0.0,0.0
21779180000,21779100000,0.10067455,0.10072829,0.21419004,1.0691277,1.0691382,0.0,0.0,0.0,0.0,0.0,0.0,0.0,0.0,12.421309,0.0,0.0,nan,0.0,0.0,0.090320975,0.0025328065,0.0025316558,0.0025307955,0.0,0.0,0.0,0.0,0.0,0.0
21779676000,21779596000,0.100405164,0.10045734,0.21406233,1.0675994,1.067609,0.0,0.0,0.0,0.0,0.0,0.0,0.0,0.0,12.421893,0.0,0.0,nan,0.0,0.0,0.090321556,0.0025328065,0.0025316558,0.0025307955,0.0,0.0,0.0,0.0,0.0,0.0
21780180000,21780100000,0.100992985,0.1010508,0.21430875,1.0705228,1.0705352,0.0,0.0,0.0,0.0,0.0,0.0,0.0,0.0,12.423275,0.0,0.0,nan,0.0,0.0,0.090322286,0.0025328065,0.0025316558,0.0025307955,0.0,0.0,0.0,0.0,0.0,0.0
21780676000,21780596000,0.100521766,0.10057558,0.21415156,1.0681784,1.0681889,0.0,0.0,0.0,0.0,0.0,0.0,0.0,0.0,12.419615,0.0,0.0,nan,0.0,0.0,0.09032315,0.0025328065,0.0025316558,0.0025307955,0.0,0.0,0.0,0.0,0.0,0.0
21781180000,21781100000,0.101351105,0.10141283,0.214515,1.0721922,1.072207,0.0,0.0,0.0,0.0,0.0,0.0,0.0,0.0,12.424201,0.0,0.0,nan,0.0,0.0,0.09032402,0.0025328065,0.0025316558,0.0025307955,0.0,0.0,0.0,0.0,0.0,0.0
21781676000,21781596000,0.10066933,0.10072491,0.2142074,1.0691456,1.069157,0.0,0.0,0.0,0.0,0.0,0.0,0.0,0.0,12.420724,0.0,0.0,nan,0.0,0.0,0.0903249,0.0025328065,0.0025316558,0.0025307955,0.0,0.0,0.0,0.0,0.0,0.0
21782180000,21782100000,0.10039697,0.10045064,0.21407081,1.0676136,1.0676239,0.0,0.0,0.0,0.0,0.0,0.0,0.0,0.0,12.421197,0.0,0.0,nan,0.0,0.0,0.09032579,0.0025328065,0.0025316558,0.0025307955,0.0,0.0,0.0,0.0,0.0,0.0
21782676000,21782596000,0.10102806,0.10108776,0.21441044,1.0707868,1.0708004,0.0,0.0,0.0,0.0,0.0,0.0,0.0,0.0,12.421945,0.0,0.0,nan,0.0,0.0,0.09032665,0.0025328065,0.0025316558,0.0025307955,0.0,0.0,0.0,0.0,0.0,0.0
21783180000,21783100000,0.1006337,0.100690015,0.21424444,1.0689323,1.0689441,0.0,0.0,0.0,0.0,0.0,0.0,0.0,0.0,12.422344,0.0,0.0,nan,0.0,0.0,0.09032752,0.0025328065,0.0025316558,0.0025307955,0.0,0.0,0.0,0.0,0.0,0.0
21783676000,21783596000,0.10132739,0.10139076,0.21449901,1.0721798,1.0721955,0.0,0.0,0.0,0.0,0.0,0.0,0.0,0.0,12.422686,0.0,0.0,nan,0.0,0.0,0.09032824,0.0025328065,0.0025316558,0.0025307955,0.0,0.0,0.0,0.0,0.0,0.0
21784180000,21784100000,0.10083055,0.100889035,0.21430808,1.0700365,1.0700498,0.0,0.0,0.0,0.0,0.0,0.0,0.0,0.0,12.42431,0.0,0.0,nan,0.0,0.0,0.090328954,0.0025328065,0.0025316558,0.0025307955,0.0,0.0,0.0,0.0,0.0,0.0
21784676000,21784596000,0.10037424,0.10042903,0.21411823,1.0676048,1.067616,0.0,0.0,0.0,0.0,0.0,0.0,0.0,0.0,12.4204645,0.0,0.0,nan,0.0,0.0,0.09032979,0.0025328065,0.0025316558,0.0025307955,0.0,0.0,0.0,0.0,0.0,0.0
21785180000,21785100000,0.10126777,0.10133137,0.21451452,1.0718747,1.0718908,0.0,0.0,0.0,0.0,0.0,0.0,0.0,0.0,12.424903,0.0,0.0,nan,0.0,0.0,0.09033064,0.0025328065,0.0025316558,0.0025307955,0.0,0.0,0.0,0.0,0.0,0.0
21785676000,21785596000,0.10062403,0.100681454,0.21420929,1.0689421,1.0689548,0.0,0.0,0.0,0.0,0.0,0.0,0.0,0.0,12.4217205,0.0,0.0,nan,0.0,0.0,0.0903316,0.0025328065,0.0025316558,0.0025307955,0.0,0.0,0.0,0.0,0.0,0.0
21786180000,21786100000,0.10048056,0.10053681,0.21417364,1.0681564,1.0681684,0.0,0.0,0.0,0.0,0.0,0.0,0.0,0.0,12.425875,0.0,0.0,nan,0.0,0.0,0.090332404,0.0025328065,0.0025316558,0.0025307955,0.0,0.0,0.0,0.0,0.0,0.0
21786676000,21786596000,0.100819424,0.100879,0.21427196,1.0700221,1.0700362,0.0,0.0,0.0,0.0,0.0,0.0,0.0,0.0,12.422156,0.0,0.0,nan,0.0,0.0,0.09033303,0.0025328065,0.0025316558,0.0025307955,0.0,0.0,0.0,0.0,0.0,0.0
21787180000,21787100000,0.10049463,0.100551166,0.21419218,1.0683168,1.0683293,0.0,0.0,0.0,0.0,0.0,0.0,0.0,0.0,12.4225,0.0,0.0,nan,0.0,0.0,0.090333804,0.0025328065,0.0025316558,0.0025307955,0.0,0.0,0.0,0.0,0.0,0.0
21787676000,21787596000,0.10127124,0.10133581,0.2144888,1.071863,1.07188,0.0,0.0,0.0,0.0,0.0,0.0,0.0,0.0,12.422788,0.0,0.0,nan,0.0,0.0,0.09033456,0.0025328065,0.0025316558,0.0025307955,0.0,0.0,0.0,0.0,0.0,0.0
21788180000,21788100000,0.10074964,0.10080879,0.21427087,1.0695404,1.0695544,0.0,0.0,0.0,0.0,0.0,0.0,0.0,0.0,12.423888,0.0,0.0,nan,0.0,0.0,0.09033514,0.0025328065,0.0025316558,0.0025307955,0.0,0.0,0.0,0.0,0.0,0.0
21788676000,21788596000,0.10049135,0.10054818,0.21415274,1.06815,1.0681629,0.0,0.0,0.0,0.0,0.0,0.0,0.0,0.0,12.424184,0.0,0.0,nan,0.0,0.0,0.09033586,0.0025328065,0.0025316558,0.0025307955,0.0,0.0,0.0,0.0,0.0,0.0
21789180000,21789100000,0.10105386,0.101115905,0.21444787,1.0710262,1.0710422,0.0,0.0,0.0,0.0,0.0,0.0,0.0,0.0,12.424322,0.0,0.0,nan,0.0,0.0,0.09033626,0.0025328065,0.0025316558,0.0025307955,0.0,0.0,0.0,0.0,0.0,0.0
21789676000,21789596000,0.10050595,0.10056266,0.21416073,1.0683153,1.0683283,0.0,0.0,0.0,0.0,0.0,0.0,0.0,0.0,12.421639,0.0,0.0,nan,0.0,0.0,0.09033665,0.0025328065,0.0025316558,0.0025307955,0.0,0.0,0.0,0.0,0.0,0.0
21790180000,21790100000,0.100386955,0.100442596,0.21412909,1.0675924,1.0676048,0.0,0.0,0.0,0.0,0.0,0.0,0.0,0.0,12.425695,0.0,0.0,nan,0.0,0.0,0.09033731,0.0025328065,0.0025316558,0.0025307955,0.0,0.0,0.0,0.0,0.0,0.0
21790676000,21790596000,0.10075517,0.10081419,0.21423833,1.0695422,1.0695566,0.0,0.0,0.0,0.0,0.0,0.0,0.0,0.0,12.421556,0.0,0.0,nan,0.0,0.0,0.09033751,0.0025328065,0.0025316558,0.0025307955,0.0,0.0,0.0,0.0,0.0,0.0
21791180000,21791100000,0.100497834,0.10055437,0.21412584,1.0681521,1.0681652,0.0,0.0,0.0,0.0,0.0,0.0,0.0,0.0,12.4219055,0.0,0.0,nan,0.0,0.0,0.09033799,0.0025328065,0.0025316558,0.0025307955,0.0,0.0,0.0,0.0,0.0,0.0
21791676000,21791596000,0.10105854,0.10112025,0.21435663,1.0710297,1.0710459,0.0,0.0,0.0,0.0,0.0,0.0,0.0,0.0,12.422124,0.0,0.0,nan,0.0,0.0,0.09033845,0.0025328065,0.0025316558,0.0025307955,0.0,0.0,0.0,0.0,0.0,0.0
21792180000,21792100000,0.100655995,0.100713745,0.21419667,1.0691235,1.0691376,0.0,0.0,0.0,0.0,0.0,0.0,0.0,0.0,12.421641,0.0,0.0,nan,0.0,0.0,0.09033884,0.0025328065,0.0025316558,0.0025307955,0.0,0.0,0.0,0.0,0.0,0.0
21792676000,21792596000,0.1003872,0.1004427,0.2140645,1.0675952,1.0676079,0.0,0.0,0.0,0.0,0.0,0.0,0.0,0.0,12.423494,0.0,0.0,nan,0.0,0.0,0.09033934,0.0025328065,0.0025316558,0.0025307955,0.0,0.0,0.0,0.0,0.0,0.0
21793180000,21793100000,0.101031296,0.101093225,0.21440926,1.0707929,1.070809,0.0,0.0,0.0,0.0,0.0,0.0,0.0,0.0,12.423814,0.0,0.0,nan,0.0,0.0,0.09033989,0.0025328065,0.0025316558,0.0025307955,0.0,0.0,0.0,0.0,0.0,0.0
21793676000,21793596000,0.10044332,0.100499764,0.21410482,1.0679142,1.0679271,0.0,0.0,0.0,0.0,0.0,0.0,0.0,0.0,12.423257,0.0,0.0,nan,0.0,0.0,0.09034043,0.0025328065,0.0025316558,0.0025307955,0.0,0.0,0.0,0.0,0.0,0.0
21794180000,21794100000,0.101331875,0.10139723,0.21450076,1.0721855,1.0722034,0.0,0.0,0.0,0.0,0.0,0.0,0.0,0.0,12.424058,0.0,0.0,nan,0.0,0.0,0.090340786,0.0025328065,0.0025316558,0.0025307955,0.0,0.0,0.0,0.0,0.0,0.0
21794676000,21794596000,0.10065613,0.10071462,0.2142014,1.0691397,1.0691537,0.0,0.0,0.0,0.0,0.0,0.0,0.0,0.0,12.420672,0.0,0.0,nan,0.0,0.0,0.09034105,0.0025328065,0.0025316558,0.0025307955,0.0,0.0,0.0,0.0,0.0,0.0
21795180000,21795100000,0.100388385,0.100444585,0.21406738,1.0676082,1.0676208,0.0,0.0,0.0,0.0,0.0,0.0,0.0,0.0,12.421169,0.0,0.0,nan,0.0,0.0,0.09034136,0.0025328065,0.0025316558,0.0025307955,0.0,0.0,0.0,0.0,0.0,0.0
21795676000,21795596000,0.10102804,0.10109037,0.21440816,1.0707806,1.0707966,0.0,0.0,0.0,0.0,0.0,0.0,0.0,0.0,12.42106,0.0,0.0,nan,0.0,0.0,0.09034181,0.0025328065,0.0025316558,0.0025307955,0.0,0.0,0.0,0.0,0.0,0.0
21796180000,21796100000,0.100643314,0.10070167,0.2142432,1.0689268,1.0689406,0.0,0.0,0.0,0.0,0.0,0.0,0.0,0.0,12.42235,0.0,0.0,nan,0.0,0.0,0.09034222,0.0025328065,0.0025316558,0.0025307955,0.0,0.0,0.0,0.0,0.0,0.0
21796676000,21796596000,0.101335004,0.10140045,0.21450652,1.0721531,1.0721709,0.0,0.0,0.0,0.0,0.0,0.0,0.0,0.0,12.42186,0.0,0.0,nan,0.0,0.0,0.09034233,0.0025328065,0.0025316558,0.0025307955,0.0,0.0,0.0,0.0,0.0,0.0
21797180000,21797100000,0.10084231,0.10090285,0.21432647,1.0700152,1.0700301,0.0,0.0,0.0,0.0,0.0,0.0,0.0,0.0,12.422351,0.0,0.0,nan,0.0,0.0,0.09034255,0.0025328065,0.0025316558,0.0025307955,0.0,0.0,0.0,0.0,0.0,0.0
21797676000,21797596000,0.10039402,0.10045087,0.21407789,1.0675901,1.0676025,0.0,0.0,0.0,0.0,0.0,0.0,0.0,0.0,12.42287,0.0,0.0,nan,0.0,0.0,0.09034292,0.0025328065,0.0025316558,0.0025307955,0.0,0.0,0.0,0.0,0.0,0.0
21798180000,21798100000,0.1012905,0.10135643,0.21447629,1.0718635,1.071881,0.0,0.0,0.0,0.0,0.0,0.0,0.0,0.0,12.424208,0.0,0.0,nan,0.0,0.0,0.090343095,0.0025328065,0.0025316558,0.0025307955,0.0,0.0,0.0,0.0,0.0,0.0
21798676000,21798596000,0.10064509,0.10070459,0.21418414,1.0689356,1.0689495,0.0,0.0,0.0,0.0,0.0,0.0,0.0,0.0,12.419917,0.0,0.0,nan,0.0,0.0,0.090343274,0.0025328065,0.0025316558,0.0025307955,0.0,0.0,0.0,0.0,0.0,0.0
21799180000,21799100000,0.10050213,0.100560196,0.21415266,1.0681511,1.0681642,0.0,0.0,0.0,0.0,0.0,0.0,0.0,0.0,12.424757,0.0,0.0,nan,0.0,0.0,0.090343416,0.0025328065,0.0025316558,0.0025307955,0.0,0.0,0.0,0.0,0.0,0.0
21799676000,21799596000,0.10084265,0.100903675,0.21433416,1.0700219,1.0700369,0.0,0.0,0.0,0.0,0.0,0.0,0.0,0.0,12.419964,0.0,0.0,nan,0.0,0.0,0.0903437,0.0025328065,0.0025316558,0.0025307955,0.0,0.0,0.0,0.0,0.0,0.0
21800180000,21800100000,0.10051547,0.100573644,0.2141843,1.068318,1.0683311,0.0,0.0,0.0,0.0,0.0,0.0,0.0,0.0,12.421816,0.0,0.0,nan,0.0,0.0,0.09034396,0.0025328065,0.0025316558,0.0025307955,0.0,0.0,0.0,0.0,0.0,0.0
21800676000,21800596000,0.10128786,0.10135405,0.21448223,1.0718682,1.071886,0.0,0.0,0.0,0.0,0.0,0.0,0.0,0.0,12.42226,0.0,0.0,nan,0.0,0.0,0.0903442,0.0025328065,0.0025316558,0.0025307955,0.0,0.0,0.0,0.0,0.0,0.0
21801180000,21801100000,0.10081185,0.100872956,0.21429835,1.069792,1.0698069,0.0,0.0,0.0,0.0,0.0,0.0,0.0,0.0,12.4230795,0.0,0.0,nan,0.0,0.0,0.09034427,0.0025328065,0.0025316558,0.0025307955,0.0,0.0,0.0,0.0,0.0,0.0
21801676000,21801596000,0.10050455,0.10056228,0.21415132,1.0681562,1.0681695,0.0,0.0,0.0,0.0,0.0,0.0,0.0,0.0,12.422196,0.0,0.0,nan,0.0,0.0,0.090344325,0.0025328065,0.0025316558,0.0025307955,0.0,0.0,0.0,0.0,0.0,0.0
21802180000,21802100000,0.101067595,0.101130985,0.2143846,1.0710336,1.07105,0.0,0.0,0.0,0.0,0.0,0.0,0.0,0.0,12.42352,0.0,0.0,nan,0.0,0.0,0.09034421,0.0025328065,0.0025316558,0.0025307955,0.0,0.0,0.0,0.0,0.0,0.0
21802676000,21802596000,0.10051748,0.10057523,0.21418126,1.0683213,1.0683347,0.0,0.0,0.0,0.0,0.0,0.0,0.0,0.0,12.419367,0.0,0.0,nan,0.0,0.0,0.09034424,0.0025328065,0.0025316558,0.0025307955,0.0,0.0,0.0,0.0,0.0,0.0
21803180000,21803100000,0.10039897,0.10045553,0.21408172,1.0675981,1.0676107,0.0,0.0,0.0,0.0,0.0,0.0,0.0,0.0,12.424549,0.0,0.0,nan,0.0,0.0,0.0903444,0.0025328065,0.0025316558,0.0025307955,0.0,0.0,0.0,0.0,0.0,0.0
21803676000,21803596000,0.10081805,0.10087858,0.2143035,1.0697953,1.0698102,0.0,0.0,0.0,0.0,0.0,0.0,0.0,0.0,12.42069,0.0,0.0,nan,0.0,0.0,0.09034439,0.0025328065,0.0025316558,0.0025307955,0.0,0.0,0.0,0.0,0.0,0.0
21804180000,21804100000,0.10049976,0.10055656,0.2141564,1.0681384,1.0681515,0.0,0.0,0.0,0.0,0.0,0.0,0.0,0.0,12.421606,0.0,0.0,nan,0.0,0.0,0.090344355,0.0025328065,0.0025316558,0.0025307955,0.0,0.0,0.0,0.0,0.0,0.0
21804676000,21804596000,0.1010615,0.10112382,0.21438737,1.0710173,1.0710335,0.0,0.0,0.0,0.0,0.0,0.0,0.0,0.0,12.421084,0.0,0.0,nan,0.0,0.0,0.09034433,0.0025328065,0.0025316558,0.0025307955,0.0,0.0,0.0,0.0,0.0,0.0
21805180000,21805100000,0.1006601,0.10071807,0.21422039,1.0691136,1.0691276,0.0,0.0,0.0,0.0,0.0,0.0,0.0,0.0,12.422889,0.0,0.0,nan,0.0,0.0,0.09034399,0.0025328065,0.0025316558,0.0025307955,0.0,0.0,0.0,0.0,0.0,0.0
21805676000,21805596000,0.100394696,0.100450665,0.21408382,1.067587,1.0675994,0.0,0.0,0.0,0.0,0.0,0.0,0.0,0.0,12.423383,0.0,0.0,nan,0.0,0.0,0.09034409,0.0025328065,0.0025316558,0.0025307955,0.0,0.0,0.0,0.0,0.0,0.0
21806180000,21806100000,0.101032265,0.10109443,0.21442056,1.070763,1.0707788,0.0,0.0,0.0,0.0,0.0,0.0,0.0,0.0,12.423209,0.0,0.0,nan,0.0,0.0,0.09034389,0.0025328065,0.0025316558,0.0025307955,0.0,0.0,0.0,0.0,0.0,0.0
21806676000,21806596000,0.099863045,0.099908784,0.21412683,1.0682037,1.0682167,0.0,0.0,0.0,0.0,0.0,0.0,0.0,0.0,12.419424,0.0,0.0,nan,0.0,0.0,0.09034437,0.0025328065,0.0025316558,0.0025307955,0.0,0.0,0.0,0.0,0.0,0.0
21807180000,21807100000,0.1006071,0.10026277,0.2133475,1.0720793,1.0720959,0.0,0.0,0.0,0.0,0.0,0.0,0.0,0.0,12.42347,0.0,0.0,nan,0.0,0.0,0.090346456,0.0028614206,0.0030345866,0.0030821874,0.0,0.0,0.0,0.0,0.0,0.0
21807676000,21807596000,0.10377935,0.100489765,0.21198863,1.0689423,1.0689495,0.0,0.0,0.0,0.0,0.0,0.0,0.0,0.0,12.4195795,0.0,0.0,nan,0.0,0.0,0.090346456,0.0026781638,0.0027001468,0.0027111515,0.0,0.0,0.0,0.0,0.0,0.0
21808180000,21808100000,0.10334733,0.101142555,0.2115801,1.0673916,1.0673654,0.0,0.0,0.0,0.0,0.0,0.0,0.0,0.0,12.418673,0.0,0.0,nan,0.0,0.0,0.090346456,0.002639129,0.0026279378,0.0026414257,0.0,0.0,0.0,0.0,0.0,0.0
21808676000,21808596000,0.10392629,0.10261379,0.21171916,1.0705916,1.0704334,0.0,0.0,0.0,0.0,0.0,0.0,0.0,0.0,12.4184885,0.0,0.0,nan,0.0,0.0,0.090346456,0.00259708,0.0025951816,0.0026007218,0.0,0.0,0.0,0.0,0.0,0.0
21809180000,21809100000,0.10365312,0.10267818,0.21185672,1.0685362,1.0683753,0.0,0.0,0.0,0.0,0.0,0.0,0.0,0.0,12.417455,0.0,0.0,nan,0.0,0.0,0.090346456,0.0025908363,0.002575295,0.0025787924,0.0,0.0,0.0,0.0,0.0,0.0
21809676000,21809596000,0.104819655,0.1040959,0.21262263,1.0722318,1.071953,0.0,0.0,0.0,0.0,0.0,0.0,0.0,0.0,12.416111,0.0,0.0,nan,0.0,0.0,0.090346456,0.0025696545,0.0025624481,0.0025671115,0.0,0.0,0.0,0.0,0.0,0.0
21810180000,21810100000,0.103780076,0.103424154,0.21296877,1.0701256,1.069869,0.0,0.0,0.0,0.0,0.0,0.0,0.0,0.0,12.4159,0.0,0.0,nan,0.0,0.0,0.090346456,0.0025536127,0.0025532874,0.002553684,0.0,0.0,0.0,0.0,0.0,0.0
21810676000,21810596000,0.10312712,0.10279762,0.2136084,1.0677664,1.0675426,0.0,0.0,0.0,0.0,0.0,0.0,0.0,0.0,12.412948,0.0,0.0,nan,0.0,0.0,0.090346456,0.0025469104,0.0025476818,0.0025475228,0.0,0.0,0.0,0.0,0.0,0.0
21811180000,21811100000,0.10482582,0.10407978,0.21447198,1.0722141,1.0720252,0.0,0.0,0.0,0.0,0.0,0.0,0.0,0.0,12.416181,0.0,0.0,nan,0.0,0.0,0.090346456,0.0025441733,0.00254162,0.0025425665,0.0,0.0,0.0,0.0,0.0,0.0
21811676000,21811596000,0.1041424,0.103104934,0.21495551,1.0692476,1.0691187,0.0,0.0,0.0,0.0,0.0,0.0,0.0,0.0,12.414056,0.0,0.0,nan,0.0,0.0,0.090346456,0.0025419535,0.0025376966,0.0025387986,0.0,0.0,0.0,0.0,0.0,0.0
21812180000,21812100000,0.103959374,0.10284041,0.21513663,1.0684572,1.0683477,0.0,0.0,0.0,0.0,0.0,0.0,0.0,0.0,12.417084,0.0,0.0,nan,0.0,0.0,0.090346456,0.0025444084,0.0025339595,0.002537142,0.0,0.0,0.0,0.0,0.0,0.0
21812676000,21812596000,0.104422435,0.103037424,0.2160145,1.070447,1.0703946,0.0,0.0,0.0,0.0,0.0,0.0,0.0,0.0,12.414412,0.0,0.0,nan,0.0,0.0,0.09026251,0.0025441153,0.0025320237,0.0025358351,0.0,0.0,0.0,0.0,0.0,0.0
21813180000,21813100000,0.10358695,0.10235379,0.21611305,1.0687135,1.068674,0.0,0.0,0.0,0.0,0.0,0.0,0.0,0.0,12.415288,0.0,0.0,nan,0.0,0.0,0.09025075,0.0025441153,0.0025320237,0.0025358351,0.0,0.0,0.0,0.0,0.0,0.0
21813676000,21813596000,0.10414821,0.10297044,0.21679981,1.0724816,1.0724218,0.0,0.0,0.0,0.0,0.0,0.0,0.0,0.0,12.415963,0.0,0.0,nan,0.0,0.0,0.09024047,0.0025441153,0.0025320237,0.0025358351,0.0,0.0,0.0,0.0,0.0,0.0
21814180000,21814100000,0.102987364,0.10208095,0.21672468,1.0703211,1.0702678,0.0,0.0,0.0,0.0,0.0,0.0,0.0,0.0,12.417809,0.0,0.0,nan,0.0,0.0,0.09023223,0.0025441153,0.0025320237,0.0025358351,0.0,0.0,0.0,0.0,0.0,0.0
21814676000,21814596000,0.10210849,0.10139317,0.21659854,1.0683672,1.0683167,0.0,0.0,0.0,0.0,0.0,0.0,0.0,0.0,12.419601,0.0,0.0,nan,0.0,0.0,0.09022648,0.0025441153,0.0025320237,0.0025358351,0.0,0.0,0.0,0.0,0.0,0.0
21815180000,21815100000,0.10244433,0.101814464,0.21719323,1.0716302,1.0715406,0.0,0.0,0.0,0.0,0.0,0.0,0.0,0.0,12.421102,0.0,0.0,nan,0.0,0.0,0.09022208,0.0025441153,0.0025320237,0.0025358351,0.0,0.0,0.0,0.0,0.0,0.0
21815676000,21815596000,0.101417206,0.10096896,0.21684366,1.0688002,1.0687217,0.0,0.0,0.0,0.0,0.0,0.0,0.0,0.0,12.418496,0.0,0.0,nan,0.0,0.0,0.09021732,0.0025441153,0.0025320237,0.0025358351,0.0,0.0,0.0,0.0,0.0,0.0
21816180000,21816100000,0.10118943,0.100780696,0.21679674,1.0680482,1.0679713,0.0,0.0,0.0,0.0,0.0,0.0,0.0,0.0,12.424771,0.0,0.0,nan,0.0,0.0,0.09021774,0.0025441153,0.0025320237,0.0025358351,0.0,0.0,0.0,0.0,0.0,0.0
21816676000,21816596000,0.10141738,0.1010909,0.21712095,1.0702695,1.0701661,0.0,0.0,0.0,0.0,0.0,0.0,0.0,0.0,12.4209385,0.0,0.0,nan,0.0,0.0,0.09021576,0.0025441153,0.0025320237,0.0025358351,0.0,0.0,0.0,0.0,0.0,0.0
21817180000,21817100000,0.10098161,0.10071659,0.21687607,1.0685369,1.0684447,0.0,0.0,0.0,0.0,0.0,0.0,0.0,0.0,12.422645,0.0,0.0,nan,0.0,0.0,0.090215765,0.0025441153,0.0025320237,0.0025358351,0.0,0.0,0.0,0.0,0.0,0.0
21817676000,21817596000,0.10150229,0.10126434,0.21720117,1.071412,1.0712991,0.0,0.0,0.0,0.0,0.0,0.0,0.0,0.0,12.423519,0.0,0.0,nan,0.0,0.0,0.09021617,0.0025441153,0.0025320237,0.0025358351,0.0,0.0,0.0,0.0,0.0,0.0
21818180000,21818100000,0.10104398,0.10084879,0.21691976,1.0694346,1.0693387,0.0,0.0,0.0,0.0,0.0,0.0,0.0,0.0,12.424,0.0,0.0,nan,0.0,0.0,0.09021706,0.0025441153,0.0025320237,0.0025358351,0.0,0.0,0.0,0.0,0.0,0.0
21818676000,21818596000,0.10074147,0.100576684,0.21669884,1.0678532,1.0677688,0.0,0.0,0.0,0.0,0.0,0.0,0.0,0.0,12.424997,0.0,0.0,nan,0.0,0.0,0.09021811,0.0025441153,0.0025320237,0.0025358351,0.0,0.0,0.0,0.0,0.0,0.0
21819180000,21819100000,0.101377934,0.10122621,0.21707949,1.0710196,1.0709211,0.0,0.0,0.0,0.0,0.0,0.0,0.0,0.0,12.42732,0.0,0.0,nan,0.0,0.0,0.09021949,0.0025441153,0.0025320237,0.0025358351,0.0,0.0,0.0,0.0,0.0,0.0
21819676000,21819596000,0.10074363,0.10063248,0.2166215,1.0680802,1.0680041,0.0,0.0,0.0,0.0,0.0,0.0,0.0,0.0,12.426528,0.0,0.0,nan,0.0,0.0,0.090220995,0.0025441153,0.0025320237,0.0025358351,0.0,0.0,0.0,0.0,0.0,0.0
21820180000,21820100000,0.101662055,0.10154882,0.2172023,1.0723666,1.0722735,0.0,0.0,0.0,0.0,0.0,0.0,0.0,0.0,12.427907,0.0,0.0,nan,0.0,0.0,0.09022261,0.0025441153,0.0025320237,0.0025358351,0.0,0.0,0.0,0.0,0.0,0.0
21820676000,21820596000,0.1009364,0.10085571,0.21683466,1.0692717,1.0692025,0.0,0.0,0.0,0.0,0.0,0.0,0.0,0.0,12.423464,0.0,0.0,nan,0.0,0.0,0.090224296,0.0025441153,0.0025320237,0.0025358351,0.0,0.0,0.0,0.0,0.0,0.0
21821180000,21821100000,0.1006526,0.100586936,0.21662617,1.0677189,1.0676597,0.0,0.0,0.0,0.0,0.0,0.0,0.0,0.0,12.425189,0.0,0.0,nan,0.0,0.0,0.09022617,0.0025441153,0.0025320237,0.0025358351,0.0,0.0,0.0,0.0,0.0,0.0
21821676000,21821596000,0.1012675,0.10120672,0.21697815,1.0706649,1.0706036,0.0,0.0,0.0,0.0,0.0,0.0,0.0,0.0,12.42514,0.0,0.0,nan,0.0,0.0,0.090228066,0.0025441153,0.0025320237,0.0025358351,0.0,0.0,0.0,0.0,0.0,0.0
21822180000,21822100000,0.10090604,0.10085537,0.21677665,1.0690631,1.0690119,0.0,0.0,0.0,0.0,0.0,0.0,0.0,0.0,12.426732,0.0,0.0,nan,0.0,0.0,0.09023024,0.0025441153,0.0025320237,0.0025358351,0.0,0.0,0.0,0.0,0.0,0.0
21822676000,21822596000,0.10161399,0.10156682,0.2171669,1.0723238,1.0722704,0.0,0.0,0.0,0.0,0.0,0.0,0.0,0.0,12.425702,0.0,0.0,nan,0.0,0.0,0.09023222,0.0025441153,0.0025320237,0.0025358351,0.0,0.0,0.0,0.0,0.0,0.0
21823172000,21823092000,0.10109262,0.10105487,0.21688965,1.0701542,1.0701112,0.0,0.0,0.0,0.0,0.0,0.0,0.0,0.0,12.426794,0.0,0.0,nan,0.0,0.0,0.09023423,0.0025441153,0.0025320237,0.0025358351,0.0,0.0,0.0,0.0,0.0,0.0
21823676000,21823596000,0.100604594,0.10057629,0.21661982,1.0677,1.0676671,0.0,0.0,0.0,0.0,0.0,0.0,0.0,0.0,12.42252,0.0,0.0,nan,0.0,0.0,0.09023622,0.0025441153,0.0025320237,0.0025358351,0.0,0.0,0.0,0.0,0.0,0.0
21824180000,21824100000,0.1015257,0.10149637,0.21712099,1.0719992,1.071961,0.0,0.0,0.0,0.0,0.0,0.0,0.0,0.0,12.4279,0.0,0.0,nan,0.0,0.0,0.09023833,0.0025441153,0.0025320237,0.0025358351,0.0,0.0,0.0,0.0,0.0,0.0
21824676000,21824596000,0.1008398,0.10081926,0.21677324,1.0690185,1.0689903,0.0,0.0,0.0,0.0,0.0,0.0,0.0,0.0,12.4248295,0.0,0.0,nan,0.0,0.0,0.090240315,0.0025441153,0.0025320237,0.0025358351,0.0,0.0,0.0,0.0,0.0,0.0
21825180000,21825100000,0.10068887,0.10067042,0.2166265,1.068229,1.0682033,0.0,0.0,0.0,0.0,0.0,0.0,0.0,0.0,12.429401,0.0,0.0,nan,0.0,0.0,0.090242416,0.0025441153,0.0025320237,0.0025358351,0.0,0.0,0.0,0.0,0.0,0.0
21825676000,21825596000,0.10101067,0.100996815,0.21687752,1.0701082,1.0700845,0.0,0.0,0.0,0.0,0.0,0.0,0.0,0.0,12.426118,0.0,0.0,nan,0.0,0.0,0.09024448,0.0025441153,0.0025320237,0.0025358351,0.0,0.0,0.0,0.0,0.0,0.0
21826180000,21826100000,0.100662366,0.10065171,0.2166507,1.0683931,1.0683734,0.0,0.0,0.0,0.0,0.0,0.0,0.0,0.0,12.425534,0.0,0.0,nan,0.0,0.0,0.090246335,0.0025441153,0.0025320237,0.0025358351,0.0,0.0,0.0,0.0,0.0,0.0
21826676000,21826596000,0.10144609,0.10143668,0.21719109,1.0719626,1.0719417,0.0,0.0,0.0,0.0,0.0,0.0,0.0,0.0,12.425941,0.0,0.0,nan,0.0,0.0,0.09024828,0.0025441153,0.0025320237,0.0025358351,0.0,0.0,0.0,0.0,0.0,0.0
21827180000,21827100000,0.10094884,0.10094185,0.21691665,1.0698714,1.0698547,0.0,0.0,0.0,0.0,0.0,0.0,0.0,0.0,12.426867,0.0,0.0,nan,0.0,0.0,0.090250306,0.0025441153,0.0025320237,0.0025358351,0.0,0.0,0.0,0.0,0.0,0.0
21827676000,21827596000,0.10062836,0.10062275,0.2166179,1.068226,1.068212,0.0,0.0,0.0,0.0,0.0,0.0,0.0,0.0,12.427973,0.0,0.0,nan,0.0,0.0,0.0902521,0.0025441153,0.0025320237,0.0025358351,0.0,0.0,0.0,0.0,0.0,0.0
21828172000,21828092000,0.10118343,0.101177774,0.21705155,1.0711162,1.0711024,0.0,0.0,0.0,0.0,0.0,0.0,0.0,0.0,12.428289,0.0,0.0,nan,0.0,0.0,0.09025409,0.0025441153,0.0025320237,0.0025358351,0.0,0.0,0.0,0.0,0.0,0.0
21828676000,21828596000,0.10060101,0.1005966,0.21664783,1.0683879,1.0683775,0.0,0.0,0.0,0.0,0.0,0.0,0.0,0.0,12.428172,0.0,0.0,nan,0.0,0.0,0.090256035,0.0025441153,0.0025320237,0.0025358351,0.0,0.0,0.0,0.0,0.0,0.0
21829180000,21829100000,0.1004761,0.10047195,0.21659972,1.0676607,1.0676512,0.0,0.0,0.0,0.0,0.0,0.0,0.0,0.0,12.429387,0.0,0.0,nan,0.0,0.0,0.090257876,0.0025441153,0.0025320237,0.0025358351,0.0,0.0,0.0,0.0,0.0,0.0
21829676000,21829596000,0.10083706,0.10083349,0.21688138,1.0696121,1.0696036,0.0,0.0,0.0,0.0,0.0,0.0,0.0,0.0,12.423718,0.0,0.0,nan,0.0,0.0,0.090259776,0.0025441153,0.0025320237,0.0025358351,0.0,0.0,0.0,0.0,0.0,0.0
21830180000,21830100000,0.10056568,0.100562446,0.21671252,1.0682137,1.0682064,0.0,0.0,0.0,0.0,0.0,0.0,0.0,0.0,12.425787,0.0,0.0,nan,0.0,0.0,0.09026167,0.0025441153,0.0025320237,0.0025358351,0.0,0.0,0.0,0.0,0.0,0.0
21830676000,21830596000,0.10112336,0.1011201,0.21706046,1.071096,1.0710888,0.0,0.0,0.0,0.0,0.0,0.0,0.0,0.0,12.425694,0.0,0.0,nan,0.0,0.0,0.09026331,0.0025441153,0.0025320237,0.0025358351,0.0,0.0,0.0,0.0,0.0,0.0
21831180000,21831100000,0.10071621,0.100713745,0.21681255,1.0691787,1.0691729,0.0,0.0,0.0,0.0,0.0,0.0,0.0,0.0,12.426219,0.0,0.0,nan,0.0,0.0,0.09026513,0.0025441153,0.0025320237,0.0025358351,0.0,0.0,0.0,0.0,0.0,0.0
21831676000,21831596000,0.10043572,0.10043355,0.21661536,1.0676435,1.0676386,0.0,0.0,0.0,0.0,0.0,0.0,0.0,0.0,12.426948,0.0,0.0,nan,0.0,0.0,0.09026671,0.0025441153,0.0025320237,0.0025358351,0.0,0.0,0.0,0.0,0.0,0.0
21832180000,21832100000,0.10105884,0.101056926,0.21703029,1.0708216,1.0708168,0.0,0.0,0.0,0.0,0.0,0.0,0.0,0.0,12.426434,0.0,0.0,nan,0.0,0.0,0.09026828,0.0025441153,0.0025320237,0.0025358351,0.0,0.0,0.0,0.0,0.0,0.0
21832676000,21832596000,0.10046733,0.10046601,0.21660906,1.0679367,1.067933,0.0,0.0,0.0,0.0,0.0,0.0,0.0,0.0,12.422758,0.0,0.0,nan,0.0,0.0,0.090269804,0.0025441153,0.0025320237,0.0025358351,0.0,0.0,0.0,0.0,0.0,0.0
21833180000,21833100000,0.10134901,0.101347506,0.21719787,1.0722136,1.0722096,0.0,0.0,0.0,0.0,0.0,0.0,0.0,0.0,12.428274,0.0,0.0,nan,0.0,0.0,0.09027142,0.0025441153,0.0025320237,0.0025358351,0.0,0.0,0.0,0.0,0.0,0.0
21833676000,21833596000,0.10067965,0.1006786,0.21675695,1.0691605,1.0691575,0.0,0.0,0.0,0.0,0.0,0.0,0.0,0.0,12.424309,0.0,0.0,nan,0.0,0.0,0.090273134,0.0025441153,0.0025320237,0.0025358351,0.0,0.0,0.0,0.0,0.0,0.0
21834180000,21834100000,0.10040206,0.10040139,0.21655843,1.0676267,1.0676242,0.0,0.0,0.0,0.0,0.0,0.0,0.0,0.0,12.424919,0.0,0.0,nan,0.0,0.0,0.0902748,0.0025441153,0.0025320237,0.0025358351,0.0,0.0,0.0,0.0,0.0,0.0
21834676000,21834596000,0.101034075,0.101033695,0.21704717,1.0708017,1.0707994,0.0,0.0,0.0,0.0,0.0,0.0,0.0,0.0,12.424839,0.0,0.0,nan,0.0,0.0,0.09027633,0.0025441153,0.0025320237,0.0025358351,0.0,0.0,0.0,0.0,0.0,0.0
21835180000,21835100000,0.10064046,0.10064012,0.21679978,1.0689448,1.0689429,0.0,0.0,0.0,0.0,0.0,0.0,0.0,0.0,12.426384,0.0,0.0,nan,0.0,0.0,0.09027782,0.0025441153,0.0025320237,0.0025358351,0.0,0.0,0.0,0.0,0.0,0.0
21835676000,21835596000,0.10132541,0.10132481,0.21718757,1.0721699,1.072168,0.0,0.0,0.0,0.0,0.0,0.0,0.0,0.0,12.426313,0.0,0.0,nan,0.0,0.0,0.09027928,0.0025441153,0.0025320237,0.0025358351,0.0,0.0,0.0,0.0,0.0,0.0
21836180000,21836100000,0.10083606,0.100835204,0.21691014,1.0700285,1.0700271,0.0,0.0,0.0,0.0,0.0,0.0,0.0,0.0,12.42584,0.0,0.0,nan,0.0,0.0,0.09028047,0.0025441153,0.0025320237,0.0025358351,0.0,0.0,0.0,0.0,0.0,0.0
21836676000,21836596000,0.100383535,0.10038273,0.2165633,1.0676001,1.0675989,0.0,0.0,0.0,0.0,0.0,0.0,0.0,0.0,12.422718,0.0,0.0,nan,0.0,0.0,0.090282,0.0025441153,0.0025320237,0.0025358351,0.0,0.0,0.0,0.0,0.0,0.0
21837180000,21837100000,0.10128248,0.10128146,0.21715842,1.0718743,1.0718728,0.0,0.0,0.0,0.0,0.0,0.0,0.0,0.0,12.42773,0.0,0.0,nan,0.0,0.0,0.090283126,0.0025441153,0.0025320237,0.0025358351,0.0,0.0,0.0,0.0,0.0,0.0
21837676000,21837596000,0.10063417,0.100633405,0.21673223,1.0689228,1.0689218,0.0,0.0,0.0,0.0,0.0,0.0,0.0,0.0,12.428267,0.0,0.0,nan,0.0,0.0,0.0902846,0.0025441153,0.0025320237,0.0025358351,0.0,0.0,0.0,0.0,0.0,0.0
21838180000,21838100000,0.10049241,0.10049158,0.2166737,1.0681396,1.0681386,0.0,0.0,0.0,0.0,0.0,0.0,0.0,0.0,12.429989,0.0,0.0,nan,0.0,0.0,0.09028603,0.0025441153,0.0025320237,0.0025358351,0.0,0.0,0.0,0.0,0.0,0.0
21838676000,21838596000,0.10084491,0.100843884,0.2169237,1.0700129,1.0700121,0.0,0.0,0.0,0.0,0.0,0.0,0.0,0.0,12.425138,0.0,0.0,nan,0.0,0.0,0.09028744,0.0025441153,0.0025320237,0.0025358351,0.0,0.0,0.0,0.0,0.0,0.0
21839180000,21839100000,0.10052096,0.10051989,0.2166932,1.0683113,1.0683106,0.0,0.0,0.0,0.0,0.0,0.0,0.0,0.0,12.4255705,0.0,0.0,nan,0.0,0.0,0.09028881,0.0025441153,0.0025320237,0.0025358351,0.0,0.0,0.0,0.0,0.0,0.0
21839676000,21839596000,0.10128906,0.101287864,0.21713983,1.071866,1.0718651,0.0,0.0,0.0,0.0,0.0,0.0,0.0,0.0,12.42652,0.0,0.0,nan,0.0,0.0,0.09029014,0.0025441153,0.0025320237,0.0025358351,0.0,0.0,0.0,0.0,0.0,0.0
21840180000,21840100000,0.10082008,0.10081895,0.21686873,1.0698131,1.0698123,0.0,0.0,0.0,0.0,0.0,0.0,0.0,0.0,12.427468,0.0,0.0,nan,0.0,0.0,0.09029143,0.0025441153,0.0025320237,0.0025358351,0.0,0.0,0.0,0.0,0.0,0.0
21840676000,21840596000,0.10044967,0.100448504,0.21660718,1.0679152,1.0679145,0.0,0.0,0.0,0.0,0.0,0.0,0.0,0.0,12.427976,0.0,0.0,nan,0.0,0.0,0.09029259,0.0025441153,0.0025320237,0.0025358351,0.0,0.0,0.0,0.0,0.0,0.0
21841180000,21841100000,0.101071104,0.10106983,0.21708646,1.0710541,1.0710533,0.0,0.0,0.0,0.0,0.0,0.0,0.0,0.0,12.428357,0.0,0.0,nan,0.0,0.0,0.09029382,0.0025441153,0.0025320237,0.0025358351,0.0,0.0,0.0,0.0,0.0,0.0
21841676000,21841596000,0.10052071,0.10051956,0.21669161,1.0683373,1.0683366,0.0,0.0,0.0,0.0,0.0,0.0,0.0,0.0,12.422431,0.0,0.0,nan,0.0,0.0,0.09029489,0.0025441153,0.0025320237,0.0025358351,0.0,0.0,0.0,0.0,0.0,0.0
21842180000,21842100000,0.100399844,0.10039881,0.21656148,1.0676131,1.0676124,0.0,0.0,0.0,0.0,0.0,0.0,0.0,0.0,12.429181,0.0,0.0,nan,0.0,0.0,0.09029595,0.0025441153,0.0025320237,0.0025358351,0.0,0.0,0.0,0.0,0.0,0.0
21842676000,21842596000,0.10075156,0.10075085,0.21684091,1.0695633,1.0695626,0.0,0.0,0.0,0.0,0.0,0.0,0.0,0.0,12.424502,0.0,0.0,nan,0.0,0.0,0.090297095,0.0025441153,0.0025320237,0.0025358351,0.0,0.0,0.0,0.0,0.0,0.0
21843180000,21843100000,0.100486666,0.100486286,0.2166703,1.0681703,1.0681697,0.0,0.0,0.0,0.0,0.0,0.0,0.0,0.0,12.425024,0.0,0.0,nan,0.0,0.0,0.09029808,0.0025441153,0.0025320237,0.0025358351,0.0,0.0,0.0,0.0,0.0,0.0
21843676000,21843596000,0.101040624,0.10104081,0.21701343,1.071045,1.0710443,0.0,0.0,0.0,0.0,0.0,0.0,0.0,0.0,12.425423,0.0,0.0,nan,0.0,0.0,0.090299174,0.0025441153,0.0025320237,0.0025358351,0.0,0.0,0.0,0.0,0.0,0.0
21844180000,21844100000,0.10063998,0.10064048,0.21676898,1.0691354,1.069135,0.0,0.0,0.0,0.0,0.0,0.0,0.0,0.0,12.426553,0.0,0.0,nan,0.0,0.0,0.09029998,0.0025441153,0.0025320237,0.0025358351,0.0,0.0,0.0,0.0,0.0,0.0
21844676000,21844596000,0.10037844,0.10037932,0.21657462,1.0676045,1.0676042,0.0,0.0,0.0,0.0,0.0,0.0,0.0,0.0,12.426184,0.0,0.0,nan,0.0,0.0,0.09030101,0.0025441153,0.0025320237,0.0025358351,0.0,0.0,0.0,0.0,0.0,0.0
21845180000,21845100000,0.10101131,0.101012364,0.21698128,1.0707774,1.070777,0.0,0.0,0.0,0.0,0.0,0.0,0.0,0.0,12.427239,0.0,0.0,nan,0.0,0.0,0.090302005,0.0025441153,0.0025320237,0.0025358351,0.0,0.0,0.0,0.0,0.0,0.0
21845676000,21845596000,0.100470774,0.100471154,0.2166899,1.0681413,1.0681411,0.0,0.0,0.0,0.0,0.0,0.0,0.0,0.0,12.422463,0.0,0.0,nan,0.0,0.0,0.09030297,0.0025441153,0.0025320237,0.0025358351,0.0,0.0,0.0,0.0,0.0,0.0
21846180000,21846100000,0.10129907,0.101299345,0.21714634,1.0721489,1.0721488,0.0,0.0,0.0,0.0,0.0,0.0,0.0,0.0,12.4286,0.0,0.0,nan,0.0,0.0,0.09030391,0.0025441153,0.0025320237,0.0025358351,0.0,0.0,0.0,0.0,0.0,0.0
21846676000,21846596000,0.10063146,0.10063159,0.21680209,1.0691129,1.0691128,0.0,0.0,0.0,0.0,0.0,0.0,0.0,0.0,12.423129,0.0,0.0,nan,0.0,0.0,0.090304695,0.0025441153,0.0025320237,0.0025358351,0.0,0.0,0.0,0.0,0.0,0.0
21847180000,21847100000,0.1003669,0.10036693,0.216606,1.0675858,1.0675857,0.0,0.0,0.0,0.0,0.0,0.0,0.0,0.0,12.425337,0.0,0.0,nan,0.0,0.0,0.0903057,0.0025441153,0.0025320237,0.0025358351,0.0,0.0,0.0,0.0,0.0,0.0
21847676000,21847596000,0.10100818,0.10100817,0.21700639,1.0707588,1.0707588,0.0,0.0,0.0,0.0,0.0,0.0,0.0,0.0,12.425749,0.0,0.0,nan,0.0,0.0,0.09030656,0.0025441153,0.0025320237,0.0025358351,0.0,0.0,0.0,0.0,0.0,0.0
21848180000,21848100000,0.10062212,0.10062212,0.21676111,1.0689313,1.0689313,0.0,0.0,0.0,0.0,0.0,0.0,0.0,0.0,12.426217,0.0,0.0,nan,0.0,0.0,0.090307385,0.0025441153,0.0025320237,0.0025358351,0.0,0.0,0.0,0.0,0.0,0.0
21848676000,21848596000,0.10131666,0.101316646,0.21723706,1.0721793,1.0721792,0.0,0.0,0.0,0.0,0.0,0.0,0.0,0.0,12.427667,0.0,0.0,nan,0.0,0.0,0.09030793,0.0025441153,0.0025320237,0.0025358351,0.0,0.0,0.0,0.0,0.0,0.0
21849180000,21849100000,0.10082202,0.10082198,0.21694644,1.0700364,1.0700363,0.0,0.0,0.0,0.0,0.0,0.0,0.0,0.0,12.427485,0.0,0.0,nan,0.0,0.0,0.090308584,0.0025441153,0.0025320237,0.0025358351,0.0,0.0,0.0,0.0,0.0,0.0
21849676000,21849596000,0.100366406,0.10036624,0.21657787,1.0676054,1.0676054,0.0,0.0,0.0,0.0,0.0,0.0,0.0,0.0,12.427937,0.0,0.0,nan,0.0,0.0,0.09030934,0.0025441153,0.0025320237,0.0025358351,0.0,0.0,0.0,0.0,0.0,0.0
21850180000,21850100000,0.10125556,0.10125533,0.21716249,1.0718765,1.0718763,0.0,0.0,0.0,0.0,0.0,0.0,0.0,0.0,12.429391,0.0,0.0,nan,0.0,0.0,0.09031007,0.0025441153,0.0025320237,0.0025358351,0.0,0.0,0.0,0.0,0.0,0.0
21850676000,21850596000,0.1006095,0.100609146,0.21672562,1.0689236,1.0689235,0.0,0.0,0.0,0.0,0.0,0.0,0.0,0.0,12.428164,0.0,0.0,nan,0.0,0.0,0.09031077,0.0025441153,0.0025320237,0.0025358351,0.0,0.0,0.0,0.0,0.0,0.0
21851180000,21851100000,0.10046792,0.10046743,0.21666907,1.0681397,1.0681396,0.0,0.0,0.0,0.0,0.0,0.0,0.0,0.0,12.428327,0.0,0.0,nan,0.0,0.0,0.090311185,0.0025441153,0.0025320237,0.0025358351,0.0,0.0,0.0,0.0,0.0,0.0
