timestamp,timestamp_sample,states[0],states[1],states[2],states[3],states[4],states[5],states[6],states[7],states[8],states[9],states[10],states[11],states[12],states[13],states[14],states[15],states[16],states[17],states[18],states[19],states[20],states[21],states[22],states[23],covariances[0],covariances[1],covariances[2],covariances[3],covariances[4],covariances[5],covariances[6],covariances[7],covariances[8],covariances[9],covariances[10],covariances[11],covariances[12],covariances[13],covariances[14],covariances[15],covariances[16],covariances[17],covariances[18],covariances[19],covariances[20],covariances[21],covariances[22],covariances[23],n_states
21727140000,21727060000,0.8609396,0.0007886459,-0.0028635222,-0.50869846,-0.00014625394,-6.9045e-05,0.00038278053,-0.6663391,-1.1538539,0.13144144,7.812515e-06,6.686553e-07,-1.793907e-06,-0.00014661995,-3.8405884e-05,-0.000258149,0.19231065,-0.01676833,0.49050993,0.012257942,-0.005905553,-0.0017324948,0.0,0.0,2.1749878e-05,4.7852927e-06,4.82022e-06,5.985334e-05,3.2876e-05,3.287599e-05,3.3203858e-05,0.0012035456,0.0012035178,0.0030631702,8.837861e-12,8.838051e-12,2.2994684e-11,8.722707e-08,8.766526e-08,5.000015e-08,0.0,0.0,0.0,0.0,0.0,0.0,0.0,0.0,24
21728140000,21728060000,0.86088586,0.0008151932,-0.0030525557,-0.50878847,-0.00016612135,0.00044164874,0.0017369087,-0.66611546,-1.1538618,0.1319861,7.5969715e-06,7.374584e-07,-1.7969102e-06,-0.00014665564,-3.8392292e-05,-0.0002737224,0.19231065,-0.01676833,0.49050993,0.012257942,-0.005905553,-0.0017324948,0.0,0.0,2.1689773e-05,4.885963e-06,4.920773e-06,5.964386e-05,0.00021669439,0.00021669427,0.00022848713,0.0012035078,0.00120348,0.0030561094,8.923725e-12,8.923989e-12,2.2962366e-11,8.723149e-08,8.766973e-08,5.000059e-08,0.0,0.0,0.0,0.0,0.0,0.0,0.0,0.0,24
21729140000,21729060000,0.86099786,0.00095515983,-0.0032000255,-0.5085976,-0.0010344557,-0.00060628215,0.0007796506,-0.6662511,-1.1539501,0.13209075,7.304096e-06,7.458595e-07,-1.8176348e-06,-0.00014668604,-3.841776e-05,-0.00027272874,0.19231065,-0.01676833,0.49050993,0.012257942,-0.005905553,-0.0017324948,0.0,0.0,2.1684915e-05,4.8628804e-06,4.897725e-06,5.966615e-05,0.00017040267,0.0001704022,0.0001780171,0.0012003082,0.0012002802,0.0030449193,8.90345e-12,8.903852e-12,2.2966325e-11,8.723597e-08,8.767416e-08,5.000074e-08,0.0,0.0,0.0,0.0,0.0,0.0,0.0,0.0,24
21730140000,21730060000,0.8609079,0.0014042475,-0.003073536,-0.5087497,0.00012035882,-0.0025059115,-0.0005022516,-0.6658031,-1.1540859,0.13143873,7.070553e-06,6.3063464e-07,-1.842084e-06,-0.00014666354,-3.840306e-05,-0.00028676033,0.19231065,-0.01676833,0.49050993,0.012257942,-0.005905553,-0.0017324948,0.0,0.0,2.170857e-05,4.8375755e-06,4.8727106e-06,5.9661725e-05,0.00012567187,0.00012567043,0.00013000987,0.0011962386,0.0011962111,0.0030359044,8.8825535e-12,8.883077e-12,2.2970532e-11,8.724015e-08,8.767835e-08,5.0000445e-08,0.0,0.0,0.0,0.0,0.0,0.0,0.0,0.0,24
21731140000,21731060000,0.8609177,0.0015919989,-0.0029650202,-0.5087331,0.00045228883,-0.000884164,-0.002048791,-0.66573507,-1.1542068,0.13084175,7.1252925e-06,6.1214604e-07,-1.8401136e-06,-0.00014666741,-3.840969e-05,-0.00027804347,0.19231065,-0.01676833,0.49050993,0.012257942,-0.005905553,-0.0017324948,0.0,0.0,2.17131e-05,4.8150814e-06,4.850369e-06,5.967612e-05,8.2563674e-05,8.2563565e-05,8.45093e-05,0.0011940185,0.0011939916,0.00302588,8.862451e-12,8.862785e-12,2.2974801e-11,8.72445e-08,8.768274e-08,5.000037e-08,0.0,0.0,0.0,0.0,0.0,0.0,0.0,0.0,24
21732140000,21732060000,0.86082065,0.0015546407,-0.00294282,-0.5088975,0.000739219,0.00034718614,0.002126574,-0.66581327,-1.1538428,0.1308482,7.1454747e-06,5.7902025e-07,-1.7926392e-06,-0.00014668025,-3.8414168e-05,-0.00026987802,0.19231065,-0.01676833,0.49050993,0.012257942,-0.005905553,-0.0017324948,0.0,0.0,2.1723867e-05,4.792189e-06,4.8274687e-06,5.9686176e-05,4.0991792e-05,4.0991923e-05,4.1504813e-05,0.0011920716,0.0011920456,0.0030169485,8.842119e-12,8.84236e-12,2.2979217e-11,8.724878e-08,8.768713e-08,5.0000185e-08,0.0,0.0,0.0,0.0,0.0,0.0,0.0,0.0,24
21733140000,21733060000,0.86097395,0.0014859422,-0.003065734,-0.50863767,-0.00014384641,0.003671532,0.0019975374,-0.66586787,-1.1535821,0.13082327,7.153748e-06,8.235682e-07,-1.8168652e-06,-0.00014672481,-3.846097e-05,-0.00016813094,0.19231065,-0.01676833,0.49050993,0.012257942,-0.005905553,-0.0017324948,0.0,0.0,2.1641586e-05,4.9006767e-06,4.935801e-06,5.95084e-05,0.0002262028,0.00022619813,0.00023888728,0.0011924786,0.001192453,0.003010632,8.92951e-12,8.929563e-12,2.2947966e-11,8.725281e-08,8.769119e-08,5.0000626e-08,0.0,0.0,0.0,0.0,0.0,0.0,0.0,0.0,24
21734140000,21734060000,0.8608613,0.0016824469,0.0026012645,-0.50883025,-0.018947968,0.013402653,-0.02435337,-0.6682875,-1.1460459,0.13927646,7.1577188e-06,8.2865887e-07,-1.8464667e-06,-0.00014672687,-3.8458962e-05,-0.00016632465,0.19231065,-0.01676833,0.49050993,0.012257942,-0.005905553,-0.0017324948,0.0,0.0,2.1746006e-05,5.5148025e-06,5.550512e-06,5.972102e-05,0.0019533723,0.0019533797,0.0022757256,0.0019913912,0.0019913444,0.003950715,9.418296e-12,9.41833e-12,2.2989775e-11,8.725736e-08,8.769573e-08,5.0000075e-08,0.0,0.0,0.0,0.0,0.0,0.0,0.0,0.0,24
21735140000,21735060000,0.8611639,0.0018461718,-0.00425192,-0.50830626,-0.0076828883,-0.0063767754,-1.4543804,-0.6911715,-1.1377027,-0.7953765,7.142816e-06,8.6085464e-07,-1.8530136e-06,-0.00014611002,-3.8098282e-05,-0.00017553999,0.19231065,-0.01676833,0.49050993,0.012257942,-0.005905553,-0.0017324948,0.0,0.0,2.1713453e-05,5.975977e-06,6.0097645e-06,5.9780356e-05,0.0049718195,0.00497141,0.005452311,0.007116202,0.007116155,0.010272833,9.777177e-12,9.7772e-12,2.2994443e-11,8.719487e-08,8.763261e-08,5.0000075e-08,0.0,0.0,0.0,0.0,0.0,0.0,0.0,0.0,24
21736140000,21736060000,0.8713424,0.004002964,-0.0015453696,-0.4906567,0.003976806,-0.009596805,-0.5356979,-0.68107545,-1.1562681,-1.7344371,7.1065656e-06,9.506418e-07,-1.85641e-06,-0.00014734286,-3.8822913e-05,-0.00015159594,0.1926743,-0.016606266,0.4892856,0.012257942,-0.005905553,-0.0017324948,0.0,0.0,0.00030600026,6.437131e-06,6.491146e-06,0.0010412907,0.0064282306,0.0064193388,0.008920827,0.01857531,0.018575123,0.02711784,1.0015286e-11,1.0015327e-11,2.3288725e-11,8.6983604e-08,8.7419316e-08,5.0000075e-08,0.0,0.0,0.0,0.0,0.0,0.0,0.0,0.0,24
21737140000,21737060000,0.86688894,0.004207692,0.0003072607,-0.49848342,-0.00821244,-0.00018618611,-0.19395645,-0.6711168,-1.1598231,-2.0868354,7.0601523e-06,9.691212e-07,-1.8478039e-06,-0.00014752337,-4.3247583e-05,-0.00013674214,0.1926743,-0.016606266,0.4892856,0.012257942,-0.005905553,-0.0017324948,0.0,0.0,0.00016664158,6.4601545e-06,6.503058e-06,0.0005677694,0.010451394,0.01040255,0.011745825,0.032774374,0.03276608,0.055007815,1.0323488e-11,1.0323454e-11,2.3800002e-11,8.363706e-08,8.404057e-08,5.0000075e-08,0.0,0.0,0.0,0.0,0.0,0.0,0.0,0.0,24
21738140000,21738060000,0.8650947,0.011658556,0.004814318,-0.50145006,-0.0075853965,0.024671469,-0.0076420535,-0.6676779,-1.1544925,-2.1173892,7.026455e-06,9.778373e-07,-1.837109e-06,-0.00014552924,-5.1041123e-05,-0.00013055874,0.1926743,-0.016606266,0.4892856,0.012257942,-0.005905553,-0.0017324948,0.0,0.0,0.00011480392,5.9739327e-06,6.0510088e-06,0.00039056165,0.0141692,0.014105505,0.01339263,0.047690906,0.04766472,0.0881774,1.0706951e-11,1.07066925e-11,2.4309823e-11,7.6623664e-08,7.6967225e-08,5.000007e-08,0.0,0.0,0.0,0.0,0.0,0.0,0.0,0.0,24
21739140000,21739060000,0.8535219,0.114614256,0.0672944,-0.5038209,-0.0031817968,0.95410067,-0.5627088,-0.65698045,-0.797454,-2.4418,7.0006267e-06,9.911998e-07,-1.8229222e-06,-0.00014683498,-5.7509063e-05,-0.00012336433,0.1926743,-0.016606266,0.4892856,0.012257942,-0.005905553,-0.0017324948,0.0,0.0,8.591352e-05,6.8123154e-06,9.51816e-06,0.0002838912,0.013672001,0.01287761,0.013065395,0.053132046,0.053113572,0.11292335,1.11238215e-11,1.11230365e-11,2.4816949e-11,6.893206e-08,6.9241196e-08,5.0000036e-08,0.0,0.0,0.0,0.0,0.0,0.0,0.0,0.0,24
21740140000,21740060000,0.84818983,0.09628279,0.16471282,-0.49413913,-1.3196098,2.6603527,-2.0433207,-1.1989433,1.1017598,-3.6738508,6.902814e-06,1.0257231e-06,-1.8056418e-06,-0.00015442041,-8.42232e-05,-0.00013458889,0.19225699,-0.01657384,0.4918913,0.011416796,-0.006650755,0.0013943523,0.0,0.0,7.0359914e-05,1.2041083e-05,6.6549924e-06,0.0002418924,0.015357808,0.014363299,0.013055421,0.061144188,0.06109153,0.13649695,1.15812525e-11,1.15748956e-11,2.5327058e-11,6.588292e-08,6.652987e-08,5e-08,0.0012872217,2.4017296e-05,0.0012965045,0.0006949589,0.0009567264,0.0011907226,0.0,0.0,24
21741140000,21741060000,0.84763306,0.100889795,0.1659023,-0.49377713,-1.8381175,3.428098,-3.3305528,-2.7849393,4.24084,-6.388492,6.8255663e-06,9.560478e-07,-1.8007531e-06,-0.00014263575,-9.4921525e-05,-0.00014224247,0.1918896,-0.016549999,0.49191037,0.0122700315,-0.0076886774,0.0017692563,0.0,0.0,6.171412e-05,9.905219e-06,6.271333e-06,0.00021539851,0.013340719,0.013245303,0.013022278,0.06687469,0.0667898,0.15341227,1.2034217e-11,1.20091255e-11,2.5835075e-11,6.4527555e-08,6.568395e-08,5.0000025e-08,0.0012562535,2.3458984e-05,0.0012652855,0.0006115456,0.0009018329,0.0011528572,0.0,0.0,24
21742140000,21742060000,0.84728587,0.10436221,0.17197233,-0.49156958,-2.1465733,3.9257455,-4.1586404,-4.782801,7.9766264,-10.163756,6.78215e-06,8.7983915e-07,-1.8073697e-06,-0.00013430021,-9.789809e-05,-0.00014765402,0.19185102,-0.016549485,0.49208966,0.012444103,-0.007963577,0.0019841862,0.0,0.0,5.855071e-05,9.541874e-06,6.344365e-06,0.00020746086,0.01225066,0.01233528,0.013197246,0.07150248,0.0714399,0.16483107,1.24619716e-11,1.2411786e-11,2.6329057e-11,6.3741616e-08,6.532104e-08,5.000004e-08,0.0012480646,2.3107381e-05,0.0012564377,0.0005922052,0.00088608125,0.001139459,0.0,0.0,24
21743140000,21743060000,0.8464216,0.10641243,0.17778973,-0.49054828,-2.3757408,4.284111,-4.693749,-7.05294,12.144788,-14.621894,6.7259493e-06,7.606049e-07,-1.8344701e-06,-0.00012823442,-9.997955e-05,-0.00014644659,0.19186908,-0.016554663,0.4922745,0.012549117,-0.008291644,0.0022648682,0.0,0.0,5.8002446e-05,9.645208e-06,6.4864284e-06,0.00020659683,0.010246988,0.010187154,0.012658315,0.066191256,0.06616079,0.16620411,1.2766031e-11,1.26862305e-11,2.6758675e-11,6.27943e-08,6.506345e-08,5.0000075e-08,0.0012433961,2.2792663e-05,0.0012499501,0.0005843848,0.00087752694,0.0011293285,0.0,0.0,24
21744140000,21744060000,0.8455321,0.10887373,0.18137452,-0.49023002,-2.521853,4.5304737,-5.032348,-9.514652,16.598867,-19.516048,6.6869675e-06,6.2740617e-07,-1.8602701e-06,-0.00012551657,-0.00010088131,-0.00014176888,0.19200301,-0.01656886,0.49228507,0.012631362,-0.008456875,0.0025174033,0.0,0.0,5.780301e-05,1.0186509e-05,6.9325456e-06,0.00020549483,0.010393063,0.010108087,0.012972935,0.06804809,0.068040326,0.17104802,1.2985537e-11,1.28895835e-11,2.7114139e-11,6.190568e-08,6.4914445e-08,5.000019e-08,0.0012396909,2.2495055e-05,0.0012434277,0.00058018934,0.0008719298,0.0011200041,0.0,0.0,24
21745140000,21745060000,0.8447775,0.1101932,0.18508078,-0.48985043,-2.627738,4.7247458,-5.248305,-12.107551,21.272358,-24.684977,6.6737193e-06,4.622339e-07,-1.8645139e-06,-0.00012334212,-0.00010116937,-0.00013791212,0.19231799,-0.016600301,0.49246186,0.012484031,-0.008644983,0.002751759,0.0,0.0,5.6862234e-05,1.0943525e-05,7.389472e-06,0.00020141067,0.010906392,0.010457202,0.013255687,0.07002656,0.070006624,0.17202523,1.31106515e-11,1.2990415e-11,2.7383814e-11,6.0950164e-08,6.480168e-08,5e-08,0.0012363245,2.2210088e-05,0.0012364591,0.0005771449,0.00086771324,0.0011108227,0.0,0.0,24
21746140000,21746060000,0.8443944,0.11113716,0.18760495,-0.4893374,-2.7107062,4.855967,-5.3884788,-14.807278,26.101934,-30.013472,6.706265e-06,2.7832633e-07,-1.8439868e-06,-0.00011913162,-0.000101177604,-0.00014061522,0.19232495,-0.016601147,0.49243188,0.01251799,-0.008665477,0.0027867933,0.0,0.0,4.832541e-05,1.1002646e-05,7.5690004e-06,0.00016996,0.011374966,0.010913989,0.013559675,0.07192691,0.07185784,0.17434122,1.3183362e-11,1.3000245e-11,2.7540194e-11,5.997785e-08,6.456366e-08,5e-08,0.0,0.0,0.0,0.0,0.0,0.0,0.0,0.0,24
21747140000,21747060000,0.8439953,0.112798594,0.18945955,-0.488931,-2.776552,4.9663906,-5.497504,-17.596518,31.066832,-35.476303,6.742669e-06,1.8381323e-08,-1.8287735e-06,-0.000119068194,-0.00010164983,-0.000134006,0.19232495,-0.016601147,0.49243188,0.01251799,-0.008665477,0.0027867933,0.0,0.0,4.125268e-05,1.1055273e-05,7.643867e-06,0.00014367193,0.010295207,0.009995342,0.012932915,0.06621863,0.066163756,0.17111321,1.309849e-11,1.27758845e-11,2.759054e-11,5.8846002e-08,6.4395216e-08,5.0000036e-08,0.0,0.0,0.0,0.0,0.0,0.0,0.0,0.0,24
21748140000,21748060000,0.84375423,0.11295216,0.19108108,-0.48868057,-2.8226652,5.0420585,-5.57514,-20.441143,36.112206,-41.016693,6.850499e-06,-2.391374e-07,-1.7625164e-06,-0.00011760019,-0.00010233905,-0.00013335272,0.19232495,-0.016601147,0.49243188,0.01251799,-0.008665477,0.0027867933,0.0,0.0,3.633897e-05,1.1228283e-05,7.762908e-06,0.00012540468,0.010542384,0.010333005,0.013062022,0.06776048,0.06768033,0.1725573,1.3080493e-11,1.2598809e-11,2.7692282e-11,5.8016507e-08,6.4286105e-08,5.000011e-08,0.0,0.0,0.0,0.0,0.0,0.0,0.0,0.0,24
21749140000,21749060000,0.8434615,0.113682956,0.19221811,-0.4885704,-2.8601232,5.096047,-5.6196027,-23.331985,41.21889,-46.59067,6.9962234e-06,-4.946939e-07,-1.6541876e-06,-0.00011212092,-0.00010284472,-0.00014486989,0.19232495,-0.016601147,0.49243188,0.01251799,-0.008665477,0.0027867933,0.0,0.0,3.268243e-05,1.1393614e-05,7.879319e-06,0.000111823276,0.010747564,0.010616923,0.013125151,0.069318525,0.06922825,0.1738393,1.3047848e-11,1.2385312e-11,2.7783829e-11,5.7298205e-08,6.420137e-08,5.0000075e-08,0.0,0.0,0.0,0.0,0.0,0.0,0.0,0.0,24
21750140000,21750060000,0.8434467,0.11373602,0.1932493,-0.48817676,-2.8893812,5.1400566,-5.6568213,-26.248274,46.389233,-52.210712,7.063956e-06,-7.7992445e-07,-1.6180943e-06,-0.00010820433,-0.000103469254,-0.00015430727,0.19232495,-0.016601147,0.49243188,0.01251799,-0.008665477,0.0027867933,0.0,0.0,2.9933342e-05,1.154828e-05,7.970476e-06,0.00010163924,0.011119627,0.011038526,0.01319655,0.07141152,0.071320444,0.17511976,1.3029041e-11,1.21884525e-11,2.7882746e-11,5.6705968e-08,6.4126915e-08,5.0000146e-08,0.0,0.0,0.0,0.0,0.0,0.0,0.0,0.0,24
21751140000,21751060000,0.8431526,0.11432474,0.19415186,-0.4881893,-2.9051628,5.190485,-5.6660285,-29.185472,51.589527,-57.846695,7.1488043e-06,-9.894159e-07,-1.5632795e-06,-0.00010503995,-0.00010409218,-0.00016387513,0.19232495,-0.016601147,0.49243188,0.01251799,-0.008665477,0.0027867933,0.0,0.0,2.7702396e-05,1.162908e-05,8.040124e-06,9.316839e-05,0.011456273,0.011417561,0.013225905,0.073527664,0.07344831,0.17626806,1.3007041e-11,1.1996829e-11,2.7971436e-11,5.622284e-08,6.405173e-08,5e-08,0.0,0.0,0.0,0.0,0.0,0.0,0.0,0.0,24
21752140000,21752060000,0.8429925,0.114514515,0.1947464,-0.48818448,-2.9323878,5.2163515,-5.6626077,-32.14379,56.8222,-63.49633,7.2416547e-06,-1.115774e-06,-1.5188907e-06,-0.00010293322,-0.00010508553,-0.00017128878,0.19232495,-0.016601147,0.49243188,0.01251799,-0.008665477,0.0027867933,0.0,0.0,2.618021e-05,1.1514304e-05,7.875948e-06,8.727493e-05,0.010155691,0.010135167,0.012399054,0.06718579,0.067142025,0.17225419,1.2866835e-11,1.1637546e-11,2.7952472e-11,5.5769863e-08,6.397844e-08,5e-08,0.0,0.0,0.0,0.0,0.0,0.0,0.0,0.0,24
21753140000,21753060000,0.8430292,0.11450547,0.19507694,-0.48799112,-2.9562159,5.237436,-5.663502,-35.098873,62.069717,-69.15987,7.242769e-06,-1.1435541e-06,-1.573306e-06,-0.00010270837,-0.00010572794,-0.00017145275,0.19232495,-0.016601147,0.49243188,0.01251799,-0.008665477,0.0027867933,0.0,0.0,2.4880492e-05,1.1461213e-05,7.875784e-06,8.223264e-05,0.010407256,0.010389546,0.012460455,0.06886273,0.0688262,0.1752719,1.285702e-11,1.1477114e-11,2.8025072e-11,5.549133e-08,6.3906164e-08,5.0000256e-08,0.0,0.0,0.0,0.0,0.0,0.0,0.0,0.0,24
21754140000,21754060000,0.84290594,0.11508912,0.19516727,-0.48803064,-2.9688218,5.252734,-5.6563935,-38.062256,67.32305,-74.83447,7.218058e-06,-1.0504998e-06,-1.658822e-06,-0.000102918864,-0.000106208165,-0.00016768163,0.19232495,-0.016601147,0.49243188,0.01251799,-0.008665477,0.0027867933,0.0,0.0,2.3838396e-05,1.1356373e-05,7.88119e-06,7.8010424e-05,0.010663483,0.010647552,0.012452751,0.070575,0.070543595,0.1757999,1.2860522e-11,1.1340815e-11,2.809562e-11,5.5276725e-08,6.3835486e-08,5.000022e-08,0.0,0.0,0.0,0.0,0.0,0.0,0.0,0.0,24
21755140000,21755060000,0.84279716,0.114953004,0.19583999,-0.4879811,-2.9815662,5.270227,-5.628931,-41.032158,72.58589,-80.49183,7.209933e-06,-8.991877e-07,-1.716771e-06,-0.00010264498,-0.000106654334,-0.00016402529,0.19232495,-0.016601147,0.49243188,0.01251799,-0.008665477,0.0027867933,0.0,0.0,2.2962848e-05,1.1284364e-05,7.8917565e-06,7.446356e-05,0.0111247925,0.011109233,0.012499195,0.072910726,0.07288122,0.17631039,1.2898246e-11,1.12548556e-11,2.818243e-11,5.5117688e-08,6.376942e-08,5.0000114e-08,0.0,0.0,0.0,0.0,0.0,0.0,0.0,0.0,24
21756140000,21756060000,0.8427308,0.11485038,0.19597253,-0.48806658,-3.0039191,5.2766495,-5.632463,-44.005585,77.841644,-86.1671,7.1730856e-06,-6.0176006e-07,-1.8197338e-06,-0.00010267303,-0.00010706388,-0.00015163097,0.19232495,-0.016601147,0.49243188,0.01251799,-0.008665477,0.0027867933,0.0,0.0,2.2147544e-05,1.0886141e-05,7.6473925e-06,7.1133996e-05,0.009936811,0.009926242,0.011797411,0.066763036,0.066744804,0.1721349,1.2821478e-11,1.1013227e-11,2.8159431e-11,5.4978848e-08,6.369443e-08,5.0000075e-08,0.0,0.0,0.0,0.0,0.0,0.0,0.0,0.0,24
21757140000,21757060000,0.84264475,0.11578018,0.19552344,-0.48817557,-3.001476,5.289713,-5.6186767,-46.99441,83.12279,-91.832664,7.1292693e-06,-3.7731303e-07,-1.9482195e-06,-0.00010260421,-0.00010742919,-0.00013952567,0.19232495,-0.016601147,0.49243188,0.01251799,-0.008665477,0.0027867933,0.0,0.0,2.1571308e-05,1.0679451e-05,7.6279102e-06,6.857429e-05,0.010133993,0.010125785,0.011823706,0.068184495,0.06816673,0.17262548,1.2862423e-11,1.0929867e-11,2.8227445e-11,5.4893203e-08,6.363481e-08,5.000007e-08,0.0,0.0,0.0,0.0,0.0,0.0,0.0,0.0,24
21758140000,21758060000,0.84279203,0.11539267,0.19569415,-0.48794472,-2.9990053,5.283741,-5.61127,-49.979855,88.40521,-97.50937,7.0727338e-06,-1.4838206e-07,-2.0750422e-06,-0.0001028277,-0.000107574,-0.00012146277,0.19232495,-0.016601147,0.49243188,0.01251799,-0.008665477,0.0027867933,0.0,0.0,2.1061582e-05,1.0529041e-05,7.5969547e-06,6.643014e-05,0.0104619535,0.010459301,0.011900232,0.07005595,0.07003754,0.17328778,1.2927841e-11,1.0875332e-11,2.830156e-11,5.482867e-08,6.3581666e-08,5.000011e-08,0.0,0.0,0.0,0.0,0.0,0.0,0.0,0.0,24
21759140000,21759060000,0.842645,0.11533688,0.1958777,-0.48813826,-2.999298,5.2883368,-5.5955977,-52.976677,93.70528,-103.170364,7.024641e-06,-8.0727894e-08,-2.1701924e-06,-0.0001037949,-0.000107550724,-0.000101250174,0.19232495,-0.016601147,0.49243188,0.01251799,-0.008665477,0.0027867933,0.0,0.0,2.0671356e-05,1.0387845e-05,7.5737207e-06,6.457274e-05,0.010783157,0.010786745,0.0119841425,0.07196719,0.07194861,0.17400613,1.3004204e-11,1.0831184e-11,2.8371567e-11,5.477863e-08,6.3534266e-08,5.000015e-08,0.0,0.0,0.0,0.0,0.0,0.0,0.0,0.0,24
21760140000,21760060000,0.8427033,0.115173824,0.19606711,-0.48799986,-2.9964073,5.3081393,-5.593046,-55.97699,99.002426,-108.8578,7.0507217e-06,8.703065e-08,-2.2116403e-06,-0.00010447637,-0.00010827462,-6.942785e-05,0.19232495,-0.016601147,0.49243188,0.01251799,-0.008665477,0.0027867933,0.0,0.0,2.032531e-05,1.0067303e-05,7.365043e-06,6.3008454e-05,0.009757239,0.009764104,0.011433243,0.06624732,0.06623517,0.17063637,1.3004603e-11,1.0674749e-11,2.8375158e-11,5.473233e-08,6.3486546e-08,5.0000185e-08,0.0,0.0,0.0,0.0,0.0,0.0,0.0,0.0,24
21761140000,21761060000,0.84266984,0.115247354,0.19619006,-0.48799083,-2.988415,5.3150754,-5.6013956,-58.979164,104.30335,-114.54024,7.1352665e-06,2.6887585e-07,-2.1870228e-06,-0.000104536986,-0.000109357985,-3.906364e-05,0.19232495,-0.016601147,0.49243188,0.01251799,-0.008665477,0.0027867933,0.0,0.0,2.0064153e-05,9.943716e-06,7.335697e-06,6.1675906e-05,0.009999614,0.010011361,0.0115232235,0.06777342,0.067761876,0.17144787,1.30873316e-11,1.0639563e-11,2.8439426e-11,5.4700486e-08,6.3448915e-08,5.0000185e-08,0.0,0.0,0.0,0.0,0.0,0.0,0.0,0.0,24
21762140000,21762060000,0.8426545,0.11512761,0.19583899,-0.48818666,-2.988901,5.3244095,-5.6069627,-61.977898,109.60582,-120.22417,7.2300004e-06,4.6158374e-07,-2.1475896e-06,-0.00010410054,-0.00011042099,-1.4311949e-05,0.19232495,-0.016601147,0.49243188,0.01251799,-0.008665477,0.0027867933,0.0,0.0,1.9808433e-05,9.804403e-06,7.2993516e-06,6.0337534e-05,0.010232984,0.010250041,0.011612453,0.06930032,0.06928998,0.17221405,1.3168002e-11,1.0609768e-11,2.8485417e-11,5.4673322e-08,6.341399e-08,5.0000107e-08,0.0,0.0,0.0,0.0,0.0,0.0,0.0,0.0,24
21763140000,21763060000,0.8426433,0.11532871,0.19609438,-0.48805612,-2.9758632,5.330111,-5.6128426,-64.97035,114.91253,-125.9178,7.334427e-06,6.595851e-07,-2.1260867e-06,-0.0001034397,-0.00011157833,9.070641e-06,0.19232495,-0.016601147,0.49243188,0.01251799,-0.008665477,0.0027867933,0.0,0.0,1.9658359e-05,9.745803e-06,7.3038564e-06,5.9409827e-05,0.010634311,0.010657927,0.011747387,0.07137015,0.071361415,0.1730351,1.3267691e-11,1.0605454e-11,2.854907e-11,5.465059e-08,6.3384554e-08,5.0000146e-08,0.0,0.0,0.0,0.0,0.0,0.0,0.0,0.0,24
21764140000,21764060000,0.8425593,0.115343526,0.19606061,-0.4882111,-2.9752586,5.3368654,-5.6297827,-67.95909,120.22985,-131.6207,7.4235154e-06,7.7669995e-07,-2.068789e-06,-0.00010317184,-0.00011239319,3.1709733e-05,0.19232495,-0.016601147,0.49243188,0.01251799,-0.008665477,0.0027867933,0.0,0.0,1.9565327e-05,9.686088e-06,7.3029096e-06,5.8646696e-05,0.01101725,0.011047905,0.011876645,0.073430136,0.073424295,0.17379634,1.3365292e-11,1.0602367e-11,2.8603219e-11,5.4630544e-08,6.33584e-08,5.0000075e-08,0.0,0.0,0.0,0.0,0.0,0.0,0.0,0.0,24
21765140000,21765060000,0.84257483,0.11504153,0.1963598,-0.4881352,-2.9794888,5.3408623,-5.6385694,-70.96151,125.56765,-137.32574,7.525186e-06,8.63263e-07,-2.0271257e-06,-0.00010286547,-0.000113283815,5.360256e-05,0.19232495,-0.016601147,0.49243188,0.01251799,-0.008665477,0.0027867933,0.0,0.0,1.9487683e-05,9.427445e-06,7.0821957e-06,5.802788e-05,0.009840857,0.00987033,0.011335914,0.06712164,0.06711823,0.17031518,1.3363868e-11,1.0463632e-11,2.8591756e-11,5.4607085e-08,6.3331065e-08,5.0000146e-08,0.0,0.0,0.0,0.0,0.0,0.0,0.0,0.0,24
21766140000,21766060000,0.84255403,0.11522328,0.19584924,-0.48833346,-2.984212,5.322916,-5.64353,-73.95511,130.89497,-143.03116,7.5770554e-06,9.639266e-07,-2.056799e-06,-0.00010243107,-0.00011386063,7.026551e-05,0.19232495,-0.016601147,0.49243188,0.01251799,-0.008665477,0.0027867933,0.0,0.0,1.94752e-05,9.364193e-06,7.0852975e-06,5.7528996e-05,0.010122892,0.010157779,0.0114575,0.06879041,0.06878957,0.17100555,1.3452175e-11,1.0459273e-11,2.8624093e-11,5.4591652e-08,6.3311035e-08,5.0000036e-08,0.0,0.0,0.0,0.0,0.0,0.0,0.0,0.0,24
21767140000,21767060000,0.84252614,0.115296,0.19591095,-0.4883396,-2.992095,5.320074,-5.650534,-76.954094,136.2194,-148.73584,7.6086985e-06,1.040907e-06,-2.0682287e-06,-0.00010210062,-0.00011418362,8.502261e-05,0.19232495,-0.016601147,0.49243188,0.01251799,-0.008665477,0.0027867933,0.0,0.0,1.9471594e-05,9.328011e-06,7.089916e-06,5.7146382e-05,0.010406071,0.010445584,0.011584093,0.070491314,0.07049353,0.1717182,1.3537356e-11,1.0457928e-11,2.8645362e-11,5.457841e-08,6.3293754e-08,5.000007e-08,0.0,0.0,0.0,0.0,0.0,0.0,0.0,0.0,24
21768140000,21768060000,0.8425946,0.115296066,0.19603744,-0.48817044,-2.987742,5.3206105,-5.650295,-79.947395,141.55054,-154.44434,7.602315e-06,1.0891354e-06,-2.0840328e-06,-0.00010185316,-0.000114217386,0.00010209654,0.19232495,-0.016601147,0.49243188,0.01251799,-0.008665477,0.0027867933,0.0,0.0,1.947898e-05,9.306524e-06,7.098732e-06,5.687819e-05,0.010695829,0.010739737,0.011707734,0.07222144,0.07222714,0.17239171,1.362042e-11,1.04614884e-11,2.865646e-11,5.456723e-08,6.327897e-08,5.0000036e-08,0.0,0.0,0.0,0.0,0.0,0.0,0.0,0.0,24
21769140000,21769060000,0.8425632,0.11539479,0.19616845,-0.4881488,-2.9858177,5.324526,-5.656496,-82.950134,146.89331,-160.1574,7.6120486e-06,1.0893395e-06,-2.0848222e-06,-0.00010181687,-0.00011431843,0.00012270581,0.19232495,-0.016601147,0.49243188,0.01251799,-0.008665477,0.0027867933,0.0,0.0,1.9510253e-05,9.12424e-06,6.9433654e-06,5.667478e-05,0.009679385,0.0097183725,0.011214545,0.06636886,0.06637275,0.16903953,1.3622103e-11,1.0357888e-11,2.8616727e-11,5.455526e-08,6.326478e-08,5.000004e-08,0.0,0.0,0.0,0.0,0.0,0.0,0.0,0.0,24
21770140000,21770060000,0.84246314,0.11572384,0.19575946,-0.48840776,-2.9809747,5.317728,-5.6664276,-85.951996,152.23784,-165.85768,7.610828e-06,1.0424307e-06,-2.083239e-06,-0.00010203888,-0.000114318114,0.00013616224,0.19232495,-0.016601147,0.49243188,0.01251799,-0.008665477,0.0027867933,0.0,0.0,1.95899e-05,9.097045e-06,6.96001e-06,5.654659e-05,0.009924479,0.0099665215,0.011344903,0.0678222,0.067828484,0.16991447,1.3693965e-11,1.0361126e-11,2.8601678e-11,5.4547975e-08,6.325438e-08,5.0000185e-08,0.0,0.0,0.0,0.0,0.0,0.0,0.0,0.0,24
21771140000,21771060000,0.84252185,0.11585472,0.19590402,-0.48821735,-2.9795003,5.3086314,-5.680305,-88.95395,157.58818,-171.5689,7.5928233e-06,9.1737326e-07,-2.0985437e-06,-0.00010262965,-0.00011424736,0.00014607572,0.19232495,-0.016601147,0.49243188,0.01251799,-0.008665477,0.0027867933,0.0,0.0,1.9654799e-05,9.0920375e-06,6.9731327e-06,5.6503086e-05,0.0101708425,0.010215384,0.011479456,0.06932029,0.069329016,0.17093013,1.3762208e-11,1.0365325e-11,2.857136e-11,5.4541808e-08,6.324542e-08,5.000015e-08,0.0,0.0,0.0,0.0,0.0,0.0,0.0,0.0,24
21772140000,21772060000,0.84248275,0.11541849,0.19611353,-0.4883042,-2.972918,5.3126726,-5.698664,-91.95275,162.93776,-177.28601,7.5877556e-06,7.7338365e-07,-2.0794828e-06,-0.00010328211,-0.00011418818,0.00015242277,0.19232495,-0.016601147,0.49243188,0.01251799,-0.008665477,0.0027867933,0.0,0.0,1.9690018e-05,9.110578e-06,6.9992943e-06,5.631501e-05,0.010579247,0.010628282,0.011588021,0.071353555,0.07136574,0.16975032,1.3832776e-11,1.0388968e-11,2.8505592e-11,5.4537033e-08,6.323749e-08,5e-08,0.0,0.0,0.0,0.0,0.0,0.0,0.0,0.0,24
21773140000,21773060000,0.8424558,0.11522989,0.19645135,-0.48825938,-2.9719348,5.3015723,-5.7100163,-94.93731,168.27814,-183.01219,7.531233e-06,6.591015e-07,-2.0669117e-06,-0.00010376204,-0.00011389993,0.00015911103,0.19232495,-0.016601147,0.49243188,0.01251799,-0.008665477,0.0027867933,0.0,0.0,1.97885e-05,9.148658e-06,7.0316323e-06,5.6374694e-05,0.010966769,0.01101954,0.0117611075,0.07341262,0.07342852,0.1710273,1.3903374e-11,1.0411532e-11,2.8453259e-11,5.4533327e-08,6.3231276e-08,5e-08,0.0,0.0,0.0,0.0,0.0,0.0,0.0,0.0,24
21774140000,21774060000,0.8424827,0.115399346,0.19620818,-0.4882706,-2.9651926,5.296935,-5.719152,-97.9096,173.62666,-188.73285,7.431635e-06,5.538495e-07,-2.1328685e-06,-0.000104187,-0.000113557064,0.00015912711,0.19232495,-0.016601147,0.49243188,0.01251799,-0.008665477,0.0027867933,0.0,0.0,1.9895922e-05,8.972801e-06,6.8698723e-06,5.6461915e-05,0.009806236,0.009850045,0.011318427,0.067106575,0.06711603,0.1703129,1.3871365e-11,1.030084e-11,2.834783e-11,5.4528847e-08,6.3225144e-08,5.0000217e-08,0.0,0.0,0.0,0.0,0.0,0.0,0.0,0.0,24
21775140000,21775060000,0.8423467,0.11573998,0.19631626,-0.48838124,-2.9761136,5.2876463,-5.736328,-100.897736,178.95898,-194.45685,7.405158e-06,3.7995255e-07,-2.1837177e-06,-0.00010481908,-0.00011353156,0.00015443015,0.19232495,-0.016601147,0.49243188,0.01251799,-0.008665477,0.0027867933,0.0,0.0,2.0035446e-05,8.990288e-06,6.9022167e-06,5.658013e-05,0.010089996,0.010136536,0.011447898,0.06874489,0.0687565,0.17115095,1.3923205e-11,1.0314647e-11,2.8270405e-11,5.452699e-08,6.322109e-08,5.000011e-08,0.0,0.0,0.0,0.0,0.0,0.0,0.0,0.0,24
21776140000,21776060000,0.84230345,0.115695156,0.19639678,-0.48843408,-2.975108,5.2820187,-5.743288,-103.879135,184.29259,-200.17148,7.2970515e-06,2.3519756e-07,-2.2017343e-06,-0.000105308856,-0.00011316687,0.00014388004,0.19232495,-0.016601147,0.49243188,0.01251799,-0.008665477,0.0027867933,0.0,0.0,2.0167347e-05,9.013297e-06,6.9289995e-06,5.675461e-05,0.010379703,0.010429307,0.011572225,0.07044749,0.070461616,0.17182803,1.39703735e-11,1.0330608e-11,2.8183412e-11,5.452599e-08,6.321801e-08,5.0000075e-08,0.0,0.0,0.0,0.0,0.0,0.0,0.0,0.0,24
21777140000,21777060000,0.8425219,0.11564292,0.19610904,-0.48818532,-2.9751055,5.276838,-5.755072,-106.864845,189.62022,-205.89284,7.2448292e-06,9.4932986e-08,-2.303997e-06,-0.000105753155,-0.00011312585,0.00013364857,0.19232495,-0.016601147,0.49243188,0.01251799,-0.008665477,0.0027867933,0.0,0.0,2.0299678e-05,9.0568665e-06,6.990627e-06,5.6974866e-05,0.010861253,0.010916151,0.011753627,0.07274577,0.07276415,0.17277595,1.4028287e-11,1.0369719e-11,2.8092676e-11,5.4525856e-08,6.321583e-08,5.0000075e-08,0.0,0.0,0.0,0.0,0.0,0.0,0.0,0.0,24
21778140000,21778060000,0.842557,0.11510782,0.19645217,-0.48811322,-2.9761643,5.271251,-5.7504144,-109.85065,194.94469,-211.59048,7.177957e-06,-7.945822e-08,-2.403106e-06,-0.00010623076,-0.00011307956,0.00011144453,0.19232495,-0.016601147,0.49243188,0.01251799,-0.008665477,0.0027867933,0.0,0.0,2.043339e-05,8.90836e-06,6.8282266e-06,5.717911e-05,0.009738971,0.009784797,0.011237149,0.06665903,0.06667009,0.16925295,1.39752255e-11,1.0266467e-11,2.7950553e-11,5.4525184e-08,6.321372e-08,5e-08,0.0,0.0,0.0,0.0,0.0,0.0,0.0,0.0,24
21779140000,21779060000,0.84251183,0.11591576,0.19607258,-0.48815247,-2.9777675,5.2688794,-5.752976,-112.834076,200.27167,-217.32262,7.101524e-06,-2.7829807e-07,-2.5573738e-06,-0.000106746425,-0.00011304408,0.000104854815,0.19232495,-0.016601147,0.49243188,0.01251799,-0.008665477,0.0027867933,0.0,0.0,2.0529738e-05,8.900263e-06,6.8616837e-06,5.719132e-05,0.009952612,0.01000033,0.011350064,0.06807043,0.06808319,0.16986436,1.3993395e-11,1.027851e-11,2.779644e-11,5.4526318e-08,6.321296e-08,5.000007e-08,0.0,0.0,0.0,0.0,0.0,0.0,0.0,0.0,24
21780140000,21780060000,0.84243685,0.11551065,0.19651715,-0.48819914,-2.9813738,5.2678933,-5.754318,-115.81054,205.58401,-223.03409,7.045457e-06,-4.0348084e-07,-2.686244e-06,-0.00010702677,-0.000113065005,8.9342655e-05,0.19232495,-0.016601147,0.49243188,0.01251799,-0.008665477,0.0027867933,0.0,0.0,2.0694857e-05,8.950882e-06,6.895714e-06,5.741711e-05,0.010298451,0.010350023,0.0115194395,0.06993077,0.06994642,0.17091548,1.4024463e-11,1.0304398e-11,2.7673086e-11,5.4528076e-08,6.321318e-08,5.000007e-08,0.0,0.0,0.0,0.0,0.0,0.0,0.0,0.0,24
21781140000,21781060000,0.84259254,0.114624284,0.19701934,-0.48793715,-2.9769373,5.2598343,-5.7485266,-118.778305,210.89053,-228.7434,6.9526122e-06,-5.182215e-07,-2.8437266e-06,-0.00010725198,-0.000113023016,7.4295356e-05,0.19232495,-0.016601147,0.49243188,0.01251799,-0.008665477,0.0027867933,0.0,0.0,2.0836871e-05,9.002659e-06,6.918027e-06,5.7679226e-05,0.010630247,0.010685043,0.011665435,0.07181132,0.0718302,0.17175879,1.4049207e-11,1.0328838e-11,2.7541053e-11,5.4530247e-08,6.321396e-08,5e-08,0.0,0.0,0.0,0.0,0.0,0.0,0.0,0.0,24
21782140000,21782060000,0.8424599,0.115553565,0.19647278,-0.48816705,-2.9662716,5.2706695,-5.7323112,-121.746864,216.20724,-234.45491,6.870263e-06,-6.4584225e-07,-3.0124631e-06,-0.00010749401,-0.00011301231,6.463953e-05,0.19232495,-0.016601147,0.49243188,0.01251799,-0.008665477,0.0027867933,0.0,0.0,2.100667e-05,8.860493e-06,6.8119016e-06,5.7891255e-05,0.009642805,0.0096899755,0.011247737,0.06614903,0.06616098,0.17073718,1.3986972e-11,1.0245872e-11,2.7373947e-11,5.4532496e-08,6.3215126e-08,5.000022e-08,0.0,0.0,0.0,0.0,0.0,0.0,0.0,0.0,24
21783140000,21783060000,0.842553,0.11560235,0.19649571,-0.48798558,-2.959255,5.2662554,-5.708269,-124.7033,221.50618,-240.15303,6.8298955e-06,-7.2231177e-07,-3.205868e-06,-0.00010761307,-0.00011311893,5.7841757e-05,0.19232495,-0.016601147,0.49243188,0.01251799,-0.008665477,0.0027867933,0.0,0.0,2.1229871e-05,8.9001405e-06,6.844608e-06,5.834454e-05,0.0098731285,0.009922617,0.011369508,0.06763499,0.06764901,0.17141303,1.4004239e-11,1.026219e-11,2.7263972e-11,5.453563e-08,6.321724e-08,5.0000185e-08,0.0,0.0,0.0,0.0,0.0,0.0,0.0,0.0,24
21784140000,21784060000,0.84246373,0.1153625,0.19657071,-0.48816642,-2.9693692,5.2654057,-5.681735,-127.66625,226.79982,-245.84174,6.8161435e-06,-7.5220913e-07,-3.3661265e-06,-0.00010766776,-0.00011323603,5.9043046e-05,0.19232495,-0.016601147,0.49243188,0.01251799,-0.008665477,0.0027867933,0.0,0.0,2.1330909e-05,8.920393e-06,6.868634e-06,5.8357407e-05,0.010119134,0.0101710735,0.011486496,0.06919018,0.06920645,0.17194661,1.39994145e-11,1.0280892e-11,2.7072693e-11,5.4539125e-08,6.32196e-08,5.000011e-08,0.0,0.0,0.0,0.0,0.0,0.0,0.0,0.0,24
21785140000,21785060000,0.8424901,0.115387626,0.19645518,-0.4881614,-2.9537494,5.2620454,-5.644343,-130.6195,232.09212,-251.50153,6.7782726e-06,-7.6394497e-07,-3.577478e-06,-0.00010767811,-0.00011336859,6.20218e-05,0.19232495,-0.016601147,0.49243188,0.01251799,-0.008665477,0.0027867933,0.0,0.0,2.1565385e-05,8.983516e-06,6.929456e-06,5.879905e-05,0.010511414,0.010567672,0.01163339,0.071229815,0.07124987,0.17244117,1.4022016e-11,1.0316141e-11,2.6958626e-11,5.454294e-08,6.32226e-08,5e-08,0.0,0.0,0.0,0.0,0.0,0.0,0.0,0.0,24
21786140000,21786060000,0.84248716,0.11576196,0.19640839,-0.48809662,-2.9506714,5.258046,-5.624132,-133.57457,237.36343,-257.1801,6.805855e-06,-6.851079e-07,-3.6798897e-06,-0.00010759443,-0.00011348269,7.9584286e-05,0.19232495,-0.016601147,0.49243188,0.01251799,-0.008665477,0.0027867933,0.0,0.0,2.1704225e-05,9.036959e-06,6.991994e-06,5.9026188e-05,0.010904106,0.010964714,0.011853235,0.07331293,0.07333728,0.17538913,1.40304105e-11,1.0350222e-11,2.6799557e-11,5.454691e-08,6.322579e-08,5.000026e-08,0.0,0.0,0.0,0.0,0.0,0.0,0.0,0.0,24
21787140000,21787060000,0.8426846,0.115361325,0.19642292,-0.4878447,-2.9486656,5.2598124,-5.617521,-136.52925,242.65187,-262.868,6.8247646e-06,-6.519387e-07,-3.8310404e-06,-0.00010753751,-0.00011361005,0.00010605122,0.19232495,-0.016601147,0.49243188,0.01251799,-0.008665477,0.0027867933,0.0,0.0,2.1819174e-05,8.892209e-06,6.8371564e-06,5.9255333e-05,0.009763397,0.009813279,0.011322964,0.06705082,0.06706551,0.1715714,1.3930531e-11,1.0250899e-11,2.6607116e-11,5.4550785e-08,6.32291e-08,5.000022e-08,0.0,0.0,0.0,0.0,0.0,0.0,0.0,0.0,24
21788140000,21788060000,0.84249145,0.11606113,0.19609444,-0.4881444,-2.943983,5.262298,-5.6125307,-139.49211,247.92473,-268.5521,6.917027e-06,-6.0564156e-07,-3.899432e-06,-0.000107469124,-0.00011376909,0.00013134094,0.19232495,-0.016601147,0.49243188,0.01251799,-0.008665477,0.0027867933,0.0,0.0,2.1974256e-05,8.915763e-06,6.886314e-06,5.9437338e-05,0.010056107,0.010108797,0.011453563,0.06872135,0.06873852,0.17200749,1.3922747e-11,1.02732154e-11,2.6438789e-11,5.455479e-08,6.3232584e-08,5.000011e-08,0.0,0.0,0.0,0.0,0.0,0.0,0.0,0.0,24
21789140000,21789060000,0.8424914,0.11595734,0.19603245,-0.48819402,-2.9278831,5.270143,-5.6168637,-142.43492,253.20522,-274.23386,6.9745797e-06,-5.597505e-07,-4.033703e-06,-0.00010737963,-0.0001139312,0.00015458585,0.19232495,-0.016601147,0.49243188,0.01251799,-0.008665477,0.0027867933,0.0,0.0,2.2112603e-05,8.946403e-06,6.914016e-06,5.9626676e-05,0.010343849,0.010399075,0.011574674,0.07040542,0.07042525,0.172346,1.3911483e-11,1.02940816e-11,2.6267983e-11,5.4558736e-08,6.323617e-08,5.0000036e-08,0.0,0.0,0.0,0.0,0.0,0.0,0.0,0.0,24
21790140000,21790060000,0.8424408,0.115822405,0.1962314,-0.4882335,-2.9288704,5.2768435,-5.6157713,-145.38391,258.4987,-279.9152,7.0606357e-06,-5.5073156e-07,-4.0851064e-06,-0.00010734074,-0.00011409519,0.0001766197,0.19232495,-0.016601147,0.49243188,0.01251799,-0.008665477,0.0027867933,0.0,0.0,2.223635e-05,9.014934e-06,6.971217e-06,5.9813792e-05,0.0108248675,0.010884846,0.011811884,0.07270692,0.072731405,0.17521162,1.3916812e-11,1.03380715e-11,2.610105e-11,5.456266e-08,6.3239824e-08,5.000022e-08,0.0,0.0,0.0,0.0,0.0,0.0,0.0,0.0,24
21791140000,21791060000,0.8424813,0.11551424,0.19636872,-0.48818153,-2.9398327,5.267575,-5.6232076,-148.3376,263.7817,-285.60272,7.1674945e-06,-5.1910166e-07,-4.164688e-06,-0.000107267646,-0.00011429192,0.00020062283,0.19232495,-0.016601147,0.49243188,0.01251799,-0.008665477,0.0027867933,0.0,0.0,2.2260443e-05,8.859063e-06,6.8116483e-06,5.976333e-05,0.00972197,0.009771418,0.011297724,0.06665505,0.06667001,0.17144373,1.3799842e-11,1.0240949e-11,2.5860853e-11,5.4566396e-08,6.324341e-08,5.0000217e-08,0.0,0.0,0.0,0.0,0.0,0.0,0.0,0.0,24
21792140000,21792060000,0.8425582,0.115508385,0.19602428,-0.4881885,-2.9500828,5.272685,-5.6261253,-151.27927,269.07843,-291.28772,7.131261e-06,-5.0770416e-07,-4.2534925e-06,-0.00010720853,-0.00011429444,0.00022071155,0.19232495,-0.016601147,0.49243188,0.01251799,-0.008665477,0.0027867933,0.0,0.0,2.2358661e-05,8.866497e-06,6.830645e-06,5.9948456e-05,0.009937186,0.009988353,0.011356543,0.06806508,0.06808169,0.16972844,1.3779952e-11,1.0255787e-11,2.5686443e-11,5.4570247e-08,6.3247164e-08,5.0000036e-08,0.0,0.0,0.0,0.0,0.0,0.0,0.0,0.0,24
21793140000,21793060000,0.8424329,0.11585339,0.19609967,-0.48829278,-2.9391682,5.271846,-5.6215315,-154.2109,274.37567,-296.9741,7.047656e-06,-4.955949e-07,-4.393367e-06,-0.000107148735,-0.00011423206,0.00023846352,0.19232495,-0.016601147,0.49243188,0.01251799,-0.008665477,0.0027867933,0.0,0.0,2.246342e-05,8.9063515e-06,6.8757604e-06,6.00891e-05,0.010276159,0.010330886,0.011579868,0.069921926,0.0699413,0.17286646,1.3770939e-11,1.02842145e-11,2.5513534e-11,5.4574155e-08,6.325101e-08,5.0000214e-08,0.0,0.0,0.0,0.0,0.0,0.0,0.0,0.0,24
21794140000,21794060000,0.8424406,0.116168015,0.19594282,-0.48826766,-2.9297338,5.2656546,-5.6229005,-157.1475,279.66898,-302.6704,7.0145857e-06,-5.0927684e-07,-4.5174706e-06,-0.00010712329,-0.00011422137,0.0002629537,0.19232495,-0.016601147,0.49243188,0.01251799,-0.008665477,0.0027867933,0.0,0.0,2.2547618e-05,8.938586e-06,6.9223497e-06,6.0230137e-05,0.010609356,0.010667604,0.011724718,0.07180245,0.071824916,0.17357934,1.3762572e-11,1.0311792e-11,2.5337838e-11,5.457816e-08,6.3255015e-08,5.0000214e-08,0.0,0.0,0.0,0.0,0.0,0.0,0.0,0.0,24
21795140000,21795060000,0.8425497,0.11547027,0.19620748,-0.48813862,-2.934048,5.2569985,-5.637324,-160.08022,284.96652,-308.36407,6.940877e-06,-5.5573065e-07,-4.582494e-06,-0.00010715458,-0.000114153205,0.00028595224,0.19232495,-0.016601147,0.49243188,0.01251799,-0.008665477,0.0027867933,0.0,0.0,2.2593593e-05,8.825399e-06,6.786454e-06,6.037202e-05,0.009637357,0.009686677,0.011244772,0.066143446,0.06615773,0.17025065,1.36709324e-11,1.0231218e-11,2.5137422e-11,5.4582124e-08,6.325903e-08,5.0000175e-08,0.0,0.0,0.0,0.0,0.0,0.0,0.0,0.0,24
21796140000,21796060000,0.8424772,0.11549385,0.1961944,-0.4882633,-2.9400039,5.250823,-5.6573386,-163.00757,290.2689,-314.06204,6.781314e-06,-6.72856e-07,-4.690494e-06,-0.000107269305,-0.00011396925,0.00030105963,0.19232495,-0.016601147,0.49243188,0.01251799,-0.008665477,0.0027867933,0.0,0.0,2.2661668e-05,8.847217e-06,6.812048e-06,6.0484912e-05,0.009881517,0.00993276,0.011368657,0.067630894,0.06764695,0.17095348,1.3655923e-11,1.0248134e-11,2.495925e-11,5.458615e-08,6.326311e-08,5.000015e-08,0.0,0.0,0.0,0.0,0.0,0.0,0.0,0.0,24
21797140000,21797060000,0.84263605,0.11477538,0.1964888,-0.48804018,-2.953686,5.251492,-5.6707463,-165.93362,295.56955,-319.76483,6.5930362e-06,-7.451644e-07,-4.880992e-06,-0.0001073369,-0.00011374277,0.00031038534,0.19232495,-0.016601147,0.49243188,0.01251799,-0.008665477,0.0027867933,0.0,0.0,2.2703442e-05,8.878424e-06,6.826423e-06,6.060733e-05,0.010131309,0.010185064,0.0115064895,0.069171496,0.06918952,0.17188145,1.3640667e-11,1.0266329e-11,2.4784355e-11,5.459016e-08,6.326716e-08,5.0000224e-08,0.0,0.0,0.0,0.0,0.0,0.0,0.0,0.0,24
21798140000,21798060000,0.84249234,0.115525566,0.19610862,-0.48826426,-2.959598,5.246728,-5.676356,-168.86543,300.86465,-325.469,6.376678e-06,-7.8150936e-07,-5.009135e-06,-0.00010737083,-0.000113507056,0.00031763603,0.19232495,-0.016601147,0.49243188,0.01251799,-0.008665477,0.0027867933,0.0,0.0,2.2762513e-05,8.910385e-06,6.894568e-06,6.068817e-05,0.010531089,0.010589411,0.0116708,0.071222164,0.07124382,0.17277445,1.3637537e-11,1.0301666e-11,2.4616661e-11,5.459426e-08,6.327128e-08,5.000015e-08,0.0,0.0,0.0,0.0,0.0,0.0,0.0,0.0,24
21799140000,21799060000,0.8425409,0.115567915,0.196076,-0.48818347,-2.9509485,5.2360005,-5.6838784,-171.79118,306.16,-331.19003,6.1629908e-06,-8.5074674e-07,-5.1517363e-06,-0.00010743167,-0.00011328817,0.0003279642,0.19232495,-0.016601147,0.49243188,0.01251799,-0.008665477,0.0027867933,0.0,0.0,2.27939e-05,8.952838e-06,6.9472894e-06,6.07813e-05,0.010925233,0.010987514,0.011836638,0.07331542,0.073341325,0.17378949,1.3633946e-11,1.0336016e-11,2.4451401e-11,5.459846e-08,6.327557e-08,5.0000224e-08,0.0,0.0,0.0,0.0,0.0,0.0,0.0,0.0,24
21800140000,21800060000,0.8424526,0.11584824,0.19630957,-0.48817557,-2.9327612,5.2474623,-5.695967,-174.70296,311.47885,-336.90283,5.8721575e-06,-1.0203084e-06,-5.3345334e-06,-0.00010757939,-0.00011305011,0.00033142665,0.19232495,-0.016601147,0.49243188,0.01251799,-0.008665477,0.0027867933,0.0,0.0,2.281511e-05,8.8091e-06,6.804822e-06,6.082676e-05,0.00977991,0.00983128,0.011316357,0.06705414,0.06706956,0.17042638,1.3528233e-11,1.0237394e-11,2.4257483e-11,5.4602623e-08,6.327985e-08,5.0000185e-08,0.0,0.0,0.0,0.0,0.0,0.0,0.0,0.0,24
21801140000,21801060000,0.84254813,0.11563308,0.19621436,-0.4881,-2.9329965,5.2265573,-5.6998887,-177.62431,316.76425,-342.61798,5.7162542e-06,-1.1364889e-06,-5.4460907e-06,-0.00010767682,-0.00011292752,0.00033747253,0.19232495,-0.016601147,0.49243188,0.01251799,-0.008665477,0.0027867933,0.0,0.0,2.283126e-05,8.838898e-06,6.8381446e-06,6.0892828e-05,0.010061079,0.010114882,0.011448369,0.06870401,0.06872176,0.17120123,1.3519479e-11,1.0260017e-11,2.4091411e-11,5.4606957e-08,6.328426e-08,5.000015e-08,0.0,0.0,0.0,0.0,0.0,0.0,0.0,0.0,24
21802140000,21802060000,0.8425248,0.11597712,0.19608317,-0.48811132,-2.9204469,5.2186093,-5.707743,-180.54935,322.05603,-348.31702,5.5453993e-06,-1.35493e-06,-5.5894925e-06,-0.00010782675,-0.000112828915,0.0003362668,0.19232495,-0.016601147,0.49243188,0.01251799,-0.008665477,0.0027867933,0.0,0.0,2.2854398e-05,8.869286e-06,6.882277e-06,6.09252e-05,0.01035544,0.010411782,0.011588072,0.070414156,0.0704345,0.17209725,1.3513579e-11,1.028335e-11,2.3927174e-11,5.461131e-08,6.328869e-08,5.000015e-08,0.0,0.0,0.0,0.0,0.0,0.0,0.0,0.0,24
21803140000,21803060000,0.8424547,0.115816504,0.19632137,-0.4881749,-2.9136288,5.2080913,-5.719548,-183.47015,327.34238,-354.03867,5.410802e-06,-1.6002274e-06,-5.7016873e-06,-0.000107999476,-0.00011274149,0.0003401385,0.19232495,-0.016601147,0.49243188,0.01251799,-0.008665477,0.0027867933,0.0,0.0,2.2878574e-05,8.943777e-06,6.9455555e-06,6.0944087e-05,0.010837737,0.010898763,0.011769489,0.07271621,0.072741196,0.17310457,1.3526037e-11,1.0328449e-11,2.3771669e-11,5.4615686e-08,6.329316e-08,5.0000185e-08,0.0,0.0,0.0,0.0,0.0,0.0,0.0,0.0,24
21804140000,21804060000,0.8425985,0.115076534,0.1965657,-0.48800328,-2.9266174,5.209038,-5.7229457,-186.39568,332.64804,-359.74442,5.2629102e-06,-1.9428949e-06,-5.870858e-06,-0.000108189866,-0.00011266778,0.00033771317,0.19232495,-0.016601147,0.49243188,0.01251799,-0.008665477,0.0027867933,0.0,0.0,2.2792288e-05,8.798866e-06,6.7844903e-06,6.0731334e-05,0.009723765,0.009773362,0.01126018,0.06664174,0.06665671,0.16976088,1.34180176e-11,1.02319125e-11,2.3549437e-11,5.4620017e-08,6.329762e-08,5.0000136e-08,0.0,0.0,0.0,0.0,0.0,0.0,0.0,0.0,24
21805140000,21805060000,0.842495,0.11593223,0.19629063,-0.48809013,-2.9279954,5.2048435,-5.7206793,-189.3206,337.92673,-365.4475,5.1600236e-06,-2.1839019e-06,-6.034395e-06,-0.00010828356,-0.000112624766,0.00033078715,0.19232495,-0.016601147,0.49243188,0.01251799,-0.008665477,0.0027867933,0.0,0.0,2.2816417e-05,8.816042e-06,6.8284776e-06,6.071421e-05,0.009940463,0.00999175,0.011377489,0.06805574,0.06807223,0.17055282,1.340736e-11,1.0248377e-11,2.3398495e-11,5.462444e-08,6.3302146e-08,5.000011e-08,0.0,0.0,0.0,0.0,0.0,0.0,0.0,0.0,24
21806140000,21806060000,0.84241873,0.11574385,0.19649607,-0.4881838,-2.919363,5.221744,-5.7409964,-192.24406,343.208,-371.1769,5.0338217e-06,-2.3889284e-06,-6.1745636e-06,-0.000108381995,-0.000112561516,0.0003318045,0.19232495,-0.016601147,0.49243188,0.01251799,-0.008665477,0.0027867933,0.0,0.0,2.2836339e-05,8.863483e-06,6.8656173e-06,6.0703802e-05,0.010283104,0.010338033,0.011519854,0.06989306,0.0699123,0.1712613,1.3402796e-11,1.0276676e-11,2.3259226e-11,5.4628895e-08,6.3306715e-08,5.0000036e-08,0.0,0.0,0.0,0.0,0.0,0.0,0.0,0.0,24
21807140000,21807060000,0.8445144,-0.08895006,0.011283013,-0.52797353,-1.0463066,2.7941258,-1.6926631,-194.69098,347.9022,-375.3107,5.0594194e-06,-2.8271734e-06,-6.3897814e-06,-0.00010836859,-0.00011252447,0.00032594643,0.18902808,-0.01632839,0.48907632,0.011417383,-0.011171086,0.0009775509,0.0,0.0,2.5711628e-05,5.9461695e-06,6.9043413e-06,6.036029e-05,0.0106861815,0.010026677,0.010247645,0.071484886,0.07149576,0.17166792,1.3519418e-11,1.0352506e-11,2.2904498e-11,5.4631588e-08,6.330948e-08,5.00007e-08,0.00064258795,1.749466e-05,0.00068456226,0.00036019972,0.00049473235,0.0006658804,0.0,0.0,24
21808140000,21808060000,0.86301523,0.008037539,0.04033943,-0.5035007,-0.26246944,0.26353177,-1.0189577,-195.4961,349.05048,-376.56155,5.011566e-06,-3.2423914e-06,-6.02129e-06,-0.00010519361,-0.00010481063,0.00032306134,0.19214663,-0.016647207,0.48575845,0.014157326,-0.009310203,0.0013665973,0.0,0.0,1.988435e-05,6.4475125e-06,6.099111e-06,5.2929543e-05,0.012068856,0.010430077,0.008796054,0.0659193,0.065843575,0.16717432,1.3955495e-11,1.03883594e-11,2.076564e-11,5.4242374e-08,6.2853275e-08,5.0000388e-08,0.0004606141,1.572657e-05,0.0005254919,0.00021745365,0.00035444825,0.00051522616,0.0,0.0,24
21809140000,21809060000,0.8487159,-0.09432689,-0.14610112,-0.49943805,0.51304734,-0.9761807,0.11324883,-195.4887,348.84274,-376.93924,5.042726e-06,-3.3146969e-06,-5.755889e-06,-9.991091e-05,-9.058802e-05,0.000323416,0.19409715,-0.016866462,0.48576275,0.015310165,-0.010099505,0.00015322032,0.0,0.0,1.9426245e-05,5.212567e-06,5.444605e-06,5.1342664e-05,0.012653932,0.011836114,0.009235865,0.06760014,0.067379065,0.1655248,1.444014e-11,1.0495416e-11,2.0233874e-11,5.230201e-08,6.0643146e-08,5.0000075e-08,0.0004308598,1.5186363e-05,0.00048149214,0.00018710717,0.00032517556,0.00047306513,0.0,0.0,24
21810140000,21810060000,0.856526,-0.06341928,-0.112024605,-0.49979162,0.891463,-1.6653984,0.7740213,-194.73175,347.35898,-376.4213,5.0956246e-06,-3.1577772e-06,-5.615987e-06,-0.00011292531,-7.699385e-05,0.00033679625,0.19472355,-0.016938133,0.4858591,0.015148094,-0.010440483,-0.0006842713,0.0,0.0,1.9359e-05,4.875048e-06,4.968449e-06,5.217105e-05,0.012716349,0.012448693,0.010364205,0.069428906,0.06916363,0.16433798,1.4875661e-11,1.0665795e-11,2.03425e-11,5.0000175e-08,5.7639735e-08,5.0000146e-08,0.00041725737,1.4830326e-05,0.00045400526,0.00017661456,0.0003120321,0.0004440934,0.0,0.0,24
21811140000,21811060000,0.86481327,-0.013531864,-0.050725408,-0.4993415,0.7184192,-1.051634,1.0158138,-193.85214,345.88754,-375.5337,5.029761e-06,-2.8834008e-06,-5.588658e-06,-0.00013404948,-8.187579e-05,0.00036267925,0.19465119,-0.016936786,0.48602042,0.014928328,-0.01055235,-0.0007215798,0.0,0.0,1.9547035e-05,5.426481e-06,5.1640422e-06,5.323647e-05,0.013720512,0.012970627,0.011773403,0.07172716,0.07159054,0.16436522,1.5008519e-11,1.0894932e-11,2.0736158e-11,5.0000036e-08,5.4623985e-08,5.0000036e-08,0.00041150142,1.4574851e-05,0.0004443087,0.00016980105,0.00030436134,0.00043624584,0.0,0.0,24
21812140000,21812060000,0.86475575,0.008200041,-0.0067975535,-0.5020797,0.34023204,-0.5239427,1.0770859,-193.27284,345.0743,-374.56534,4.7596172e-06,-2.7068454e-06,-5.397739e-06,-0.00014084972,-9.61392e-05,0.0004087472,0.19483408,-0.016969088,0.48641726,0.0147259515,-0.010879708,-0.00047393015,0.0,0.0,1.9264813e-05,5.9903136e-06,5.332941e-06,5.1570187e-05,0.014701246,0.0133559555,0.013097287,0.07411685,0.0740373,0.16571331,1.4706127e-11,1.1142639e-11,2.0776745e-11,5.000007e-08,5.2168886e-08,5.000007e-08,0.00040418233,1.4289355e-05,0.0004264955,0.00016190784,0.00029742534,0.00042042971,0.0,0.0,24
21813140000,21813060000,0.86450243,0.011509932,0.014427629,-0.50228983,0.041240916,-0.09594626,1.0616324,-193.02414,344.79184,-373.60864,4.3502614e-06,-2.5805784e-06,-5.0547046e-06,-0.00013958459,-0.000110258625,0.00047698882,0.19511633,-0.01701007,0.48660302,0.0145632,-0.0112865465,-0.0002438847,0.0,0.0,1.7470999e-05,5.7857064e-06,5.135242e-06,4.6270798e-05,0.012363208,0.011323876,0.013183894,0.067553416,0.06750981,0.16439527,1.3951391e-11,1.1316238e-11,2.0152388e-11,5.0000146e-08,5.049201e-08,5.0000146e-08,0.0,0.0,0.0,0.0,0.0,0.0,0.0,0.0,24
21814140000,21814060000,0.8650509,0.0063372566,0.009727988,-0.5015498,-0.061849717,-0.00034445804,1.0821925,-193.02402,344.785,-372.6113,4.1455296e-06,-2.59152e-06,-4.9042496e-06,-0.00013523993,-0.00011466655,0.0005235998,0.19511633,-0.01701007,0.48660302,0.0145632,-0.0112865465,-0.0002438847,0.0,0.0,1.6269514e-05,5.656484e-06,5.2220257e-06,4.3002598e-05,0.01184794,0.0110968,0.013761509,0.069347076,0.069263846,0.16544029,1.3553509e-11,1.1526403e-11,1.9785422e-11,5.000011e-08,5.0000498e-08,5.000011e-08,0.0,0.0,0.0,0.0,0.0,0.0,0.0,0.0,24
21815140000,21815060000,0.8654161,0.004811624,0.0026775459,-0.5010237,-0.049199786,-0.01479563,1.067614,-193.09827,344.7983,-371.60364,4.217344e-06,-2.6938274e-06,-4.998866e-06,-0.00013096211,-0.00011367325,0.00056333165,0.19511633,-0.01701007,0.48660302,0.0145632,-0.0112865465,-0.0002438847,0.0,0.0,1.5623298e-05,5.6821596e-06,5.4108896e-06,4.1208834e-05,0.011493557,0.010963487,0.014174885,0.07111132,0.0709819,0.16874462,1.3276069e-11,1.168877e-11,1.9664274e-11,5e-08,5.000056e-08,5e-08,0.0,0.0,0.0,0.0,0.0,0.0,0.0,0.0,24
21816140000,21816060000,0.8654073,0.005538878,-0.00087794976,-0.50103784,0.009161248,-0.0362154,1.0759109,-193.12935,344.7889,-370.60718,4.270057e-06,-2.787209e-06,-5.079036e-06,-0.0001289438,-0.000113336755,0.0006004799,0.19511633,-0.01701007,0.48660302,0.0145632,-0.0112865465,-0.0002438847,0.0,0.0,1.5346746e-05,5.851451e-06,5.658336e-06,4.044841e-05,0.011572134,0.011178621,0.014586211,0.07339654,0.073220626,0.17424983,1.3084322e-11,1.1815141e-11,1.9712043e-11,5.0000335e-08,5.000125e-08,5.000026e-08,0.0,0.0,0.0,0.0,0.0,0.0,0.0,0.0,24
21817140000,21817060000,0.8653683,0.006397164,-0.0018458755,-0.5010923,0.024169652,-0.034015886,1.0591714,-193.12802,344.76657,-369.62524,4.3721416e-06,-2.8895886e-06,-5.1901893e-06,-0.00012860289,-0.00011341639,0.00064172054,0.19511633,-0.01701007,0.48660302,0.0145632,-0.0112865465,-0.0002438847,0.0,0.0,1.5200769e-05,5.7890943e-06,5.654564e-06,4.0114843e-05,0.010124525,0.009903516,0.013782637,0.067041025,0.06693589,0.1716446,1.269527e-11,1.1740121e-11,1.9816045e-11,5.0000306e-08,5.000042e-08,5.0000224e-08,0.0,0.0,0.0,0.0,0.0,0.0,0.0,0.0,24
21818140000,21818060000,0.86538965,0.008666937,0.0012571629,-0.501023,0.021749726,-0.017197901,1.04082,-193.10254,344.71738,-368.59982,4.4683056e-06,-2.7889923e-06,-5.2766964e-06,-0.00012866477,-0.00011400348,0.00065075856,0.19511633,-0.01701007,0.48660302,0.0145632,-0.0112865465,-0.0002438847,0.0,0.0,1.5261667e-05,5.896009e-06,5.7912803e-06,4.0384388e-05,0.010273778,0.010108266,0.013901691,0.06837721,0.06826823,0.17349188,1.2462838e-11,1.1711267e-11,2.0008283e-11,5.0000388e-08,5.0000505e-08,5.0000185e-08,0.0,0.0,0.0,0.0,0.0,0.0,0.0,0.0,24
21819140000,21819060000,0.8652083,0.01047509,0.0019027074,-0.5012995,0.0022781638,0.015215127,1.0371552,-193.07692,344.69778,-367.6124,4.4819662e-06,-2.6444466e-06,-5.3263993e-06,-0.00012843547,-0.00011406939,0.00066924945,0.19511633,-0.01701007,0.48660302,0.0145632,-0.0112865465,-0.0002438847,0.0,0.0,1.538284e-05,5.9744766e-06,5.9032595e-06,4.0753082e-05,0.0105817355,0.010453701,0.014083562,0.07015116,0.070041455,0.175237,1.2244037e-11,1.16548195e-11,2.0205112e-11,5.000051e-08,5.0000548e-08,5.000015e-08,0.0,0.0,0.0,0.0,0.0,0.0,0.0,0.0,24
21820140000,21820060000,0.86522174,0.009163113,0.003165142,-0.5012957,-0.01433355,0.025091533,1.0479847,-193.04588,344.70273,-366.62686,4.3479713e-06,-2.446954e-06,-5.332206e-06,-0.00012732288,-0.00011237283,0.00068849645,0.19511633,-0.01701007,0.48660302,0.0145632,-0.0112865465,-0.0002438847,0.0,0.0,1.5565445e-05,6.0205225e-06,5.9734602e-06,4.137173e-05,0.010900374,0.010805518,0.01428159,0.07199386,0.0718905,0.1768526,1.2032314e-11,1.1572452e-11,2.04281e-11,5.0000622e-08,5.000062e-08,5.000022e-08,0.0,0.0,0.0,0.0,0.0,0.0,0.0,0.0,24
21821140000,21821060000,0.8653476,0.008783085,0.0028990428,-0.5010869,-0.030438667,0.016577896,1.0455389,-193.04192,344.71002,-365.61795,4.229716e-06,-2.2837423e-06,-5.3404947e-06,-0.00012611304,-0.00011071097,0.00070380495,0.19511633,-0.01701007,0.48660302,0.0145632,-0.0112865465,-0.0002438847,0.0,0.0,1.5763622e-05,5.819992e-06,5.8061896e-06,4.20641e-05,0.009865233,0.009810062,0.01355675,0.0662557,0.0661948,0.17318001,1.1677812e-11,1.133807e-11,2.064935e-11,5.0000445e-08,5.0000438e-08,5.000011e-08,0.0,0.0,0.0,0.0,0.0,0.0,0.0,0.0,24
21822140000,21822060000,0.8653161,0.008657998,0.0020422894,-0.50114757,-0.02733631,0.015280791,1.0381993,-193.04015,344.7112,-364.619,4.0897394e-06,-2.111801e-06,-5.374069e-06,-0.00012451377,-0.00010867485,0.0007190363,0.19511633,-0.01701007,0.48660302,0.0145632,-0.0112865465,-0.0002438847,0.0,0.0,1.601249e-05,5.799963e-06,5.807222e-06,4.2805324e-05,0.010108334,0.010065879,0.013730692,0.067772835,0.067719944,0.1741851,1.14905516e-11,1.1223955e-11,2.0873131e-11,5.0000462e-08,5.0000473e-08,5.0000075e-08,0.0,0.0,0.0,0.0,0.0,0.0,0.0,0.0,24
21823140000,21823060000,0.86525685,0.009923389,0.0034169673,-0.5012189,-0.03446816,0.010321022,1.0294212,-193.03464,344.70987,-363.60965,3.9374245e-06,-1.9447423e-06,-5.430015e-06,-0.0001226615,-0.00010649354,0.0007295112,0.19511633,-0.01701007,0.48660302,0.0145632,-0.0112865465,-0.0002438847,0.0,0.0,1.6274189e-05,5.7738916e-06,5.797014e-06,4.3558175e-05,0.010348206,0.010316404,0.013917978,0.06932239,0.06927702,0.17525168,1.1327357e-11,1.1115097e-11,2.1088877e-11,5.000053e-08,5.0000555e-08,5.0000146e-08,0.0,0.0,0.0,0.0,0.0,0.0,0.0,0.0,24
21824140000,21824060000,0.8653374,0.008684735,0.0049744467,-0.50109,-0.034420524,0.01447754,1.0263841,-193.03944,344.71548,-362.59106,3.808614e-06,-1.8310734e-06,-5.4688217e-06,-0.00012115024,-0.00010473681,0.0007304561,0.19511633,-0.01701007,0.48660302,0.0145632,-0.0112865465,-0.0002438847,0.0,0.0,1.65245e-05,5.776007e-06,5.80672e-06,4.433244e-05,0.010736425,0.010712011,0.01416446,0.07137449,0.07133401,0.17638701,1.1209046e-11,1.1035917e-11,2.1293916e-11,5.0000544e-08,5.0000583e-08,5.0000075e-08,0.0,0.0,0.0,0.0,0.0,0.0,0.0,0.0,24
21825140000,21825060000,0.8653929,0.0074363207,0.0025718196,-0.5010322,-0.033576533,0.019386245,1.0021305,-193.06232,344.72644,-361.57773,3.7572609e-06,-1.7695506e-06,-5.537239e-06,-0.00012016752,-0.00010401487,0.00072589883,0.19511633,-0.01701007,0.48660302,0.0145632,-0.0112865465,-0.0002438847,0.0,0.0,1.6781389e-05,5.773528e-06,5.811356e-06,4.5096305e-05,0.011119397,0.011101647,0.0143923005,0.073452815,0.07341699,0.17733705,1.1109589e-11,1.0965552e-11,2.1487041e-11,5.0001233e-08,5.000135e-08,5.0000036e-08,0.0,0.0,0.0,0.0,0.0,0.0,0.0,0.0,24
21826140000,21826060000,0.86535007,0.0075282194,0.0009414658,-0.5011105,-0.01514702,0.004861101,1.0052538,-193.08243,344.7189,-360.57407,3.7944976e-06,-1.6559612e-06,-5.6059607e-06,-0.00011865792,-0.00010436991,0.00072355324,0.19511633,-0.01701007,0.48660302,0.0145632,-0.0112865465,-0.0002438847,0.0,0.0,1.7042914e-05,5.5309624e-06,5.572623e-06,4.5840094e-05,0.009906086,0.009897378,0.013619194,0.06713831,0.06711805,0.17305465,1.0870435e-11,1.07522845e-11,2.166743e-11,5.0000427e-08,5.0000473e-08,5e-08,0.0,0.0,0.0,0.0,0.0,0.0,0.0,0.0,24
21827140000,21827060000,0.86537176,0.008262968,0.00083837914,-0.5010617,0.00031801537,0.010352644,0.9895544,-193.09195,344.70123,-359.5533,3.8885323e-06,-1.5365744e-06,-5.703973e-06,-0.000116955984,-0.000105266445,0.0007093831,0.19511633,-0.01701007,0.48660302,0.0145632,-0.0112865465,-0.0002438847,0.0,0.0,1.7297742e-05,5.5251903e-06,5.5677833e-06,4.6576e-05,0.010179124,0.010173417,0.013900177,0.068794124,0.068776764,0.17635387,1.0800033e-11,1.06970075e-11,2.1835915e-11,5.0000487e-08,5.0000505e-08,5.000022e-08,0.0,0.0,0.0,0.0,0.0,0.0,0.0,0.0,24
21828140000,21828060000,0.86525524,0.009717975,0.00033753825,-0.50123745,0.0066278935,0.028457774,0.9711208,-193.0911,344.68286,-358.56696,4.0053205e-06,-1.3595875e-06,-5.7796246e-06,-0.000114863455,-0.00010636986,0.00070368854,0.19511633,-0.01701007,0.48660302,0.0145632,-0.0112865465,-0.0002438847,0.0,0.0,1.7557752e-05,5.525658e-06,5.5687783e-06,4.7285237e-05,0.010455661,0.010450976,0.014104556,0.07050899,0.070494324,0.17724846,1.0744201e-11,1.06534555e-11,2.1991652e-11,5.0000544e-08,5.000058e-08,5.000018e-08,0.0,0.0,0.0,0.0,0.0,0.0,0.0,0.0,24
21829140000,21829060000,0.86530906,0.0098398,0.0018888357,-0.5011385,0.0011789162,0.04078924,0.98152167,-193.07959,344.68362,-357.56143,4.0585555e-06,-1.1942586e-06,-5.8460296e-06,-0.00011300127,-0.000106800966,0.0006905867,0.19511633,-0.01701007,0.48660302,0.0145632,-0.0112865465,-0.0002438847,0.0,0.0,1.779288e-05,5.5711857e-06,5.6113777e-06,4.7997124e-05,0.010916527,0.010912324,0.014378746,0.07281448,0.07280151,0.17832744,1.07258855e-11,1.0645316e-11,2.2134647e-11,5.0001262e-08,5.0001308e-08,5.0000224e-08,0.0,0.0,0.0,0.0,0.0,0.0,0.0,0.0,24
21830140000,21830060000,0.865298,0.010191204,0.0014530895,-0.50115216,-0.0041237776,0.041606996,0.97770685,-193.08353,344.67438,-356.55887,4.17824e-06,-9.977548e-07,-5.9101108e-06,-0.00011103493,-0.00010778028,0.00067896245,0.19511633,-0.01701007,0.48660302,0.0145632,-0.0112865465,-0.0002438847,0.0,0.0,1.8026332e-05,5.3759527e-06,5.4135e-06,4.8682417e-05,0.009780528,0.009777806,0.013635109,0.06671995,0.06671261,0.17427689,1.0560096e-11,1.0491121e-11,2.2265013e-11,5.0000434e-08,5.000043e-08,5.0000185e-08,0.0,0.0,0.0,0.0,0.0,0.0,0.0,0.0,24
21831140000,21831060000,0.86528605,0.010580307,0.0021434526,-0.5011622,0.001016248,0.036632616,0.97019345,-193.08083,344.68527,-355.56122,4.232133e-06,-8.703931e-07,-5.9691483e-06,-0.00010986118,-0.00010816596,0.000668116,0.19511633,-0.01701007,0.48660302,0.0145632,-0.0112865465,-0.0002438847,0.0,0.0,1.8252955e-05,5.3826448e-06,5.4181187e-06,4.9350605e-05,0.00998717,0.009985137,0.013807832,0.068124875,0.06811887,0.17520133,1.0527949e-11,1.0467367e-11,2.2384374e-11,5.0000505e-08,5.00005e-08,5.0000185e-08,0.0,0.0,0.0,0.0,0.0,0.0,0.0,0.0,24
21832140000,21832060000,0.865191,0.010308496,0.00013444925,-0.5013366,-0.01009687,0.02846984,0.9878115,-193.07657,344.69827,-354.57718,4.252436e-06,-7.491322e-07,-5.9556587e-06,-0.000108857785,-0.00010835776,0.000665839,0.19511633,-0.01701007,0.48660302,0.0145632,-0.0112865465,-0.0002438847,0.0,0.0,1.8420533e-05,5.413096e-06,5.447819e-06,4.985451e-05,0.010302659,0.010301257,0.013961825,0.06995353,0.06994843,0.17392847,1.05161956e-11,1.0463045e-11,2.2464135e-11,5.000054e-08,5.0000526e-08,5e-08,0.0,0.0,0.0,0.0,0.0,0.0,0.0,0.0,24
21833140000,21833060000,0.8651423,0.011737049,0.00015351833,-0.5013892,-0.010441722,0.025942875,1.0053763,-193.06755,344.7061,-353.58304,4.19645e-06,-6.360804e-07,-5.9411163e-06,-0.00010799201,-0.000108042084,0.0006650101,0.19511633,-0.01701007,0.48660302,0.0145632,-0.0112865465,-0.0002438847,0.0,0.0,1.862483e-05,5.4481516e-06,5.4836796e-06,5.0489394e-05,0.010627963,0.010626722,0.014279355,0.07183345,0.07182924,0.17774841,1.051048e-11,1.04640055e-11,2.2562697e-11,5.0000622e-08,5.0000594e-08,5.000022e-08,0.0,0.0,0.0,0.0,0.0,0.0,0.0,0.0,24
21834140000,21834060000,0.86520976,0.010403424,0.0018557083,-0.5012986,-0.012528584,0.016306398,0.9962822,-193.04903,344.71576,-352.59595,4.0783357e-06,-5.063026e-07,-5.943739e-06,-0.00010706117,-0.000107318294,0.0006708258,0.19511633,-0.01701007,0.48660302,0.0145632,-0.0112865465,-0.0002438847,0.0,0.0,1.88139e-05,5.3000285e-06,5.3318e-06,5.111439e-05,0.00964819,0.009647654,0.013574245,0.06616315,0.06616072,0.1739187,1.0393409e-11,1.0354257e-11,2.2651431e-11,5.000044e-08,5.0000427e-08,5.0000185e-08,0.0,0.0,0.0,0.0,0.0,0.0,0.0,0.0,24
