timestamp,roll,pitch,yaw,thrust_body[0],thrust_body[1],thrust_body[2]
21726360000,-0.037682865,0.03275719,-2.6342874e-05,0.0,0.0,-0.001
21726364000,-0.03775301,0.032819606,-3.6378427e-05,0.0,0.0,-0.001
21726376000,-0.038137853,0.033025324,1.2221701e-05,0.0,0.0,-0.001
21726396000,-0.037807334,0.03343085,-6.84861e-05,0.0,0.0,-0.001
21726420000,-0.037533354,0.033361476,7.718509e-05,0.0,0.0,-0.001
21726436000,-0.037458226,0.034154985,-7.561844e-05,0.0,0.0,-0.001
21726456000,-0.03744176,0.034027107,-8.0790405e-06,0.0,0.0,-0.001
21726480000,-0.03771171,0.034266755,-2.7278926e-05,0.0,0.0,-0.001
21726496000,-0.03787159,0.03434038,1.1697509e-05,0.0,0.0,-0.001
21726516000,-0.037411995,0.03503988,-0.00011295078,0.0,0.0,-0.001
21726540000,-0.037738875,0.034811087,-7.775977e-05,0.0,0.0,-0.001
21726560000,-0.037396148,0.034856934,-1.4849316e-05,0.0,0.0,-0.001
21726580000,-0.037764464,0.035412,1.1577868e-05,0.0,0.0,-0.001
21726596000,-0.03750729,0.035868455,-5.714021e-05,0.0,0.0,-0.001
21726620000,-0.037332833,0.036153972,-0.000106069594,0.0,0.0,-0.001
21726636000,-0.037209086,0.03580628,-4.755422e-05,0.0,0.0,-0.001
21726660000,-0.036437668,0.035466723,-0.00013862575,0.0,0.0,-0.001
21726676000,-0.036440227,0.03567102,-4.917006e-06,0.0,0.0,-0.001
21726700000,-0.03658278,0.03593871,4.3856413e-05,0.0,0.0,-0.001
21726720000,-0.036450427,0.035683095,-3.645264e-05,0.0,0.0,-0.001
21726740000,-0.037060246,0.035631165,-7.492989e-05,0.0,0.0,-0.001
21726760000,-0.036766358,0.036061674,-3.2465086e-05,0.0,0.0,-0.001
21726776000,-0.03683617,0.036454253,1.6808654e-06,0.0,0.0,-0.001
21726796000,-0.03723094,0.03747947,4.9190247e-05,0.0,0.0,-0.001
21726816000,-0.037735555,0.03714103,-3.8893377e-05,0.0,0.0,-0.001
21726836000,-0.03791362,0.036915097,-1.6254804e-05,0.0,0.0,-0.001
21726856000,-0.037870646,0.03611247,-6.718621e-05,0.0,0.0,-0.001
21726876000,-0.037616014,0.036172982,-1.2642817e-05,0.0,0.0,-0.001
21726896000,-0.037816435,0.035884455,-2.9013325e-05,0.0,0.0,-0.001
21726920000,-0.037005845,0.035286166,-1.2182451e-05,0.0,0.0,-0.001
21726940000,-0.037101075,0.034920678,7.3117467e-06,0.0,0.0,-0.001
21726956000,-0.03769201,0.03430108,4.3459193e-05,0.0,0.0,-0.001
21726976000,-0.03781421,0.034305558,-2.524e-05,0.0,0.0,-0.001
21727000000,-0.037820205,0.03460301,-3.1772215e-05,0.0,0.0,-0.001
21727020000,-0.037380993,0.03469771,-4.6239096e-05,0.0,0.0,-0.001
21727040000,-0.037767243,0.035435926,-8.766286e-05,0.0,0.0,-0.001
21727056000,-0.03755945,0.036367875,-2.2686032e-05,0.0,0.0,-0.001
21727076000,-0.037969634,0.03637485,1.3133416e-08,0.0,0.0,-0.001
21727096000,-0.037730608,0.035845216,-5.0407005e-05,0.0,0.0,-0.001
21727116000,-0.03738809,0.03583241,-3.501986e-05,0.0,0.0,-0.001
21727140000,-0.037274145,0.03522602,-1.0857116e-06,0.0,0.0,-0.001
21727156000,-0.03694258,0.034621067,-8.8779416e-05,0.0,0.0,-0.001
21727176000,-0.03723989,0.03424729,-2.1291564e-05,0.0,0.0,-0.001
21727196000,-0.037107985,0.03466798,-4.6737005e-05,0.0,0.0,-0.001
21727216000,-0.037276704,0.034860577,-5.074273e-06,0.0,0.0,-0.001
21727236000,-0.037203312,0.034859873,1.1462037e-05,0.0,0.0,-0.001
21727256000,-0.037148423,0.035364807,-3.2523738e-05,0.0,0.0,-0.001
21727276000,-0.037515104,0.035571933,9.835295e-05,0.0,0.0,-0.001
21727300000,-0.0375061,0.035992097,-8.85016e-05,0.0,0.0,-0.001
21727316000,-0.03773686,0.036134664,-1.9950612e-06,0.0,0.0,-0.001
21727336000,-0.038014352,0.036064755,-2.028652e-06,0.0,0.0,-0.001
21727356000,-0.038091782,0.03596001,2.9598345e-06,0.0,0.0,-0.001
21727376000,-0.037557293,0.036636427,-6.794857e-05,0.0,0.0,-0.001
21727396000,-0.037427336,0.036724214,-2.1528433e-05,0.0,0.0,-0.001
21727420000,-0.037466306,0.036729906,-4.4213495e-05,0.0,0.0,-0.001
21727436000,-0.037621256,0.037056338,5.613544e-05,0.0,0.0,-0.001
21727460000,-0.037527144,0.037170216,1.5477193e-05,0.0,0.0,-0.001
21727476000,-0.03780941,0.037532564,-7.316875e-05,0.0,0.0,-0.001
21727496000,-0.038337473,0.037243772,4.9003233e-05,0.0,0.0,-0.001
21727516000,-0.03880748,0.036881458,-1.9543277e-05,0.0,0.0,-0.001
21727540000,-0.038822193,0.03675858,-4.7187164e-05,0.0,0.0,-0.001
21727556000,-0.038979314,0.0364313,-7.0145354e-05,0.0,0.0,-0.001
21727576000,-0.039176323,0.036939595,-2.9084924e-06,0.0,0.0,-0.001
21727596000,-0.039268054,0.036966216,-4.262859e-05,0.0,0.0,-0.001
21727616000,-0.03976251,0.03727966,-4.5625817e-05,0.0,0.0,-0.001
21727640000,-0.03945592,0.03743203,-3.3945693e-05,0.0,0.0,-0.001
21727660000,-0.038758032,0.03789301,7.261736e-05,0.0,0.0,-0.001
21727680000,-0.038406182,0.038452093,-9.817659e-05,0.0,0.0,-0.001
21727696000,-0.03916145,0.039189056,2.1205886e-05,0.0,0.0,-0.001
21727716000,-0.038746852,0.03890498,-7.490467e-05,0.0,0.0,-0.001
21727736000,-0.0382892,0.03910682,1.5961454e-05,0.0,0.0,-0.001
21727756000,-0.038498055,0.038531713,1.8286302e-05,0.0,0.0,-0.001
21727776000,-0.038627956,0.037932884,-6.793048e-05,0.0,0.0,-0.001
21727796000,-0.0392362,0.03811654,4.9350107e-05,0.0,0.0,-0.001
21727816000,-0.03933316,0.038233113,-1.0380707e-05,0.0,0.0,-0.001
21727836000,-0.03918997,0.038555466,7.5652344e-05,0.0,0.0,-0.001
21727860000,-0.040382173,0.03879535,-7.266862e-05,0.0,0.0,-0.001
21727880000,-0.040753767,0.03858383,-1.6961418e-05,0.0,0.0,-0.001
21727900000,-0.04029271,0.038363613,-0.00013195924,0.0,0.0,-0.001
21727920000,-0.039685126,0.03757279,-6.6452217e-06,0.0,0.0,-0.001
21727936000,-0.039313227,0.03821751,-6.209894e-05,0.0,0.0,-0.001
21727956000,-0.038770568,0.038593307,-2.2758937e-05,0.0,0.0,-0.001
21727976000,-0.03813633,0.038565695,9.926468e-06,0.0,0.0,-0.001
21727996000,-0.038187306,0.03849231,3.966239e-05,0.0,0.0,-0.001
21728016000,-0.03841481,0.03885389,4.4585763e-06,0.0,0.0,-0.001
21728036000,-0.03903872,0.038908314,-2.0936184e-05,0.0,0.0,-0.001
21728060000,-0.039751332,0.039352156,8.836988e-05,0.0,0.0,-0.001
21728076000,-0.039363753,0.039913535,-2.904054e-05,0.0,0.0,-0.001
21728100000,-0.039358635,0.039907206,-0.000106277934,0.0,0.0,-0.001
21728116000,-0.039894547,0.03986305,-0.00012027252,0.0,0.0,-0.001
21728136000,-0.039675783,0.03968623,-3.8673854e-05,0.0,0.0,-0.001
21728160000,-0.039055653,0.039116614,-6.0213206e-05,0.0,0.0,-0.001
21728176000,-0.039104134,0.038594678,8.45758e-06,0.0,0.0,-0.001
21728196000,-0.039018735,0.03881414,-1.05615945e-05,0.0,0.0,-0.001
21728216000,-0.038955193,0.038190495,-6.87441e-05,0.0,0.0,-0.001
21728236000,-0.039577916,0.03856641,-8.918682e-05,0.0,0.0,-0.001
21728256000,-0.03967121,0.038872782,-7.739603e-06,0.0,0.0,-0.001
21728276000,-0.0399719,0.03838391,-0.0001275246,0.0,0.0,-0.001
21728300000,-0.039698347,0.03851877,-2.6200243e-05,0.0,0.0,-0.001
21728316000,-0.039815348,0.038170982,8.4420535e-05,0.0,0.0,-0.001
21728336000,-0.03960678,0.037597694,-4.5405697e-05,0.0,0.0,-0.001
21728356000,-0.039340798,0.037210364,-7.888223e-05,0.0,0.0,-0.001
21728380000,-0.039699785,0.0372566,-5.2537962e-05,0.0,0.0,-0.001
21728396000,-0.03960355,0.03696525,8.6939326e-05,0.0,0.0,-0.001
21728416000,-0.039617132,0.036664564,-4.5546993e-05,0.0,0.0,-0.001
21728436000,-0.03962806,0.036231726,5.070545e-05,0.0,0.0,-0.001
21728456000,-0.038530428,0.03702443,2.1852273e-05,0.0,0.0,-0.001
21728476000,-0.038847648,0.03703243,-2.9039305e-05,0.0,0.0,-0.001
21728496000,-0.039300054,0.036872566,-7.227113e-05,0.0,0.0,-0.001
21728516000,-0.038857367,0.037087858,-7.355916e-05,0.0,0.0,-0.001
21728536000,-0.03886065,0.037764173,-2.4741816e-05,0.0,0.0,-0.001
21728556000,-0.03908383,0.0377983,3.8207403e-05,0.0,0.0,-0.001
21728580000,-0.039733045,0.038083017,9.826454e-06,0.0,0.0,-0.001
21728596000,-0.039401688,0.03855498,-4.9483948e-05,0.0,0.0,-0.001
21728616000,-0.03926219,0.038164496,9.67235e-06,0.0,0.0,-0.001
21728636000,-0.040037934,0.038690925,-0.00014482415,0.0,0.0,-0.001
21728660000,-0.04026178,0.03784777,1.55271e-05,0.0,0.0,-0.001
21728676000,-0.04085038,0.03722775,-1.7133143e-05,0.0,0.0,-0.001
21728696000,-0.040786654,0.036899406,-2.6856864e-05,0.0,0.0,-0.001
21728716000,-0.04163934,0.03814936,-1.9292045e-05,0.0,0.0,-0.001
21728736000,-0.041116726,0.038580764,-0.00010158661,0.0,0.0,-0.001
21728756000,-0.042026453,0.039032053,2.1331174e-05,0.0,0.0,-0.001
21728776000,-0.04199359,0.039247558,-4.7719877e-05,0.0,0.0,-0.001
21728796000,-0.04255039,0.039647378,-4.5598274e-05,0.0,0.0,-0.001
21728816000,-0.0426237,0.039918117,-1.5602574e-05,0.0,0.0,-0.001
21728836000,-0.042796697,0.039766565,5.8712107e-05,0.0,0.0,-0.001
21728856000,-0.042970218,0.039686844,1.1834577e-05,0.0,0.0,-0.001
21728876000,-0.043894157,0.039732963,-0.00013921066,0.0,0.0,-0.001
21728900000,-0.04339167,0.039864037,-3.2879478e-05,0.0,0.0,-0.001
21728916000,-0.043142933,0.040392965,-8.810969e-05,0.0,0.0,-0.001
21728940000,-0.043581523,0.040841267,-0.00010133061,0.0,0.0,-0.001
21728956000,-0.042270947,0.04098075,8.318175e-05,0.0,0.0,-0.001
21728980000,-0.04297894,0.04072731,-1.4804664e-05,0.0,0.0,-0.001
21729000000,-0.04238923,0.040143277,-4.863373e-05,0.0,0.0,-0.001
21729020000,-0.043638296,0.04041855,-2.4656856e-05,0.0,0.0,-0.001
21729040000,-0.04338053,0.04062535,-3.413977e-05,0.0,0.0,-0.001
21729056000,-0.04342061,0.040687595,-3.8514595e-06,0.0,0.0,-0.001
21729076000,-0.042967774,0.040928505,-6.029928e-05,0.0,0.0,-0.001
21729096000,-0.043270532,0.040947266,-4.86333e-05,0.0,0.0,-0.001
21729116000,-0.043697692,0.040811565,5.0537303e-05,0.0,0.0,-0.001
21729136000,-0.04378505,0.040505793,-1.7597575e-05,0.0,0.0,-0.001
21729156000,-0.044316407,0.0398721,8.188478e-05,0.0,0.0,-0.001
21729176000,-0.043979965,0.040251426,2.4186069e-05,0.0,0.0,-0.001
21729196000,-0.044289004,0.0401811,4.35382e-05,0.0,0.0,-0.001
21729216000,-0.045267817,0.04015507,-2.9576393e-05,0.0,0.0,-0.001
21729236000,-0.044148237,0.04015747,1.1466336e-05,0.0,0.0,-0.001
21729256000,-0.045274757,0.03942156,-2.5945968e-05,0.0,0.0,-0.001
21729276000,-0.046030585,0.03980941,-2.2224642e-05,0.0,0.0,-0.001
21729296000,-0.046555024,0.040244214,5.3057984e-06,0.0,0.0,-0.001
21729316000,-0.04669083,0.040211286,4.327826e-05,0.0,0.0,-0.001
21729336000,-0.0459868,0.040037178,-2.5124997e-05,0.0,0.0,-0.001
21729356000,-0.0465331,0.03915814,-5.1837567e-05,0.0,0.0,-0.001
21729376000,-0.04636648,0.038808215,-8.307836e-05,0.0,0.0,-0.001
21729396000,-0.045486316,0.038099386,-3.668016e-05,0.0,0.0,-0.001
21729416000,-0.045939334,0.038009893,-2.6054937e-05,0.0,0.0,-0.001
21729436000,-0.04533059,0.037988726,3.9397455e-05,0.0,0.0,-0.001
21729456000,-0.04500409,0.03840907,3.95362e-06,0.0,0.0,-0.001
21729476000,-0.04534402,0.037958637,-7.444259e-05,0.0,0.0,-0.001
21729500000,-0.045500435,0.037839785,-3.905959e-05,0.0,0.0,-0.001
21729520000,-0.04544245,0.03798444,-6.135295e-05,0.0,0.0,-0.001
21729536000,-0.046066847,0.038488865,-6.183493e-05,0.0,0.0,-0.001
21729556000,-0.04525055,0.038449623,-4.388351e-05,0.0,0.0,-0.001
21729576000,-0.04472449,0.039312236,-7.490765e-05,0.0,0.0,-0.001
21729596000,-0.044921037,0.03911153,-1.3484359e-05,0.0,0.0,-0.001
21729616000,-0.046191454,0.03870512,-1.9851403e-05,0.0,0.0,-0.001
21729636000,-0.045959637,0.038507782,-2.3942375e-05,0.0,0.0,-0.001
21729656000,-0.04612027,0.0389214,-4.5241977e-05,0.0,0.0,-0.001
21729676000,-0.04624114,0.039171576,-4.7389453e-06,0.0,0.0,-0.001
21729700000,-0.04705713,0.03961153,-4.866928e-06,0.0,0.0,-0.001
21729716000,-0.046916675,0.03952625,-0.00013284755,0.0,0.0,-0.001
21729736000,-0.048144907,0.03919137,-6.61659e-05,0.0,0.0,-0.001
21729756000,-0.048035584,0.039047856,-3.7809466e-05,0.0,0.0,-0.001
21729776000,-0.04801229,0.038868103,-5.4199456e-05,0.0,0.0,-0.001
21729800000,-0.04811884,0.037813723,-4.0974373e-05,0.0,0.0,-0.001
21729816000,-0.048596248,0.03754455,-5.2288295e-05,0.0,0.0,-0.001
21729836000,-0.04836628,0.037487485,-2.1971258e-05,0.0,0.0,-0.001
21729860000,-0.04884128,0.036878083,-7.3059437e-06,0.0,0.0,-0.001
21729876000,-0.04907941,0.03682606,-1.2708165e-06,0.0,0.0,-0.001
21729896000,-0.049402025,0.03711553,-6.1229744e-05,0.0,0.0,-0.001
21729920000,-0.049206693,0.036538094,-0.00011478848,0.0,0.0,-0.001
21729936000,-0.049286004,0.036134686,-7.927042e-05,0.0,0.0,-0.001
21729956000,-0.049368024,0.035519924,-4.840152e-05,0.0,0.0,-0.001
21729976000,-0.05022028,0.034900457,3.134094e-05,0.0,0.0,-0.001
21729996000,-0.050496966,0.03489372,8.1440965e-05,0.0,0.0,-0.001
21730020000,-0.049995914,0.03517211,-2.0448055e-05,0.0,0.0,-0.001
21730036000,-0.049711756,0.03504461,-1.5719883e-05,0.0,0.0,-0.001
21730056000,-0.049113665,0.03517676,3.2063577e-05,0.0,0.0,-0.001
21730076000,-0.049654968,0.035239022,2.2849483e-05,0.0,0.0,-0.001
21730096000,-0.049292665,0.035330433,-1.3325432e-05,0.0,0.0,-0.001
21730120000,-0.049628656,0.035659753,-2.9433984e-05,0.0,0.0,-0.001
21730140000,-0.049836595,0.03545416,7.843537e-05,0.0,0.0,-0.001
21730160000,-0.049709365,0.035265543,-1.3070421e-05,0.0,0.0,-0.001
21730180000,-0.050810657,0.035208255,-6.370624e-05,0.0,0.0,-0.001
21730196000,-0.05111122,0.035160445,-2.9210974e-05,0.0,0.0,-0.001
21730216000,-0.05153822,0.03470017,-0.00012985872,0.0,0.0,-0.001
21730240000,-0.050745625,0.03554152,-3.0345618e-05,0.0,0.0,-0.001
21730256000,-0.050974376,0.035231933,2.9078616e-05,0.0,0.0,-0.001
21730276000,-0.050027028,0.034589224,-3.674451e-05,0.0,0.0,-0.001
21730296000,-0.04934594,0.033771116,-4.3325053e-05,0.0,0.0,-0.001
21730316000,-0.049105104,0.033589583,-3.884669e-05,0.0,0.0,-0.001
21730336000,-0.049847748,0.03268142,-9.8564575e-05,0.0,0.0,-0.001
21730356000,-0.04987206,0.032284934,-0.00020051003,0.0,0.0,-0.001
21730380000,-0.049998697,0.03199848,8.264671e-06,0.0,0.0,-0.001
21730396000,-0.04993078,0.031733174,-0.000114337265,0.0,0.0,-0.001
21730420000,-0.049841214,0.03236404,-0.00011143466,0.0,0.0,-0.001
21730436000,-0.050449863,0.032108966,3.453919e-05,0.0,0.0,-0.001
21730456000,-0.049427018,0.031789657,-5.456275e-05,0.0,0.0,-0.001
21730476000,-0.049370173,0.032134,3.761082e-05,0.0,0.0,-0.001
21730496000,-0.050111353,0.032583904,-9.139135e-05,0.0,0.0,-0.001
21730516000,-0.050532013,0.03251144,-0.00011806784,0.0,0.0,-0.001
21730536000,-0.050622232,0.03285797,-1.8947962e-05,0.0,0.0,-0.001
21730560000,-0.050739743,0.03275388,-3.0074445e-05,0.0,0.0,-0.001
21730576000,-0.050894085,0.03256119,8.570761e-06,0.0,0.0,-0.001
21730596000,-0.049957193,0.032143407,4.7344467e-05,0.0,0.0,-0.001
21730616000,-0.0500884,0.03180599,1.01970145e-05,0.0,0.0,-0.001
21730636000,-0.049855765,0.03163778,-2.7580554e-05,0.0,0.0,-0.001
21730656000,-0.04979556,0.03167128,-5.870453e-05,0.0,0.0,-0.001
21730676000,-0.049428377,0.03131965,-1.4551309e-05,0.0,0.0,-0.001
21730696000,-0.049484674,0.031297963,-4.1998523e-05,0.0,0.0,-0.001
21730716000,-0.050059766,0.031517327,-8.6232576e-05,0.0,0.0,-0.001
21730736000,-0.049685415,0.03215924,-1.5525857e-05,0.0,0.0,-0.001
21730760000,-0.050339308,0.03248331,7.3197333e-07,0.0,0.0,-0.001
21730776000,-0.051059633,0.033102117,-4.17455e-05,0.0,0.0,-0.001
21730796000,-0.05019737,0.032606762,-1.0250873e-05,0.0,0.0,-0.001
21730816000,-0.04968951,0.033015657,-9.80269e-05,0.0,0.0,-0.001
21730840000,-0.05037934,0.03388771,-3.0012388e-06,0.0,0.0,-0.001
21730860000,-0.050367333,0.034087155,3.2825796e-05,0.0,0.0,-0.001
21730880000,-0.049814142,0.03381905,-3.9444512e-05,0.0,0.0,-0.001
21730900000,-0.050314687,0.03348438,-1.3150598e-05,0.0,0.0,-0.001
21730916000,-0.05040736,0.03302751,4.167088e-06,0.0,0.0,-0.001
21730940000,-0.050141674,0.033084992,1.3750901e-05,0.0,0.0,-0.001
21730960000,-0.0499966,0.03311135,-2.6053935e-05,0.0,0.0,-0.001
21730976000,-0.049591005,0.032855377,5.2205007e-05,0.0,0.0,-0.001
21730996000,-0.04946684,0.032261837,-8.772573e-06,0.0,0.0,-0.001
21731020000,-0.05058444,0.031511758,2.4305456e-05,0.0,0.0,-0.001
21731036000,-0.050609987,0.03171674,-9.634857e-05,0.0,0.0,-0.001
21731056000,-0.051642917,0.031699944,2.0778503e-05,0.0,0.0,-0.001
21731080000,-0.051429033,0.032337867,-4.7697093e-05,0.0,0.0,-0.001
21731100000,-0.050800025,0.032613177,1.5851637e-07,0.0,0.0,-0.001
21731116000,-0.050690208,0.032446913,-8.2692655e-05,0.0,0.0,-0.001
21731140000,-0.05069311,0.03200045,2.0038899e-05,0.0,0.0,-0.001
21731160000,-0.050341945,0.03225485,-6.36417e-05,0.0,0.0,-0.001
21731180000,-0.050614126,0.032319102,-1.8085553e-05,0.0,0.0,-0.001
21731200000,-0.050581805,0.032617208,-4.4628694e-05,0.0,0.0,-0.001
21731220000,-0.050150145,0.033595853,-1.20627765e-05,0.0,0.0,-0.001
21731236000,-0.049977344,0.0337018,-0.00010942768,0.0,0.0,-0.001
21731260000,-0.049817715,0.03370011,-3.757092e-05,0.0,0.0,-0.001
21731280000,-0.04991418,0.034275476,-6.7626816e-06,0.0,0.0,-0.001
21731300000,-0.050125025,0.034393787,3.5671113e-05,0.0,0.0,-0.001
21731320000,-0.050087534,0.034431007,-5.324763e-05,0.0,0.0,-0.001
21731336000,-0.050178833,0.034333825,-1.0825861e-05,0.0,0.0,-0.001
21731360000,-0.05035377,0.03471143,-2.1264288e-05,0.0,0.0,-0.001
21731380000,-0.05019866,0.034564197,-2.911998e-05,0.0,0.0,-0.001
21731400000,-0.050689764,0.03419426,-4.639719e-05,0.0,0.0,-0.001
21731420000,-0.050148465,0.034319498,-9.927929e-05,0.0,0.0,-0.001
21731436000,-0.05011865,0.034280736,-1.3161611e-05,0.0,0.0,-0.001
21731456000,-0.051207196,0.034342572,3.61583e-05,0.0,0.0,-0.001
21731476000,-0.051005933,0.03440488,9.486057e-05,0.0,0.0,-0.001
21731500000,-0.051355254,0.03387191,-9.231297e-06,0.0,0.0,-0.001
21731516000,-0.05127636,0.03385023,-9.0379894e-05,0.0,0.0,-0.001
21731540000,-0.051044915,0.033250254,-2.1872394e-05,0.0,0.0,-0.001
21731556000,-0.049923833,0.03291087,-6.575848e-05,0.0,0.0,-0.001
21731580000,-0.050354496,0.033355992,-3.4117766e-05,0.0,0.0,-0.001
21731596000,-0.049812056,0.033339705,-0.00015714574,0.0,0.0,-0.001
21731616000,-0.04928955,0.032744147,-4.2263677e-05,0.0,0.0,-0.001
21731636000,-0.049384553,0.032132465,-3.4936995e-05,0.0,0.0,-0.001
21731660000,-0.04956588,0.03197774,-5.7293473e-06,0.0,0.0,-0.001
21731676000,-0.049848545,0.031752873,-7.173665e-05,0.0,0.0,-0.001
21731700000,-0.050484166,0.03227716,6.401308e-05,0.0,0.0,-0.001
21731716000,-0.050719745,0.03203101,-7.369106e-05,0.0,0.0,-0.001
21731740000,-0.0504115,0.031103522,3.1090458e-05,0.0,0.0,-0.001
21731760000,-0.050103787,0.03068332,-1.9868146e-05,0.0,0.0,-0.001
21731776000,-0.050303455,0.03033392,3.4059558e-05,0.0,0.0,-0.001
21731800000,-0.05055046,0.029996675,-9.097027e-05,0.0,0.0,-0.001
21731816000,-0.050684575,0.030153913,-9.694228e-05,0.0,0.0,-0.001
21731836000,-0.05176434,0.029813563,3.286589e-05,0.0,0.0,-0.001
21731856000,-0.05178149,0.029936804,-2.8321745e-05,0.0,0.0,-0.001
21731876000,-0.051888466,0.029706795,-2.058633e-05,0.0,0.0,-0.001
21731900000,-0.051969096,0.029045224,-0.00010115718,0.0,0.0,-0.001
21731920000,-0.051384363,0.027997319,3.527786e-05,0.0,0.0,-0.001
21731940000,-0.050990608,0.02809081,-6.192543e-05,0.0,0.0,-0.001
21731956000,-0.050651,0.028388176,9.853164e-05,0.0,0.0,-0.001
21731976000,-0.050702795,0.028539713,5.2002724e-06,0.0,0.0,-0.001
21731996000,-0.051559485,0.028858334,-9.549406e-06,0.0,0.0,-0.001
21732016000,-0.050595306,0.02863841,-5.4313226e-05,0.0,0.0,-0.001
21732036000,-0.050474264,0.029133907,5.721435e-05,0.0,0.0,-0.001
21732060000,-0.050501008,0.029546048,-4.1486895e-05,0.0,0.0,-0.001
21732076000,-0.0500471,0.029704949,5.4333424e-05,0.0,0.0,-0.001
21732096000,-0.04984953,0.029690892,-3.0912066e-05,0.0,0.0,-0.001
21732116000,-0.049240258,0.029473508,8.8263e-05,0.0,0.0,-0.001
21732140000,-0.050050456,0.029413803,-4.476413e-05,0.0,0.0,-0.001
21732156000,-0.04948707,0.029785808,1.6225562e-05,0.0,0.0,-0.001
21732176000,-0.04892177,0.029865135,4.587324e-05,0.0,0.0,-0.001
21732196000,-0.04922329,0.029955743,1.3563483e-06,0.0,0.0,-0.001
21732220000,-0.048773903,0.03025073,5.2372816e-05,0.0,0.0,-0.001
21732236000,-0.04836267,0.030322267,-4.2247546e-05,0.0,0.0,-0.001
21732256000,-0.048829813,0.030337073,-1.6421109e-05,0.0,0.0,-0.001
21732276000,-0.048367023,0.03011683,-8.293618e-05,0.0,0.0,-0.001
21732296000,-0.048213538,0.030423567,-6.667652e-05,0.0,0.0,-0.001
21732316000,-0.047386818,0.030537391,-0.00012234913,0.0,0.0,-0.001
21732340000,-0.07719878,0.043171283,-0.0002600635,0.0,0.0,-0.004766729
21732360000,-0.07351266,0.043696538,-0.00025284002,0.0,0.0,-0.0076305405
21732380000,-0.051473647,0.025934065,3.737942e-05,0.0,0.0,-0.009871816
21732396000,-0.05006627,0.029731896,-0.00012017318,0.0,0.0,-0.011609534
21732416000,-0.06669044,0.04284977,-0.00018248793,0.0,0.0,-0.014934631
21732440000,-0.06664261,0.035678197,-0.00038007516,0.0,0.0,-0.018648177
21732456000,-0.043223113,0.024339732,6.241279e-06,0.0,0.0,-0.020791862
21732476000,-0.0442611,0.023559839,-4.4458648e-05,0.0,0.0,-0.022997733
21732496000,-0.06640593,0.034817684,-0.00019265317,0.0,0.0,-0.026680762
21732520000,-0.066179335,0.031145956,-0.00023850007,0.0,0.0,-0.03062883
21732536000,-0.038483985,0.016128097,-7.627178e-05,0.0,0.0,-0.032904394
21732556000,-0.035606675,0.018300375,-0.00010795479,0.0,0.0,-0.035477914
21732576000,-0.03329236,0.026320916,-3.691554e-05,0.0,0.0,-0.039590906
21732596000,-0.04079103,0.025611678,-0.00024712615,0.0,0.0,-0.04193887
21732620000,-0.06556653,0.038465127,-8.295498e-07,0.0,0.0,-0.04610454
21732640000,-0.064320624,0.027633134,1.8327673e-05,0.0,0.0,-0.05030829
21732660000,-0.062134296,0.031506628,-8.3528954e-05,0.0,0.0,-0.052874394
21732676000,-0.063663475,0.03210776,-0.00015377959,0.0,0.0,-0.055827063
21732700000,-0.04372356,0.017827539,-0.00027335197,0.0,0.0,-0.060475312
21732716000,-0.04192105,0.020487506,-0.0001652908,0.0,0.0,-0.06343367
21732740000,-0.06733974,0.039342534,-0.0002627933,0.0,0.0,-0.06835196
21732756000,-0.06354755,0.03680684,-0.0001558475,0.0,0.0,-0.071568884
21732776000,-0.041629314,0.023824017,-0.00021196037,0.0,0.0,-0.07651461
21732796000,-0.035435572,0.020037461,-0.000230374,0.0,0.0,-0.07999866
21732816000,-0.043147814,0.02179858,-0.00015611795,0.0,0.0,-0.08494085
21732836000,-0.04428599,0.022646533,-0.000118516684,0.0,0.0,-0.08832141
21732860000,-0.047741935,0.02625073,-8.152508e-05,0.0,0.0,-0.0931991
21732876000,-0.045307808,0.020902324,-4.988512e-05,0.0,0.0,-0.09686689
21732900000,-0.07320202,0.040794693,7.7194476e-05,0.0,0.0,-0.10213484
21732920000,-0.07681196,0.043272153,-6.5922955e-05,0.0,0.0,-0.10761351
21732940000,-0.047664583,0.03015631,-0.00024555996,0.0,0.0,-0.11143665
21732956000,-0.046705764,0.031832684,-0.00028543756,0.0,0.0,-0.11455964
21732980000,-0.044819817,0.028562205,-6.003134e-05,0.0,0.0,-0.12022228
21733000000,-0.045520984,0.028690511,0.00018193864,0.0,0.0,-0.12643635
21733016000,-0.050140355,0.030721381,0.0002747763,0.0,0.0,-0.12982045
21733036000,-0.048420854,0.030829707,0.00023733481,0.0,0.0,-0.13381903
21733060000,-0.05605033,0.028397111,-6.516943e-05,0.0,0.0,-0.1405461
21733080000,-0.04874077,0.02667373,3.4448738e-05,0.0,0.0,-0.14681852
21733100000,-0.045344394,0.030069495,-0.00033444626,0.0,0.0,-0.15076205
21733116000,-0.05004244,0.032572076,-0.00024682828,0.0,0.0,-0.15557432
21733136000,-0.049888186,0.03242798,-7.5051845e-05,0.0,0.0,-0.16170044
21733156000,-0.05260499,0.03015509,-0.00013985895,0.0,0.0,-0.16601728
21733176000,-0.07355296,0.044065587,-0.00013651309,0.0,0.0,-0.17272078
21733196000,-0.07877037,0.04171123,-8.814234e-05,0.0,0.0,-0.17711732
21733220000,-0.07423865,0.047207016,-0.00020427932,0.0,0.0,-0.18381572
21733236000,-0.07026717,0.05015267,-0.00031494978,0.0,0.0,-0.18782581
21733256000,-0.051576003,0.033386264,-0.00024002846,0.0,0.0,-0.19502589
21733276000,-0.04912666,0.034858238,-0.00037354318,0.0,0.0,-0.19993705
21733300000,-0.052253064,0.032681376,-0.00020827322,0.0,0.0,-0.20728716
21733316000,-0.048995536,0.031810503,-0.00014428675,0.0,0.0,-0.2117052
21733340000,-0.051873643,0.029446088,-0.00025688193,0.0,0.0,-0.21911502
21733360000,-0.0745928,0.04155686,-0.00017968405,0.0,0.0,-0.22704084
21733380000,-0.07643548,0.041120395,-0.00019625694,0.0,0.0,-0.23144045
21733396000,-0.07298554,0.0451612,-0.00031195726,0.0,0.0,-0.23714699
21733416000,-0.07232434,0.04549417,-0.0003405457,0.0,0.0,-0.24394861
21733436000,-0.078523956,0.043060113,-0.0006138955,0.0,0.0,-0.24996392
21733456000,-0.05675799,0.023684643,-0.0002414617,0.0,0.0,-0.25759208
21733480000,-0.05490006,0.018043745,-0.0007246534,0.0,0.0,-0.2645369
21733500000,-0.082492605,0.032165766,-0.0007575474,0.0,0.0,-0.27137467
21733516000,-0.081272066,0.032167844,-0.0007371061,0.0,0.0,-0.27614117
21733536000,-0.05221148,0.014878499,8.582056e-06,0.0,0.0,-0.28527716
21733556000,-0.06252033,0.020172432,-0.00018633451,0.0,0.0,-0.2903182
21733576000,-0.08595996,0.024760496,0.00018649132,0.0,0.0,-0.29814956
21733596000,-0.08329265,0.031319216,0.00024823612,0.0,0.0,-0.30443794
21733620000,-0.09581568,0.03815117,-0.00029619047,0.0,0.0,-0.31250408
21733640000,-0.08226089,0.029024113,-1.5091204e-05,0.0,0.0,-0.32271838
21733656000,-0.08504619,0.031853154,-0.000323155,0.0,0.0,-0.32844773
21733676000,-0.08211745,0.028048275,-6.235763e-05,0.0,0.0,-0.33366814
21733700000,-0.08115285,0.015832389,-8.059884e-06,0.0,0.0,-0.34335318
21733716000,-0.07339862,0.022535253,0.00036413688,0.0,0.0,-0.34946325
21733740000,-0.086862914,0.012184408,-0.0011617823,0.0,0.0,-0.35584167
21733760000,-0.09587952,0.023503855,-0.00096167653,0.0,0.0,-0.36806345
21733776000,-0.09564277,0.021817977,-4.7052647e-05,0.0,0.0,-0.3740621
21733800000,-0.09442911,0.016082907,0.0001875359,0.0,0.0,-0.3833575
21733816000,-0.08845809,0.018501373,0.00013843448,0.0,0.0,-0.38975704
21733840000,-0.084151074,0.009000388,-2.655669e-05,0.0,0.0,-0.39929077
21733856000,-0.08656542,0.0025339457,1.5247856e-06,0.0,0.0,-0.4058176
21733876000,-0.08624718,0.004698858,3.9925785e-06,0.0,0.0,-0.41249707
21733900000,-0.08925873,0.012898581,0.00014510468,0.0,0.0,-0.4224544
21733916000,-0.09305152,0.008785248,0.0002578675,0.0,0.0,-0.42910907
21733940000,-0.07824466,-0.012417695,-0.001523751,0.0,0.0,-0.43743688
21733956000,-0.024821231,-0.047767024,-0.0016633306,0.0,0.0,-0.44292593
21733976000,0.010019534,-0.084731594,0.000386296,0.0,0.0,-0.45398438
21733996000,-0.010291277,-0.08780434,0.0044980096,0.0,0.0,-0.46077335
21734020000,-0.00096961134,-0.10038295,0.006342782,0.0,0.0,-0.4707174
21734036000,-0.022839274,-0.09762299,0.0028685436,0.0,0.0,-0.47631985
21734056000,0.0074804253,-0.111846045,0.0029436932,0.0,0.0,-0.48379815
21734076000,0.013361224,-0.12739414,0.00010999696,0.0,0.0,-0.48731217
21734096000,0.0024999245,-0.1394422,-0.0005617059,0.0,0.0,-0.49145904
21734116000,0.0055076573,-0.14470461,-0.0011315932,0.0,0.0,-0.49348786
21734136000,0.015436887,-0.15738963,-0.0014375735,0.0,0.0,-0.49600086
21734156000,0.02996203,-0.16721405,-0.00040406224,0.0,0.0,-0.49739096
21734180000,0.038032517,-0.17781441,-0.000572227,0.0,0.0,-0.4988285
21734196000,0.041676696,-0.17946528,-0.00019772339,0.0,0.0,-0.4998184
21734220000,0.054421805,-0.18682964,1.7343653e-05,0.0,0.0,-0.5012042
21734236000,0.028835082,-0.18185711,0.00055738084,0.0,0.0,-0.5010877
21734260000,0.03329703,-0.18041365,0.00063324335,0.0,0.0,-0.5022781
21734276000,0.048523832,-0.17737596,0.00016652157,0.0,0.0,-0.5021705
21734296000,0.05077459,-0.18372391,-4.4036613e-05,0.0,0.0,-0.50228983
21734316000,0.051702976,-0.17491922,-0.00019858428,0.0,0.0,-0.50248134
21734336000,0.052367352,-0.1745152,7.906166e-05,0.0,0.0,-0.50291395
21734356000,0.042004697,-0.17370793,0.00068369764,0.0,0.0,-0.5032156
21734376000,0.04083254,-0.17071669,0.0007203151,0.0,0.0,-0.50375766
21734396000,0.048125666,-0.1661264,0.00022686017,0.0,0.0,-0.50412494
21734416000,0.03555324,-0.15876547,0.0004966849,0.0,0.0,-0.5052941
21734440000,0.030814104,-0.14779279,-9.476805e-06,0.0,0.0,-0.5051738
21734456000,0.045442093,-0.14311372,-0.00023449493,0.0,0.0,-0.50522196
21734476000,0.051400717,-0.1403459,-0.00036428525,0.0,0.0,-0.5053892
21734496000,0.051883377,-0.1401685,-0.00042960866,0.0,0.0,-0.50588953
21734520000,0.038509287,-0.13811731,2.5619809e-06,0.0,0.0,-0.50648284
21734536000,0.03444655,-0.13347869,0.00019456382,0.0,0.0,-0.5071201
21734556000,0.031418808,-0.12837727,0.0006804196,0.0,0.0,-0.50770557
21734580000,0.036784023,-0.12599754,0.00094563,0.0,0.0,-0.50736105
21734596000,0.036409624,-0.12577038,0.0005927164,0.0,0.0,-0.50940716
21734616000,0.028430246,-0.12398485,0.0006212965,0.0,0.0,-0.509229
21734636000,0.026441097,-0.121253476,0.00014855896,0.0,0.0,-0.5093083
21734660000,0.028623134,-0.12123829,-0.0002220591,0.0,0.0,-0.51005137
21734680000,0.020712245,-0.123136185,-0.00028275014,0.0,0.0,-0.510808
21734696000,0.020500876,-0.12565067,-0.00032235507,0.0,0.0,-0.511322
21734716000,0.01880997,-0.12792993,0.00029038909,0.0,0.0,-0.51188296
21734736000,0.013922172,-0.120240524,0.00023572524,0.0,0.0,-0.5126189
21734756000,0.018232565,-0.11754651,0.00036854434,0.0,0.0,-0.51227325
21734776000,0.012531573,-0.11687678,0.0005693816,0.0,0.0,-0.5047423
21734796000,0.016788356,-0.11325822,0.00057253265,0.0,0.0,-0.4969079
21734816000,0.01949003,-0.114764206,0.00060230464,0.0,0.0,-0.4807886
21734836000,0.01941656,-0.11657914,0.0002729365,0.0,0.0,-0.473288
21734856000,0.014629974,-0.119406775,0.00021133973,0.0,0.0,-0.46041197
21734876000,0.010765583,-0.11592612,6.869739e-05,0.0,0.0,-0.45521832
21734900000,0.01753171,-0.11013553,-9.046031e-05,0.0,0.0,-0.44595852
21734916000,0.018818337,-0.099596575,7.5188465e-05,0.0,0.0,-0.4425441
21734936000,0.0109091345,-0.09272453,-0.00012227875,0.0,0.0,-0.43584585
21734960000,0.017051032,-0.0875847,-0.0001995035,0.0,0.0,-0.43287122
21734976000,0.023452744,-0.084985785,-0.00016542831,0.0,0.0,-0.4302085
21734996000,0.025434207,-0.085876755,0.00021000122,0.0,0.0,-0.42894575
21735016000,0.025686063,-0.08697642,3.42346e-07,0.0,0.0,-0.42664433
21735036000,0.026528109,-0.08992434,2.310747e-05,0.0,0.0,-0.42611653
21735056000,0.029722206,-0.08078318,-0.00015740529,0.0,0.0,-0.42517138
21735076000,0.025984155,-0.07622473,0.0001427647,0.0,0.0,-0.42519182
21735100000,0.03510651,-0.07391169,0.00012068666,0.0,0.0,-0.42478377
21735116000,0.016066937,-0.0670546,0.0004890305,0.0,0.0,-0.4240208
21735136000,0.012961017,-0.06760598,0.00058861735,0.0,0.0,-0.42471328
21735156000,0.016283764,-0.07208332,0.00020355586,0.0,0.0,-0.42449433
21735176000,0.020020014,-0.06916396,0.00021331044,0.0,0.0,-0.42429394
21735196000,0.018019347,-0.0744608,0.00018789676,0.0,0.0,-0.42434826
21735216000,0.020341592,-0.068849534,0.00015009381,0.0,0.0,-0.42464313
21735236000,0.018050227,-0.06017214,5.8744507e-05,0.0,0.0,-0.42467666
21735260000,0.016865827,-0.06079627,-1.2715288e-06,0.0,0.0,-0.42505074
21735276000,0.02378768,-0.06313452,-0.00023794695,0.0,0.0,-0.4254186
21735296000,0.01557106,-0.059973765,-0.0002400414,0.0,0.0,-0.4263586
21735316000,0.005620329,-0.059424106,0.00012005433,0.0,0.0,-0.4263139
21735336000,0.011027091,-0.07029639,-4.309346e-05,0.0,0.0,-0.42644438
21735360000,0.013982415,-0.07851167,-2.5152649e-05,0.0,0.0,-0.42670736
21735380000,0.009329975,-0.085627094,4.685226e-05,0.0,0.0,-0.42686474
21735400000,0.015667317,-0.08216787,0.00036461226,0.0,0.0,-0.4272027
21735416000,0.019106768,-0.07311721,0.00045536176,0.0,0.0,-0.42749017
21735440000,0.024346983,-0.0659214,0.00028603672,0.0,0.0,-0.42806768
21735460000,0.028755836,-0.06661706,0.0005121791,0.0,0.0,-0.42739585
21735480000,0.017982706,-0.06237605,0.0006186738,0.0,0.0,-0.42937404
21735500000,0.018866006,-0.06110663,0.00077370694,0.0,0.0,-0.42952442
21735520000,0.02259499,-0.07011564,0.00018232729,0.0,0.0,-0.42966208
21735540000,0.018418642,-0.07116511,2.7292459e-05,0.0,0.0,-0.42984688
21735556000,0.021106876,-0.07427472,0.00017518706,0.0,0.0,-0.43010852
21735576000,0.018250845,-0.076347426,0.00019270153,0.0,0.0,-0.43077642
21735596000,0.0150595065,-0.07448286,0.22401161,0.0,0.0,-0.43124467
21735620000,0.00820097,-0.08001799,0.0038747129,0.0,0.0,-0.43173686
21735636000,0.011288854,-0.07540785,0.0050040307,0.0,0.0,-0.43093112
21735656000,0.0035079082,-0.066969536,0.008384437,0.0,0.0,-0.43238774
21735676000,0.017934915,-0.06327945,0.0047904816,0.0,0.0,-0.43226203
21735696000,0.02718834,-0.06273983,0.009151686,0.0,0.0,-0.43216193
21735720000,0.029225906,-0.067131676,0.004011502,0.0,0.0,-0.4322615
21735736000,0.029673679,-0.05991522,0.0066893473,0.0,0.0,-0.43260297
21735756000,0.024466645,-0.057194296,0.005199206,0.0,0.0,-0.43297282
21735780000,0.026925988,-0.05210068,0.009616482,0.0,0.0,-0.43334225
21735800000,0.025579805,-0.05203597,0.004233375,0.0,0.0,-0.4340379
21735816000,0.009283395,-0.055572987,0.0080697555,0.0,0.0,-0.43364555
21735836000,0.020297227,-0.05410812,0.009675113,0.0,0.0,-0.43472648
21735860000,0.031659458,-0.054312583,0.014088027,0.0,0.0,-0.43424666
21735876000,0.026938822,-0.05615656,0.007952198,0.0,0.0,-0.4343536
21735900000,0.018607214,-0.052745853,0.012749259,0.0,0.0,-0.43449503
21735916000,0.013393744,-0.05142928,0.007792676,0.0,0.0,-0.43466008
21735940000,0.012447519,-0.05411823,0.011159491,0.0,0.0,-0.4349824
21735960000,0.0141687,-0.053026892,0.006605088,0.0,0.0,-0.43532684
21735976000,0.023213675,-0.05788022,0.008896776,0.0,0.0,-0.435662
21735996000,0.00954683,-0.061824795,0.005472156,0.0,0.0,-0.4353141
21736016000,0.01736029,-0.056250572,0.0076424098,0.0,0.0,-0.43619257
21736040000,0.016167777,-0.05571322,0.0053854147,0.0,0.0,-0.43591312
21736056000,0.014195207,-0.05457434,0.0068353266,0.0,0.0,-0.43571767
21736076000,0.0140533205,-0.056322474,0.0039878,0.0,0.0,-0.43592462
21736100000,0.015488436,-0.05514505,0.0057854042,0.0,0.0,-0.4361583
21736120000,0.015847197,-0.046538617,0.0037958845,0.0,0.0,-0.4362339
21736140000,0.017124886,-0.043005,0.0053270194,0.0,0.0,-0.43645635
21736156000,0.031447288,-0.043092582,0.002896432,0.0,0.0,-0.436683
21736176000,0.017815817,-0.039647643,0.0046749404,0.0,0.0,-0.4375948
21736196000,0.012057637,-0.03514435,0.0033117079,0.0,0.0,-0.43739203
21736220000,0.016417954,-0.03729701,0.004520127,0.0,0.0,-0.43705887
21736236000,0.01480527,-0.03733876,0.0023091177,0.0,0.0,-0.43715551
21736256000,0.014955788,-0.0361421,0.004162959,0.0,0.0,-0.43757495
21736276000,0.020579807,-0.03119714,0.003621212,0.0,0.0,-0.43781856
21736296000,0.018372176,-0.033707064,0.0048143477,0.0,0.0,-0.4383335
21736316000,0.012982403,-0.03208893,0.0026542095,0.0,0.0,-0.43865418
21736340000,0.016284421,-0.037178718,0.0044712597,0.0,0.0,-0.43835607
21736360000,0.010521507,-0.03962819,0.0034038494,0.0,0.0,-0.44002485
21736376000,0.010532078,-0.04065215,0.0042889477,0.0,0.0,-0.4398199
21736400000,0.0111335665,-0.046235982,0.0020750205,0.0,0.0,-0.43974558
21736420000,0.009404217,-0.046431173,0.0037430618,0.0,0.0,-0.43961322
21736436000,0.007597549,-0.047538757,0.0034415396,0.0,0.0,-0.43974993
21736456000,0.007304409,-0.05024122,0.0047536558,0.0,0.0,-0.43987897
21736476000,0.014372896,-0.04556543,0.0016336298,0.0,0.0,-0.44002724
21736496000,0.014525426,-0.035099987,0.0021849964,0.0,0.0,-0.44026712
21736516000,0.019327944,-0.032593522,0.00045653575,0.0,0.0,-0.43929678
21736536000,0.005880896,-0.03341955,0.0008839068,0.0,0.0,-0.44076136
21736556000,0.016542604,-0.03197909,0.001031471,0.0,0.0,-0.4405222
21736576000,0.02078621,-0.032614455,0.0016902831,0.0,0.0,-0.44019574
21736600000,0.015814142,-0.03555564,0.0011814948,0.0,0.0,-0.43991834
21736616000,0.01264184,-0.0401057,0.0023190815,0.0,0.0,-0.43989706
21736636000,0.0120303575,-0.037257925,0.001720408,0.0,0.0,-0.43994075
21736656000,0.009639526,-0.023123948,0.0031210324,0.0,0.0,-0.440128
21736676000,0.0055046985,-0.020524368,0.0017178581,0.0,0.0,-0.44060868
21736696000,-0.0029543366,-0.025331844,0.0034780889,0.0,0.0,-0.44025812
21736716000,0.00053397886,-0.02644849,0.0013362477,0.0,0.0,-0.4413753
21736740000,0.0049475646,-0.029028479,0.0027799571,0.0,0.0,-0.4409618
21736760000,0.002169157,-0.027183512,0.0014996016,0.0,0.0,-0.44052723
21736776000,0.0033491196,-0.024363792,0.0024268816,0.0,0.0,-0.44045463
21736796000,0.0019999947,-0.027147803,0.00077522243,0.0,0.0,-0.4404662
21736816000,0.0011410592,-0.025501264,0.0016854986,0.0,0.0,-0.44066888
21736836000,0.007171504,-0.026426028,0.00106837,0.0,0.0,-0.4407336
21736860000,0.020231243,-0.030843738,0.0018626995,0.0,0.0,-0.4410998
21736876000,0.0020078141,-0.03205318,0.00077630405,0.0,0.0,-0.44074577
21736896000,0.016573893,-0.032535154,0.0015724071,0.0,0.0,-0.44185373
21736916000,0.02711006,-0.028683856,0.0010070597,0.0,0.0,-0.4416876
21736936000,0.02446601,-0.026757723,0.0019307663,0.0,0.0,-0.44143346
21736956000,0.02044405,-0.028705498,0.0009395251,0.0,0.0,-0.44155824
21736976000,0.009086629,-0.028243406,0.0021801332,0.0,0.0,-0.44171992
21736996000,0.00964909,-0.028294018,0.0012838399,0.0,0.0,-0.44208768
21737016000,0.011411594,-0.019040707,0.0019915476,0.0,0.0,-0.4423104
21737036000,0.023488222,-0.021728212,0.0005342994,0.0,0.0,-0.44250253
21737056000,0.018898983,-0.025598051,0.0010758368,0.0,0.0,-0.4433164
21737080000,0.016996657,-0.02686281,0.00033476768,0.0,0.0,-0.44282186
21737096000,0.021506568,-0.0205969,0.00034504244,0.0,0.0,-0.4423342
21737116000,0.020798992,-0.024701806,0.00015604286,0.0,0.0,-0.44203824
21737136000,0.013220839,-0.025950074,0.0005393033,0.0,0.0,-0.44202423
21737156000,0.0127778435,-0.026917856,0.00038813526,0.0,0.0,-0.44209984
21737176000,0.016002804,-0.023120262,0.00076930237,0.0,0.0,-0.44233736
21737196000,0.019512907,-0.02097268,0.000749488,0.0,0.0,-0.4426641
21737216000,0.030292645,-0.014971996,0.0010641208,0.0,0.0,-0.4420676
21737236000,0.017208746,-0.011948553,0.0015347509,0.0,0.0,-0.44340414
21737256000,0.014892174,-0.013310231,0.0022203005,0.0,0.0,-0.4429589
21737276000,0.017989162,-0.017211905,0.0027258382,0.0,0.0,-0.44260743
21737296000,0.01563513,-0.013670569,0.0033768497,0.0,0.0,-0.44247663
21737316000,0.011957274,-0.059268057,0.0005103703,0.0,0.0,-0.3979802
21737336000,0.0052309795,-0.06600588,0.00038737478,0.0,0.0,-0.39833707
21737360000,0.0050768396,-0.06307686,0.0003926217,0.0,0.0,-0.4010295
21737380000,0.007416182,-0.04992628,0.00048586135,0.0,0.0,-0.40457833
21737396000,0.012947736,-0.0320485,0.0005859569,0.0,0.0,-0.40806738
21737420000,0.010178524,-0.012413956,0.00022057057,0.0,0.0,-0.41600907
21737436000,0.0163426,-0.010090121,0.00011077793,0.0,0.0,-0.41991746
21737456000,0.011551946,-0.014199362,0.00014869378,0.0,0.0,-0.425142
21737476000,-0.03614604,0.027044617,0.0002927123,0.0,0.0,-0.42813534
21737496000,-0.03911113,0.03389993,0.00082340516,0.0,0.0,-0.4321618
21737516000,-0.0012777888,0.029819146,0.0012254176,0.0,0.0,-0.4344209
21737536000,0.012721341,0.029580235,0.001761259,0.0,0.0,-0.43731514
21737556000,0.022323813,0.023127915,0.0019925518,0.0,0.0,-0.4390903
21737580000,0.015197797,0.013453566,0.0023245416,0.0,0.0,-0.44052276
21737600000,0.008382079,0.016477562,0.0022125132,0.0,0.0,-0.44345707
21737620000,0.013236833,0.011606252,0.002755167,0.0,0.0,-0.44416085
21737636000,0.013645806,0.0039319415,0.0023454747,0.0,0.0,-0.44519502
21737656000,0.011578124,0.0014097872,0.0028096428,0.0,0.0,-0.44627383
21737676000,0.013705428,-0.004161929,0.0020802072,0.0,0.0,-0.44745597
21737696000,0.014499849,-0.007815635,0.0024778934,0.0,0.0,-0.44835383
21737716000,0.017731335,0.00891416,0.001014414,0.0,0.0,-0.44947147
21737736000,0.012542026,0.0061498745,0.0015820388,0.0,0.0,-0.44990665
21737756000,0.007898535,0.0029008407,6.110328e-05,0.0,0.0,-0.45026955
21737776000,0.0051068724,-0.0021101094,0.0006076699,0.0,0.0,-0.45126164
21737800000,0.024640182,0.003554617,-0.0012410444,0.0,0.0,-0.45200858
21737816000,0.03178911,0.00061526377,-0.00084225734,0.0,0.0,-0.45167443
21737836000,0.040924333,0.014089197,-0.0032323184,0.0,0.0,-0.45314983
21737856000,0.026398562,0.012074856,-0.00288631,0.0,0.0,-0.4528057
21737876000,0.03619404,0.041363005,-0.0053777937,0.0,0.0,-0.45475557
21737896000,0.031611327,0.029185439,-0.0048671556,0.0,0.0,-0.4540966
21737920000,0.04679642,0.046745103,-0.0074499594,0.0,0.0,-0.45546862
21737936000,0.028915208,0.027482875,-0.0066136927,0.0,0.0,-0.45529288
21737960000,0.049892254,0.059164796,-0.008610732,0.0,0.0,-0.45733675
21737976000,0.050710637,0.05716404,-0.007879071,0.0,0.0,-0.45611712
21738000000,0.067240655,0.10109131,-0.009974444,0.0,0.0,-0.45810932
21738020000,0.05706989,0.08411468,-0.009123568,0.0,0.0,-0.45700738
21738036000,0.08249089,0.12641028,-0.011089082,0.0,0.0,-0.4599332
21738060000,0.06553894,0.09977683,-0.010342537,0.0,0.0,-0.45811394
21738080000,0.0831199,0.1312482,-0.011424739,0.0,0.0,-0.46075368
21738100000,0.08396457,0.103211924,-0.010398584,0.0,0.0,-0.45904058
21738120000,0.10547744,0.15341595,-0.011288927,0.0,0.0,-0.46239015
21738136000,0.09476749,0.13478753,-0.010664784,0.0,0.0,-0.46044385
21738156000,0.12621835,0.17892592,-0.011142692,0.0,0.0,-0.46347922
21738180000,0.095337,0.14435062,-0.009781651,0.0,0.0,-0.46049416
21738196000,0.13217872,0.2094782,-0.010291115,0.0,0.0,-0.46388552
21738216000,0.11185059,0.16643004,-0.009188524,0.0,0.0,-0.46090204
21738236000,0.14206292,0.21597287,-0.00964302,0.0,0.0,-0.46442822
21738256000,0.11380633,0.1712057,-0.008646499,0.0,0.0,-0.46128017
21738276000,0.16135788,0.24089849,-0.009513151,0.0,0.0,-0.46460244
21738300000,0.11379337,0.19228092,-0.008025615,0.0,0.0,-0.46225712
21738316000,0.15614825,0.27761766,-0.009387969,0.0,0.0,-0.4655041
21738336000,0.123540655,0.22480279,-0.008481408,0.0,0.0,-0.4616588
21738356000,0.15642048,0.28103092,-0.00445964,0.0,0.0,-0.464955
21738380000,0.1117065,0.2083838,-0.003286145,0.0,0.0,-0.46124312
21738400000,0.16427168,0.2938972,-0.0053060725,0.0,0.0,-0.46408823
21738416000,0.13953069,0.2477432,-0.004687507,0.0,0.0,-0.46183267
21738436000,0.19571626,0.3367844,-0.0070211813,0.0,0.0,-0.46602565
21738460000,0.13948344,0.2449844,-0.005305085,0.0,0.0,-0.46171218
21738476000,0.20866108,0.3573571,-0.008367129,0.0,0.0,-0.4666741
21738500000,0.17118825,0.26542306,-0.006753247,0.0,0.0,-0.46214208
21738520000,0.22346716,0.3479205,-0.009637363,0.0,0.0,-0.46488485
21738540000,0.18299197,0.26986426,-0.007844708,0.0,0.0,-0.4621179
21738560000,0.22373971,0.3486331,-0.01117536,0.0,0.0,-0.4650094
21738580000,0.17996448,0.2735543,-0.0092988815,0.0,0.0,-0.46240658
21738596000,0.23672564,0.39261076,-0.013991568,0.0,0.0,-0.4670215
21738616000,0.18940221,0.29822123,-0.011536051,0.0,0.0,-0.46223173
21738640000,0.22181585,0.37961277,-0.015550404,0.0,0.0,-0.46601453
21738660000,0.17994425,0.30004084,-0.013478475,0.0,0.0,-0.46240515
21738680000,0.23967385,0.39070877,-0.018005349,0.0,0.0,-0.46497872
21738696000,0.20018694,0.32138002,-0.016034786,0.0,0.0,-0.46170008
21738720000,0.2503946,0.40811875,-0.020487908,0.0,0.0,-0.4646731
21738736000,0.20225127,0.3408622,-0.018410346,0.0,0.0,-0.46157092
21738756000,0.26300722,0.44442353,-0.023704644,0.0,0.0,-0.46640304
21738780000,0.19757012,0.3297376,-0.020377245,0.0,0.0,-0.46156994
21738800000,0.23004082,0.40439662,-0.02426558,0.0,0.0,-0.46414918
21738816000,0.18884034,0.33223507,-0.021870814,0.0,0.0,-0.4616107
21738836000,0.22347972,0.42992595,-0.026367184,0.0,0.0,-0.46618155
21738856000,0.14411324,0.31534892,-0.021981211,0.0,0.0,-0.4604243
21738880000,0.18956226,0.4049872,-0.026176503,0.0,0.0,-0.46371832
21738900000,0.14433344,0.3142167,-0.022320079,0.0,0.0,-0.46011293
21738920000,0.2023052,0.40519762,-0.016947737,0.0,0.0,-0.46345645
21738940000,0.16662386,0.31896836,-0.0132090235,0.0,0.0,-0.45991424
21738960000,0.22610736,0.40964526,-0.017671306,0.0,0.0,-0.46247333
21738980000,0.1711458,0.32356703,-0.013583846,0.0,0.0,-0.45933524
21739000000,0.230608,0.42388153,-0.018813424,0.0,0.0,-0.4634421
21739020000,0.19236729,0.3365244,-0.014981925,0.0,0.0,-0.45948848
21739036000,0.2702508,0.47052816,-0.02174161,0.0,0.0,-0.46503678
21739060000,0.20849594,0.3511091,-0.016074961,0.0,0.0,-0.45897245
21739076000,0.27134174,0.47828883,-0.022588702,0.0,0.0,-0.4644483
21739100000,0.20422915,0.3579018,-0.016917363,0.0,0.0,-0.45847687
21739116000,0.26302126,0.47448772,-0.023240868,0.0,0.0,-0.46385875
21739140000,0.19664209,0.34129778,-0.016942278,0.0,0.0,-0.4569811
21739156000,0.27045822,0.48566332,-0.02499303,0.0,0.0,-0.4644384
21739176000,-1.2263391,1.8791842,-0.03997433,0.0,0.0,-0.51000005
21739200000,-1.2321842,1.859837,-0.038904905,0.0,0.0,-0.51000005
21739220000,-1.1972204,1.8010564,-0.03704726,0.0,0.0,-0.51000005
21739240000,-1.0539635,1.6257503,-0.03234996,0.0,0.0,-0.51000005
21739256000,-0.8622835,1.412308,-0.027206462,0.0,0.0,-0.51000005
21739276000,-0.58397573,1.1106874,-0.020303717,0.0,0.0,-0.51000005
21739296000,-0.32703802,0.8419635,-0.014777239,0.0,0.0,-0.51000005
21739316000,-0.12877318,0.6380911,-0.012664806,0.0,0.0,-0.51000005
21739336000,0.0003278586,0.50820905,-0.012705176,0.0,0.0,-0.51000005
21739356000,0.07954937,0.43620628,-0.014066834,0.0,0.0,-0.51000005
21739376000,0.13046676,0.39949644,-0.015311543,0.0,0.0,-0.51000005
21739396000,0.1642188,0.38065675,-0.015481078,0.0,0.0,-0.51000005
21739420000,0.18805303,0.3698559,-0.014325324,0.0,0.0,-0.51000005
21739440000,0.19884935,0.36665958,-0.012520776,0.0,0.0,-0.51000005
21739460000,0.20314364,0.3672025,-0.010551926,0.0,0.0,-0.51000005
21739476000,0.20191722,0.37127545,-0.00895667,0.0,0.0,-0.51000005
21739496000,0.19668998,0.38051856,-0.0074298116,0.0,0.0,-0.51000005
21739516000,0.18470624,0.39374903,-0.0062392848,0.0,0.0,-0.51000005
21739540000,0.17632252,0.4118262,-0.0053884317,0.0,0.0,-0.51000005
21739556000,0.1720012,0.42393056,-0.0050856685,0.0,0.0,-0.51000005
21739580000,0.16360602,0.44361937,-0.00430799,0.0,0.0,-0.51000005
21739600000,0.15454553,0.46086097,-0.0040332805,0.0,0.0,-0.51000005
21739616000,0.14553809,0.47510442,-0.0032689257,0.0,0.0,-0.51000005
21739636000,0.13277781,0.49187875,-0.0019913036,0.0,0.0,-0.51000005
21739660000,0.1170473,0.51077205,-0.0006815577,0.0,0.0,-0.51000005
21739680000,0.10540678,0.52498466,7.811845e-06,0.0,0.0,-0.51000005
21739696000,0.10456122,0.5365547,0.00068451144,0.0,0.0,-0.51000005
21739716000,0.0837545,0.5499597,0.0018021872,0.0,0.0,-0.51000005
21739740000,0.0752184,0.5642912,0.0027494864,0.0,0.0,-0.51000005
21739756000,0.07168486,0.5731602,0.0033355153,0.0,0.0,-0.51000005
21739780000,0.06671985,0.58697146,0.003690851,0.0,0.0,-0.51000005
21739796000,0.05284647,0.59542376,0.0032313643,0.0,0.0,-0.51000005
21739816000,0.04665972,0.60601413,0.0033551012,0.0,0.0,-0.51000005
21739836000,0.04970784,0.6147659,0.0046556285,0.0,0.0,-0.51000005
21739860000,0.04217891,0.62460303,0.005857576,0.0,0.0,-0.51000005
21739876000,0.04136341,0.6306245,0.0063742977,0.0,0.0,-0.51000005
21739896000,0.027860515,0.63750887,0.007080388,0.0,0.0,-0.51000005
21739920000,0.020986944,0.6457484,0.0078028794,0.0,0.0,-0.51000005
21739940000,0.0063536954,0.65166885,0.0076928306,0.0,0.0,-0.51000005
21739956000,0.0041409447,0.6557304,0.00811034,0.0,0.0,-0.51000005
21739976000,0.001900343,0.66108954,0.008344354,0.0,0.0,-0.51000005
21740000000,0.010130059,0.66811967,0.009134211,0.0,0.0,-0.51000005
21740020000,0.008996189,0.67229635,0.009009661,0.0,0.0,-0.51000005
21740036000,0.006115338,0.6751859,0.008878463,0.0,0.0,-0.51000005
21740056000,0.0061301603,0.67843556,0.009090196,0.0,0.0,-0.51000005
21740076000,-0.0050942195,0.68169117,0.009386714,0.0,0.0,-0.51000005
21740100000,-0.01052628,0.68780476,0.009619418,0.0,0.0,-0.51000005
21740120000,-0.009378481,0.69149566,0.010170439,0.0,0.0,-0.51000005
21740136000,-0.006404931,0.693012,0.010695608,0.0,0.0,-0.51000005
21740156000,-0.0037070222,0.69447494,0.011091519,0.0,0.0,-0.51000005
21740176000,-0.0040269666,0.69544744,0.011164575,0.0,0.0,-0.51000005
21740196000,-0.006710197,0.69614863,0.010957389,0.0,0.0,-0.51000005
21740216000,-0.011044392,0.6967207,0.010468149,0.0,0.0,-0.51000005
21740236000,-0.012280245,0.6971985,0.009847949,0.0,0.0,-0.51000005
21740256000,-0.025779456,0.69766635,0.010023025,0.0,0.0,-0.51000005
21740276000,-0.030622203,0.6994064,0.0100248335,0.0,0.0,-0.51000005
21740296000,-0.029951606,0.69983006,0.010194311,0.0,0.0,-0.51000005
21740316000,-0.027420621,0.700521,0.010666908,0.0,0.0,-0.51000005
21740340000,-0.0262852,0.69985265,0.011442627,0.0,0.0,-0.51000005
21740356000,-0.027342957,0.6985641,0.011466609,0.0,0.0,-0.51000005
21740376000,-0.030523269,0.6977505,0.011246031,0.0,0.0,-0.51000005
21740396000,-0.033537615,0.69645363,0.01089528,0.0,0.0,-0.51000005
21740416000,-0.026462287,0.69513625,0.010425839,0.0,0.0,-0.51000005
21740436000,-0.04231358,0.6938935,0.010032302,0.0,0.0,-0.51000005
21740460000,-0.045162458,0.6936095,0.0097926995,0.0,0.0,-0.51000005
21740476000,-0.04530291,0.6935233,0.009918715,0.0,0.0,-0.51000005
21740496000,-0.044976965,0.69287014,0.0102207335,0.0,0.0,-0.51000005
21740516000,-0.04519649,0.6914851,0.010468157,0.0,0.0,-0.51000005
21740536000,-0.0462441,0.68960553,0.010282827,0.0,0.0,-0.51000005
21740556000,-0.047355916,0.68692493,0.010031256,0.0,0.0,-0.51000005
21740576000,-0.049054302,0.6850269,0.009657389,0.0,0.0,-0.51000005
21740600000,-0.0511444,0.682248,0.009253053,0.0,0.0,-0.51000005
21740616000,-0.05323473,0.68051815,0.0091821095,0.0,0.0,-0.51000005
21740640000,-0.052481733,0.6794944,0.009217467,0.0,0.0,-0.51000005
21740656000,-0.050062798,0.67870975,0.009108815,0.0,0.0,-0.51000005
21740676000,-0.04786322,0.677053,0.008976575,0.0,0.0,-0.51000005
21740696000,-0.046329036,0.67431533,0.008494732,0.0,0.0,-0.51000005
21740720000,-0.045939356,0.6691201,0.008070616,0.0,0.0,-0.51000005
21740740000,-0.04643611,0.6654942,0.007477914,0.0,0.0,-0.51000005
21740760000,-0.046736732,0.66219753,0.0069304253,0.0,0.0,-0.51000005
21740780000,-0.05078613,0.6592075,0.006437549,0.0,0.0,-0.51000005
21740796000,-0.04925405,0.6577709,0.005983414,0.0,0.0,-0.51000005
21740816000,-0.04734913,0.65490377,0.005818794,0.0,0.0,-0.51000005
21740836000,-0.044439647,0.6512028,0.006116516,0.0,0.0,-0.51000005
21740856000,-0.042902574,0.6485172,0.0064016655,0.0,0.0,-0.51000005
21740876000,-0.043011107,0.6464096,0.006552526,0.0,0.0,-0.51000005
21740900000,-0.045351543,0.64327,0.0064410525,0.0,0.0,-0.51000005
21740916000,-0.04768142,0.6412647,0.006356376,0.0,0.0,-0.51000005
21740936000,-0.049423605,0.63859737,0.0064042667,0.0,0.0,-0.51000005
21740960000,-0.054169737,0.6354492,0.0064864377,0.0,0.0,-0.51000005
21740980000,-0.05547498,0.63302624,0.0064627863,0.0,0.0,-0.51000005
21741000000,-0.05507844,0.6289715,0.0066177323,0.0,0.0,-0.51000005
21741020000,-0.054585982,0.6253752,0.0069475556,0.0,0.0,-0.51000005
21741040000,-0.05304796,0.6215095,0.006929016,0.0,0.0,-0.51000005
21741056000,-0.051854394,0.618714,0.007061404,0.0,0.0,-0.51000005
21741080000,-0.050864365,0.6159193,0.007042893,0.0,0.0,-0.51000005
21741100000,-0.050684735,0.6135818,0.006783251,0.0,0.0,-0.51000005
21741116000,-0.04712813,0.61155057,0.0064648935,0.0,0.0,-0.51000005
21741140000,-0.052992895,0.60728526,0.0062400186,0.0,0.0,-0.51000005
21741156000,-0.052946918,0.60516596,0.006100296,0.0,0.0,-0.51000005
21741176000,-0.051152002,0.60265416,0.0062354733,0.0,0.0,-0.51000005
21741196000,-0.048774082,0.60037607,0.0063313795,0.0,0.0,-0.51000005
21741220000,-0.047030434,0.5974281,0.006023548,0.0,0.0,-0.51000005
21741240000,-0.04631746,0.5948191,0.0060611013,0.0,0.0,-0.51000005
21741256000,-0.056231145,0.5927937,0.0053740223,0.0,0.0,-0.51000005
21741280000,-0.055515222,0.5895686,0.0049326187,0.0,0.0,-0.51000005
21741296000,-0.034789354,0.5872066,0.005214703,0.0,0.0,-0.51000005
21741316000,-0.04657344,0.5841648,0.0052209566,0.0,0.0,-0.51000005
21741336000,-0.044218212,0.58183485,0.005237491,0.0,0.0,-0.51000005
21741360000,-0.040375452,0.57969385,0.0053735026,0.0,0.0,-0.51000005
21741380000,-0.037627205,0.57730347,0.005105386,0.0,0.0,-0.51000005
21741396000,-0.036574136,0.5755229,0.004879823,0.0,0.0,-0.51000005
21741420000,-0.03757014,0.572519,0.0044470164,0.0,0.0,-0.51000005
21741436000,-0.049323536,0.5696389,0.0034664504,0.0,0.0,-0.51000005
21741456000,-0.05052327,0.5670481,0.0032016044,0.0,0.0,-0.51000005
21741476000,-0.03331385,0.5637163,0.0037213538,0.0,0.0,-0.51000005
21741496000,-0.04415076,0.5598191,0.0038879726,0.0,0.0,-0.51000005
21741516000,-0.04268106,0.5570945,0.0038862014,0.0,0.0,-0.51000005
21741536000,-0.039878342,0.55540544,0.00424135,0.0,0.0,-0.51000005
21741556000,-0.038325008,0.5535198,0.004163138,0.0,0.0,-0.51000005
21741580000,-0.038387462,0.5510044,0.0040970296,0.0,0.0,-0.51000005
21741596000,-0.03933742,0.54776955,0.0038515397,0.0,0.0,-0.51000005
21741620000,-0.040334746,0.54348326,0.0029673097,0.0,0.0,-0.51000005
21741636000,-0.041439556,0.541355,0.002758193,0.0,0.0,-0.51000005
21741656000,-0.04353014,0.5388248,0.0027350546,0.0,0.0,-0.51000005
21741680000,-0.046480138,0.5366798,0.0025566833,0.0,0.0,-0.51000005
21741696000,-0.04556285,0.5348344,0.0027064155,0.0,0.0,-0.51000005
21741716000,-0.044007745,0.5326461,0.0026109996,0.0,0.0,-0.51000005
21741736000,-0.04333522,0.5299816,0.002794082,0.0,0.0,-0.51000005
21741760000,-0.043355595,0.5262959,0.002659208,0.0,0.0,-0.51000005
21741780000,-0.043590736,0.52429736,0.0027265796,0.0,0.0,-0.51000005
21741800000,-0.044156216,0.5223529,0.0022927755,0.0,0.0,-0.51000005
21741820000,-0.040094078,0.5201462,0.0018351336,0.0,0.0,-0.51000005
21741836000,-0.04751665,0.5177848,0.0017686796,0.0,0.0,-0.51000005
21741860000,-0.045191824,0.5142371,0.0015150185,0.0,0.0,-0.51000005
21741876000,-0.043894473,0.51116824,0.0015023847,0.0,0.0,-0.51000005
21741896000,-0.0415853,0.5080113,0.001662382,0.0,0.0,-0.51000005
21741920000,-0.039349154,0.50506955,0.0015654891,0.0,0.0,-0.51000005
21741936000,-0.037835434,0.5031834,0.0016690016,0.0,0.0,-0.51000005
21741960000,-0.036859695,0.50023705,0.0015197556,0.0,0.0,-0.51000005
21741980000,-0.03671219,0.49773222,0.0014181004,0.0,0.0,-0.51000005
21741996000,-0.032711644,0.496155,0.001093552,0.0,0.0,-0.51000005
21742020000,-0.039162237,0.49462155,0.0004130022,0.0,0.0,-0.51000005
21742036000,-0.0411878,0.49260026,9.173744e-05,0.0,0.0,-0.51000005
21742060000,-0.04606257,0.48912793,-0.00073484884,0.0,0.0,-0.51000005
21742080000,-0.050685704,0.48660886,-0.0011777458,0.0,0.0,-0.51000005
21742100000,-0.053415585,0.4839666,-0.0012362361,0.0,0.0,-0.51000005
21742120000,-0.054772235,0.48048,-0.00089329504,0.0,0.0,-0.51000005
21742140000,-0.052874304,0.4779926,-0.0004393171,0.0,0.0,-0.51000005
21742160000,-0.05004605,0.47596928,-4.822643e-05,0.0,0.0,-0.51000005
21742180000,-0.03926121,0.47391456,5.322107e-06,0.0,0.0,-0.51000005
21742200000,-0.047181144,0.47146606,6.4153224e-05,0.0,0.0,-0.51000005
21742220000,-0.055221323,0.46907547,-0.0005553081,0.0,0.0,-0.51000005
21742240000,-0.050994594,0.46654448,-0.00045226363,0.0,0.0,-0.51000005
21742260000,-0.04775424,0.46406314,-0.00044462414,0.0,0.0,-0.51000005
21742280000,-0.035010193,0.4617876,0.000104969695,0.0,0.0,-0.51000005
21742300000,-0.031853836,0.45865595,-8.9185254e-05,0.0,0.0,-0.51000005
21742316000,-0.029770251,0.45614475,-0.00016519023,0.0,0.0,-0.51000005
21742340000,-0.028190883,0.45293936,-0.00033687032,0.0,0.0,-0.51000005
21742360000,-0.028453957,0.450199,-0.00025466207,0.0,0.0,-0.51000005
21742380000,-0.03076709,0.44850093,-0.0003820008,0.0,0.0,-0.51000005
21742396000,-0.030227328,0.44727638,-0.00042337974,0.0,0.0,-0.51000005
21742420000,-0.028236128,0.4453184,-0.00040792738,0.0,0.0,-0.51000005
21742436000,-0.027358016,0.44359422,-0.00037642152,0.0,0.0,-0.51000005
21742456000,-0.027418511,0.44157287,-8.68019e-05,0.0,0.0,-0.51000005
21742480000,-0.027838167,0.43879414,-7.8489415e-05,0.0,0.0,-0.51000005
21742496000,-0.02892663,0.43781933,-0.00013133544,0.0,0.0,-0.51000005
21742516000,-0.029450988,0.43636072,-0.00020480902,0.0,0.0,-0.51000005
21742540000,-0.033710547,0.43271798,-0.00040062936,0.0,0.0,-0.51000005
21742556000,-0.032198112,0.43166262,-0.00047587283,0.0,0.0,-0.51000005
21742580000,-0.028354846,0.42942283,-0.0004824737,0.0,0.0,-0.51000005
21742596000,-0.025256291,0.42716214,-0.0006150034,0.0,0.0,-0.51000005
21742620000,-0.03235922,0.4245447,-0.0015489889,0.0,0.0,-0.51000005
21742636000,-0.03169094,0.4225812,-0.0016837376,0.0,0.0,-0.51000005
21742656000,-0.031968404,0.42031556,-0.0018191796,0.0,0.0,-0.51000005
21742676000,-0.032505274,0.41793957,-0.002284471,0.0,0.0,-0.51000005
21742700000,-0.01810461,0.41484258,-0.0015782898,0.0,0.0,-0.51000005
21742716000,-0.02574865,0.4123584,-0.0013610316,0.0,0.0,-0.51000005
21742740000,-0.023383133,0.40842497,-0.001186741,0.0,0.0,-0.51000005
21742756000,-0.02269701,0.4068635,-0.00086650014,0.0,0.0,-0.51000005
21742780000,-0.021447029,0.40395957,-0.000825433,0.0,0.0,-0.51000005
21742800000,-0.022164552,0.402084,-0.0009672778,0.0,0.0,-0.51000005
21742820000,-0.02386707,0.40064052,-0.0010422077,0.0,0.0,-0.51000005
21742836000,-0.025755221,0.399964,-0.0011688835,0.0,0.0,-0.51000005
21742856000,-0.027979586,0.39871034,-0.0011919806,0.0,0.0,-0.51000005
21742876000,-0.026290683,0.3967913,-0.0011172212,0.0,0.0,-0.51000005
21742896000,-0.034504324,0.3950303,-0.0008940634,0.0,0.0,-0.51000005
21742920000,-0.033638693,0.39385363,-0.0011363606,0.0,0.0,-0.51000005
21742936000,-0.030883715,0.3928048,-0.0011068145,0.0,0.0,-0.51000005
21742956000,-0.028118467,0.39164883,-0.0012903828,0.0,0.0,-0.51000005
21742976000,-0.026832549,0.3901321,-0.0011400013,0.0,0.0,-0.51000005
21742996000,-0.02731037,0.38755533,-0.0012826734,0.0,0.0,-0.51000005
21743020000,-0.028728731,0.38449883,-0.0014559192,0.0,0.0,-0.51000005
21743036000,-0.030010236,0.3824658,-0.0016660978,0.0,0.0,-0.51000005
21743056000,-0.020962222,0.37910146,-0.0019279064,0.0,0.0,-0.51000005
21743076000,-0.035742927,0.37660187,-0.0016549872,0.0,0.0,-0.51000005
21743100000,-0.03640487,0.37519914,-0.0015349971,0.0,0.0,-0.51000005
21743116000,-0.035504416,0.37419593,-0.0016118498,0.0,0.0,-0.51000005
21743136000,-0.033724677,0.37272167,-0.0012182669,0.0,0.0,-0.51000005
21743156000,-0.033526503,0.37198696,-0.0009030343,0.0,0.0,-0.51000005
21743176000,-0.03387929,0.3708919,-0.0008688775,0.0,0.0,-0.51000005
21743196000,-0.03430836,0.36968347,-0.00091423915,0.0,0.0,-0.51000005
21743216000,-0.03404312,0.3677279,-0.0009584609,0.0,0.0,-0.51000005
21743236000,-0.026019908,0.3662057,-0.0011616206,0.0,0.0,-0.51000005
21743256000,-0.035689935,0.36471394,-0.0012118834,0.0,0.0,-0.51000005
21743280000,-0.034415167,0.36299184,-0.0013471522,0.0,0.0,-0.51000005
21743296000,-0.033256114,0.36130753,-0.0013765082,0.0,0.0,-0.51000005
21743316000,-0.032122556,0.35801882,-0.0012925378,0.0,0.0,-0.51000005
21743340000,-0.03158001,0.35533157,-0.0013156439,0.0,0.0,-0.51000005
21743356000,-0.0312667,0.35397038,-0.0014200945,0.0,0.0,-0.51000005
21743376000,-0.030752815,0.35220337,-0.0014655729,0.0,0.0,-0.51000005
21743396000,-0.040447958,0.34981203,-0.002191931,0.0,0.0,-0.51000005
21743416000,-0.04100582,0.3471738,-0.0019951398,0.0,0.0,-0.51000005
21743436000,-0.042240407,0.3446865,-0.00175437,0.0,0.0,-0.51000005
21743456000,-0.029750688,0.342486,-0.00074251,0.0,0.0,-0.51000005
21743476000,-0.025655296,0.34063953,-0.00029931328,0.0,0.0,-0.51000005
21743496000,-0.021397,0.3401844,3.254385e-05,0.0,0.0,-0.51000005
21743516000,-0.018734396,0.33927292,0.00024248232,0.0,0.0,-0.51000005
21743536000,-0.017529134,0.33722502,0.000112598114,0.0,0.0,-0.51000005
21743560000,-0.016949587,0.33439565,-0.00017119692,0.0,0.0,-0.51000005
21743576000,-0.018065862,0.3331311,-0.00044052798,0.0,0.0,-0.51000005
21743600000,-0.02229605,0.3311396,-0.00091188744,0.0,0.0,-0.51000005
21743620000,-0.033370994,0.32986826,-0.0021504858,0.0,0.0,-0.51000005
21743640000,-0.0299936,0.3282563,-0.0020501486,0.0,0.0,-0.51000005
21743656000,-0.025926514,0.3270041,-0.0017494117,0.0,0.0,-0.51000005
21743680000,-0.020438474,0.32489654,-0.0013461615,0.0,0.0,-0.51000005
21743696000,-0.017643139,0.32351774,-0.0012326934,0.0,0.0,-0.51000005
21743716000,-0.0054664407,0.3219701,-0.00062001985,0.0,0.0,-0.51000005
21743736000,-0.0047709034,0.32050532,-0.0007435772,0.0,0.0,-0.51000005
21743760000,0.004313289,0.3188763,-0.0010922911,0.0,0.0,-0.51000005
21743776000,-0.011308577,0.31712785,-0.0010089764,0.0,0.0,-0.51000005
21743800000,-0.025582235,0.31538302,-0.0023203506,0.0,0.0,-0.51000005
21743816000,-0.02662854,0.31347427,-0.00253368,0.0,0.0,-0.51000005
21743836000,-0.017956708,0.31189242,-0.001669498,0.0,0.0,-0.51000005
21743856000,-0.019864172,0.3105383,-0.0017882298,0.0,0.0,-0.51000005
21743876000,-0.020990819,0.3091032,-0.0018129824,0.0,0.0,-0.51000005
21743896000,-0.020938242,0.30770206,-0.0018198863,0.0,0.0,-0.51000005
21743920000,-0.022472685,0.30568227,-0.001614338,0.0,0.0,-0.51000005
21743940000,-0.01619704,0.30428025,-0.0017838893,0.0,0.0,-0.51000005
21743960000,-0.029359581,0.3036975,-0.0016876396,0.0,0.0,-0.51000005
21743976000,-0.03134197,0.3034254,-0.001850028,0.0,0.0,-0.51000005
21743996000,-0.030706622,0.3023029,-0.0018951728,0.0,0.0,-0.51000005
21744020000,-0.029311934,0.30133045,-0.0015079691,0.0,0.0,-0.51000005
21744036000,-0.02938788,0.30085525,-0.001437756,0.0,0.0,-0.51000005
