timestamp,timestamp_sample,gps_hvel[0],gps_hvel[1],gps_vvel,gps_hpos[0],gps_hpos[1],gps_vpos,ev_hvel[0],ev_hvel[1],ev_vvel,ev_hpos[0],ev_hpos[1],ev_vpos,rng_vpos,baro_vpos,aux_hvel[0],aux_hvel[1],aux_vvel,flow[0],flow[1],heading,mag_field[0],mag_field[1],mag_field[2],drag[0],drag[1],airspeed,beta,hagl,hagl_rate
21726664000,21726584000,-0.000320955,-0.0032280853,-0.0016014879,0.0012572408,0.0019794703,0.0,0.0,0.0,0.0,0.0,0.0,0.0,0.0,-0.04055786,0.0,0.0,nan,0.0,0.0,-0.018562794,0.00034276396,0.0017037243,-0.0030785203,0.0,0.0,0.0,0.0,0.0,0.0
21727168000,21727088000,-0.00019607005,-0.0003519557,-0.0003919979,-0.009797394,0.0022403002,0.0,0.0,0.0,0.0,0.0,0.0,0.0,0.0,0.03086853,0.0,0.0,nan,0.0,0.0,0.018504262,0.00034276396,0.0017037243,-0.0030785203,0.0,0.0,0.0,0.0,0.0,0.0
21727664000,21727584000,-0.0019584415,0.0008296576,0.009249643,-0.00974679,0.0020480156,0.0,0.0,0.0,0.0,0.0,0.0,0.0,0.0,0.05493164,0.0,0.0,nan,0.0,0.0,0.02899468,0.00034276396,0.0017037243,-0.0030785203,0.0,0.0,0.0,0.0,0.0,0.0
21728168000,21728088000,-0.00803902,0.00032033352,-0.0017688875,0.0014870167,0.0020986795,0.0,0.0,0.0,0.0,0.0,0.0,0.0,0.0,0.028747559,0.0,0.0,nan,0.0,0.0,0.004161358,0.00034276396,0.0017037243,-0.0030785203,0.0,0.0,0.0,0.0,0.0,0.0
21728664000,21728584000,-0.0019870605,0.009959629,-0.009494531,-0.009384751,-0.0060688257,0.0,0.0,0.0,0.0,0.0,0.0,0.0,0.0,0.01020813,0.0,0.0,nan,0.0,0.0,-0.021508932,0.00034276396,0.0017037243,-0.0030785203,0.0,0.0,0.0,0.0,0.0,0.0
21729168000,21729088000,-0.0028897666,-0.00088256324,-0.020380203,0.0016345978,-0.0061092377,0.0,0.0,0.0,0.0,0.0,0.0,0.0,0.0,-0.023590088,0.0,0.0,nan,0.0,0.0,0.0051065683,0.00034276396,0.0017037243,-0.0030785203,0.0,0.0,0.0,0.0,0.0,0.0
21729664000,21729584000,-0.00040018858,-0.0001810733,0.0011354233,0.0015652776,0.0020523071,0.0,0.0,0.0,0.0,0.0,0.0,0.0,0.0,-0.10324097,0.0,0.0,nan,0.0,0.0,-0.024965405,0.00034276396,0.0017037243,-0.0030785203,0.0,0.0,0.0,0.0,0.0,0.0
21730160000,21730080000,0.0198367,-0.00044491162,0.03958676,0.0017123818,0.0020278692,0.0,0.0,0.0,0.0,0.0,0.0,0.0,0.0,-0.116500854,0.0,0.0,nan,0.0,0.0,-0.0006543398,0.00034276396,0.0017037243,-0.0030785203,0.0,0.0,0.0,0.0,0.0,0.0
21730664000,21730584000,0.00030941624,0.012459063,-0.010299067,-0.009476662,0.0017678738,0.0,0.0,0.0,0.0,0.0,0.0,0.0,0.0,0.018112183,0.0,0.0,nan,0.0,0.0,-0.02090478,0.00034276396,0.0017037243,-0.0030785203,0.0,0.0,0.0,0.0,0.0,0.0
21731160000,21731080000,-0.008934972,-0.010152856,0.011218006,0.0017800331,0.0016709566,0.0,0.0,0.0,0.0,0.0,0.0,0.0,0.0,-0.026641846,0.0,0.0,nan,0.0,0.0,-0.0064047575,0.00034276396,0.0017037243,-0.0030785203,0.0,0.0,0.0,0.0,0.0,0.0
21731664000,21731584000,0.003907333,0.008706879,-0.040971875,0.002046764,0.0017424822,0.0,0.0,0.0,0.0,0.0,0.0,0.0,0.0,-0.01864624,0.0,0.0,nan,0.0,0.0,-0.0057315826,0.00034276396,0.0017037243,-0.0030785203,0.0,0.0,0.0,0.0,0.0,0.0
21732160000,21732080000,-0.010731107,0.0022489494,0.05101189,0.0014746189,0.0021967888,0.0,0.0,0.0,0.0,0.0,0.0,0.0,0.0,-0.021270752,0.0,0.0,nan,0.0,0.0,5.4597855e-05,0.00034276396,0.0017037243,-0.0030785203,0.0,0.0,0.0,0.0,0.0,0.0
21732664000,21732584000,-0.0023930517,0.011104453,0.00049091823,0.0013538003,-0.0061511993,0.0,0.0,0.0,0.0,0.0,0.0,0.0,0.0,-0.01576233,0.0,0.0,nan,0.0,0.0,-0.006192684,0.00034276396,0.0017037243,-0.0030785203,0.0,0.0,0.0,0.0,0.0,0.0
21733168000,21733088000,0.010183271,0.0009855122,-0.0059083276,-0.009628892,0.0019990206,0.0,0.0,0.0,0.0,0.0,0.0,0.0,0.0,0.0,0.0,0.0,nan,0.0,0.0,-0.0075103045,0.00034276396,0.0017037243,-0.0030785203,0.0,0.0,0.0,0.0,0.0,0.0
21733664000,21733584000,0.019285202,-0.011676555,-0.021900974,0.0012132525,0.0046931505,0.0,0.0,0.0,0.0,0.0,0.0,0.0,0.0,0.0,0.0,0.0,nan,0.0,0.0,0.010527372,0.00034276396,0.0017037243,-0.0030785203,0.0,0.0,0.0,0.0,0.0,0.0
21734160000,21734080000,-0.01331916,0.0053339126,0.009461618,0.00020289421,0.008966804,0.0,0.0,0.0,0.0,0.0,0.0,0.0,0.0,0.0051116943,0.0,0.0,nan,0.0,0.0,0.0021933317,0.00034276396,0.0017037243,-0.0030785203,0.0,0.0,0.0,0.0,0.0,0.0
21734664000,21734584000,-0.01409819,0.0044198334,-0.09540278,-0.004363358,0.018429637,0.0,0.0,0.0,0.0,0.0,0.0,0.0,0.0,0.09233093,0.0,0.0,nan,0.0,0.0,-0.002780199,0.00034276396,0.0017037243,-0.0030785203,0.0,0.0,0.0,0.0,0.0,0.0
21735160000,21735080000,-0.02080921,-0.0034970557,0.022698164,-0.013221383,0.019493222,0.0,0.0,0.0,0.0,0.0,0.0,0.0,0.0,0.065078735,0.0,0.0,nan,0.0,0.0,-0.005882859,0.00034276396,0.0017037243,-0.0030785203,0.0,0.0,0.0,0.0,0.0,0.0
21735664000,21735584000,-0.038678784,0.028205514,0.05208522,-0.013610244,0.029492617,0.0,0.0,0.0,0.0,0.0,0.0,0.0,0.0,-0.08648682,0.0,0.0,nan,0.0,0.0,0.07195008,0.00034276396,0.0017037243,-0.0030785203,0.0,0.0,0.0,0.0,0.0,0.0
21736168000,21736088000,-0.038295705,0.018948471,0.11500114,-0.030362844,0.029037833,0.0,0.0,0.0,0.0,0.0,0.0,0.0,0.0,-0.007232666,0.0,0.0,nan,0.0,0.0,0.020623922,0.00034276396,0.0017037243,-0.0030785203,0.0,0.0,0.0,0.0,0.0,0.0
21736664000,21736584000,-0.032316774,-0.0025380005,0.023312807,-0.02997601,0.03229451,0.0,0.0,0.0,0.0,0.0,0.0,0.0,0.0,0.03955078,0.0,0.0,nan,0.0,0.0,0.059161663,0.00034276396,0.0017037243,-0.0030785203,0.0,0.0,0.0,0.0,0.0,0.0
21737168000,21737088000,0.012555519,0.00043338863,0.056890413,-0.02618599,0.031674504,0.0,0.0,0.0,0.0,0.0,0.0,0.0,0.0,0.033599854,0.0,0.0,nan,0.0,0.0,0.029208064,0.00034276396,0.0017037243,-0.0030785203,0.0,0.0,0.0,0.0,0.0,0.0
21737664000,21737584000,-0.0015673498,-0.023223978,0.019564018,-0.03616053,0.021452188,0.0,0.0,0.0,0.0,0.0,0.0,0.0,0.0,0.111572266,0.0,0.0,nan,0.0,0.0,0.019740462,0.00034276396,0.0017037243,-0.0030785203,0.0,0.0,0.0,0.0,0.0,0.0
21738160000,21738080000,-0.011150062,-0.011392619,0.011628278,-0.036806583,0.015546799,0.0,0.0,0.0,0.0,0.0,0.0,0.0,0.0,0.0693512,0.0,0.0,nan,0.0,0.0,0.019180298,0.00034276396,0.0017037243,-0.0030785203,0.0,0.0,0.0,0.0,0.0,0.0
21738664000,21738584000,-0.015404674,-0.0012811422,0.009045988,-0.038848877,0.009234667,0.0,0.0,0.0,0.0,0.0,0.0,0.0,0.0,0.065963745,0.0,0.0,nan,0.0,0.0,0.0076891184,0.00034276396,0.0017037243,-0.0030785203,0.0,0.0,0.0,0.0,0.0,0.0
21739168000,21739088000,-0.006021504,0.024962842,0.026332438,-0.03918475,0.012360513,0.0,0.0,0.0,0.0,0.0,0.0,0.0,0.0,0.078811646,0.0,0.0,nan,0.0,0.0,0.006206274,0.00034276396,0.0017037243,-0.0030785203,0.0,0.0,0.0,0.0,0.0,0.0
21739664000,21739584000,-0.15268415,0.02406478,-0.07554901,-0.06087196,0.007795021,0.0,0.0,0.0,0.0,0.0,0.0,0.0,0.0,0.17831421,0.0,0.0,nan,0.0,0.0,0.0264045,0.00082752854,-0.0009974688,-0.002361685,0.0,0.0,0.0,0.0,0.0,0.0
21740168000,21740088000,-0.07558608,-0.04671812,-0.08490133,-0.050061226,0.0044462085,0.0,0.0,0.0,0.0,0.0,0.0,0.0,0.0,0.24813843,0.0,0.0,nan,0.0,0.0,0.0264045,0.00092019886,0.0017744452,0.002298832,0.0,0.0,0.0,0.0,0.0,0.0
21740664000,21740584000,-0.037243128,-0.056284666,-0.035016537,-0.020418286,-0.015183926,0.0,0.0,0.0,0.0,0.0,0.0,0.0,0.0,0.12556458,0.0,0.0,nan,0.0,0.0,0.0264045,-0.000285618,0.0011823773,-0.0027285516,0.0,0.0,0.0,0.0,0.0,0.0
21741168000,21741088000,-0.025595069,-0.049782515,-0.037864923,-0.023193121,-0.021165133,0.0,0.0,0.0,0.0,0.0,0.0,0.0,0.0,0.046417236,0.0,0.0,nan,0.0,0.0,0.0264045,0.011605807,0.0009640008,0.0077121854,0.0,0.0,0.0,0.0,0.0,0.0
21741664000,21741584000,-0.021800041,-0.035681963,-0.08053255,-0.020670176,-0.0007572174,0.0,0.0,0.0,0.0,0.0,0.0,0.0,0.0,0.23449707,0.0,0.0,nan,0.0,0.0,0.0264045,-0.00086473674,0.0011034161,-0.0019038916,0.0,0.0,0.0,0.0,0.0,0.0
21742168000,21742088000,0.0109164715,-0.02452159,-0.020492315,-0.00604105,-0.0019922256,0.0,0.0,0.0,0.0,0.0,0.0,0.0,0.0,0.3143921,0.0,0.0,nan,0.0,0.0,0.0264045,0.0013707057,-7.067621e-05,-0.005353868,0.0,0.0,0.0,0.0,0.0,0.0
21742664000,21742584000,-0.02284789,-0.050531864,0.00988245,-0.00836277,-0.011823654,0.0,0.0,0.0,0.0,0.0,0.0,0.0,0.0,0.1574707,0.0,0.0,nan,0.0,0.0,0.0264045,0.0019064248,-0.0011923611,-0.00067958236,0.0,0.0,0.0,0.0,0.0,0.0
21743160000,21743080000,-0.011761427,-0.028452873,-0.037935734,-0.0009422302,-0.032110214,0.0,0.0,0.0,0.0,0.0,0.0,0.0,0.0,0.12298584,0.0,0.0,nan,0.0,0.0,0.0264045,-1.9326806e-05,-0.0052782446,-0.00024592876,0.0,0.0,0.0,0.0,0.0,0.0
21743664000,21743584000,-0.02385807,-0.0402174,-0.05752039,0.02281189,-0.05078888,0.0,0.0,0.0,0.0,0.0,0.0,0.0,0.0,0.08010864,0.0,0.0,nan,0.0,0.0,0.0264045,0.004303016,0.0046943724,-0.0059500337,0.0,0.0,0.0,0.0,0.0,0.0
21744168000,21744088000,0.028262377,-0.021139145,0.03777933,0.0151081085,-0.016771317,0.0,0.0,0.0,0.0,0.0,0.0,0.0,0.0,0.16352844,0.0,0.0,nan,0.0,0.0,0.0264045,0.00215891,0.002098143,-0.0013293028,0.0,0.0,0.0,0.0,0.0,0.0
21744664000,21744584000,0.0015275478,-0.015017509,-0.006901264,0.040581703,-0.07805252,0.0,0.0,0.0,0.0,0.0,0.0,0.0,0.0,0.122680664,0.0,0.0,nan,0.0,0.0,0.0264045,-0.0027268305,0.000867188,-0.009328932,0.0,0.0,0.0,0.0,0.0,0.0
21745168000,21745088000,0.0038740635,-0.0075364113,-0.034186363,0.028511047,-0.04283333,0.0,0.0,0.0,0.0,0.0,0.0,0.0,0.0,0.18391418,0.0,0.0,nan,0.0,0.0,0.0264045,-0.000100016594,-4.298985e-05,-0.0034792721,0.0,0.0,0.0,0.0,0.0,0.0
21745664000,21745584000,0.004789591,-0.039161205,-0.07484436,0.0379467,-0.051656723,0.0,0.0,0.0,0.0,0.0,0.0,0.0,0.0,0.07322693,0.0,0.0,nan,0.0,0.0,0.026381135,-0.0030542165,-0.0006084442,0.0027032793,0.0,0.0,0.0,0.0,0.0,0.0
21746168000,21746088000,0.011766195,-0.010262489,-0.04177475,0.06294155,-0.09506035,0.0,0.0,0.0,0.0,0.0,0.0,0.0,0.0,0.090286255,0.0,0.0,nan,0.0,0.0,0.0020723343,-0.0030542165,-0.0006084442,0.0027032793,0.0,0.0,0.0,0.0,0.0,0.0
21746664000,21746584000,-0.007098913,-0.0064816475,-0.010938168,0.037563324,-0.0429821,0.0,0.0,0.0,0.0,0.0,0.0,0.0,0.0,0.10769653,0.0,0.0,nan,0.0,0.0,0.015393972,-0.0030542165,-0.0006084442,0.0027032793,0.0,0.0,0.0,0.0,0.0,0.0
21747168000,21747088000,-0.0005123615,-0.03877306,0.038800716,0.04071808,-0.045324326,0.0,0.0,0.0,0.0,0.0,0.0,0.0,0.0,0.08798218,0.0,0.0,nan,0.0,0.0,0.02514565,-0.0030542165,-0.0006084442,0.0027032793,0.0,0.0,0.0,0.0,0.0,0.0
21747664000,21747584000,0.02578497,-0.02560854,-0.07436848,0.06319809,-0.06309509,0.0,0.0,0.0,0.0,0.0,0.0,0.0,0.0,0.021392822,0.0,0.0,nan,0.0,0.0,0.012406111,-0.0030542165,-0.0006084442,0.0027032793,0.0,0.0,0.0,0.0,0.0,0.0
21748168000,21748088000,0.02509451,0.0044999123,2.1457672e-05,0.062213898,-0.06757355,0.0,0.0,0.0,0.0,0.0,0.0,0.0,0.0,-0.110443115,0.0,0.0,nan,0.0,0.0,-0.0026304722,-0.0030542165,-0.0006084442,0.0027032793,0.0,0.0,0.0,0.0,0.0,0.0
21748664000,21748584000,0.02701044,0.005217552,-0.06374121,0.06256294,-0.0731926,0.0,0.0,0.0,0.0,0.0,0.0,0.0,0.0,0.019821167,0.0,0.0,nan,0.0,0.0,-0.007139325,-0.0030542165,-0.0006084442,0.0027032793,0.0,0.0,0.0,0.0,0.0,0.0
21749168000,21749088000,0.027532816,0.006647587,-0.023055553,0.055704117,-0.05343628,0.0,0.0,0.0,0.0,0.0,0.0,0.0,0.0,0.012176514,0.0,0.0,nan,0.0,0.0,-0.0077843666,-0.0030542165,-0.0006084442,0.0027032793,0.0,0.0,0.0,0.0,0.0,0.0
21749664000,21749584000,-0.011673212,-0.008491516,-0.040151596,0.0701561,-0.06995392,0.0,0.0,0.0,0.0,0.0,0.0,0.0,0.0,0.007217407,0.0,0.0,nan,0.0,0.0,-0.0041542053,-0.0030542165,-0.0006084442,0.0027032793,0.0,0.0,0.0,0.0,0.0,0.0
21750160000,21750080000,0.030394316,-0.011013031,-0.030976295,0.093372345,-0.09885788,0.0,0.0,0.0,0.0,0.0,0.0,0.0,0.0,-0.065200806,0.0,0.0,nan,0.0,0.0,0.0063388348,-0.0030542165,-0.0006084442,0.0027032793,0.0,0.0,0.0,0.0,0.0,0.0
21750664000,21750584000,0.0042266846,0.0008459091,-0.044991016,0.061613083,-0.07072067,0.0,0.0,0.0,0.0,0.0,0.0,0.0,0.0,0.06941223,0.0,0.0,nan,0.0,0.0,-0.00016534328,-0.0030542165,-0.0006084442,0.0027032793,0.0,0.0,0.0,0.0,0.0,0.0
21751168000,21751088000,0.0006914139,-0.011182785,0.0028252602,0.08398056,-0.09365463,0.0,0.0,0.0,0.0,0.0,0.0,0.0,0.0,-0.017547607,0.0,0.0,nan,0.0,0.0,-0.0024442673,-0.0030542165,-0.0006084442,0.0027032793,0.0,0.0,0.0,0.0,0.0,0.0
21751664000,21751584000,-0.01679349,-0.002044201,-0.02893591,0.05331993,-0.04465103,0.0,0.0,0.0,0.0,0.0,0.0,0.0,0.0,0.076156616,0.0,0.0,nan,0.0,0.0,0.00027775764,-0.0030542165,-0.0006084442,0.0027032793,0.0,0.0,0.0,0.0,0.0,0.0
21752168000,21752088000,-0.004082918,-0.013425827,-0.00020170212,0.04994011,-0.050014496,0.0,0.0,0.0,0.0,0.0,0.0,0.0,0.0,0.030776978,0.0,0.0,nan,0.0,0.0,-0.012770414,-0.0030542165,-0.0006084442,0.0027032793,0.0,0.0,0.0,0.0,0.0,0.0
21752664000,21752584000,-0.027822256,-0.015404701,-0.01406765,0.068431854,-0.0937767,0.0,0.0,0.0,0.0,0.0,0.0,0.0,0.0,-0.08743286,0.0,0.0,nan,0.0,0.0,-0.010058761,-0.0030542165,-0.0006084442,0.0027032793,0.0,0.0,0.0,0.0,0.0,0.0
21753160000,21753080000,-0.025596142,-0.0057344437,0.04442501,0.051216125,-0.06462479,0.0,0.0,0.0,0.0,0.0,0.0,0.0,0.0,0.10055542,0.0,0.0,nan,0.0,0.0,-0.0023007393,-0.0030542165,-0.0006084442,0.0027032793,0.0,0.0,0.0,0.0,0.0,0.0
21753664000,21753584000,-0.022421122,-0.0013198853,0.028280258,0.05634308,-0.06529617,0.0,0.0,0.0,0.0,0.0,0.0,0.0,0.0,0.018310547,0.0,0.0,nan,0.0,0.0,0.0031898022,-0.0030542165,-0.0006084442,0.0027032793,0.0,0.0,0.0,0.0,0.0,0.0
21754168000,21754088000,-0.053021193,0.016840935,0.04971218,0.042922974,-0.06524658,0.0,0.0,0.0,0.0,0.0,0.0,0.0,0.0,0.14840698,0.0,0.0,nan,0.0,0.0,-0.009821892,-0.0030542165,-0.0006084442,0.0027032793,0.0,0.0,0.0,0.0,0.0,0.0
21754664000,21754584000,-0.017414808,0.030190468,-0.019929409,0.03458786,-0.03616333,0.0,0.0,0.0,0.0,0.0,0.0,0.0,0.0,-0.007843018,0.0,0.0,nan,0.0,0.0,-0.0043889284,-0.0030542165,-0.0006084442,0.0027032793,0.0,0.0,0.0,0.0,0.0,0.0
21755160000,21755080000,-0.04224205,0.019956112,0.06858826,0.049682617,-0.059448242,0.0,0.0,0.0,0.0,0.0,0.0,0.0,0.0,0.034988403,0.0,0.0,nan,0.0,0.0,-0.011638999,-0.0030542165,-0.0006084442,0.0027032793,0.0,0.0,0.0,0.0,0.0,0.0
21755664000,21755584000,-0.062232018,0.034069538,0.04176569,0.02835083,-0.048194885,0.0,0.0,0.0,0.0,0.0,0.0,0.0,0.0,0.077545166,0.0,0.0,nan,0.0,0.0,-0.0015484095,-0.0030542165,-0.0006084442,0.0027032793,0.0,0.0,0.0,0.0,0.0,0.0
21756168000,21756088000,-0.055633783,0.025414944,0.08165121,0.05952835,-0.09881592,0.0,0.0,0.0,0.0,0.0,0.0,0.0,0.0,0.17791748,0.0,0.0,nan,0.0,0.0,-0.0025465488,-0.0030542165,-0.0006084442,0.0027032793,0.0,0.0,0.0,0.0,0.0,0.0
21756664000,21756584000,-0.057225227,0.02295065,0.083301544,0.025924683,-0.05555725,0.0,0.0,0.0,0.0,0.0,0.0,0.0,0.0,0.029144287,0.0,0.0,nan,0.0,0.0,0.0042043924,-0.0030542165,-0.0006084442,0.0027032793,0.0,0.0,0.0,0.0,0.0,0.0
21757168000,21757088000,-0.051448822,0.016397476,0.08702898,0.032146454,-0.046417236,0.0,0.0,0.0,0.0,0.0,0.0,0.0,0.0,0.00012207031,0.0,0.0,nan,0.0,0.0,-0.006443739,-0.0030542165,-0.0006084442,0.0027032793,0.0,0.0,0.0,0.0,0.0,0.0
21757664000,21757584000,-0.039427996,0.01399374,0.09404802,0.029556274,-0.046173096,0.0,0.0,0.0,0.0,0.0,0.0,0.0,0.0,0.094818115,0.0,0.0,nan,0.0,0.0,-0.009606242,-0.0030542165,-0.0006084442,0.0027032793,0.0,0.0,0.0,0.0,0.0,0.0
21758168000,21758088000,-0.0468812,0.020686626,0.0815506,0.055526733,-0.09147644,0.0,0.0,0.0,0.0,0.0,0.0,0.0,0.0,-0.03753662,0.0,0.0,nan,0.0,0.0,-0.009245396,-0.0030542165,-0.0006084442,0.0027032793,0.0,0.0,0.0,0.0,0.0,0.0
21758664000,21758584000,-0.033258915,-0.014928341,0.08873844,0.045360565,-0.07483673,0.0,0.0,0.0,0.0,0.0,0.0,0.0,0.0,0.013381958,0.0,0.0,nan,0.0,0.0,0.009755969,-0.0030542165,-0.0006084442,0.0027032793,0.0,0.0,0.0,0.0,0.0,0.0
21759168000,21759088000,-0.022378683,-0.02993679,0.03298855,0.021751404,-0.048736572,0.0,0.0,0.0,0.0,0.0,0.0,0.0,0.0,0.1826477,0.0,0.0,nan,0.0,0.0,-0.0047203302,-0.0030542165,-0.0006084442,0.0027032793,0.0,0.0,0.0,0.0,0.0,0.0
21759664000,21759584000,-0.028204203,-0.008612633,0.09005308,0.036785126,-0.055610657,0.0,0.0,0.0,0.0,0.0,0.0,0.0,0.0,0.11479187,0.0,0.0,nan,0.0,0.0,-0.016055942,-0.0030542165,-0.0006084442,0.0027032793,0.0,0.0,0.0,0.0,0.0,0.0
21760160000,21760080000,-0.006906271,0.022812843,0.11535311,0.044822693,-0.06614685,0.0,0.0,0.0,0.0,0.0,0.0,0.0,0.0,0.09527588,0.0,0.0,nan,0.0,0.0,-0.009642243,-0.0030542165,-0.0006084442,0.0027032793,0.0,0.0,0.0,0.0,0.0,0.0
21760664000,21760584000,-0.0130319595,0.035678864,0.14402199,0.03763199,-0.06109619,0.0,0.0,0.0,0.0,0.0,0.0,0.0,0.0,0.05810547,0.0,0.0,nan,0.0,0.0,-0.01099658,-0.0030542165,-0.0006084442,0.0027032793,0.0,0.0,0.0,0.0,0.0,0.0
21761160000,21761080000,0.0114991665,0.02402401,0.08040714,0.038276672,-0.061958313,0.0,0.0,0.0,0.0,0.0,0.0,0.0,0.0,0.053466797,0.0,0.0,nan,0.0,0.0,1.4305115e-06,-0.0030542165,-0.0006084442,0.0027032793,0.0,0.0,0.0,0.0,0.0,0.0
21761664000,21761584000,-0.00744009,0.018841267,0.06961012,0.034553528,-0.058799744,0.0,0.0,0.0,0.0,0.0,0.0,0.0,0.0,-0.001876831,0.0,0.0,nan,0.0,0.0,0.004950285,-0.0030542165,-0.0006084442,0.0027032793,0.0,0.0,0.0,0.0,0.0,0.0
21762168000,21762088000,-0.011626482,0.032592297,0.08857632,0.04070282,-0.082084656,0.0,0.0,0.0,0.0,0.0,0.0,0.0,0.0,0.22102356,0.0,0.0,nan,0.0,0.0,0.021142006,-0.0030542165,-0.0006084442,0.0027032793,0.0,0.0,0.0,0.0,0.0,0.0
21762664000,21762584000,-0.023526907,0.047486305,0.073999405,0.023025513,-0.05937195,0.0,0.0,0.0,0.0,0.0,0.0,0.0,0.0,0.17529297,0.0,0.0,nan,0.0,0.0,-0.019269109,-0.0030542165,-0.0006084442,0.0027032793,0.0,0.0,0.0,0.0,0.0,0.0
21763160000,21763080000,-0.007482052,0.006694317,0.016702175,0.040901184,-0.061935425,0.0,0.0,0.0,0.0,0.0,0.0,0.0,0.0,0.28408813,0.0,0.0,nan,0.0,0.0,-0.038404226,-0.0030542165,-0.0006084442,0.0027032793,0.0,0.0,0.0,0.0,0.0,0.0
21763664000,21763584000,0.00816083,0.034657955,0.05772066,0.051002502,-0.051704407,0.0,0.0,0.0,0.0,0.0,0.0,0.0,0.0,0.18457031,0.0,0.0,nan,0.0,0.0,-0.008403778,-0.0030542165,-0.0006084442,0.0027032793,0.0,0.0,0.0,0.0,0.0,0.0
21764160000,21764080000,-0.0023913383,0.024624348,0.065282345,0.03945923,-0.05306244,0.0,0.0,0.0,0.0,0.0,0.0,0.0,0.0,0.1415863,0.0,0.0,nan,0.0,0.0,0.024198413,-0.0030542165,-0.0006084442,0.0027032793,0.0,0.0,0.0,0.0,0.0,0.0
21764664000,21764584000,0.0037300587,0.013206959,0.025235653,0.041252136,-0.02470398,0.0,0.0,0.0,0.0,0.0,0.0,0.0,0.0,0.055007935,0.0,0.0,nan,0.0,0.0,0.0028458834,-0.0030542165,-0.0006084442,0.0027032793,0.0,0.0,0.0,0.0,0.0,0.0
21765160000,21765080000,0.0281291,0.0019135475,0.044311523,0.043182373,-0.026000977,0.0,0.0,0.0,0.0,0.0,0.0,0.0,0.0,0.18365479,0.0,0.0,nan,0.0,0.0,-0.012096167,-0.0030542165,-0.0006084442,0.0027032793,0.0,0.0,0.0,0.0,0.0,0.0
21765664000,21765584000,-0.006672859,0.023768902,0.05890417,0.06965637,-0.065322876,0.0,0.0,0.0,0.0,0.0,0.0,0.0,0.0,0.11917114,0.0,0.0,nan,0.0,0.0,-0.0068371296,-0.0030542165,-0.0006084442,0.0027032793,0.0,0.0,0.0,0.0,0.0,0.0
21766168000,21766088000,0.008509159,0.020357609,0.010479927,0.076431274,-0.05947876,0.0,0.0,0.0,0.0,0.0,0.0,0.0,0.0,0.19268799,0.0,0.0,nan,0.0,0.0,0.0041258335,-0.0030542165,-0.0006084442,0.0027032793,0.0,0.0,0.0,0.0,0.0,0.0
21766664000,21766584000,0.003906727,-0.004137993,0.053337097,0.0575943,-0.06628418,0.0,0.0,0.0,0.0,0.0,0.0,0.0,0.0,0.12532043,0.0,0.0,nan,0.0,0.0,0.0015202761,-0.0030542165,-0.0006084442,0.0027032793,0.0,0.0,0.0,0.0,0.0,0.0
21767168000,21767088000,0.00048661232,0.026263237,-0.0030498505,0.03492737,-0.030319214,0.0,0.0,0.0,0.0,0.0,0.0,0.0,0.0,0.104034424,0.0,0.0,nan,0.0,0.0,-0.022652268,-0.0030542165,-0.0006084442,0.0027032793,0.0,0.0,0.0,0.0,0.0,0.0
21767664000,21767584000,-0.0009315014,-0.0055365562,0.07778597,0.057411194,-0.063934326,0.0,0.0,0.0,0.0,0.0,0.0,0.0,0.0,0.13670349,0.0,0.0,nan,0.0,0.0,-0.010782361,-0.0030542165,-0.0006084442,0.0027032793,0.0,0.0,0.0,0.0,0.0,0.0
21768168000,21768088000,-0.005520582,-0.0049028397,0.016500473,0.05732727,-0.072784424,0.0,0.0,0.0,0.0,0.0,0.0,0.0,0.0,0.15065002,0.0,0.0,nan,0.0,0.0,-0.003376007,-0.0030542165,-0.0006084442,0.0027032793,0.0,0.0,0.0,0.0,0.0,0.0
21768664000,21768584000,-0.0007698536,-0.016729355,0.086723804,0.041999817,-0.053527832,0.0,0.0,0.0,0.0,0.0,0.0,0.0,0.0,0.1237793,0.0,0.0,nan,0.0,0.0,-0.01489532,-0.0030542165,-0.0006084442,0.0027032793,0.0,0.0,0.0,0.0,0.0,0.0
21769168000,21769088000,-0.015151739,-0.03134489,0.014659882,0.03390503,-0.056396484,0.0,0.0,0.0,0.0,0.0,0.0,0.0,0.0,0.14424133,0.0,0.0,nan,0.0,0.0,0.0036816597,-0.0030542165,-0.0006084442,0.0027032793,0.0,0.0,0.0,0.0,0.0,0.0
21769664000,21769584000,-0.012093306,-0.016067982,0.05116892,0.058555603,-0.07330322,0.0,0.0,0.0,0.0,0.0,0.0,0.0,0.0,-0.017486572,0.0,0.0,nan,0.0,0.0,0.00204885,-0.0030542165,-0.0006084442,0.0027032793,0.0,0.0,0.0,0.0,0.0,0.0
21770168000,21770088000,-0.0015399456,0.0020656586,0.04730606,0.062950134,-0.087142944,0.0,0.0,0.0,0.0,0.0,0.0,0.0,0.0,0.1428833,0.0,0.0,nan,0.0,0.0,0.011541605,-0.0030542165,-0.0006084442,0.0027032793,0.0,0.0,0.0,0.0,0.0,0.0
21770664000,21770584000,-3.385544e-05,-0.037204742,0.039006233,0.038482666,-0.048828125,0.0,0.0,0.0,0.0,0.0,0.0,0.0,0.0,0.06333923,0.0,0.0,nan,0.0,0.0,0.0009225607,-0.0030542165,-0.0006084442,0.0027032793,0.0,0.0,0.0,0.0,0.0,0.0
21771168000,21771088000,0.022104263,-0.026749134,-0.005420685,0.0361557,-0.047943115,0.0,0.0,0.0,0.0,0.0,0.0,0.0,0.0,0.11425781,0.0,0.0,nan,0.0,0.0,0.012885928,-0.0030542165,-0.0006084442,0.0027032793,0.0,0.0,0.0,0.0,0.0,0.0
21771664000,21771584000,0.018027544,-0.044467926,0.025684357,0.042366028,-0.07084656,0.0,0.0,0.0,0.0,0.0,0.0,0.0,0.0,0.07949829,0.0,0.0,nan,0.0,0.0,0.017658114,-0.0030542165,-0.0006084442,0.0027032793,0.0,0.0,0.0,0.0,0.0,0.0
21772168000,21772088000,0.033250093,-0.033076286,-0.008774281,0.05697632,-0.09375,0.0,0.0,0.0,0.0,0.0,0.0,0.0,0.0,0.052230835,0.0,0.0,nan,0.0,0.0,-0.011874795,-0.0030542165,-0.0006084442,0.0027032793,0.0,0.0,0.0,0.0,0.0,0.0
21772664000,21772584000,0.009604931,-0.05172634,-0.006304264,0.04335785,-0.07904053,0.0,0.0,0.0,0.0,0.0,0.0,0.0,0.0,0.015594482,0.0,0.0,nan,0.0,0.0,-0.0016829967,-0.0030542165,-0.0006084442,0.0027032793,0.0,0.0,0.0,0.0,0.0,0.0
21773168000,21773088000,0.011166334,-0.030156136,0.03309679,0.054908752,-0.09283447,0.0,0.0,0.0,0.0,0.0,0.0,0.0,0.0,0.035202026,0.0,0.0,nan,0.0,0.0,0.019333124,-0.0030542165,-0.0006084442,0.0027032793,0.0,0.0,0.0,0.0,0.0,0.0
21773664000,21773584000,-0.025552034,-0.043443203,-0.012403488,0.043304443,-0.08415222,0.0,0.0,0.0,0.0,0.0,0.0,0.0,0.0,0.09403992,0.0,0.0,nan,0.0,0.0,-0.005651951,-0.0030542165,-0.0006084442,0.0027032793,0.0,0.0,0.0,0.0,0.0,0.0
21774168000,21774088000,0.007219076,-0.016515732,-0.009396076,0.06941986,-0.10946655,0.0,0.0,0.0,0.0,0.0,0.0,0.0,0.0,0.02142334,0.0,0.0,nan,0.0,0.0,0.014679432,-0.0030542165,-0.0006084442,0.0027032793,0.0,0.0,0.0,0.0,0.0,0.0
21774664000,21774584000,0.0043883324,-0.018564224,-0.025859833,0.054512024,-0.086135864,0.0,0.0,0.0,0.0,0.0,0.0,0.0,0.0,-0.039489746,0.0,0.0,nan,0.0,0.0,-0.0129032135,-0.0030542165,-0.0006084442,0.0027032793,0.0,0.0,0.0,0.0,0.0,0.0
21775168000,21775088000,0.017369747,-0.06544304,-0.038601875,0.05152893,-0.09359741,0.0,0.0,0.0,0.0,0.0,0.0,0.0,0.0,0.004180908,0.0,0.0,nan,0.0,0.0,0.012358904,-0.0030542165,-0.0006084442,0.0027032793,0.0,0.0,0.0,0.0,0.0,0.0
21775664000,21775584000,0.009321451,-0.028559208,-0.022616863,0.052001953,-0.08457947,0.0,0.0,0.0,0.0,0.0,0.0,0.0,0.0,-0.0068359375,0.0,0.0,nan,0.0,0.0,0.0019005537,-0.0030542165,-0.0006084442,0.0027032793,0.0,0.0,0.0,0.0,0.0,0.0
21776160000,21776080000,-0.003913641,-0.038110733,-0.054768085,0.048843384,-0.09649658,0.0,0.0,0.0,0.0,0.0,0.0,0.0,0.0,-0.04699707,0.0,0.0,nan,0.0,0.0,0.000664711,-0.0030542165,-0.0006084442,0.0027032793,0.0,0.0,0.0,0.0,0.0,0.0
21776664000,21776584000,-0.019283056,-0.022836685,-0.061113834,0.038887024,-0.06298828,0.0,0.0,0.0,0.0,0.0,0.0,0.0,0.0,-0.052993774,0.0,0.0,nan,0.0,0.0,0.0109910965,-0.0030542165,-0.0006084442,0.0027032793,0.0,0.0,0.0,0.0,0.0,0.0
21777160000,21777080000,-0.016902924,-0.027395248,-0.022528172,0.05417633,-0.08856201,0.0,0.0,0.0,0.0,0.0,0.0,0.0,0.0,0.06840515,0.0,0.0,nan,0.0,0.0,-0.00686872,-0.0030542165,-0.0006084442,0.0027032793,0.0,0.0,0.0,0.0,0.0,0.0
21777664000,21777584000,0.00031876564,-0.047890663,-0.08819294,0.06188202,-0.13105774,0.0,0.0,0.0,0.0,0.0,0.0,0.0,0.0,-0.12997437,0.0,0.0,nan,0.0,0.0,0.00426054,-0.0030542165,-0.0006084442,0.0027032793,0.0,0.0,0.0,0.0,0.0,0.0
21778168000,21778088000,-0.025541306,-0.047687054,-0.05446911,0.048355103,-0.12445068,0.0,0.0,0.0,0.0,0.0,0.0,0.0,0.0,0.012893677,0.0,0.0,nan,0.0,0.0,-0.0039018393,-0.0030542165,-0.0006084442,0.0027032793,0.0,0.0,0.0,0.0,0.0,0.0
21778664000,21778584000,0.0050928593,-0.042988777,-0.01617527,0.026069641,-0.05543518,0.0,0.0,0.0,0.0,0.0,0.0,0.0,0.0,0.08300781,0.0,0.0,nan,0.0,0.0,-0.01805079,-0.0030542165,-0.0006084442,0.0027032793,0.0,0.0,0.0,0.0,0.0,0.0
21779168000,21779088000,-0.021405458,-0.07634401,-0.04659176,0.049064636,-0.12486267,0.0,0.0,0.0,0.0,0.0,0.0,0.0,0.0,-0.113983154,0.0,0.0,nan,0.0,0.0,0.0005565882,-0.0030542165,-0.0006084442,0.0027032793,0.0,0.0,0.0,0.0,0.0,0.0
21779664000,21779584000,-0.010260344,-0.006234646,-0.09406471,0.026237488,-0.06265259,0.0,0.0,0.0,0.0,0.0,0.0,0.0,0.0,-0.0129852295,0.0,0.0,nan,0.0,0.0,-0.007923007,-0.0030542165,-0.0006084442,0.0027032793,0.0,0.0,0.0,0.0,0.0,0.0
21780168000,21780088000,0.015908003,-0.04152155,-0.079981804,0.051246643,-0.11462402,0.0,0.0,0.0,0.0,0.0,0.0,0.0,0.0,-0.05859375,0.0,0.0,nan,0.0,0.0,-0.006940007,-0.0030542165,-0.0006084442,0.0027032793,0.0,0.0,0.0,0.0,0.0,0.0
21780664000,21780584000,-0.022590637,-0.026212692,-0.063623905,0.021560669,-0.0688324,0.0,0.0,0.0,0.0,0.0,0.0,0.0,0.0,-0.026473999,0.0,0.0,nan,0.0,0.0,-0.03677571,-0.0030542165,-0.0006084442,0.0027032793,0.0,0.0,0.0,0.0,0.0,0.0
21781160000,21781080000,-0.03514695,-0.059490204,-0.06943703,0.019493103,-0.07168579,0.0,0.0,0.0,0.0,0.0,0.0,0.0,0.0,-0.053131104,0.0,0.0,nan,0.0,0.0,-0.010744333,-0.0030542165,-0.0006084442,0.0027032793,0.0,0.0,0.0,0.0,0.0,0.0
21781664000,21781584000,-0.035187244,-0.011704922,-0.027040005,0.0409317,-0.09239197,0.0,0.0,0.0,0.0,0.0,0.0,0.0,0.0,0.032043457,0.0,0.0,nan,0.0,0.0,0.0035362244,-0.0030542165,-0.0006084442,0.0027032793,0.0,0.0,0.0,0.0,0.0,0.0
21782168000,21782088000,0.020674944,-0.042254448,-0.000936985,0.034614563,-0.06365967,0.0,0.0,0.0,0.0,0.0,0.0,0.0,0.0,-0.13183594,0.0,0.0,nan,0.0,0.0,-0.007998943,-0.0030542165,-0.0006084442,0.0027032793,0.0,0.0,0.0,0.0,0.0,0.0
21782664000,21782584000,-0.024442673,-0.048279762,-0.03391838,0.03261566,-0.090042114,0.0,0.0,0.0,0.0,0.0,0.0,0.0,0.0,-0.031661987,0.0,0.0,nan,0.0,0.0,-0.019770384,-0.0030542165,-0.0006084442,0.0027032793,0.0,0.0,0.0,0.0,0.0,0.0
21783168000,21783088000,-0.02813816,-0.019760609,-0.032435894,0.025856018,-0.07829285,0.0,0.0,0.0,0.0,0.0,0.0,0.0,0.0,-0.1071167,0.0,0.0,nan,0.0,0.0,-0.012368202,-0.0030542165,-0.0006084442,0.0027032793,0.0,0.0,0.0,0.0,0.0,0.0
21783664000,21783584000,0.019131184,-0.0026926994,0.0022907257,0.051834106,-0.10424805,0.0,0.0,0.0,0.0,0.0,0.0,0.0,0.0,-0.007843018,0.0,0.0,nan,0.0,0.0,-0.0011457205,-0.0030542165,-0.0006084442,0.0027032793,0.0,0.0,0.0,0.0,0.0,0.0
21784168000,21784088000,-0.028001547,-0.011002541,0.045445442,0.024635315,-0.05647278,0.0,0.0,0.0,0.0,0.0,0.0,0.0,0.0,-0.019226074,0.0,0.0,nan,0.0,0.0,-0.0034450293,-0.0030542165,-0.0006084442,0.0027032793,0.0,0.0,0.0,0.0,0.0,0.0
21784664000,21784584000,-0.017705917,-0.0022006035,0.011423588,0.035842896,-0.06903076,0.0,0.0,0.0,0.0,0.0,0.0,0.0,0.0,-0.059524536,0.0,0.0,nan,0.0,0.0,-0.004638791,-0.0030542165,-0.0006084442,0.0027032793,0.0,0.0,0.0,0.0,0.0,0.0
21785160000,21785080000,-0.045752287,-0.027406216,0.03179407,0.03982544,-0.07633972,0.0,0.0,0.0,0.0,0.0,0.0,0.0,0.0,-0.03173828,0.0,0.0,nan,0.0,0.0,-0.008182645,-0.0030542165,-0.0006084442,0.0027032793,0.0,0.0,0.0,0.0,0.0,0.0
21785664000,21785584000,-0.010976315,-0.003329277,0.097726345,0.06008911,-0.1015625,0.0,0.0,0.0,0.0,0.0,0.0,0.0,0.0,0.09976196,0.0,0.0,nan,0.0,0.0,0.037143588,-0.0030542165,-0.0006084442,0.0027032793,0.0,0.0,0.0,0.0,0.0,0.0
21786168000,21786088000,-0.0030267239,0.0278368,0.059019566,0.05555725,-0.09832764,0.0,0.0,0.0,0.0,0.0,0.0,0.0,0.0,0.032043457,0.0,0.0,nan,0.0,0.0,-0.016141653,-0.0030542165,-0.0006084442,0.0027032793,0.0,0.0,0.0,0.0,0.0,0.0
21786664000,21786584000,-0.0057177544,-0.013247967,0.05348301,0.025253296,-0.061645508,0.0,0.0,0.0,0.0,0.0,0.0,0.0,0.0,0.047729492,0.0,0.0,nan,0.0,0.0,-0.016281486,-0.0030542165,-0.0006084442,0.0027032793,0.0,0.0,0.0,0.0,0.0,0.0
21787168000,21787088000,-0.018141747,0.0062890053,0.07279873,0.022354126,-0.059432983,0.0,0.0,0.0,0.0,0.0,0.0,0.0,0.0,0.042907715,0.0,0.0,nan,0.0,0.0,-0.0055583715,-0.0030542165,-0.0006084442,0.0027032793,0.0,0.0,0.0,0.0,0.0,0.0
21787664000,21787584000,0.039402008,0.0047211647,0.08782101,0.06278992,-0.10508728,0.0,0.0,0.0,0.0,0.0,0.0,0.0,0.0,0.11087036,0.0,0.0,nan,0.0,0.0,-0.015511274,-0.0030542165,-0.0006084442,0.0027032793,0.0,0.0,0.0,0.0,0.0,0.0
21788168000,21788088000,-0.014936686,0.031184673,0.055259228,0.04283142,-0.09751892,0.0,0.0,0.0,0.0,0.0,0.0,0.0,0.0,0.12036133,0.0,0.0,nan,0.0,0.0,-0.022386432,-0.0030542165,-0.0006084442,0.0027032793,0.0,0.0,0.0,0.0,0.0,0.0
21788664000,21788584000,0.022262573,0.014216423,0.06362772,0.028381348,-0.07798767,0.0,0.0,0.0,0.0,0.0,0.0,0.0,0.0,-0.005554199,0.0,0.0,nan,0.0,0.0,-0.008404255,-0.0030542165,-0.0006084442,0.0027032793,0.0,0.0,0.0,0.0,0.0,0.0
21789160000,21789080000,-0.011401176,0.004286766,0.08457804,0.02230835,-0.058181763,0.0,0.0,0.0,0.0,0.0,0.0,0.0,0.0,0.09838867,0.0,0.0,nan,0.0,0.0,-0.019694686,-0.0030542165,-0.0006084442,0.0027032793,0.0,0.0,0.0,0.0,0.0,0.0
21789664000,21789584000,0.026475191,-0.00033569336,0.12172222,0.036895752,-0.058776855,0.0,0.0,0.0,0.0,0.0,0.0,0.0,0.0,0.04437256,0.0,0.0,nan,0.0,0.0,-0.004640341,-0.0030542165,-0.0006084442,0.0027032793,0.0,0.0,0.0,0.0,0.0,0.0
21790168000,21790088000,0.023586273,0.0011963844,0.056951046,0.043624878,-0.08074951,0.0,0.0,0.0,0.0,0.0,0.0,0.0,0.0,0.11483765,0.0,0.0,nan,0.0,0.0,-0.025155425,-0.0030542165,-0.0006084442,0.0027032793,0.0,0.0,0.0,0.0,0.0,0.0
21790664000,21790584000,0.0076389313,0.0038957596,0.045711994,0.044006348,-0.07687378,0.0,0.0,0.0,0.0,0.0,0.0,0.0,0.0,0.16040039,0.0,0.0,nan,0.0,0.0,-0.008971095,-0.0030542165,-0.0006084442,0.0027032793,0.0,0.0,0.0,0.0,0.0,0.0
21791160000,21791080000,0.02352643,0.015618324,0.070017815,0.038253784,-0.078125,0.0,0.0,0.0,0.0,0.0,0.0,0.0,0.0,0.10571289,0.0,0.0,nan,0.0,0.0,-0.010793328,-0.0030542165,-0.0006084442,0.0027032793,0.0,0.0,0.0,0.0,0.0,0.0
21791664000,21791584000,-0.01160717,0.008136749,0.10750055,0.065719604,-0.1211853,0.0,0.0,0.0,0.0,0.0,0.0,0.0,0.0,0.14660645,0.0,0.0,nan,0.0,0.0,0.0015017986,-0.0030542165,-0.0006084442,0.0027032793,0.0,0.0,0.0,0.0,0.0,0.0
21792168000,21792088000,-5.9604645e-06,0.0011372566,0.01326561,0.030471802,-0.07284546,0.0,0.0,0.0,0.0,0.0,0.0,0.0,0.0,0.074035645,0.0,0.0,nan,0.0,0.0,-0.004661441,-0.0030542165,-0.0006084442,0.0027032793,0.0,0.0,0.0,0.0,0.0,0.0
21792664000,21792584000,-0.023446798,-0.016705513,0.085205555,0.03050232,-0.07687378,0.0,0.0,0.0,0.0,0.0,0.0,0.0,0.0,0.16522217,0.0,0.0,nan,0.0,0.0,-0.0057497025,-0.0030542165,-0.0006084442,0.0027032793,0.0,0.0,0.0,0.0,0.0,0.0
21793160000,21793080000,-0.013507128,-0.03242731,0.04294491,0.031539917,-0.06958008,0.0,0.0,0.0,0.0,0.0,0.0,0.0,0.0,0.1338501,0.0,0.0,nan,0.0,0.0,-0.005518317,-0.0030542165,-0.0006084442,0.0027032793,0.0,0.0,0.0,0.0,0.0,0.0
21793664000,21793584000,-0.0015468597,-0.0070796013,0.08715439,0.01171875,-0.029846191,0.0,0.0,0.0,0.0,0.0,0.0,0.0,0.0,0.054870605,0.0,0.0,nan,0.0,0.0,-0.0024284124,-0.0030542165,-0.0006084442,0.0027032793,0.0,0.0,0.0,0.0,0.0,0.0
21794160000,21794080000,-0.015747547,-0.018702507,0.087207794,0.029342651,-0.061401367,0.0,0.0,0.0,0.0,0.0,0.0,0.0,0.0,0.12582397,0.0,0.0,nan,0.0,0.0,-0.0008634329,-0.0030542165,-0.0006084442,0.0027032793,0.0,0.0,0.0,0.0,0.0,0.0
21794664000,21794584000,-0.024174213,-0.016232014,0.04251337,0.022720337,-0.048431396,0.0,0.0,0.0,0.0,0.0,0.0,0.0,0.0,0.13375854,0.0,0.0,nan,0.0,0.0,-0.009262204,-0.0030542165,-0.0006084442,0.0027032793,0.0,0.0,0.0,0.0,0.0,0.0
21795160000,21795080000,-0.015219212,-0.028823853,0.06940079,0.017791748,-0.054260254,0.0,0.0,0.0,0.0,0.0,0.0,0.0,0.0,0.1184082,0.0,0.0,nan,0.0,0.0,-0.019895196,-0.0030542165,-0.0006084442,0.0027032793,0.0,0.0,0.0,0.0,0.0,0.0
21795664000,21795584000,-0.029784441,-0.03374958,0.07471609,0.042922974,-0.098236084,0.0,0.0,0.0,0.0,0.0,0.0,0.0,0.0,0.0675354,0.0,0.0,nan,0.0,0.0,-0.0058219433,-0.0030542165,-0.0006084442,0.0027032793,0.0,0.0,0.0,0.0,0.0,0.0
21796168000,21796088000,-0.04427576,-0.044006348,0.01244545,0.031814575,-0.07992554,0.0,0.0,0.0,0.0,0.0,0.0,0.0,0.0,0.09030151,0.0,0.0,nan,0.0,0.0,-0.0027692318,-0.0030542165,-0.0006084442,0.0027032793,0.0,0.0,0.0,0.0,0.0,0.0
21796664000,21796584000,-0.036695242,-0.038039207,0.022844791,0.011077881,-0.04751587,0.0,0.0,0.0,0.0,0.0,0.0,0.0,0.0,0.06011963,0.0,0.0,nan,0.0,0.0,-0.014164209,-0.0030542165,-0.0006084442,0.0027032793,0.0,0.0,0.0,0.0,0.0,0.0
21797168000,21797088000,-0.055002213,-0.0418725,0.030976772,0.020019531,-0.061340332,0.0,0.0,0.0,0.0,0.0,0.0,0.0,0.0,0.114746094,0.0,0.0,nan,0.0,0.0,-0.015529275,-0.0030542165,-0.0006084442,0.0027032793,0.0,0.0,0.0,0.0,0.0,0.0
21797664000,21797584000,-0.05554843,-0.023723602,0.016217709,0.018615723,-0.07720947,0.0,0.0,0.0,0.0,0.0,0.0,0.0,0.0,0.13412476,0.0,0.0,nan,0.0,0.0,-0.003957987,-0.0030542165,-0.0006084442,0.0027032793,0.0,0.0,0.0,0.0,0.0,0.0
21798168000,21798088000,-0.052742243,-0.039633274,0.034043312,0.028289795,-0.10925293,0.0,0.0,0.0,0.0,0.0,0.0,0.0,0.0,0.1720581,0.0,0.0,nan,0.0,0.0,-0.0057042837,-0.0030542165,-0.0006084442,0.0027032793,0.0,0.0,0.0,0.0,0.0,0.0
21798664000,21798584000,-0.015236855,-0.034722805,0.03011036,0.020141602,-0.075531006,0.0,0.0,0.0,0.0,0.0,0.0,0.0,0.0,0.08148193,0.0,0.0,nan,0.0,0.0,-0.0054237843,-0.0030542165,-0.0006084442,0.0027032793,0.0,0.0,0.0,0.0,0.0,0.0
21799168000,21799088000,-0.054139137,-0.048758507,0.0055761337,0.018585205,-0.079437256,0.0,0.0,0.0,0.0,0.0,0.0,0.0,0.0,0.12710571,0.0,0.0,nan,0.0,0.0,0.012193203,-0.0030542165,-0.0006084442,0.0027032793,0.0,0.0,0.0,0.0,0.0,0.0
21799664000,21799584000,-0.046642303,-0.038263798,0.007296562,0.010070801,-0.06616211,0.0,0.0,0.0,0.0,0.0,0.0,0.0,0.0,0.14797974,0.0,0.0,nan,0.0,0.0,-0.012833834,-0.0030542165,-0.0006084442,0.0027032793,0.0,0.0,0.0,0.0,0.0,0.0
21800168000,21800088000,-0.014978647,-0.074325085,0.0030274391,0.014968872,-0.06362915,0.0,0.0,0.0,0.0,0.0,0.0,0.0,0.0,0.07623291,0.0,0.0,nan,0.0,0.0,-0.00035381317,-0.0030542165,-0.0006084442,0.0027032793,0.0,0.0,0.0,0.0,0.0,0.0
21800664000,21800584000,-0.04027319,-0.036441803,-0.014561653,0.019973755,-0.10430908,0.0,0.0,0.0,0.0,0.0,0.0,0.0,0.0,0.16479492,0.0,0.0,nan,0.0,0.0,-0.0028994083,-0.0030542165,-0.0006084442,0.0027032793,0.0,0.0,0.0,0.0,0.0,0.0
21801160000,21801080000,-0.001988411,-0.07077217,0.023857117,0.04458618,-0.12322998,0.0,0.0,0.0,0.0,0.0,0.0,0.0,0.0,0.06311035,0.0,0.0,nan,0.0,0.0,-0.0014894009,-0.0030542165,-0.0006084442,0.0027032793,0.0,0.0,0.0,0.0,0.0,0.0
21801664000,21801584000,-0.025930405,-0.080746174,-0.033893585,0.0440979,-0.12738037,0.0,0.0,0.0,0.0,0.0,0.0,0.0,0.0,-0.07733154,0.0,0.0,nan,0.0,0.0,-0.006776929,-0.0030542165,-0.0006084442,0.0027032793,0.0,0.0,0.0,0.0,0.0,0.0
21802160000,21802080000,-0.03528714,-0.06868744,0.012426376,0.013320923,-0.09164429,0.0,0.0,0.0,0.0,0.0,0.0,0.0,0.0,-0.03036499,0.0,0.0,nan,0.0,0.0,-0.008246541,-0.0030542165,-0.0006084442,0.0027032793,0.0,0.0,0.0,0.0,0.0,0.0
21802664000,21802584000,-0.0070483685,-0.060970306,-0.035888195,0.030899048,-0.092803955,0.0,0.0,0.0,0.0,0.0,0.0,0.0,0.0,0.029083252,0.0,0.0,nan,0.0,0.0,0.0021266937,-0.0030542165,-0.0006084442,0.0027032793,0.0,0.0,0.0,0.0,0.0,0.0
21803168000,21803088000,-0.004235506,-0.084047794,-0.021515846,0.04737854,-0.13156128,0.0,0.0,0.0,0.0,0.0,0.0,0.0,0.0,-0.028381348,0.0,0.0,nan,0.0,0.0,-0.000954628,-0.0030542165,-0.0006084442,0.0027032793,0.0,0.0,0.0,0.0,0.0,0.0
21803664000,21803584000,-0.014777899,-0.05006504,-0.053120613,0.030654907,-0.11248779,0.0,0.0,0.0,0.0,0.0,0.0,0.0,0.0,-0.0069274902,0.0,0.0,nan,0.0,0.0,-0.0075552464,-0.0030542165,-0.0006084442,0.0027032793,0.0,0.0,0.0,0.0,0.0,0.0
21804168000,21804088000,-0.03805399,-0.064665794,-0.014575481,0.032592773,-0.10900879,0.0,0.0,0.0,0.0,0.0,0.0,0.0,0.0,0.09460449,0.0,0.0,nan,0.0,0.0,0.006094694,-0.0030542165,-0.0006084442,0.0027032793,0.0,0.0,0.0,0.0,0.0,0.0
21804664000,21804584000,-0.012465954,-0.047288895,-0.045974255,0.024108887,-0.087371826,0.0,0.0,0.0,0.0,0.0,0.0,0.0,0.0,0.019073486,0.0,0.0,nan,0.0,0.0,-0.0140708685,-0.0030542165,-0.0006084442,0.0027032793,0.0,0.0,0.0,0.0,0.0,0.0
21805168000,21805088000,-0.0044047832,-0.049314976,-0.05371809,0.02999878,-0.11148071,0.0,0.0,0.0,0.0,0.0,0.0,0.0,0.0,0.006072998,0.0,0.0,nan,0.0,0.0,-0.021970987,-0.0030542165,-0.0006084442,0.0027032793,0.0,0.0,0.0,0.0,0.0,0.0
21805664000,21805584000,-0.015659332,-0.055901527,-0.007762909,0.030349731,-0.10269165,0.0,0.0,0.0,0.0,0.0,0.0,0.0,0.0,-0.0289917,0.0,0.0,nan,0.0,0.0,-0.011561513,-0.0030542165,-0.0006084442,0.0027032793,0.0,0.0,0.0,0.0,0.0,0.0
21806168000,21806088000,-0.022264242,-0.03558588,-0.037580013,0.028060913,-0.09881592,0.0,0.0,0.0,0.0,0.0,0.0,0.0,0.0,0.108184814,0.0,0.0,nan,0.0,0.0,-0.0018576384,-0.0030542165,-0.0006084442,0.0027032793,0.0,0.0,0.0,0.0,0.0,0.0
21806664000,21806584000,0.062981844,-0.114982605,0.28480768,0.03526306,-0.116485596,0.0,0.0,0.0,0.0,0.0,0.0,0.0,0.0,-0.1000061,0.0,0.0,nan,0.0,0.0,-0.033337712,-0.0030542165,-0.0006084442,0.0027032793,0.0,0.0,0.0,0.0,0.0,0.0
21807168000,21807088000,0.16151762,-0.26857924,0.11944246,0.061447144,-0.1515503,0.0,0.0,0.0,0.0,0.0,0.0,0.0,0.0,-0.12667847,0.0,0.0,nan,0.0,0.0,-0.010631502,-0.0050482303,-0.0067621134,0.0041664243,0.0,0.0,0.0,0.0,0.0,0.0
21807664000,21807584000,0.106509626,-0.06664026,0.004028797,0.046966553,-0.1105957,0.0,0.0,0.0,0.0,0.0,0.0,0.0,0.0,-0.080596924,0.0,0.0,nan,0.0,0.0,-0.010631502,-0.0033924878,0.00083479285,-0.0021154284,0.0,0.0,0.0,0.0,0.0,0.0
21808168000,21808088000,0.04969725,0.063678026,-0.07444233,0.056915283,-0.08029175,0.0,0.0,0.0,0.0,0.0,0.0,0.0,0.0,-0.095062256,0.0,0.0,nan,0.0,0.0,-0.010631502,-0.0028515458,-0.0018649995,-0.0050068796,0.0,0.0,0.0,0.0,0.0,0.0
21808664000,21808584000,0.05937221,0.013191879,0.01353088,0.051864624,-0.06573486,0.0,0.0,0.0,0.0,0.0,0.0,0.0,0.0,0.0,0.0,0.0,nan,0.0,0.0,-0.010631502,-0.000735268,0.00068591535,0.00038948655,0.0,0.0,0.0,0.0,0.0,0.0
21809160000,21809080000,0.038391203,0.020744324,0.0053913854,0.041748047,-0.05657959,0.0,0.0,0.0,0.0,0.0,0.0,0.0,0.0,0.0,0.0,0.0,nan,0.0,0.0,-0.010631502,-0.0027144253,0.0028761774,0.0059349835,0.0,0.0,0.0,0.0,0.0,0.0
21809664000,21809584000,0.00959152,0.088166475,0.027318656,0.030899048,-0.03250122,0.0,0.0,0.0,0.0,0.0,0.0,0.0,0.0,0.0,0.0,0.0,nan,0.0,0.0,-0.010631502,-0.00091052055,0.00020435452,0.0008971691,0.0,0.0,0.0,0.0,0.0,0.0
21810168000,21810088000,0.0005404949,0.07844353,0.035892963,0.01638794,-0.03668213,0.0,0.0,0.0,0.0,0.0,0.0,0.0,0.0,0.0,0.0,0.0,nan,0.0,0.0,-0.010631502,-0.0036284477,0.0018291026,6.264448e-05,0.0,0.0,0.0,0.0,0.0,0.0
21810664000,21810584000,-0.057580054,0.09350264,0.059915423,-0.00039672852,-0.012634277,0.0,0.0,0.0,0.0,0.0,0.0,0.0,0.0,0.0,0.0,0.0,nan,0.0,0.0,-0.010631502,0.0013270527,-0.0017571449,-0.0027816594,0.0,0.0,0.0,0.0,0.0,0.0
21811168000,21811088000,-0.09026587,0.06343019,0.070233405,-0.019500732,0.0073547363,0.0,0.0,0.0,0.0,0.0,0.0,0.0,0.0,0.0,0.0,0.0,nan,0.0,0.0,-0.010631502,0.0021323413,0.003188029,-0.0054392517,0.0,0.0,0.0,0.0,0.0,0.0
21811664000,21811584000,-0.072024465,0.024422348,0.1348716,-0.016662598,-0.0017089844,0.0,0.0,0.0,0.0,0.0,0.0,0.0,0.0,0.0,0.0,0.0,nan,0.0,0.0,-0.010631502,0.00080399215,-0.00069348514,-0.0026177764,0.0,0.0,0.0,0.0,0.0,0.0
21812168000,21812088000,-0.07416266,0.025563836,0.10578495,-0.025039673,0.006072998,0.0,0.0,0.0,0.0,0.0,0.0,0.0,0.0,0.0,0.0,0.0,nan,0.0,0.0,-0.010631502,-0.0027241558,-0.0053230524,-0.002032131,0.0,0.0,0.0,0.0,0.0,0.0
21812664000,21812584000,-0.07672326,-0.010103226,0.17367005,-0.033599854,-0.0028076172,0.0,0.0,0.0,0.0,0.0,0.0,0.0,0.0,0.0,0.0,0.0,nan,0.0,0.0,-0.0032771826,0.0034921467,-0.00417082,0.002587676,0.0,0.0,0.0,0.0,0.0,0.0
21813160000,21813080000,-0.06024022,-0.010363445,0.16707778,-0.025527954,0.00033569336,0.0,0.0,0.0,0.0,0.0,0.0,0.0,0.0,0.0,0.0,0.0,nan,0.0,0.0,0.007612586,0.0034921467,-0.00417082,0.002587676,0.0,0.0,0.0,0.0,0.0,0.0
21813664000,21813584000,-0.05948475,-0.018207522,0.16168177,-0.0287323,-0.005004883,0.0,0.0,0.0,0.0,0.0,0.0,0.0,0.0,0.0,0.0,0.0,nan,0.0,0.0,-0.005243659,0.0034921467,-0.00417082,0.002587676,0.0,0.0,0.0,0.0,0.0,0.0
21814160000,21814080000,-0.04351218,-0.010721588,0.098851144,-0.022949219,-0.008850098,0.0,0.0,0.0,0.0,0.0,0.0,0.0,0.0,0.0,0.0,0.0,nan,0.0,0.0,-0.016626954,0.0034921467,-0.00417082,0.002587676,0.0,0.0,0.0,0.0,0.0,0.0
21814664000,21814584000,0.0070232973,-0.025200443,0.09843677,-0.02130127,-0.018615723,0.0,0.0,0.0,0.0,0.0,0.0,0.0,0.0,0.0,0.0,0.0,nan,0.0,0.0,-0.027542591,0.0034921467,-0.00417082,0.002587676,0.0,0.0,0.0,0.0,0.0,0.0
21815160000,21815080000,0.016066313,-0.005332071,0.116482675,-0.021057129,-0.01751709,0.0,0.0,0.0,0.0,0.0,0.0,0.0,0.0,0.05404663,0.0,0.0,nan,0.0,0.0,-0.0035007,0.0034921467,-0.00417082,0.002587676,0.0,0.0,0.0,0.0,0.0,0.0
21815664000,21815584000,0.005029127,-0.015893431,0.13335413,-0.009933472,-0.015686035,0.0,0.0,0.0,0.0,0.0,0.0,0.0,0.0,0.014862061,0.0,0.0,nan,0.0,0.0,-0.022539735,0.0034921467,-0.00417082,0.002587676,0.0,0.0,0.0,0.0,0.0,0.0
21816168000,21816088000,0.021255286,0.0028042812,0.061467767,-0.013763428,-0.008880615,0.0,0.0,0.0,0.0,0.0,0.0,0.0,0.0,0.04888916,0.0,0.0,nan,0.0,0.0,-0.01510644,0.0034921467,-0.00417082,0.002587676,0.0,0.0,0.0,0.0,0.0,0.0
21816664000,21816584000,0.027892653,-0.0020420272,0.06103766,-0.007019043,0.0016174316,0.0,0.0,0.0,0.0,0.0,0.0,0.0,0.0,0.0,0.0,0.0,nan,0.0,0.0,-0.0028630495,0.0034921467,-0.00417082,0.002587676,0.0,0.0,0.0,0.0,0.0,0.0
21817168000,21817088000,0.016074793,0.007492095,0.09699792,-0.015274048,0.005432129,0.0,0.0,0.0,0.0,0.0,0.0,0.0,0.0,0.0020751953,0.0,0.0,nan,0.0,0.0,-0.010431647,0.0034921467,-0.00417082,0.002587676,0.0,0.0,0.0,0.0,0.0,0.0
21817664000,21817584000,0.009944925,0.029856812,-0.004897356,-0.015670776,0.01184082,0.0,0.0,0.0,0.0,0.0,0.0,0.0,0.0,0.0864563,0.0,0.0,nan,0.0,0.0,-0.008174181,0.0034921467,-0.00417082,0.002587676,0.0,0.0,0.0,0.0,0.0,0.0
21818160000,21818080000,-0.003707923,0.01847433,0.020858884,-0.015167236,0.005554199,0.0,0.0,0.0,0.0,0.0,0.0,0.0,0.0,0.08718872,0.0,0.0,nan,0.0,0.0,-0.0025855303,0.0034921467,-0.00417082,0.002587676,0.0,0.0,0.0,0.0,0.0,0.0
21818664000,21818584000,0.00034607947,0.04641411,0.046438158,-0.012573242,0.009277344,0.0,0.0,0.0,0.0,0.0,0.0,0.0,0.0,0.04534912,0.0,0.0,nan,0.0,0.0,-0.008265138,0.0034921467,-0.00417082,0.002587676,0.0,0.0,0.0,0.0,0.0,0.0
21819168000,21819088000,-0.013449909,0.021641769,0.025381327,-0.010421753,0.007171631,0.0,0.0,0.0,0.0,0.0,0.0,0.0,0.0,0.0,0.0,0.0,nan,0.0,0.0,-0.014492989,0.0034921467,-0.00417082,0.002587676,0.0,0.0,0.0,0.0,0.0,0.0
21819664000,21819584000,-0.041171074,0.033986248,0.036826253,-0.011352539,0.006225586,0.0,0.0,0.0,0.0,0.0,0.0,0.0,0.0,0.014160156,0.0,0.0,nan,0.0,0.0,-0.012040734,0.0034921467,-0.00417082,0.002587676,0.0,0.0,0.0,0.0,0.0,0.0
21820168000,21820088000,-0.040351674,0.015880581,0.055970132,-0.015731812,0.008605957,0.0,0.0,0.0,0.0,0.0,0.0,0.0,0.0,0.07077026,0.0,0.0,nan,0.0,0.0,-0.0061736107,0.0034921467,-0.00417082,0.002587676,0.0,0.0,0.0,0.0,0.0,0.0
21820664000,21820584000,-0.048485402,0.029901814,0.058270037,-0.010223389,0.01739502,0.0,0.0,0.0,0.0,0.0,0.0,0.0,0.0,0.0,0.0,0.0,nan,0.0,0.0,-0.00013649464,0.0034921467,-0.00417082,0.002587676,0.0,0.0,0.0,0.0,0.0,0.0
21821168000,21821088000,-0.01840189,0.01887768,0.0033203363,-0.017074585,0.01889038,0.0,0.0,0.0,0.0,0.0,0.0,0.0,0.0,0.023284912,0.0,0.0,nan,0.0,0.0,-0.004876137,0.0034921467,-0.00417082,0.002587676,0.0,0.0,0.0,0.0,0.0,0.0
21821664000,21821584000,-0.046623647,0.016605679,0.053703725,-0.023269653,0.01876831,0.0,0.0,0.0,0.0,0.0,0.0,0.0,0.0,0.1060791,0.0,0.0,nan,0.0,0.0,-0.004414201,0.0034921467,-0.00417082,0.002587676,0.0,0.0,0.0,0.0,0.0,0.0
21822160000,21822080000,-0.03914401,0.01763389,0.0065385103,-0.018798828,0.010925293,0.0,0.0,0.0,0.0,0.0,0.0,0.0,0.0,0.06826782,0.0,0.0,nan,0.0,0.0,-0.013179779,0.0034921467,-0.00417082,0.002587676,0.0,0.0,0.0,0.0,0.0,0.0
21822664000,21822584000,-0.05623411,0.013653486,-0.01943171,-0.03012085,0.020355225,0.0,0.0,0.0,0.0,0.0,0.0,0.0,0.0,0.06439209,0.0,0.0,nan,0.0,0.0,-0.027905703,0.0034921467,-0.00417082,0.002587676,0.0,0.0,0.0,0.0,0.0,0.0
21823168000,21823088000,-0.033045482,0.011208108,0.030519128,-0.02305603,0.01776123,0.0,0.0,0.0,0.0,0.0,0.0,0.0,0.0,0.073272705,0.0,0.0,nan,0.0,0.0,-0.019316673,0.0034921467,-0.00417082,0.002587676,0.0,0.0,0.0,0.0,0.0,0.0
21823664000,21823584000,-0.034423694,0.0038340306,0.023994565,-0.02067566,0.0113220215,0.0,0.0,0.0,0.0,0.0,0.0,0.0,0.0,0.018920898,0.0,0.0,nan,0.0,0.0,-0.021003962,0.0034921467,-0.00417082,0.002587676,0.0,0.0,0.0,0.0,0.0,0.0
21824168000,21824088000,-0.024207765,0.016845433,-0.02249229,-0.025802612,0.015350342,0.0,0.0,0.0,0.0,0.0,0.0,0.0,0.0,0.0,0.0,0.0,nan,0.0,0.0,-0.0070455074,0.0034921467,-0.00417082,0.002587676,0.0,0.0,0.0,0.0,0.0,0.0
21824664000,21824584000,-0.017520908,-0.005520654,0.0042682886,-0.002380371,0.001739502,0.0,0.0,0.0,0.0,0.0,0.0,0.0,0.0,0.046661377,0.0,0.0,nan,0.0,0.0,-0.011088371,0.0034921467,-0.00417082,0.002587676,0.0,0.0,0.0,0.0,0.0,0.0
21825160000,21825080000,-0.01650469,0.016619517,-0.03354919,-0.0064697266,0.0057373047,0.0,0.0,0.0,0.0,0.0,0.0,0.0,0.0,0.042144775,0.0,0.0,nan,0.0,0.0,0.0041031837,0.0034921467,-0.00417082,0.002587676,0.0,0.0,0.0,0.0,0.0,0.0
21825664000,21825584000,-0.0067253914,0.009372024,-0.0031421185,-0.0140686035,0.010314941,0.0,0.0,0.0,0.0,0.0,0.0,0.0,0.0,0.02508545,0.0,0.0,nan,0.0,0.0,-0.016946435,0.0034921467,-0.00417082,0.002587676,0.0,0.0,0.0,0.0,0.0,0.0
21826168000,21826088000,0.0049532577,0.025408378,-0.038123727,0.002456665,0.0132751465,0.0,0.0,0.0,0.0,0.0,0.0,0.0,0.0,0.0,0.0,0.0,nan,0.0,0.0,-0.026640892,0.0034921467,-0.00417082,0.002587676,0.0,0.0,0.0,0.0,0.0,0.0
21826664000,21826584000,-0.008211322,0.041402455,-0.024359882,-0.008178711,0.018707275,0.0,0.0,0.0,0.0,0.0,0.0,0.0,0.0,0.044677734,0.0,0.0,nan,0.0,0.0,-0.0057166815,0.0034921467,-0.00417082,0.002587676,0.0,0.0,0.0,0.0,0.0,0.0
21827168000,21827088000,-0.0017726822,0.02752775,-0.04828453,-0.010299683,0.012573242,0.0,0.0,0.0,0.0,0.0,0.0,0.0,0.0,0.016815186,0.0,0.0,nan,0.0,0.0,-0.0039584637,0.0034921467,-0.00417082,0.002587676,0.0,0.0,0.0,0.0,0.0,0.0
21827664000,21827584000,0.020019216,0.04286888,-0.018488228,0.00061035156,0.0184021,0.0,0.0,0.0,0.0,0.0,0.0,0.0,0.0,0.0,0.0,0.0,nan,0.0,0.0,-0.018233657,0.0034921467,-0.00417082,0.002587676,0.0,0.0,0.0,0.0,0.0,0.0
21828168000,21828088000,0.005963883,0.050532807,0.0151280165,-0.008956909,0.021362305,0.0,0.0,0.0,0.0,0.0,0.0,0.0,0.0,0.0046691895,0.0,0.0,nan,0.0,0.0,-0.007892847,0.0034921467,-0.00417082,0.002587676,0.0,0.0,0.0,0.0,0.0,0.0
21828664000,21828584000,-0.018927103,0.03492576,0.015911818,-0.005569458,0.029571533,0.0,0.0,0.0,0.0,0.0,0.0,0.0,0.0,0.0,0.0,0.0,nan,0.0,0.0,0.0009950399,0.0034921467,-0.00417082,0.002587676,0.0,0.0,0.0,0.0,0.0,0.0
21829168000,21829088000,-0.017844712,0.037837073,-0.080145895,-0.001449585,0.037109375,0.0,0.0,0.0,0.0,0.0,0.0,0.0,0.0,0.0,0.0,0.0,nan,0.0,0.0,-0.007627845,0.0034921467,-0.00417082,0.002587676,0.0,0.0,0.0,0.0,0.0,0.0
21829664000,21829584000,0.00448685,0.03871725,-0.044263244,3.0517578e-05,0.04232788,0.0,0.0,0.0,0.0,0.0,0.0,0.0,0.0,0.0,0.0,0.0,nan,0.0,0.0,0.0042797327,0.0034921467,-0.00417082,0.002587676,0.0,0.0,0.0,0.0,0.0,0.0
21830168000,21830088000,-0.006082607,0.045008823,-0.018796802,-0.0019378662,0.044769287,0.0,0.0,0.0,0.0,0.0,0.0,0.0,0.0,0.0,0.0,0.0,nan,0.0,0.0,-0.0063973665,0.0034921467,-0.00417082,0.002587676,0.0,0.0,0.0,0.0,0.0,0.0
21830664000,21830584000,-0.014331019,0.018048218,-0.08190608,-0.004135132,0.04135132,0.0,0.0,0.0,0.0,0.0,0.0,0.0,0.0,0.0,0.0,0.0,nan,0.0,0.0,-0.0122869015,0.0034921467,-0.00417082,0.002587676,0.0,0.0,0.0,0.0,0.0,0.0
21831168000,21831088000,0.0016169169,0.019012809,-0.005397439,-0.010269165,0.034088135,0.0,0.0,0.0,0.0,0.0,0.0,0.0,0.0,0.0,0.0,0.0,nan,0.0,0.0,-0.007507324,0.0034921467,-0.00417082,0.002587676,0.0,0.0,0.0,0.0,0.0,0.0
21831664000,21831584000,-0.00046883785,0.010537637,-0.008560479,-0.009155273,0.029205322,0.0,0.0,0.0,0.0,0.0,0.0,0.0,0.0,0.0,0.0,0.0,nan,0.0,0.0,0.010951757,0.0034921467,-0.00417082,0.002587676,0.0,0.0,0.0,0.0,0.0,0.0
21832168000,21832088000,-0.008223612,0.039110478,0.0076137185,0.0054779053,0.034088135,0.0,0.0,0.0,0.0,0.0,0.0,0.0,0.0,0.0,0.0,0.0,nan,0.0,0.0,0.002843976,0.0034921467,-0.00417082,0.002587676,0.0,0.0,0.0,0.0,0.0,0.0
21832664000,21832584000,-0.029694386,0.01741338,-0.0019443631,-0.016174316,0.025390625,0.0,0.0,0.0,0.0,0.0,0.0,0.0,0.0,0.0,0.0,0.0,nan,0.0,0.0,0.0076584816,0.0034921467,-0.00417082,0.002587676,0.0,0.0,0.0,0.0,0.0,0.0
21833168000,21833088000,-0.030381678,0.019592496,-0.055823922,-0.013061523,0.022216797,0.0,0.0,0.0,0.0,0.0,0.0,0.0,0.0,0.0,0.0,0.0,nan,0.0,0.0,-0.00033581257,0.0034921467,-0.00417082,0.002587676,0.0,0.0,0.0,0.0,0.0,0.0
21833664000,21833584000,-0.03082184,0.02703819,0.0009614825,-0.013092041,0.0140686035,0.0,0.0,0.0,0.0,0.0,0.0,0.0,0.0,0.0,0.0,0.0,nan,0.0,0.0,0.015200257,0.0034921467,-0.00417082,0.002587676,0.0,0.0,0.0,0.0,0.0,0.0
21834168000,21834088000,-0.033742003,0.009900834,0.030753672,-0.00491333,0.014404297,0.0,0.0,0.0,0.0,0.0,0.0,0.0,0.0,0.0,0.0,0.0,nan,0.0,0.0,-0.007521391,0.0034921467,-0.00417082,0.002587676,0.0,0.0,0.0,0.0,0.0,0.0
21834664000,21834584000,-0.026237078,-0.00025135465,0.044246614,-0.01637268,0.012207031,0.0,0.0,0.0,0.0,0.0,0.0,0.0,0.0,0.0,0.0,0.0,nan,0.0,0.0,-0.0061075687,0.0034921467,-0.00417082,0.002587676,0.0,0.0,0.0,0.0,0.0,0.0
21835160000,21835080000,-0.008000955,0.016036104,0.015460312,-0.008773804,0.013977051,0.0,0.0,0.0,0.0,0.0,0.0,0.0,0.0,0.0,0.0,0.0,nan,0.0,0.0,-0.002205968,0.0034921467,-0.00417082,0.002587676,0.0,0.0,0.0,0.0,0.0,0.0
21835664000,21835584000,-0.017222002,0.008444736,0.030861676,-0.016448975,0.005004883,0.0,0.0,0.0,0.0,0.0,0.0,0.0,0.0,0.0,0.0,0.0,nan,0.0,0.0,-0.001057148,0.0034921467,-0.00417082,0.002587676,0.0,0.0,0.0,0.0,0.0,0.0
21836168000,21836088000,-0.018423397,0.014737303,0.008740187,-0.015701294,0.013397217,0.0,0.0,0.0,0.0,0.0,0.0,0.0,0.0,0.0,0.0,0.0,nan,0.0,0.0,0.015286803,0.0034921467,-0.00417082,0.002587676,0.0,0.0,0.0,0.0,0.0,0.0
21836664000,21836584000,-0.018999087,-0.0067461384,0.025275648,-0.0140686035,0.004119873,0.0,0.0,0.0,0.0,0.0,0.0,0.0,0.0,0.0,0.0,0.0,nan,0.0,0.0,-0.0015944242,0.0034921467,-0.00417082,0.002587676,0.0,0.0,0.0,0.0,0.0,0.0
21837168000,21837088000,-0.009805966,0.020483522,0.0066455603,-0.027679443,0.011169434,0.0,0.0,0.0,0.0,0.0,0.0,0.0,0.0,0.0,0.0,0.0,nan,0.0,0.0,0.024347901,0.0034921467,-0.00417082,0.002587676,0.0,0.0,0.0,0.0,0.0,0.0
21837664000,21837584000,-0.020325236,0.03944195,-0.023747921,-0.015899658,0.020141602,0.0,0.0,0.0,0.0,0.0,0.0,0.0,0.0,0.018005371,0.0,0.0,nan,0.0,0.0,0.00073075294,0.0034921467,-0.00417082,0.002587676,0.0,0.0,0.0,0.0,0.0,0.0
21838168000,21838088000,-0.01757938,0.018184613,-0.033011317,-0.026062012,0.0134887695,0.0,0.0,0.0,0.0,0.0,0.0,0.0,0.0,0.0,0.0,0.0,nan,0.0,0.0,-0.029749632,0.0034921467,-0.00417082,0.002587676,0.0,0.0,0.0,0.0,0.0,0.0
21838664000,21838584000,-0.03796503,0.013101807,-0.0010012984,-0.031661987,0.026550293,0.0,0.0,0.0,0.0,0.0,0.0,0.0,0.0,0.0,0.0,0.0,nan,0.0,0.0,-0.011814594,0.0034921467,-0.00417082,0.002587676,0.0,0.0,0.0,0.0,0.0,0.0
21839168000,21839088000,-0.021535624,0.032168493,0.027379751,-0.022979736,0.029266357,0.0,0.0,0.0,0.0,0.0,0.0,0.0,0.0,0.0,0.0,0.0,nan,0.0,0.0,-0.007086158,0.0034921467,-0.00417082,0.002587676,0.0,0.0,0.0,0.0,0.0,0.0
21839664000,21839584000,-0.030784514,0.039155595,-0.046387553,-0.02684021,0.03778076,0.0,0.0,0.0,0.0,0.0,0.0,0.0,0.0,0.0,0.0,0.0,nan,0.0,0.0,-0.0067737103,0.0034921467,-0.00417082,0.002587676,0.0,0.0,0.0,0.0,0.0,0.0
21840168000,21840088000,-0.029271014,0.027273385,-0.0034989119,-0.013549805,0.027648926,0.0,0.0,0.0,0.0,0.0,0.0,0.0,0.0,0.0,0.0,0.0,nan,0.0,0.0,-0.0076961517,0.0034921467,-0.00417082,0.002587676,0.0,0.0,0.0,0.0,0.0,0.0
21840664000,21840584000,-0.019940794,0.052135374,-0.03055209,-0.015060425,0.033050537,0.0,0.0,0.0,0.0,0.0,0.0,0.0,0.0,0.0,0.0,0.0,nan,0.0,0.0,-0.0036662817,0.0034921467,-0.00417082,0.002587676,0.0,0.0,0.0,0.0,0.0,0.0
21841160000,21841080000,-0.02702654,0.016991477,-0.06542039,-0.015380859,0.031097412,0.0,0.0,0.0,0.0,0.0,0.0,0.0,0.0,0.0,0.0,0.0,nan,0.0,0.0,0.005437374,0.0034921467,-0.00417082,0.002587676,0.0,0.0,0.0,0.0,0.0,0.0
21841664000,21841584000,-0.018795246,0.0069606323,-0.0005183816,-0.01953125,0.022491455,0.0,0.0,0.0,0.0,0.0,0.0,0.0,0.0,0.0,0.0,0.0,nan,0.0,0.0,0.00094115734,0.0034921467,-0.00417082,0.002587676,0.0,0.0,0.0,0.0,0.0,0.0
21842168000,21842088000,-0.028324675,0.019172683,0.02479875,-0.0206604,0.027770996,0.0,0.0,0.0,0.0,0.0,0.0,0.0,0.0,0.0,0.0,0.0,nan,0.0,0.0,0.0068944693,0.0034921467,-0.00417082,0.002587676,0.0,0.0,0.0,0.0,0.0,0.0
21842664000,21842584000,-0.048485674,0.0042004343,-0.009346843,-0.023635864,0.024932861,0.0,0.0,0.0,0.0,0.0,0.0,0.0,0.0,0.0,0.0,0.0,nan,0.0,0.0,0.0113015175,0.0034921467,-0.00417082,0.002587676,0.0,0.0,0.0,0.0,0.0,0.0
21843168000,21843088000,-0.06966193,0.0019480716,0.025398135,-0.03213501,0.025726318,0.0,0.0,0.0,0.0,0.0,0.0,0.0,0.0,0.0,0.0,0.0,nan,0.0,0.0,0.008183718,0.0034921467,-0.00417082,0.002587676,0.0,0.0,0.0,0.0,0.0,0.0
21843664000,21843584000,-0.05120143,0.021811765,0.0015233755,-0.029907227,0.017333984,0.0,0.0,0.0,0.0,0.0,0.0,0.0,0.0,0.0,0.0,0.0,nan,0.0,0.0,0.014558196,0.0034921467,-0.00417082,0.002587676,0.0,0.0,0.0,0.0,0.0,0.0
21844160000,21844080000,-0.05714084,0.004671843,-0.036429644,-0.032669067,0.015106201,0.0,0.0,0.0,0.0,0.0,0.0,0.0,0.0,0.0,0.0,0.0,nan,0.0,0.0,0.0034371614,0.0034921467,-0.00417082,0.002587676,0.0,0.0,0.0,0.0,0.0,0.0
21844664000,21844584000,-0.047990926,0.014101013,-0.016661882,-0.027862549,0.009216309,0.0,0.0,0.0,0.0,0.0,0.0,0.0,0.0,0.0,0.0,0.0,nan,0.0,0.0,0.0109500885,0.0034921467,-0.00417082,0.002587676,0.0,0.0,0.0,0.0,0.0,0.0
21845168000,21845088000,-0.028131964,0.009645076,0.021167636,-0.018539429,0.009613037,0.0,0.0,0.0,0.0,0.0,0.0,0.0,0.0,0.0,0.0,0.0,nan,0.0,0.0,-0.025384903,0.0034921467,-0.00417082,0.002587676,0.0,0.0,0.0,0.0,0.0,0.0
21845664000,21845584000,-0.045245226,0.011044116,0.027986467,-0.01663208,-0.0068359375,0.0,0.0,0.0,0.0,0.0,0.0,0.0,0.0,0.0,0.0,0.0,nan,0.0,0.0,0.005361557,0.0034921467,-0.00417082,0.002587676,0.0,0.0,0.0,0.0,0.0,0.0
21846168000,21846088000,-0.011460988,0.012278938,0.05824119,-0.02305603,-0.004058838,0.0,0.0,0.0,0.0,0.0,0.0,0.0,0.0,0.0,0.0,0.0,nan,0.0,0.0,-0.00943315,0.0034921467,-0.00417082,0.002587676,0.0,0.0,0.0,0.0,0.0,0.0
21846664000,21846584000,-0.028424809,0.013858961,-0.0020700693,-0.022583008,-0.00061035156,0.0,0.0,0.0,0.0,0.0,0.0,0.0,0.0,0.0,0.0,0.0,nan,0.0,0.0,-0.009302378,0.0034921467,-0.00417082,0.002587676,0.0,0.0,0.0,0.0,0.0,0.0
21847168000,21847088000,-0.011086158,0.0047790413,-0.046105027,-0.0135650635,0.0014648438,0.0,0.0,0.0,0.0,0.0,0.0,0.0,0.0,0.0,0.0,0.0,nan,0.0,0.0,0.010093331,0.0034921467,-0.00417082,0.002587676,0.0,0.0,0.0,0.0,0.0,0.0
21847664000,21847584000,-0.02793235,-0.0025837221,0.055296004,-0.011306763,0.00064086914,0.0,0.0,0.0,0.0,0.0,0.0,0.0,0.0,0.0,0.0,0.0,nan,0.0,0.0,-0.0002040863,0.0034921467,-0.00417082,0.002587676,0.0,0.0,0.0,0.0,0.0,0.0
21848168000,21848088000,0.004327122,0.02035411,-0.013983607,-0.009231567,0.00076293945,0.0,0.0,0.0,0.0,0.0,0.0,0.0,0.0,0.0,0.0,0.0,nan,0.0,0.0,-0.002532959,0.0034921467,-0.00417082,0.002587676,0.0,0.0,0.0,0.0,0.0,0.0
21848664000,21848584000,-0.01835367,0.008976231,0.017435253,-0.016555786,0.013092041,0.0,0.0,0.0,0.0,0.0,0.0,0.0,0.0,0.0,0.0,0.0,nan,0.0,0.0,-0.003982544,0.0034921467,-0.00417082,0.002587676,0.0,0.0,0.0,0.0,0.0,0.0
21849160000,21849080000,-0.014730477,0.030852623,0.0073292255,-0.005874634,0.0099487305,0.0,0.0,0.0,0.0,0.0,0.0,0.0,0.0,0.0,0.0,0.0,nan,0.0,0.0,0.00064635277,0.0034921467,-0.00417082,0.002587676,0.0,0.0,0.0,0.0,0.0,0.0
21849664000,21849584000,0.0071226945,0.018481718,0.046075284,-0.009735107,0.004425049,0.0,0.0,0.0,0.0,0.0,0.0,0.0,0.0,0.0,0.0,0.0,nan,0.0,0.0,-0.0028315783,0.0034921467,-0.00417082,0.002587676,0.0,0.0,0.0,0.0,0.0,0.0
21850168000,21850088000,-0.009716597,0.012913716,0.03097862,-0.0035095215,0.012573242,0.0,0.0,0.0,0.0,0.0,0.0,0.0,0.0,0.0,0.0,0.0,nan,0.0,0.0,0.0072346926,0.0034921467,-0.00417082,0.002587676,0.0,0.0,0.0,0.0,0.0,0.0
21850664000,21850584000,0.003843354,0.019081179,0.05994636,-0.014770508,0.02331543,0.0,0.0,0.0,0.0,0.0,0.0,0.0,0.0,0.0,0.0,0.0,nan,0.0,0.0,0.006455779,0.0034921467,-0.00417082,0.002587676,0.0,0.0,0.0,0.0,0.0,0.0
21851160000,21851080000,0.010787018,0.034717545,0.056868136,-0.0049438477,0.022613525,0.0,0.0,0.0,0.0,0.0,0.0,0.0,0.0,0.0,0.0,0.0,nan,0.0,0.0,0.003890276,0.0034921467,-0.00417082,0.002587676,0.0,0.0,0.0,0.0,0.0,0.0
