timestamp,timestamp_sample,xyz[0],xyz[1],xyz[2]
21726360000,21726360000,-0.018488552,-0.12874219,-9.801667
21726364000,21726364000,-0.02492429,-0.107866645,-9.784583
21726412000,21726412000,-0.029632004,-0.030017227,-9.859071
21726456000,21726456000,-0.06363154,-0.07264528,-9.837964
21726512000,21726512000,-0.03348908,-0.07286161,-9.829466
21726560000,21726560000,-0.056207687,-0.02902343,-9.838957
21726608000,21726608000,-0.032634955,-0.04365488,-9.821745
21726660000,21726660000,-0.06016858,-0.022354225,-9.835302
21726712000,21726712000,-0.007721279,-0.10860456,-9.813722
21726760000,21726760000,-0.05832911,-0.10885913,-9.821773
21726812000,21726812000,-0.044051033,-0.048165943,-9.742631
21726856000,21726856000,-0.012011141,-0.06409174,-9.798626
21726912000,21726912000,-0.019425334,-0.03145625,-9.7887745
21726956000,21726956000,-0.0040328978,-0.04837035,-9.83145
21727012000,21727012000,-0.08511892,-0.0059693498,-9.782076
21727060000,21727060000,-0.027383309,-0.03557825,-9.78912
21727112000,21727112000,-0.028982747,-0.1306903,-9.8639965
21727156000,21727156000,-0.083197966,-0.024630645,-9.786861
21727212000,21727212000,-0.12342469,-0.055715673,-9.856887
21727256000,21727256000,-0.04144088,-0.06968144,-9.802934
21727312000,21727312000,-0.085741065,-0.0776678,-9.782034
21727360000,21727360000,-0.056751847,-0.048110016,-9.844706
21727412000,21727412000,-0.0017310377,-0.048078008,-9.81639
21727460000,21727460000,-0.01133964,-0.046846,-9.77533
21727512000,21727512000,0.032090504,-0.022032747,-9.762516
21727560000,21727560000,-0.077750824,-0.040454347,-9.810476
21727612000,21727612000,-0.036112394,-0.025716554,-9.78901
21727660000,21727660000,-0.059708763,-0.06789493,-9.798835
21727708000,21727708000,-0.07152182,-0.0039617717,-9.785421
21727760000,21727760000,-0.04444888,-0.103202075,-9.814419
21727812000,21727812000,-0.09198029,-0.0068212557,-9.73248
21727860000,21727860000,-0.029382577,-0.06963087,-9.840791
21727912000,21727912000,-0.08853324,0.0070194756,-9.7795515
21727956000,21727956000,-0.04436403,-0.039056737,-9.745389
21728012000,21728012000,-0.051475134,-0.0899473,-9.786287
21728060000,21728060000,-0.10784282,-0.051285215,-9.848788
21728112000,21728112000,-0.033906057,-0.06731412,-9.810079
21728160000,21728160000,-0.041503128,-0.07884827,-9.833105
21728208000,21728208000,-0.00889527,-0.093779415,-9.82844
21728260000,21728260000,-0.05693603,-0.07040864,-9.813309
21728312000,21728312000,0.016198575,-0.008696855,-9.819199
21728360000,21728360000,-0.01628112,-0.054900642,-9.809165
21728408000,21728408000,-0.043772507,-0.043283958,-9.742373
21728456000,21728456000,-0.041403778,-0.028587768,-9.7948475
21728512000,21728512000,-0.042442225,0.0147494385,-9.789902
21728560000,21728560000,-0.009768676,-0.024342755,-9.807398
21728608000,21728608000,-0.072359405,-0.03517592,-9.72431
21728660000,21728660000,-0.03145013,-0.0557366,-9.767797
21728712000,21728712000,-0.089299135,-0.086445644,-9.69843
21728760000,21728760000,-0.026441237,-0.088291086,-9.930055
21728808000,21728808000,-0.0745094,-0.03334661,-9.8389
21728856000,21728856000,-0.062263057,-0.10737089,-9.718695
21728912000,21728912000,-0.041754127,-0.067600034,-9.8187
21728960000,21728960000,-0.059586693,-0.030240264,-9.827132
21729012000,21729012000,-0.051066287,-0.07308035,-9.708194
21729060000,21729060000,-0.08298938,-0.014873926,-9.960552
21729112000,21729112000,-0.038990885,-0.077194,-9.6762495
21729160000,21729160000,0.022193572,-0.038081437,-9.927517
21729208000,21729208000,-0.042719822,-0.06056848,-9.786423
21729260000,21729260000,-0.037426904,-0.08978421,-9.944787
21729312000,21729312000,-0.06707751,-0.01960595,-9.650775
21729360000,21729360000,-0.036090996,0.001766458,-9.94683
21729412000,21729412000,-0.03614094,-0.1300137,-9.687047
21729460000,21729460000,-0.07171974,-0.028962651,-9.953491
21729512000,21729512000,-0.038760435,-0.07314102,-9.927312
21729556000,21729556000,0.037584655,-0.029095871,-9.780195
21729608000,21729608000,-0.053979676,-0.0548029,-9.871479
21729656000,21729656000,3.6917354e-05,-0.15558763,-9.67205
21729712000,21729712000,0.0016987551,-0.11896944,-9.830824
21729760000,21729760000,-0.03644953,-0.05290513,-9.6998825
21729812000,21729812000,-0.04379192,-0.05460959,-9.710806
21729860000,21729860000,-0.013618526,-0.066036716,-9.752452
21729912000,21729912000,-0.030057568,-0.05606208,-9.89161
21729960000,21729960000,-0.02610124,-0.051105615,-9.911988
21730012000,21730012000,0.026362065,-0.018391652,-9.914359
21730056000,21730056000,-0.06632769,-0.09295735,-9.793866
21730112000,21730112000,-0.04653682,-0.09028774,-9.945138
21730160000,21730160000,-0.045274902,-0.09691959,-9.85971
21730212000,21730212000,-0.042045277,-0.07434394,-9.818395
21730260000,21730260000,-0.1019462,-0.07620782,-9.654224
21730312000,21730312000,-0.061529655,-0.05446115,-9.661085
21730360000,21730360000,-0.034234297,-0.065369874,-9.620571
21730408000,21730408000,-0.009960494,-0.010297186,-9.797941
21730460000,21730460000,-0.050213546,-0.0027926145,-9.749334
21730508000,21730508000,-0.09077438,-0.07833208,-9.787947
21730560000,21730560000,-0.08883201,-0.11375266,-9.881308
21730608000,21730608000,-0.046031818,-0.054374468,-9.895518
21730656000,21730656000,0.017640302,0.036478754,-9.889495
21730708000,21730708000,-0.00087411876,-0.075274594,-9.633681
21730760000,21730760000,-0.026545081,-0.098950684,-9.91161
21730808000,21730808000,-0.038936637,-0.10708749,-9.690591
21730860000,21730860000,-0.023190884,0.0062828767,-9.859198
21730908000,21730908000,-0.0075555267,-0.0035165306,-9.925474
21730960000,21730960000,-0.04125359,-0.07266206,-9.952228
21731012000,21731012000,-0.039201498,-0.10904811,-9.6419325
21731060000,21731060000,-0.015257278,-0.04840791,-9.901114
21731112000,21731112000,-0.053400498,-0.003584649,-9.797226
21731160000,21731160000,-0.015060665,-0.037144713,-9.882569
21731212000,21731212000,-0.015766362,-0.045483142,-9.801697
21731260000,21731260000,-0.060247615,-0.054246403,-9.790668
21731312000,21731312000,-0.06210228,-0.046958994,-9.921847
21731360000,21731360000,-0.056476146,-0.120139964,-9.675215
21731412000,21731412000,-0.0013415248,-0.040328894,-9.866497
21731460000,21731460000,-0.05524426,-0.09540666,-9.969751
21731512000,21731512000,0.0245043,-0.0018425451,-9.823311
21731560000,21731560000,0.03687074,0.0026426772,-9.834074
21731612000,21731612000,-0.07518377,-0.08983608,-9.699326
21731660000,21731660000,-0.029904367,-0.07859366,-9.934207
21731712000,21731712000,-0.0068960767,-0.034108363,-9.8935375
21731760000,21731760000,-0.035174187,-0.03183822,-9.925946
21731808000,21731808000,-0.00033075825,-0.04491259,-9.7227125
21731856000,21731856000,-0.00012785412,-0.020997925,-9.697645
21731912000,21731912000,-0.051642563,-0.060897514,-9.908363
21731960000,21731960000,-0.02467137,-0.02664143,-9.761328
21732012000,21732012000,-0.06288058,-0.03280812,-9.660356
21732060000,21732060000,-0.057404462,-0.06935117,-9.647187
21732112000,21732112000,-0.09055869,-0.036596853,-9.945385
21732160000,21732160000,-0.0038025437,0.0242207,-9.74128
21732212000,21732212000,-0.011358137,-0.009790379,-9.80955
21732256000,21732256000,-0.039619632,-0.10157219,-9.713555
21732312000,21732312000,-0.054705895,-0.048981838,-9.847526
21732360000,21732360000,-0.05467227,-0.046726912,-9.724616
21732412000,21732412000,-0.0523559,-0.10125128,-9.869262
21732460000,21732460000,0.005052646,-0.007991381,-9.65813
21732512000,21732512000,-0.07298019,-0.015813097,-9.841377
21732556000,21732556000,-0.01831934,-0.08729377,-9.72041
21732612000,21732612000,-0.03646293,-0.059324857,-9.72236
21732660000,21732660000,-0.03113157,-0.010044639,-9.80079
21732712000,21732712000,-0.032994222,-0.06048513,-9.8158245
21732756000,21732756000,-0.076753244,-0.10151921,-9.728482
21732808000,21732808000,-0.049228862,-0.00048783413,-9.834638
21732860000,21732860000,-0.07237157,-0.08196388,-9.736215
21732912000,21732912000,-0.023682417,-0.029160012,-9.784895
21732960000,21732960000,-0.066423886,-0.022167878,-9.603875
21733012000,21733012000,-0.04937543,0.0010074589,-9.869902
21733060000,21733060000,-0.09933682,-0.045697346,-9.878394
21733112000,21733112000,-0.044769887,-0.04286801,-9.646187
21733160000,21733160000,-0.079585016,-0.109862894,-9.807866
21733212000,21733212000,-0.019456353,-0.053051114,-9.8532095
21733260000,21733260000,-0.048071127,-0.0030690958,-9.557362
21733312000,21733312000,-0.0537304,-0.09236156,-9.909774
21733360000,21733360000,-0.06914838,-0.11280808,-9.694668
21733412000,21733412000,-0.03618934,-0.14122635,-9.798372
21733456000,21733456000,-0.11835972,-0.024876095,-9.494176
21733512000,21733512000,-0.05021993,-0.0020800573,-9.906363
21733560000,21733560000,-0.058537465,-0.12764606,-9.629212
21733608000,21733608000,0.024155088,0.0062583084,-10.1022005
21733660000,21733660000,0.011819565,-0.11874031,-9.516483
21733712000,21733712000,0.009906166,-0.11022661,-9.822686
21733760000,21733760000,0.04949955,0.052367367,-9.870734
21733812000,21733812000,-0.0015095903,-0.10640995,-9.779306
21733856000,21733856000,-0.06195458,-0.05493148,-9.76926
21733912000,21733912000,-0.04390719,-0.028273065,-9.79077
21733956000,21733956000,-0.16538484,-0.23875517,-9.514456
21734012000,21734012000,0.020103846,-0.13930792,-9.947839
21734056000,21734056000,0.028086787,-0.08771094,-10.191014
21734112000,21734112000,0.07598336,-0.013741628,-11.397371
21734160000,21734160000,0.02057964,-0.03299019,-11.658489
21734212000,21734212000,0.0066268654,-0.041620146,-11.692591
21734260000,21734260000,0.052724667,-0.079043835,-12.064962
21734312000,21734312000,0.097040445,-0.04472828,-11.894393
21734356000,21734356000,0.03245433,0.00027214648,-11.838165
21734412000,21734412000,0.03514198,-0.036295705,-11.337515
21734456000,21734456000,0.04464417,-0.11756554,-11.920233
21734512000,21734512000,0.02986288,0.03854454,-11.808808
21734556000,21734556000,0.044920173,-0.04700029,-11.806739
21734612000,21734612000,0.058356658,-0.064366594,-11.997383
21734660000,21734660000,0.03897253,-0.033940118,-11.750529
21734712000,21734712000,0.005014116,-0.063394,-11.787005
21734756000,21734756000,0.03829313,-0.003856288,-11.931615
21734808000,21734808000,-0.003744908,-0.068455994,-11.884429
21734860000,21734860000,-0.01654505,0.01869965,-10.775561
21734908000,21734908000,0.064026564,-0.05580428,-9.848421
21734960000,21734960000,-0.027695363,-0.0320248,-9.3750105
21735012000,21735012000,-0.030381637,-0.03902484,-8.780569
21735060000,21735060000,0.014792891,-0.039858066,-8.526544
21735108000,21735108000,0.044214632,-0.016967727,-8.69211
21735156000,21735156000,0.01649826,-0.08398415,-8.589314
21735212000,21735212000,0.012450308,-0.07409232,-8.499193
21735260000,21735260000,-9.651477e-05,-0.042714298,-8.505374
21735308000,21735308000,0.0149589935,0.017877335,-8.661561
21735360000,21735360000,-0.059425265,-0.04035582,-8.657334
21735412000,21735412000,0.06753093,-0.0852765,-8.719748
21735460000,21735460000,-0.04407708,0.008281291,-8.887305
21735512000,21735512000,-0.08378138,-0.07483286,-8.878075
21735556000,21735556000,-0.074679896,-0.0946674,-8.855433
21735608000,21735608000,-0.014565505,-0.048302136,-8.928718
21735660000,21735660000,0.014099305,-0.0011054856,-9.099913
21735712000,21735712000,-0.0638438,-0.04179008,-9.061317
21735760000,21735760000,0.017169943,-0.078598306,-9.063094
21735808000,21735808000,-0.031188076,-0.07588178,-9.42602
21735860000,21735860000,-0.02456136,-0.040078897,-9.205545
21735912000,21735912000,-0.02518748,-0.038345456,-9.16209
21735960000,21735960000,-0.017324558,-0.056817822,-9.180962
21736012000,21736012000,0.016384883,-0.045599405,-9.348078
21736060000,21736060000,-0.04178665,-0.05837591,-9.240846
21736112000,21736112000,0.0044284454,-0.069504686,-9.301051
21736160000,21736160000,-0.021323353,-0.04574665,-9.645992
21736212000,21736212000,-0.020516636,-0.0311129,-9.421378
21736260000,21736260000,0.023853179,-0.10522129,-9.32724
21736312000,21736312000,0.03128816,-0.06038275,-9.338929
21736360000,21736360000,0.009312716,-0.072250634,-9.36005
21736408000,21736408000,0.03482044,-0.05856097,-9.527584
21736460000,21736460000,0.012784921,-0.11830756,-9.445911
21736508000,21736508000,0.038524065,-0.14429219,-9.820693
21736560000,21736560000,0.0053954544,-0.14382026,-9.577995
21736612000,21736612000,-0.021015882,-0.04656202,-9.510793
21736660000,21736660000,0.10259308,-0.09285329,-9.4452095
21736708000,21736708000,0.023954667,-0.09028286,-9.217007
21736760000,21736760000,0.047492936,-0.06540839,-9.620966
21736812000,21736812000,0.052526128,-0.048880666,-9.514887
21736860000,21736860000,0.022807855,-0.09874439,-9.851762
21736912000,21736912000,0.05779059,-0.12245723,-9.6623
21736960000,21736960000,0.020909848,-0.05101166,-9.644259
21737008000,21737008000,0.09279894,-0.08737911,-9.575903
21737060000,21737060000,-0.04077909,-0.120211594,-9.309319
21737112000,21737112000,-0.006665947,-0.05378842,-9.677738
21737156000,21737156000,0.047172103,-0.0717897,-9.632383
21737212000,21737212000,0.034295,-0.11979215,-9.920728
21737260000,21737260000,0.01799879,-0.18420807,-9.792322
21737312000,21737312000,-0.013193791,-0.056096368,-9.627853
21737360000,21737360000,0.12062784,-0.092300646,-8.791329
21737412000,21737412000,0.117653,-0.13235553,-8.001998
21737460000,21737460000,0.027712926,-0.02855062,-8.717833
21737512000,21737512000,-0.04102516,-0.10101519,-9.147777
21737560000,21737560000,0.029385168,-0.03858874,-9.397451
21737612000,21737612000,0.06308048,-0.12548356,-9.721934
21737656000,21737656000,0.08402407,-0.091047645,-9.690869
21737708000,21737708000,0.0865934,-0.04377006,-9.81246
21737760000,21737760000,0.06642541,-0.050353065,-9.43661
21737812000,21737812000,0.048370328,-0.14594054,-10.041082
21737856000,21737856000,0.04872728,0.007343318,-10.004717
21737912000,21737912000,0.09914429,-0.066636264,-10.103196
21737960000,21737960000,0.08562779,-0.14574662,-10.364726
21738012000,21738012000,0.029445844,-0.047368336,-10.248719
21738060000,21738060000,0.032262497,-0.056709535,-10.2451515
21738108000,21738108000,0.10467602,-0.09734952,-10.174754
21738160000,21738160000,0.08952631,-0.07791229,-10.520135
21738212000,21738212000,0.14670339,-0.15502,-10.405877
21738260000,21738260000,0.1830602,-0.15727116,-10.424736
21738308000,21738308000,0.13243455,-0.098915406,-10.719065
21738360000,21738360000,0.18658367,-0.16438313,-10.484841
21738412000,21738412000,0.29709902,-0.19411369,-10.373916
21738460000,21738460000,0.26194957,-0.1830105,-9.989165
21738512000,21738512000,0.3189139,-0.2634831,-10.461752
21738560000,21738560000,0.35453737,-0.22415589,-10.395577
21738612000,21738612000,0.42273134,-0.2675114,-10.476277
21738660000,21738660000,0.47565562,-0.42892212,-10.612114
21738712000,21738712000,0.5491632,-0.3596117,-10.466389
21738756000,21738756000,0.56266993,-0.35628545,-10.376837
21738812000,21738812000,0.7210659,-0.41782722,-10.086633
21738860000,21738860000,0.7596522,-0.50220364,-10.353368
21738912000,21738912000,0.7476428,-0.53066516,-10.289452
21738960000,21738960000,0.8887899,-0.51431215,-10.631314
21739012000,21739012000,0.9586773,-0.6227653,-10.250981
21739060000,21739060000,0.98568356,-0.5222953,-10.15808
21739112000,21739112000,1.0746447,-0.5847968,-10.146868
21739160000,21739160000,1.214137,-0.68122435,-10.024377
21739212000,21739212000,0.66835356,-1.3808243,-11.003108
21739260000,21739260000,0.8988144,-1.4385961,-12.227446
21739312000,21739312000,2.4228373,-0.04260364,-12.0334635
21739360000,21739360000,1.9074647,-0.55205846,-11.93506
21739412000,21739412000,1.6871372,-0.81907314,-11.825593
21739460000,21739460000,1.7978197,-0.7574115,-11.622081
21739508000,21739508000,1.9401613,-0.8023574,-11.870456
21739560000,21739560000,2.0589037,-0.75293803,-11.629005
21739612000,21739612000,2.178241,-0.6123289,-11.508734
21739660000,21739660000,2.3148363,-0.6332484,-11.43407
21739712000,21739712000,2.4366887,-0.6426781,-10.81549
21739760000,21739760000,2.5699654,-0.5528366,-11.395522
21739808000,21739808000,2.6753747,-0.4680872,-11.171766
21739860000,21739860000,2.732386,-0.41314995,-11.137905
21739912000,21739912000,2.8500838,-0.3423099,-11.213489
21739956000,21739956000,2.897667,-0.34744427,-11.144998
21740012000,21740012000,2.9412832,-0.33114135,-11.099525
21740056000,21740056000,3.0448816,-0.25778311,-11.08609
21740112000,21740112000,3.072603,-0.38359672,-11.088122
21740156000,21740156000,3.072617,-0.23153193,-10.951486
21740212000,21740212000,3.1870594,-0.20288537,-10.893761
21740260000,21740260000,3.1755838,-0.31764936,-10.365366
21740312000,21740312000,3.2513301,-0.20401476,-10.832091
21740360000,21740360000,3.1823318,-0.16638798,-10.749444
21740412000,21740412000,3.325601,-0.19793321,-10.804018
21740460000,21740460000,3.3673303,-0.2405183,-10.856265
21740508000,21740508000,3.339591,-0.14888442,-10.727138
21740560000,21740560000,3.4046187,-0.1785766,-10.616337
21740608000,21740608000,3.3797204,-0.23047341,-10.062767
21740660000,21740660000,3.3833482,-0.14586824,-10.576107
21740712000,21740712000,3.4361866,-0.11810153,-10.487352
21740760000,21740760000,3.4587677,-0.12994625,-10.341383
21740812000,21740812000,3.451818,-0.19999021,-10.582873
21740860000,21740860000,3.473004,-0.0953769,-10.370199
21740912000,21740912000,3.4624777,-0.07069984,-10.388328
21740960000,21740960000,3.4618938,-0.1024622,-9.847491
21741012000,21741012000,3.4650517,-0.120337896,-10.368876
21741060000,21741060000,3.4751801,-0.12500505,-10.262853
21741112000,21741112000,3.5375373,-0.12331312,-10.234665
21741156000,21741156000,3.5127132,-0.10998702,-10.426425
21741212000,21741212000,3.5443332,-0.11535359,-10.23451
21741260000,21741260000,3.5422437,-0.11991485,-10.152431
21741312000,21741312000,3.5340896,-0.2517551,-9.711018
21741360000,21741360000,3.578813,-0.10650149,-10.118229
21741408000,21741408000,3.533573,-0.11990815,-10.117796
21741460000,21741460000,3.5901227,-0.20930508,-10.02505
21741508000,21741508000,3.5812216,-0.092169,-10.176026
21741560000,21741560000,3.6240647,-0.08364548,-10.032502
21741608000,21741608000,3.5582297,-0.12336224,-9.96899
21741660000,21741660000,3.6120107,-0.0056956233,-9.809712
21741712000,21741712000,3.6640117,-0.07604983,-9.9925375
21741760000,21741760000,3.5956607,-0.095594205,-9.858601
21741812000,21741812000,3.634263,-0.095576316,-9.9156275
21741860000,21741860000,3.6808643,-0.07284641,-10.087826
21741912000,21741912000,3.6746912,-0.026420213,-9.845383
21741960000,21741960000,3.7413754,-0.15653592,-9.80579
21742012000,21742012000,3.7148645,-0.049687143,-9.607365
21742060000,21742060000,3.7216487,-0.08978263,-9.881955
21742112000,21742112000,3.6893296,-0.13734454,-9.792572
21742160000,21742160000,3.699818,-0.042213656,-9.769241
21742212000,21742212000,3.7099917,-0.0786108,-9.899071
21742260000,21742260000,3.7362754,-0.11808081,-9.7159
21742312000,21742312000,3.7194185,-0.070866406,-9.637766
21742360000,21742360000,3.707506,-0.096935295,-9.764852
21742412000,21742412000,3.80007,-0.13863572,-9.809841
21742460000,21742460000,3.7136369,-0.13548821,-9.659557
21742512000,21742512000,3.7586064,-0.19076757,-9.612391
21742560000,21742560000,3.7690005,-0.04668528,-9.676744
21742612000,21742612000,3.7750137,-0.10091479,-9.632228
21742660000,21742660000,3.7627938,-0.06357431,-9.590199
21742708000,21742708000,3.7364342,-0.11375349,-9.8707075
21742756000,21742756000,3.8122265,-0.09984367,-9.709514
21742812000,21742812000,3.7617867,-0.10697975,-9.567221
21742860000,21742860000,3.729477,-0.08984662,-9.493257
21742912000,21742912000,3.7618487,0.0018560017,-9.567428
21742956000,21742956000,3.815035,-0.05227757,-9.574874
21743012000,21743012000,3.8393536,-0.08107568,-9.468034
21743056000,21743056000,3.830419,-0.10767739,-9.779261
21743112000,21743112000,3.839342,-0.098793864,-9.567069
21743156000,21743156000,3.8594415,-0.07319449,-9.479185
21743212000,21743212000,3.8559222,-0.107040755,-9.413381
21743260000,21743260000,3.8647401,-0.1014076,-9.417574
21743308000,21743308000,3.916239,-0.054516193,-9.404836
21743356000,21743356000,3.9417465,-0.0957875,-9.418985
21743408000,21743408000,3.8885164,-0.15534289,-9.6762705
21743460000,21743460000,3.974467,-0.18944104,-9.464115
21743512000,21743512000,3.8762448,-0.01699973,-9.359287
21743560000,21743560000,3.9072444,-0.04958431,-9.389847
21743612000,21743612000,3.9293125,-0.010859737,-9.257401
21743660000,21743660000,3.944663,-0.12831496,-9.353899
21743712000,21743712000,3.9621685,-0.08511314,-9.30852
21743760000,21743760000,3.9131,0.006894025,-9.626332
21743812000,21743812000,3.972108,-0.0873954,-9.445456
21743856000,21743856000,3.90285,-0.021002056,-9.271021
21743912000,21743912000,3.9094603,-0.04977837,-9.262199
21743960000,21743960000,4.024554,-0.06335675,-8.983607
21744012000,21744012000,3.951108,-0.06345543,-9.289212
21744060000,21744060000,3.939617,-0.10266071,-9.2453
21744112000,21744112000,3.988158,-0.086834535,-9.590928
21744160000,21744160000,4.0016913,-0.07832204,-9.374178
21744212000,21744212000,3.9309103,-0.01723307,-9.245572
21744260000,21744260000,3.9714644,-0.04822441,-9.214281
21744312000,21744312000,3.9788775,-0.059672922,-8.9424715
21744360000,21744360000,3.9847999,-0.05393039,-9.257488
21744412000,21744412000,3.994245,-0.051124625,-9.196853
21744460000,21744460000,3.9895012,-0.073810585,-9.364644
21744508000,21744508000,4.041514,-0.13959049,-9.3150625
21744560000,21744560000,3.981886,-0.081427805,-9.205273
21744612000,21744612000,4.0045652,-0.0589944,-9.189477
21744660000,21744660000,3.9641435,-0.14191604,-8.680775
21744712000,21744712000,4.054734,-0.055564,-9.196709
21744760000,21744760000,4.0030885,-0.040100083,-9.1085005
21744812000,21744812000,3.948923,-0.10134234,-9.244765
21744860000,21744860000,4.048736,-0.12890868,-9.284408
21744912000,21744912000,3.969703,-0.007881233,-9.163351
21744960000,21744960000,3.995542,-0.047071274,-9.18075
21745012000,21745012000,4.051145,-0.09523493,-8.533254
21745060000,21745060000,4.041191,-0.05668233,-9.108293
21745108000,21745108000,4.0693617,-0.061217975,-9.093886
21745160000,21745160000,4.005838,-0.036198806,-9.069587
21745212000,21745212000,4.1113796,-0.10777062,-9.286943
21745260000,21745260000,4.0441685,-0.032831892,-9.063375
21745312000,21745312000,4.081172,-0.08959878,-9.0884285
21745360000,21745360000,4.0493016,-0.12437986,-8.58189
21745412000,21745412000,4.1133485,0.02731288,-9.145074
21745460000,21745460000,4.1128554,0.0010710851,-9.076779
21745512000,21745512000,4.128163,-0.055996563,-9.06517
21745556000,21745556000,4.149518,-0.071071774,-9.23172
21745612000,21745612000,4.086404,-0.011695757,-9.109314
21745660000,21745660000,4.0929885,-0.038642462,-9.058485
21745712000,21745712000,4.130165,-0.03887905,-8.582356
21745760000,21745760000,4.092813,-0.10521118,-9.183853
21745812000,21745812000,4.144738,-0.047936197,-9.025857
21745860000,21745860000,4.1096063,-0.08146571,-9.008381
21745912000,21745912000,4.1260276,-0.11342199,-9.172266
21745960000,21745960000,4.0886345,0.01246347,-9.041684
21746012000,21746012000,4.1213374,-0.023767835,-8.993479
21746060000,21746060000,4.136396,0.03944932,-8.838785
21746112000,21746112000,4.09338,-0.05524688,-9.110752
21746160000,21746160000,4.0921426,-0.049972657,-9.012398
21746212000,21746212000,4.1571846,-0.0043942966,-9.061547
21746260000,21746260000,4.1101246,-0.015041051,-9.154313
21746312000,21746312000,4.136125,-0.02582616,-9.029073
21746360000,21746360000,4.0664706,-0.027936773,-8.975886
21746412000,21746412000,4.14071,0.040917687,-8.814899
21746460000,21746460000,4.1665435,-0.024431348,-9.08549
21746508000,21746508000,4.1529636,-0.068752505,-8.946881
21746556000,21746556000,4.15234,-0.06435414,-8.978012
21746608000,21746608000,4.1510425,-0.044052526,-9.071118
21746656000,21746656000,4.1571126,-0.09263548,-9.004674
21746712000,21746712000,4.17448,-0.04837883,-8.945542
21746760000,21746760000,4.1414113,0.05209454,-9.053907
21746812000,21746812000,4.175646,-0.091077805,-9.050058
21746860000,21746860000,4.209763,-0.015749924,-8.971295
21746912000,21746912000,4.169537,-0.01100372,-8.995306
21746960000,21746960000,4.169169,0.038371634,-9.087594
21747012000,21747012000,4.1396585,0.01686432,-8.938887
21747060000,21747060000,4.2171826,0.007094396,-8.935601
21747112000,21747112000,4.1391325,0.020730732,-9.054341
21747160000,21747160000,4.1785655,0.01431726,-9.055623
21747212000,21747212000,4.1817102,-0.04815171,-8.946824
21747260000,21747260000,4.1905866,-0.062739074,-8.970191
21747312000,21747312000,4.2394676,-0.01423319,-9.010694
21747360000,21747360000,4.170585,-0.020907998,-8.936083
21747412000,21747412000,4.2103415,-0.001990407,-8.946208
21747460000,21747460000,4.26845,-0.029280353,-9.300346
21747512000,21747512000,4.2154474,-0.14210896,-9.031023
21747556000,21747556000,4.216796,-0.044062827,-8.913861
21747612000,21747612000,4.1911707,-0.095325634,-8.9062195
21747660000,21747660000,4.178381,-0.007291108,-8.844515
21747712000,21747712000,4.195802,-0.017666291,-8.9654875
21747760000,21747760000,4.227192,-0.0042620273,-8.859777
21747812000,21747812000,4.214704,-0.00047421517,-9.232518
21747860000,21747860000,4.2477765,-0.10085857,-9.020637
21747912000,21747912000,4.2318616,-0.000205738,-8.908553
21747956000,21747956000,4.255439,-0.06269692,-8.930426
21748008000,21748008000,4.2696104,-0.07997112,-8.653573
21748056000,21748056000,4.235985,-0.035086267,-8.984507
21748112000,21748112000,4.2552934,-0.044583995,-8.9515295
21748156000,21748156000,4.21654,0.0145809855,-8.977235
21748212000,21748212000,4.297989,-0.03778547,-8.997445
21748260000,21748260000,4.2095304,-0.054293886,-8.894004
21748312000,21748312000,4.1981955,0.029866723,-8.936939
21748356000,21748356000,4.3140936,-0.091411665,-8.383312
21748408000,21748408000,4.246801,0.00047617313,-8.91919
21748456000,21748456000,4.233725,-0.008785661,-8.87945
21748512000,21748512000,4.2535343,-0.030021532,-9.210048
21748560000,21748560000,4.2766924,-0.00763129,-8.956837
21748612000,21748612000,4.225869,-0.057085052,-8.91244
21748660000,21748660000,4.2885966,-0.05401926,-8.897311
21748712000,21748712000,4.203134,-0.07741144,-8.623332
21748756000,21748756000,4.21455,-0.041102715,-8.898416
21748808000,21748808000,4.2075186,-0.04642109,-8.896792
21748860000,21748860000,4.27682,-0.06781485,-9.004776
21748912000,21748912000,4.2063637,-0.068187825,-9.003282
21748956000,21748956000,4.2115164,0.03584425,-8.914934
21749012000,21749012000,4.2206135,-0.041212033,-8.890394
21749060000,21749060000,4.2512093,-0.12074709,-8.4004965
21749108000,21749108000,4.2721257,0.019422395,-8.926016
21749156000,21749156000,4.291533,-0.025805,-8.895212
21749208000,21749208000,4.25668,-0.014470658,-8.842497
21749260000,21749260000,4.323531,-0.058569424,-9.017592
21749308000,21749308000,4.235261,0.016296944,-8.853865
21749360000,21749360000,4.253458,-0.025890272,-8.866665
21749408000,21749408000,4.3273215,-0.0074120765,-8.401886
21749460000,21749460000,4.2810197,-0.032208372,-8.925801
21749512000,21749512000,4.281656,-0.07236504,-8.831318
21749560000,21749560000,4.262977,-0.03785995,-8.880247
21749612000,21749612000,4.2729425,-0.117886096,-8.979228
21749660000,21749660000,4.2905474,-0.100948125,-8.790845
21749712000,21749712000,4.267944,-0.011363018,-8.807457
21749760000,21749760000,4.2704735,-0.0030955742,-8.39582
21749812000,21749812000,4.243585,-0.04819032,-8.945483
21749860000,21749860000,4.290121,-0.0031203788,-8.855466
21749912000,21749912000,4.3492575,-0.012328305,-8.805132
21749960000,21749960000,4.278962,-0.021370657,-9.024466
21750012000,21750012000,4.260319,-0.08108125,-8.830059
21750060000,21750060000,4.335693,-0.028725537,-8.813815
21750112000,21750112000,4.2511134,0.0038888694,-8.411622
21750160000,21750160000,4.2798,-0.021527536,-8.882844
21750212000,21750212000,4.249578,0.030972786,-8.824332
21750260000,21750260000,4.2856393,-0.001226359,-8.832089
21750312000,21750312000,4.3071194,-0.02163802,-9.002401
21750356000,21750356000,4.3051586,-0.034061234,-8.934914
21750412000,21750412000,4.23298,-0.045216456,-8.859442
21750460000,21750460000,4.2371225,0.0010512774,-8.6808405
21750508000,21750508000,4.3100452,0.030703072,-8.877439
21750560000,21750560000,4.30859,-0.026668953,-8.818476
21750612000,21750612000,4.2614913,-0.055728868,-8.77981
21750660000,21750660000,4.2890654,-0.048207592,-8.979103
21750712000,21750712000,4.249396,0.022529492,-8.869653
21750760000,21750760000,4.301828,-0.026759047,-8.843331
21750812000,21750812000,4.3220196,0.032849494,-8.681649
21750856000,21750856000,4.322333,-0.040735263,-8.963363
21750912000,21750912000,4.323314,0.005415988,-8.79864
21750960000,21750960000,4.2520757,0.003370749,-8.849057
21751012000,21751012000,4.2999544,0.012642501,-8.984042
21751060000,21751060000,4.2565017,-0.0761023,-8.799868
21751112000,21751112000,4.283357,-0.01718389,-8.748237
21751160000,21751160000,4.331179,0.09362353,-8.94838
21751212000,21751212000,4.3151917,-0.019530915,-8.873144
21751260000,21751260000,4.3414273,-0.0335294,-8.814273
21751312000,21751312000,4.2929397,-0.015417607,-8.805254
21751360000,21751360000,4.276718,-0.011727159,-8.929386
21751408000,21751408000,4.3099685,0.027812798,-8.800998
21751460000,21751460000,4.313825,-0.06207896,-8.819523
21751512000,21751512000,4.2506638,0.041904304,-8.969706
21751560000,21751560000,4.321855,-0.021293223,-8.85537
21751612000,21751612000,4.3056116,-0.03862308,-8.827492
21751660000,21751660000,4.2361417,-0.037064567,-8.818083
21751712000,21751712000,4.3013735,-0.011395645,-8.899914
21751760000,21751760000,4.280601,-0.036849737,-8.850099
21751812000,21751812000,4.2797213,-0.022911502,-8.759505
21751860000,21751860000,4.242384,0.016033983,-9.186943
21751912000,21751912000,4.279833,-0.03664553,-8.929291
21751960000,21751960000,4.2639003,-0.07299842,-8.789177
21752008000,21752008000,4.3059535,-0.024634844,-8.815895
21752060000,21752060000,4.346868,-0.0067749093,-8.76374
21752112000,21752112000,4.3298545,-0.024075277,-8.849564
21752160000,21752160000,4.3330584,-0.03253503,-8.801909
21752212000,21752212000,4.2676015,-0.023824222,-9.088487
21752260000,21752260000,4.3679714,-0.08639182,-8.881983
21752312000,21752312000,4.3041396,-0.026169749,-8.762627
21752360000,21752360000,4.336507,-0.06820322,-8.82962
21752412000,21752412000,4.3510203,-0.006313631,-8.78506
21752460000,21752460000,4.307143,0.0051810513,-8.851237
21752508000,21752508000,4.2560787,-0.017215006,-8.804125
21752560000,21752560000,4.2720857,-0.06499431,-9.129681
21752612000,21752612000,4.3044147,-0.047880318,-8.852844
21752660000,21752660000,4.25284,-0.04232945,-8.833319
21752712000,21752712000,4.3230624,-0.041122384,-8.785474
21752760000,21752760000,4.307627,-0.07298799,-8.523527
21752812000,21752812000,4.265808,-0.04360604,-8.745161
21752856000,21752856000,4.3115673,-0.036237005,-8.843695
21752912000,21752912000,4.31117,-0.0636389,-9.091743
21752956000,21752956000,4.2934446,-0.042215794,-8.912489
21753008000,21753008000,4.2607884,-0.0285154,-8.815619
21753060000,21753060000,4.300204,-0.029001262,-8.776585
21753112000,21753112000,4.247717,-0.12941605,-8.537217
21753160000,21753160000,4.3207417,-0.088997625,-8.836106
21753212000,21753212000,4.330145,-0.009835758,-8.748949
21753256000,21753256000,4.2946377,-0.07971227,-8.814225
21753312000,21753312000,4.3296638,-0.13867573,-8.930856
21753360000,21753360000,4.320125,0.00454531,-8.817924
21753412000,21753412000,4.2956553,-0.09594442,-8.719795
21753460000,21753460000,4.2717023,-0.13260345,-8.327215
21753512000,21753512000,4.2730904,-0.06896059,-8.84626
21753560000,21753560000,4.2864995,-0.034681607,-8.778183
21753608000,21753608000,4.321042,-0.008857201,-8.783329
21753660000,21753660000,4.2979317,-0.05633174,-8.976849
21753712000,21753712000,4.342375,-0.01908906,-8.749484
21753760000,21753760000,4.3205276,0.019597568,-8.793358
21753812000,21753812000,4.2672396,-0.088531464,-8.304833
21753860000,21753860000,4.2795873,0.00023468616,-8.850962
21753912000,21753912000,4.323698,0.0029458888,-8.746369
21753960000,21753960000,4.3033905,-0.053100865,-8.778778
21754012000,21754012000,4.3558736,-0.085489415,-8.969186
21754060000,21754060000,4.2755756,0.017110078,-8.75892
21754112000,21754112000,4.3059044,0.009465359,-8.785731
21754160000,21754160000,4.278796,-0.09545611,-8.301752
21754212000,21754212000,4.32532,-0.014309182,-8.828761
21754260000,21754260000,4.340033,-0.041718934,-8.76427
21754308000,21754308000,4.2761874,-0.05117471,-8.777749
21754360000,21754360000,4.3430743,-0.05365927,-8.938133
21754412000,21754412000,4.2655253,0.031042717,-8.756668
21754456000,21754456000,4.26134,0.009897951,-8.788516
21754508000,21754508000,4.2981205,0.06408139,-8.61299
21754556000,21754556000,4.3166595,0.015807632,-8.818897
21754612000,21754612000,4.2724543,-0.050990134,-8.755508
21754656000,21754656000,4.2850647,-0.014764788,-8.775382
21754708000,21754708000,4.275021,0.01093481,-8.919792
21754760000,21754760000,4.3083053,-0.035809916,-8.81288
21754812000,21754812000,4.2800603,-0.06156964,-8.772958
21754860000,21754860000,4.2656646,-0.07022745,-8.6034155
21754912000,21754912000,4.264111,-0.055909008,-8.822764
21754960000,21754960000,4.3070173,-0.014667069,-8.759133
21755012000,21755012000,4.3159432,-0.07235636,-8.759502
21755060000,21755060000,4.298007,0.040901773,-8.904516
21755112000,21755112000,4.3304415,-0.10767096,-8.797554
21755160000,21755160000,4.2579985,-0.0068018395,-8.806416
21755208000,21755208000,4.219031,0.024489697,-8.927961
21755260000,21755260000,4.3164625,-0.02917022,-8.879597
21755312000,21755312000,4.3357935,-0.018926742,-8.797642
21755356000,21755356000,4.331987,-0.008985404,-8.777279
21755412000,21755412000,4.304123,-0.06335079,-8.9657135
21755460000,21755460000,4.324022,-0.022147432,-8.78406
21755508000,21755508000,4.2301,-0.063959904,-8.7595
21755560000,21755560000,4.246646,-0.007165699,-8.909238
21755612000,21755612000,4.2897873,-0.0838886,-8.871881
21755660000,21755660000,4.237664,-0.03934343,-8.816651
21755712000,21755712000,4.281033,-0.07435382,-8.853294
21755756000,21755756000,4.336616,-0.0796689,-8.712001
21755812000,21755812000,4.2685924,-0.04669153,-8.835002
21755856000,21755856000,4.3151097,-0.05780545,-8.787843
21755912000,21755912000,4.2541847,0.03380644,-8.883106
21755960000,21755960000,4.301708,-0.077559106,-8.88865
21756012000,21756012000,4.272163,-0.020373747,-8.7666645
21756060000,21756060000,4.338523,0.01563333,-8.781863
21756112000,21756112000,4.2471175,0.049845565,-8.9176655
21756160000,21756160000,4.3261223,-0.030175867,-8.782201
21756208000,21756208000,4.3506503,-0.028829804,-8.786893
21756260000,21756260000,4.308902,-0.020041829,-9.120626
21756312000,21756312000,4.307906,-0.002620418,-8.8638315
21756360000,21756360000,4.256383,0.0032704866,-8.792562
21756412000,21756412000,4.2781625,-0.037164148,-8.731953
21756460000,21756460000,4.2923217,-0.0030317523,-8.700395
21756512000,21756512000,4.3568254,-0.042346507,-8.757442
21756556000,21756556000,4.3227553,0.0023538591,-8.777636
21756612000,21756612000,4.2663417,-0.041434083,-9.12692
21756660000,21756660000,4.2946916,-0.056325745,-8.850169
21756708000,21756708000,4.309899,0.02161052,-8.778818
21756760000,21756760000,4.287407,-0.020921405,-8.762347
21756812000,21756812000,4.2951922,-0.03684057,-8.773334
21756860000,21756860000,4.2887597,-0.037596405,-8.704101
21756912000,21756912000,4.246798,-0.023986917,-8.781249
21756960000,21756960000,4.320449,-0.040006667,-9.084672
21757012000,21757012000,4.3516064,-0.09290349,-8.874787
21757060000,21757060000,4.2589917,-0.010779948,-8.7712755
21757112000,21757112000,4.3117514,-0.02562881,-8.748369
21757160000,21757160000,4.326339,-0.08103911,-8.489525
21757212000,21757212000,4.320105,-0.060611703,-8.780728
21757260000,21757260000,4.3056784,0.0056425524,-8.780739
21757312000,21757312000,4.348911,-0.1002561,-9.087335
21757360000,21757360000,4.320366,-0.06682666,-8.912969
21757412000,21757412000,4.2587967,-0.008870674,-8.786275
21757460000,21757460000,4.345696,-0.06619012,-8.754344
21757508000,21757508000,4.3155546,-0.12962966,-8.284679
21757556000,21757556000,4.2962766,-0.06225316,-8.793786
21757608000,21757608000,4.3738465,0.0064322776,-8.696351
21757660000,21757660000,4.2979374,-0.07334291,-8.886331
21757712000,21757712000,4.313263,-0.085937,-8.933749
21757760000,21757760000,4.336805,-0.09405214,-8.725726
21757808000,21757808000,4.3140817,0.036005966,-8.719538
21757856000,21757856000,4.3056364,-0.03262916,-8.288
21757912000,21757912000,4.338747,0.02457965,-8.8107815
21757960000,21757960000,4.31377,-0.00097529934,-8.763257
21758012000,21758012000,4.2831926,-0.040154863,-8.851319
21758060000,21758060000,4.327522,-0.011913879,-8.917157
21758112000,21758112000,4.3064384,-0.020719562,-8.781543
21758160000,21758160000,4.341624,-0.06202606,-8.744137
21758212000,21758212000,4.367084,-0.17661104,-8.186509
21758260000,21758260000,4.353642,-0.06312078,-8.838368
21758312000,21758312000,4.314872,-0.03361911,-8.7619
21758360000,21758360000,4.308286,-0.069423966,-8.696231
21758412000,21758412000,4.32701,-0.091980055,-8.917
21758456000,21758456000,4.351139,-0.005530631,-8.738818
21758512000,21758512000,4.370591,-0.051945277,-8.736448
21758560000,21758560000,4.3263116,-0.05090295,-8.259115
21758608000,21758608000,4.330823,-0.045309078,-8.772967
21758660000,21758660000,4.2944474,-0.042687,-8.782752
21758708000,21758708000,4.3169003,0.011959198,-8.794303
21758760000,21758760000,4.3502665,-0.057031304,-8.910644
21758812000,21758812000,4.360649,-0.04569641,-8.725419
21758860000,21758860000,4.2776794,-0.061975747,-8.83441
21758912000,21758912000,4.3477635,-0.08743702,-8.250373
21758956000,21758956000,4.3429775,-0.031812023,-8.8393955
21759012000,21759012000,4.332271,-0.004804678,-8.693948
21759056000,21759056000,4.34122,-0.023794457,-8.729328
21759112000,21759112000,4.37903,-0.112532884,-8.957427
21759156000,21759156000,4.3601627,-0.020242041,-8.765317
21759212000,21759212000,4.315649,0.0265104,-8.75928
21759260000,21759260000,4.289941,0.06859832,-8.536672
21759312000,21759312000,4.284569,-0.032092176,-8.839063
21759356000,21759356000,4.2658153,-0.012547783,-8.756259
21759408000,21759408000,4.3027124,-0.017686646,-8.744545
21759460000,21759460000,4.344936,-0.015522108,-8.964778
21759508000,21759508000,4.3271017,0.019475374,-8.778163
21759560000,21759560000,4.2952604,-0.034592684,-8.743053
21759612000,21759612000,4.241469,0.0056786807,-8.616076
21759660000,21759660000,4.357901,0.014950276,-8.822467
21759712000,21759712000,4.308004,-0.02941696,-8.824106
21759760000,21759760000,4.295693,-0.018579325,-8.742001
21759812000,21759812000,4.361165,0.038194377,-8.942322
21759860000,21759860000,4.2991824,0.030701974,-8.797366
21759908000,21759908000,4.336108,0.0032219288,-8.7350855
21759960000,21759960000,4.2754335,0.05466571,-8.8530245
21760012000,21760012000,4.2791195,0.001832514,-8.819292
21760060000,21760060000,4.287894,0.0030332385,-8.758259
21760112000,21760112000,4.3267317,-0.026630696,-8.770172
21760160000,21760160000,4.318218,0.011773246,-8.872026
21760208000,21760208000,4.3509936,-0.05326484,-8.771605
21760260000,21760260000,4.2905226,-0.0045516603,-8.760406
21760308000,21760308000,4.2974157,-0.039667733,-9.041655
21760360000,21760360000,4.2992644,-0.053553157,-8.843833
21760412000,21760412000,4.2799582,0.04338452,-8.772144
21760460000,21760460000,4.289252,-0.029206816,-8.7667675
21760512000,21760512000,4.3170485,0.027655335,-8.852725
21760560000,21760560000,4.24277,-0.013703888,-8.790528
21760612000,21760612000,4.346267,0.006951388,-8.715973
21760660000,21760660000,4.374835,-0.03774831,-9.050451
21760712000,21760712000,4.37943,-0.086159125,-8.887535
21760760000,21760760000,4.335908,-0.018835992,-8.793958
21760808000,21760808000,4.3304815,-0.009832268,-8.73782
21760856000,21760856000,4.3362827,-0.040332388,-8.484473
21760908000,21760908000,4.3801517,0.022584243,-8.814818
21760960000,21760960000,4.2668514,0.009664922,-8.739596
21761012000,21761012000,4.3112164,-0.025661541,-9.086763
21761060000,21761060000,4.3707843,0.0008603596,-8.871813
21761112000,21761112000,4.3050504,-0.037958033,-8.770851
21761160000,21761160000,4.3166113,-0.038822506,-8.773233
21761208000,21761208000,4.3621507,-0.04509675,-8.495943
21761260000,21761260000,4.3041434,-0.04861169,-8.802419
21761312000,21761312000,4.2518,0.030166937,-8.765813
21761360000,21761360000,4.319187,-0.031789243,-9.064879
21761408000,21761408000,4.334758,-0.09321424,-8.9760895
21761460000,21761460000,4.3036866,-0.0021295836,-8.743057
21761512000,21761512000,4.3527412,-0.070421174,-8.708202
21761560000,21761560000,4.27513,-0.040506013,-8.539996
21761608000,21761608000,4.309398,-0.037038874,-8.791248
21761660000,21761660000,4.2697916,-0.037118036,-8.7899275
21761708000,21761708000,4.3116703,-0.016078696,-8.90464
21761760000,21761760000,4.3625855,-0.07668121,-8.845578
21761812000,21761812000,4.3306947,-0.0033368191,-8.787253
21761860000,21761860000,4.2964845,-0.03142017,-8.746156
21761908000,21761908000,4.2850094,-0.031485215,-8.306741
21761960000,21761960000,4.340843,-0.06231728,-8.807811
21762012000,21762012000,4.293037,0.02755047,-8.805993
21762060000,21762060000,4.370252,0.00821563,-8.885632
21762112000,21762112000,4.3594747,-0.11846724,-8.925238
21762160000,21762160000,4.359459,0.08032584,-8.734015
21762212000,21762212000,4.3044763,-0.01266792,-8.775521
21762260000,21762260000,4.3478127,-0.09469244,-8.301442
21762312000,21762312000,4.2978992,-0.041966125,-8.80371
21762360000,21762360000,4.3263655,0.042406797,-8.7195215
21762412000,21762412000,4.3371778,0.012456392,-8.8629055
21762460000,21762460000,4.3375754,-0.085514784,-8.967877
21762512000,21762512000,4.321689,0.013408668,-8.730992
21762560000,21762560000,4.30269,-0.021270763,-8.803819
21762612000,21762612000,4.353811,-0.0571247,-8.253015
21762660000,21762660000,4.354876,0.021495413,-8.821795
21762712000,21762712000,4.2588015,-0.03452478,-8.747424
21762756000,21762756000,4.3349605,0.0015530556,-8.7346525
21762812000,21762812000,4.36642,-0.06040349,-8.924515
21762860000,21762860000,4.3235726,0.023324594,-8.786541
21762912000,21762912000,4.305078,0.030719234,-8.793577
21762960000,21762960000,4.3172207,-0.112263925,-8.289703
21763012000,21763012000,4.3705626,0.05570538,-8.784932
21763060000,21763060000,4.3354087,0.014585872,-8.771096
21763112000,21763112000,4.3192916,-0.02059053,-8.744563
21763160000,21763160000,4.3369527,-0.07708057,-8.931243
21763212000,21763212000,4.341822,0.01995656,-8.730063
21763260000,21763260000,4.3103356,-0.07736677,-8.786449
21763308000,21763308000,4.320007,0.0719414,-8.559625
21763360000,21763360000,4.3734946,0.035043903,-8.897384
21763412000,21763412000,4.335492,0.0059654694,-8.761748
21763460000,21763460000,4.3081756,-0.017047966,-8.753626
21763512000,21763512000,4.3022747,0.0048942976,-8.966511
21763556000,21763556000,4.3425007,-0.02947395,-8.772406
21763612000,21763612000,4.349565,0.0049293535,-8.827347
21763656000,21763656000,4.3630333,0.08398003,-8.904152
21763708000,21763708000,4.325715,-0.054700863,-8.896471
21763760000,21763760000,4.2491536,-0.018213833,-8.752177
21763812000,21763812000,4.292632,0.003176976,-8.754826
21763860000,21763860000,4.3423204,-0.029097265,-8.906765
21763912000,21763912000,4.339145,-0.05344277,-8.790431
21763960000,21763960000,4.3099833,0.025833476,-8.754706
21764012000,21764012000,4.4029,-0.029769067,-8.660803
21764060000,21764060000,4.3097844,-0.0110007115,-8.864128
21764112000,21764112000,4.3793306,-0.01231406,-8.773069
21764160000,21764160000,4.348265,-0.057434354,-8.785628
21764212000,21764212000,4.340688,0.007757002,-8.929106
21764256000,21764256000,4.2856174,0.008465271,-8.853856
21764308000,21764308000,4.2950187,-0.09078884,-8.7917595
21764360000,21764360000,4.311415,0.098354615,-8.903941
21764412000,21764412000,4.359231,-0.010802863,-8.859957
21764460000,21764460000,4.375533,-0.028514523,-8.735884
21764508000,21764508000,4.2892437,-0.009917291,-8.787528
21764556000,21764556000,4.309828,0.036664996,-8.680032
21764612000,21764612000,4.409309,0.00868901,-8.795361
21764656000,21764656000,4.3633904,0.010334959,-8.722655
21764708000,21764708000,4.337001,0.031524155,-9.140616
21764760000,21764760000,4.367024,-0.00634199,-8.861158
21764812000,21764812000,4.3085394,-0.04113333,-8.778565
21764860000,21764860000,4.3892245,-0.04788564,-8.76512
21764908000,21764908000,4.3119173,-0.0108232135,-8.654204
21764960000,21764960000,4.3282,-0.02711711,-8.773954
21765012000,21765012000,4.3038387,-0.036190663,-8.796946
21765060000,21765060000,4.3616376,-0.033586066,-9.076183
21765112000,21765112000,4.326869,-0.08038365,-8.84416
21765160000,21765160000,4.378578,-0.06276657,-8.806681
21765212000,21765212000,4.340483,-0.037644785,-8.783585
21765260000,21765260000,4.361477,-0.0020252757,-8.743683
21765312000,21765312000,4.365292,-0.024785616,-8.809681
21765360000,21765360000,4.3041596,-0.03775523,-8.782644
21765412000,21765412000,4.3820457,-0.019438459,-9.074659
21765460000,21765460000,4.334711,-0.061347958,-8.867876
21765512000,21765512000,4.407523,-0.030138485,-8.764592
21765560000,21765560000,4.3759446,-0.08118966,-8.80122
21765608000,21765608000,4.3626037,-0.06085162,-8.490884
21765660000,21765660000,4.299968,-0.04597319,-8.786487
21765712000,21765712000,4.277625,0.007746577,-8.818677
21765760000,21765760000,4.3682985,-0.054148935,-9.023739
21765812000,21765812000,4.366376,-0.06492267,-8.882683
21765860000,21765860000,4.3127823,-0.028960166,-8.780361
21765908000,21765908000,4.30201,-0.044769935,-8.7385435
21765960000,21765960000,4.391552,-0.032287788,-8.470533
21766012000,21766012000,4.3141975,-0.039320547,-8.755352
21766060000,21766060000,4.3120046,-0.010531893,-8.702666
21766112000,21766112000,4.3479395,-0.050833464,-9.10192
21766160000,21766160000,4.3343782,-0.080874816,-8.953794
21766212000,21766212000,4.293484,0.033647068,-8.738225
21766260000,21766260000,4.324059,-0.054524593,-8.8055315
21766308000,21766308000,4.3744454,-0.12828416,-8.2570305
21766360000,21766360000,4.2929845,-0.012839507,-8.817645
21766412000,21766412000,4.3378253,-0.025671924,-8.778474
21766460000,21766460000,4.334868,-0.0056118933,-8.900854
21766512000,21766512000,4.32162,-0.065881364,-8.934859
21766560000,21766560000,4.3241878,-0.04406086,-8.785647
21766612000,21766612000,4.2523217,0.0023256934,-8.786552
21766660000,21766660000,4.336193,-0.118250884,-8.205091
21766712000,21766712000,4.299773,-0.075619176,-8.8109665
21766760000,21766760000,4.3659215,0.00046779666,-8.748927
21766812000,21766812000,4.361502,-0.0222347,-8.915113
21766860000,21766860000,4.361926,-0.040098295,-8.954202
21766912000,21766912000,4.3787827,0.00051914336,-8.802981
21766960000,21766960000,4.292527,-0.035815265,-8.76627
21767012000,21767012000,4.379055,-0.09961385,-8.282984
21767060000,21767060000,4.3146048,-0.063888945,-8.733372
21767112000,21767112000,4.294858,-0.02428527,-8.710839
21767156000,21767156000,4.286351,0.008701046,-8.718003
21767212000,21767212000,4.400757,-0.06466985,-8.907285
21767260000,21767260000,4.3228993,-0.032027807,-8.790206
21767312000,21767312000,4.348296,0.020457748,-8.780629
21767360000,21767360000,4.3346133,-0.098861896,-8.2532215
21767412000,21767412000,4.315656,0.032977086,-8.792436
21767460000,21767460000,4.3532715,-0.027053254,-8.762525
21767512000,21767512000,4.348061,0.0001905095,-8.793783
21767560000,21767560000,4.314582,-0.05171642,-8.885869
21767612000,21767612000,4.2884517,0.013784443,-8.805666
21767660000,21767660000,4.3361964,0.016223693,-8.714092
21767712000,21767712000,4.319133,-0.045856394,-8.295165
21767760000,21767760000,4.3161845,-0.014616379,-8.795893
21767812000,21767812000,4.323916,-0.07003781,-8.791386
21767856000,21767856000,4.385341,-0.08363046,-8.753085
21767908000,21767908000,4.3554006,-0.03312068,-8.934479
21767956000,21767956000,4.3698225,-0.00072627445,-8.763772
21768012000,21768012000,4.3677073,-0.048793666,-8.748699
21768056000,21768056000,4.2987714,0.044860452,-8.889135
21768108000,21768108000,4.358927,0.02695521,-8.794274
21768160000,21768160000,4.29474,0.021697206,-8.797348
21768212000,21768212000,4.3306804,0.010641598,-8.705996
21768260000,21768260000,4.361451,-0.0045187357,-8.927346
21768312000,21768312000,4.349274,0.023958258,-8.724314
21768360000,21768360000,4.374914,-0.07375321,-8.765642
21768412000,21768412000,4.3627954,0.030530551,-8.615373
21768460000,21768460000,4.351815,-0.063512854,-8.840792
21768512000,21768512000,4.3297276,0.015494699,-8.80959
21768560000,21768560000,4.3903685,-0.08686114,-8.781778
21768612000,21768612000,4.386114,-0.04648486,-8.9302
21768660000,21768660000,4.3304715,-0.03886748,-8.796012
21768712000,21768712000,4.3195076,0.005662604,-8.750476
21768760000,21768760000,4.3847337,-0.0487001,-8.890841
21768812000,21768812000,4.3216248,-0.022833109,-8.805306
21768860000,21768860000,4.335246,-0.019611718,-8.752424
21768908000,21768908000,4.3171887,0.0114451265,-8.779013
21768956000,21768956000,4.315102,-0.02068561,-8.751257
21769008000,21769008000,4.379461,-0.060174674,-8.782335
21769060000,21769060000,4.395064,-0.011012532,-8.73906
21769112000,21769112000,4.3633904,-0.0061565246,-8.840056
21769160000,21769160000,4.360229,-0.01931759,-8.902093
21769212000,21769212000,4.3336043,0.0018124826,-8.782541
21769256000,21769256000,4.3741765,-0.0019827578,-8.802518
21769312000,21769312000,4.326442,0.038641255,-8.827307
21769360000,21769360000,4.3095045,-0.035958037,-8.812075
21769412000,21769412000,4.334537,0.014774609,-8.744393
21769460000,21769460000,4.3764443,-0.06416898,-9.073093
21769512000,21769512000,4.364268,-0.05589695,-8.80755
21769560000,21769560000,4.3456287,0.030171549,-8.723002
21769612000,21769612000,4.4223175,-0.016869845,-8.708682
21769660000,21769660000,4.3892508,-0.014573214,-8.758877
21769712000,21769712000,4.3586597,-0.015474146,-8.787814
21769760000,21769760000,4.380736,-0.005330799,-8.744539
21769812000,21769812000,4.3826556,-0.0652188,-9.057578
21769856000,21769856000,4.4448056,-0.071241856,-8.919012
21769908000,21769908000,4.35381,-0.03786975,-8.856571
21769960000,21769960000,4.329803,-0.04254679,-8.787763
21770008000,21770008000,4.42418,-0.023681212,-8.431006
21770060000,21770060000,4.3493123,0.022791315,-8.800894
21770112000,21770112000,4.3838553,-0.032419637,-8.76249
21770160000,21770160000,4.3908587,-0.058905646,-9.112742
21770212000,21770212000,4.3716655,-0.046306733,-8.877462
21770260000,21770260000,4.3480573,-0.045320794,-8.758457
21770308000,21770308000,4.3794227,-0.06253507,-8.7732115
21770356000,21770356000,4.388635,-0.10108525,-8.30813
21770408000,21770408000,4.366334,-0.081934586,-8.8198805
21770460000,21770460000,4.2931356,0.0346744,-8.803105
21770512000,21770512000,4.3926253,-0.054378897,-9.060312
21770560000,21770560000,4.4050984,-0.14043601,-8.889904
21770608000,21770608000,4.3892517,0.009872041,-8.787297
21770660000,21770660000,4.345962,-0.024438921,-8.744013
21770712000,21770712000,4.3947616,-0.037668224,-8.468133
21770756000,21770756000,4.3959007,-0.015421871,-8.789539
21770812000,21770812000,4.3617682,0.056123845,-8.78391
21770860000,21770860000,4.3653708,0.007953751,-8.9025135
21770908000,21770908000,4.38838,-0.10414035,-8.92447
21770960000,21770960000,4.3791385,-0.009746883,-8.779744
21771012000,21771012000,4.380478,-0.029623479,-8.776274
21771060000,21771060000,4.3237,-0.014214,-8.223072
21771112000,21771112000,4.4024963,0.003977053,-8.856021
21771160000,21771160000,4.329077,-0.071615055,-8.751129
21771212000,21771212000,4.3382626,-0.03622837,-8.888909
21771260000,21771260000,4.368277,-0.053083602,-8.935267
21771312000,21771312000,4.322213,0.014669128,-8.75006
21771356000,21771356000,4.377334,-0.066358216,-8.832465
21771412000,21771412000,4.303758,-0.08714114,-8.286209
21771460000,21771460000,4.3622055,0.013771089,-8.811611
21771508000,21771508000,4.3839154,-0.05309714,-8.73353
21771556000,21771556000,4.352502,-0.026189778,-8.802563
21771612000,21771612000,4.3874755,-0.018212944,-8.875455
21771660000,21771660000,4.3410225,0.026378594,-8.786386
21771712000,21771712000,4.3655124,-0.0783403,-8.779473
21771760000,21771760000,4.3327756,-0.02822778,-8.370358
21771812000,21771812000,4.4365497,-0.056878395,-8.873957
21771856000,21771856000,4.3833585,-0.05664985,-8.80704
21771912000,21771912000,4.389525,0.011687777,-8.791515
21771960000,21771960000,4.420695,-0.059263505,-8.944158
21772008000,21772008000,4.3883243,0.03026855,-8.803766
21772060000,21772060000,4.354516,-0.04355302,-8.763279
21772112000,21772112000,4.3852344,-0.052890696,-8.250566
21772160000,21772160000,4.360185,-0.024131324,-8.79458
21772212000,21772212000,4.3534207,-0.0044844504,-8.784455
21772260000,21772260000,4.438931,-0.029755136,-8.816153
21772312000,21772312000,4.3863287,-0.09344868,-8.953004
21772360000,21772360000,4.3719378,-0.0344088,-8.782341
21772412000,21772412000,4.357688,-0.029700326,-8.732177
21772460000,21772460000,4.414266,0.048550215,-8.613123
21772512000,21772512000,4.3791604,-0.01816939,-8.857219
21772560000,21772560000,4.3976507,-0.06277043,-8.769034
21772612000,21772612000,4.393048,-0.032216407,-8.795834
21772656000,21772656000,4.415345,0.03608482,-8.895515
21772712000,21772712000,4.3962336,-0.057579085,-8.825695
21772760000,21772760000,4.3910584,-0.086384155,-8.736906
21772812000,21772812000,4.384591,0.046977967,-8.648988
21772860000,21772860000,4.393899,-0.005482486,-8.797295
21772908000,21772908000,4.3244634,-0.02440823,-8.77562
21772960000,21772960000,4.3963604,-0.06646573,-8.741121
21773008000,21773008000,4.35132,-0.008530261,-8.8694105
21773060000,21773060000,4.3253713,0.025799232,-8.780439
21773112000,21773112000,4.327171,-0.031793617,-8.791532
21773156000,21773156000,4.3236566,-0.038834758,-9.099206
21773208000,21773208000,4.3732038,-0.04109374,-8.906395
21773260000,21773260000,4.3752155,-0.03159212,-8.755707
21773308000,21773308000,4.3271275,0.009242219,-8.737075
21773356000,21773356000,4.3671675,0.021620374,-8.68936
21773412000,21773412000,4.3781366,-0.030984638,-8.785058
21773460000,21773460000,4.364997,0.004537582,-8.800711
21773508000,21773508000,4.3498187,-0.05395724,-9.115639
21773560000,21773560000,4.418474,-0.052291624,-8.879992
21773612000,21773612000,4.3669853,-0.041680492,-8.7922735
21773660000,21773660000,4.3434777,-0.032820772,-8.783823
21773712000,21773712000,4.4002714,-0.019812971,-8.846621
21773760000,21773760000,4.400562,-0.009867332,-8.843133
21773812000,21773812000,4.390584,-0.04528579,-8.809214
21773860000,21773860000,4.4105983,-0.08341401,-9.12616
21773912000,21773912000,4.382978,-0.0752058,-8.84901
21773956000,21773956000,4.353522,-0.065213494,-8.802213
21774008000,21774008000,4.378525,-0.039456,-8.8257675
21774056000,21774056000,4.456482,-0.108708516,-8.473115
21774112000,21774112000,4.358736,-0.008557782,-8.811803
21774160000,21774160000,4.4406915,-0.010364892,-8.781575
21774212000,21774212000,4.3918624,-0.011295668,-9.133346
21774260000,21774260000,4.398594,-0.061317172,-8.966592
21774308000,21774308000,4.336946,-0.06806479,-8.831109
21774356000,21774356000,4.3885374,-0.01737134,-8.786455
21774412000,21774412000,4.380356,-0.032155413,-8.6859255
21774460000,21774460000,4.3567195,-0.061229933,-8.815954
21774512000,21774512000,4.3894606,-0.043356203,-8.778263
21774556000,21774556000,4.3455462,-0.10546785,-8.848131
21774608000,21774608000,4.354467,-0.115112916,-8.902173
21774656000,21774656000,4.3760376,-0.0232394,-8.82072
21774708000,21774708000,4.403814,-0.04809644,-8.800801
21774756000,21774756000,4.348521,-0.074250154,-8.261217
21774812000,21774812000,4.458633,0.003106278,-8.7981205
21774856000,21774856000,4.4003296,0.022085441,-8.737412
21774912000,21774912000,4.3614287,-0.09511693,-9.10113
21774960000,21774960000,4.3769865,-0.062487036,-8.920317
21775012000,21775012000,4.3725023,-0.041618034,-8.777859
21775060000,21775060000,4.3476353,-0.020368189,-8.767805
21775112000,21775112000,4.351966,-0.056820836,-8.427354
21775160000,21775160000,4.3600674,-0.019628322,-8.816199
21775212000,21775212000,4.3548193,-0.03875711,-8.766083
21775260000,21775260000,4.3937297,-0.011069773,-8.932657
21775312000,21775312000,4.3811445,-0.08914692,-8.928706
21775360000,21775360000,4.323442,0.002991075,-8.825236
21775412000,21775412000,4.368206,-0.058160804,-8.796579
21775460000,21775460000,4.3778853,-0.13490342,-8.268002
21775508000,21775508000,4.367391,-0.004550344,-8.84576
21775560000,21775560000,4.353232,-0.040077467,-8.799133
21775612000,21775612000,4.348158,-0.10152977,-8.871608
21775660000,21775660000,4.411994,-0.11317194,-8.966111
21775708000,21775708000,4.366779,-0.025515612,-8.789342
21775756000,21775756000,4.3664775,2.0955838e-05,-8.768491
21775812000,21775812000,4.3541436,-0.102542035,-8.275117
21775860000,21775860000,4.4192805,-0.022380907,-8.85808
21775912000,21775912000,4.4130487,-0.0370022,-8.787152
21775956000,21775956000,4.343939,-0.047037065,-8.82079
21776008000,21776008000,4.4198174,-0.047645573,-9.017671
21776060000,21776060000,4.365915,-0.0046433792,-8.8192215
21776112000,21776112000,4.322281,-0.07711425,-8.783767
21776160000,21776160000,4.363088,-0.017776357,-8.283337
21776212000,21776212000,4.4102974,-0.06253942,-8.856623
21776260000,21776260000,4.3777566,-0.00881108,-8.735885
21776312000,21776312000,4.319184,-0.047693104,-8.768451
21776360000,21776360000,4.4215903,-0.15040213,-8.9636345
21776412000,21776412000,4.3579993,-0.052175283,-8.7765465
21776460000,21776460000,4.3578906,-0.027168255,-8.80718
21776512000,21776512000,4.344676,-0.066225894,-8.299665
21776556000,21776556000,4.3603406,0.009729538,-8.896356
21776612000,21776612000,4.36141,0.0050154156,-8.747064
21776656000,21776656000,4.404785,-0.051910833,-8.782719
21776712000,21776712000,4.4499283,-0.07307047,-8.948299
21776756000,21776756000,4.2873187,-0.056856547,-8.874347
21776808000,21776808000,4.3361883,-0.03810286,-8.785426
21776860000,21776860000,4.3273168,0.029153131,-8.564758
21776912000,21776912000,4.3933315,-0.03928164,-8.832594
21776956000,21776956000,4.4107394,-0.029299412,-8.830934
21777012000,21777012000,4.375716,-0.052092537,-8.758379
21777060000,21777060000,4.3676586,-0.018254278,-8.989121
21777112000,21777112000,4.394972,-0.054626606,-8.775139
21777156000,21777156000,4.3732142,-0.05642329,-8.759589
21777212000,21777212000,4.4105473,-0.045315027,-8.69084
21777260000,21777260000,4.385008,-0.034278944,-8.829231
21777312000,21777312000,4.3288665,-0.05056676,-8.764109
21777356000,21777356000,4.376964,-0.021748798,-8.762869
21777412000,21777412000,4.369486,-0.079348445,-8.920363
21777460000,21777460000,4.366696,0.012214391,-8.772892
21777512000,21777512000,4.3603697,-0.06639037,-8.719239
21777560000,21777560000,4.3685417,-0.016622871,-8.887878
21777612000,21777612000,4.3322535,-0.017728537,-8.850932
21777660000,21777660000,4.358738,-0.004051421,-8.76503
21777712000,21777712000,4.376638,-0.012914776,-8.8088455
21777760000,21777760000,4.4061966,0.025830673,-8.84662
21777808000,21777808000,4.320846,-0.030111216,-8.7840395
21777860000,21777860000,4.394245,-0.044015184,-8.758749
21777912000,21777912000,4.377467,0.010785049,-8.915744
21777960000,21777960000,4.3995237,-0.04874509,-8.839857
21778008000,21778008000,4.3688817,-0.07842321,-8.783562
21778060000,21778060000,4.3555017,-0.060642093,-8.732845
21778108000,21778108000,4.3458285,-0.0010172642,-8.743626
21778160000,21778160000,4.4185433,-0.049829613,-8.783584
21778212000,21778212000,4.339388,-0.002016581,-8.770149
21778260000,21778260000,4.3661437,-0.04287863,-9.077308
21778312000,21778312000,4.4204783,-0.10620708,-8.880106
21778360000,21778360000,4.3470383,-0.07372543,-8.775082
21778412000,21778412000,4.350889,-0.01516414,-8.7286005
21778460000,21778460000,4.3270445,-0.020483477,-8.713079
21778512000,21778512000,4.370382,-0.019592747,-8.746473
21778560000,21778560000,4.363136,-0.009737631,-8.821576
21778608000,21778608000,4.3785796,-0.076246746,-9.073135
21778656000,21778656000,4.403918,-0.20433852,-8.917231
21778712000,21778712000,4.38598,-0.00038913853,-8.791843
21778760000,21778760000,4.3436384,-0.024268882,-8.7431965
21778808000,21778808000,4.4051075,-0.06681547,-8.546691
21778856000,21778856000,4.408012,-0.07860142,-8.780138
21778912000,21778912000,4.4054246,-0.025761906,-8.751061
21778960000,21778960000,4.3637567,-0.044036496,-9.062523
21779008000,21779008000,4.3700128,-0.1434179,-8.857151
21779060000,21779060000,4.3717813,0.038054276,-8.75715
21779108000,21779108000,4.359662,-0.033593263,-8.73883
21779156000,21779156000,4.4013376,-0.13144566,-8.296794
21779212000,21779212000,4.329406,-0.026786238,-8.842862
