timestamp,timestamp_sample,device_id,magnetometer_ga[0],magnetometer_ga[1],magnetometer_ga[2],calibration_count
21726428000,21726428000,197644,0.11726554,0.15429288,0.4861543,0
21727004000,21727004000,197644,0.121053435,0.15526725,0.48552847,0
21727424000,21727424000,197644,0.13008082,0.15233637,0.48694077,0
21728000000,21727994000,197644,0.12135327,0.15225995,0.48672652,0
21728420000,21728420000,197644,0.124218546,0.15436783,0.49078462,0
21728992000,21728986000,197644,0.121712685,0.15554339,0.48953524,0
21729524000,21729475111,197644,0.12017265,0.15641981,0.48796597,0
21730000000,21729977600,197644,0.121051885,0.15656607,0.48909757,0
21730504000,21730464500,197644,0.1193165,0.15642576,0.48890066,0
21730972000,21730957000,197644,0.123937145,0.15785865,0.48872438,0
21731492000,21731450000,197644,0.11804096,0.15742831,0.4870479,0
21731972000,21731942000,197644,0.12014099,0.15582974,0.49038464,0
21732452000,21732434000,197644,0.11860914,0.1557074,0.48891634,0
21732992000,21732992000,197644,0.12592643,0.15137593,0.4905436,0
21733424000,21733424000,197644,0.12012886,0.14704154,0.48870915,0
21734000000,21734000000,197644,0.11417205,0.14841935,0.49608204,0
21734432000,21734432000,197644,0.116635874,0.15227562,0.4903716,0
21735008000,21735008000,197644,0.12563683,0.1526233,0.4897816,0
21735440000,21735440000,197644,0.11927311,0.15757073,0.48333243,0
21736028000,21736022000,197644,0.11759489,0.15564814,0.4877094,0
21736448000,21736442000,197644,0.114045694,0.15923238,0.49141145,0
21737012000,21737006000,197644,0.11428588,0.15127526,0.48921257,0
21737444000,21737432000,197644,0.11878916,0.16004935,0.48936185,0
21738020000,21737996000,197644,0.1125132,0.16138011,0.49078423,0
21738524000,21738494000,197644,0.067894354,0.18407422,0.4902602,0
21739024000,21738988000,197644,0.008820197,0.21535982,0.4799935,0
21739508000,21739490000,197644,-0.08687159,0.14556141,0.49772167,0
21739940000,21739928000,197644,-0.07577373,0.15039319,0.49808115,0
21740500000,21740490666,197644,-0.06801918,0.14983268,0.49831778,0
21741032000,21740990000,197644,-0.069628246,0.1550619,0.49582732,0
21741512000,21741494000,197644,-0.07586028,0.1561742,0.49823335,0
21741920000,21741914000,197644,-0.08256422,0.15352866,0.494802,0
21742484000,21742484000,197644,-0.08731677,0.15151766,0.49776173,0
21743032000,21742974545,197644,-0.08903283,0.15344752,0.49871787,0
21743468000,21743468000,197644,-0.08339381,0.15278041,0.49526373,0
21744032000,21744032000,197644,-0.09285135,0.15755507,0.49721274,0
21744452000,21744452000,197644,-0.086690456,0.162555,0.4986789,0
21745028000,21745028000,197644,-0.09452794,0.15741365,0.49915326,0
21745460000,21745452000,197644,-0.096405014,0.14703304,0.49700648,0
21746024000,21746006000,197644,-0.09859588,0.15223528,0.4977583,0
21746444000,21746432000,197644,-0.09790264,0.15176639,0.49466336,0
21747020000,21747006666,197644,-0.10311439,0.1475248,0.49769744,0
21747448000,21747436000,197644,-0.09984857,0.15023649,0.49289092,0
21748024000,21748012000,197644,-0.10182063,0.15065974,0.49218902,0
21748448000,21748430000,197644,-0.10152354,0.14872788,0.4941365,0
21749012000,21748998666,197644,-0.101667665,0.15061015,0.49473405,0
21749440000,21749425000,197644,-0.100124285,0.1507465,0.4941811,0
21750008000,21749996000,197644,-0.10180073,0.1516689,0.4933388,0
21750440000,21750426666,197644,-0.09829264,0.15526116,0.4918784,0
21750992000,21750986000,197644,-0.10800521,0.15526277,0.49303344,0
21751432000,21751418000,197644,-0.10325275,0.15038784,0.4961245,0
21752008000,21752002000,197644,-0.102489464,0.15454215,0.49685282,0
21752444000,21752430666,197644,-0.098975584,0.15215094,0.49646485,0
21753032000,21753008000,197644,-0.10542244,0.15205108,0.49379644,0
21753536000,21753505333,197644,-0.10157486,0.1500002,0.4966129,0
21754028000,21753998000,197644,-0.104308866,0.15092938,0.4915468,0
21754520000,21754496000,197644,-0.102219366,0.15111427,0.4966693,0
21755024000,21754992666,197644,-0.10303139,0.1511185,0.49406573,0
21755528000,21755486000,197644,-0.10365557,0.15149346,0.49314797,0
21755972000,21755972000,197644,-0.105392896,0.14952841,0.49550185,0
21756404000,21756404000,197644,-0.10686976,0.14994578,0.49753818,0
21756980000,21756980000,197644,-0.09977169,0.1446648,0.49144936,0
21757516000,21757476000,197644,-0.106270015,0.14953983,0.49291432,0
21757984000,21757966000,197644,-0.107216746,0.14777096,0.4940662,0
21758528000,21758528000,197644,-0.10693253,0.15161102,0.4902785,0
21758960000,21758960000,197644,-0.105283506,0.15662092,0.48965508,0
21759512000,21759457600,197644,-0.10352148,0.1508421,0.49539948,0
21759968000,21759950000,197644,-0.10535495,0.15270725,0.49072358,0
21760532000,21760513000,197644,-0.10518055,0.15462139,0.49233526,0
21760964000,21760940000,197644,-0.103439905,0.15026765,0.49193,0
21761528000,21761503200,197644,-0.10399943,0.15105866,0.49212775,0
21762032000,21761989000,197644,-0.10493361,0.15049146,0.49021512,0
21762472000,21762472000,197644,-0.10507859,0.15392572,0.4928794,0
21763028000,21763022000,197644,-0.101911575,0.14718473,0.4970661,0
21763460000,21763460000,197644,-0.11022997,0.14248367,0.50222164,0
21764032000,21764032000,197644,-0.10739788,0.14646067,0.48909143,0
21764456000,21764456000,197644,-0.11095478,0.14724718,0.4942083,0
21765032000,21765032000,197644,-0.10584318,0.14926682,0.49386606,0
21765464000,21765464000,197644,-0.10265373,0.14788648,0.48884168,0
21766028000,21765967272,197644,-0.105491124,0.1520487,0.49426264,0
21766468000,21766468000,197644,-0.107221425,0.15100849,0.49459422,0
21767036000,21767036000,197644,-0.10190028,0.151858,0.49610642,0
21767468000,21767460000,197644,-0.107011825,0.1536485,0.4960239,0
21767980000,21767947428,197644,-0.10786005,0.15142691,0.49193415,0
21768464000,21768445000,197644,-0.10781577,0.15116546,0.49341464,0
21768992000,21768948500,197644,-0.105790965,0.15295008,0.49350712,0
21769468000,21769446400,197644,-0.108177714,0.15168105,0.49300677,0
21769960000,21769939200,197644,-0.1053771,0.15349804,0.49150583,0
21770468000,21770438000,197644,-0.106121324,0.15297739,0.49213824,0
21770948000,21770930000,197644,-0.10349834,0.15629712,0.49246037,0
21771524000,21771499200,197644,-0.10614117,0.1539905,0.49409056,0
21771932000,21771920000,197644,-0.1045478,0.15016946,0.4894739,0
21772496000,21772488000,197644,-0.10663268,0.15734199,0.49414805,0
21773024000,21772974666,197644,-0.10527713,0.1507743,0.4924907,0
21773480000,21773462000,197644,-0.1047055,0.15375519,0.49274075,0
21774004000,21773956444,197644,-0.10476143,0.15113848,0.49242225,0
21774464000,21774452000,197644,-0.10805525,0.14952163,0.49416384,0
21774992000,21774949500,197644,-0.10434438,0.15373118,0.49074656,0
21775448000,21775436000,197644,-0.10891129,0.15352857,0.48929986,0
21776000000,21776000000,197644,-0.11006386,0.15792257,0.49026728,0
21776432000,21776432000,197644,-0.11001624,0.13911587,0.49990496,0
21777008000,21777008000,197644,-0.106880225,0.15185346,0.49086386,0
21777428000,21777428000,197644,-0.10544075,0.15547661,0.4943893,0
21778000000,21778000000,197644,-0.1117862,0.14222898,0.4946686,0
21778424000,21778424000,197644,-0.09819545,0.15457341,0.49289748,0
21779000000,21778992000,197644,-0.10451324,0.1518083,0.4944088,0
21779528000,21779480000,197644,-0.102281965,0.15279508,0.49230003,0
21779972000,21779972000,197644,-0.10741418,0.1540992,0.48246723,0
21780536000,21780476000,197644,-0.10333528,0.15153272,0.49391857,0
21780980000,21780980000,197644,-0.10349478,0.1526118,0.48827827,0
21781412000,21781412000,197644,-0.09903283,0.1536906,0.49077684,0
21781988000,21781988000,197644,-0.10560428,0.1438757,0.4971679,0
21782420000,21782420000,197644,-0.10009053,0.152361,0.48877913,0
21782996000,21782996000,197644,-0.097067505,0.1552981,0.4956394,0
21783428000,21783422000,197644,-0.10197902,0.15255243,0.49328548,0
21783992000,21783992000,197644,-0.09841326,0.15703334,0.49011347,0
21784424000,21784424000,197644,-0.10409782,0.14778273,0.49648106,0
21785000000,21785000000,197644,-0.10202015,0.14925165,0.49222675,0
21785444000,21785444000,197644,-0.101719804,0.14810824,0.49334446,0
21786020000,21786014000,197644,-0.10566515,0.15238181,0.49236122,0
21786452000,21786440000,197644,-0.10523847,0.15073512,0.48906958,0
21787028000,21787010000,197644,-0.10303128,0.15164557,0.4947039,0
21787460000,21787442000,197644,-0.10595763,0.15075518,0.4917642,0
21788036000,21788017000,197644,-0.10166428,0.15287817,0.49427512,0
21788468000,21788444000,197644,-0.102584325,0.1518805,0.4934837,0
21788960000,21788936000,197644,-0.10640242,0.14937514,0.49136075,0
21789524000,21789494000,197644,-0.10406923,0.15232162,0.4930076,0
21789944000,21789920000,197644,-0.10636246,0.15164219,0.49132296,0
21790520000,21790482857,197644,-0.10519219,0.1523736,0.49329123,0
21790988000,21790976000,197644,-0.104540616,0.15178686,0.49331635,0
21791516000,21791467555,197644,-0.1052626,0.15259957,0.49095836,0
21791960000,21791960000,197644,-0.10533889,0.15746908,0.48782918,0
21792536000,21792536000,197644,-0.10322204,0.15093538,0.49565554,0
21792968000,21792968000,197644,-0.10370212,0.14697286,0.48569834,0
21793532000,21793471636,197644,-0.103365324,0.15192537,0.49265146,0
21793972000,21793966000,197644,-0.104125515,0.15134567,0.48969227,0
21794492000,21794456000,197644,-0.10403318,0.15166032,0.49189246,0
21794980000,21794952666,197644,-0.10487922,0.15358856,0.49079844,0
21795488000,21795451428,197644,-0.10670871,0.15199488,0.49418932,0
21795980000,21795956000,197644,-0.10514728,0.15040082,0.49040672,0
21796460000,21796442000,197644,-0.10565852,0.1513914,0.4919818,0
21797024000,21797012000,197644,-0.10043846,0.15229289,0.49140006,0
21797456000,21797444000,197644,-0.108743355,0.1528801,0.49104413,0
21798032000,21798018666,197644,-0.104722366,0.15588692,0.49655747,0
21798452000,21798434000,197644,-0.10392062,0.15338248,0.49583435,0
21799016000,21799004000,197644,-0.10659688,0.1536026,0.49092707,0
21799448000,21799436000,197644,-0.105263755,0.15313677,0.49269745,0
21800024000,21800012000,197644,-0.10579027,0.15485112,0.49275404,0
21800456000,21800444000,197644,-0.1075994,0.15309052,0.49094957,0
21801032000,21801014000,197644,-0.10718682,0.15023786,0.49039757,0
21801448000,21801438666,197644,-0.1036149,0.15540408,0.49673682,0
21802000000,21802000000,197644,-0.10648714,0.14931837,0.49216783,0
21802424000,21802424000,197644,-0.10335851,0.1557522,0.49346772,0
21803000000,21802994000,197644,-0.10235141,0.15730536,0.4890685,0
21803432000,21803420000,197644,-0.10466322,0.15044352,0.4892518,0
21804008000,21803990000,197644,-0.105256125,0.14872366,0.4929128,0
21804524000,21804482000,197644,-0.10739869,0.1549029,0.49468312,0
21805000000,21804972666,197644,-0.10749405,0.1531467,0.4935224,0
21805484000,21805472000,197644,-0.10572171,0.151761,0.488308,0
21806012000,21805963111,197644,-0.104672074,0.1515875,0.49152625,0
21806476000,21806452000,197644,-0.06679823,0.16030547,0.495823,0
21806956000,21806934400,197644,0.24405049,0.21745868,0.4087852,0
21807524000,21807506000,197644,0.19669142,0.122464195,0.47076473,0
21807944000,21807932000,197644,0.11964834,0.17032425,0.48261935,0
21808520000,21808496000,197644,0.22441183,0.17099659,0.44354162,0
21809032000,21808990500,197644,0.27876943,0.1483314,0.4217543,0
21809504000,21809486000,197644,0.27437174,0.1652137,0.4166444,0
21810028000,21809982666,197644,0.25035256,0.14951558,0.4378979,0
21810476000,21810476000,197644,0.2109896,0.17161529,0.44449595,0
21811016000,21810967555,197644,0.1773629,0.16491461,0.46707985,0
21811472000,21811466000,197644,0.16051713,0.16502297,0.47225815,0
21812000000,21811958000,197644,0.1307545,0.15903392,0.48307756,0
21812480000,21812449333,197644,0.113790326,0.15831256,0.49109277,0
21812960000,21812936000,197644,0.107347466,0.15400636,0.49205634,0
21813524000,21813505000,197644,0.11182353,0.15083814,0.49366465,0
21813956000,21813932000,197644,0.11631892,0.14802542,0.49344173,0
21814532000,21814507200,197644,0.11990265,0.14847727,0.4895986,0
21815036000,21815006000,197644,0.121037796,0.1510979,0.4928499,0
21815528000,21815504000,197644,0.12360211,0.15380311,0.48714897,0
21816032000,21816002000,197644,0.12657893,0.1543508,0.4865809,0
21816536000,21816506000,197644,0.12589051,0.1556238,0.4865172,0
21817028000,21816998000,197644,0.1261748,0.15311632,0.4865644,0
21817532000,21817496000,197644,0.1249212,0.15469551,0.48806491,0
21818024000,21817994000,197644,0.12426262,0.15505022,0.48797327,0
21818528000,21818486000,197644,0.12106091,0.15729931,0.48827702,0
21819008000,21818990000,197644,0.12069171,0.15774807,0.48815948,0
21819524000,21819488000,197644,0.11872295,0.15787362,0.48713452,0
21820016000,21819978857,197644,0.120005816,0.15641801,0.4870221,0
21820496000,21820477000,197644,0.12111914,0.15359348,0.48895535,0
21821000000,21820970000,197644,0.11704777,0.15431583,0.48619545,0
21821492000,21821468000,197644,0.12320258,0.1555858,0.487744,0
21821996000,21821966000,197644,0.12551145,0.15419006,0.48978734,0
21822488000,21822452000,197644,0.11831985,0.15362775,0.48898453,0
21822980000,21822950000,197644,0.121756695,0.15296713,0.48765612,0
21823472000,21823448000,197644,0.1211,0.15489613,0.4899818,0
21824000000,21823958000,197644,0.11847983,0.15414184,0.49256733,0
21824480000,21824448666,197644,0.119366944,0.15037936,0.48841545,0
21824972000,21824942000,197644,0.12075186,0.15042564,0.48966298,0
21825476000,21825452000,197644,0.12265556,0.15058663,0.49067163,0
21825968000,21825944000,197644,0.12575386,0.15296733,0.48790523,0
21826472000,21826442000,197644,0.12168646,0.15279254,0.49050373,0
21826964000,21826940000,197644,0.12039886,0.1541078,0.48830286,0
21827456000,21827432000,197644,0.11953818,0.15428296,0.4884865,0
21828032000,21828008000,197644,0.11967975,0.155237,0.48715112,0
21828464000,21828439200,197644,0.12079541,0.15259878,0.48798952,0
21829028000,21829004000,197644,0.120754324,0.15219714,0.48853263,0
21829460000,21829436000,197644,0.12066306,0.15389632,0.48770887,0
21830036000,21830012000,197644,0.12174668,0.15426587,0.48944855,0
21830456000,21830437000,197644,0.1200437,0.1608147,0.4824502,0
21831032000,21831002000,197644,0.11926042,0.15497199,0.4896354,0
21831536000,21831494000,197644,0.11994976,0.15657592,0.49050906,0
21832004000,21831985000,197644,0.12007881,0.15651703,0.48667786,0
21832496000,21832472000,197644,0.11719922,0.1556646,0.48575792,0
21833000000,21832964000,197644,0.117887706,0.15648249,0.48841476,0
21833480000,21833461000,197644,0.11898422,0.15867458,0.4876917,0
21833984000,21833960000,197644,0.12072398,0.15676254,0.48920327,0
21834500000,21834451555,197644,0.11962615,0.15650941,0.48884562,0
21834956000,21834950000,197644,0.1169838,0.1520752,0.48597714,0
21835516000,21835516000,197644,0.11427717,0.16312896,0.48956248,0
21835936000,21835936000,197644,0.12392704,0.15937047,0.48316804,0
21836500000,21836500000,197644,0.12080492,0.16196267,0.4894118,0
21836924000,21836912000,197644,0.119356126,0.1570968,0.49578902,0
21837488000,21837488000,197644,0.12241604,0.15183131,0.4898568,0
21837920000,21837920000,197644,0.11893497,0.14926521,0.48983985,0
21838496000,21838496000,197644,0.12493785,0.14908011,0.4937144,0
21838928000,21838928000,197644,0.1185738,0.15737407,0.49057144,0
21839504000,21839504000,197644,0.12775931,0.1603428,0.4843741,0
21839936000,21839930000,197644,0.12047738,0.1588917,0.48660886,0
21840508000,21840502000,197644,0.11967187,0.15211445,0.49089116,0
21840944000,21840932000,197644,0.11494543,0.15940338,0.4913842,0
21841520000,21841501000,197644,0.11717393,0.1588773,0.48757112,0
21841940000,21841928000,197644,0.12054398,0.1571456,0.48763794,0
21842504000,21842498000,197644,0.11948184,0.15658711,0.49125338,0
21842924000,21842924000,197644,0.11790871,0.1594734,0.48987454,0
21843500000,21843500000,197644,0.12580773,0.15240246,0.4849189,0
21843920000,21843920000,197644,0.12052057,0.15098237,0.48641327,0
21844496000,21844496000,197644,0.12284322,0.15465726,0.4843434,0
21844928000,21844928000,197644,0.12114604,0.15151952,0.48799658,0
21845504000,21845504000,197644,0.12158148,0.15185189,0.49364528,0
21845932000,21845932000,197644,0.12047348,0.15822671,0.49007544,0
21846500000,21846500000,197644,0.11883344,0.15631397,0.4851844,0
21846932000,21846932000,197644,0.12221403,0.14569259,0.49049872,0
21847520000,21847514000,197644,0.12036913,0.1516277,0.4909137,0
21847952000,21847946000,197644,0.12459404,0.15475532,0.4858923,0
21848528000,21848514666,197644,0.12265491,0.1575469,0.4905531,0
21848960000,21848936000,197644,0.120861806,0.15412635,0.4861985,0
21849536000,21849512000,197644,0.11745492,0.15371929,0.48749495,0
21849968000,21849944000,197644,0.118456975,0.15620685,0.48861596,0
21850532000,21850514000,197644,0.1187354,0.15237564,0.48415792,0
21850952000,21850933000,197644,0.120575085,0.15664494,0.4879454,0
