timestamp,timestamp_sample,gps_hvel[0],gps_hvel[1],gps_vvel,gps_hpos[0],gps_hpos[1],gps_vpos,ev_hvel[0],ev_hvel[1],ev_vvel,ev_hpos[0],ev_hpos[1],ev_vpos,rng_vpos,baro_vpos,aux_hvel[0],aux_hvel[1],aux_vvel,flow[0],flow[1],heading,mag_field[0],mag_field[1],mag_field[2],drag[0],drag[1],airspeed,beta,hagl,hagl_rate
21726656000,21726576000,-0.00030513998,-0.0032295303,-0.0016016667,0.0012189746,0.001986146,0.0,0.0,0.0,0.0,0.0,0.0,0.0,0.0,-0.040512085,0.0,0.0,nan,0.0,0.0,-0.01834333,0.00089244545,0.0027285367,-0.0031014383,0.0,0.0,0.0,0.0,0.0,0.0
21727152000,21727072000,-0.0001942909,-0.0003529165,-0.000391983,-0.009836614,0.0022480488,0.0,0.0,0.0,0.0,0.0,0.0,0.0,0.0,0.030899048,0.0,0.0,nan,0.0,0.0,0.01868534,0.00089244545,0.0027285367,-0.0031014383,0.0,0.0,0.0,0.0,0.0,0.0
21727656000,21727576000,-0.0019623449,0.00082016573,0.009249502,-0.009785116,0.0020555258,0.0,0.0,0.0,0.0,0.0,0.0,0.0,0.0,0.054977417,0.0,0.0,nan,0.0,0.0,0.02915132,0.00089244545,0.0027285367,-0.0031014383,0.0,0.0,0.0,0.0,0.0,0.0
21728152000,21728072000,-0.008040472,0.0003299205,-0.0017686863,0.0014483929,0.0021066666,0.0,0.0,0.0,0.0,0.0,0.0,0.0,0.0,0.028793335,0.0,0.0,nan,0.0,0.0,0.0042909384,0.00089244545,0.0027285367,-0.0031014383,0.0,0.0,0.0,0.0,0.0,0.0
21728656000,21728576000,-0.0019868563,0.009949959,-0.009494732,-0.009423852,-0.006059885,0.0,0.0,0.0,0.0,0.0,0.0,0.0,0.0,0.010253906,0.0,0.0,nan,0.0,0.0,-0.02136004,0.00089244545,0.0027285367,-0.0031014383,0.0,0.0,0.0,0.0,0.0,0.0
21729152000,21729072000,-0.003064983,-0.0014109786,-0.020015348,0.0015718341,-0.0061098337,0.0,0.0,0.0,0.0,0.0,0.0,0.0,0.0,-0.023544312,0.0,0.0,nan,0.0,0.0,0.0052633286,0.00089244545,0.0027285367,-0.0031014383,0.0,0.0,0.0,0.0,0.0,0.0
21729656000,21729576000,-0.00039938884,-0.00018308214,0.0011353488,0.0015275478,0.0020604134,0.0,0.0,0.0,0.0,0.0,0.0,0.0,0.0,-0.10319519,0.0,0.0,nan,0.0,0.0,-0.024813414,0.00089244545,0.0027285367,-0.0031014383,0.0,0.0,0.0,0.0,0.0,0.0
21730152000,21730072000,0.01983885,-0.00044566294,0.039586723,0.0016748905,0.0020366907,0.0,0.0,0.0,0.0,0.0,0.0,0.0,0.0,-0.11645508,0.0,0.0,nan,0.0,0.0,-0.0065882206,0.00089244545,0.0027285367,-0.0031014383,0.0,0.0,0.0,0.0,0.0,0.0
21730648000,21730568000,0.00029789118,0.012460422,-0.010298821,-0.009512961,0.001776576,0.0,0.0,0.0,0.0,0.0,0.0,0.0,0.0,0.018157959,0.0,0.0,nan,0.0,0.0,0.0015859604,0.00089244545,0.0027285367,-0.0031014383,0.0,0.0,0.0,0.0,0.0,0.0
21731152000,21731072000,-0.0089342985,-0.010148014,0.011217931,0.0017445683,0.0016800165,0.0,0.0,0.0,0.0,0.0,0.0,0.0,0.0,-0.02659607,0.0,0.0,nan,0.0,0.0,0.004330516,0.00089244545,0.0027285367,-0.0031014383,0.0,0.0,0.0,0.0,0.0,0.0
21731656000,21731576000,0.002879499,0.008834101,-0.040916532,0.0019837618,0.0017625093,0.0,0.0,0.0,0.0,0.0,0.0,0.0,0.0,-0.018600464,0.0,0.0,nan,0.0,0.0,0.004801631,0.00089244545,0.0027285367,-0.0031014383,0.0,0.0,0.0,0.0,0.0,0.0
21732152000,21732072000,-0.010741718,0.002245395,0.05101192,0.0014368296,0.002203703,0.0,0.0,0.0,0.0,0.0,0.0,0.0,0.0,-0.021224976,0.0,0.0,nan,0.0,0.0,0.002349615,0.00089244545,0.0027285367,-0.0031014383,0.0,0.0,0.0,0.0,0.0,0.0
21732656000,21732576000,-0.0023981454,0.011093255,0.0004908735,0.0013164282,-0.0061454773,0.0,0.0,0.0,0.0,0.0,0.0,0.0,0.0,-0.015716553,0.0,0.0,nan,0.0,0.0,0.002231598,0.00089244545,0.0027285367,-0.0031014383,0.0,0.0,0.0,0.0,0.0,0.0
21733152000,21733072000,0.010178528,0.0009860136,-0.005908283,-0.009665191,0.0020054579,0.0,0.0,0.0,0.0,0.0,0.0,0.0,0.0,0.0,0.0,0.0,nan,0.0,0.0,-0.0055942535,0.00089244545,0.0027285367,-0.0031014383,0.0,0.0,0.0,0.0,0.0,0.0
21733656000,21733576000,0.019242723,-0.0116799455,-0.021900594,0.0011643767,0.0046981573,0.0,0.0,0.0,0.0,0.0,0.0,0.0,0.0,0.0,0.0,0.0,nan,0.0,0.0,-0.023741484,0.00089244545,0.0027285367,-0.0031014383,0.0,0.0,0.0,0.0,0.0,0.0
21734152000,21734072000,-0.013394927,0.005268233,0.009461439,0.00013333559,0.008967161,0.0,0.0,0.0,0.0,0.0,0.0,0.0,0.0,0.0051574707,0.0,0.0,nan,0.0,0.0,0.0045968294,0.00089244545,0.0027285367,-0.0031014383,0.0,0.0,0.0,0.0,0.0,0.0
21734648000,21734568000,-0.014110114,0.004319107,-0.09540337,-0.0044668913,0.018369913,0.0,0.0,0.0,0.0,0.0,0.0,0.0,0.0,0.041503906,0.0,0.0,nan,0.0,0.0,0.0013076067,0.00089244545,0.0027285367,-0.0031014383,0.0,0.0,0.0,0.0,0.0,0.0
21735152000,21735072000,-0.020696556,-0.0034285064,0.022696376,-0.013299108,0.019435287,0.0,0.0,0.0,0.0,0.0,0.0,0.0,0.0,0.06512451,0.0,0.0,nan,0.0,0.0,-0.029534578,0.00089244545,0.0027285367,-0.0031014383,0.0,0.0,0.0,0.0,0.0,0.0
21735648000,21735568000,-0.03857178,0.02827157,0.05208242,-0.013635159,0.029467106,0.0,0.0,0.0,0.0,0.0,0.0,0.0,0.0,-0.08644104,0.0,0.0,nan,0.0,0.0,0.07168424,0.00089244545,0.0027285367,-0.0031014383,0.0,0.0,0.0,0.0,0.0,0.0
21736152000,21736072000,-0.03823261,0.018979069,0.11499679,-0.030370057,0.029022694,0.0,0.0,0.0,0.0,0.0,0.0,0.0,0.0,-0.0071868896,0.0,0.0,nan,0.0,0.0,0.037123203,0.00089244545,0.0027285367,-0.0031014383,0.0,0.0,0.0,0.0,0.0,0.0
21736656000,21736576000,-0.032250877,-0.002494992,0.023305625,-0.029956877,0.032293916,0.0,0.0,0.0,0.0,0.0,0.0,0.0,0.0,0.0395813,0.0,0.0,nan,0.0,0.0,0.040203333,0.00089244545,0.0027285367,-0.0031014383,0.0,0.0,0.0,0.0,0.0,0.0
21737152000,21737072000,0.012584994,0.0004444929,0.05688177,-0.026169062,0.03167057,0.0,0.0,0.0,0.0,0.0,0.0,0.0,0.0,0.03363037,0.0,0.0,nan,0.0,0.0,0.016300797,0.00089244545,0.0027285367,-0.0031014383,0.0,0.0,0.0,0.0,0.0,0.0
21737648000,21737568000,-0.0015798686,-0.023233127,0.019552737,-0.03614831,0.021449208,0.0,0.0,0.0,0.0,0.0,0.0,0.0,0.0,0.12921143,0.0,0.0,nan,0.0,0.0,0.006501198,0.00089244545,0.0027285367,-0.0031014383,0.0,0.0,0.0,0.0,0.0,0.0
21738152000,21738072000,-0.011168051,-0.011421368,0.011616237,-0.036801577,0.015533686,0.0,0.0,0.0,0.0,0.0,0.0,0.0,0.0,0.069381714,0.0,0.0,nan,0.0,0.0,0.018028975,0.00089244545,0.0027285367,-0.0031014383,0.0,0.0,0.0,0.0,0.0,0.0
21738656000,21738576000,-0.0155363,-0.0012916028,0.009027272,-0.038864076,0.009209394,0.0,0.0,0.0,0.0,0.0,0.0,0.0,0.0,0.07235718,0.0,0.0,nan,0.0,0.0,0.006635785,0.00089244545,0.0027285367,-0.0031014383,0.0,0.0,0.0,0.0,0.0,0.0
21739152000,21739072000,-0.0065238997,0.024965405,0.026298702,-0.03923875,0.012334049,0.0,0.0,0.0,0.0,0.0,0.0,0.0,0.0,0.078826904,0.0,0.0,nan,0.0,0.0,0.011492848,0.00089244545,0.0027285367,-0.0031014383,0.0,0.0,0.0,0.0,0.0,0.0
21739648000,21739568000,-0.15398777,0.023566723,-0.07563245,-0.06117487,0.0077012926,0.0,0.0,0.0,0.0,0.0,0.0,0.0,0.0,0.030731201,0.0,0.0,nan,0.0,0.0,0.015652537,0.000780344,-0.0018684864,-0.0014061034,0.0,0.0,0.0,0.0,0.0,0.0
21740152000,21740072000,-0.076866984,-0.04748249,-0.08502388,-0.05029857,0.0043590665,0.0,0.0,0.0,0.0,0.0,0.0,0.0,0.0,0.24812317,0.0,0.0,nan,0.0,0.0,0.015652537,0.00040626526,0.0013689995,0.0014588237,0.0,0.0,0.0,0.0,0.0,0.0
21740656000,21740576000,-0.038271427,-0.056956053,-0.035168886,-0.020589352,-0.015239358,0.0,0.0,0.0,0.0,0.0,0.0,0.0,0.0,0.12553406,0.0,0.0,nan,0.0,0.0,0.015652537,0.00030085444,0.00018933415,-0.0023244023,0.0,0.0,0.0,0.0,0.0,0.0
21741152000,21741072000,-0.026452303,-0.05042219,-0.038057804,-0.023476362,-0.021333933,0.0,0.0,0.0,0.0,0.0,0.0,0.0,0.0,0.046340942,0.0,0.0,nan,0.0,0.0,0.015652537,0.004128769,0.00017049909,0.0010520816,0.0,0.0,0.0,0.0,0.0,0.0
21741656000,21741576000,-0.022322655,-0.036237,-0.0807538,-0.020855188,-0.0009288788,0.0,0.0,0.0,0.0,0.0,0.0,0.0,0.0,0.08148193,0.0,0.0,nan,0.0,0.0,0.015652537,-0.0005245134,0.0004234463,-0.0012175441,0.0,0.0,0.0,0.0,0.0,0.0
21742152000,21742072000,0.010541916,-0.024908781,-0.020721197,-0.0061802864,-0.0020914078,0.0,0.0,0.0,0.0,0.0,0.0,0.0,0.0,0.31428528,0.0,0.0,nan,0.0,0.0,0.015652537,0.0014704168,-0.00035902858,-0.0047584176,0.0,0.0,0.0,0.0,0.0,0.0
21742656000,21742576000,-0.022778034,-0.05045986,0.009613037,-0.008377552,-0.011751175,0.0,0.0,0.0,0.0,0.0,0.0,0.0,0.0,0.15739441,0.0,0.0,nan,0.0,0.0,0.015652537,0.0009430647,-0.0012885779,6.67274e-05,0.0,0.0,0.0,0.0,0.0,0.0
21743152000,21743072000,-0.011725664,-0.028409004,-0.03820896,-0.0010390282,-0.032104492,0.0,0.0,0.0,0.0,0.0,0.0,0.0,0.0,0.12286377,0.0,0.0,nan,0.0,0.0,0.015652537,-0.0064297393,-0.0018389076,-0.0002129674,0.0,0.0,0.0,0.0,0.0,0.0
21743656000,21743576000,-0.02360034,-0.04008627,-0.057810307,0.022789955,-0.050780296,0.0,0.0,0.0,0.0,0.0,0.0,0.0,0.0,0.07997131,0.0,0.0,nan,0.0,0.0,0.015652537,0.0015750751,0.00017173588,-6.979704e-05,0.0,0.0,0.0,0.0,0.0,0.0
21744152000,21744072000,0.028778076,-0.021094322,0.03748703,0.015171051,-0.016834259,0.0,0.0,0.0,0.0,0.0,0.0,0.0,0.0,0.16334534,0.0,0.0,nan,0.0,0.0,0.015652537,0.0018376186,-0.004682809,-0.0020766556,0.0,0.0,0.0,0.0,0.0,0.0
21744656000,21744576000,0.0016479492,-0.013980389,-0.0073623657,0.03917694,-0.07520485,0.0,0.0,0.0,0.0,0.0,0.0,0.0,0.0,0.122039795,0.0,0.0,nan,0.0,0.0,0.015652537,0.0010278374,-0.001382798,-0.001301974,0.0,0.0,0.0,0.0,0.0,0.0
21745152000,21745072000,0.004253626,-0.006400585,-0.034627914,0.027377129,-0.04005432,0.0,0.0,0.0,0.0,0.0,0.0,0.0,0.0,0.18330383,0.0,0.0,nan,0.0,0.0,0.015652537,-0.00054561347,-0.005185649,-0.004183084,0.0,0.0,0.0,0.0,0.0,0.0
21745648000,21745568000,0.005571842,-0.038168907,-0.07522774,0.037139893,-0.049354553,0.0,0.0,0.0,0.0,0.0,0.0,0.0,0.0,0.072647095,0.0,0.0,nan,0.0,0.0,0.014978766,-0.0018027946,0.0001463592,0.0002539158,0.0,0.0,0.0,0.0,0.0,0.0
21746152000,21746072000,0.012668371,-0.0092659,-0.042152405,0.062343597,-0.09274483,0.0,0.0,0.0,0.0,0.0,0.0,0.0,0.0,0.08969116,0.0,0.0,nan,0.0,0.0,0.00046801567,-0.0018027946,0.0001463592,0.0002539158,0.0,0.0,0.0,0.0,0.0,0.0
21746648000,21746568000,-0.0060470104,-0.0056095123,-0.011260986,0.037160873,-0.04107666,0.0,0.0,0.0,0.0,0.0,0.0,0.0,0.0,0.048965454,0.0,0.0,nan,0.0,0.0,0.0027922392,-0.0018027946,0.0001463592,0.0002539158,0.0,0.0,0.0,0.0,0.0,0.0
21747152000,21747072000,0.0006043911,-0.037961483,0.038506508,0.04043579,-0.043621063,0.0,0.0,0.0,0.0,0.0,0.0,0.0,0.0,0.08744812,0.0,0.0,nan,0.0,0.0,-0.006673932,-0.0018027946,0.0001463592,0.0002539158,0.0,0.0,0.0,0.0,0.0,0.0
21747656000,21747576000,0.027021408,-0.024790287,-0.0746398,0.063194275,-0.061447144,0.0,0.0,0.0,0.0,0.0,0.0,0.0,0.0,0.020889282,0.0,0.0,nan,0.0,0.0,-0.0016864538,-0.0018027946,0.0001463592,0.0002539158,0.0,0.0,0.0,0.0,0.0,0.0
21748152000,21748072000,0.026512384,0.0053868294,-0.00021648407,0.06238556,-0.06604767,0.0,0.0,0.0,0.0,0.0,0.0,0.0,0.0,0.094314575,0.0,0.0,nan,0.0,0.0,0.002417326,-0.0018027946,0.0001463592,0.0002539158,0.0,0.0,0.0,0.0,0.0,0.0
21748656000,21748576000,0.02834034,0.0060372353,-0.06397104,0.062934875,-0.071689606,0.0,0.0,0.0,0.0,0.0,0.0,0.0,0.0,0.019348145,0.0,0.0,nan,0.0,0.0,-0.0067931414,-0.0018027946,0.0001463592,0.0002539158,0.0,0.0,0.0,0.0,0.0,0.0
21749152000,21749072000,0.028721571,0.0073485374,-0.023270607,0.05602646,-0.052143097,0.0,0.0,0.0,0.0,0.0,0.0,0.0,0.0,0.011764526,0.0,0.0,nan,0.0,0.0,-0.0077494383,-0.0018027946,0.0001463592,0.0002539158,0.0,0.0,0.0,0.0,0.0,0.0
21749656000,21749576000,-0.010679483,-0.007931709,-0.040344715,0.07044792,-0.06888962,0.0,0.0,0.0,0.0,0.0,0.0,0.0,0.0,0.0067749023,0.0,0.0,nan,0.0,0.0,0.0035791397,-0.0018027946,0.0001463592,0.0002539158,0.0,0.0,0.0,0.0,0.0,0.0
21750152000,21750072000,0.031379938,-0.010470867,-0.031163692,0.09379196,-0.097766876,0.0,0.0,0.0,0.0,0.0,0.0,0.0,0.0,-0.06564331,0.0,0.0,nan,0.0,0.0,-0.0054973364,-0.0018027946,0.0001463592,0.0002539158,0.0,0.0,0.0,0.0,0.0,0.0
21750656000,21750576000,0.0050036907,0.0012526512,-0.04515934,0.061933517,-0.06986618,0.0,0.0,0.0,0.0,0.0,0.0,0.0,0.0,0.0690155,0.0,0.0,nan,0.0,0.0,-0.0035796165,-0.0018027946,0.0001463592,0.0002539158,0.0,0.0,0.0,0.0,0.0,0.0
21751152000,21751072000,0.0013754368,-0.0108428,0.0026607513,0.084243774,-0.09287262,0.0,0.0,0.0,0.0,0.0,0.0,0.0,0.0,-0.017944336,0.0,0.0,nan,0.0,0.0,-0.0018318892,-0.0018027946,0.0001463592,0.0002539158,0.0,0.0,0.0,0.0,0.0,0.0
21751648000,21751568000,-0.015407801,-0.0017514229,-0.028255463,0.07709885,-0.08564377,0.0,0.0,0.0,0.0,0.0,0.0,0.0,0.0,0.00793457,0.0,0.0,nan,0.0,0.0,-0.006849766,-0.0018027946,0.0001463592,0.0002539158,0.0,0.0,0.0,0.0,0.0,0.0
21752152000,21752072000,-0.0039572716,-0.012658596,-0.00038528442,0.048563004,-0.04676056,0.0,0.0,0.0,0.0,0.0,0.0,0.0,0.0,0.030273438,0.0,0.0,nan,0.0,0.0,-0.010793686,-0.0018027946,0.0001463592,0.0002539158,0.0,0.0,0.0,0.0,0.0,0.0
21752648000,21752568000,-0.027631521,-0.014816761,-0.014223099,0.067276,-0.09082413,0.0,0.0,0.0,0.0,0.0,0.0,0.0,0.0,-0.087890625,0.0,0.0,nan,0.0,0.0,-0.00957346,-0.0018027946,0.0001463592,0.0002539158,0.0,0.0,0.0,0.0,0.0,0.0
21753152000,21753072000,-0.025390863,-0.0053391457,0.044289112,0.050209045,-0.06206894,0.0,0.0,0.0,0.0,0.0,0.0,0.0,0.0,0.10021973,0.0,0.0,nan,0.0,0.0,0.0043492317,-0.0018027946,0.0001463592,0.0002539158,0.0,0.0,0.0,0.0,0.0,0.0
21753656000,21753576000,-0.022207022,-0.0010724068,0.028159618,0.05543518,-0.06308746,0.0,0.0,0.0,0.0,0.0,0.0,0.0,0.0,0.017944336,0.0,0.0,nan,0.0,0.0,0.0038791895,-0.0018027946,0.0001463592,0.0002539158,0.0,0.0,0.0,0.0,0.0,0.0
21754152000,21754072000,-0.052794695,0.016976357,0.049612045,0.04215622,-0.06328583,0.0,0.0,0.0,0.0,0.0,0.0,0.0,0.0,0.14808655,0.0,0.0,nan,0.0,0.0,-0.009182215,-0.0018027946,0.0001463592,0.0002539158,0.0,0.0,0.0,0.0,0.0,0.0
21754648000,21754568000,-0.017211914,0.030206203,-0.020009995,0.03397751,-0.034606934,0.0,0.0,0.0,0.0,0.0,0.0,0.0,0.0,-0.008178711,0.0,0.0,nan,0.0,0.0,-0.0037437677,-0.0018027946,0.0001463592,0.0002539158,0.0,0.0,0.0,0.0,0.0,0.0
21755152000,21755072000,-0.042046547,0.019938469,0.06851339,0.049129486,-0.057991028,0.0,0.0,0.0,0.0,0.0,0.0,0.0,0.0,0.034698486,0.0,0.0,nan,0.0,0.0,-0.011031151,-0.0018027946,0.0001463592,0.0002539158,0.0,0.0,0.0,0.0,0.0,0.0
21755648000,21755568000,-0.062057734,0.033967018,0.041704178,0.027931213,-0.047035217,0.0,0.0,0.0,0.0,0.0,0.0,0.0,0.0,0.07723999,0.0,0.0,nan,0.0,0.0,-0.0009328127,-0.0018027946,0.0001463592,0.0002539158,0.0,0.0,0.0,0.0,0.0,0.0
21756152000,21756072000,-0.05548048,0.0252738,0.08159828,0.059173584,-0.09780121,0.0,0.0,0.0,0.0,0.0,0.0,0.0,0.0,0.06304932,0.0,0.0,nan,0.0,0.0,-0.0019458532,-0.0018027946,0.0001463592,0.0002539158,0.0,0.0,0.0,0.0,0.0,0.0
21756656000,21756576000,-0.05709505,0.022789478,0.08325863,0.025611877,-0.05467987,0.0,0.0,0.0,0.0,0.0,0.0,0.0,0.0,0.028915405,0.0,0.0,nan,0.0,0.0,0.004807949,-0.0018027946,0.0001463592,0.0002539158,0.0,0.0,0.0,0.0,0.0,0.0
21757152000,21757072000,-0.05134225,0.016234398,0.08699179,0.031871796,-0.04561615,0.0,0.0,0.0,0.0,0.0,0.0,0.0,0.0,0.021453857,0.0,0.0,nan,0.0,0.0,-0.0058766603,-0.0018027946,0.0001463592,0.0002539158,0.0,0.0,0.0,0.0,0.0,0.0
21757656000,21757576000,-0.03934002,0.013828754,0.09401369,0.029315948,-0.04547882,0.0,0.0,0.0,0.0,0.0,0.0,0.0,0.0,0.09460449,0.0,0.0,nan,0.0,0.0,-0.0036709309,-0.0018027946,0.0001463592,0.0002539158,0.0,0.0,0.0,0.0,0.0,0.0
21758152000,21758072000,-0.046812773,0.02052784,0.08152199,0.055332184,-0.090904236,0.0,0.0,0.0,0.0,0.0,0.0,0.0,0.0,0.15167236,0.0,0.0,nan,0.0,0.0,-0.009559989,-0.0018027946,0.0001463592,0.0002539158,0.0,0.0,0.0,0.0,0.0,0.0
21758648000,21758568000,-0.033212185,-0.0150671005,0.08871412,0.045200348,-0.07437897,0.0,0.0,0.0,0.0,0.0,0.0,0.0,0.0,0.013214111,0.0,0.0,nan,0.0,0.0,0.010367751,-0.0018027946,0.0001463592,0.0002539158,0.0,0.0,0.0,0.0,0.0,0.0
21759152000,21759072000,-0.022347689,-0.030071735,0.032967567,0.02160263,-0.048309326,0.0,0.0,0.0,0.0,0.0,0.0,0.0,0.0,-0.059783936,0.0,0.0,nan,0.0,0.0,-0.0041576624,-0.0018027946,0.0001463592,0.0002539158,0.0,0.0,0.0,0.0,0.0,0.0
21759656000,21759576000,-0.02820158,-0.00872612,0.090037346,0.036685944,-0.055244446,0.0,0.0,0.0,0.0,0.0,0.0,0.0,0.0,0.11462402,0.0,0.0,nan,0.0,0.0,-0.01553762,-0.0018027946,0.0001463592,0.0002539158,0.0,0.0,0.0,0.0,0.0,0.0
21760152000,21760072000,-0.0069229603,0.0227108,0.11534023,0.044734955,-0.065841675,0.0,0.0,0.0,0.0,0.0,0.0,0.0,0.0,0.09512329,0.0,0.0,nan,0.0,0.0,-0.009119153,-0.0018027946,0.0001463592,0.0002539158,0.0,0.0,0.0,0.0,0.0,0.0
21760656000,21760576000,-0.013072252,0.035596848,0.14401007,0.03755188,-0.06087494,0.0,0.0,0.0,0.0,0.0,0.0,0.0,0.0,0.05795288,0.0,0.0,nan,0.0,0.0,0.0029466152,-0.0018027946,0.0001463592,0.0002539158,0.0,0.0,0.0,0.0,0.0,0.0
21761152000,21761072000,0.011452436,0.023961544,0.08039713,0.038215637,-0.06174469,0.0,0.0,0.0,0.0,0.0,0.0,0.0,0.0,0.053344727,0.0,0.0,nan,0.0,0.0,5.2690506e-05,-0.0018027946,0.0001463592,0.0002539158,0.0,0.0,0.0,0.0,0.0,0.0
21761648000,21761568000,-0.007502556,0.01879549,0.06960249,0.03447342,-0.05861664,0.0,0.0,0.0,0.0,0.0,0.0,0.0,0.0,-0.0019836426,0.0,0.0,nan,0.0,0.0,-0.00821197,-0.0018027946,0.0001463592,0.0002539158,0.0,0.0,0.0,0.0,0.0,0.0
21762152000,21762072000,-0.0116939545,0.032557964,0.088572025,0.040626526,-0.08192444,0.0,0.0,0.0,0.0,0.0,0.0,0.0,0.0,0.18330383,0.0,0.0,nan,0.0,0.0,0.021692395,-0.0018027946,0.0001463592,0.0002539158,0.0,0.0,0.0,0.0,0.0,0.0
21762656000,21762576000,-0.02360487,0.047477722,0.07399511,0.022956848,-0.05921936,0.0,0.0,0.0,0.0,0.0,0.0,0.0,0.0,0.17521667,0.0,0.0,nan,0.0,0.0,-0.018833995,-0.0018027946,0.0001463592,0.0002539158,0.0,0.0,0.0,0.0,0.0,0.0
21763152000,21763072000,-0.0075683594,0.0066919327,0.016698837,0.04084778,-0.061790466,0.0,0.0,0.0,0.0,0.0,0.0,0.0,0.0,0.28399658,0.0,0.0,nan,0.0,0.0,-0.03803277,-0.0018027946,0.0001463592,0.0002539158,0.0,0.0,0.0,0.0,0.0,0.0
21763648000,21763568000,0.00807786,0.034668922,0.057717323,0.050964355,-0.051582336,0.0,0.0,0.0,0.0,0.0,0.0,0.0,0.0,0.1844635,0.0,0.0,nan,0.0,0.0,0.0046463013,-0.0018027946,0.0001463592,0.0002539158,0.0,0.0,0.0,0.0,0.0,0.0
21764152000,21764072000,-0.002464056,0.024635792,0.06527996,0.03944397,-0.052947998,0.0,0.0,0.0,0.0,0.0,0.0,0.0,0.0,0.14151001,0.0,0.0,nan,0.0,0.0,-0.004802704,-0.0018027946,0.0001463592,0.0002539158,0.0,0.0,0.0,0.0,0.0,0.0
21764648000,21764568000,0.003664732,0.013222694,0.02523756,0.041236877,-0.024627686,0.0,0.0,0.0,0.0,0.0,0.0,0.0,0.0,0.05493164,0.0,0.0,nan,0.0,0.0,0.0030639172,-0.0018027946,0.0001463592,0.0002539158,0.0,0.0,0.0,0.0,0.0,0.0
21765152000,21765072000,0.02807188,0.0019335747,0.04431677,0.043136597,-0.025924683,0.0,0.0,0.0,0.0,0.0,0.0,0.0,0.0,0.18359375,0.0,0.0,nan,0.0,0.0,-0.011919975,-0.0018027946,0.0001463592,0.0002539158,0.0,0.0,0.0,0.0,0.0,0.0
21765656000,21765576000,-0.006721735,0.023792267,0.05890894,0.069625854,-0.06524658,0.0,0.0,0.0,0.0,0.0,0.0,0.0,0.0,0.11911011,0.0,0.0,nan,0.0,0.0,-0.0066531897,-0.0018027946,0.0001463592,0.0002539158,0.0,0.0,0.0,0.0,0.0,0.0
21766152000,21766072000,0.0084683895,0.020380497,0.010484219,0.076416016,-0.059417725,0.0,0.0,0.0,0.0,0.0,0.0,0.0,0.0,0.19262695,0.0,0.0,nan,0.0,0.0,0.0043280125,-0.0018027946,0.0001463592,0.0002539158,0.0,0.0,0.0,0.0,0.0,0.0
21766656000,21766576000,0.0038704872,-0.004117489,0.05334139,0.0575943,-0.06619263,0.0,0.0,0.0,0.0,0.0,0.0,0.0,0.0,0.12527466,0.0,0.0,nan,0.0,0.0,0.0017176867,-0.0018027946,0.0001463592,0.0002539158,0.0,0.0,0.0,0.0,0.0,0.0
21767152000,21767072000,0.00045084953,0.02627945,-0.0030469894,0.03492737,-0.030258179,0.0,0.0,0.0,0.0,0.0,0.0,0.0,0.0,0.10398865,0.0,0.0,nan,0.0,0.0,-0.022518277,-0.0018027946,0.0001463592,0.0002539158,0.0,0.0,0.0,0.0,0.0,0.0
21767656000,21767576000,-0.0009672642,-0.005519867,0.07779074,0.057403564,-0.06387329,0.0,0.0,0.0,0.0,0.0,0.0,0.0,0.0,0.060699463,0.0,0.0,nan,0.0,0.0,-0.010628223,-0.0018027946,0.0001463592,0.0002539158,0.0,0.0,0.0,0.0,0.0,0.0
21768152000,21768072000,-0.005560398,-0.0048880577,0.01650381,0.057304382,-0.07272339,0.0,0.0,0.0,0.0,0.0,0.0,0.0,0.0,0.15065002,0.0,0.0,nan,0.0,0.0,0.0042803288,-0.0018027946,0.0001463592,0.0002539158,0.0,0.0,0.0,0.0,0.0,0.0
21768656000,21768576000,-0.0008075237,-0.01671648,0.08672714,0.04194641,-0.053466797,0.0,0.0,0.0,0.0,0.0,0.0,0.0,0.0,0.12374878,0.0,0.0,nan,0.0,0.0,-0.014764428,-0.0018027946,0.0001463592,0.0002539158,0.0,0.0,0.0,0.0,0.0,0.0
21769152000,21769072000,-0.014614105,-0.031342506,0.014976501,0.05773163,-0.09889221,0.0,0.0,0.0,0.0,0.0,0.0,0.0,0.0,0.1441803,0.0,0.0,nan,0.0,0.0,-0.0058398247,-0.0018027946,0.0001463592,0.0002539158,0.0,0.0,0.0,0.0,0.0,0.0
21769656000,21769576000,-0.012485266,-0.015534401,0.051140785,0.05683899,-0.07058716,0.0,0.0,0.0,0.0,0.0,0.0,0.0,0.0,-0.017532349,0.0,0.0,nan,0.0,0.0,-0.010107875,-0.0018027946,0.0001463592,0.0002539158,0.0,0.0,0.0,0.0,0.0,0.0
21770152000,21770072000,-0.001821518,0.0024352074,0.047281265,0.06147003,-0.084747314,0.0,0.0,0.0,0.0,0.0,0.0,0.0,0.0,-0.04508972,0.0,0.0,nan,0.0,0.0,0.0065648556,-0.0018027946,0.0001463592,0.0002539158,0.0,0.0,0.0,0.0,0.0,0.0
21770648000,21770568000,-0.00023150444,-0.036961555,0.0389843,0.03717041,-0.046783447,0.0,0.0,0.0,0.0,0.0,0.0,0.0,0.0,0.06324768,0.0,0.0,nan,0.0,0.0,-0.006681919,-0.0018027946,0.0001463592,0.0002539158,0.0,0.0,0.0,0.0,0.0,0.0
21771152000,21771072000,0.021983624,-0.02661562,-0.0054364204,0.03504181,-0.046218872,0.0,0.0,0.0,0.0,0.0,0.0,0.0,0.0,0.0340271,0.0,0.0,nan,0.0,0.0,0.013073325,-0.0018027946,0.0001463592,0.0002539158,0.0,0.0,0.0,0.0,0.0,0.0
21771648000,21771568000,0.018335104,-0.044956684,0.025651932,0.04307556,-0.072143555,0.0,0.0,0.0,0.0,0.0,0.0,0.0,0.0,0.079315186,0.0,0.0,nan,0.0,0.0,0.01786387,-0.0018027946,0.0001463592,0.0002539158,0.0,0.0,0.0,0.0,0.0,0.0
21772152000,21772072000,0.033530712,-0.033525944,-0.008805275,0.05771637,-0.095062256,0.0,0.0,0.0,0.0,0.0,0.0,0.0,0.0,0.052078247,0.0,0.0,nan,0.0,0.0,-0.011753678,-0.0018027946,0.0001463592,0.0002539158,0.0,0.0,0.0,0.0,0.0,0.0
21772648000,21772568000,0.009795666,-0.05202818,-0.0063328743,0.04398346,-0.0801239,0.0,0.0,0.0,0.0,0.0,0.0,0.0,0.0,0.015396118,0.0,0.0,nan,0.0,0.0,-0.0015479326,-0.0018027946,0.0001463592,0.0002539158,0.0,0.0,0.0,0.0,0.0,0.0
21773152000,21773072000,0.011330843,-0.030416965,0.033069134,0.055480957,-0.09385681,0.0,0.0,0.0,0.0,0.0,0.0,0.0,0.0,0.03501892,0.0,0.0,nan,0.0,0.0,0.019509912,-0.0018027946,0.0001463592,0.0002539158,0.0,0.0,0.0,0.0,0.0,0.0
21773656000,21773576000,-0.025459051,-0.043600082,-0.012431145,0.043792725,-0.084991455,0.0,0.0,0.0,0.0,0.0,0.0,0.0,0.0,0.09385681,0.0,0.0,nan,0.0,0.0,-0.0055458546,-0.0018027946,0.0001463592,0.0002539158,0.0,0.0,0.0,0.0,0.0,0.0
21774152000,21774072000,0.0072762966,-0.016619682,-0.009421349,0.06985474,-0.11021423,0.0,0.0,0.0,0.0,0.0,0.0,0.0,0.0,0.2427826,0.0,0.0,nan,0.0,0.0,0.014826059,-0.0018027946,0.0001463592,0.0002539158,0.0,0.0,0.0,0.0,0.0,0.0
21774648000,21774568000,0.004412174,-0.018624306,-0.025880337,0.054901123,-0.08680725,0.0,0.0,0.0,0.0,0.0,0.0,0.0,0.0,-0.03968811,0.0,0.0,nan,0.0,0.0,-0.012832165,-0.0018027946,0.0001463592,0.0002539158,0.0,0.0,0.0,0.0,0.0,0.0
21775152000,21775072000,0.01737094,-0.06546736,-0.03861761,0.051856995,-0.094177246,0.0,0.0,0.0,0.0,0.0,0.0,0.0,0.0,0.003967285,0.0,0.0,nan,0.0,0.0,0.0074501038,-0.0018027946,0.0001463592,0.0002539158,0.0,0.0,0.0,0.0,0.0,0.0
21775656000,21775576000,0.009302855,-0.028555393,-0.022628784,0.0522995,-0.08508301,0.0,0.0,0.0,0.0,0.0,0.0,0.0,0.0,-0.0069885254,0.0,0.0,nan,0.0,0.0,0.002001524,-0.0018027946,0.0001463592,0.0002539158,0.0,0.0,0.0,0.0,0.0,0.0
21776152000,21776072000,-0.0039508343,-0.038083076,-0.05477619,0.049110413,-0.09693909,0.0,0.0,0.0,0.0,0.0,0.0,0.0,0.0,-0.0471344,0.0,0.0,nan,0.0,0.0,0.0007573366,-0.0018027946,0.0001463592,0.0002539158,0.0,0.0,0.0,0.0,0.0,0.0
21776648000,21776568000,-0.019337654,-0.022788525,-0.061118603,0.039100647,-0.06335449,0.0,0.0,0.0,0.0,0.0,0.0,0.0,0.0,-0.053131104,0.0,0.0,nan,0.0,0.0,-0.0068614483,-0.0018027946,0.0001463592,0.0002539158,0.0,0.0,0.0,0.0,0.0,0.0
21777152000,21777072000,-0.016959667,-0.027340412,-0.022531033,0.054382324,-0.088912964,0.0,0.0,0.0,0.0,0.0,0.0,0.0,0.0,0.06826782,0.0,0.0,nan,0.0,0.0,0.0047273636,-0.0018027946,0.0001463592,0.0002539158,0.0,0.0,0.0,0.0,0.0,0.0
21777656000,21777576000,0.00025177002,-0.047828197,-0.08819294,0.062026978,-0.13134766,0.0,0.0,0.0,0.0,0.0,0.0,0.0,0.0,-0.12722778,0.0,0.0,nan,0.0,0.0,0.004344344,-0.0018027946,0.0001463592,0.0002539158,0.0,0.0,0.0,0.0,0.0,0.0
21778152000,21778072000,-0.025608778,-0.04761839,-0.05446577,0.048454285,-0.124679565,0.0,0.0,0.0,0.0,0.0,0.0,0.0,0.0,0.012771606,0.0,0.0,nan,0.0,0.0,-0.0038448572,-0.0018027946,0.0001463592,0.0002539158,0.0,0.0,0.0,0.0,0.0,0.0
21778648000,21778568000,0.005024433,-0.042921543,-0.016167164,0.026107788,-0.055648804,0.0,0.0,0.0,0.0,0.0,0.0,0.0,0.0,0.08291626,0.0,0.0,nan,0.0,0.0,-0.018035054,-0.0018027946,0.0001463592,0.0002539158,0.0,0.0,0.0,0.0,0.0,0.0
21779152000,21779072000,-0.021465778,-0.076282024,-0.04658127,0.049087524,-0.12506104,0.0,0.0,0.0,0.0,0.0,0.0,0.0,0.0,-0.11407471,0.0,0.0,nan,0.0,0.0,0.00062417984,-0.0018027946,0.0001463592,0.0002539158,0.0,0.0,0.0,0.0,0.0,0.0
21779656000,21779576000,-0.010317087,-0.0061745644,-0.09405279,0.026245117,-0.062820435,0.0,0.0,0.0,0.0,0.0,0.0,0.0,0.0,-0.013061523,0.0,0.0,nan,0.0,0.0,-0.007876635,-0.0018027946,0.0001463592,0.0002539158,0.0,0.0,0.0,0.0,0.0,0.0
21780152000,21780072000,0.01585579,-0.041464806,-0.0799675,0.051239014,-0.114730835,0.0,0.0,0.0,0.0,0.0,0.0,0.0,0.0,-0.05870056,0.0,0.0,nan,0.0,0.0,-0.0068980455,-0.0018027946,0.0001463592,0.0002539158,0.0,0.0,0.0,0.0,0.0,0.0
21780656000,21780576000,-0.022635221,-0.026165485,-0.0636034,0.021568298,-0.06896973,0.0,0.0,0.0,0.0,0.0,0.0,0.0,0.0,-0.024017334,0.0,0.0,nan,0.0,0.0,-0.036810875,-0.0018027946,0.0001463592,0.0002539158,0.0,0.0,0.0,0.0,0.0,0.0
21781152000,21781072000,-0.03519392,-0.059449196,-0.06941557,0.019508362,-0.07182312,0.0,0.0,0.0,0.0,0.0,0.0,0.0,0.0,-0.05319214,0.0,0.0,nan,0.0,0.0,-0.010719299,-0.0018027946,0.0001463592,0.0002539158,0.0,0.0,0.0,0.0,0.0,0.0
21781648000,21781568000,-0.035230875,-0.011671543,-0.027017593,0.04094696,-0.09248352,0.0,0.0,0.0,0.0,0.0,0.0,0.0,0.0,0.03199768,0.0,0.0,nan,0.0,0.0,0.0035977364,-0.0018027946,0.0001463592,0.0002539158,0.0,0.0,0.0,0.0,0.0,0.0
21782152000,21782072000,0.02063346,-0.042228222,-0.00091552734,0.034614563,-0.0637207,0.0,0.0,0.0,0.0,0.0,0.0,0.0,0.0,-0.13186646,0.0,0.0,nan,0.0,0.0,-0.007968664,-0.0018027946,0.0001463592,0.0002539158,0.0,0.0,0.0,0.0,0.0,0.0
21782656000,21782576000,-0.02448225,-0.048260212,-0.03389454,0.03261566,-0.09010315,0.0,0.0,0.0,0.0,0.0,0.0,0.0,0.0,-0.031692505,0.0,0.0,nan,0.0,0.0,-0.019763947,-0.0018027946,0.0001463592,0.0002539158,0.0,0.0,0.0,0.0,0.0,0.0
21783152000,21783072000,-0.028174639,-0.019745827,-0.032409668,0.025856018,-0.07833862,0.0,0.0,0.0,0.0,0.0,0.0,0.0,0.0,-0.02217102,0.0,0.0,nan,0.0,0.0,-0.012357116,-0.0018027946,0.0001463592,0.0002539158,0.0,0.0,0.0,0.0,0.0,0.0
21783656000,21783576000,0.019098043,-0.0026888847,0.0023150444,0.051841736,-0.104278564,0.0,0.0,0.0,0.0,0.0,0.0,0.0,0.0,-0.007873535,0.0,0.0,nan,0.0,0.0,-0.0011074543,-0.0018027946,0.0001463592,0.0002539158,0.0,0.0,0.0,0.0,0.0,0.0
21784152000,21784072000,-0.028033495,-0.011003494,0.04546833,0.024635315,-0.056503296,0.0,0.0,0.0,0.0,0.0,0.0,0.0,0.0,-0.019241333,0.0,0.0,nan,0.0,0.0,-0.0034136772,-0.0018027946,0.0001463592,0.0002539158,0.0,0.0,0.0,0.0,0.0,0.0
21784656000,21784576000,-0.017733812,-0.002204895,0.011444092,0.035873413,-0.06906128,0.0,0.0,0.0,0.0,0.0,0.0,0.0,0.0,-0.059555054,0.0,0.0,nan,0.0,0.0,-0.0046163797,-0.0018027946,0.0001463592,0.0002539158,0.0,0.0,0.0,0.0,0.0,0.0
21785152000,21785072000,-0.04578042,-0.027413368,0.031812668,0.039855957,-0.07637024,0.0,0.0,0.0,0.0,0.0,0.0,0.0,0.0,-0.03173828,0.0,0.0,nan,0.0,0.0,-0.008166909,-0.0018027946,0.0001463592,0.0002539158,0.0,0.0,0.0,0.0,0.0,0.0
21785656000,21785576000,-0.011004925,-0.0033388138,0.09773922,0.060150146,-0.10157776,0.0,0.0,0.0,0.0,0.0,0.0,0.0,0.0,0.09979248,0.0,0.0,nan,0.0,0.0,-0.008827448,-0.0018027946,0.0001463592,0.0002539158,0.0,0.0,0.0,0.0,0.0,0.0
21786152000,21786072000,-0.0030550957,0.02782774,0.059029102,0.055618286,-0.098342896,0.0,0.0,0.0,0.0,0.0,0.0,0.0,0.0,0.032043457,0.0,0.0,nan,0.0,0.0,-0.0040068626,-0.0018027946,0.0001463592,0.0002539158,0.0,0.0,0.0,0.0,0.0,0.0
21786648000,21786568000,-0.0057456493,-0.013249874,0.053489685,0.025283813,-0.061645508,0.0,0.0,0.0,0.0,0.0,0.0,0.0,0.0,0.04776001,0.0,0.0,nan,0.0,0.0,-0.011139989,-0.0018027946,0.0001463592,0.0002539158,0.0,0.0,0.0,0.0,0.0,0.0
21787152000,21787072000,-0.018166304,0.00628376,0.07280254,0.022369385,-0.059432983,0.0,0.0,0.0,0.0,0.0,0.0,0.0,0.0,0.042938232,0.0,0.0,nan,0.0,0.0,-0.019105434,-0.0018027946,0.0001463592,0.0002539158,0.0,0.0,0.0,0.0,0.0,0.0
21787656000,21787576000,0.039378405,0.0047192574,0.08782387,0.062805176,-0.10508728,0.0,0.0,0.0,0.0,0.0,0.0,0.0,0.0,0.11077881,0.0,0.0,nan,0.0,0.0,-0.0045604706,-0.0018027946,0.0001463592,0.0002539158,0.0,0.0,0.0,0.0,0.0,0.0
21788152000,21788072000,-0.014959812,0.031183243,0.055258274,0.04283142,-0.09751892,0.0,0.0,0.0,0.0,0.0,0.0,0.0,0.0,0.120269775,0.0,0.0,nan,0.0,0.0,-0.021762013,-0.0018027946,0.0001463592,0.0002539158,0.0,0.0,0.0,0.0,0.0,0.0
21788656000,21788576000,0.022239208,0.014215946,0.063626766,0.02835083,-0.07798767,0.0,0.0,0.0,0.0,0.0,0.0,0.0,0.0,-0.005645752,0.0,0.0,nan,0.0,0.0,-0.0016685724,-0.0018027946,0.0001463592,0.0002539158,0.0,0.0,0.0,0.0,0.0,0.0
21789152000,21789072000,-0.011423588,0.0042881966,0.08457708,0.022277832,-0.058181763,0.0,0.0,0.0,0.0,0.0,0.0,0.0,0.0,0.09829712,0.0,0.0,nan,0.0,0.0,-0.013319612,-0.0018027946,0.0001463592,0.0002539158,0.0,0.0,0.0,0.0,0.0,0.0
21789656000,21789576000,0.026456118,-0.0003361702,0.12171841,0.036865234,-0.058776855,0.0,0.0,0.0,0.0,0.0,0.0,0.0,0.0,0.044281006,0.0,0.0,nan,0.0,0.0,-0.00991106,-0.0018027946,0.0001463592,0.0002539158,0.0,0.0,0.0,0.0,0.0,0.0
21790152000,21790072000,0.023568153,0.0011949539,0.056946754,0.04359436,-0.08074951,0.0,0.0,0.0,0.0,0.0,0.0,0.0,0.0,0.11477661,0.0,0.0,nan,0.0,0.0,-0.01054287,-0.0018027946,0.0001463592,0.0002539158,0.0,0.0,0.0,0.0,0.0,0.0
21790656000,21790576000,0.0076241493,0.0038938522,0.045704365,0.04397583,-0.0769043,0.0,0.0,0.0,0.0,0.0,0.0,0.0,0.0,0.16033936,0.0,0.0,nan,0.0,0.0,-0.011713266,-0.0018027946,0.0001463592,0.0002539158,0.0,0.0,0.0,0.0,0.0,0.0
21791152000,21791072000,0.023512602,0.01561594,0.070008755,0.038238525,-0.07815552,0.0,0.0,0.0,0.0,0.0,0.0,0.0,0.0,0.10562134,0.0,0.0,nan,0.0,0.0,-0.011833787,-0.0018027946,0.0001463592,0.0002539158,0.0,0.0,0.0,0.0,0.0,0.0
21791656000,21791576000,-0.0119924545,0.0088329315,0.1074419,0.064071655,-0.11831665,0.0,0.0,0.0,0.0,0.0,0.0,0.0,0.0,0.017822266,0.0,0.0,nan,0.0,0.0,0.002310872,-0.0018027946,0.0001463592,0.0002539158,0.0,0.0,0.0,0.0,0.0,0.0
21792152000,21792072000,-0.00027823448,0.0016331673,0.0132136345,0.029022217,-0.07022095,0.0,0.0,0.0,0.0,0.0,0.0,0.0,0.0,0.073913574,0.0,0.0,nan,0.0,0.0,-0.00083196163,-0.0018027946,0.0001463592,0.0002539158,0.0,0.0,0.0,0.0,0.0,0.0
21792656000,21792576000,-0.023629189,-0.01636982,0.085160255,0.029281616,-0.074401855,0.0,0.0,0.0,0.0,0.0,0.0,0.0,0.0,0.1651001,0.0,0.0,nan,0.0,0.0,-0.022355437,-0.0018027946,0.0001463592,0.0002539158,0.0,0.0,0.0,0.0,0.0,0.0
21793152000,21793072000,-0.01361537,-0.0322299,0.04290247,0.030426025,-0.06732178,0.0,0.0,0.0,0.0,0.0,0.0,0.0,0.0,0.13366699,0.0,0.0,nan,0.0,0.0,-0.0016571283,-0.0018027946,0.0001463592,0.0002539158,0.0,0.0,0.0,0.0,0.0,0.0
21793656000,21793576000,-0.0015630722,-0.0070352554,0.0871191,0.010787964,-0.028045654,0.0,0.0,0.0,0.0,0.0,0.0,0.0,0.0,0.054718018,0.0,0.0,nan,0.0,0.0,0.0134061575,-0.0018027946,0.0001463592,0.0002539158,0.0,0.0,0.0,0.0,0.0,0.0
21794152000,21794072000,-0.01573968,-0.018698692,0.08717203,0.0284729,-0.059692383,0.0,0.0,0.0,0.0,0.0,0.0,0.0,0.0,0.12567139,0.0,0.0,nan,0.0,0.0,-0.0021634102,-0.0018027946,0.0001463592,0.0002539158,0.0,0.0,0.0,0.0,0.0,0.0
21794656000,21794576000,-0.024114847,-0.01631546,0.04247904,0.022064209,-0.047058105,0.0,0.0,0.0,0.0,0.0,0.0,0.0,0.0,0.13363647,0.0,0.0,nan,0.0,0.0,-0.009108782,-0.0018027946,0.0001463592,0.0002539158,0.0,0.0,0.0,0.0,0.0,0.0
21795152000,21795072000,-0.015141487,-0.028945446,0.06936598,0.017211914,-0.053009033,0.0,0.0,0.0,0.0,0.0,0.0,0.0,0.0,0.10266113,0.0,0.0,nan,0.0,0.0,0.010447025,-0.0018027946,0.0001463592,0.0002539158,0.0,0.0,0.0,0.0,0.0,0.0
21795648000,21795568000,-0.029687643,-0.033906937,0.07468033,0.04244995,-0.09719849,0.0,0.0,0.0,0.0,0.0,0.0,0.0,0.0,0.06750488,0.0,0.0,nan,0.0,0.0,0.014596701,-0.0018027946,0.0001463592,0.0002539158,0.0,0.0,0.0,0.0,0.0,0.0
21796152000,21796072000,-0.04416728,-0.044179916,0.01240778,0.03138733,-0.078948975,0.0,0.0,0.0,0.0,0.0,0.0,0.0,0.0,0.05682373,0.0,0.0,nan,0.0,0.0,0.0043461323,-0.0018027946,0.0001463592,0.0002539158,0.0,0.0,0.0,0.0,0.0,0.0
21796656000,21796576000,-0.036575556,-0.03823757,0.02280569,0.010757446,-0.046661377,0.0,0.0,0.0,0.0,0.0,0.0,0.0,0.0,0.05996704,0.0,0.0,nan,0.0,0.0,-0.009435058,-0.0018027946,0.0001463592,0.0002539158,0.0,0.0,0.0,0.0,0.0,0.0
21797152000,21797072000,-0.05488801,-0.04207039,0.03094244,0.019714355,-0.060516357,0.0,0.0,0.0,0.0,0.0,0.0,0.0,0.0,0.114593506,0.0,0.0,nan,0.0,0.0,-0.01837504,-0.0018027946,0.0001463592,0.0002539158,0.0,0.0,0.0,0.0,0.0,0.0
21797656000,21797576000,-0.05544257,-0.02392006,0.016182423,0.01838684,-0.07647705,0.0,0.0,0.0,0.0,0.0,0.0,0.0,0.0,0.1340332,0.0,0.0,nan,0.0,0.0,-0.006305814,-0.0018027946,0.0001463592,0.0002539158,0.0,0.0,0.0,0.0,0.0,0.0
21798152000,21798072000,-0.05263686,-0.039829254,0.034007072,0.028121948,-0.10852051,0.0,0.0,0.0,0.0,0.0,0.0,0.0,0.0,0.092041016,0.0,0.0,nan,0.0,0.0,-0.004132509,-0.0018027946,0.0001463592,0.0002539158,0.0,0.0,0.0,0.0,0.0,0.0
21798656000,21798576000,-0.015147448,-0.034896374,0.03007555,0.02003479,-0.075042725,0.0,0.0,0.0,0.0,0.0,0.0,0.0,0.0,0.08129883,0.0,0.0,nan,0.0,0.0,-0.010339975,-0.0018027946,0.0001463592,0.0002539158,0.0,0.0,0.0,0.0,0.0,0.0
21799152000,21799072000,-0.05405259,-0.048923492,0.0055394173,0.018478394,-0.078948975,0.0,0.0,0.0,0.0,0.0,0.0,0.0,0.0,0.12695312,0.0,0.0,nan,0.0,0.0,0.0027493238,-0.0018027946,0.0001463592,0.0002539158,0.0,0.0,0.0,0.0,0.0,0.0
21799648000,21799568000,-0.046560764,-0.038408756,0.0072546005,0.009994507,-0.065704346,0.0,0.0,0.0,0.0,0.0,0.0,0.0,0.0,0.14788818,0.0,0.0,nan,0.0,0.0,-0.013741493,-0.0018027946,0.0001463592,0.0002539158,0.0,0.0,0.0,0.0,0.0,0.0
21800152000,21800072000,-0.014905214,-0.074457645,0.0029859543,0.014892578,-0.063201904,0.0,0.0,0.0,0.0,0.0,0.0,0.0,0.0,0.063079834,0.0,0.0,nan,0.0,0.0,0.0024254322,-0.0018027946,0.0001463592,0.0002539158,0.0,0.0,0.0,0.0,0.0,0.0
21800648000,21800568000,-0.040203333,-0.036561012,-0.0146045685,0.019882202,-0.104003906,0.0,0.0,0.0,0.0,0.0,0.0,0.0,0.0,0.16467285,0.0,0.0,nan,0.0,0.0,-0.0015406609,-0.0018027946,0.0001463592,0.0002539158,0.0,0.0,0.0,0.0,0.0,0.0
21801152000,21801072000,-0.0019249916,-0.070874214,0.023816109,0.044509888,-0.12295532,0.0,0.0,0.0,0.0,0.0,0.0,0.0,0.0,0.0630188,0.0,0.0,nan,0.0,0.0,-3.695488e-05,-0.0018027946,0.0001463592,0.0002539158,0.0,0.0,0.0,0.0,0.0,0.0
21801656000,21801576000,-0.025871515,-0.08083391,-0.0339365,0.044006348,-0.12719727,0.0,0.0,0.0,0.0,0.0,0.0,0.0,0.0,-0.07751465,0.0,0.0,nan,0.0,0.0,-0.007390499,-0.0018027946,0.0001463592,0.0002539158,0.0,0.0,0.0,0.0,0.0,0.0
21802152000,21802072000,-0.035233498,-0.06875229,0.01238966,0.013244629,-0.091552734,0.0,0.0,0.0,0.0,0.0,0.0,0.0,0.0,-0.030578613,0.0,0.0,nan,0.0,0.0,-0.009639263,-0.0018027946,0.0001463592,0.0002539158,0.0,0.0,0.0,0.0,0.0,0.0
21802656000,21802576000,-0.007006407,-0.061011314,-0.03591919,0.030838013,-0.09274292,0.0,0.0,0.0,0.0,0.0,0.0,0.0,0.0,0.028869629,0.0,0.0,nan,0.0,0.0,0.0092538595,-0.0018027946,0.0001463592,0.0002539158,0.0,0.0,0.0,0.0,0.0,0.0
21803152000,21803072000,-0.004194975,-0.08408165,-0.021544933,0.047348022,-0.13150024,0.0,0.0,0.0,0.0,0.0,0.0,0.0,0.0,0.019927979,0.0,0.0,nan,0.0,0.0,-0.006294608,-0.0018027946,0.0001463592,0.0002539158,0.0,0.0,0.0,0.0,0.0,0.0
21803648000,21803568000,-0.014750242,-0.05007887,-0.053145885,0.03062439,-0.11248779,0.0,0.0,0.0,0.0,0.0,0.0,0.0,0.0,-0.0070495605,0.0,0.0,nan,0.0,0.0,-0.005096793,-0.0018027946,0.0001463592,0.0002539158,0.0,0.0,0.0,0.0,0.0,0.0
21804152000,21804072000,-0.038028,-0.064674854,-0.014599323,0.032562256,-0.10900879,0.0,0.0,0.0,0.0,0.0,0.0,0.0,0.0,0.045684814,0.0,0.0,nan,0.0,0.0,0.005465865,-0.0018027946,0.0001463592,0.0002539158,0.0,0.0,0.0,0.0,0.0,0.0
21804648000,21804568000,-0.012442589,-0.04728031,-0.045997143,0.024093628,-0.087371826,0.0,0.0,0.0,0.0,0.0,0.0,0.0,0.0,0.018920898,0.0,0.0,nan,0.0,0.0,-0.019267917,-0.0018027946,0.0001463592,0.0002539158,0.0,0.0,0.0,0.0,0.0,0.0
21805152000,21805072000,-0.004383087,-0.04930544,-0.05373764,0.02998352,-0.11148071,0.0,0.0,0.0,0.0,0.0,0.0,0.0,0.0,0.00592041,0.0,0.0,nan,0.0,0.0,-0.019096851,-0.0018027946,0.0001463592,0.0002539158,0.0,0.0,0.0,0.0,0.0,0.0
21805656000,21805576000,-0.01564622,-0.055885315,-0.0077795982,0.030319214,-0.10269165,0.0,0.0,0.0,0.0,0.0,0.0,0.0,0.0,-0.029083252,0.0,0.0,nan,0.0,0.0,-0.011449218,-0.0018027946,0.0001463592,0.0002539158,0.0,0.0,0.0,0.0,0.0,0.0
21806152000,21806072000,-0.022254705,-0.035565376,-0.03759432,0.028015137,-0.09881592,0.0,0.0,0.0,0.0,0.0,0.0,0.0,0.0,0.10800171,0.0,0.0,nan,0.0,0.0,-0.001719594,-0.0018027946,0.0001463592,0.0002539158,0.0,0.0,0.0,0.0,0.0,0.0
21806648000,21806568000,0.06302047,-0.11497831,0.28479147,0.035217285,-0.116485596,0.0,0.0,0.0,0.0,0.0,0.0,0.0,0.0,-0.04562378,0.0,0.0,nan,0.0,0.0,-0.03362477,-0.0018027946,0.0001463592,0.0002539158,0.0,0.0,0.0,0.0,0.0,0.0
21807152000,21807072000,0.16204524,-0.26827884,0.11939144,0.061462402,-0.1515503,0.0,0.0,0.0,0.0,0.0,0.0,0.0,0.0,-0.088897705,0.0,0.0,nan,0.0,0.0,-0.012177408,-0.007511124,-0.0033544898,0.0048992634,0.0,0.0,0.0,0.0,0.0,0.0
21807648000,21807568000,0.10773677,-0.066224694,0.0040171146,0.04714966,-0.1105957,0.0,0.0,0.0,0.0,0.0,0.0,0.0,0.0,-0.080718994,0.0,0.0,nan,0.0,0.0,-0.012177408,-0.0042711645,-0.00042679906,0.0033924282,0.0,0.0,0.0,0.0,0.0,0.0
21808152000,21808072000,0.052173406,0.06323743,-0.07392663,0.059051514,-0.08187866,0.0,0.0,0.0,0.0,0.0,0.0,0.0,0.0,-0.09439087,0.0,0.0,nan,0.0,0.0,-0.012177408,-0.002844371,-0.0018433928,-0.0049897134,0.0,0.0,0.0,0.0,0.0,0.0
21808648000,21808568000,0.061352447,0.012735695,0.014049888,0.054031372,-0.06726074,0.0,0.0,0.0,0.0,0.0,0.0,0.0,0.0,-0.16809082,0.0,0.0,nan,0.0,0.0,-0.012177408,-0.0007725507,0.0006919503,0.00045323372,0.0,0.0,0.0,0.0,0.0,0.0
21809152000,21809072000,0.040014565,0.02044034,0.0059160255,0.04360962,-0.05795288,0.0,0.0,0.0,0.0,0.0,0.0,0.0,0.0,0.0,0.0,0.0,nan,0.0,0.0,-0.012177408,-0.0027574599,0.0028894842,0.005987972,0.0,0.0,0.0,0.0,0.0,0.0
21809648000,21809568000,0.010874808,0.08794463,0.027887285,0.032714844,-0.033691406,0.0,0.0,0.0,0.0,0.0,0.0,0.0,0.0,0.0,0.0,0.0,nan,0.0,0.0,-0.012177408,-0.0009435117,0.00021106005,0.0009511113,0.0,0.0,0.0,0.0,0.0,0.0
21810152000,21810072000,0.0017588735,0.07771647,0.036839485,0.018859863,-0.039154053,0.0,0.0,0.0,0.0,0.0,0.0,0.0,0.0,0.0,0.0,0.0,nan,0.0,0.0,-0.012177408,-0.0036492199,0.0018389523,9.134412e-05,0.0,0.0,0.0,0.0,0.0,0.0
21810656000,21810576000,-0.057091773,0.09293771,0.060819566,0.0016479492,-0.014587402,0.0,0.0,0.0,0.0,0.0,0.0,0.0,0.0,0.0,0.0,0.0,nan,0.0,0.0,-0.012177408,0.0013204962,-0.0017545819,-0.0027565658,0.0,0.0,0.0,0.0,0.0,0.0
21811152000,21811072000,-0.090073526,0.06284773,0.071142495,-0.017547607,0.0055236816,0.0,0.0,0.0,0.0,0.0,0.0,0.0,0.0,0.0,0.0,0.0,nan,0.0,0.0,-0.012177408,0.0006393492,0.00015859306,-0.004512012,0.0,0.0,0.0,0.0,0.0,0.0
21811656000,21811576000,-0.072155595,0.023989856,0.13571763,-0.015060425,-0.0032958984,0.0,0.0,0.0,0.0,0.0,0.0,0.0,0.0,0.0,0.0,0.0,nan,0.0,0.0,-0.012177408,0.00045725703,-0.0003629923,-0.003170967,0.0,0.0,0.0,0.0,0.0,0.0
21812152000,21812072000,-0.07440761,0.025175154,0.106607616,-0.02357483,0.0045776367,0.0,0.0,0.0,0.0,0.0,0.0,0.0,0.0,0.0,0.0,0.0,nan,0.0,0.0,-0.012177408,-0.0037433207,-0.0015520006,-0.002852112,0.0,0.0,0.0,0.0,0.0,0.0
21812648000,21812568000,-0.07735857,-0.010597378,0.1744256,-0.032546997,-0.0039978027,0.0,0.0,0.0,0.0,0.0,0.0,0.0,0.0,0.0,0.0,0.0,nan,0.0,0.0,-0.0043902397,0.00022075325,-0.00045889616,-0.0049040318,0.0,0.0,0.0,0.0,0.0,0.0
21813152000,21813072000,-0.060559317,-0.010588415,0.16777825,-0.024520874,-0.00061035156,0.0,0.0,0.0,0.0,0.0,0.0,0.0,0.0,0.0,0.0,0.0,nan,0.0,0.0,-0.008738399,0.00022075325,-0.00045889616,-0.0049040318,0.0,0.0,0.0,0.0,0.0,0.0
21813648000,21813568000,-0.05995802,-0.01845739,0.1623137,-0.027923584,-0.005859375,0.0,0.0,0.0,0.0,0.0,0.0,0.0,0.0,0.019592285,0.0,0.0,nan,0.0,0.0,-0.0018657446,0.00022075325,-0.00045889616,-0.0049040318,0.0,0.0,0.0,0.0,0.0,0.0
21814152000,21814072000,-0.04382,-0.010824721,0.099419415,-0.022216797,-0.009552002,0.0,0.0,0.0,0.0,0.0,0.0,0.0,0.0,0.0,0.0,0.0,nan,0.0,0.0,-0.015434623,0.00022075325,-0.00045889616,-0.0049040318,0.0,0.0,0.0,0.0,0.0,0.0
21814648000,21814568000,0.006879911,-0.025172789,0.098947465,-0.0206604,-0.019195557,0.0,0.0,0.0,0.0,0.0,0.0,0.0,0.0,0.0,0.0,0.0,nan,0.0,0.0,-0.017746449,0.00022075325,-0.00045889616,-0.0049040318,0.0,0.0,0.0,0.0,0.0,0.0
21815152000,21815072000,0.015933715,-0.005269921,0.11692411,-0.02053833,-0.018035889,0.0,0.0,0.0,0.0,0.0,0.0,0.0,0.0,0.056671143,0.0,0.0,nan,0.0,0.0,-0.0003298521,0.00022075325,-0.00045889616,-0.0049040318,0.0,0.0,0.0,0.0,0.0,0.0
21815656000,21815576000,0.004949931,-0.015782578,0.13367933,-0.00944519,-0.016143799,0.0,0.0,0.0,0.0,0.0,0.0,0.0,0.0,0.23706055,0.0,0.0,nan,0.0,0.0,-0.012535453,0.00022075325,-0.00045889616,-0.0049040318,0.0,0.0,0.0,0.0,0.0,0.0
21816152000,21816072000,0.021403044,0.003040759,0.06176567,-0.013183594,-0.009277344,0.0,0.0,0.0,0.0,0.0,0.0,0.0,0.0,0.05117798,0.0,0.0,nan,0.0,0.0,-0.01573813,0.00022075325,-0.00045889616,-0.0049040318,0.0,0.0,0.0,0.0,0.0,0.0
21816648000,21816568000,0.027910147,-0.0018761251,0.061233163,-0.006591797,0.0014648438,0.0,0.0,0.0,0.0,0.0,0.0,0.0,0.0,0.0,0.0,0.0,nan,0.0,0.0,-0.006253481,0.00022075325,-0.00045889616,-0.0049040318,0.0,0.0,0.0,0.0,0.0,0.0
21817152000,21817072000,0.016090946,0.007643111,0.09714073,-0.014953613,0.0054626465,0.0,0.0,0.0,0.0,0.0,0.0,0.0,0.0,0.0039367676,0.0,0.0,nan,0.0,0.0,0.0027512312,0.00022075325,-0.00045889616,-0.0049040318,0.0,0.0,0.0,0.0,0.0,0.0
21817648000,21817568000,0.010020187,0.030019209,-0.0048069954,-0.015319824,0.011779785,0.0,0.0,0.0,0.0,0.0,0.0,0.0,0.0,0.088134766,0.0,0.0,nan,0.0,0.0,-0.012427807,0.00022075325,-0.00045889616,-0.0049040318,0.0,0.0,0.0,0.0,0.0,0.0
21818152000,21818072000,-0.003632171,0.018619666,0.020905375,-0.014892578,0.005493164,0.0,0.0,0.0,0.0,0.0,0.0,0.0,0.0,0.0887146,0.0,0.0,nan,0.0,0.0,-0.0027076006,0.00022075325,-0.00045889616,-0.0049040318,0.0,0.0,0.0,0.0,0.0,0.0
21818648000,21818568000,0.00044764765,0.046555944,0.046450555,-0.01234436,0.009185791,0.0,0.0,0.0,0.0,0.0,0.0,0.0,0.0,0.046722412,0.0,0.0,nan,0.0,0.0,-0.021281838,0.00022075325,-0.00045889616,-0.0049040318,0.0,0.0,0.0,0.0,0.0,0.0
21819152000,21819072000,-0.013315463,0.021783303,0.025352478,-0.010192871,0.007080078,0.0,0.0,0.0,0.0,0.0,0.0,0.0,0.0,0.09359741,0.0,0.0,nan,0.0,0.0,-0.007929087,0.00022075325,-0.00045889616,-0.0049040318,0.0,0.0,0.0,0.0,0.0,0.0
21819656000,21819576000,-0.04102706,0.03411026,0.03675437,-0.011184692,0.0061035156,0.0,0.0,0.0,0.0,0.0,0.0,0.0,0.0,0.0152282715,0.0,0.0,nan,0.0,0.0,-0.008013368,0.00022075325,-0.00045889616,-0.0049040318,0.0,0.0,0.0,0.0,0.0,0.0
21820152000,21820072000,-0.04019788,0.015999567,0.055875003,-0.015625,0.008453369,0.0,0.0,0.0,0.0,0.0,0.0,0.0,0.0,0.07171631,0.0,0.0,nan,0.0,0.0,-0.0046349764,0.00022075325,-0.00045889616,-0.0049040318,0.0,0.0,0.0,0.0,0.0,0.0
21820656000,21820576000,-0.048309147,0.030015606,0.058158338,-0.010116577,0.01727295,0.0,0.0,0.0,0.0,0.0,0.0,0.0,0.0,0.0,0.0,0.0,nan,0.0,0.0,-0.006275058,0.00022075325,-0.00045889616,-0.0049040318,0.0,0.0,0.0,0.0,0.0,0.0
21821152000,21821072000,-0.018215,0.018986199,0.003200531,-0.016967773,0.018829346,0.0,0.0,0.0,0.0,0.0,0.0,0.0,0.0,0.024108887,0.0,0.0,nan,0.0,0.0,-0.0055636168,0.00022075325,-0.00045889616,-0.0049040318,0.0,0.0,0.0,0.0,0.0,0.0
21821656000,21821576000,-0.046425723,0.016706068,0.053568304,-0.023010254,0.01864624,0.0,0.0,0.0,0.0,0.0,0.0,0.0,0.0,0.10675049,0.0,0.0,nan,0.0,0.0,-0.0053822994,0.00022075325,-0.00045889616,-0.0049040318,0.0,0.0,0.0,0.0,0.0,0.0
21822152000,21822072000,-0.03895022,0.017726758,0.006402135,-0.018508911,0.010925293,0.0,0.0,0.0,0.0,0.0,0.0,0.0,0.0,0.068847656,0.0,0.0,nan,0.0,0.0,-0.014201045,0.00022075325,-0.00045889616,-0.0049040318,0.0,0.0,0.0,0.0,0.0,0.0
21822648000,21822568000,-0.05604212,0.013730453,-0.019576073,-0.029724121,0.020355225,0.0,0.0,0.0,0.0,0.0,0.0,0.0,0.0,0.0647583,0.0,0.0,nan,0.0,0.0,-0.02492547,0.00022075325,-0.00045889616,-0.0049040318,0.0,0.0,0.0,0.0,0.0,0.0
21823152000,21823072000,-0.032854777,0.011284317,0.030377984,-0.02268982,0.017852783,0.0,0.0,0.0,0.0,0.0,0.0,0.0,0.0,0.0,0.0,0.0,nan,0.0,0.0,-0.014263272,0.00022075325,-0.00045889616,-0.0049040318,0.0,0.0,0.0,0.0,0.0,0.0
21823656000,21823576000,-0.034253377,0.0038925018,0.023861647,-0.020339966,0.011383057,0.0,0.0,0.0,0.0,0.0,0.0,0.0,0.0,0.019165039,0.0,0.0,nan,0.0,0.0,-0.023644805,0.00022075325,-0.00045889616,-0.0049040318,0.0,0.0,0.0,0.0,0.0,0.0
21824152000,21824072000,-0.024023665,0.016904334,-0.022625446,-0.025497437,0.015411377,0.0,0.0,0.0,0.0,0.0,0.0,0.0,0.0,0.0,0.0,0.0,nan,0.0,0.0,-0.009826064,0.00022075325,-0.00045889616,-0.0049040318,0.0,0.0,0.0,0.0,0.0,0.0
21824648000,21824568000,-0.017353252,-0.0054746494,0.004150033,-0.0021362305,0.0018005371,0.0,0.0,0.0,0.0,0.0,0.0,0.0,0.0,0.0,0.0,0.0,nan,0.0,0.0,-0.0133879185,0.00022075325,-0.00045889616,-0.0049040318,0.0,0.0,0.0,0.0,0.0,0.0
21825152000,21825072000,-0.01633937,0.016663143,-0.033664346,-0.0062408447,0.00579834,0.0,0.0,0.0,0.0,0.0,0.0,0.0,0.0,0.0423584,0.0,0.0,nan,0.0,0.0,-0.004086256,0.00022075325,-0.00045889616,-0.0049040318,0.0,0.0,0.0,0.0,0.0,0.0
21825648000,21825568000,-0.00656504,0.00940345,-0.0032479763,-0.013824463,0.010375977,0.0,0.0,0.0,0.0,0.0,0.0,0.0,0.0,0.02532959,0.0,0.0,nan,0.0,0.0,-0.017859101,0.00022075325,-0.00045889616,-0.0049040318,0.0,0.0,0.0,0.0,0.0,0.0
21826152000,21826072000,0.0051054945,0.025433807,-0.038217664,0.0026245117,0.013336182,0.0,0.0,0.0,0.0,0.0,0.0,0.0,0.0,0.0,0.0,0.0,nan,0.0,0.0,0.002434492,0.00022075325,-0.00045889616,-0.0049040318,0.0,0.0,0.0,0.0,0.0,0.0
21826656000,21826576000,-0.008050846,0.04142498,-0.024443507,-0.008056641,0.01876831,0.0,0.0,0.0,0.0,0.0,0.0,0.0,0.0,0.04486084,0.0,0.0,nan,0.0,0.0,-0.01535368,0.00022075325,-0.00045889616,-0.0049040318,0.0,0.0,0.0,0.0,0.0,0.0
21827152000,21827072000,-0.0016194979,0.027546939,-0.048358023,-0.01020813,0.01260376,0.0,0.0,0.0,0.0,0.0,0.0,0.0,0.0,0.016998291,0.0,0.0,nan,0.0,0.0,-0.013790488,0.00022075325,-0.00045889616,-0.0049040318,0.0,0.0,0.0,0.0,0.0,0.0
21827656000,21827576000,0.020169895,0.04288655,-0.018552959,0.0007019043,0.018463135,0.0,0.0,0.0,0.0,0.0,0.0,0.0,0.0,0.0,0.0,0.0,nan,0.0,0.0,-0.008778334,0.00022075325,-0.00045889616,-0.0049040318,0.0,0.0,0.0,0.0,0.0,0.0
21828152000,21828072000,0.0061174515,0.050549857,0.015070856,-0.008850098,0.021392822,0.0,0.0,0.0,0.0,0.0,0.0,0.0,0.0,0.0,0.0,0.0,nan,0.0,0.0,0.00048553944,0.00022075325,-0.00045889616,-0.0049040318,0.0,0.0,0.0,0.0,0.0,0.0
21828648000,21828568000,-0.018785004,0.034941155,0.015865326,-0.005432129,0.02960205,0.0,0.0,0.0,0.0,0.0,0.0,0.0,0.0,0.0,0.0,0.0,nan,0.0,0.0,-0.011862397,0.00022075325,-0.00045889616,-0.0049040318,0.0,0.0,0.0,0.0,0.0,0.0
21829152000,21829072000,-0.01770538,0.037852623,-0.08018923,-0.0013122559,0.037139893,0.0,0.0,0.0,0.0,0.0,0.0,0.0,0.0,0.0,0.0,0.0,nan,0.0,0.0,-0.0059862137,0.00022075325,-0.00045889616,-0.0049040318,0.0,0.0,0.0,0.0,0.0,0.0
21829648000,21829568000,0.0046208645,0.038733263,-0.04429692,0.0001373291,0.042388916,0.0,0.0,0.0,0.0,0.0,0.0,0.0,0.0,0.0,0.0,0.0,nan,0.0,0.0,-0.0021464825,0.00022075325,-0.00045889616,-0.0049040318,0.0,0.0,0.0,0.0,0.0,0.0
21830152000,21830072000,-0.005955245,0.045024455,-0.01882559,-0.0018005371,0.044799805,0.0,0.0,0.0,0.0,0.0,0.0,0.0,0.0,0.0,0.0,0.0,nan,0.0,0.0,-0.018619657,0.00022075325,-0.00045889616,-0.0049040318,0.0,0.0,0.0,0.0,0.0,0.0
21830648000,21830568000,-0.01420133,0.018066073,-0.08192974,-0.0040130615,0.04135132,0.0,0.0,0.0,0.0,0.0,0.0,0.0,0.0,0.0,0.0,0.0,nan,0.0,0.0,-0.014917612,0.00022075325,-0.00045889616,-0.0049040318,0.0,0.0,0.0,0.0,0.0,0.0
21831152000,21831072000,0.0017382484,0.019031528,-0.0054169893,-0.010192871,0.034118652,0.0,0.0,0.0,0.0,0.0,0.0,0.0,0.0,0.0,0.0,0.0,nan,0.0,0.0,-0.004566312,0.00022075325,-0.00045889616,-0.0049040318,0.0,0.0,0.0,0.0,0.0,0.0
21831656000,21831576000,-0.00035434784,0.0105566215,-0.008576572,-0.009124756,0.029205322,0.0,0.0,0.0,0.0,0.0,0.0,0.0,0.0,0.0,0.0,0.0,nan,0.0,0.0,0.013041019,0.00022075325,-0.00045889616,-0.0049040318,0.0,0.0,0.0,0.0,0.0,0.0
21832152000,21832072000,-0.008108518,0.039132677,0.0076007247,0.0055389404,0.034088135,0.0,0.0,0.0,0.0,0.0,0.0,0.0,0.0,0.0,0.0,0.0,nan,0.0,0.0,0.005842328,0.00022075325,-0.00045889616,-0.0049040318,0.0,0.0,0.0,0.0,0.0,0.0
21832656000,21832576000,-0.029592494,0.017434794,-0.0019554496,-0.016082764,0.025390625,0.0,0.0,0.0,0.0,0.0,0.0,0.0,0.0,0.0,0.0,0.0,nan,0.0,0.0,0.009531736,0.00022075325,-0.00045889616,-0.0049040318,0.0,0.0,0.0,0.0,0.0,0.0
21833152000,21833072000,-0.030277979,0.019614583,-0.055834174,-0.013000488,0.022216797,0.0,0.0,0.0,0.0,0.0,0.0,0.0,0.0,0.0,0.0,0.0,nan,0.0,0.0,0.00038051605,0.00022075325,-0.00045889616,-0.0049040318,0.0,0.0,0.0,0.0,0.0,0.0
21833656000,21833576000,-0.03072546,0.027064864,0.0009534955,-0.013076782,0.014038086,0.0,0.0,0.0,0.0,0.0,0.0,0.0,0.0,0.0,0.0,0.0,nan,0.0,0.0,0.0071468353,0.00022075325,-0.00045889616,-0.0049040318,0.0,0.0,0.0,0.0,0.0,0.0
21834152000,21834072000,-0.03365265,0.009927031,0.030747354,-0.0048980713,0.014373779,0.0,0.0,0.0,0.0,0.0,0.0,0.0,0.0,0.0,0.0,0.0,nan,0.0,0.0,-0.0035930872,0.00022075325,-0.00045889616,-0.0049040318,0.0,0.0,0.0,0.0,0.0,0.0
21834656000,21834576000,-0.026146363,-0.00022064336,0.04424244,-0.016342163,0.012176514,0.0,0.0,0.0,0.0,0.0,0.0,0.0,0.0,0.0,0.0,0.0,nan,0.0,0.0,0.005476594,0.00022075325,-0.00045889616,-0.0049040318,0.0,0.0,0.0,0.0,0.0,0.0
21835152000,21835072000,-0.007915091,0.016070483,0.015458167,-0.00869751,0.013946533,0.0,0.0,0.0,0.0,0.0,0.0,0.0,0.0,0.0,0.0,0.0,nan,0.0,0.0,-0.0026495457,0.00022075325,-0.00045889616,-0.0049040318,0.0,0.0,0.0,0.0,0.0,0.0
21835656000,21835576000,-0.017135462,0.008485949,0.030861795,-0.016357422,0.005004883,0.0,0.0,0.0,0.0,0.0,0.0,0.0,0.0,0.0,0.0,0.0,nan,0.0,0.0,0.04184115,0.00022075325,-0.00045889616,-0.0049040318,0.0,0.0,0.0,0.0,0.0,0.0
21836152000,21836072000,-0.018339988,0.01477374,0.008741856,-0.015640259,0.013397217,0.0,0.0,0.0,0.0,0.0,0.0,0.0,0.0,0.0,0.0,0.0,nan,0.0,0.0,0.0017366409,0.00022075325,-0.00045889616,-0.0049040318,0.0,0.0,0.0,0.0,0.0,0.0
21836656000,21836576000,-0.01891849,-0.0067052115,0.02527982,-0.014038086,0.004119873,0.0,0.0,0.0,0.0,0.0,0.0,0.0,0.0,0.0,0.0,0.0,nan,0.0,0.0,-0.00087964535,0.00022075325,-0.00045889616,-0.0049040318,0.0,0.0,0.0,0.0,0.0,0.0
21837152000,21837072000,-0.0097211655,0.020523036,0.0066518784,-0.027664185,0.011169434,0.0,0.0,0.0,0.0,0.0,0.0,0.0,0.0,0.0,0.0,0.0,nan,0.0,0.0,0.023916125,0.00022075325,-0.00045889616,-0.0049040318,0.0,0.0,0.0,0.0,0.0,0.0
21837656000,21837576000,-0.020249344,0.039478406,-0.023739934,-0.015899658,0.02017212,0.0,0.0,0.0,0.0,0.0,0.0,0.0,0.0,0.018066406,0.0,0.0,nan,0.0,0.0,0.00027513504,0.00022075325,-0.00045889616,-0.0049040318,0.0,0.0,0.0,0.0,0.0,0.0
21838152000,21838072000,-0.017503317,0.018218756,-0.03300202,-0.02607727,0.0134887695,0.0,0.0,0.0,0.0,0.0,0.0,0.0,0.0,0.0,0.0,0.0,nan,0.0,0.0,-0.030235052,0.00022075325,-0.00045889616,-0.0049040318,0.0,0.0,0.0,0.0,0.0,0.0
21838648000,21838568000,-0.037881464,0.013137875,-0.0009899139,-0.031677246,0.02658081,0.0,0.0,0.0,0.0,0.0,0.0,0.0,0.0,0.0,0.0,0.0,nan,0.0,0.0,-0.012277126,0.00022075325,-0.00045889616,-0.0049040318,0.0,0.0,0.0,0.0,0.0,0.0
21839152000,21839072000,-0.021449117,0.032206025,0.027391315,-0.022994995,0.029296875,0.0,0.0,0.0,0.0,0.0,0.0,0.0,0.0,0.0,0.0,0.0,nan,0.0,0.0,-0.007542968,0.00022075325,-0.00045889616,-0.0049040318,0.0,0.0,0.0,0.0,0.0,0.0
21839656000,21839576000,-0.030693237,0.039195336,-0.046375215,-0.026794434,0.037841797,0.0,0.0,0.0,0.0,0.0,0.0,0.0,0.0,0.0,0.0,0.0,nan,0.0,0.0,-0.0072237253,0.00022075325,-0.00045889616,-0.0049040318,0.0,0.0,0.0,0.0,0.0,0.0
21840152000,21840072000,-0.029184934,0.027308755,-0.003486514,-0.013519287,0.027679443,0.0,0.0,0.0,0.0,0.0,0.0,0.0,0.0,0.0,0.0,0.0,nan,0.0,0.0,-0.008142829,0.00022075325,-0.00045889616,-0.0049040318,0.0,0.0,0.0,0.0,0.0,0.0
21840648000,21840568000,-0.019857218,0.05216799,-0.030539274,-0.015045166,0.033111572,0.0,0.0,0.0,0.0,0.0,0.0,0.0,0.0,0.0,0.0,0.0,nan,0.0,0.0,-0.0041024685,0.00022075325,-0.00045889616,-0.0049040318,0.0,0.0,0.0,0.0,0.0,0.0
21841152000,21841072000,-0.026937457,0.017027099,-0.06540954,-0.015335083,0.031158447,0.0,0.0,0.0,0.0,0.0,0.0,0.0,0.0,0.0,0.0,0.0,nan,0.0,0.0,0.0006055832,0.00022075325,-0.00045889616,-0.0049040318,0.0,0.0,0.0,0.0,0.0,0.0
21841656000,21841576000,-0.018714298,0.0069889594,-0.000510931,-0.019485474,0.02255249,0.0,0.0,0.0,0.0,0.0,0.0,0.0,0.0,0.0,0.0,0.0,nan,0.0,0.0,8.9883804e-05,0.00022075325,-0.00045889616,-0.0049040318,0.0,0.0,0.0,0.0,0.0,0.0
21842152000,21842072000,-0.028246041,0.019200012,0.024804652,-0.020599365,0.027832031,0.0,0.0,0.0,0.0,0.0,0.0,0.0,0.0,0.0,0.0,0.0,nan,0.0,0.0,0.005433202,0.00022075325,-0.00045889616,-0.0049040318,0.0,0.0,0.0,0.0,0.0,0.0
21842648000,21842568000,-0.048417717,0.004224317,-0.009346008,-0.02357483,0.024963379,0.0,0.0,0.0,0.0,0.0,0.0,0.0,0.0,0.0,0.0,0.0,nan,0.0,0.0,0.008026004,0.00022075325,-0.00045889616,-0.0049040318,0.0,0.0,0.0,0.0,0.0,0.0
21843152000,21843072000,-0.069602154,0.0019772481,0.025396287,-0.03201294,0.025756836,0.0,0.0,0.0,0.0,0.0,0.0,0.0,0.0,0.0,0.0,0.0,nan,0.0,0.0,0.040709496,0.00022075325,-0.00045889616,-0.0049040318,0.0,0.0,0.0,0.0,0.0,0.0
21843648000,21843568000,-0.05115235,0.021853115,0.0015180111,-0.029800415,0.01739502,0.0,0.0,0.0,0.0,0.0,0.0,0.0,0.0,0.0,0.0,0.0,nan,0.0,0.0,0.010256052,0.00022075325,-0.00045889616,-0.0049040318,0.0,0.0,0.0,0.0,0.0,0.0
21844152000,21844072000,-0.057099506,0.004715655,-0.036435843,-0.032577515,0.015167236,0.0,0.0,0.0,0.0,0.0,0.0,0.0,0.0,0.0,0.0,0.0,nan,0.0,0.0,-0.024506211,0.00022075325,-0.00045889616,-0.0049040318,0.0,0.0,0.0,0.0,0.0,0.0
21844648000,21844568000,-0.047952615,0.01414975,-0.01666832,-0.027770996,0.009307861,0.0,0.0,0.0,0.0,0.0,0.0,0.0,0.0,0.0,0.0,0.0,nan,0.0,0.0,0.001412034,0.00022075325,-0.00045889616,-0.0049040318,0.0,0.0,0.0,0.0,0.0,0.0
21845152000,21845072000,-0.02809473,0.009689711,0.02116108,-0.018447876,0.009643555,0.0,0.0,0.0,0.0,0.0,0.0,0.0,0.0,0.0,0.0,0.0,nan,0.0,0.0,-0.0029435158,0.00022075325,-0.00045889616,-0.0049040318,0.0,0.0,0.0,0.0,0.0,0.0
21845656000,21845576000,-0.04521144,0.011069872,0.027980864,-0.016525269,-0.0067443848,0.0,0.0,0.0,0.0,0.0,0.0,0.0,0.0,0.0,0.0,0.0,nan,0.0,0.0,0.0007098913,0.00022075325,-0.00045889616,-0.0049040318,0.0,0.0,0.0,0.0,0.0,0.0
21846152000,21846072000,-0.01142448,0.012297836,0.058235586,-0.022918701,-0.003967285,0.0,0.0,0.0,0.0,0.0,0.0,0.0,0.0,0.0,0.0,0.0,nan,0.0,0.0,-0.0025868416,0.00022075325,-0.00045889616,-0.0049040318,0.0,0.0,0.0,0.0,0.0,0.0
21846656000,21846576000,-0.028394466,0.013874363,-0.002074957,-0.022476196,-0.0005187988,0.0,0.0,0.0,0.0,0.0,0.0,0.0,0.0,0.0,0.0,0.0,nan,0.0,0.0,-0.009274244,0.00022075325,-0.00045889616,-0.0049040318,0.0,0.0,0.0,0.0,0.0,0.0
21847152000,21847072000,-0.011060163,0.0047929767,-0.046108484,-0.0134887695,0.0015563965,0.0,0.0,0.0,0.0,0.0,0.0,0.0,0.0,0.0,0.0,0.0,nan,0.0,0.0,0.007393241,0.00022075325,-0.00045889616,-0.0049040318,0.0,0.0,0.0,0.0,0.0,0.0
21847648000,21847568000,-0.02790498,-0.0025696286,0.055292368,-0.011230469,0.00076293945,0.0,0.0,0.0,0.0,0.0,0.0,0.0,0.0,0.0,0.0,0.0,nan,0.0,0.0,-0.012122035,0.00022075325,-0.00045889616,-0.0049040318,0.0,0.0,0.0,0.0,0.0,0.0
21848152000,21848072000,0.0043536276,0.02036421,-0.01398623,-0.009185791,0.0008544922,0.0,0.0,0.0,0.0,0.0,0.0,0.0,0.0,0.0,0.0,0.0,nan,0.0,0.0,-0.0031713247,0.00022075325,-0.00045889616,-0.0049040318,0.0,0.0,0.0,0.0,0.0,0.0
21848656000,21848576000,-0.018324954,0.008986934,0.01743406,-0.016479492,0.013153076,0.0,0.0,0.0,0.0,0.0,0.0,0.0,0.0,0.0,0.0,0.0,nan,0.0,0.0,0.001506567,0.00022075325,-0.00045889616,-0.0049040318,0.0,0.0,0.0,0.0,0.0,0.0
21849152000,21849072000,-0.014703441,0.030862488,0.007329941,-0.005783081,0.010009766,0.0,0.0,0.0,0.0,0.0,0.0,0.0,0.0,0.0,0.0,0.0,nan,0.0,0.0,0.0059281588,0.00022075325,-0.00045889616,-0.0049040318,0.0,0.0,0.0,0.0,0.0,0.0
21849656000,21849576000,0.007146823,0.01848998,0.046078265,-0.009643555,0.004486084,0.0,0.0,0.0,0.0,0.0,0.0,0.0,0.0,0.0,0.0,0.0,nan,0.0,0.0,0.007849574,0.00022075325,-0.00045889616,-0.0049040318,0.0,0.0,0.0,0.0,0.0,0.0
21850152000,21850072000,-0.009691788,0.01292298,0.030982077,-0.0034332275,0.012634277,0.0,0.0,0.0,0.0,0.0,0.0,0.0,0.0,0.0,0.0,0.0,nan,0.0,0.0,0.0055242777,0.00022075325,-0.00045889616,-0.0049040318,0.0,0.0,0.0,0.0,0.0,0.0
21850656000,21850576000,0.0038656788,0.019089608,0.059951007,-0.014694214,0.023376465,0.0,0.0,0.0,0.0,0.0,0.0,0.0,0.0,0.0,0.0,0.0,nan,0.0,0.0,0.0004786253,0.00022075325,-0.00045889616,-0.0049040318,0.0,0.0,0.0,0.0,0.0,0.0
21851152000,21851072000,0.010808331,0.034726083,0.056873977,-0.0048828125,0.02267456,0.0,0.0,0.0,0.0,0.0,0.0,0.0,0.0,0.0,0.0,0.0,nan,0.0,0.0,0.0050605536,0.00022075325,-0.00045889616,-0.0049040318,0.0,0.0,0.0,0.0,0.0,0.0
