timestamp,rollspeed_integ,pitchspeed_integ,yawspeed_integ,additional_integ1
21726360000,0.0,0.0,0.0,0.0
21726368000,0.0,0.0,0.0,0.0
21726560000,0.0,0.0,0.0,0.0
21726760000,0.0,0.0,0.0,0.0
21726960000,0.0,0.0,0.0,0.0
21727156000,0.0,0.0,0.0,0.0
21727356000,0.0,0.0,0.0,0.0
21727560000,0.0,0.0,0.0,0.0
21727760000,0.0,0.0,0.0,0.0
21727956000,0.0,0.0,0.0,0.0
21728156000,0.0,0.0,0.0,0.0
21728356000,0.0,0.0,0.0,0.0
21728560000,0.0,0.0,0.0,0.0
21728756000,0.0,0.0,0.0,0.0
21728960000,0.0,0.0,0.0,0.0
21729160000,0.0,0.0,0.0,0.0
21729360000,0.0,0.0,0.0,0.0
21729556000,0.0,0.0,0.0,0.0
21729760000,0.0,0.0,0.0,0.0
21729960000,0.0,0.0,0.0,0.0
21730160000,0.0,0.0,0.0,0.0
21730360000,0.0,0.0,0.0,0.0
21730560000,0.0,0.0,0.0,0.0
21730760000,0.0,0.0,0.0,0.0
21730960000,0.0,0.0,0.0,0.0
21731160000,0.0,0.0,0.0,0.0
21731360000,0.0,0.0,0.0,0.0
21731556000,0.0,0.0,0.0,0.0
21731760000,0.0,0.0,0.0,0.0
21731960000,0.0,0.0,0.0,0.0
21732160000,0.0,0.0,0.0,0.0
21732360000,0.0,0.0,0.0,0.0
21732556000,0.0,0.0,0.0,0.0
21732760000,0.0,0.0,0.0,0.0
21732960000,0.0,0.0,0.0,0.0
21733160000,-0.00012422164,7.8319514e-05,-1.2052164e-06,0.0
21733360000,-0.0006043867,0.00038358243,-4.4587563e-05,0.0
21733560000,-0.0011768333,0.0006301684,-0.00013128019,0.0
21733760000,-0.0018188368,0.00080248486,-0.0001726117,0.0
21733956000,-0.0024205688,0.0008022765,-0.00022151879,0.0
21734160000,-0.0021931613,-0.0005533011,1.5782778e-05,0.0
21734360000,-0.001953299,-0.0017341793,3.387012e-05,0.0
21734560000,-0.0017856557,-0.0026924002,1.2737608e-05,0.0
21734760000,-0.0016930904,-0.003642947,-5.2657033e-06,0.0
21734960000,-0.0015556437,-0.0044549694,-1.6966726e-05,0.0
21735156000,-0.0014057361,-0.005085797,-4.619098e-06,0.0
21735360000,-0.0012599067,-0.005743916,-3.4345558e-05,0.0
21735556000,-0.0010962085,-0.006356077,3.5496687e-06,0.0
21735760000,-0.0008866344,-0.00692944,0.00027773815,0.0
21735960000,-0.0007845695,-0.0074272864,0.0002673167,0.0
21736160000,-0.00059943506,-0.007871125,0.00022603195,0.0
21736356000,-0.0005083123,-0.008235093,0.00025177095,0.0
21736556000,-0.0003885276,-0.008577156,0.00024784106,0.0
21736760000,-0.0002788441,-0.008866332,0.0002860842,0.0
21736960000,-0.00012783777,-0.009107511,0.00029797177,0.0
21737160000,-7.02482e-05,-0.009297286,0.0002943296,0.0
21737360000,-1.1983255e-05,-0.0095412,0.0002974659,0.0
21737560000,5.5918004e-05,-0.009457279,0.00026557175,0.0
21737760000,0.00010156437,-0.009638442,0.0002984247,0.0
21737960000,0.00021927762,-0.009675636,0.00023646672,0.0
21738160000,0.0004694804,-0.009494448,0.00016837128,0.0
21738356000,0.0006685295,-0.009156171,0.0001532864,0.0
21738560000,0.0011618419,-0.008600291,0.00012243287,0.0
21738760000,0.0018193905,-0.00760866,2.301018e-05,0.0
21738960000,0.0025297292,-0.0062659904,-4.5022683e-05,0.0
21739160000,0.003711143,-0.00435577,-3.5918052e-05,0.0
21739360000,0.004640792,-0.0015999702,-9.380335e-06,0.0
21739560000,0.006453623,0.0014639752,5.473643e-05,0.0
21739760000,0.0070162993,0.0061297463,0.00019566464,0.0
21739960000,0.0071268054,0.01140983,0.0002990112,0.0
21740156000,0.0070944917,0.016840966,0.0003874234,0.0
21740360000,0.006867809,0.022499448,0.00046987302,0.0
21740560000,0.00647884,0.027944967,0.00051276234,0.0
21740760000,0.0060980963,0.03320282,0.00055239385,0.0
21740960000,0.005713652,0.038237527,0.0005681457,0.0
21741160000,0.0053240447,0.043027166,0.00059449836,0.0
21741360000,0.005003762,0.047625735,0.00062291237,0.0
21741560000,0.004684033,0.052014805,0.0006108427,0.0
21741760000,0.004334619,0.056189947,0.0005823906,0.0
21741960000,0.0040295552,0.06016664,0.00056312286,0.0
21742160000,0.0036069008,0.06395263,0.0005103244,0.0
21742360000,0.0034076946,0.06754071,0.0004681958,0.0
21742560000,0.00314231,0.07097495,0.00045065404,0.0
21742756000,0.0029700971,0.07415005,0.00039782558,0.0
21742956000,0.0027309465,0.07726202,0.00036201908,0.0
21743160000,0.0024553605,0.080272354,0.00034507568,0.0
21743360000,0.0021991294,0.083096005,0.0002986387,0.0
21743560000,0.0020440628,0.08575655,0.00032859007,0.0
21743760000,0.0019869867,0.08829797,0.00028014128,0.0
21743960000,0.0016836396,0.09071269,0.00023035171,0.0
21744160000,0.0014115993,0.09303382,0.00020348224,0.0
21744360000,0.0012035572,0.095227845,0.0001871357,0.0
21744560000,0.0010450744,0.0972796,0.00018632831,0.0
21744760000,0.00088787905,0.099274926,0.00017906603,0.0
21744956000,0.0007735126,0.10110485,0.00019524913,0.0
21745156000,0.0006333754,0.10287453,0.0001828545,0.0
21745360000,0.0004277449,0.10460029,0.00018515003,0.0
21745556000,0.00034996952,0.10620054,0.00017171724,0.0
21745760000,0.00020120741,0.107770786,0.0001731647,0.0
21745960000,0.00012927726,0.1092357,0.00018384864,0.0
21746160000,8.0448954e-05,0.1106182,0.00018763974,0.0
21746360000,-3.926271e-05,0.11190611,0.00017620808,0.0
21746560000,-0.00017160272,0.11315903,0.00014326241,0.0
21746760000,-0.0002629009,0.11434818,0.0001290176,0.0
21746956000,-0.00029410352,0.11546787,0.00011641897,0.0
21747160000,-0.00050340866,0.11653158,0.00011732928,0.0
21747356000,-0.0005961735,0.11754019,0.000117202675,0.0
21747560000,-0.0006427392,0.1185047,0.000109656874,0.0
21747760000,-0.0006985529,0.11943818,8.260417e-05,0.0
21747960000,-0.0007371572,0.12033021,9.583752e-05,0.0
21748156000,-0.0008134495,0.12112431,8.7032495e-05,0.0
21748360000,-0.00091955677,0.12189213,0.000117757445,0.0
21748560000,-0.0009782168,0.12261886,0.00012669848,0.0
21748760000,-0.001063649,0.123300776,0.0001167046,0.0
21748956000,-0.001127541,0.12397655,0.00010828393,0.0
21749160000,-0.0011415085,0.124595396,0.00011252282,0.0
21749360000,-0.0012598506,0.12518789,6.281571e-05,0.0
21749560000,-0.0013233533,0.12575206,7.457373e-05,0.0
21749760000,-0.0013634629,0.1262592,5.3072774e-05,0.0
21749960000,-0.0011721355,0.12679422,-3.7721733e-05,0.0
21750160000,-0.0012586741,0.12728076,2.7751182e-06,0.0
21750360000,-0.0013337709,0.1277216,-2.896026e-05,0.0
21750560000,-0.001384313,0.12815341,-3.404465e-05,0.0
21750756000,-0.0014008413,0.12854275,-6.6046865e-05,0.0
21750960000,-0.0014201369,0.12892425,-6.5421584e-05,0.0
21751160000,-0.0014020745,0.1292723,-6.958386e-05,0.0
21751360000,-0.0013377815,0.12960382,-7.924267e-05,0.0
21751560000,-0.0014098999,0.12991051,-5.8734742e-05,0.0
21751760000,-0.0014433222,0.13019674,-5.1529314e-05,0.0
21751956000,-0.0014361431,0.1304669,-1.578946e-05,0.0
21752160000,-0.0013956417,0.13071853,-3.9490664e-05,0.0
21752360000,-0.0013782781,0.13096534,-7.283624e-05,0.0
21752560000,-0.0014251753,0.1311844,-6.720333e-05,0.0
21752760000,-0.0014598955,0.13138284,-6.7915214e-05,0.0
21752960000,-0.0013950071,0.13158795,-6.7336434e-05,0.0
21753160000,-0.0013638177,0.13178997,-7.169786e-05,0.0
21753360000,-0.0013610476,0.13198042,-7.052228e-05,0.0
21753560000,-0.0013542919,0.13211626,-7.248876e-05,0.0
21753760000,-0.001305114,0.13226053,-0.00010203944,0.0
21753960000,-0.0013259369,0.13240254,-8.174676e-05,0.0
21754160000,-0.0013707905,0.13254572,-8.3267856e-05,0.0
21754356000,-0.0014062806,0.13265827,-0.00010112646,0.0
21754556000,-0.0014144148,0.13274525,-0.00010789502,0.0
21754760000,-0.0014277057,0.13285069,-9.334836e-05,0.0
21754960000,-0.0013394699,0.13293613,-9.710158e-05,0.0
21755160000,-0.0014143301,0.13303581,-9.962705e-05,0.0
21755356000,-0.0014209438,0.13317235,-0.00010359542,0.0
21755560000,-0.0013198444,0.13324858,-8.227516e-05,0.0
21755756000,-0.001173684,0.13330613,-0.00010430931,0.0
21755960000,-0.0012820663,0.13339128,-6.0737402e-05,0.0
21756160000,-0.0012755139,0.1334466,-9.251976e-05,0.0
21756360000,-0.001295436,0.13351661,-5.175519e-05,0.0
21756560000,-0.0013116951,0.13360152,-6.655307e-05,0.0
21756756000,-0.0013091539,0.13366933,-8.7108434e-05,0.0
21756960000,-0.0014588468,0.13374384,-9.512608e-05,0.0
21757160000,-0.0015326553,0.13378699,-7.844273e-05,0.0
21757360000,-0.0014826152,0.13384517,-6.49164e-05,0.0
21757556000,-0.0014352706,0.13394095,-7.4842515e-05,0.0
21757760000,-0.0014942918,0.13400796,-4.1319174e-05,0.0
21757960000,-0.0014944597,0.13406427,-7.1758055e-05,0.0
21758160000,-0.0015040537,0.13411391,-6.567673e-05,0.0
21758360000,-0.0015012344,0.13419308,-7.510743e-05,0.0
21758560000,-0.0014934505,0.13425945,-7.0135866e-05,0.0
21758760000,-0.0015112559,0.13432068,-6.9758404e-05,0.0
21758960000,-0.001492114,0.1343854,-5.347302e-05,0.0
21759156000,-0.0015269147,0.13443536,-1.02768345e-05,0.0
21759360000,-0.0014850139,0.13448806,-9.836884e-06,0.0
21759560000,-0.0014926657,0.13450961,-3.6701203e-05,0.0
21759760000,-0.0015052358,0.13455643,-3.1316504e-05,0.0
21759960000,-0.0015318755,0.13456295,-3.2490607e-05,0.0
21760156000,-0.0015220244,0.13460638,-5.1409945e-05,0.0
21760360000,-0.0015502869,0.13467556,-2.8379724e-05,0.0
21760560000,-0.0016563599,0.13468811,2.4998613e-05,0.0
21760760000,-0.001620806,0.13475521,-8.862168e-06,0.0
21760960000,-0.0015973641,0.1348102,-3.052325e-05,0.0
21761160000,-0.0015785232,0.1347919,-4.1487398e-05,0.0
21761360000,-0.0015780922,0.13481632,-6.1236904e-05,0.0
21761560000,-0.0016443229,0.1348374,-6.155265e-05,0.0
21761760000,-0.0016314257,0.13483484,-4.878255e-05,0.0
21761960000,-0.0016620047,0.13491336,-3.603089e-05,0.0
21762156000,-0.0016504732,0.1349584,-7.270741e-06,0.0
21762360000,-0.0017161625,0.13498792,-4.734563e-05,0.0
21762560000,-0.0017570788,0.13499674,-2.8591887e-05,0.0
21762760000,-0.0016963064,0.1350091,-3.9595383e-05,0.0
21762960000,-0.0017192011,0.13504876,-4.5904617e-05,0.0
21763160000,-0.0017130461,0.13505623,-4.2478747e-05,0.0
21763360000,-0.0017145972,0.13511501,-2.4227626e-05,0.0
21763556000,-0.0017786473,0.13514477,-2.9104734e-05,0.0
21763760000,-0.0017945111,0.13517556,-2.5430167e-05,0.0
21763956000,-0.0017335854,0.13519652,-2.9797431e-05,0.0
21764160000,-0.0017365166,0.13521667,-6.52728e-06,0.0
21764360000,-0.001722042,0.13522474,-2.1906782e-05,0.0
21764560000,-0.0016868034,0.13525106,6.648891e-07,0.0
21764756000,-0.0016769754,0.13530925,1.2612998e-05,0.0
21764960000,-0.0016719176,0.13534631,5.4690718e-06,0.0
21765160000,-0.0016752884,0.13535333,3.9193505e-06,0.0
21765360000,-0.0016289125,0.13542727,1.6374348e-05,0.0
21765560000,-0.0015909282,0.13544132,1.2392302e-05,0.0
21765760000,-0.0014712702,0.13550203,1.687961e-05,0.0
21765960000,-0.0015125612,0.13555731,2.666651e-05,0.0
21766160000,-0.0015284417,0.1355993,3.9430095e-05,0.0
21766360000,-0.0015740952,0.13559276,5.7641555e-05,0.0
21766560000,-0.0015041817,0.13560316,5.0323568e-05,0.0
21766760000,-0.0013971577,0.13565561,5.8488047e-05,0.0
21766960000,-0.0013950818,0.13570215,5.676895e-05,0.0
21767160000,-0.0014132399,0.13574363,8.508039e-05,0.0
21767360000,-0.0014978754,0.13575278,0.00010455082,0.0
21767560000,-0.0014468834,0.13578118,9.513462e-05,0.0
21767760000,-0.0013421637,0.13579482,9.213845e-05,0.0
21767960000,-0.0012753765,0.13580893,0.00010146798,0.0
21768156000,-0.0012419166,0.13584957,8.340254e-05,0.0
21768360000,-0.0012998672,0.13583687,8.7929206e-05,0.0
21768560000,-0.0012508032,0.13586207,0.00010249073,0.0
21768760000,-0.0012298179,0.13586676,8.0988124e-05,0.0
21768960000,-0.0012491231,0.1358385,4.7023143e-05,0.0
21769160000,-0.0012474599,0.13588548,4.9667495e-05,0.0
21769360000,-0.0012340324,0.13591366,2.7224594e-05,0.0
21769560000,-0.0011777516,0.13592257,4.908116e-05,0.0
21769760000,-0.0011168963,0.13593422,4.449949e-05,0.0
21769960000,-0.0012014332,0.1359774,3.4063367e-05,0.0
21770160000,-0.0011880245,0.13600244,4.0309194e-05,0.0
21770360000,-0.0011720083,0.13599643,2.2450658e-05,0.0
21770560000,-0.0010349349,0.1360153,3.0075714e-06,0.0
21770756000,-0.00096900016,0.13606459,-2.0160317e-06,0.0
21770960000,-0.0009879189,0.13607056,-1.0378305e-05,0.0
21771160000,-0.0009776161,0.13608156,-1.1720902e-06,0.0
21771356000,-0.00097451615,0.1361022,-3.495608e-05,0.0
21771560000,-0.0010028245,0.13609631,-2.4858575e-05,0.0
21771760000,-0.0009471901,0.136073,-4.9209906e-05,0.0
21771960000,-0.00092821836,0.13613474,-4.053928e-05,0.0
21772156000,-0.0009093063,0.13614659,-2.8270251e-05,0.0
21772360000,-0.0008731867,0.13614276,-2.7575974e-05,0.0
21772560000,-0.00089303293,0.1361961,-2.9930741e-05,0.0
21772760000,-0.0008671422,0.13620332,-2.3533816e-05,0.0
21772960000,-0.000851965,0.13619056,2.3165753e-06,0.0
21773160000,-0.0007982604,0.13618672,-3.3533677e-06,0.0
21773356000,-0.00088618667,0.13616905,2.8318955e-05,0.0
21773560000,-0.0008346678,0.13614658,6.729023e-05,0.0
21773756000,-0.0007733212,0.13616236,7.580725e-05,0.0
21773956000,-0.00071053114,0.1361597,7.381125e-05,0.0
21774160000,-0.0006724132,0.1361901,8.821884e-05,0.0
21774356000,-0.00066768524,0.136174,7.5041164e-05,0.0
21774560000,-0.0005975733,0.13611445,6.372878e-05,0.0
21774756000,-0.00055889937,0.13610923,4.9882485e-05,0.0
21774960000,-0.00056450703,0.13611701,7.362574e-05,0.0
21775160000,-0.00060306763,0.13609001,0.0001047574,0.0
21775360000,-0.00063838507,0.13609543,9.9006815e-05,0.0
21775556000,-0.0006254328,0.1360882,0.00010972271,0.0
21775760000,-0.00052227516,0.13606302,0.00014319776,0.0
21775956000,-0.0005454323,0.13602059,9.9880075e-05,0.0
21776160000,-0.0005814866,0.13600057,0.00012444655,0.0
21776360000,-0.0005325348,0.13600045,0.00011982538,0.0
21776556000,-0.00053702836,0.13599603,0.00013590894,0.0
21776756000,-0.00053036166,0.13595459,0.00010651461,0.0
21776960000,-0.0005555112,0.13597095,0.000116266936,0.0
21777160000,-0.0005369902,0.13594188,8.239268e-05,0.0
21777360000,-0.0005681112,0.13586774,9.4882584e-05,0.0
21777560000,-0.00053301745,0.13582277,7.670457e-05,0.0
21777760000,-0.0005701529,0.13579607,6.209185e-05,0.0
21777960000,-0.00067894626,0.13578686,7.7127144e-05,0.0
21778160000,-0.00057671184,0.1357901,2.7034079e-05,0.0
21778360000,-0.00059874373,0.13577631,2.7190408e-05,0.0
21778560000,-0.00059427036,0.13572922,1.2692551e-05,0.0
21778760000,-0.0004529397,0.13572168,3.9580873e-06,0.0
21778960000,-0.00043247305,0.13572332,-3.6594192e-05,0.0
21779160000,-0.0005583919,0.13570929,-3.194159e-05,0.0
21779360000,-0.00059511873,0.13566221,-2.6887932e-05,0.0
21779560000,-0.0005725824,0.13560602,-3.817229e-05,0.0
21779760000,-0.00057239004,0.13557094,-2.3977342e-05,0.0
21779960000,-0.0005932624,0.13551033,-5.8055535e-05,0.0
21780160000,-0.0005866866,0.13548408,-4.7468737e-05,0.0
21780360000,-0.0006153772,0.13545856,-4.979656e-05,0.0
21780560000,-0.0006562134,0.13543524,-4.9355778e-05,0.0
21780760000,-0.000614075,0.13537087,-2.9649513e-05,0.0
21780960000,-0.0005845,0.13533558,2.2959679e-05,0.0
21781160000,-0.0005185177,0.1352974,-2.6733287e-05,0.0
21781360000,-0.00063258,0.13526009,-2.6880696e-05,0.0
21781560000,-0.00065927114,0.1352229,2.9097453e-06,0.0
21781760000,-0.0007059223,0.1352083,-1.6527993e-05,0.0
21781960000,-0.0006969412,0.1351425,-1.2101458e-05,0.0
21782160000,-0.00073003117,0.13513577,-1.906105e-05,0.0
21782360000,-0.00069787295,0.13512696,-2.0823576e-05,0.0
21782556000,-0.00079245033,0.13511762,1.3718734e-06,0.0
21782760000,-0.00087650627,0.1350784,2.0104539e-05,0.0
21782960000,-0.0007843962,0.1350209,-1.5961451e-06,0.0
21783160000,-0.00084679044,0.13498338,1.4368838e-05,0.0
21783360000,-0.0007903288,0.13494755,-6.108193e-06,0.0
21783560000,-0.00086584914,0.13494217,-1.9615445e-05,0.0
21783760000,-0.0008812145,0.13491093,-1.5356907e-05,0.0
21783960000,-0.0008644424,0.13487278,3.949533e-05,0.0
21784160000,-0.0008604008,0.13482979,4.297237e-05,0.0
21784360000,-0.00097142335,0.13479951,3.0309337e-05,0.0
21784560000,-0.0009872941,0.13478556,4.570025e-05,0.0
21784760000,-0.00094472343,0.13476089,3.5629608e-05,0.0
21784960000,-0.00096396304,0.13471958,1.5285412e-05,0.0
21785156000,-0.00092150265,0.13471101,2.7343784e-05,0.0
21785356000,-0.0009439939,0.1346892,3.733611e-05,0.0
21785560000,-0.000904475,0.1346306,2.4437966e-05,0.0
21785760000,-0.0009749361,0.13458581,-6.997932e-06,0.0
21785960000,-0.0010393213,0.13456672,3.072917e-05,0.0
21786160000,-0.001026548,0.13451195,-1.2159307e-08,0.0
21786356000,-0.0010953775,0.1345162,-3.2743806e-06,0.0
21786560000,-0.0011191242,0.13452318,-2.7460925e-05,0.0
21786756000,-0.0010870137,0.13451032,-3.223559e-05,0.0
21786960000,-0.0011000581,0.13446656,-6.349882e-05,0.0
21787160000,-0.0011269038,0.13445333,-7.099465e-05,0.0
21787356000,-0.0011457904,0.13442746,-4.9642535e-05,0.0
21787560000,-0.0011946075,0.13438466,-7.25495e-05,0.0
21787760000,-0.0011911411,0.1343505,-7.226799e-05,0.0
21787960000,-0.0012709302,0.13433963,-5.4234668e-05,0.0
21788156000,-0.0013505874,0.13431138,-6.785188e-05,0.0
21788360000,-0.0013380161,0.13430281,-7.968874e-05,0.0
21788560000,-0.0013213803,0.13429488,-7.679383e-05,0.0
21788760000,-0.0013292413,0.13429981,-0.00011383763,0.0
21788960000,-0.0014517793,0.13429214,-0.00012897108,0.0
21789160000,-0.0014612674,0.1342604,-0.00011288672,0.0
21789360000,-0.0014507171,0.13424747,-0.00011313886,0.0
21789556000,-0.0014456179,0.13425416,-8.670898e-05,0.0
21789760000,-0.0014165711,0.13426013,-7.698726e-05,0.0
21789960000,-0.0013847118,0.13425216,-0.00011001888,0.0
21790160000,-0.0013961279,0.1342378,-0.000114613555,0.0
21790356000,-0.0013837111,0.13426374,-0.000104117185,0.0
21790560000,-0.0013902432,0.13426502,-0.0001275212,0.0
21790760000,-0.0013265881,0.13426036,-0.0001317921,0.0
21790960000,-0.0013733677,0.13427229,-0.000106480285,0.0
21791160000,-0.001369255,0.1342593,-0.000102388716,0.0
21791360000,-0.0013757767,0.13424973,-8.666652e-05,0.0
21791556000,-0.0012774304,0.13422413,-7.062018e-05,0.0
21791760000,-0.0011959205,0.13421223,-9.934207e-05,0.0
21791960000,-0.0012439556,0.13420328,-9.5782474e-05,0.0
21792160000,-0.0012041824,0.1342331,-0.00012404166,0.0
21792360000,-0.0011741789,0.1342376,-0.00011229236,0.0
21792560000,-0.0011500106,0.1342091,-8.879872e-05,0.0
21792760000,-0.0011751794,0.13422638,-5.3429372e-05,0.0
21792960000,-0.0012057653,0.13420786,-4.5524583e-05,0.0
21793156000,-0.0012173733,0.134229,-3.44345e-05,0.0
21793360000,-0.0011940873,0.13423617,-3.190665e-05,0.0
21793560000,-0.0011075579,0.13425432,-7.170407e-05,0.0
21793760000,-0.001064067,0.13424046,-6.24377e-05,0.0
21793960000,-0.0012795378,0.13423955,-5.469391e-05,0.0
21794160000,-0.0013249301,0.134236,-2.0271345e-05,0.0
21794360000,-0.0012728741,0.13425432,-1.7379765e-05,0.0
21794560000,-0.001255919,0.13429458,-2.4948556e-06,0.0
21794760000,-0.0012808685,0.13426782,-2.0209935e-05,0.0
21794960000,-0.0012534576,0.13425748,-9.188301e-06,0.0
21795160000,-0.0012491426,0.1342725,-2.6287978e-05,0.0
21795360000,-0.0012958726,0.13428728,-3.4213997e-05,0.0
21795560000,-0.0012810263,0.1342765,-3.5825833e-05,0.0
21795760000,-0.001258083,0.13431405,-1.5265985e-05,0.0
21795960000,-0.0012548525,0.13433492,1.932175e-05,0.0
21796160000,-0.0012212712,0.1343472,2.6656493e-05,0.0
21796360000,-0.0011929856,0.13434486,4.4681492e-05,0.0
21796560000,-0.0011692335,0.13436738,4.2344334e-05,0.0
21796756000,-0.0012502541,0.13433945,2.4987592e-05,0.0
21796960000,-0.0012735145,0.13436233,1.4051651e-05,0.0
21797156000,-0.0011711941,0.13436513,1.3586713e-05,0.0
21797360000,-0.0011857229,0.13432848,2.6273929e-05,0.0
21797560000,-0.0012039217,0.13431266,5.4150438e-05,0.0
21797760000,-0.0012292785,0.1343239,2.7441274e-05,0.0
21797956000,-0.0011888336,0.1343176,6.96274e-05,0.0
21798156000,-0.0012245183,0.13433325,5.8909325e-05,0.0
21798360000,-0.0012367172,0.13435268,3.2258118e-05,0.0
21798560000,-0.001248443,0.13434584,5.660518e-05,0.0
21798760000,-0.0011884718,0.13433935,2.2117798e-05,0.0
21798960000,-0.0011749851,0.13435888,3.4996618e-05,0.0
21799160000,-0.0011998288,0.13435744,4.7455815e-05,0.0
21799360000,-0.0011231523,0.13437633,4.0491337e-05,0.0
21799560000,-0.0010974818,0.13439542,2.5134055e-05,0.0
21799760000,-0.0012170478,0.13437872,4.7144502e-05,0.0
21799960000,-0.0012706239,0.13439141,4.1844298e-05,0.0
21800160000,-0.0012204639,0.1343676,5.7667086e-05,0.0
21800360000,-0.001178067,0.1343645,4.4983837e-05,0.0
21800560000,-0.001263599,0.13437071,3.0674088e-05,0.0
21800760000,-0.0013012837,0.13438012,1.8073653e-05,0.0
21800956000,-0.0013165005,0.13437505,4.8088223e-06,0.0
21801160000,-0.0013435761,0.1343864,-5.3764156e-06,0.0
21801360000,-0.0012554748,0.13437894,-1.57493e-05,0.0
21801560000,-0.0012772608,0.13439357,-1.5379488e-05,0.0
21801760000,-0.001371857,0.13438264,-5.0139824e-05,0.0
21801960000,-0.0014711329,0.1343891,-3.1228643e-05,0.0
21802156000,-0.0014798417,0.1343825,-5.3907417e-05,0.0
21802360000,-0.0014715613,0.1343417,-4.495744e-05,0.0
21802560000,-0.001512474,0.13435328,-3.055281e-05,0.0
21802760000,-0.0015524698,0.13438344,-3.6465783e-05,0.0
21802960000,-0.0015284696,0.13436012,-3.095932e-05,0.0
21803160000,-0.0016062154,0.13432883,-6.2998886e-05,0.0
21803360000,-0.0016284242,0.13428324,-4.8909562e-05,0.0
21803560000,-0.001632564,0.13428763,-5.4748132e-05,0.0
21803760000,-0.0015171244,0.13430923,-3.6547062e-05,0.0
21803960000,-0.0014579693,0.13431208,-6.706992e-05,0.0
21804160000,-0.0014889132,0.13430546,-0.0001146382,0.0
21804360000,-0.0016268002,0.13430358,-0.00011177065,0.0
21804556000,-0.0017495046,0.13429686,-6.300936e-05,0.0
21804760000,-0.001620107,0.13423376,-0.000107136286,0.0
21804956000,-0.0015630317,0.13418975,-0.00011603032,0.0
21805160000,-0.001688748,0.1341692,-0.00010311151,0.0
21805356000,-0.0017139292,0.13409254,-0.0001383857,0.0
21805560000,-0.0017573016,0.13407853,-0.00011488814,0.0
21805760000,-0.0017757771,0.13407409,-0.00015419775,0.0
21805956000,-0.0018425669,0.13402522,-0.00013820155,0.0
21806160000,-0.0018449057,0.1339742,-0.000103987935,0.0
21806360000,-0.001693132,0.13325442,-1.04376695e-05,0.0
21806560000,-0.00042214198,0.12387638,-0.003985438,0.0
21806756000,-0.013463155,0.12387638,-0.01829141,0.0
21806960000,-0.025123568,0.12463001,-0.013001007,0.0
21807156000,-0.015569663,0.11806507,-0.011243983,0.0
21807360000,-0.0132460045,0.11255985,-0.011997194,0.0
21807560000,-0.012955191,0.10681731,-0.011036778,0.0
21807760000,-0.013613353,0.09938493,-0.010018805,0.0
21807960000,-0.014702069,0.09119214,-0.009543314,0.0
21808160000,-0.012270417,0.07977662,-0.00876172,0.0
21808360000,-0.011571233,0.072382055,-0.0077142897,0.0
21808560000,-0.011390975,0.065067746,-0.0068967314,0.0
21808760000,-0.010625408,0.056651317,-0.0063176383,0.0
21808960000,-0.009649117,0.047485135,-0.0057471935,0.0
21809156000,-0.008382895,0.03892165,-0.005100083,0.0
21809360000,-0.007635159,0.029050084,-0.0042939223,0.0
21809556000,-0.007377456,0.019779164,-0.0037643046,0.0
21809760000,-0.0068167304,0.010485291,-0.003792812,0.0
21809960000,-0.005757995,0.001596688,-0.0033405784,0.0
21810160000,-0.005077456,-0.006295238,-0.0027633656,0.0
21810360000,-0.0045507895,-0.013244059,-0.0024428398,0.0
21810560000,-0.0037338915,-0.01930584,-0.00218302,0.0
21810760000,-0.0032898171,-0.025103346,-0.002296713,0.0
21810960000,-0.0022459514,-0.028961599,-0.0021684817,0.0
21811160000,-0.0014266002,-0.031885885,-0.001930347,0.0
21811356000,-0.0004093474,-0.034334615,-0.0015997457,0.0
21811556000,-9.911735e-06,-0.035647538,-0.0013938821,0.0
21811760000,0.00041198413,-0.036558513,-0.001296162,0.0
21811960000,0.00094052206,-0.036994927,-0.0011202125,0.0
21812160000,0.001254132,-0.036760785,-0.0010030966,0.0
21812360000,0.0015522764,-0.036010593,-0.0008523392,0.0
21812560000,0.0016762527,-0.034868382,-0.00071346713,0.0
21812760000,0.0017492627,-0.033475894,-0.00061713933,0.0
21812960000,0.0017423296,-0.031847566,-0.00047227522,0.0
21813160000,0.0016978653,-0.030110652,-0.00039553537,0.0
21813360000,0.0015220293,-0.028399814,-0.00032144517,0.0
21813556000,0.0014060705,-0.026678221,-0.00023461792,0.0
21813760000,0.0011224358,-0.02502133,-0.00020638976,0.0
21813960000,0.0008229284,-0.02348286,-0.00017390963,0.0
21814156000,0.00052723184,-0.022115419,-0.00016743128,0.0
21814360000,0.0003478715,-0.020865645,-0.00015427875,0.0
21814560000,1.3912407e-05,-0.01976951,-0.0001781799,0.0
21814760000,-0.00014355691,-0.018802892,-0.00018340512,0.0
21814956000,-0.00038667722,-0.017997174,-0.00016700431,0.0
21815160000,-0.0004864813,-0.017269604,-0.00019267458,0.0
21815360000,-0.00062790216,-0.016692704,-0.00019545494,0.0
21815560000,-0.00070641557,-0.016234871,-0.00020912923,0.0
21815756000,-0.0007738187,-0.015868776,-0.00022952708,0.0
21815960000,-0.0007729185,-0.015505709,-0.00022965095,0.0
21816156000,-0.0007136068,-0.015260365,-0.00022783257,0.0
21816360000,-0.00071854336,-0.015084491,-0.00021225246,0.0
21816560000,-0.00073864363,-0.01491596,-0.00020112297,0.0
21816756000,-0.00071729557,-0.01478609,-0.0001646497,0.0
21816960000,-0.00061572617,-0.014674336,-0.00016023054,0.0
21817160000,-0.00055689545,-0.014613468,-0.00016606196,0.0
21817360000,-0.00064954255,-0.01455005,-0.00016386736,0.0
21817560000,-0.0004985135,-0.014479781,-0.00013253753,0.0
21817760000,-0.0005128308,-0.014412089,-0.00015720142,0.0
21817960000,-0.0004214031,-0.014362371,-0.000143328,0.0
21818160000,-0.00033301674,-0.0142872855,-0.00013072192,0.0
21818360000,-0.00026575002,-0.014159543,-0.00013965162,0.0
21818560000,-0.00013733278,-0.014026898,-0.000116564515,0.0
21818760000,-3.1418585e-05,-0.013904438,-8.3501014e-05,0.0
21818960000,4.357398e-05,-0.013713133,-6.873464e-05,0.0
21819160000,0.0001258744,-0.013596645,-4.148585e-05,0.0
21819356000,0.00022545244,-0.013463337,-6.978533e-06,0.0
21819556000,0.00024849278,-0.013306143,-8.482827e-06,0.0
21819760000,0.0003273155,-0.013161926,-2.0175117e-05,0.0
21819960000,0.00041578824,-0.013063904,-7.1390355e-07,0.0
21820156000,0.0004363971,-0.012919476,1.1942297e-05,0.0
21820360000,0.0004271121,-0.012792929,5.0669964e-06,0.0
21820560000,0.00047030995,-0.012679896,1.9774257e-05,0.0
21820760000,0.0004286645,-0.012574155,2.33108e-05,0.0
21820960000,0.00039836304,-0.012503709,1.4775634e-05,0.0
21821160000,0.00044785123,-0.012444045,-3.628126e-06,0.0
21821360000,0.00045280688,-0.012400755,-2.0587374e-06,0.0
21821560000,0.00042135405,-0.01229879,-6.617755e-06,0.0
21821760000,0.00041447062,-0.012235283,6.750161e-06,0.0
21821960000,0.00041546332,-0.012183583,2.435557e-05,0.0
21822160000,0.00040749263,-0.012132672,1.643605e-05,0.0
21822356000,0.00036940034,-0.012078154,1.0276013e-05,0.0
21822560000,0.00046742373,-0.012041337,1.780443e-05,0.0
21822760000,0.000405766,-0.011941914,7.925803e-06,0.0
21822956000,0.00042274155,-0.011887249,5.645396e-06,0.0
21823160000,0.00039605735,-0.011824387,2.6037264e-05,0.0
21823356000,0.00041428255,-0.011734432,2.0904226e-05,0.0
21823560000,0.00034552792,-0.011653466,3.278878e-05,0.0
21823760000,0.00030679564,-0.0115798665,4.1437874e-05,0.0
21823960000,0.00025152863,-0.011487706,1.3703235e-05,0.0
21824160000,0.00022574623,-0.011390538,9.344721e-06,0.0
21824360000,0.0001326996,-0.011333883,-3.5469805e-06,0.0
21824560000,6.370199e-05,-0.011238435,-3.2641146e-05,0.0
21824760000,1.7295943e-05,-0.011204789,-2.6899987e-05,0.0
21824960000,-9.13496e-05,-0.011169384,-7.102624e-05,0.0
21825160000,-0.00020647868,-0.011173728,-5.909427e-05,0.0
21825356000,-0.0002587254,-0.011196633,-5.5441713e-05,0.0
21825560000,-0.00040254166,-0.011203722,-6.065889e-05,0.0
21825760000,-0.00044193197,-0.011290687,-9.543583e-05,0.0
21825960000,-0.0004534969,-0.011389459,-9.8966026e-05,0.0
21826160000,-0.0005009238,-0.011491649,-9.384807e-05,0.0
21826360000,-0.0006100606,-0.011569759,-0.000104827144,0.0
21826560000,-0.00071495085,-0.011671759,-8.917011e-05,0.0
21826760000,-0.000707006,-0.011724219,-7.277181e-05,0.0
21826956000,-0.00068831607,-0.011828247,-9.359453e-05,0.0
21827160000,-0.00065709476,-0.011906612,-8.4834464e-05,0.0
21827360000,-0.0006787116,-0.011958832,-9.1453156e-05,0.0
21827560000,-0.00061191956,-0.012044704,-9.77223e-05,0.0
21827756000,-0.00062691147,-0.0120903915,-9.2646165e-05,0.0
21827960000,-0.0006036836,-0.012100811,-0.00010194032,0.0
21828160000,-0.0005810361,-0.012101832,-7.013235e-05,0.0
21828360000,-0.00052715285,-0.01212896,-6.5142354e-05,0.0
21828560000,-0.00038592183,-0.012137114,-7.904319e-05,0.0
21828760000,-0.0003918887,-0.0121129425,-8.499315e-05,0.0
21828960000,-0.00035274806,-0.012086749,-8.86178e-05,0.0
21829160000,-0.00035003945,-0.012071111,-8.7210065e-05,0.0
21829360000,-0.0002422266,-0.012011227,-8.144937e-05,0.0
21829560000,-0.00023764868,-0.011953244,-7.819014e-05,0.0
21829756000,-0.00020551175,-0.011910214,-7.417411e-05,0.0
21829960000,-0.00015328161,-0.011871442,-8.056906e-05,0.0
21830160000,-5.616026e-05,-0.01180337,-7.17243e-05,0.0
21830360000,-8.3616935e-05,-0.011777759,-5.8509504e-05,0.0
21830556000,3.2517553e-05,-0.0117232585,-7.7795485e-05,0.0
21830760000,2.803025e-05,-0.011649126,-6.845706e-05,0.0
21830960000,9.049484e-05,-0.011587456,-6.543824e-05,0.0
21831160000,0.00013622506,-0.011566364,-5.1713338e-05,0.0
21831356000,0.00018489515,-0.011510589,-7.226129e-05,0.0
21831560000,0.0002442801,-0.011479113,-5.694588e-05,0.0
21831760000,0.00027618327,-0.011433733,-5.3707317e-05,0.0
21831960000,0.00034357872,-0.011390394,-5.3381897e-05,0.0
21832160000,0.00036125173,-0.011356893,-3.2151343e-05,0.0
21832360000,0.00038864947,-0.011376594,-1.9443818e-05,0.0
21832560000,0.00046062816,-0.011336632,2.5616193e-06,0.0
21832760000,0.0005066099,-0.011321205,1.645051e-05,0.0
21832960000,0.000615398,-0.011336777,1.5209603e-05,0.0
21833160000,0.00066385715,-0.011282552,4.6197023e-05,0.0
21833360000,0.0008041747,-0.011299492,3.8049086e-05,0.0
21833560000,0.0008026106,-0.011278637,2.8998746e-05,0.0
21833760000,0.0008324637,-0.011256074,4.337873e-05,0.0
21833960000,0.00079075963,-0.01125381,5.660072e-05,0.0
21834160000,0.0008066914,-0.011249182,5.3841723e-05,0.0
21834356000,0.00080573885,-0.011270266,5.0577273e-05,0.0
21834560000,0.0007503388,-0.0112512205,2.767259e-05,0.0
21834760000,0.0006930731,-0.011256383,1.4974238e-05,0.0
21834956000,0.00066231826,-0.0112595465,2.3560968e-05,0.0
21835160000,0.0005452101,-0.011268019,-5.289689e-06,0.0
21835360000,0.0005527014,-0.01129435,4.901418e-06,0.0
21835560000,0.0005337448,-0.0113112815,1.911772e-06,0.0
21835760000,0.00052735704,-0.011357253,1.256985e-05,0.0
21835960000,0.00052086555,-0.01140956,4.8927805e-06,0.0
21836160000,0.00051692844,-0.011400486,-4.8271477e-06,0.0
21836360000,0.00048806675,-0.011437589,1.8453951e-05,0.0
21836560000,0.00047913354,-0.011464,1.3521177e-05,0.0
21836760000,0.0004219213,-0.011532713,-9.819941e-06,0.0
21836956000,0.00037441353,-0.011596811,-9.4044015e-07,0.0
21837160000,0.000370875,-0.01165837,6.0638126e-06,0.0
21837360000,0.00028918177,-0.011720827,-1.0242847e-05,0.0
21837560000,0.0002442139,-0.011797785,-3.4273504e-05,0.0
21837760000,0.00023872354,-0.011894376,-1.819831e-05,0.0
21837960000,0.00018430511,-0.011971285,-2.7330741e-05,0.0
21838160000,0.00011847996,-0.012088183,-9.76224e-06,0.0
21838360000,5.175938e-05,-0.01208423,-1.8194221e-05,0.0
21838560000,6.087759e-05,-0.012105442,-1.0777191e-05,0.0
21838760000,5.272667e-05,-0.012171973,-1.6621636e-05,0.0
21838960000,8.789417e-06,-0.012188118,-3.346493e-05,0.0
21839160000,6.588294e-05,-0.012169327,-4.524342e-05,0.0
21839360000,-4.487244e-05,-0.012149694,-4.0447772e-05,0.0
21839560000,-6.8405345e-05,-0.012146661,-4.7921425e-05,0.0
21839760000,-0.00010221176,-0.012101871,-5.8438498e-05,0.0
21839960000,-0.00015006622,-0.012043495,-7.880449e-05,0.0
21840160000,-0.00014092866,-0.012016397,-5.594371e-05,0.0
21840360000,-0.00012331788,-0.011973279,-6.7499706e-05,0.0
21840556000,-0.00016090211,-0.011908924,-5.3233292e-05,0.0
21840760000,-0.00019411533,-0.011840475,-5.8112135e-05,0.0
21840960000,-0.00014669784,-0.011771277,-6.679271e-05,0.0
21841160000,-0.00013476158,-0.011694143,-7.196242e-05,0.0
21841356000,-6.406947e-05,-0.011640124,-6.998234e-05,0.0
21841556000,4.2109215e-05,-0.011555878,-7.858346e-05,0.0
21841760000,0.00014506285,-0.011563095,-5.6004417e-05,0.0
21841960000,0.0002721086,-0.011515869,-6.216353e-05,0.0
21842160000,0.0003959068,-0.011520437,-5.3083768e-05,0.0
21842360000,0.00052318646,-0.01148861,-3.991739e-05,0.0
21842556000,0.00066101656,-0.0114481505,-3.3912933e-05,0.0
21842760000,0.00079419144,-0.011472804,-2.8230657e-05,0.0
21842960000,0.00088355714,-0.011483398,1.5046032e-05,0.0
21843160000,0.0009527617,-0.0114811715,3.073955e-06,0.0
21843360000,0.0010605479,-0.0114975115,3.3918404e-05,0.0
21843560000,0.0010418792,-0.011478773,4.8243568e-05,0.0
21843760000,0.0009991932,-0.0114702,4.343183e-05,0.0
21843956000,0.00095825846,-0.011435721,5.109498e-05,0.0
21844156000,0.00086269097,-0.011428044,5.6934834e-05,0.0
21844360000,0.0008085882,-0.011405297,5.6235287e-05,0.0
21844560000,0.0007235572,-0.01132315,3.2997505e-05,0.0
21844760000,0.00064175326,-0.011286744,3.4309924e-05,0.0
21844960000,0.0005572393,-0.011230228,2.6545968e-05,0.0
21845160000,0.00045163135,-0.0111612445,2.6619655e-05,0.0
21845360000,0.000415923,-0.011105256,-6.563513e-07,0.0
21845560000,0.00033795135,-0.011068102,-1.5856616e-05,0.0
21845760000,0.00022615686,-0.011002449,-1.595691e-05,0.0
21845960000,0.0001983963,-0.010981149,-2.0015506e-05,0.0
21846160000,0.00022721889,-0.010939879,-4.2246415e-05,0.0
21846356000,0.00026340166,-0.010917479,-6.2713145e-05,0.0
21846556000,6.016892e-05,-0.010927406,-7.07754e-05,0.0
21846760000,-5.589724e-05,-0.010914373,-6.862286e-05,0.0
21846960000,-3.9086035e-06,-0.010958189,-6.0162103e-05,0.0
21847160000,-6.3029365e-05,-0.010983113,-8.5371415e-05,0.0
21847360000,-0.00017970697,-0.011065693,-0.00010433938,0.0
21847560000,-0.00012732357,-0.011137608,-9.589039e-05,0.0
21847760000,-4.9992603e-05,-0.011203105,-0.00011418025,0.0
21847960000,-8.178562e-05,-0.01127164,-0.00010020054,0.0
21848160000,-0.000111069676,-0.011336226,-9.887289e-05,0.0
21848360000,-0.0001588849,-0.011424824,-8.029936e-05,0.0
21848560000,-0.00021018923,-0.0114971595,-7.754206e-05,0.0
21848760000,-0.0002368217,-0.0115861045,-8.288383e-05,0.0
21848960000,-0.00022652294,-0.011657938,-7.4037715e-05,0.0
21849160000,-0.00014478184,-0.011730969,-9.2572314e-05,0.0
21849360000,-0.00020256793,-0.0117992,-7.6065524e-05,0.0
21849560000,-0.00024624862,-0.01185346,-8.524685e-05,0.0
21849760000,-0.00034797314,-0.01185564,-7.630075e-05,0.0
21849960000,-0.00039443505,-0.011886697,-9.2556904e-05,0.0
21850160000,-0.00038294186,-0.011890637,-7.5619886e-05,0.0
21850360000,-0.00032280694,-0.011899055,-7.401203e-05,0.0
21850556000,-0.00024074542,-0.0119013665,-6.3277934e-05,0.0
21850760000,-0.0002700792,-0.011940288,-5.9728784e-05,0.0
21850956000,-0.000256874,-0.01195127,-5.316958e-05,0.0
21851156000,-0.0002572825,-0.012001046,-5.4865122e-05,0.0
