timestamp,timestamp_sample,gps_hvel[0],gps_hvel[1],gps_vvel,gps_hpos[0],gps_hpos[1],gps_vpos,ev_hvel[0],ev_hvel[1],ev_vvel,ev_hpos[0],ev_hpos[1],ev_vpos,rng_vpos,baro_vpos,aux_hvel[0],aux_hvel[1],aux_vvel,flow[0],flow[1],heading,mag_field[0],mag_field[1],mag_field[2],drag[0],drag[1],airspeed,beta,hagl,hagl_rate
21726680000,21726600000,0.090134524,0.09013452,0.20263943,1.0012062,1.0012062,0.0,0.0,0.0,0.0,0.0,0.0,0.0,0.0,12.25307,0.0,0.0,nan,0.0,0.0,0.090320654,0.0025276758,0.0025353672,0.0025372524,0.0,0.0,0.0,0.0,0.0,0.0
21727176000,21727096000,0.09014338,0.09014338,0.20264894,1.001205,1.001205,0.0,0.0,0.0,0.0,0.0,0.0,0.0,0.0,12.253063,0.0,0.0,nan,0.0,0.0,0.090320766,0.0025276758,0.0025353672,0.0025372524,0.0,0.0,0.0,0.0,0.0,0.0
21727680000,21727600000,0.09014339,0.09014339,0.20264894,1.0012037,1.0012037,0.0,0.0,0.0,0.0,0.0,0.0,0.0,0.0,12.253059,0.0,0.0,nan,0.0,0.0,0.090320766,0.0025276758,0.0025353672,0.0025372524,0.0,0.0,0.0,0.0,0.0,0.0
21728184000,21728104000,0.09008256,0.09008256,0.20258452,1.0012025,1.0012023,0.0,0.0,0.0,0.0,0.0,0.0,0.0,0.0,12.253057,0.0,0.0,nan,0.0,0.0,0.09032076,0.0025276758,0.0025353672,0.0025372524,0.0,0.0,0.0,0.0,0.0,0.0
21728680000,21728600000,0.090074115,0.090074115,0.20257573,1.0012004,1.0012003,0.0,0.0,0.0,0.0,0.0,0.0,0.0,0.0,12.253049,0.0,0.0,nan,0.0,0.0,0.09032075,0.0025276758,0.0025353672,0.0025372524,0.0,0.0,0.0,0.0,0.0,0.0
21729184000,21729104000,0.09008255,0.090082556,0.20258452,1.0011997,1.0011997,0.0,0.0,0.0,0.0,0.0,0.0,0.0,0.0,12.253046,0.0,0.0,nan,0.0,0.0,0.09032075,0.0025276758,0.0025353672,0.0025372524,0.0,0.0,0.0,0.0,0.0,0.0
21729680000,21729600000,0.090024814,0.090024814,0.20252502,1.0011984,1.0011984,0.0,0.0,0.0,0.0,0.0,0.0,0.0,0.0,12.25304,0.0,0.0,nan,0.0,0.0,0.09032062,0.0025276758,0.0025353672,0.0025372524,0.0,0.0,0.0,0.0,0.0,0.0
21730184000,21730104000,0.09002482,0.09002482,0.20252502,1.0011971,1.0011971,0.0,0.0,0.0,0.0,0.0,0.0,0.0,0.0,12.2530365,0.0,0.0,nan,0.0,0.0,0.09032038,0.0025276758,0.0025353672,0.0025372524,0.0,0.0,0.0,0.0,0.0,0.0
21730680000,21730600000,0.09019806,0.090198055,0.20270804,1.0011978,1.0011978,0.0,0.0,0.0,0.0,0.0,0.0,0.0,0.0,12.253031,0.0,0.0,nan,0.0,0.0,0.09032037,0.0025276758,0.0025353672,0.0025372524,0.0,0.0,0.0,0.0,0.0,0.0
21731184000,21731104000,0.090198025,0.090198025,0.20270804,1.0011965,1.0011965,0.0,0.0,0.0,0.0,0.0,0.0,0.0,0.0,12.253027,0.0,0.0,nan,0.0,0.0,0.09032025,0.0025276758,0.0025353672,0.0025372524,0.0,0.0,0.0,0.0,0.0,0.0
21731680000,21731600000,0.090188794,0.090188794,0.20269793,1.001195,1.001195,0.0,0.0,0.0,0.0,0.0,0.0,0.0,0.0,12.253023,0.0,0.0,nan,0.0,0.0,0.09032038,0.0025276758,0.0025353672,0.0025372524,0.0,0.0,0.0,0.0,0.0,0.0
21732184000,21732104000,0.09013449,0.09013448,0.20263943,1.0011933,1.0011933,0.0,0.0,0.0,0.0,0.0,0.0,0.0,0.0,12.253017,0.0,0.0,nan,0.0,0.0,0.09032038,0.0025276758,0.0025353672,0.0025372524,0.0,0.0,0.0,0.0,0.0,0.0
21732680000,21732600000,0.0901345,0.0901345,0.20263943,1.0011914,1.0011914,0.0,0.0,0.0,0.0,0.0,0.0,0.0,0.0,12.253014,0.0,0.0,nan,0.0,0.0,0.090320244,0.0025276758,0.0025353672,0.0025372524,0.0,0.0,0.0,0.0,0.0,0.0
21733184000,21733104000,0.090082526,0.090082526,0.20258452,1.001191,1.001191,0.0,0.0,0.0,0.0,0.0,0.0,0.0,0.0,12.253011,0.0,0.0,nan,0.0,0.0,0.09032025,0.0025276758,0.0025353672,0.0025372524,0.0,0.0,0.0,0.0,0.0,0.0
21733680000,21733600000,0.09094982,0.090949796,0.20357531,1.0013264,1.0013264,0.0,0.0,0.0,0.0,0.0,0.0,0.0,0.0,12.253178,0.0,0.0,nan,0.0,0.0,0.0903204,0.0025276758,0.0025353672,0.0025372524,0.0,0.0,0.0,0.0,0.0,0.0
21734184000,21734104000,0.09177178,0.09177173,0.2045527,1.0018119,1.0018119,0.0,0.0,0.0,0.0,0.0,0.0,0.0,0.0,12.254087,0.0,0.0,nan,0.0,0.0,0.09032054,0.0025276758,0.0025353672,0.0025372524,0.0,0.0,0.0,0.0,0.0,0.0
21734680000,21734600000,0.093460575,0.09346053,0.20625608,1.0036298,1.0036298,0.0,0.0,0.0,0.0,0.0,0.0,0.0,0.0,12.256195,0.0,0.0,nan,0.0,0.0,0.09032067,0.0025276758,0.0025353672,0.0025372524,0.0,0.0,0.0,0.0,0.0,0.0
21735184000,21735104000,0.09485314,0.094852634,0.20765845,1.0061777,1.0061777,0.0,0.0,0.0,0.0,0.0,0.0,0.0,0.0,12.260853,0.0,0.0,nan,0.0,0.0,0.0903208,0.0025276758,0.0025353672,0.0025372524,0.0,0.0,0.0,0.0,0.0,0.0
21735680000,21735600000,0.096224405,0.09622415,0.20984398,1.0120062,1.012006,0.0,0.0,0.0,0.0,0.0,0.0,0.0,0.0,12.267429,0.0,0.0,nan,0.0,0.0,0.09839515,0.0025276758,0.0025353672,0.0025372524,0.0,0.0,0.0,0.0,0.0,0.0
21736184000,21736104000,0.09645624,0.096448764,0.21123765,1.0168172,1.0168171,0.0,0.0,0.0,0.0,0.0,0.0,0.0,0.0,12.278215,0.0,0.0,nan,0.0,0.0,0.0950785,0.0025276758,0.0025353672,0.0025372524,0.0,0.0,0.0,0.0,0.0,0.0
21736680000,21736600000,0.09839015,0.09835882,0.21303649,1.0243379,1.0243367,0.0,0.0,0.0,0.0,0.0,0.0,0.0,0.0,12.289051,0.0,0.0,nan,0.0,0.0,0.0936407,0.0025276758,0.0025353672,0.0025372524,0.0,0.0,0.0,0.0,0.0,0.0
21737176000,21737096000,0.100653075,0.100602336,0.21428631,1.030295,1.03029,0.0,0.0,0.0,0.0,0.0,0.0,0.0,0.0,12.304794,0.0,0.0,nan,0.0,0.0,0.09283789,0.0025276758,0.0025353672,0.0025372524,0.0,0.0,0.0,0.0,0.0,0.0
21737680000,21737600000,0.10241932,0.10236124,0.21517864,1.037525,1.0375159,0.0,0.0,0.0,0.0,0.0,0.0,0.0,0.0,12.318965,0.0,0.0,nan,0.0,0.0,0.092325516,0.0025276758,0.0025353672,0.0025372524,0.0,0.0,0.0,0.0,0.0,0.0
21738184000,21738104000,0.10283137,0.102774076,0.21533948,1.0397184,1.0397083,0.0,0.0,0.0,0.0,0.0,0.0,0.0,0.0,12.341055,0.0,0.0,nan,0.0,0.0,0.09197033,0.0025276758,0.0025353672,0.0025372524,0.0,0.0,0.0,0.0,0.0,0.0
21738680000,21738600000,0.10479438,0.10464553,0.21619241,1.049807,1.0497906,0.0,0.0,0.0,0.0,0.0,0.0,0.0,0.0,12.350742,0.0,0.0,nan,0.0,0.0,0.09170807,0.0025276758,0.0025353672,0.0025372524,0.0,0.0,0.0,0.0,0.0,0.0
21739176000,21739096000,0.104703605,0.104020104,0.21602695,1.0521454,1.0521286,0.0,0.0,0.0,0.0,0.0,0.0,0.0,0.0,12.365461,0.0,0.0,nan,0.0,0.0,0.09149693,0.0025276758,0.0025353672,0.0025372524,0.0,0.0,0.0,0.0,0.0,0.0
21739680000,21739600000,0.108175784,0.10581027,0.21636698,1.0597562,1.0597347,0.0,0.0,0.0,0.0,0.0,0.0,0.0,0.0,12.377474,0.0,0.0,nan,0.0,0.0,0.09143499,0.0030414066,0.003047076,0.0030533979,0.0,0.0,0.0,0.0,0.0,0.0
21740184000,21740104000,0.10714318,0.10570314,0.21601878,1.0604752,1.0604689,0.0,0.0,0.0,0.0,0.0,0.0,0.0,0.0,12.387802,0.0,0.0,nan,0.0,0.0,0.09143499,0.0027203036,0.0027203006,0.0027182025,0.0,0.0,0.0,0.0,0.0,0.0
21740680000,21740600000,0.105380476,0.1047184,0.21572527,1.0610434,1.061036,0.0,0.0,0.0,0.0,0.0,0.0,0.0,0.0,12.398002,0.0,0.0,nan,0.0,0.0,0.09143499,0.0026390618,0.0026378634,0.0026357118,0.0,0.0,0.0,0.0,0.0,0.0
21741184000,21741104000,0.10481586,0.104604445,0.21605206,1.0664784,1.0664239,0.0,0.0,0.0,0.0,0.0,0.0,0.0,0.0,12.405093,0.0,0.0,nan,0.0,0.0,0.09143499,0.002600429,0.0025996147,0.002598164,0.0,0.0,0.0,0.0,0.0,0.0
21741680000,21741600000,0.10255396,0.10259511,0.21561095,1.0654721,1.0654207,0.0,0.0,0.0,0.0,0.0,0.0,0.0,0.0,12.4061165,0.0,0.0,nan,0.0,0.0,0.09143499,0.0025788397,0.0025780252,0.002576954,0.0,0.0,0.0,0.0,0.0,0.0
21742184000,21742104000,0.102054015,0.102116905,0.21547017,1.0651938,1.0651429,0.0,0.0,0.0,0.0,0.0,0.0,0.0,0.0,12.418048,0.0,0.0,nan,0.0,0.0,0.09143499,0.0025651127,0.0025642423,0.0025633082,0.0,0.0,0.0,0.0,0.0,0.0
21742680000,21742600000,0.10167275,0.101713255,0.21574444,1.0685084,1.0684539,0.0,0.0,0.0,0.0,0.0,0.0,0.0,0.0,12.414951,0.0,0.0,nan,0.0,0.0,0.09143499,0.0025556178,0.0025546858,0.0025538616,0.0,0.0,0.0,0.0,0.0,0.0
21743176000,21743096000,0.10107504,0.10104221,0.21561396,1.067272,1.0672269,0.0,0.0,0.0,0.0,0.0,0.0,0.0,0.0,12.4176445,0.0,0.0,nan,0.0,0.0,0.09143499,0.0025486688,0.0025476755,0.002546897,0.0,0.0,0.0,0.0,0.0,0.0
21743680000,21743600000,0.101539046,0.10136618,0.21599604,1.0706072,1.0705812,0.0,0.0,0.0,0.0,0.0,0.0,0.0,0.0,12.419392,0.0,0.0,nan,0.0,0.0,0.09143499,0.0025427297,0.0025416606,0.0025409989,0.0,0.0,0.0,0.0,0.0,0.0
21744184000,21744104000,0.1011543,0.10088597,0.21581127,1.0691171,1.0690994,0.0,0.0,0.0,0.0,0.0,0.0,0.0,0.0,12.4212885,0.0,0.0,nan,0.0,0.0,0.09143499,0.0025386875,0.0025376093,0.0025368158,0.0,0.0,0.0,0.0,0.0,0.0
21744680000,21744600000,0.10084687,0.10052016,0.21567915,1.0674309,1.0674201,0.0,0.0,0.0,0.0,0.0,0.0,0.0,0.0,12.423932,0.0,0.0,nan,0.0,0.0,0.09143499,0.0025354738,0.002534318,0.0025335574,0.0,0.0,0.0,0.0,0.0,0.0
21745176000,21745096000,0.10164279,0.10118894,0.2162286,1.0707252,1.0707182,0.0,0.0,0.0,0.0,0.0,0.0,0.0,0.0,12.4241905,0.0,0.0,nan,0.0,0.0,0.09143499,0.0025327941,0.002531613,0.0025308193,0.0,0.0,0.0,0.0,0.0,0.0
21745680000,21745600000,0.10115944,0.100711666,0.21596025,1.0681313,1.0681219,0.0,0.0,0.0,0.0,0.0,0.0,0.0,0.0,12.421532,0.0,0.0,nan,0.0,0.0,0.09097053,0.0025324572,0.0025312721,0.0025304693,0.0,0.0,0.0,0.0,0.0,0.0
21746184000,21746104000,0.10212417,0.10162174,0.21648598,1.0721645,1.0721325,0.0,0.0,0.0,0.0,0.0,0.0,0.0,0.0,12.426583,0.0,0.0,nan,0.0,0.0,0.0908832,0.0025324572,0.0025312721,0.0025304693,0.0,0.0,0.0,0.0,0.0,0.0
21746680000,21746600000,0.10143798,0.101034895,0.2161443,1.0693401,1.0693073,0.0,0.0,0.0,0.0,0.0,0.0,0.0,0.0,12.422895,0.0,0.0,nan,0.0,0.0,0.090823516,0.0025324572,0.0025312721,0.0025304693,0.0,0.0,0.0,0.0,0.0,0.0
21747184000,21747104000,0.10113845,0.10079369,0.21596101,1.0677743,1.0677387,0.0,0.0,0.0,0.0,0.0,0.0,0.0,0.0,12.423259,0.0,0.0,nan,0.0,0.0,0.090754405,0.0025324572,0.0025312721,0.0025304693,0.0,0.0,0.0,0.0,0.0,0.0
21747680000,21747600000,0.10178847,0.10147959,0.21626918,1.0707138,1.0706497,0.0,0.0,0.0,0.0,0.0,0.0,0.0,0.0,12.423472,0.0,0.0,nan,0.0,0.0,0.090705566,0.0025324572,0.0025312721,0.0025304693,0.0,0.0,0.0,0.0,0.0,0.0
21748184000,21748104000,0.10134596,0.101101235,0.2160292,1.0688794,1.0688207,0.0,0.0,0.0,0.0,0.0,0.0,0.0,0.0,12.424278,0.0,0.0,nan,0.0,0.0,0.09066396,0.0025324572,0.0025312721,0.0025304693,0.0,0.0,0.0,0.0,0.0,0.0
21748680000,21748600000,0.10215422,0.10194224,0.21637553,1.072411,1.0723239,0.0,0.0,0.0,0.0,0.0,0.0,0.0,0.0,12.424985,0.0,0.0,nan,0.0,0.0,0.09062778,0.0025324572,0.0025312721,0.0025304693,0.0,0.0,0.0,0.0,0.0,0.0
21749176000,21749096000,0.10156149,0.10140168,0.21607095,1.0702243,1.0701518,0.0,0.0,0.0,0.0,0.0,0.0,0.0,0.0,12.425534,0.0,0.0,nan,0.0,0.0,0.090596296,0.0025324572,0.0025312721,0.0025304693,0.0,0.0,0.0,0.0,0.0,0.0
21749680000,21749600000,0.1010103,0.10090873,0.21565686,1.0677541,1.0676938,0.0,0.0,0.0,0.0,0.0,0.0,0.0,0.0,12.425678,0.0,0.0,nan,0.0,0.0,0.090569116,0.0025324572,0.0025312721,0.0025304693,0.0,0.0,0.0,0.0,0.0,0.0
21750176000,21750096000,0.101916336,0.10181602,0.21607709,1.0718104,1.0717331,0.0,0.0,0.0,0.0,0.0,0.0,0.0,0.0,12.426856,0.0,0.0,nan,0.0,0.0,0.090545155,0.0025324572,0.0025312721,0.0025304693,0.0,0.0,0.0,0.0,0.0,0.0
21750680000,21750600000,0.10116344,0.101107135,0.21568967,1.0688921,1.0688331,0.0,0.0,0.0,0.0,0.0,0.0,0.0,0.0,12.42213,0.0,0.0,nan,0.0,0.0,0.09052397,0.0025324572,0.0025312721,0.0025304693,0.0,0.0,0.0,0.0,0.0,0.0
21751184000,21751104000,0.100996464,0.10094913,0.21552853,1.0681188,1.0680642,0.0,0.0,0.0,0.0,0.0,0.0,0.0,0.0,12.42857,0.0,0.0,nan,0.0,0.0,0.09050523,0.0025324572,0.0025312721,0.0025304693,0.0,0.0,0.0,0.0,0.0,0.0
21751680000,21751600000,0.10129793,0.10126492,0.21560565,1.0700026,1.0699517,0.0,0.0,0.0,0.0,0.0,0.0,0.0,0.0,12.424021,0.0,0.0,nan,0.0,0.0,0.09048572,0.0025324572,0.0025312721,0.0025304693,0.0,0.0,0.0,0.0,0.0,0.0
21752184000,21752104000,0.10097134,0.100945495,0.21537785,1.0685358,1.0684932,0.0,0.0,0.0,0.0,0.0,0.0,0.0,0.0,12.424439,0.0,0.0,nan,0.0,0.0,0.090470895,0.0025324572,0.0025312721,0.0025304693,0.0,0.0,0.0,0.0,0.0,0.0
21752680000,21752600000,0.101710156,0.1016856,0.21567442,1.0718596,1.0718156,0.0,0.0,0.0,0.0,0.0,0.0,0.0,0.0,12.426227,0.0,0.0,nan,0.0,0.0,0.09045741,0.0025324572,0.0025312721,0.0025304693,0.0,0.0,0.0,0.0,0.0,0.0
21753176000,21753096000,0.1011848,0.10116444,0.21537806,1.0697951,1.0697597,0.0,0.0,0.0,0.0,0.0,0.0,0.0,0.0,12.425501,0.0,0.0,nan,0.0,0.0,0.09044518,0.0025324572,0.0025312721,0.0025304693,0.0,0.0,0.0,0.0,0.0,0.0
21753680000,21753600000,0.100836515,0.10081873,0.21513197,1.068151,1.0681216,0.0,0.0,0.0,0.0,0.0,0.0,0.0,0.0,12.426332,0.0,0.0,nan,0.0,0.0,0.090433985,0.0025324572,0.0025312721,0.0025304693,0.0,0.0,0.0,0.0,0.0,0.0
21754184000,21754104000,0.10144741,0.10143038,0.21534038,1.0713086,1.0712782,0.0,0.0,0.0,0.0,0.0,0.0,0.0,0.0,12.426531,0.0,0.0,nan,0.0,0.0,0.09042374,0.0025324572,0.0025312721,0.0025304693,0.0,0.0,0.0,0.0,0.0,0.0
21754680000,21754600000,0.10082317,0.10080973,0.21491913,1.0685323,1.0685093,0.0,0.0,0.0,0.0,0.0,0.0,0.0,0.0,12.426777,0.0,0.0,nan,0.0,0.0,0.090414226,0.0025324572,0.0025312721,0.0025304693,0.0,0.0,0.0,0.0,0.0,0.0
21755176000,21755096000,0.100683935,0.10067123,0.21485198,1.0677942,1.067773,0.0,0.0,0.0,0.0,0.0,0.0,0.0,0.0,12.428556,0.0,0.0,nan,0.0,0.0,0.090405464,0.0025324572,0.0025312721,0.0025304693,0.0,0.0,0.0,0.0,0.0,0.0
21755680000,21755600000,0.101056956,0.101045385,0.21495038,1.0697813,1.0697614,0.0,0.0,0.0,0.0,0.0,0.0,0.0,0.0,12.423097,0.0,0.0,nan,0.0,0.0,0.090397246,0.0025324572,0.0025312721,0.0025304693,0.0,0.0,0.0,0.0,0.0,0.0
21756184000,21756104000,0.10072447,0.10071516,0.21473452,1.0681376,1.0681205,0.0,0.0,0.0,0.0,0.0,0.0,0.0,0.0,12.4237995,0.0,0.0,nan,0.0,0.0,0.09038963,0.0025324572,0.0025312721,0.0025304693,0.0,0.0,0.0,0.0,0.0,0.0
21756680000,21756600000,0.101337,0.10132839,0.21495523,1.0712864,1.0712675,0.0,0.0,0.0,0.0,0.0,0.0,0.0,0.0,12.423541,0.0,0.0,nan,0.0,0.0,0.09038271,0.0025324572,0.0025312721,0.0025304693,0.0,0.0,0.0,0.0,0.0,0.0
21757184000,21757104000,0.100896135,0.10088955,0.21472552,1.0693357,1.0693196,0.0,0.0,0.0,0.0,0.0,0.0,0.0,0.0,12.42429,0.0,0.0,nan,0.0,0.0,0.0903763,0.0025324572,0.0025312721,0.0025304693,0.0,0.0,0.0,0.0,0.0,0.0
21757680000,21757600000,0.10060239,0.10059848,0.21453679,1.0677757,1.0677617,0.0,0.0,0.0,0.0,0.0,0.0,0.0,0.0,12.423736,0.0,0.0,nan,0.0,0.0,0.09037023,0.0025324572,0.0025312721,0.0025304693,0.0,0.0,0.0,0.0,0.0,0.0
21758184000,21758104000,0.10119426,0.10119331,0.21474169,1.0707288,1.0707129,0.0,0.0,0.0,0.0,0.0,0.0,0.0,0.0,12.424956,0.0,0.0,nan,0.0,0.0,0.09036394,0.0025324572,0.0025312721,0.0025304693,0.0,0.0,0.0,0.0,0.0,0.0
21758680000,21758600000,0.100641266,0.10064432,0.21441084,1.068118,1.0681052,0.0,0.0,0.0,0.0,0.0,0.0,0.0,0.0,12.42436,0.0,0.0,nan,0.0,0.0,0.09035886,0.0025324572,0.0025312721,0.0025304693,0.0,0.0,0.0,0.0,0.0,0.0
21759176000,21759096000,0.10154439,0.10154973,0.21480188,1.0724202,1.0724041,0.0,0.0,0.0,0.0,0.0,0.0,0.0,0.0,12.425198,0.0,0.0,nan,0.0,0.0,0.0903542,0.0025324572,0.0025312721,0.0025304693,0.0,0.0,0.0,0.0,0.0,0.0
21759680000,21759600000,0.100821756,0.100829214,0.21444666,1.0693129,1.0693007,0.0,0.0,0.0,0.0,0.0,0.0,0.0,0.0,12.420728,0.0,0.0,nan,0.0,0.0,0.09034997,0.0025324572,0.0025312721,0.0025304693,0.0,0.0,0.0,0.0,0.0,0.0
21760176000,21760096000,0.10053089,0.10053988,0.21428742,1.0677555,1.0677446,0.0,0.0,0.0,0.0,0.0,0.0,0.0,0.0,12.421299,0.0,0.0,nan,0.0,0.0,0.09034599,0.0025324572,0.0025312721,0.0025304693,0.0,0.0,0.0,0.0,0.0,0.0
21760680000,21760600000,0.10112621,0.10113838,0.21458142,1.0707027,1.0706908,0.0,0.0,0.0,0.0,0.0,0.0,0.0,0.0,12.422118,0.0,0.0,nan,0.0,0.0,0.09034224,0.0025324572,0.0025312721,0.0025304693,0.0,0.0,0.0,0.0,0.0,0.0
21761184000,21761104000,0.100739,0.10075269,0.21439698,1.06887,1.0688598,0.0,0.0,0.0,0.0,0.0,0.0,0.0,0.0,12.422122,0.0,0.0,nan,0.0,0.0,0.09033889,0.0025324572,0.0025312721,0.0025304693,0.0,0.0,0.0,0.0,0.0,0.0
21761680000,21761600000,0.101493515,0.10151222,0.21467496,1.0723906,1.0723795,0.0,0.0,0.0,0.0,0.0,0.0,0.0,0.0,12.422583,0.0,0.0,nan,0.0,0.0,0.09033581,0.0025324572,0.0025312721,0.0025304693,0.0,0.0,0.0,0.0,0.0,0.0
21762176000,21762096000,0.1009222,0.10094137,0.21443212,1.0699568,1.0699478,0.0,0.0,0.0,0.0,0.0,0.0,0.0,0.0,12.42386,0.0,0.0,nan,0.0,0.0,0.09033281,0.0025324572,0.0025312721,0.0025304693,0.0,0.0,0.0,0.0,0.0,0.0
21762680000,21762600000,0.10045826,0.100478865,0.21422254,1.0675161,1.067509,0.0,0.0,0.0,0.0,0.0,0.0,0.0,0.0,12.419634,0.0,0.0,nan,0.0,0.0,0.09033016,0.0025324572,0.0025312721,0.0025304693,0.0,0.0,0.0,0.0,0.0,0.0
21763184000,21763104000,0.10136722,0.101393275,0.21454766,1.0718073,1.0717992,0.0,0.0,0.0,0.0,0.0,0.0,0.0,0.0,12.42471,0.0,0.0,nan,0.0,0.0,0.09032735,0.0025324572,0.0025312721,0.0025304693,0.0,0.0,0.0,0.0,0.0,0.0
21763680000,21763600000,0.10071415,0.100740895,0.2143072,1.0688815,1.0688757,0.0,0.0,0.0,0.0,0.0,0.0,0.0,0.0,12.420818,0.0,0.0,nan,0.0,0.0,0.09032518,0.0025324572,0.0025312721,0.0025304693,0.0,0.0,0.0,0.0,0.0,0.0
21764184000,21764104000,0.10056977,0.100597,0.2141952,1.0681053,1.0681,0.0,0.0,0.0,0.0,0.0,0.0,0.0,0.0,12.426482,0.0,0.0,nan,0.0,0.0,0.09032353,0.0025324572,0.0025312721,0.0025304693,0.0,0.0,0.0,0.0,0.0,0.0
21764680000,21764600000,0.100946724,0.10097907,0.21438803,1.0702101,1.0702057,0.0,0.0,0.0,0.0,0.0,0.0,0.0,0.0,12.421021,0.0,0.0,nan,0.0,0.0,0.09032196,0.0025324572,0.0025312721,0.0025304693,0.0,0.0,0.0,0.0,0.0,0.0
21765176000,21765096000,0.10059998,0.10063257,0.21422872,1.0684725,1.0684689,0.0,0.0,0.0,0.0,0.0,0.0,0.0,0.0,12.421928,0.0,0.0,nan,0.0,0.0,0.09032077,0.0025324572,0.0025312721,0.0025304693,0.0,0.0,0.0,0.0,0.0,0.0
21765680000,21765600000,0.10132341,0.101363026,0.21448742,1.0717608,1.0717583,0.0,0.0,0.0,0.0,0.0,0.0,0.0,0.0,12.422356,0.0,0.0,nan,0.0,0.0,0.090319544,0.0025324572,0.0025312721,0.0025304693,0.0,0.0,0.0,0.0,0.0,0.0
21766184000,21766104000,0.10085297,0.10089127,0.21430047,1.0697094,1.0697076,0.0,0.0,0.0,0.0,0.0,0.0,0.0,0.0,12.422708,0.0,0.0,nan,0.0,0.0,0.09031848,0.0025324572,0.0025312721,0.0025304693,0.0,0.0,0.0,0.0,0.0,0.0
21766680000,21766600000,0.1005348,0.1005728,0.21414861,1.0680727,1.0680714,0.0,0.0,0.0,0.0,0.0,0.0,0.0,0.0,12.423574,0.0,0.0,nan,0.0,0.0,0.09031746,0.0025324572,0.0025312721,0.0025304693,0.0,0.0,0.0,0.0,0.0,0.0
21767176000,21767096000,0.10114563,0.10118919,0.21440463,1.0712026,1.071203,0.0,0.0,0.0,0.0,0.0,0.0,0.0,0.0,12.4234295,0.0,0.0,nan,0.0,0.0,0.09031657,0.0025324572,0.0025312721,0.0025304693,0.0,0.0,0.0,0.0,0.0,0.0
21767680000,21767600000,0.10057172,0.10061318,0.21419203,1.068445,1.0684458,0.0,0.0,0.0,0.0,0.0,0.0,0.0,0.0,12.420488,0.0,0.0,nan,0.0,0.0,0.09031576,0.0025324572,0.0025312721,0.0025304693,0.0,0.0,0.0,0.0,0.0,0.0
21768176000,21768096000,0.10145455,0.10150315,0.21458435,1.0727144,1.0727174,0.0,0.0,0.0,0.0,0.0,0.0,0.0,0.0,12.424111,0.0,0.0,nan,0.0,0.0,0.09031504,0.0025324572,0.0025312721,0.0025304693,0.0,0.0,0.0,0.0,0.0,0.0
21768680000,21768600000,0.10074934,0.10079412,0.21427014,1.0695506,1.0695533,0.0,0.0,0.0,0.0,0.0,0.0,0.0,0.0,12.420197,0.0,0.0,nan,0.0,0.0,0.09031468,0.0025324572,0.0025312721,0.0025304693,0.0,0.0,0.0,0.0,0.0,0.0
21769184000,21769104000,0.10040906,0.1004525,0.21409763,1.0677005,1.0677031,0.0,0.0,0.0,0.0,0.0,0.0,0.0,0.0,12.420705,0.0,0.0,nan,0.0,0.0,0.09031429,0.0025324572,0.0025312721,0.0025304693,0.0,0.0,0.0,0.0,0.0,0.0
21769680000,21769600000,0.10105069,0.10109995,0.21436624,1.070855,1.0708597,0.0,0.0,0.0,0.0,0.0,0.0,0.0,0.0,12.421503,0.0,0.0,nan,0.0,0.0,0.09031402,0.0025324572,0.0025312721,0.0025304693,0.0,0.0,0.0,0.0,0.0,0.0
21770184000,21770104000,0.10066348,0.10071032,0.21420696,1.0689843,1.0689887,0.0,0.0,0.0,0.0,0.0,0.0,0.0,0.0,12.421067,0.0,0.0,nan,0.0,0.0,0.090313844,0.0025324572,0.0025312721,0.0025304693,0.0,0.0,0.0,0.0,0.0,0.0
21770680000,21770600000,0.1014126,0.10146609,0.21450481,1.072462,1.0724692,0.0,0.0,0.0,0.0,0.0,0.0,0.0,0.0,12.421621,0.0,0.0,nan,0.0,0.0,0.090313874,0.0025324572,0.0025312721,0.0025304693,0.0,0.0,0.0,0.0,0.0,0.0
21771184000,21771104000,0.100906305,0.100955814,0.21432011,1.0702568,1.0702631,0.0,0.0,0.0,0.0,0.0,0.0,0.0,0.0,12.422561,0.0,0.0,nan,0.0,0.0,0.09031375,0.0025324572,0.0025312721,0.0025304693,0.0,0.0,0.0,0.0,0.0,0.0
21771680000,21771600000,0.10044259,0.100489445,0.21407188,1.0677619,1.0677674,0.0,0.0,0.0,0.0,0.0,0.0,0.0,0.0,12.422692,0.0,0.0,nan,0.0,0.0,0.090313815,0.0025324572,0.0025312721,0.0025304693,0.0,0.0,0.0,0.0,0.0,0.0
21772184000,21772104000,0.101290256,0.101344526,0.2144448,1.0717719,1.0717804,0.0,0.0,0.0,0.0,0.0,0.0,0.0,0.0,12.422344,0.0,0.0,nan,0.0,0.0,0.09031383,0.0025324572,0.0025312721,0.0025304693,0.0,0.0,0.0,0.0,0.0,0.0
21772680000,21772600000,0.10065287,0.10070191,0.2141667,1.0688493,1.0688564,0.0,0.0,0.0,0.0,0.0,0.0,0.0,0.0,12.419695,0.0,0.0,nan,0.0,0.0,0.09031404,0.0025324572,0.0025312721,0.0025304693,0.0,0.0,0.0,0.0,0.0,0.0
21773176000,21773096000,0.10051194,0.1005601,0.21413746,1.0680736,1.0680804,0.0,0.0,0.0,0.0,0.0,0.0,0.0,0.0,12.423198,0.0,0.0,nan,0.0,0.0,0.09031432,0.0025324572,0.0025312721,0.0025304693,0.0,0.0,0.0,0.0,0.0,0.0
21773680000,21773600000,0.100900345,0.10095216,0.21428743,1.0701898,1.0701985,0.0,0.0,0.0,0.0,0.0,0.0,0.0,0.0,12.420864,0.0,0.0,nan,0.0,0.0,0.09031447,0.0025324572,0.0025312721,0.0025304693,0.0,0.0,0.0,0.0,0.0,0.0
21774184000,21774104000,0.10051302,0.10056176,0.2141765,1.068213,1.0682205,0.0,0.0,0.0,0.0,0.0,0.0,0.0,0.0,12.421467,0.0,0.0,nan,0.0,0.0,0.090314865,0.0025324572,0.0025312721,0.0025304693,0.0,0.0,0.0,0.0,0.0,0.0
21774680000,21774600000,0.10129549,0.10135128,0.21447586,1.0717539,1.0717646,0.0,0.0,0.0,0.0,0.0,0.0,0.0,0.0,12.421968,0.0,0.0,nan,0.0,0.0,0.09031531,0.0025324572,0.0025312721,0.0025304693,0.0,0.0,0.0,0.0,0.0,0.0
21775184000,21775104000,0.10082707,0.10087872,0.21429208,1.069702,1.0697112,0.0,0.0,0.0,0.0,0.0,0.0,0.0,0.0,12.423271,0.0,0.0,nan,0.0,0.0,0.09031579,0.0025324572,0.0025312721,0.0025304693,0.0,0.0,0.0,0.0,0.0,0.0
21775680000,21775600000,0.10051331,0.10056306,0.21414177,1.0680648,1.0680729,0.0,0.0,0.0,0.0,0.0,0.0,0.0,0.0,12.423719,0.0,0.0,nan,0.0,0.0,0.090316184,0.0025324572,0.0025312721,0.0025304693,0.0,0.0,0.0,0.0,0.0,0.0
21776176000,21776096000,0.10112192,0.10117693,0.21439472,1.0711893,1.0712001,0.0,0.0,0.0,0.0,0.0,0.0,0.0,0.0,12.423548,0.0,0.0,nan,0.0,0.0,0.09031676,0.0025324572,0.0025312721,0.0025304693,0.0,0.0,0.0,0.0,0.0,0.0
21776680000,21776600000,0.10055629,0.10060704,0.21418908,1.068433,1.0684419,0.0,0.0,0.0,0.0,0.0,0.0,0.0,0.0,12.419313,0.0,0.0,nan,0.0,0.0,0.090317495,0.0025324572,0.0025312721,0.0025304693,0.0,0.0,0.0,0.0,0.0,0.0
21777176000,21777096000,0.10043197,0.1004819,0.21408913,1.067699,1.0677073,0.0,0.0,0.0,0.0,0.0,0.0,0.0,0.0,12.424021,0.0,0.0,nan,0.0,0.0,0.09031825,0.0025324572,0.0025312721,0.0025304693,0.0,0.0,0.0,0.0,0.0,0.0
21777680000,21777600000,0.10081274,0.10086645,0.21427613,1.0696713,1.0696814,0.0,0.0,0.0,0.0,0.0,0.0,0.0,0.0,12.421454,0.0,0.0,nan,0.0,0.0,0.09031876,0.0025324572,0.0025312721,0.0025304693,0.0,0.0,0.0,0.0,0.0,0.0
21778184000,21778104000,0.10050125,0.100552805,0.21412766,1.0680399,1.068049,0.0,0.0,0.0,0.0,0.0,0.0,0.0,0.0,12.421868,0.0,0.0,nan,0.0,0.0,0.090319574,0.0025324572,0.0025312721,0.0025304693,0.0,0.0,0.0,0.0,0.0,0.0
21778680000,21778600000,0.10110822,0.101165265,0.2143825,1.0711663,1.0711781,0.0,0.0,0.0,0.0,0.0,0.0,0.0,0.0,12.422531,0.0,0.0,nan,0.0,0.0,0.09032026,0.0025324572,0.0025312721,0.0025304693,0.0,0.0,0.0,0.0,0.0,0.0
21779184000,21779104000,0.10065396,0.1007069,0.21418394,1.0690105,1.0690206,0.0,0.0,0.0,0.0,0.0,0.0,0.0,0.0,12.422429,0.0,0.0,nan,0.0,0.0,0.09032082,0.0025324572,0.0025312721,0.0025304693,0.0,0.0,0.0,0.0,0.0,0.0
21779680000,21779600000,0.100431845,0.10048372,0.21408758,1.0677212,1.0677304,0.0,0.0,0.0,0.0,0.0,0.0,0.0,0.0,12.42166,0.0,0.0,nan,0.0,0.0,0.09032154,0.0025324572,0.0025312721,0.0025304693,0.0,0.0,0.0,0.0,0.0,0.0
21780176000,21780096000,0.101020895,0.101078406,0.21433477,1.0706539,1.0706661,0.0,0.0,0.0,0.0,0.0,0.0,0.0,0.0,12.422145,0.0,0.0,nan,0.0,0.0,0.09032212,0.0025324572,0.0025312721,0.0025304693,0.0,0.0,0.0,0.0,0.0,0.0
21780680000,21780600000,0.1004964,0.100549474,0.21414444,1.0680543,1.0680643,0.0,0.0,0.0,0.0,0.0,0.0,0.0,0.0,12.41985,0.0,0.0,nan,0.0,0.0,0.090323016,0.0025324572,0.0025312721,0.0025304693,0.0,0.0,0.0,0.0,0.0,0.0
21781176000,21781096000,0.10138123,0.101442695,0.21454185,1.0723304,1.0723448,0.0,0.0,0.0,0.0,0.0,0.0,0.0,0.0,12.424453,0.0,0.0,nan,0.0,0.0,0.09032389,0.0025324572,0.0025312721,0.0025304693,0.0,0.0,0.0,0.0,0.0,0.0
21781680000,21781600000,0.100692414,0.10074775,0.214232,1.0692629,1.0692741,0.0,0.0,0.0,0.0,0.0,0.0,0.0,0.0,12.4209585,0.0,0.0,nan,0.0,0.0,0.090324774,0.0025324572,0.0025312721,0.0025304693,0.0,0.0,0.0,0.0,0.0,0.0
21782176000,21782096000,0.100411564,0.100464925,0.21409269,1.0677083,1.0677184,0.0,0.0,0.0,0.0,0.0,0.0,0.0,0.0,12.42143,0.0,0.0,nan,0.0,0.0,0.09032565,0.0025324572,0.0025312721,0.0025304693,0.0,0.0,0.0,0.0,0.0,0.0
21782680000,21782600000,0.10099755,0.1010565,0.21440125,1.0706393,1.0706525,0.0,0.0,0.0,0.0,0.0,0.0,0.0,0.0,12.422183,0.0,0.0,nan,0.0,0.0,0.09032654,0.0025324572,0.0025312721,0.0025304693,0.0,0.0,0.0,0.0,0.0,0.0
21783184000,21783104000,0.10061388,0.10066966,0.21423793,1.0688146,1.0688261,0.0,0.0,0.0,0.0,0.0,0.0,0.0,0.0,12.422591,0.0,0.0,nan,0.0,0.0,0.09032741,0.0025324572,0.0025312721,0.0025304693,0.0,0.0,0.0,0.0,0.0,0.0
21783680000,21783600000,0.101305105,0.1013679,0.21449271,1.0720532,1.0720685,0.0,0.0,0.0,0.0,0.0,0.0,0.0,0.0,12.4229355,0.0,0.0,nan,0.0,0.0,0.090328276,0.0025324572,0.0025312721,0.0025304693,0.0,0.0,0.0,0.0,0.0,0.0
21784184000,21784104000,0.10085759,0.100916,0.21433343,1.0701634,1.0701764,0.0,0.0,0.0,0.0,0.0,0.0,0.0,0.0,12.424079,0.0,0.0,nan,0.0,0.0,0.09032899,0.0025324572,0.0025312721,0.0025304693,0.0,0.0,0.0,0.0,0.0,0.0
21784680000,21784600000,0.1003889,0.10044352,0.21414,1.0676961,1.0677072,0.0,0.0,0.0,0.0,0.0,0.0,0.0,0.0,12.420238,0.0,0.0,nan,0.0,0.0,0.09032984,0.0025324572,0.0025312721,0.0025304693,0.0,0.0,0.0,0.0,0.0,0.0
21785184000,21785104000,0.10122915,0.101292014,0.21450378,1.0717053,1.0717208,0.0,0.0,0.0,0.0,0.0,0.0,0.0,0.0,12.424667,0.0,0.0,nan,0.0,0.0,0.090330675,0.0025324572,0.0025312721,0.0025304693,0.0,0.0,0.0,0.0,0.0,0.0
21785680000,21785600000,0.10059635,0.1006532,0.21420051,1.0688021,1.0688146,0.0,0.0,0.0,0.0,0.0,0.0,0.0,0.0,12.421961,0.0,0.0,nan,0.0,0.0,0.0903315,0.0025324572,0.0025312721,0.0025304693,0.0,0.0,0.0,0.0,0.0,0.0
21786184000,21786104000,0.100458,0.100513764,0.21416587,1.0680306,1.0680424,0.0,0.0,0.0,0.0,0.0,0.0,0.0,0.0,12.425642,0.0,0.0,nan,0.0,0.0,0.09033231,0.0025324572,0.0025312721,0.0025304693,0.0,0.0,0.0,0.0,0.0,0.0
21786680000,21786600000,0.10083967,0.10089917,0.21429524,1.0701301,1.0701443,0.0,0.0,0.0,0.0,0.0,0.0,0.0,0.0,12.421929,0.0,0.0,nan,0.0,0.0,0.09033295,0.0025324572,0.0025312721,0.0025304693,0.0,0.0,0.0,0.0,0.0,0.0
21787184000,21787104000,0.10050905,0.10056542,0.21414149,1.0684031,1.0684155,0.0,0.0,0.0,0.0,0.0,0.0,0.0,0.0,12.422266,0.0,0.0,nan,0.0,0.0,0.09033373,0.0025324572,0.0025312721,0.0025304693,0.0,0.0,0.0,0.0,0.0,0.0
21787680000,21787600000,0.10123022,0.10129405,0.21447664,1.0716797,1.0716963,0.0,0.0,0.0,0.0,0.0,0.0,0.0,0.0,12.422554,0.0,0.0,nan,0.0,0.0,0.09033433,0.0025324572,0.0025312721,0.0025304693,0.0,0.0,0.0,0.0,0.0,0.0
21788184000,21788104000,0.100771844,0.10083096,0.21429378,1.0696422,1.0696563,0.0,0.0,0.0,0.0,0.0,0.0,0.0,0.0,12.4241295,0.0,0.0,nan,0.0,0.0,0.09033506,0.0025324572,0.0025312721,0.0025304693,0.0,0.0,0.0,0.0,0.0,0.0
21788680000,21788600000,0.10046666,0.100522995,0.21414383,1.0680143,1.0680268,0.0,0.0,0.0,0.0,0.0,0.0,0.0,0.0,12.424434,0.0,0.0,nan,0.0,0.0,0.090335794,0.0025324572,0.0025312721,0.0025304693,0.0,0.0,0.0,0.0,0.0,0.0
21789176000,21789096000,0.101078436,0.10114048,0.2144719,1.0711386,1.0711546,0.0,0.0,0.0,0.0,0.0,0.0,0.0,0.0,12.424566,0.0,0.0,nan,0.0,0.0,0.09033605,0.0025324572,0.0025312721,0.0025304693,0.0,0.0,0.0,0.0,0.0,0.0
21789680000,21789600000,0.10051968,0.10057626,0.21418121,1.0683953,1.0684084,0.0,0.0,0.0,0.0,0.0,0.0,0.0,0.0,12.421406,0.0,0.0,nan,0.0,0.0,0.090336435,0.0025324572,0.0025312721,0.0025304693,0.0,0.0,0.0,0.0,0.0,0.0
21790184000,21790104000,0.10039812,0.100453615,0.21414886,1.0676643,1.0676768,0.0,0.0,0.0,0.0,0.0,0.0,0.0,0.0,12.42593,0.0,0.0,nan,0.0,0.0,0.090336815,0.0025324572,0.0025312721,0.0025304693,0.0,0.0,0.0,0.0,0.0,0.0
21790680000,21790600000,0.10077741,0.100836426,0.21426076,1.0696396,1.0696542,0.0,0.0,0.0,0.0,0.0,0.0,0.0,0.0,12.421788,0.0,0.0,nan,0.0,0.0,0.09033727,0.0025324572,0.0025312721,0.0025304693,0.0,0.0,0.0,0.0,0.0,0.0
21791184000,21791104000,0.10047269,0.10052881,0.2141166,1.0680128,1.0680258,0.0,0.0,0.0,0.0,0.0,0.0,0.0,0.0,12.421681,0.0,0.0,nan,0.0,0.0,0.09033777,0.0025324572,0.0025312721,0.0025304693,0.0,0.0,0.0,0.0,0.0,0.0
21791680000,21791600000,0.10104154,0.10110293,0.2144244,1.0709083,1.0709244,0.0,0.0,0.0,0.0,0.0,0.0,0.0,0.0,12.421902,0.0,0.0,nan,0.0,0.0,0.09033808,0.0025324572,0.0025312721,0.0025304693,0.0,0.0,0.0,0.0,0.0,0.0
21792184000,21792104000,0.10063694,0.10069439,0.21419019,1.0690063,1.0690202,0.0,0.0,0.0,0.0,0.0,0.0,0.0,0.0,12.421892,0.0,0.0,nan,0.0,0.0,0.09033854,0.0025324572,0.0025312721,0.0025304693,0.0,0.0,0.0,0.0,0.0,0.0
21792680000,21792600000,0.1003664,0.10042159,0.21405803,1.0674809,1.0674933,0.0,0.0,0.0,0.0,0.0,0.0,0.0,0.0,12.423274,0.0,0.0,nan,0.0,0.0,0.090339124,0.0025324572,0.0025312721,0.0025304693,0.0,0.0,0.0,0.0,0.0,0.0
21793184000,21793104000,0.10100764,0.101069234,0.21440256,1.0706699,1.0706856,0.0,0.0,0.0,0.0,0.0,0.0,0.0,0.0,12.423594,0.0,0.0,nan,0.0,0.0,0.09033954,0.0025324572,0.0025312721,0.0025304693,0.0,0.0,0.0,0.0,0.0,0.0
21793680000,21793600000,0.10047907,0.1005358,0.21413237,1.0680652,1.0680782,0.0,0.0,0.0,0.0,0.0,0.0,0.0,0.0,12.420223,0.0,0.0,nan,0.0,0.0,0.09033994,0.0025324572,0.0025312721,0.0025304693,0.0,0.0,0.0,0.0,0.0,0.0
21794176000,21794096000,0.10136309,0.10142872,0.21452804,1.0723387,1.0723567,0.0,0.0,0.0,0.0,0.0,0.0,0.0,0.0,12.424321,0.0,0.0,nan,0.0,0.0,0.09034015,0.0025324572,0.0025312721,0.0025304693,0.0,0.0,0.0,0.0,0.0,0.0
21794680000,21794600000,0.100672595,0.10073113,0.21422453,1.0692472,1.0692613,0.0,0.0,0.0,0.0,0.0,0.0,0.0,0.0,12.420912,0.0,0.0,nan,0.0,0.0,0.09034051,0.0025324572,0.0025312721,0.0025304693,0.0,0.0,0.0,0.0,0.0,0.0
21795184000,21795104000,0.100399025,0.10045521,0.21408792,1.0676945,1.0677071,0.0,0.0,0.0,0.0,0.0,0.0,0.0,0.0,12.421405,0.0,0.0,nan,0.0,0.0,0.090341,0.0025324572,0.0025312721,0.0025304693,0.0,0.0,0.0,0.0,0.0,0.0
21795680000,21795600000,0.10099352,0.10105544,0.21439736,1.0706246,1.0706404,0.0,0.0,0.0,0.0,0.0,0.0,0.0,0.0,12.420834,0.0,0.0,nan,0.0,0.0,0.09034145,0.0025324572,0.0025312721,0.0025304693,0.0,0.0,0.0,0.0,0.0,0.0
21796176000,21796096000,0.10062074,0.10067888,0.21423525,1.0688022,1.068816,0.0,0.0,0.0,0.0,0.0,0.0,0.0,0.0,12.422598,0.0,0.0,nan,0.0,0.0,0.09034189,0.0025324572,0.0025312721,0.0025304693,0.0,0.0,0.0,0.0,0.0,0.0
21796680000,21796600000,0.101370834,0.10143672,0.21453275,1.0723045,1.0723225,0.0,0.0,0.0,0.0,0.0,0.0,0.0,0.0,12.422101,0.0,0.0,nan,0.0,0.0,0.090341836,0.0025324572,0.0025312721,0.0025304693,0.0,0.0,0.0,0.0,0.0,0.0
21797184000,21797104000,0.10086647,0.10092729,0.21435025,1.0701344,1.0701494,0.0,0.0,0.0,0.0,0.0,0.0,0.0,0.0,12.422589,0.0,0.0,nan,0.0,0.0,0.09034208,0.0025324572,0.0025312721,0.0025304693,0.0,0.0,0.0,0.0,0.0,0.0
21797680000,21797600000,0.100406714,0.10046375,0.2140981,1.0676758,1.0676882,0.0,0.0,0.0,0.0,0.0,0.0,0.0,0.0,12.423104,0.0,0.0,nan,0.0,0.0,0.09034247,0.0025324572,0.0025312721,0.0025304693,0.0,0.0,0.0,0.0,0.0,0.0
21798184000,21798104000,0.10125008,0.10131565,0.2144641,1.071688,1.0717053,0.0,0.0,0.0,0.0,0.0,0.0,0.0,0.0,12.424445,0.0,0.0,nan,0.0,0.0,0.090342514,0.0025324572,0.0025312721,0.0025304693,0.0,0.0,0.0,0.0,0.0,0.0
21798680000,21798600000,0.10061609,0.100675374,0.21417417,1.0687913,1.0688049,0.0,0.0,0.0,0.0,0.0,0.0,0.0,0.0,12.419692,0.0,0.0,nan,0.0,0.0,0.09034271,0.0025324572,0.0025312721,0.0025304693,0.0,0.0,0.0,0.0,0.0,0.0
21799184000,21799104000,0.100478604,0.100536525,0.2141442,1.0680214,1.0680343,0.0,0.0,0.0,0.0,0.0,0.0,0.0,0.0,12.424524,0.0,0.0,nan,0.0,0.0,0.090342775,0.0025324572,0.0025312721,0.0025304693,0.0,0.0,0.0,0.0,0.0,0.0
21799680000,21799600000,0.10087081,0.10093226,0.21435897,1.0701478,1.070163,0.0,0.0,0.0,0.0,0.0,0.0,0.0,0.0,12.421063,0.0,0.0,nan,0.0,0.0,0.090342924,0.0025324572,0.0025312721,0.0025304693,0.0,0.0,0.0,0.0,0.0,0.0
21800184000,21800104000,0.10053441,0.10059288,0.21420644,1.0684191,1.0684323,0.0,0.0,0.0,0.0,0.0,0.0,0.0,0.0,12.421582,0.0,0.0,nan,0.0,0.0,0.090343215,0.0025324572,0.0025312721,0.0025304693,0.0,0.0,0.0,0.0,0.0,0.0
21800680000,21800600000,0.10125011,0.10131602,0.21447079,1.0716987,1.0717163,0.0,0.0,0.0,0.0,0.0,0.0,0.0,0.0,12.422027,0.0,0.0,nan,0.0,0.0,0.09034347,0.0025324572,0.0025312721,0.0025304693,0.0,0.0,0.0,0.0,0.0,0.0
21801184000,21801104000,0.100787014,0.10084801,0.21428944,1.0696579,1.0696727,0.0,0.0,0.0,0.0,0.0,0.0,0.0,0.0,12.422848,0.0,0.0,nan,0.0,0.0,0.09034356,0.0025324572,0.0025312721,0.0025304693,0.0,0.0,0.0,0.0,0.0,0.0
21801680000,21801600000,0.100479975,0.1005376,0.21414278,1.0680282,1.0680413,0.0,0.0,0.0,0.0,0.0,0.0,0.0,0.0,12.421973,0.0,0.0,nan,0.0,0.0,0.09034364,0.0025324572,0.0025312721,0.0025304693,0.0,0.0,0.0,0.0,0.0,0.0
21802184000,21802104000,0.101101376,0.10116528,0.21441117,1.0711762,1.0711929,0.0,0.0,0.0,0.0,0.0,0.0,0.0,0.0,12.423777,0.0,0.0,nan,0.0,0.0,0.09034355,0.0025324572,0.0025312721,0.0025304693,0.0,0.0,0.0,0.0,0.0,0.0
21802680000,21802600000,0.10054223,0.100600325,0.2141339,1.0684431,1.0684566,0.0,0.0,0.0,0.0,0.0,0.0,0.0,0.0,12.423293,0.0,0.0,nan,0.0,0.0,0.09034359,0.0025324572,0.0025312721,0.0025304693,0.0,0.0,0.0,0.0,0.0,0.0
21803184000,21803104000,0.10037179,0.10042821,0.21407306,1.0674719,1.0674844,0.0,0.0,0.0,0.0,0.0,0.0,0.0,0.0,12.424316,0.0,0.0,nan,0.0,0.0,0.09034363,0.0025324572,0.0025312721,0.0025304693,0.0,0.0,0.0,0.0,0.0,0.0
21803680000,21803600000,0.10080245,0.100862965,0.21429802,1.0696955,1.0697104,0.0,0.0,0.0,0.0,0.0,0.0,0.0,0.0,12.420476,0.0,0.0,nan,0.0,0.0,0.09034348,0.0025324572,0.0025312721,0.0025304693,0.0,0.0,0.0,0.0,0.0,0.0
21804184000,21804104000,0.100490905,0.100547776,0.21415268,1.0680586,1.0680717,0.0,0.0,0.0,0.0,0.0,0.0,0.0,0.0,12.421394,0.0,0.0,nan,0.0,0.0,0.09034364,0.0025324572,0.0025312721,0.0025304693,0.0,0.0,0.0,0.0,0.0,0.0
21804680000,21804600000,0.1011056,0.1011685,0.21441796,1.0712044,1.071221,0.0,0.0,0.0,0.0,0.0,0.0,0.0,0.0,12.421344,0.0,0.0,nan,0.0,0.0,0.090343475,0.0025324572,0.0025312721,0.0025304693,0.0,0.0,0.0,0.0,0.0,0.0
21805184000,21805104000,0.1006894,0.100747734,0.21424727,1.0692629,1.069277,0.0,0.0,0.0,0.0,0.0,0.0,0.0,0.0,12.422674,0.0,0.0,nan,0.0,0.0,0.09034347,0.0025324572,0.0025312721,0.0025304693,0.0,0.0,0.0,0.0,0.0,0.0
21805680000,21805600000,0.100421675,0.10047796,0.21411005,1.0677279,1.0677407,0.0,0.0,0.0,0.0,0.0,0.0,0.0,0.0,12.423167,0.0,0.0,nan,0.0,0.0,0.09034344,0.0025324572,0.0025312721,0.0025304693,0.0,0.0,0.0,0.0,0.0,0.0
21806184000,21806104000,0.10101001,0.10107201,0.21441475,1.0706576,1.0706735,0.0,0.0,0.0,0.0,0.0,0.0,0.0,0.0,12.423472,0.0,0.0,nan,0.0,0.0,0.09034326,0.0025324572,0.0025312721,0.0025304693,0.0,0.0,0.0,0.0,0.0,0.0
21806680000,21806600000,0.099850625,0.0998972,0.21412106,1.0681074,1.0681202,0.0,0.0,0.0,0.0,0.0,0.0,0.0,0.0,12.419672,0.0,0.0,nan,0.0,0.0,0.09034362,0.0025324572,0.0025312721,0.0025304693,0.0,0.0,0.0,0.0,0.0,0.0
21807176000,21807096000,0.10066242,0.100307584,0.21330155,1.0722363,1.0722532,0.0,0.0,0.0,0.0,0.0,0.0,0.0,0.0,12.423264,0.0,0.0,nan,0.0,0.0,0.09034566,0.0028625454,0.0030334936,0.0030818048,0.0,0.0,0.0,0.0,0.0,0.0
21807680000,21807600000,0.10378015,0.10050466,0.21200013,1.0690541,1.0690614,0.0,0.0,0.0,0.0,0.0,0.0,0.0,0.0,12.419393,0.0,0.0,nan,0.0,0.0,0.09034566,0.002678299,0.0027000713,0.0027111373,0.0,0.0,0.0,0.0,0.0,0.0
21808176000,21808096000,0.103264205,0.10108979,0.21156749,1.0672699,1.0672469,0.0,0.0,0.0,0.0,0.0,0.0,0.0,0.0,12.4189005,0.0,0.0,nan,0.0,0.0,0.09034566,0.0026390024,0.002627904,0.002641378,0.0,0.0,0.0,0.0,0.0,0.0
21808680000,21808600000,0.10385573,0.10256639,0.21169652,1.0704753,1.0703241,0.0,0.0,0.0,0.0,0.0,0.0,0.0,0.0,12.418317,0.0,0.0,nan,0.0,0.0,0.09034566,0.0025973246,0.002595237,0.0026009236,0.0,0.0,0.0,0.0,0.0,0.0
21809184000,21809104000,0.1036849,0.10271926,0.21185768,1.0686876,1.0685275,0.0,0.0,0.0,0.0,0.0,0.0,0.0,0.0,12.417664,0.0,0.0,nan,0.0,0.0,0.09034566,0.0025910682,0.0025752764,0.0025789177,0.0,0.0,0.0,0.0,0.0,0.0
21809680000,21809600000,0.104772165,0.104059465,0.21258993,1.0721222,1.0718513,0.0,0.0,0.0,0.0,0.0,0.0,0.0,0.0,12.41593,0.0,0.0,nan,0.0,0.0,0.09034566,0.0025695902,0.002562466,0.0025671758,0.0,0.0,0.0,0.0,0.0,0.0
21810184000,21810104000,0.103812024,0.103462584,0.21296874,1.0702734,1.0700194,0.0,0.0,0.0,0.0,0.0,0.0,0.0,0.0,12.4157095,0.0,0.0,nan,0.0,0.0,0.09034566,0.0025536108,0.0025532749,0.0025537037,0.0,0.0,0.0,0.0,0.0,0.0
21810680000,21810600000,0.10315867,0.10282762,0.21360949,1.0678914,1.0676703,0.0,0.0,0.0,0.0,0.0,0.0,0.0,0.0,12.412758,0.0,0.0,nan,0.0,0.0,0.09034566,0.0025468993,0.0025477041,0.002547538,0.0,0.0,0.0,0.0,0.0,0.0
21811184000,21811104000,0.104771435,0.10403455,0.2144329,1.0720686,1.071882,0.0,0.0,0.0,0.0,0.0,0.0,0.0,0.0,12.415965,0.0,0.0,nan,0.0,0.0,0.09034566,0.0025438152,0.0025409532,0.002542093,0.0,0.0,0.0,0.0,0.0,0.0
21811680000,21811600000,0.10410529,0.10307557,0.21492021,1.0691231,1.0689957,0.0,0.0,0.0,0.0,0.0,0.0,0.0,0.0,12.414252,0.0,0.0,nan,0.0,0.0,0.09034566,0.0025420338,0.0025371949,0.0025383527,0.0,0.0,0.0,0.0,0.0,0.0
21812184000,21812104000,0.1039321,0.102819785,0.21510346,1.0683455,1.0682374,0.0,0.0,0.0,0.0,0.0,0.0,0.0,0.0,12.418144,0.0,0.0,nan,0.0,0.0,0.09034566,0.002544604,0.0025339571,0.0025372368,0.0,0.0,0.0,0.0,0.0,0.0
21812680000,21812600000,0.104465015,0.10307794,0.21602474,1.0705727,1.0705218,0.0,0.0,0.0,0.0,0.0,0.0,0.0,0.0,12.414163,0.0,0.0,nan,0.0,0.0,0.09026187,0.0025442468,0.0025320228,0.0025359031,0.0,0.0,0.0,0.0,0.0,0.0
21813184000,21813104000,0.10361396,0.10238336,0.21612203,1.0688133,1.0687745,0.0,0.0,0.0,0.0,0.0,0.0,0.0,0.0,12.415468,0.0,0.0,nan,0.0,0.0,0.090250075,0.0025442468,0.0025320228,0.0025359031,0.0,0.0,0.0,0.0,0.0,0.0
21813680000,21813600000,0.10409738,0.102934256,0.21676284,1.0722964,1.0722387,0.0,0.0,0.0,0.0,0.0,0.0,0.0,0.0,12.415685,0.0,0.0,nan,0.0,0.0,0.090239786,0.0025442468,0.0025320228,0.0025359031,0.0,0.0,0.0,0.0,0.0,0.0
21814176000,21814096000,0.10295709,0.102062054,0.2166941,1.0701765,1.0701245,0.0,0.0,0.0,0.0,0.0,0.0,0.0,0.0,12.417524,0.0,0.0,nan,0.0,0.0,0.09023151,0.0025442468,0.0025320228,0.0025359031,0.0,0.0,0.0,0.0,0.0,0.0
21814680000,21814600000,0.10214715,0.10143678,0.21661869,1.0685,1.0684488,0.0,0.0,0.0,0.0,0.0,0.0,0.0,0.0,12.419314,0.0,0.0,nan,0.0,0.0,0.090225756,0.0025442468,0.0025320228,0.0025359031,0.0,0.0,0.0,0.0,0.0,0.0
21815176000,21815096000,0.10246519,0.10184344,0.21721163,1.0717496,1.0716592,0.0,0.0,0.0,0.0,0.0,0.0,0.0,0.0,12.420806,0.0,0.0,nan,0.0,0.0,0.09022139,0.0025442468,0.0025320228,0.0025359031,0.0,0.0,0.0,0.0,0.0,0.0
21815680000,21815600000,0.101428494,0.100985594,0.21685821,1.0688838,1.0688051,0.0,0.0,0.0,0.0,0.0,0.0,0.0,0.0,12.418205,0.0,0.0,nan,0.0,0.0,0.09021678,0.0025442468,0.0025320228,0.0025359031,0.0,0.0,0.0,0.0,0.0,0.0
21816184000,21816104000,0.10119776,0.10079404,0.21681057,1.0681229,1.0680461,0.0,0.0,0.0,0.0,0.0,0.0,0.0,0.0,12.424452,0.0,0.0,nan,0.0,0.0,0.090217225,0.0025442468,0.0025320228,0.0025359031,0.0,0.0,0.0,0.0,0.0,0.0
21816680000,21816600000,0.10137655,0.101055145,0.21709064,1.0700943,1.0699937,0.0,0.0,0.0,0.0,0.0,0.0,0.0,0.0,12.42065,0.0,0.0,nan,0.0,0.0,0.09021532,0.0025442468,0.0025320228,0.0025359031,0.0,0.0,0.0,0.0,0.0,0.0
21817184000,21817104000,0.10095449,0.100692876,0.2168516,1.0683968,1.0683066,0.0,0.0,0.0,0.0,0.0,0.0,0.0,0.0,12.4223585,0.0,0.0,nan,0.0,0.0,0.09021555,0.0025442468,0.0025320228,0.0025359031,0.0,0.0,0.0,0.0,0.0,0.0
21817680000,21817600000,0.1015272,0.10129047,0.21722199,1.0715241,1.0714117,0.0,0.0,0.0,0.0,0.0,0.0,0.0,0.0,12.423229,0.0,0.0,nan,0.0,0.0,0.09021607,0.0025442468,0.0025320228,0.0025359031,0.0,0.0,0.0,0.0,0.0,0.0
21818176000,21818096000,0.10106119,0.100866996,0.21693717,1.0695238,1.0694284,0.0,0.0,0.0,0.0,0.0,0.0,0.0,0.0,12.42421,0.0,0.0,nan,0.0,0.0,0.090216696,0.0025442468,0.0025320228,0.0025359031,0.0,0.0,0.0,0.0,0.0,0.0
21818680000,21818600000,0.10075243,0.10058803,0.21671338,1.0679249,1.0678409,0.0,0.0,0.0,0.0,0.0,0.0,0.0,0.0,12.425206,0.0,0.0,nan,0.0,0.0,0.09021815,0.0025442468,0.0025320228,0.0025359031,0.0,0.0,0.0,0.0,0.0,0.0
21819176000,21819096000,0.101342045,0.10119124,0.21705103,1.0708499,1.0707531,0.0,0.0,0.0,0.0,0.0,0.0,0.0,0.0,12.427018,0.0,0.0,nan,0.0,0.0,0.09021937,0.0025442468,0.0025320228,0.0025359031,0.0,0.0,0.0,0.0,0.0,0.0
21819680000,21819600000,0.100775234,0.100663684,0.21664421,1.068199,1.068123,0.0,0.0,0.0,0.0,0.0,0.0,0.0,0.0,12.422385,0.0,0.0,nan,0.0,0.0,0.090220675,0.0025442468,0.0025320228,0.0025359031,0.0,0.0,0.0,0.0,0.0,0.0
21820176000,21820096000,0.101636,0.101523265,0.21717885,1.072225,1.0721331,0.0,0.0,0.0,0.0,0.0,0.0,0.0,0.0,12.427618,0.0,0.0,nan,0.0,0.0,0.09022253,0.0025442468,0.0025320228,0.0025359031,0.0,0.0,0.0,0.0,0.0,0.0
21820680000,21820600000,0.100959785,0.100879304,0.21685486,1.0693758,1.0693065,0.0,0.0,0.0,0.0,0.0,0.0,0.0,0.0,12.423187,0.0,0.0,nan,0.0,0.0,0.09022419,0.0025442468,0.0025320228,0.0025359031,0.0,0.0,0.0,0.0,0.0,0.0
21821184000,21821104000,0.100666076,0.10060066,0.21664348,1.0678024,1.0677435,0.0,0.0,0.0,0.0,0.0,0.0,0.0,0.0,12.425411,0.0,0.0,nan,0.0,0.0,0.09022592,0.0025442468,0.0025320228,0.0025359031,0.0,0.0,0.0,0.0,0.0,0.0
21821680000,21821600000,0.10127572,0.1012154,0.21699262,1.0707375,1.0706763,0.0,0.0,0.0,0.0,0.0,0.0,0.0,0.0,12.424847,0.0,0.0,nan,0.0,0.0,0.09022781,0.0025442468,0.0025320228,0.0025359031,0.0,0.0,0.0,0.0,0.0,0.0
21822176000,21822096000,0.10086845,0.100818545,0.21674828,1.0688978,1.0688474,0.0,0.0,0.0,0.0,0.0,0.0,0.0,0.0,12.425381,0.0,0.0,nan,0.0,0.0,0.090229794,0.0025442468,0.0025320228,0.0025359031,0.0,0.0,0.0,0.0,0.0,0.0
21822680000,21822600000,0.1016316,0.10158491,0.21718396,1.0724151,1.0723616,0.0,0.0,0.0,0.0,0.0,0.0,0.0,0.0,12.42592,0.0,0.0,nan,0.0,0.0,0.0902317,0.0025442468,0.0025320228,0.0025359031,0.0,0.0,0.0,0.0,0.0,0.0
21823184000,21823104000,0.101112306,0.10107491,0.21690744,1.0702484,1.0702053,0.0,0.0,0.0,0.0,0.0,0.0,0.0,0.0,12.427014,0.0,0.0,nan,0.0,0.0,0.09023401,0.0025442468,0.0025320228,0.0025359031,0.0,0.0,0.0,0.0,0.0,0.0
21823680000,21823600000,0.10056521,0.100537434,0.21658996,1.0675305,1.0674981,0.0,0.0,0.0,0.0,0.0,0.0,0.0,0.0,12.4227295,0.0,0.0,nan,0.0,0.0,0.090236,0.0025442468,0.0025320228,0.0025359031,0.0,0.0,0.0,0.0,0.0,0.0
21824184000,21824104000,0.10149076,0.10146194,0.21718486,1.071828,1.0717905,0.0,0.0,0.0,0.0,0.0,0.0,0.0,0.0,12.429241,0.0,0.0,nan,0.0,0.0,0.090238124,0.0025442468,0.0025320228,0.0025359031,0.0,0.0,0.0,0.0,0.0,0.0
21824680000,21824600000,0.100822076,0.10080185,0.2167522,1.0688983,1.0688705,0.0,0.0,0.0,0.0,0.0,0.0,0.0,0.0,12.424564,0.0,0.0,nan,0.0,0.0,0.09024002,0.0025442468,0.0025320228,0.0025359031,0.0,0.0,0.0,0.0,0.0,0.0
21825184000,21825104000,0.100674585,0.10065642,0.21660751,1.0681217,1.0680962,0.0,0.0,0.0,0.0,0.0,0.0,0.0,0.0,12.42966,0.0,0.0,nan,0.0,0.0,0.09024201,0.0025442468,0.0025320228,0.0025359031,0.0,0.0,0.0,0.0,0.0,0.0
21825680000,21825600000,0.101037115,0.101023406,0.21690069,1.0702332,1.0702097,0.0,0.0,0.0,0.0,0.0,0.0,0.0,0.0,12.425845,0.0,0.0,nan,0.0,0.0,0.09024409,0.0025442468,0.0025320228,0.0025359031,0.0,0.0,0.0,0.0,0.0,0.0
21826184000,21826104000,0.10067988,0.10066934,0.21666984,1.0684934,1.0684739,0.0,0.0,0.0,0.0,0.0,0.0,0.0,0.0,12.425762,0.0,0.0,nan,0.0,0.0,0.090245955,0.0025442468,0.0025320228,0.0025359031,0.0,0.0,0.0,0.0,0.0,0.0
21826680000,21826600000,0.1014058,0.101396516,0.2171626,1.0717905,1.0717702,0.0,0.0,0.0,0.0,0.0,0.0,0.0,0.0,12.427228,0.0,0.0,nan,0.0,0.0,0.09024791,0.0025442468,0.0025320228,0.0025359031,0.0,0.0,0.0,0.0,0.0,0.0
21827184000,21827104000,0.10092254,0.10091559,0.21689276,1.0697355,1.0697191,0.0,0.0,0.0,0.0,0.0,0.0,0.0,0.0,12.427109,0.0,0.0,nan,0.0,0.0,0.09024995,0.0025442468,0.0025320228,0.0025359031,0.0,0.0,0.0,0.0,0.0,0.0
21827680000,21827600000,0.10060256,0.10059692,0.21667974,1.0680962,1.0680825,0.0,0.0,0.0,0.0,0.0,0.0,0.0,0.0,12.42822,0.0,0.0,nan,0.0,0.0,0.09025163,0.0025442468,0.0025320228,0.0025359031,0.0,0.0,0.0,0.0,0.0,0.0
21828176000,21828096000,0.10120797,0.101202175,0.217073,1.0712347,1.0712209,0.0,0.0,0.0,0.0,0.0,0.0,0.0,0.0,12.428531,0.0,0.0,nan,0.0,0.0,0.090253636,0.0025442468,0.0025320228,0.0025359031,0.0,0.0,0.0,0.0,0.0,0.0
21828680000,21828600000,0.10061389,0.10060932,0.21666402,1.0684719,1.0684617,0.0,0.0,0.0,0.0,0.0,0.0,0.0,0.0,12.427878,0.0,0.0,nan,0.0,0.0,0.09025538,0.0025442468,0.0025320228,0.0025359031,0.0,0.0,0.0,0.0,0.0,0.0
21829176000,21829096000,0.10048652,0.10048218,0.2166143,1.067736,1.0677265,0.0,0.0,0.0,0.0,0.0,0.0,0.0,0.0,12.429078,0.0,0.0,nan,0.0,0.0,0.09025721,0.0025442468,0.0025320228,0.0025359031,0.0,0.0,0.0,0.0,0.0,0.0
21829680000,21829600000,0.100855924,0.10085213,0.21689981,1.0697128,1.069704,0.0,0.0,0.0,0.0,0.0,0.0,0.0,0.0,12.424965,0.0,0.0,nan,0.0,0.0,0.090259135,0.0025442468,0.0025320228,0.0025359031,0.0,0.0,0.0,0.0,0.0,0.0
21830184000,21830104000,0.100540735,0.10053728,0.21668732,1.068076,1.0680687,0.0,0.0,0.0,0.0,0.0,0.0,0.0,0.0,12.425509,0.0,0.0,nan,0.0,0.0,0.090261035,0.0025442468,0.0025320228,0.0025359031,0.0,0.0,0.0,0.0,0.0,0.0
21830680000,21830600000,0.10114828,0.101144694,0.21708009,1.0712075,1.0712003,0.0,0.0,0.0,0.0,0.0,0.0,0.0,0.0,12.425919,0.0,0.0,nan,0.0,0.0,0.0902628,0.0025442468,0.0025320228,0.0025359031,0.0,0.0,0.0,0.0,0.0,0.0
21831176000,21831096000,0.10072977,0.10072706,0.21682948,1.0692679,1.069262,0.0,0.0,0.0,0.0,0.0,0.0,0.0,0.0,12.426439,0.0,0.0,nan,0.0,0.0,0.09026465,0.0025442468,0.0025320228,0.0025359031,0.0,0.0,0.0,0.0,0.0,0.0
21831680000,21831600000,0.10039887,0.10039645,0.2165855,1.0674788,1.0674739,0.0,0.0,0.0,0.0,0.0,0.0,0.0,0.0,12.426654,0.0,0.0,nan,0.0,0.0,0.09026635,0.0025442468,0.0025320228,0.0025359031,0.0,0.0,0.0,0.0,0.0,0.0
21832184000,21832104000,0.101032615,0.10103047,0.21700469,1.0706742,1.0706692,0.0,0.0,0.0,0.0,0.0,0.0,0.0,0.0,12.426668,0.0,0.0,nan,0.0,0.0,0.09026792,0.0025442468,0.0025320228,0.0025359031,0.0,0.0,0.0,0.0,0.0,0.0
21832680000,21832600000,0.100502916,0.10050141,0.21663444,1.0680705,1.0680668,0.0,0.0,0.0,0.0,0.0,0.0,0.0,0.0,12.422992,0.0,0.0,nan,0.0,0.0,0.0902697,0.0025442468,0.0025320228,0.0025359031,0.0,0.0,0.0,0.0,0.0,0.0
21833176000,21833096000,0.10132883,0.10132711,0.21717684,1.0720887,1.0720845,0.0,0.0,0.0,0.0,0.0,0.0,0.0,0.0,12.428533,0.0,0.0,nan,0.0,0.0,0.09027134,0.0025442468,0.0025320228,0.0025359031,0.0,0.0,0.0,0.0,0.0,0.0
21833680000,21833600000,0.10071148,0.10071027,0.21678218,1.0692976,1.0692945,0.0,0.0,0.0,0.0,0.0,0.0,0.0,0.0,12.424548,0.0,0.0,nan,0.0,0.0,0.09027281,0.0025442468,0.0025320228,0.0025359031,0.0,0.0,0.0,0.0,0.0,0.0
21834184000,21834104000,0.10038336,0.10038253,0.21662404,1.0675218,1.0675192,0.0,0.0,0.0,0.0,0.0,0.0,0.0,0.0,12.425171,0.0,0.0,nan,0.0,0.0,0.090274364,0.0025442468,0.0025320228,0.0025359031,0.0,0.0,0.0,0.0,0.0,0.0
21834680000,21834600000,0.101021014,0.1010205,0.21703011,1.0707103,1.0707077,0.0,0.0,0.0,0.0,0.0,0.0,0.0,0.0,12.424591,0.0,0.0,nan,0.0,0.0,0.090275906,0.0025442468,0.0025320228,0.0025359031,0.0,0.0,0.0,0.0,0.0,0.0
21835184000,21835104000,0.10063219,0.100631736,0.21678594,1.0688727,1.0688705,0.0,0.0,0.0,0.0,0.0,0.0,0.0,0.0,12.426657,0.0,0.0,nan,0.0,0.0,0.09027752,0.0025442468,0.0025320228,0.0025359031,0.0,0.0,0.0,0.0,0.0,0.0
21835680000,21835600000,0.10136815,0.1013675,0.21722049,1.0723712,1.0723691,0.0,0.0,0.0,0.0,0.0,0.0,0.0,0.0,12.426629,0.0,0.0,nan,0.0,0.0,0.09027888,0.0025442468,0.0025320228,0.0025359031,0.0,0.0,0.0,0.0,0.0,0.0
21836184000,21836104000,0.1008663,0.100865334,0.21693763,1.0701874,1.0701858,0.0,0.0,0.0,0.0,0.0,0.0,0.0,0.0,12.425591,0.0,0.0,nan,0.0,0.0,0.0902802,0.0025442468,0.0025320228,0.0025359031,0.0,0.0,0.0,0.0,0.0,0.0
21836680000,21836600000,0.100402184,0.10040134,0.21658407,1.067714,1.0677128,0.0,0.0,0.0,0.0,0.0,0.0,0.0,0.0,12.422962,0.0,0.0,nan,0.0,0.0,0.09028173,0.0025442468,0.0025320228,0.0025359031,0.0,0.0,0.0,0.0,0.0,0.0
21837184000,21837104000,0.101244524,0.101243466,0.21713178,1.0717261,1.0717247,0.0,0.0,0.0,0.0,0.0,0.0,0.0,0.0,12.427464,0.0,0.0,nan,0.0,0.0,0.09028312,0.0025442468,0.0025320228,0.0025359031,0.0,0.0,0.0,0.0,0.0,0.0
21837680000,21837600000,0.10061329,0.10061252,0.21671192,1.0688175,1.0688164,0.0,0.0,0.0,0.0,0.0,0.0,0.0,0.0,12.428009,0.0,0.0,nan,0.0,0.0,0.090284586,0.0025442468,0.0025320228,0.0025359031,0.0,0.0,0.0,0.0,0.0,0.0
21838176000,21838096000,0.10047538,0.10047455,0.21665476,1.068045,1.068044,0.0,0.0,0.0,0.0,0.0,0.0,0.0,0.0,12.430275,0.0,0.0,nan,0.0,0.0,0.090286024,0.0025442468,0.0025320228,0.0025359031,0.0,0.0,0.0,0.0,0.0,0.0
21838680000,21838600000,0.10086985,0.10086885,0.2169468,1.0701454,1.0701444,0.0,0.0,0.0,0.0,0.0,0.0,0.0,0.0,12.425393,0.0,0.0,nan,0.0,0.0,0.090287425,0.0025442468,0.0025320228,0.0025359031,0.0,0.0,0.0,0.0,0.0,0.0
21839184000,21839104000,0.10053676,0.100535706,0.21671203,1.0684171,1.0684162,0.0,0.0,0.0,0.0,0.0,0.0,0.0,0.0,12.426865,0.0,0.0,nan,0.0,0.0,0.090288796,0.0025442468,0.0025320228,0.0025359031,0.0,0.0,0.0,0.0,0.0,0.0
21839680000,21839600000,0.101248786,0.101247646,0.21711057,1.0716988,1.0716977,0.0,0.0,0.0,0.0,0.0,0.0,0.0,0.0,12.426767,0.0,0.0,nan,0.0,0.0,0.090290144,0.0025442468,0.0025320228,0.0025359031,0.0,0.0,0.0,0.0,0.0,0.0
21840184000,21840104000,0.100784324,0.10078324,0.21684048,1.0696579,1.069657,0.0,0.0,0.0,0.0,0.0,0.0,0.0,0.0,12.427715,0.0,0.0,nan,0.0,0.0,0.09029131,0.0025442468,0.0025320228,0.0025359031,0.0,0.0,0.0,0.0,0.0,0.0
21840680000,21840600000,0.10047446,0.10047333,0.21662739,1.0680285,1.0680277,0.0,0.0,0.0,0.0,0.0,0.0,0.0,0.0,12.4282255,0.0,0.0,nan,0.0,0.0,0.09029247,0.0025442468,0.0025320228,0.0025359031,0.0,0.0,0.0,0.0,0.0,0.0
21841184000,21841104000,0.10109818,0.101096936,0.21701705,1.0711775,1.0711766,0.0,0.0,0.0,0.0,0.0,0.0,0.0,0.0,12.428074,0.0,0.0,nan,0.0,0.0,0.09029357,0.0025442468,0.0025320228,0.0025359031,0.0,0.0,0.0,0.0,0.0,0.0
21841680000,21841600000,0.10054303,0.10054188,0.216626,1.0684447,1.068444,0.0,0.0,0.0,0.0,0.0,0.0,0.0,0.0,12.427049,0.0,0.0,nan,0.0,0.0,0.09029478,0.0025442468,0.0025320228,0.0025359031,0.0,0.0,0.0,0.0,0.0,0.0
21842184000,21842104000,0.100417934,0.10041687,0.21657945,1.0677097,1.0677091,0.0,0.0,0.0,0.0,0.0,0.0,0.0,0.0,12.429425,0.0,0.0,nan,0.0,0.0,0.090295844,0.0025442468,0.0025320228,0.0025359031,0.0,0.0,0.0,0.0,0.0,0.0
21842680000,21842600000,0.10077799,0.10077724,0.21686254,1.0696808,1.06968,0.0,0.0,0.0,0.0,0.0,0.0,0.0,0.0,12.424738,0.0,0.0,nan,0.0,0.0,0.090296865,0.0025442468,0.0025320228,0.0025359031,0.0,0.0,0.0,0.0,0.0,0.0
21843176000,21843096000,0.10046426,0.100463845,0.21664777,1.0680472,1.0680465,0.0,0.0,0.0,0.0,0.0,0.0,0.0,0.0,12.42527,0.0,0.0,nan,0.0,0.0,0.09029786,0.0025442468,0.0025320228,0.0025359031,0.0,0.0,0.0,0.0,0.0,0.0
21843680000,21843600000,0.10106653,0.101066686,0.21703513,1.0711688,1.0711681,0.0,0.0,0.0,0.0,0.0,0.0,0.0,0.0,12.425148,0.0,0.0,nan,0.0,0.0,0.09029896,0.0025442468,0.0025320228,0.0025359031,0.0,0.0,0.0,0.0,0.0,0.0
21844184000,21844104000,0.10065679,0.10065727,0.21678798,1.0692339,1.0692333,0.0,0.0,0.0,0.0,0.0,0.0,0.0,0.0,12.426278,0.0,0.0,nan,0.0,0.0,0.09029977,0.0025442468,0.0025320228,0.0025359031,0.0,0.0,0.0,0.0,0.0,0.0
21844680000,21844600000,0.10038977,0.100390665,0.21659082,1.0676836,1.0676831,0.0,0.0,0.0,0.0,0.0,0.0,0.0,0.0,12.426416,0.0,0.0,nan,0.0,0.0,0.090300806,0.0025442468,0.0025320228,0.0025359031,0.0,0.0,0.0,0.0,0.0,0.0
21845184000,21845104000,0.100977495,0.10097859,0.21695346,1.0706155,1.0706152,0.0,0.0,0.0,0.0,0.0,0.0,0.0,0.0,12.427482,0.0,0.0,nan,0.0,0.0,0.09030181,0.0025442468,0.0025320228,0.0025359031,0.0,0.0,0.0,0.0,0.0,0.0
21845680000,21845600000,0.10045256,0.10045299,0.21666844,1.0680256,1.0680254,0.0,0.0,0.0,0.0,0.0,0.0,0.0,0.0,12.422209,0.0,0.0,nan,0.0,0.0,0.09030279,0.0025442468,0.0025320228,0.0025359031,0.0,0.0,0.0,0.0,0.0,0.0
21846184000,21846104000,0.10133525,0.101335585,0.21717153,1.0722967,1.0722966,0.0,0.0,0.0,0.0,0.0,0.0,0.0,0.0,12.42832,0.0,0.0,nan,0.0,0.0,0.09030347,0.0025442468,0.0025320228,0.0025359031,0.0,0.0,0.0,0.0,0.0,0.0
21846680000,21846600000,0.100650996,0.100651175,0.21682164,1.0692172,1.0692171,0.0,0.0,0.0,0.0,0.0,0.0,0.0,0.0,12.423353,0.0,0.0,nan,0.0,0.0,0.09030426,0.0025442468,0.0025320228,0.0025359031,0.0,0.0,0.0,0.0,0.0,0.0
21847184000,21847104000,0.10037656,0.10037663,0.21662222,1.0676702,1.0676702,0.0,0.0,0.0,0.0,0.0,0.0,0.0,0.0,12.425052,0.0,0.0,nan,0.0,0.0,0.090305164,0.0025442468,0.0025320228,0.0025359031,0.0,0.0,0.0,0.0,0.0,0.0
21847680000,21847600000,0.10097577,0.10097578,0.21697915,1.0706024,1.0706023,0.0,0.0,0.0,0.0,0.0,0.0,0.0,0.0,12.425473,0.0,0.0,nan,0.0,0.0,0.090306036,0.0025442468,0.0025320228,0.0025359031,0.0,0.0,0.0,0.0,0.0,0.0
21848184000,21848104000,0.10059249,0.100592494,0.21673535,1.0687853,1.0687852,0.0,0.0,0.0,0.0,0.0,0.0,0.0,0.0,12.425943,0.0,0.0,nan,0.0,0.0,0.09030675,0.0025442468,0.0025320228,0.0025359031,0.0,0.0,0.0,0.0,0.0,0.0
21848680000,21848600000,0.101337746,0.101337776,0.21725658,1.0722871,1.072287,0.0,0.0,0.0,0.0,0.0,0.0,0.0,0.0,12.427904,0.0,0.0,nan,0.0,0.0,0.09030757,0.0025442468,0.0025320228,0.0025359031,0.0,0.0,0.0,0.0,0.0,0.0
21849184000,21849104000,0.10083595,0.100835964,0.21696308,1.0701208,1.0701208,0.0,0.0,0.0,0.0,0.0,0.0,0.0,0.0,12.427199,0.0,0.0,nan,0.0,0.0,0.090308234,0.0025442468,0.0025320228,0.0025359031,0.0,0.0,0.0,0.0,0.0,0.0
21849680000,21849600000,0.1003734,0.100373276,0.21659097,1.0676657,1.0676656,0.0,0.0,0.0,0.0,0.0,0.0,0.0,0.0,12.427643,0.0,0.0,nan,0.0,0.0,0.090308994,0.0025442468,0.0025320228,0.0025359031,0.0,0.0,0.0,0.0,0.0,0.0
21850184000,21850104000,0.101210564,0.10121037,0.21712966,1.0716754,1.0716753,0.0,0.0,0.0,0.0,0.0,0.0,0.0,0.0,12.4296255,0.0,0.0,nan,0.0,0.0,0.090309605,0.0025442468,0.0025320228,0.0025359031,0.0,0.0,0.0,0.0,0.0,0.0
21850680000,21850600000,0.1005856,0.100585274,0.21670032,1.0687814,1.0687811,0.0,0.0,0.0,0.0,0.0,0.0,0.0,0.0,12.424444,0.0,0.0,nan,0.0,0.0,0.0903102,0.0025442468,0.0025320228,0.0025359031,0.0,0.0,0.0,0.0,0.0,0.0
21851176000,21851096000,0.10044865,0.100448176,0.21664579,1.0680121,1.068012,0.0,0.0,0.0,0.0,0.0,0.0,0.0,0.0,12.428575,0.0,0.0,nan,0.0,0.0,0.0903106,0.0025442468,0.0025320228,0.0025359031,0.0,0.0,0.0,0.0,0.0,0.0
