timestamp,timestamp_sample,position_drift_rate_horizontal_m_s,position_drift_rate_vertical_m_s,filtered_horizontal_speed_m_s,checks_passed,check_fail_gps_fix,check_fail_min_sat_count,check_fail_max_pdop,check_fail_max_horz_err,check_fail_max_vert_err,check_fail_max_spd_err,check_fail_max_horz_drift,check_fail_max_vert_drift,check_fail_max_horz_spd_err,check_fail_max_vert_spd_err
21727032000,21726910000,0.00087264227,0.00081518,0.0010328856,1,0,0,0,0,0,0,0,0,0,0
21728016000,21727894000,0.00046648353,0.00016131437,0.00037823353,1,0,0,0,0,0,0,0,0,0,0
21729208000,21729090000,0.0006413425,0.0005347498,0.0007294241,1,0,0,0,0,0,0,0,0,0,0
21730040000,21729922000,0.00046891073,0.00070321513,0.00035377376,1,0,0,0,0,0,0,0,0,0,0
21731032000,21730910000,0.0004588855,0.0007576233,0.00040543257,1,0,0,0,0,0,0,0,0,0,0
21732016000,21731894000,0.00041532947,0.0006992931,0.0009423167,1,0,0,0,0,0,0,0,0,0,0
21733008000,21732886000,0.0008410558,0.0005764054,0.0010061649,1,0,0,0,0,0,0,0,0,0,0
21734048000,21733926000,nan,nan,nan,1,0,0,0,0,0,0,0,0,0,0
21735032000,21734914000,nan,nan,nan,1,0,0,0,0,0,0,0,0,0,0
21736024000,21735902000,nan,nan,nan,1,0,0,0,0,0,0,0,0,0,0
21737008000,21736890000,nan,nan,nan,1,0,0,0,0,0,0,0,0,0,0
21738200000,21738082000,nan,nan,nan,1,0,0,0,0,0,0,0,0,0,0
21739032000,21738914000,nan,nan,nan,1,0,0,0,0,0,0,0,0,0,0
21740024000,21739906000,nan,nan,nan,1,0,0,0,0,0,0,0,0,0,0
21741016000,21740894000,nan,nan,nan,1,0,0,0,0,0,0,0,0,0,0
21742208000,21742090000,nan,nan,nan,1,0,0,0,0,0,0,0,0,0,0
21743040000,21742922000,nan,nan,nan,1,0,0,0,0,0,0,0,0,0,0
21744032000,21743910000,nan,nan,nan,1,0,0,0,0,0,0,0,0,0,0
21745016000,21744898000,nan,nan,nan,1,0,0,0,0,0,0,0,0,0,0
21746000000,21745882000,nan,nan,nan,1,0,0,0,0,0,0,0,0,0,0
21747048000,21746926000,nan,nan,nan,1,0,0,0,0,0,0,0,0,0,0
21748032000,21747910000,nan,nan,nan,1,0,0,0,0,0,0,0,0,0,0
21749024000,21748902000,nan,nan,nan,1,0,0,0,0,0,0,0,0,0,0
21750008000,21749890000,nan,nan,nan,1,0,0,0,0,0,0,0,0,0,0
21751208000,21751086000,nan,nan,nan,1,0,0,0,0,0,0,0,0,0,0
21752040000,21751918000,nan,nan,nan,1,0,0,0,0,0,0,0,0,0,0
21753024000,21752906000,nan,nan,nan,1,0,0,0,0,0,0,0,0,0,0
21754016000,21753894000,nan,nan,nan,1,0,0,0,0,0,0,0,0,0,0
21755208000,21755090000,nan,nan,nan,1,0,0,0,0,0,0,0,0,0,0
21756040000,21755922000,nan,nan,nan,1,0,0,0,0,0,0,0,0,0,0
21757032000,21756910000,nan,nan,nan,1,0,0,0,0,0,0,0,0,0,0
21758016000,21757898000,nan,nan,nan,1,0,0,0,0,0,0,0,0,0,0
21759008000,21758886000,nan,nan,nan,1,0,0,0,0,0,0,0,0,0,0
21760048000,21759926000,nan,nan,nan,1,0,0,0,0,0,0,0,0,0,0
21761032000,21760914000,nan,nan,nan,1,0,0,0,0,0,0,0,0,0,0
21762016000,21761898000,nan,nan,nan,1,0,0,0,0,0,0,0,0,0,0
21763008000,21762886000,nan,nan,nan,1,0,0,0,0,0,0,0,0,0,0
21764208000,21764086000,nan,nan,nan,1,0,0,0,0,0,0,0,0,0,0
21765040000,21764918000,nan,nan,nan,1,0,0,0,0,0,0,0,0,0,0
21766024000,21765906000,nan,nan,nan,1,0,0,0,0,0,0,0,0,0,0
21767016000,21766894000,nan,nan,nan,1,0,0,0,0,0,0,0,0,0,0
21768208000,21768094000,nan,nan,nan,1,0,0,0,0,0,0,0,0,0,0
21769048000,21768926000,nan,nan,nan,1,0,0,0,0,0,0,0,0,0,0
21770032000,21769914000,nan,nan,nan,1,0,0,0,0,0,0,0,0,0,0
21771024000,21770902000,nan,nan,nan,1,0,0,0,0,0,0,0,0,0,0
21772008000,21771886000,nan,nan,nan,1,0,0,0,0,0,0,0,0,0,0
21773200000,21773082000,nan,nan,nan,1,0,0,0,0,0,0,0,0,0,0
21774032000,21773914000,nan,nan,nan,1,0,0,0,0,0,0,0,0,0,0
21775024000,21774906000,nan,nan,nan,1,0,0,0,0,0,0,0,0,0,0
21776016000,21775894000,nan,nan,nan,1,0,0,0,0,0,0,0,0,0,0
21777208000,21777090000,nan,nan,nan,1,0,0,0,0,0,0,0,0,0,0
21778040000,21777922000,nan,nan,nan,1,0,0,0,0,0,0,0,0,0,0
21779024000,21778906000,nan,nan,nan,1,0,0,0,0,0,0,0,0,0,0
21780016000,21779898000,nan,nan,nan,1,0,0,0,0,0,0,0,0,0,0
21781208000,21781090000,nan,nan,nan,1,0,0,0,0,0,0,0,0,0,0
21782048000,21781926000,nan,nan,nan,1,0,0,0,0,0,0,0,0,0,0
21783032000,21782914000,nan,nan,nan,1,0,0,0,0,0,0,0,0,0,0
21784024000,21783902000,nan,nan,nan,1,0,0,0,0,0,0,0,0,0,0
21785008000,21784890000,nan,nan,nan,1,0,0,0,0,0,0,0,0,0,0
21786208000,21786086000,nan,nan,nan,1,0,0,0,0,0,0,0,0,0,0
21787040000,21786918000,nan,nan,nan,1,0,0,0,0,0,0,0,0,0,0
21788024000,21787902000,nan,nan,nan,1,0,0,0,0,0,0,0,0,0,0
21789016000,21788894000,nan,nan,nan,1,0,0,0,0,0,0,0,0,0,0
21790208000,21790090000,nan,nan,nan,1,0,0,0,0,0,0,0,0,0,0
21791040000,21790922000,nan,nan,nan,1,0,0,0,0,0,0,0,0,0,0
21792024000,21791906000,nan,nan,nan,1,0,0,0,0,0,0,0,0,0,0
21793016000,21792898000,nan,nan,nan,1,0,0,0,0,0,0,0,0,0,0
21794008000,21793886000,nan,nan,nan,1,0,0,0,0,0,0,0,0,0,0
21795048000,21794926000,nan,nan,nan,1,0,0,0,0,0,0,0,0,0,0
21796032000,21795914000,nan,nan,nan,1,0,0,0,0,0,0,0,0,0,0
21797024000,21796902000,nan,nan,nan,1,0,0,0,0,0,0,0,0,0,0
21798008000,21797890000,nan,nan,nan,1,0,0,0,0,0,0,0,0,0,0
21799200000,21799082000,nan,nan,nan,1,0,0,0,0,0,0,0,0,0,0
21800040000,21799918000,nan,nan,nan,1,0,0,0,0,0,0,0,0,0,0
21801024000,21800906000,nan,nan,nan,1,0,0,0,0,0,0,0,0,0,0
21802016000,21801894000,nan,nan,nan,1,0,0,0,0,0,0,0,0,0,0
21803208000,21803090000,nan,nan,nan,1,0,0,0,0,0,0,0,0,0,0
21804040000,21803922000,nan,nan,nan,1,0,0,0,0,0,0,0,0,0,0
21805032000,21804910000,nan,nan,nan,1,0,0,0,0,0,0,0,0,0,0
21806016000,21805898000,nan,nan,nan,1,0,0,0,0,0,0,0,0,0,0
21807008000,21806886000,nan,nan,nan,1,0,0,0,0,0,0,0,0,0,0
21808040000,21807922000,nan,nan,nan,1,0,0,0,0,0,0,0,0,0,0
21809032000,21808910000,nan,nan,nan,1,0,0,0,0,0,0,0,0,0,0
21810024000,21809902000,nan,nan,nan,1,0,0,0,0,0,0,0,0,0,0
21811008000,21810890000,nan,nan,nan,1,0,0,0,0,0,0,0,0,0,0
21812208000,21812086000,nan,nan,nan,1,0,0,0,0,0,0,0,0,0,0
21813040000,21812914000,nan,nan,nan,1,0,0,0,0,0,0,0,0,0,0
21814024000,21813906000,nan,nan,nan,1,0,0,0,0,0,0,0,0,0,0
21815016000,21814894000,nan,nan,nan,1,0,0,0,0,0,0,0,0,0,0
21816208000,21816090000,nan,nan,nan,1,0,0,0,0,0,0,0,0,0,0
21817040000,21816922000,nan,nan,nan,1,0,0,0,0,0,0,0,0,0,0
21818032000,21817910000,nan,nan,nan,1,0,0,0,0,0,0,0,0,0,0
21819016000,21818898000,nan,nan,nan,1,0,0,0,0,0,0,0,0,0,0
21820000000,21819882000,nan,nan,nan,1,0,0,0,0,0,0,0,0,0,0
21821048000,21820922000,nan,nan,nan,1,0,0,0,0,0,0,0,0,0,0
21822032000,21821914000,nan,nan,nan,1,0,0,0,0,0,0,0,0,0,0
21823024000,21822902000,nan,nan,nan,1,0,0,0,0,0,0,0,0,0,0
21824008000,21823890000,nan,nan,nan,1,0,0,0,0,0,0,0,0,0,0
21825208000,21825086000,nan,nan,nan,1,0,0,0,0,0,0,0,0,0,0
21826040000,21825918000,nan,nan,nan,1,0,0,0,0,0,0,0,0,0,0
21827024000,21826906000,nan,nan,nan,1,0,0,0,0,0,0,0,0,0,0
21828016000,21827894000,nan,nan,nan,1,0,0,0,0,0,0,0,0,0,0
21829208000,21829090000,nan,nan,nan,1,0,0,0,0,0,0,0,0,0,0
21830040000,21829922000,nan,nan,nan,1,0,0,0,0,0,0,0,0,0,0
21831032000,21830910000,nan,nan,nan,1,0,0,0,0,0,0,0,0,0,0
21832016000,21831898000,nan,nan,nan,1,0,0,0,0,0,0,0,0,0,0
21833000000,21832882000,nan,nan,nan,1,0,0,0,0,0,0,0,0,0,0
21834040000,21833922000,nan,nan,nan,1,0,0,0,0,0,0,0,0,0,0
21835032000,21834914000,nan,nan,nan,1,0,0,0,0,0,0,0,0,0,0
21836024000,21835902000,nan,nan,nan,1,0,0,0,0,0,0,0,0,0,0
21837008000,21836890000,nan,nan,nan,1,0,0,0,0,0,0,0,0,0,0
21838208000,21838086000,nan,nan,nan,1,0,0,0,0,0,0,0,0,0,0
21839040000,21838918000,nan,nan,nan,1,0,0,0,0,0,0,0,0,0,0
21840024000,21839906000,nan,nan,nan,1,0,0,0,0,0,0,0,0,0,0
21841016000,21840894000,nan,nan,nan,1,0,0,0,0,0,0,0,0,0,0
21842208000,21842090000,nan,nan,nan,1,0,0,0,0,0,0,0,0,0,0
21843040000,21842922000,nan,nan,nan,1,0,0,0,0,0,0,0,0,0,0
21844032000,21843910000,nan,nan,nan,1,0,0,0,0,0,0,0,0,0,0
21845016000,21844898000,nan,nan,nan,1,0,0,0,0,0,0,0,0,0,0
21846008000,21845886000,nan,nan,nan,1,0,0,0,0,0,0,0,0,0,0
21847048000,21846926000,nan,nan,nan,1,0,0,0,0,0,0,0,0,0,0
21848032000,21847914000,nan,nan,nan,1,0,0,0,0,0,0,0,0,0,0
21849024000,21848902000,nan,nan,nan,1,0,0,0,0,0,0,0,0,0,0
21850008000,21849890000,nan,nan,nan,1,0,0,0,0,0,0,0,0,0,0
