timestamp,timestamp_sample,xyz[0],xyz[1],xyz[2]
21726360000,21726360000,-0.0124235,-0.34534207,-0.05751547
21726368000,21726368000,-0.09742843,-0.24650398,0.13121352
21726372000,21726372000,0.0153650455,-0.15391372,0.11149562
21726380000,21726380000,0.11807246,-0.02143125,-0.42043382
21726388000,21726388000,-0.47253808,0.063768,0.22271815
21726396000,21726396000,-0.35332873,-0.26286545,0.18521921
21726408000,21726408000,0.33262807,0.39140368,-0.15561044
21726420000,21726420000,-0.011837517,-0.43580794,-0.2245396
21726428000,21726428000,0.23788413,-0.27236792,0.34598914
21726440000,21726440000,-0.11063116,0.38166466,-0.3556467
21726452000,21726452000,0.1400246,0.38547656,0.026938537
21726460000,21726460000,0.16755138,-0.20177253,0.27192593
21726472000,21726472000,0.09396353,0.11106016,-0.16866043
21726480000,21726480000,0.004327891,-0.032415085,-0.08241611
21726492000,21726492000,-0.036493015,0.063725136,-0.023856016
21726500000,21726500000,-0.4781932,-0.5617253,-0.38788545
21726512000,21726512000,0.07713965,0.29467994,0.6154994
21726520000,21726520000,0.12315605,0.024284339,-0.058746193
21726532000,21726532000,0.29677793,0.272327,0.19190386
21726540000,21726540000,0.110980116,-0.0670999,0.031273156
21726552000,21726552000,-0.30239284,-0.1605841,0.027383668
21726560000,21726560000,0.31580466,0.0538355,-0.059549082
21726572000,21726572000,-0.12094428,-0.2983271,-0.23028475
21726580000,21726580000,0.20119761,-0.23422557,-0.029027317
21726592000,21726592000,-0.3988413,-0.030472003,0.28172264
21726600000,21726600000,0.19905554,0.10441503,0.05253089
21726612000,21726612000,-0.44517252,0.05160368,0.055923976
21726620000,21726620000,0.41235417,0.22122762,0.2551505
21726632000,21726632000,-0.1634506,0.26756006,-0.17477037
21726640000,21726640000,-0.29644623,-0.25909182,-0.17045932
21726652000,21726652000,-0.03804065,0.14395447,0.11080959
21726660000,21726660000,0.06535181,0.18935412,0.5444601
21726672000,21726672000,0.270615,-0.26847607,-0.22577937
21726680000,21726680000,-0.21784353,-0.18793029,-0.7782739
21726692000,21726692000,0.20467938,0.043899193,0.40902114
21726700000,21726700000,-0.029720176,0.03098643,-0.0012114608
21726712000,21726712000,-0.14611064,0.043020293,0.49025336
21726720000,21726720000,-0.0624329,0.40302664,0.115077235
21726732000,21726732000,0.48436835,-0.35804474,-0.16069691
21726740000,21726740000,-0.18449286,-0.34100735,0.16063394
21726752000,21726752000,-0.30409923,-0.108902976,-0.3039962
21726760000,21726760000,-0.022129264,0.47312456,-0.09163636
21726772000,21726772000,0.21078655,-0.2142253,-0.022367384
21726780000,21726780000,0.185253,-0.23445952,-0.2241431
21726792000,21726792000,0.029575385,-0.28062803,-0.13959187
21726800000,21726800000,0.00013392507,0.16684206,-0.15681435
21726808000,21726808000,0.22250356,0.9094859,0.23327498
21726820000,21726820000,-0.6052061,-0.26605073,0.13782541
21726828000,21726828000,0.18715484,0.08434813,-0.14902343
21726840000,21726840000,-0.24370164,0.07489217,-0.04596462
21726848000,21726848000,-0.30911908,0.2473386,-0.092737935
21726856000,21726856000,0.43676326,0.083258495,0.3924137
21726872000,21726872000,-0.41517717,-0.40897134,-0.5220846
21726880000,21726880000,0.39175916,0.13942628,-0.090067096
21726892000,21726892000,-0.18735267,0.018127669,-0.0052753515
21726900000,21726900000,-0.26056892,0.14409357,0.28504133
21726912000,21726912000,-0.224042,0.0077763903,0.15916067
21726920000,21726920000,0.57135946,0.028898794,-0.38171193
21726932000,21726932000,-0.15313566,-0.26725644,-0.016185267
21726940000,21726940000,0.21999323,-0.1581779,-0.114408314
21726952000,21726952000,0.14671168,0.2670119,-0.08916384
21726960000,21726960000,-0.06272942,-0.17558965,-0.033769555
21726972000,21726972000,-0.10471338,0.013647701,0.0025009068
21726980000,21726980000,-0.08528201,-0.33228794,0.409345
21726992000,21726992000,0.16859914,0.18843885,-0.1813382
21727000000,21727000000,-0.16782343,0.33653262,-0.09528194
21727012000,21727012000,-0.23331274,-0.30600685,0.1986047
21727020000,21727020000,0.34559003,-0.09933302,-0.22113448
21727032000,21727032000,0.08450592,-0.107382715,0.121998265
21727040000,21727040000,0.38249746,-0.53790253,0.31291968
21727052000,21727052000,-0.61147064,0.30895302,-0.29703015
21727060000,21727060000,0.17663223,0.4669381,-0.08834479
21727072000,21727072000,0.03778402,0.2791793,-0.47018385
21727080000,21727080000,-0.108448505,0.073039964,0.44698003
21727092000,21727092000,-0.197232,0.061871815,-0.074591324
21727100000,21727100000,-0.40118712,-0.108164325,0.011310726
21727112000,21727112000,0.19412011,-0.3249575,-0.13258903
21727120000,21727120000,0.2396745,-0.4771014,0.27409726
21727132000,21727132000,0.09959662,0.7829283,-0.02501103
21727140000,21727140000,0.11031907,0.52551377,-0.41921946
21727152000,21727152000,-0.25255963,-0.03613842,0.22530805
21727156000,21727156000,0.037030254,0.13568275,0.3793424
21727172000,21727172000,-0.1629999,-0.30581057,-0.0612996
21727176000,21727176000,-0.26375794,-0.46695322,0.007886461
21727192000,21727192000,0.0487483,-0.07022638,-0.13051829
21727196000,21727196000,0.18630847,-0.37486228,0.21063547
21727212000,21727212000,0.090363346,0.10336776,0.03240956
21727216000,21727216000,-0.100950435,-0.09397583,-0.15396217
21727228000,21727228000,0.0020507437,0.12802717,0.057582382
21727240000,21727240000,0.113256514,-0.07827452,-0.14782494
21727252000,21727252000,-0.27377617,-0.05811061,0.17512466
21727256000,21727256000,-0.4521922,0.48623058,0.34727046
21727272000,21727272000,0.027482254,-0.12067066,-0.35812077
21727280000,21727280000,-0.39123344,0.0011172522,-0.1404339
21727292000,21727292000,0.42769364,0.02750295,0.523529
21727300000,21727300000,-0.10131226,-0.43986756,0.2252802
21727312000,21727312000,0.21461986,0.3082981,-0.21725461
21727320000,21727320000,0.14330453,0.058285415,-0.16364264
21727332000,21727332000,-0.075358376,0.009518536,-0.011506944
21727340000,21727340000,-0.21974239,0.17568924,-0.030239154
21727352000,21727352000,-0.026635865,-0.17300598,0.06049033
21727356000,21727356000,-0.3860143,-0.23325893,0.0035169593
21727372000,21727372000,-0.3728029,-0.36973816,0.2159067
21727380000,21727380000,-0.21806706,0.32047096,0.25504375
21727392000,21727392000,0.40531284,0.015904423,-0.13131776
21727400000,21727400000,0.21315718,-0.048304457,0.35815683
21727412000,21727412000,-0.032470312,-0.07972963,0.024511106
21727420000,21727420000,-0.18712416,-0.24704358,-0.18629622
21727432000,21727432000,0.15904981,0.050611008,-0.23124492
21727440000,21727440000,0.33222887,0.559727,-0.117484026
21727452000,21727452000,-0.25229168,-0.18333755,-0.11732936
21727460000,21727460000,-0.3174676,0.02162007,0.09211402
21727472000,21727472000,0.3346211,-0.2369386,0.23669004
21727476000,21727476000,0.075071044,-0.32572314,0.13432336
21727492000,21727492000,0.060252752,0.23806593,-0.36278638
21727500000,21727500000,0.15390663,-0.0063463394,-0.13193247
21727512000,21727512000,-0.35800835,0.10979619,-0.007971573
21727520000,21727520000,-0.4339478,0.26376036,0.5657831
21727532000,21727532000,0.16948196,-0.19570293,0.3730292
21727540000,21727540000,-0.027754113,-0.31749037,-0.7649232
21727552000,21727552000,0.07577093,0.3125814,0.073941894
21727560000,21727560000,-0.01136624,-0.14204976,-0.21762174
21727572000,21727572000,0.048254214,-0.45928633,-0.114529185
21727580000,21727580000,-0.062486477,-0.01932121,-0.17041673
21727592000,21727592000,-0.08053292,0.4246435,0.15335706
21727600000,21727600000,0.2640703,-0.39807674,0.027885698
21727612000,21727612000,0.15741089,0.14355385,0.06806292
21727620000,21727620000,0.27764285,0.26174653,-0.20179678
21727632000,21727632000,-0.4343622,-0.13688862,0.29525375
21727640000,21727640000,-0.21379195,0.09526365,0.11932298
21727648000,21727648000,0.15141828,-0.16139324,-0.40635613
21727660000,21727660000,-0.5095157,-0.06815715,-0.28472465
21727672000,21727672000,0.6225438,-0.003126612,0.42214593
21727680000,21727680000,0.09336635,0.50239325,0.59039134
21727692000,21727692000,0.17839143,-0.4804543,-0.42012072
21727700000,21727700000,0.08883633,0.52248156,-0.21683857
21727712000,21727712000,-0.57475626,-0.079746604,0.115314074
21727720000,21727720000,-0.17486781,-0.03795725,0.27763954
21727732000,21727732000,0.29732126,-0.14956523,-0.14202614
21727740000,21727740000,0.27793327,0.36813602,-0.6174307
21727752000,21727752000,-0.08779146,0.109034374,0.10320335
21727760000,21727760000,0.12829097,-0.07089172,0.15577143
21727772000,21727772000,0.011854261,0.12201346,0.5087053
21727780000,21727780000,0.18220122,-0.2837827,-0.054041542
21727792000,21727792000,0.1807589,-0.3120368,-0.5532515
21727800000,21727800000,-0.16517717,0.1766567,0.09367817
21727812000,21727812000,-0.21638253,-0.43849787,-0.08381355
21727820000,21727820000,-0.23308624,-0.04435203,0.22901703
21727832000,21727832000,0.14212556,-0.13722597,-0.3474911
21727840000,21727840000,0.15694892,-0.123217225,0.12285336
21727852000,21727852000,0.49984613,0.19851457,0.085885756
21727860000,21727860000,-0.067622654,-0.01274885,0.47997484
21727872000,21727872000,-0.15473774,-0.052166373,0.06554339
21727880000,21727880000,-0.45399806,0.29778636,-0.11797987
21727888000,21727888000,-0.21609265,0.055165846,0.2421334
21727900000,21727900000,-0.16942029,-0.1989874,0.08883107
21727912000,21727912000,-0.04075447,0.50477976,-0.45528963
21727920000,21727920000,0.44364846,-0.3504064,-0.008336236
21727928000,21727928000,-0.008812618,-0.84676063,0.032625988
21727936000,21727936000,-0.22294974,0.142161,0.31563511
21727948000,21727948000,0.042005345,0.014572402,0.06066354
21727956000,21727956000,0.21634357,-0.037768252,-0.24331066
21727972000,21727972000,-0.3483387,0.15038538,-0.1379445
21727976000,21727976000,-0.37265602,0.35710645,-0.2673312
21727992000,21727992000,0.027210595,-0.3296862,0.021609765
21728000000,21728000000,0.25316608,0.055267956,0.12552848
21728012000,21728012000,-0.012838144,-0.3705616,-0.37718344
21728020000,21728020000,0.28539005,0.2951312,0.16792777
21728032000,21728032000,0.1921244,-0.17899805,0.077990144
21728036000,21728036000,0.42824075,-0.3016003,0.4057978
21728052000,21728052000,-0.31982502,-0.25910276,-0.4414951
21728060000,21728060000,0.010588523,0.31203583,-0.3309046
21728072000,21728072000,-0.46011883,-0.44610593,0.25998127
21728080000,21728080000,-0.13381325,0.19684887,0.072966054
21728092000,21728092000,0.08604323,0.23345633,-0.037026282
21728100000,21728100000,0.36557356,-0.5073054,0.44702867
21728112000,21728112000,0.17441227,0.17159744,-0.0680436
21728120000,21728120000,-0.32291463,-0.4514724,0.04776641
21728132000,21728132000,-0.22035477,0.3330414,-0.28240818
21728140000,21728140000,0.15481788,0.49955168,-0.10228005
21728152000,21728152000,-0.54317725,-0.111252435,0.24356757
21728156000,21728156000,-0.25281826,0.31891367,0.46771118
21728172000,21728172000,0.15626244,-0.16171524,-0.14483443
21728180000,21728180000,0.20228572,-0.5261457,-0.06137427
21728192000,21728192000,-0.080995314,0.03182539,-0.16009618
21728200000,21728200000,0.36026707,0.14175245,-0.055219825
21728212000,21728212000,-0.29151458,0.37801042,0.20708543
21728220000,21728220000,-0.06505749,-0.5373916,0.07175112
21728232000,21728232000,0.31420964,0.046680786,-0.18147679
21728240000,21728240000,-0.008348647,-0.14892045,0.28251055
21728252000,21728252000,-0.35363767,0.14717072,-0.5707667
21728260000,21728260000,-0.17291012,0.2953959,-0.0031742724
21728272000,21728272000,0.36102453,0.39112896,0.23168635
21728280000,21728280000,-0.085093305,-0.12789094,0.1547534
21728292000,21728292000,-0.33490714,-0.16173688,-0.17398249
21728300000,21728300000,0.6743839,-0.08711396,-0.17906249
21728312000,21728312000,-0.11097019,0.3124616,-0.23725753
21728316000,21728316000,-0.29863825,0.301969,-0.38658696
21728332000,21728332000,-0.1624219,0.05566607,0.5253078
21728340000,21728340000,-0.6052302,-0.10285225,-0.029713685
21728352000,21728352000,0.6754129,-0.017707573,-0.041716114
21728360000,21728360000,0.1045778,-0.24182175,0.34971562
21728368000,21728368000,0.18952353,0.07984124,-0.11686879
21728380000,21728380000,-0.9795206,-0.107633956,0.08737943
21728388000,21728388000,-0.44755587,0.09218686,-0.495612
21728400000,21728400000,0.4265807,0.39193082,0.020967582
21728412000,21728412000,-0.14630815,-0.40427667,0.21862386
21728420000,21728420000,-0.12510523,-0.10469723,0.51982737
21728432000,21728432000,0.4126413,0.2153348,-0.28524652
21728436000,21728436000,0.16923259,0.41954252,-0.657695
21728452000,21728452000,-0.41802022,-0.7884234,0.13727067
21728460000,21728460000,0.8236082,0.0073731346,-0.2964216
21728468000,21728468000,0.36937752,0.44306627,0.16069496
21728476000,21728476000,-0.12950951,0.52889663,0.027999086
21728492000,21728492000,-0.17771664,-0.31029537,0.19907492
21728496000,21728496000,-0.46109152,-0.38992485,0.12624146
21728512000,21728512000,0.8570407,0.14232047,-0.16842909
21728520000,21728520000,-0.046327636,-0.34292823,-0.08656104
21728532000,21728532000,0.21800491,0.08688859,-0.102650896
21728540000,21728540000,0.35073757,0.34064308,-0.11752422
21728548000,21728548000,-0.31579015,0.06781933,-0.16150403
21728560000,21728560000,-0.0622745,-0.15389803,0.05716704
21728572000,21728572000,0.024114922,0.18213499,-0.41064483
21728580000,21728580000,0.098825686,-0.24980105,0.16481374
21728588000,21728588000,0.096548945,-0.15326717,0.013825565
21728596000,21728596000,-1.0921243,-0.025552731,0.27420568
21728608000,21728608000,0.3548244,0.44203237,-0.28644854
21728620000,21728620000,-0.102033995,-0.44030616,0.15369412
21728632000,21728632000,0.3491919,-0.112084456,0.5268225
21728640000,21728640000,-1.1346251,0.056160036,-0.03908474
21728652000,21728652000,0.388938,0.7326142,-0.34824356
21728660000,21728660000,0.63038677,-0.4939481,-0.14066282
21728672000,21728672000,-0.12825155,0.21914308,0.03712385
21728680000,21728680000,-1.1532714,0.015317798,0.29338238
21728692000,21728692000,0.7179926,-0.19063771,-0.23252927
21728700000,21728700000,0.026961213,-0.010742496,-0.14618786
21728712000,21728712000,0.5881228,-0.7917333,-0.09274153
21728720000,21728720000,-1.1094706,-0.015870128,-0.33078808
21728728000,21728728000,-0.18965253,0.5906361,-0.3750026
21728736000,21728736000,0.5864407,0.14466317,0.7768281
21728752000,21728752000,-0.01820165,0.06838576,-0.54694915
21728756000,21728756000,-0.676719,0.066615865,-0.21251048
21728772000,21728772000,0.40822583,0.3911164,0.009229535
21728780000,21728780000,0.71670073,0.08129086,0.22352992
21728788000,21728788000,-0.25801423,-0.054002658,-0.004815766
21728800000,21728800000,-0.10939413,-0.40191984,-0.14563371
21728812000,21728812000,-0.19160108,0.38206688,0.09156547
21728820000,21728820000,0.6944859,0.22650056,-0.32649705
21728832000,21728832000,-0.4492049,-0.008765508,-0.27635694
21728836000,21728836000,-0.7935224,-0.11988198,-0.15864229
21728852000,21728852000,0.36684525,0.5772378,0.18440591
21728860000,21728860000,-0.30070084,-0.11906534,-0.3762445
21728872000,21728872000,0.5571511,-0.13184436,0.46799648
21728876000,21728876000,-0.45465758,-0.28288037,0.49775827
21728888000,21728888000,-0.36437294,0.23349556,-0.284445
21728900000,21728900000,0.5739642,-0.4740134,-0.01845619
21728912000,21728912000,-0.70145774,0.16860406,0.32043436
21728920000,21728920000,-0.42803735,0.044152975,-0.32551715
21728928000,21728928000,0.4689525,0.19094835,0.10202288
21728940000,21728940000,0.6551856,-0.16748251,0.30666697
21728952000,21728952000,-1.6391808,-0.051487703,-0.38687786
21728960000,21728960000,0.7415237,0.282258,-0.7349722
21728972000,21728972000,0.4150919,-0.18163776,0.4476087
21728980000,21728980000,0.05453429,0.676171,0.011491256
21728992000,21728992000,-0.47835264,-0.1661157,0.36151442
21729000000,21729000000,0.63530374,-0.017448928,0.16657788
21729008000,21729008000,0.5729274,-0.20023549,-0.22794814
21729020000,21729020000,-0.3062454,-0.32348764,-0.10615703
21729032000,21729032000,0.08913283,0.039491106,0.2709746
21729040000,21729040000,-0.12937553,0.18496518,-0.0783267
21729052000,21729052000,-0.085517615,-0.11318798,0.057377093
21729060000,21729060000,-1.039503,-0.0004831777,-0.33773348
21729068000,21729068000,0.32824332,-0.21011388,0.18531136
21729080000,21729080000,0.8400319,0.112498246,0.06602676
21729088000,21729088000,0.09300325,0.011395482,-0.021792348
21729100000,21729100000,-0.68128574,0.18570593,0.2868015
21729108000,21729108000,0.77023125,-0.029382652,0.35262108
21729116000,21729116000,0.38774094,-0.1935647,-0.8281914
21729128000,21729128000,0.084813125,0.14066969,0.045298167
21729136000,21729136000,0.39434323,0.25104186,0.20039839
21729152000,21729152000,-0.22682631,0.15654907,-0.35351497
21729160000,21729160000,-1.1799792,-0.43912727,0.037528224
21729172000,21729172000,0.37410182,-0.26263535,-0.121383734
21729180000,21729180000,0.6788069,0.5256955,0.07426063
21729192000,21729192000,-0.6864185,0.008757685,0.01014526
21729200000,21729200000,-0.30762064,-0.07739304,-0.15520298
21729212000,21729212000,0.7780616,0.0004087694,0.41221756
21729220000,21729220000,-1.1782577,-0.17313504,0.12205399
21729232000,21729232000,0.069684714,-0.20986596,-0.20116659
21729240000,21729240000,0.784848,0.13665423,0.3131232
21729252000,21729252000,0.45374778,0.25870967,-0.19855575
21729260000,21729260000,-0.69004333,-0.36804456,0.33649513
21729272000,21729272000,0.5634608,-0.058836132,-0.020261621
21729280000,21729280000,0.66809165,0.62390363,-0.021426814
21729292000,21729292000,-1.0708334,-0.61004865,-0.51142305
21729300000,21729300000,-0.9730855,-0.25515273,0.25022668
21729312000,21729312000,1.0600792,0.66191596,-0.30252504
21729320000,21729320000,-0.78176826,0.57930124,0.16312535
21729332000,21729332000,0.5770173,-0.5669197,-0.09026855
21729340000,21729340000,0.13635117,0.16405334,0.13433547
21729352000,21729352000,0.3651415,0.27326116,0.2405037
21729360000,21729360000,-0.7816577,-0.12435513,0.008961361
21729372000,21729372000,0.37655988,-0.08307369,-0.22510551
21729380000,21729380000,0.20197368,0.16120261,0.5360418
21729392000,21729392000,-0.53633386,0.15246616,-0.0508259
21729400000,21729400000,0.45453855,-0.005274417,-0.19625373
21729412000,21729412000,0.5394987,-0.39833677,0.070922814
21729420000,21729420000,-0.45460343,0.017712107,-0.06705623
21729432000,21729432000,0.2391923,-0.010439937,-0.19140875
21729440000,21729440000,-0.35012978,-0.22226177,-0.3628389
21729452000,21729452000,-0.13333568,-0.1082666,0.25272182
21729460000,21729460000,0.0197003,0.32645246,-0.3601935
21729472000,21729472000,0.46803692,-0.07785659,0.41717988
21729480000,21729480000,-0.8108127,-0.21211043,-0.24463059
21729492000,21729492000,0.4696053,0.0941923,0.17960714
21729500000,21729500000,1.4092618,0.2753145,0.0028562471
21729512000,21729512000,-1.0631757,-0.19478692,0.1304165
21729520000,21729520000,0.36521828,-0.11516623,0.24626769
21729532000,21729532000,0.27522358,-0.029518375,-0.01609898
21729540000,21729540000,-1.2181644,0.15994029,-0.20190136
21729548000,21729548000,-0.183823,0.25608703,-0.24548651
21729556000,21729556000,0.20350014,-0.036258794,0.1373846
21729568000,21729568000,-0.27539575,-0.49886498,0.10625751
21729580000,21729580000,-0.056198858,0.70502156,0.338555
21729592000,21729592000,0.47458923,-0.24855278,-0.34660098
21729600000,21729600000,-0.70790863,-0.264636,-0.3344881
21729608000,21729608000,0.5999461,0.24877977,-0.67682594
21729616000,21729616000,0.9166994,0.54852295,0.40322375
21729632000,21729632000,-0.9994222,-1.0042361,9.144726e-05
21729636000,21729636000,-0.3303062,-0.9143376,-0.15701437
21729652000,21729652000,0.78851277,0.13593738,-0.18672982
21729660000,21729660000,-0.8481353,0.37574703,0.23878147
21729668000,21729668000,0.1486841,0.1307975,-0.17634016
21729680000,21729680000,0.3710607,-0.52881724,0.050286822
21729692000,21729692000,-0.10945645,0.070646316,-0.041246895
21729700000,21729700000,0.44974566,0.3442059,-0.1331516
21729712000,21729712000,-0.7790618,-0.14660244,0.30828884
21729720000,21729720000,-0.55766994,0.31212342,-0.120430835
21729732000,21729732000,1.0676988,-0.13823271,-0.109435335
21729740000,21729740000,-0.6159171,-0.1970676,0.67041373
21729752000,21729752000,-0.072828196,0.23557936,-0.24479884
21729760000,21729760000,0.87034917,0.28978696,-0.19696702
21729772000,21729772000,-0.5515616,-0.34459993,-0.069704235
21729776000,21729776000,-0.060314488,-5.7632078e-05,0.19721588
21729792000,21729792000,-0.40013057,-0.02567748,-0.2671102
21729800000,21729800000,-0.561046,-0.35982248,0.09492533
21729812000,21729812000,0.99269223,-0.054465577,0.10489313
21729820000,21729820000,-0.8670971,-0.011339257,-0.24247119
21729832000,21729832000,0.429151,-0.25783402,0.11861044
21729840000,21729840000,0.70735246,0.5184167,-0.0058082286
21729852000,21729852000,-0.34114507,-0.33065033,-0.07663606
21729860000,21729860000,1.0349368,0.022846218,0.06475236
21729868000,21729868000,0.2823927,-0.07310517,0.12540439
21729876000,21729876000,-1.4567851,-0.16153893,-0.10513806
21729892000,21729892000,0.9409558,0.23034425,0.35106742
21729900000,21729900000,-1.1367598,-0.090014294,-0.03403994
21729912000,21729912000,0.37446576,0.50490236,-0.041105013
21729920000,21729920000,0.5489218,-0.16761762,0.37432078
21729932000,21729932000,0.29689384,-0.2640217,-0.31754735
21729940000,21729940000,0.12342671,0.31682652,0.123322256
21729952000,21729952000,-0.46616462,-0.23430786,-0.27055368
21729960000,21729960000,0.22728565,-0.1557938,0.36281243
21729972000,21729972000,0.10799424,0.32711935,-0.35141292
21729980000,21729980000,-1.2711477,0.14193243,-0.50295085
21729992000,21729992000,0.79498005,-0.60877293,-0.01639603
21730000000,21730000000,-0.618553,0.08716913,0.11309162
21730012000,21730012000,0.04374096,-0.21591018,0.29383957
21730020000,21730020000,1.0682966,0.12510516,-0.17591307
21730032000,21730032000,-0.91967565,-0.20615515,0.09817532
21730040000,21730040000,0.15858261,0.39377633,-0.2662746
21730052000,21730052000,-0.57458675,-0.43482196,-0.56486976
21730060000,21730060000,-0.22497794,-0.24181415,0.065664195
21730068000,21730068000,1.0414351,0.23932269,0.058365777
21730080000,21730080000,-0.629441,0.20885351,0.07420145
21730092000,21730092000,0.04975908,-0.20087506,0.41461843
21730100000,21730100000,0.50829846,-0.13367233,-0.3495655
21730112000,21730112000,0.332774,0.05440636,-0.08480518
21730120000,21730120000,0.3902518,-0.16077669,-0.0074098106
21730132000,21730132000,-0.33333457,0.25373,-0.1539259
21730140000,21730140000,-0.37290058,0.2238186,-0.24061134
21730152000,21730152000,0.64186734,-0.12874764,0.22646719
21730160000,21730160000,-0.52773714,-0.30218643,0.09757251
21730172000,21730172000,0.78682953,0.010885922,0.03229197
21730180000,21730180000,-0.018326785,0.31291983,0.24311215
21730192000,21730192000,-0.13950671,0.089146726,-0.1357042
21730200000,21730200000,0.7412598,0.063260175,-0.019014632
21730212000,21730212000,-1.0160366,0.17521298,0.3122439
21730220000,21730220000,-0.59044933,-0.1674765,0.46367952
21730232000,21730232000,0.16343752,-0.7634643,-0.5537947
21730240000,21730240000,-0.39648956,-0.27203548,-0.07512186
21730252000,21730252000,0.71661365,0.4756363,-0.32626867
21730260000,21730260000,-0.4136215,0.38770017,-0.3797241
21730268000,21730268000,-0.47216386,0.025927844,0.16395599
21730276000,21730276000,0.4964847,-0.2133539,0.349795
21730292000,21730292000,-0.9954757,0.4533741,0.08048951
21730300000,21730300000,0.13528213,-0.06206744,0.19287738
21730312000,21730312000,-0.068864495,-0.2714027,-0.09736557
21730320000,21730320000,-0.5049979,-0.031478938,0.50674725
21730332000,21730332000,1.2570237,0.48274392,0.5810413
21730336000,21730336000,0.69624853,0.07474501,0.12272502
21730352000,21730352000,0.32215786,0.4096483,0.3015136
21730360000,21730360000,0.9923577,-0.28632125,0.014180605
21730372000,21730372000,-0.5701675,0.22298262,-0.56697017
21730380000,21730380000,0.5142615,-0.10919349,-0.259084
21730392000,21730392000,-0.6533967,0.085251935,0.5087256
21730400000,21730400000,0.008189262,-0.1672548,-0.15110798
21730412000,21730412000,0.3323679,-0.40963086,-0.071204
21730420000,21730420000,-0.46114635,0.022699006,0.35879925
21730432000,21730432000,0.52634895,0.2490749,-0.44923985
21730440000,21730440000,0.027028203,-0.28363678,0.48394197
21730448000,21730448000,-1.4044372,0.44757575,0.67827016
21730460000,21730460000,1.1046983,-0.1618965,-0.3689881
21730472000,21730472000,-0.18259157,-0.31935364,-0.45602977
21730480000,21730480000,0.8882437,-0.06668608,0.09533334
21730492000,21730492000,-0.69536006,0.22579652,0.42920148
21730500000,21730500000,-0.43400186,-0.22992325,0.06614216
21730512000,21730512000,0.40050283,0.197178,0.1019872
21730520000,21730520000,-0.185433,-0.4767219,0.147888
21730532000,21730532000,0.15973502,0.4436623,-0.22688214
21730540000,21730540000,0.4422647,-0.11789482,-0.2196382
21730548000,21730548000,-0.6616914,-0.17990878,0.18100113
21730560000,21730560000,0.52954787,0.8770943,-0.014216702
21730572000,21730572000,-0.49782112,-0.53428084,0.25484377
21730580000,21730580000,-0.6737405,0.3287884,-0.5907058
21730592000,21730592000,0.033458076,-0.5288868,-0.10638002
21730600000,21730600000,-0.3518751,0.07002492,-0.186807
21730608000,21730608000,0.7763094,0.13911387,0.28151795
21730616000,21730616000,0.44139004,-0.26292711,-0.026956934
21730632000,21730632000,0.27430543,-0.22610141,0.11130105
21730640000,21730640000,1.0752481,-0.44622397,0.23821609
21730652000,21730652000,-1.1568891,0.49614426,0.0791391
21730660000,21730660000,-0.14023072,0.16162911,-0.07511949
21730672000,21730672000,-0.63405186,-0.017511223,-0.15604202
21730676000,21730676000,-0.21019267,-0.029119734,0.016237022
21730692000,21730692000,-1.0817854,-0.42380843,0.2679146
21730696000,21730696000,-0.5908379,-0.06736851,-0.103453316
21730708000,21730708000,0.9473489,-0.14329411,-0.0038412823
21730716000,21730716000,-0.6808966,0.26738116,-0.030196972
21730732000,21730732000,0.7109112,0.03100641,-0.0077926586
21730740000,21730740000,-0.56745154,0.056161754,-0.1090937
21730752000,21730752000,0.87172043,-0.05811225,0.23862778
21730760000,21730760000,-0.47724697,0.044908825,-0.31575215
21730772000,21730772000,0.3520267,-0.22167057,0.052459456
21730780000,21730780000,0.0002473339,0.17862986,0.12622607
21730792000,21730792000,-0.75106907,0.73423266,-0.117432244
21730800000,21730800000,0.50703067,-0.90332574,0.15106177
21730812000,21730812000,-0.08584351,0.20752159,-0.10768116
21730820000,21730820000,0.38772202,-0.09076546,0.71527016
21730832000,21730832000,-0.13106173,-0.36272442,-0.79740924
21730840000,21730840000,0.79070055,0.51254004,-0.109011404
21730852000,21730852000,-0.87895006,0.07347863,-0.30798283
21730860000,21730860000,-0.43222836,0.115426406,0.30509415
21730872000,21730872000,0.061642878,0.08519943,0.34859276
21730880000,21730880000,-0.11546497,-0.13631257,0.057853848
21730892000,21730892000,0.74753314,0.08184991,-0.06798938
21730900000,21730900000,-0.54111767,-0.1238158,-0.086023174
21730908000,21730908000,-0.29963508,0.05728817,0.11854829
21730916000,21730916000,0.72996855,0.29780507,-0.20383285
21730932000,21730932000,-0.5119532,-0.47812665,-0.101155534
21730936000,21730936000,-0.121405296,-0.4829901,-0.34065673
21730948000,21730948000,0.41575477,0.27448356,0.24122234
21730960000,21730960000,-0.5396532,-0.05082218,-0.11279688
21730972000,21730972000,0.7088111,0.11543081,-0.48663965
21730980000,21730980000,-0.010382893,0.056118105,-0.07516736
21730992000,21730992000,-0.28286883,-0.08683367,0.13292265
21731000000,21731000000,-0.07264332,-0.028331727,-0.033939287
21731012000,21731012000,0.9321701,0.0006163495,-0.08770601
21731020000,21731020000,-0.8081253,-0.39808488,-0.19641632
21731032000,21731032000,0.07251484,-0.085328445,0.3861861
21731040000,21731040000,0.72275335,0.42266604,-0.24809986
21731048000,21731048000,0.23672982,-0.24408334,-0.6673209
21731060000,21731060000,-0.87359583,-0.124450125,0.23883054
21731072000,21731072000,0.15501471,-0.06770419,0.3257629
21731080000,21731080000,0.99434936,0.18064384,-0.05423713
21731092000,21731092000,-0.51001954,-0.07139369,-0.15992187
21731100000,21731100000,0.64034677,-0.30853716,-0.1915809
21731112000,21731112000,-0.24701835,0.41569927,0.07189994
21731120000,21731120000,0.034288578,0.24212192,0.4637934
21731132000,21731132000,-0.007854691,-0.0316294,-0.5589896
21731140000,21731140000,0.15799442,-0.43632352,-0.35295773
21731152000,21731152000,-0.4772903,-0.006256492,0.7540127
21731160000,21731160000,-0.52538705,-0.070783764,0.00046886885
21731172000,21731172000,1.0178277,0.12125549,-0.64948356
21731180000,21731180000,-0.4064842,-0.44769683,0.29806444
21731192000,21731192000,0.08235253,0.15395674,0.123868935
21731200000,21731200000,0.41688335,0.31919727,0.26369876
21731212000,21731212000,0.17223462,-0.38305765,-0.0015963949
21731216000,21731216000,0.10267597,-0.18126813,0.0075811013
21731228000,21731228000,-0.37275714,0.24848828,0.11527672
21731236000,21731236000,1.2119265,0.443723,0.28259104
21731252000,21731252000,-0.74570304,-0.22961465,-0.045951493
21731260000,21731260000,0.625112,-0.2526335,0.16285664
21731272000,21731272000,-0.22487217,-0.18452868,0.18956815
21731280000,21731280000,-0.3425523,0.0047085034,-0.073797956
21731292000,21731292000,0.053556845,0.029670075,-0.15208896
21731296000,21731296000,-0.8313726,0.1420521,-0.1963624
21731308000,21731308000,0.38906804,0.13307622,0.176535
21731320000,21731320000,-0.043709192,-0.058019787,0.20402278
21731332000,21731332000,0.34171855,0.05078898,-0.51057744
21731340000,21731340000,-0.73431945,-0.41258353,0.2697064
21731352000,21731352000,0.44670755,0.32219958,-0.027797135
21731360000,21731360000,-0.096333705,-0.08251822,0.033483136
21731372000,21731372000,-0.11161548,0.41572,0.0107427845
21731380000,21731380000,0.9225923,0.060428392,0.06197295
21731392000,21731392000,-0.0787274,0.33325264,0.086684704
21731400000,21731400000,1.0113374,-0.39333397,0.055378124
21731412000,21731412000,-0.664835,0.08657954,-0.09333309
21731420000,21731420000,0.4226172,0.015517685,0.16860236
21731432000,21731432000,-0.43105313,0.3255925,-0.33730507
21731436000,21731436000,0.24249762,0.18868707,-0.10431054
21731452000,21731452000,-0.23803608,0.16616051,-0.15028019
21731460000,21731460000,-1.1916921,0.042924598,-0.20990828
21731472000,21731472000,-0.0714375,0.201017,-0.13249016
21731480000,21731480000,-0.6168885,0.47892034,-0.14721274
21731492000,21731492000,1.4164976,-0.36409312,0.23644163
21731500000,21731500000,-1.2571585,0.06224816,-0.13879535
21731512000,21731512000,0.4187693,-0.18839876,0.20424321
21731516000,21731516000,0.4788664,-0.22508945,0.33855093
21731528000,21731528000,-0.23505358,0.5243314,-0.21897113
21731540000,21731540000,1.0858129,-0.5868028,0.015501498
21731548000,21731548000,-0.95758116,0.0053126314,-0.11062005
21731556000,21731556000,-0.7007417,0.41933963,0.24416645
21731568000,21731568000,0.6254103,-0.4845361,-0.31162027
21731576000,21731576000,-0.0007168189,0.115693346,0.09357538
21731592000,21731592000,-0.67432404,0.12919535,0.37601772
21731600000,21731600000,-0.26988488,0.4360536,0.19287124
21731608000,21731608000,0.8051333,0.17120682,-0.19963108
21731620000,21731620000,-0.37484524,-0.0915619,-0.006126541
21731632000,21731632000,0.9617121,0.16590735,-0.11005643
21731640000,21731640000,-0.6222802,-0.03617599,0.23403952
21731652000,21731652000,0.42786136,-0.4159067,-0.08814455
21731660000,21731660000,-0.68297035,0.34839296,-0.14665093
21731668000,21731668000,0.03113471,0.044958085,0.19028145
21731676000,21731676000,0.1656296,-0.0826508,0.0884428
21731692000,21731692000,1.0533652,0.07901568,-0.20043609
21731700000,21731700000,0.1379046,0.09127736,-0.15661268
21731708000,21731708000,-0.8874855,0.24002838,0.24868985
21731716000,21731716000,0.50197595,0.20875345,0.3394558
21731732000,21731732000,-0.40638912,0.21562865,-0.03791097
21731740000,21731740000,0.0072851614,-0.33782285,-0.017788243
21731752000,21731752000,-0.20354047,-0.019375004,0.47985798
21731760000,21731760000,0.8979255,0.01810215,-0.027973637
21731772000,21731772000,-0.36680225,0.13310567,-0.21737488
21731776000,21731776000,-1.0394424,0.16466089,-0.25621566
21731792000,21731792000,-0.99583465,0.2097796,0.2655591
21731800000,21731800000,0.13204977,-0.3108921,0.30157724
21731812000,21731812000,-0.2696549,-0.07516697,-0.036455326
21731820000,21731820000,-0.16166593,0.076090924,-0.014717002
21731828000,21731828000,1.1078278,0.320919,-0.6560452
21731836000,21731836000,-0.7022339,0.00068255153,-0.18841225
21731848000,21731848000,0.21899956,-0.18663768,0.062302884
21731856000,21731856000,0.7750516,-0.0015009036,0.123947985
21731872000,21731872000,0.65528774,-0.22420871,0.10683927
21731880000,21731880000,-0.12921476,0.068855174,0.25806147
21731892000,21731892000,0.10024058,0.2692207,-0.1561043
21731900000,21731900000,0.25395927,-0.17066272,0.45342082
21731912000,21731912000,-0.28082776,0.30547822,-0.12837698
21731920000,21731920000,0.73797405,-0.20910583,-0.42622527
21731932000,21731932000,-1.0719584,-0.15760419,0.22019686
21731940000,21731940000,0.629349,-0.47373623,0.21378829
21731952000,21731952000,-0.79170096,0.13507304,-0.36341432
21731960000,21731960000,0.14240329,0.4563727,0.11077457
21731972000,21731972000,-0.45124143,-0.39645484,-0.13933244
21731980000,21731980000,0.43154123,0.24423593,-0.16847979
21731992000,21731992000,-0.13266674,-0.29014996,-0.09203798
21732000000,21732000000,-1.0557235,0.16491847,0.56948143
21732012000,21732012000,-0.43313283,-0.16169716,-0.13186282
21732020000,21732020000,-0.21618325,-0.20499367,-0.25590515
21732032000,21732032000,0.6484561,-0.21781121,-0.26581874
21732040000,21732040000,-0.3784689,0.24076506,0.07562144
21732052000,21732052000,0.6371525,-0.37315676,-0.07563414
21732060000,21732060000,-0.35159358,0.38281205,0.43629745
21732072000,21732072000,0.26122603,-0.15480395,-0.13513799
21732080000,21732080000,0.9832534,0.1321853,-0.416494
21732092000,21732092000,-0.24028818,0.122758955,0.2029499
21732096000,21732096000,0.86643934,0.15445916,0.45947006
21732112000,21732112000,-0.5629701,0.4381108,-0.22481301
21732120000,21732120000,0.72583437,-0.3162202,-0.9020069
21732128000,21732128000,-0.27557445,-0.31279138,0.21217039
21732140000,21732140000,0.32926464,0.27906477,0.27050206
21732152000,21732152000,-0.6000336,-0.28042343,-0.017984463
21732160000,21732160000,-0.013551362,0.06621471,-0.3406977
21732168000,21732168000,-0.01931209,0.107298784,0.19271103
21732180000,21732180000,0.23730111,-0.041776516,-0.5340914
21732192000,21732192000,-0.11437618,0.14515729,0.29634044
21732200000,21732200000,-0.52284557,0.15695366,0.6294686
21732212000,21732212000,-0.07946354,-0.46678647,-0.8848813
21732220000,21732220000,-0.77870566,0.06965614,0.05334767
21732232000,21732232000,0.5691948,0.122387685,0.38203272
21732240000,21732240000,-0.513994,0.008152167,-0.0040089055
21732252000,21732252000,1.4292625,0.12869081,-0.28735185
21732260000,21732260000,-0.57215965,-0.25438455,0.14705609
21732272000,21732272000,0.56610066,0.36862808,0.09430143
21732280000,21732280000,-0.7639105,-0.17362681,-0.3657227
21732292000,21732292000,0.740531,-0.45639187,0.26469398
21732300000,21732300000,-0.45525217,-0.3280805,0.20752054
21732312000,21732312000,0.22140308,0.4152692,0.35964474
21732320000,21732320000,1.0518551,0.21800031,-0.0735432
21732332000,21732332000,-0.013059644,-0.06159554,0.18664843
21732340000,21732340000,0.29196125,-0.018769136,-0.06657036
21732352000,21732352000,-0.3446144,0.08053339,-0.29518703
21732360000,21732360000,0.8001953,-0.16712734,0.20251314
21732372000,21732372000,0.28024554,-0.10583635,-0.26804432
21732380000,21732380000,0.29209515,0.4600444,-0.059979632
21732392000,21732392000,-0.000728384,-0.13889305,0.5762084
21732400000,21732400000,0.64981437,-0.74208874,0.005962113
21732412000,21732412000,-0.14841373,0.34643805,0.02014805
21732420000,21732420000,0.9647628,0.2476589,0.034932192
21732432000,21732432000,0.06549335,-0.0076404368,-0.018452093
21732440000,21732440000,0.4741709,-0.28099358,-0.09305687
21732452000,21732452000,-0.039547663,0.17149629,-0.2500253
21732460000,21732460000,0.28142065,0.23804943,-0.12885502
21732472000,21732472000,0.070032306,-0.0665294,-0.010190303
21732480000,21732480000,0.88286835,0.22247024,0.07231697
21732492000,21732492000,0.002044351,0.058512308,-0.054426506
21732500000,21732500000,0.22776094,-0.330127,-0.22808911
21732512000,21732512000,-0.029708965,0.5377695,-0.26848575
21732520000,21732520000,0.97995204,0.10097982,0.14485238
21732532000,21732532000,-0.00012267067,-0.3251633,-0.18723944
21732540000,21732540000,0.1343147,0.02139045,-0.20871954
21732548000,21732548000,-0.0070808153,-0.14145105,0.09629059
21732556000,21732556000,0.47103614,-0.37863067,0.17496678
21732568000,21732568000,0.018659813,0.17969142,-0.31794438
21732576000,21732576000,0.36142644,0.14806528,-0.083593674
21732592000,21732592000,0.6779679,-0.41007355,0.42207438
21732600000,21732600000,-0.59723324,-0.087759614,-0.03373022
21732612000,21732612000,0.39362082,0.1343295,-0.22646664
21732620000,21732620000,-1.0733557,0.6206755,-0.16111872
21732632000,21732632000,-0.013812292,-0.060299113,-0.01108056
21732640000,21732640000,0.35895717,-0.17162699,0.20264328
21732652000,21732652000,-0.849407,0.09924881,-0.05083431
21732660000,21732660000,0.41710335,-0.14452903,0.35581094
21732672000,21732672000,-1.0594771,-0.10879324,-0.38060543
21732676000,21732676000,-0.27484852,0.040142156,-0.28939787
21732688000,21732688000,-0.026621368,-0.18956244,0.07109537
21732700000,21732700000,0.6780996,-0.030756075,0.1587431
21732712000,21732712000,-0.2634379,0.3955392,-0.6612427
21732720000,21732720000,0.91065264,0.055086643,0.09456618
21732732000,21732732000,-0.41983482,-0.263275,0.4280005
21732740000,21732740000,-0.53834,-0.16713953,-0.5044051
21732752000,21732752000,0.4337356,0.14198783,-0.2326048
21732760000,21732760000,0.30322263,-0.3169766,0.8063356
21732772000,21732772000,-0.24533139,0.0017246692,-0.33541077
21732780000,21732780000,0.14554304,-0.29273656,-0.25981134
21732792000,21732792000,-0.8783085,-0.010003916,0.018981934
21732796000,21732796000,-0.02295679,-0.5288755,-0.058354057
21732812000,21732812000,0.7846144,0.2550197,-0.3191707
21732820000,21732820000,-0.7269986,0.15229993,-0.27246204
21732832000,21732832000,-0.62920505,0.05252176,0.13295189
21732840000,21732840000,0.63569933,0.022797383,-0.12619121
21732852000,21732852000,0.23022652,0.074150756,0.16241705
21732860000,21732860000,0.9961635,-0.3652659,0.02532832
21732872000,21732872000,0.18442614,0.4156282,-0.17734437
21732880000,21732880000,-0.059664298,-0.115993716,-0.10289992
21732892000,21732892000,-0.4916328,0.14832392,-0.0522891
21732900000,21732900000,-0.115923285,-0.41666806,0.4306775
21732912000,21732912000,-0.24492234,0.13059108,0.18503618
21732916000,21732916000,-0.14479215,0.29994082,0.24988264
21732932000,21732932000,-0.27069125,0.32993397,-0.07654002
21732940000,21732940000,0.026104175,-0.5515297,0.01165804
21732952000,21732952000,-0.79458493,-0.05835035,-0.18620953
21732960000,21732960000,1.0603242,0.1170401,-0.26384592
21732972000,21732972000,0.5173993,-0.16486736,0.024669576
21732980000,21732980000,-0.7049571,-0.37383798,-0.28523523
21732992000,21732992000,-0.49032938,0.17356414,-0.45998442
21733000000,21733000000,1.385736,0.046945725,-0.5278737
21733012000,21733012000,0.67109746,0.10546988,0.42056888
21733020000,21733020000,-0.9221486,0.117769964,0.22653702
21733032000,21733032000,-0.013495748,-0.11364203,0.332531
21733036000,21733036000,-0.21105622,-0.12543696,0.48332086
21733048000,21733048000,-0.83000076,0.10499185,-0.083394475
21733056000,21733056000,1.5314008,0.33475414,-0.5201434
21733072000,21733072000,-0.8253208,0.15594538,0.14629948
21733080000,21733080000,0.13548344,-0.29242435,0.04546191
21733092000,21733092000,-0.12038834,0.18007782,0.6608487
21733100000,21733100000,-0.917723,0.26998776,-0.3714794
21733112000,21733112000,0.87529194,-0.3705676,-0.29987562
21733120000,21733120000,-0.24169904,-0.20723729,0.21500139
21733132000,21733132000,-1.5119036,-0.027645791,0.17460531
21733140000,21733140000,1.5615602,-0.0978845,-0.0019179406
21733152000,21733152000,-1.2184459,-0.055483807,-0.036634147
21733160000,21733160000,1.126914,-0.02832541,-0.022200832
21733172000,21733172000,0.44699252,0.26539055,0.2190182
21733180000,21733180000,-1.2257005,0.18542442,0.059753172
21733192000,21733192000,0.3856537,0.089955,-0.48493218
21733200000,21733200000,0.15922941,-0.5069714,-0.24546574
21733212000,21733212000,-1.6602966,-0.15062013,0.4882644
21733220000,21733220000,1.0649717,0.24561065,-0.50852346
21733232000,21733232000,-0.506226,-0.058812898,0.2230167
21733240000,21733240000,1.0971595,-0.19597638,0.20875955
21733252000,21733252000,0.053895827,-0.24800794,0.12549926
21733260000,21733260000,0.80150706,-0.28230354,0.47770062
21733268000,21733268000,-0.79259723,0.19605745,-0.7236843
21733276000,21733276000,-0.3199707,0.22026688,0.27713457
21733292000,21733292000,-2.2818496,0.019203862,-0.44049942
21733300000,21733300000,2.5216749,-0.7286783,-0.49103355
21733312000,21733312000,-1.1934456,0.6174421,-0.09615369
21733320000,21733320000,2.2955868,-0.19159664,-0.1884498
21733332000,21733332000,-1.3251106,-0.058337457,0.4399355
21733340000,21733340000,1.1412108,0.35185167,0.3337666
21733352000,21733352000,-1.0260204,-0.19886181,-0.43579304
21733360000,21733360000,3.2431247,0.17400415,-0.24488012
21733372000,21733372000,-1.9303629,0.24935089,-0.0074740993
21733380000,21733380000,3.0622952,-0.07488521,0.5167825
21733392000,21733392000,-3.0619519,0.17077948,-0.39105737
21733400000,21733400000,2.5245645,0.048955902,0.34694853
21733412000,21733412000,1.017753,-0.089027934,0.04222882
21733420000,21733420000,-2.95253,-0.4597376,0.57778674
21733432000,21733432000,3.5092607,0.7067263,-0.36334917
21733440000,21733440000,-2.427561,-0.07335992,-0.15556973
21733452000,21733452000,2.3341985,-0.43743354,0.35323852
21733460000,21733460000,-0.34417322,0.18081331,-0.99858147
21733472000,21733472000,0.89603215,-0.031669833,1.196628
21733480000,21733480000,-2.982294,0.05001456,2.0636313
21733492000,21733492000,2.6190178,-0.20817693,-1.442578
21733500000,21733500000,1.8049893,0.35211655,0.12350304
21733512000,21733512000,-3.462134,0.13103643,-0.34500206
21733520000,21733520000,5.7717013,0.10665685,0.47287345
21733532000,21733532000,-2.0559611,-0.051981162,-0.6039292
21733540000,21733540000,-4.5486436,-0.3306461,-0.15803333
21733552000,21733552000,6.1428795,-0.000857947,0.8880695
21733560000,21733560000,-0.8625409,-0.09046397,-0.84131384
21733572000,21733572000,-4.567098,0.35743883,0.2671827
21733580000,21733580000,3.6108222,-0.3573889,0.6690976
21733592000,21733592000,-1.0703125,0.04337286,-0.8052905
21733600000,21733600000,-2.4253974,0.2713886,-0.40128297
21733612000,21733612000,0.3778222,-0.3182872,1.446281
21733620000,21733620000,5.102729,0.71336687,0.18540962
21733632000,21733632000,-2.2343247,-0.24801344,-1.4878765
21733640000,21733640000,-2.3150513,0.013491826,0.41695678
21733652000,21733652000,2.408181,-0.35815915,0.41604328
21733660000,21733660000,4.008907,-0.009926061,-0.8967892
21733672000,21733672000,-1.8123486,0.127983,-0.47939128
21733680000,21733680000,-3.99786,0.124973744,0.13736768
21733688000,21733688000,-2.4682353,-0.110184155,0.7998223
21733700000,21733700000,2.2620988,-0.032881588,-0.92401415
21733708000,21733708000,0.62746793,0.0090056425,-0.029351031
21733720000,21733720000,0.39946905,-0.41779107,-0.05781114
21733732000,21733732000,3.2208421,0.60497904,3.6367111
21733740000,21733740000,1.2161824,1.6165572,-1.065215
21733752000,21733752000,-1.9440852,-1.0500493,-1.4333081
21733760000,21733760000,-0.25098693,-0.39587063,0.22442299
21733772000,21733772000,-0.04985866,-0.08832222,-0.029035121
21733780000,21733780000,-0.26504287,0.15959032,-0.27989864
21733792000,21733792000,-0.20534311,-0.31422833,-0.41983995
21733800000,21733800000,-0.279633,-0.18852033,0.27576312
21733812000,21733812000,0.26237857,-0.09810531,0.23616667
21733820000,21733820000,0.36997053,0.4324246,0.07736088
21733832000,21733832000,-0.042192508,-0.049716536,-0.3664056
21733836000,21733836000,0.076020956,-0.41616538,-0.4443519
21733852000,21733852000,-0.30909497,0.3093242,0.14596637
21733860000,21733860000,-0.2581571,0.21112652,-0.16229394
21733872000,21733872000,-0.33542207,-0.17928049,0.08429783
21733880000,21733880000,0.0572426,-0.3593657,-0.0051274514
21733888000,21733888000,0.3216667,-0.054293085,-0.4204843
21733900000,21733900000,0.033035696,0.073186986,0.21019603
21733912000,21733912000,-0.11899651,-0.28876352,-0.14827612
21733920000,21733920000,2.7867422,0.024749765,0.64867586
21733932000,21733932000,1.1854702,2.3360772,2.6356292
21733940000,21733940000,-14.192786,0.5594112,-1.6520363
21733948000,21733948000,-9.395572,1.4895462,-2.0981688
21733956000,21733956000,-1.1006979,4.261112,-1.0210432
21733972000,21733972000,2.3862832,1.0617297,-2.213631
21733980000,21733980000,7.7864566,-3.187496,-0.24671966
21733992000,21733992000,3.2713041,-1.4132565,-0.48856744
21733996000,21733996000,2.3596022,-0.7395223,0.32278258
21734012000,21734012000,-0.0636892,0.4717505,0.6786142
21734020000,21734020000,-1.1655159,-0.16028894,0.2666853
21734032000,21734032000,4.571959,0.38751042,0.40582374
21734040000,21734040000,-5.265685,0.18220404,0.6091541
21734052000,21734052000,2.1427126,-0.21694748,0.74994606
21734060000,21734060000,5.874745,-0.06856404,0.14847325
21734068000,21734068000,-0.30415922,-0.26099205,0.44453645
21734076000,21734076000,1.8137178,0.052639857,0.47740722
21734088000,21734088000,1.8466686,-0.14496702,0.16803282
21734100000,21734100000,0.33404747,-0.55952924,-0.25113422
21734108000,21734108000,0.23697668,-0.87917596,-0.24669498
21734120000,21734120000,-0.5266522,-0.59205776,0.18858881
21734132000,21734132000,-1.2317173,-0.9548897,-0.32893297
21734140000,21734140000,-0.61798584,-0.70267177,-0.09918417
21734152000,21734152000,-0.03853529,-0.64235544,-0.14324959
21734160000,21734160000,-0.65038276,-0.2983906,0.3547874
21734172000,21734172000,0.79028094,-0.47738546,-0.28886548
21734180000,21734180000,0.7069497,-0.6040468,-0.029141564
21734192000,21734192000,0.84396636,0.28176364,-0.21066247
21734200000,21734200000,1.1827035,-0.76374644,-0.47180364
21734212000,21734212000,1.3404459,-0.74446195,-0.44282737
21734220000,21734220000,-12.342942,0.10410489,1.3855153
21734228000,21734228000,23.036316,-0.5684189,-0.8063032
21734240000,21734240000,-9.105207,-0.7688071,-0.13440391
21734248000,21734248000,-2.2574742,-0.7563137,0.68417543
21734260000,21734260000,-0.9733661,-0.11252244,-0.13257328
21734268000,21734268000,-1.2288754,-0.2402189,-0.18231916
21734280000,21734280000,-0.3833538,-0.5729694,0.4322892
21734292000,21734292000,-0.1882706,0.59753335,0.08371056
21734296000,21734296000,0.29478964,0.48939595,0.23033679
21734312000,21734312000,0.48860416,-0.03178601,-0.92160714
21734316000,21734316000,0.8028988,-0.22804111,-0.600224
21734332000,21734332000,0.73109823,0.067498855,-0.16635843
21734340000,21734340000,0.6829501,0.40299195,-0.06774625
21734352000,21734352000,0.19654945,-0.2340892,0.43905833
21734360000,21734360000,0.22643189,-0.26052082,0.13051914
21734372000,21734372000,-0.25749597,0.21901335,0.26725268
21734380000,21734380000,-0.3920344,0.08691033,-0.09523022
21734392000,21734392000,-6.8192983,-0.21365626,-0.026054492
21734400000,21734400000,2.6419656,-0.34000236,0.030529011
21734412000,21734412000,-3.3385684,-0.54755825,0.29807034
21734416000,21734416000,-9.304697,0.17388031,0.75873786
21734428000,21734428000,0.13563322,-0.031098573,0.11623492
21734440000,21734440000,-2.4667451,0.28730884,0.32267365
21734448000,21734448000,-1.8151054,0.14165664,-0.19401877
21734456000,21734456000,-0.6762207,-0.040354606,0.2544132
21734468000,21734468000,-0.26251033,0.52353376,-0.34485722
21734480000,21734480000,0.7388706,0.59278005,-0.37004256
21734492000,21734492000,0.7696426,0.73066187,-0.08000626
21734500000,21734500000,0.96632904,0.37940696,0.3967152
21734512000,21734512000,1.8642229,0.27484754,-0.21958284
21734520000,21734520000,1.6184195,-0.08630011,-0.29335606
21734532000,21734532000,0.5486916,0.083196424,0.018406492
21734540000,21734540000,0.43653744,-0.43278545,-0.06901049
21734548000,21734548000,-0.22337191,-0.39219937,0.116366446
21734560000,21734560000,-0.7542694,0.19570601,-0.22128867
21734572000,21734572000,-14.074306,0.38803545,0.9356703
21734580000,21734580000,22.398777,-0.18923874,-1.2781451
21734592000,21734592000,-9.781667,0.20182711,1.0533202
21734600000,21734600000,-1.9611666,0.39271224,0.013939441
21734612000,21734612000,-0.9757365,0.2923865,-0.23402184
21734616000,21734616000,-1.3835859,0.40943626,-0.055537686
21734632000,21734632000,0.26345298,0.09985797,0.22121993
21734640000,21734640000,0.37846854,-0.06797804,0.19964287
21734648000,21734648000,-0.34755245,0.06828556,0.2863977
21734660000,21734660000,0.72470915,-0.02513403,-0.12340858
21734668000,21734668000,-0.075987235,-0.34289196,-0.13627222
21734680000,21734680000,0.6693897,-0.1861813,-0.18231666
21734692000,21734692000,-0.17199863,-0.0025529459,-0.0023093275
21734700000,21734700000,-0.4030548,0.19380598,-0.37055597
21734712000,21734712000,-0.43309572,-0.2671964,0.08973335
21734720000,21734720000,-0.37674642,-0.16761005,0.27009404
21734732000,21734732000,0.0509955,-0.08771143,-0.33665562
21734740000,21734740000,-0.46628448,-0.20832546,0.10704266
21734752000,21734752000,3.2006946,0.041017286,-0.21993442
21734760000,21734760000,15.22917,0.19335811,-0.39076796
21734772000,21734772000,-6.567366,0.27035978,-0.16195971
21734780000,21734780000,0.53023314,0.3392363,0.10166424
21734792000,21734792000,-1.5168167,0.05278933,0.16119976
21734796000,21734796000,-1.6162124,0.17672795,-0.15500335
21734812000,21734812000,-0.5096677,-0.047988616,0.17462932
21734820000,21734820000,-0.3557718,-0.07950167,0.072503276
21734832000,21734832000,0.36080387,0.13554636,-0.0042035757
21734840000,21734840000,0.2108782,-0.046736915,-0.2660438
21734852000,21734852000,0.47275802,-0.12547487,0.121657126
21734860000,21734860000,0.34639794,-0.05817944,-0.14532961
21734872000,21734872000,0.7054611,-0.1698689,0.20422095
21734880000,21734880000,0.27914202,-0.35577583,0.40919945
21734892000,21734892000,0.52773124,-0.46156198,-0.47959647
21734900000,21734900000,-0.014378574,-0.36534786,-0.005745147
21734912000,21734912000,-0.22661866,-0.19493131,-0.34158766
21734916000,21734916000,-0.18609662,-0.40235952,-0.1758858
21734928000,21734928000,3.2415621,-0.006659401,0.57314485
21734936000,21734936000,14.698181,-0.054141115,-1.2351984
21734952000,21734952000,-3.1056066,0.08598579,0.37437886
21734960000,21734960000,0.6025292,0.90504336,-0.059478175
21734968000,21734968000,-0.8497267,0.15604755,-0.40331554
21734980000,21734980000,0.41512442,0.81913054,-0.21744154
21734992000,21734992000,-0.8018626,-0.0985364,0.37915614
21735000000,21735000000,0.302623,0.41620022,0.20430586
21735012000,21735012000,0.4113806,0.7101133,-0.005233119
21735020000,21735020000,0.64719534,-0.11497676,-0.105268195
21735032000,21735032000,-0.009108154,0.035264432,-0.20446417
21735040000,21735040000,0.41873252,-0.26218435,0.06339809
21735052000,21735052000,-0.1766147,-0.21463916,0.43907544
21735060000,21735060000,0.56538963,-0.24357383,0.0063008987
21735072000,21735072000,0.28066862,-0.26137227,-0.3377491
21735080000,21735080000,0.3760234,-0.037808172,-0.14332163
21735092000,21735092000,0.12609287,0.43105698,0.22974549
21735100000,21735100000,-12.714375,0.17287964,0.3808493
21735112000,21735112000,14.95584,0.13154803,-0.5838325
21735116000,21735116000,-2.8449724,-0.0029736098,0.70494014
21735128000,21735128000,-2.2940958,0.030315295,-0.21745037
21735140000,21735140000,-0.5698222,0.25196686,0.1431049
21735152000,21735152000,-0.64901245,0.7613751,0.3220358
21735156000,21735156000,-0.8829186,0.22795856,0.33318937
21735172000,21735172000,-0.24420387,0.36678484,-0.27578455
21735176000,21735176000,-0.28501773,0.54238886,0.18503848
21735192000,21735192000,-0.019294202,-0.20690538,-0.30056086
21735200000,21735200000,0.14338425,-0.123236164,-0.26059285
21735212000,21735212000,0.29115015,-0.30160287,0.16922028
21735220000,21735220000,-0.39674696,0.12139219,-0.011013409
21735232000,21735232000,0.13621438,-0.17152491,-0.06705295
21735240000,21735240000,0.21603665,0.2976897,-0.5282294
21735252000,21735252000,0.10854237,0.16921288,0.089715205
21735256000,21735256000,0.06873997,0.2801109,0.08569575
21735268000,21735268000,-0.22827595,-0.14762151,0.29806513
21735280000,21735280000,2.8549159,0.32609922,-0.14129767
21735292000,21735292000,-2.8285606,-0.17348877,0.037239086
21735296000,21735296000,-9.121093,0.021241045,0.28491235
21735312000,21735312000,0.09790766,0.33861735,-0.2462816
21735320000,21735320000,-1.237021,0.36659506,0.17451932
21735328000,21735328000,-0.38638547,-0.08491142,0.11460754
21735340000,21735340000,-0.35622737,0.27732337,0.3458333
21735348000,21735348000,-0.2269695,0.09364653,-0.14795807
21735360000,21735360000,0.7068267,-0.030418959,-0.47732717
21735372000,21735372000,0.058730964,-0.19522876,0.15773048
21735380000,21735380000,0.24000089,0.044303358,-0.27040374
21735392000,21735392000,0.28080752,-0.6105153,-0.05341434
21735400000,21735400000,0.086376995,-0.37640467,0.15306093
21735412000,21735412000,0.009858345,-0.5483128,-0.19171444
21735420000,21735420000,0.02135278,-0.4964282,-0.2260454
21735432000,21735432000,-0.0017987821,-0.30929846,0.39841744
21735440000,21735440000,0.022967502,-0.07832578,0.23807442
21735452000,21735452000,-12.538239,-0.18040043,0.4666067
21735460000,21735460000,22.685835,-0.2663132,-1.6038182
21735472000,21735472000,-8.277695,0.37328187,0.89333874
21735480000,21735480000,-2.3006644,0.4269812,0.17815287
21735492000,21735492000,-0.5196091,0.10238126,-0.02036615
21735500000,21735500000,-0.37741885,0.24866243,0.5843978
21735512000,21735512000,-0.5640551,0.5449438,-0.24333754
21735520000,21735520000,-0.059966512,0.3706722,0.29582876
21735532000,21735532000,0.5738556,0.6583823,-0.07236381
21735540000,21735540000,-0.11050383,0.4685682,-0.0137491925
21735552000,21735552000,0.08399859,-0.34225014,-0.2126256
21735556000,21735556000,0.36388665,-0.28507635,-0.22757092
21735572000,21735572000,-0.3498982,-0.5149089,0.12350841
21735576000,21735576000,-0.0432168,-0.09934796,0.1594395
21735592000,21735592000,-0.15163207,-0.3005262,0.49629423
21735600000,21735600000,-0.21689652,-0.30669057,0.026865397
21735608000,21735608000,-0.31373617,-0.041307308,-0.17254554
21735620000,21735620000,0.33901355,-0.5707898,-2.5194466
21735628000,21735628000,-13.252959,-0.12294339,-1.6667935
21735640000,21735640000,14.591946,-0.1765117,-0.1399406
21735652000,21735652000,-6.440946,0.055973724,1.4478508
21735660000,21735660000,-0.5280623,-0.4239138,0.48832017
21735668000,21735668000,-1.2615718,0.6120585,0.97880256
21735676000,21735676000,-1.1335745,0.57441914,0.74941033
21735692000,21735692000,-0.40591055,0.19054125,0.4690342
21735700000,21735700000,-0.049999565,0.2814903,0.47542554
21735712000,21735712000,0.5316682,0.059086278,0.62858444
21735720000,21735720000,0.7132202,0.03201491,0.7264425
21735728000,21735728000,0.88014424,-0.3173845,-0.31908557
21735740000,21735740000,0.5573605,0.10590645,0.09392823
21735752000,21735752000,1.1187677,-0.04760695,0.14535114
21735760000,21735760000,0.26478967,-0.18465349,-0.784937
21735772000,21735772000,0.28866634,0.047535323,0.6674873
21735780000,21735780000,-0.2084556,-0.0513467,0.35176703
21735792000,21735792000,0.17940632,-0.119176105,-0.8331143
21735796000,21735796000,0.41325063,-0.11523683,-0.34578633
21735812000,21735812000,22.631197,0.35261303,-1.4955897
21735820000,21735820000,-3.6137402,-0.346881,0.3277598
21735832000,21735832000,-2.1580007,-0.018198367,-0.3562377
21735840000,21735840000,0.52075064,0.56254035,-0.13963854
21735852000,21735852000,-1.2346954,0.19221969,0.2896437
21735860000,21735860000,-0.29789814,0.05153699,-0.36937243
21735872000,21735872000,0.44671088,-0.31705093,0.114381984
21735880000,21735880000,0.37877545,0.22990975,0.6137677
21735892000,21735892000,0.8333505,-0.28583458,-0.5204822
21735900000,21735900000,0.13649462,-0.06578742,-0.08317871
21735912000,21735912000,0.52861714,0.34502384,-0.28293204
21735920000,21735920000,-0.13344222,0.0014007713,0.26652408
21735932000,21735932000,-0.72093004,-0.018555129,-0.06277029
21735940000,21735940000,-0.50080323,0.15802662,-0.37703067
21735952000,21735952000,-0.17430817,0.18451396,-0.119894385
21735960000,21735960000,-0.39065728,0.15032963,0.21945979
21735972000,21735972000,0.1222724,-0.31959122,-0.040238015
21735980000,21735980000,-12.452186,0.021237487,1.1639096
21735992000,21735992000,14.727418,-0.22654812,-0.95861495
21736000000,21736000000,-9.427268,0.49557474,0.18322526
21736012000,21736012000,-0.08213789,-0.4353549,-0.5519108
21736020000,21736020000,0.02901409,-0.3069005,-0.04149016
21736032000,21736032000,-0.27383918,0.42176315,0.20764469
21736040000,21736040000,-0.37174022,0.30225313,0.2217192
21736052000,21736052000,0.26743758,-0.17591277,-0.17646267
21736060000,21736060000,0.56828517,-0.044084433,-0.47061527
21736072000,21736072000,0.13823102,-0.31220445,0.3126386
21736080000,21736080000,-0.17830892,0.04929051,-0.24158798
21736092000,21736092000,-0.055845592,-0.03912276,0.18062833
21736100000,21736100000,0.261345,0.38273305,-0.23663448
21736112000,21736112000,0.13692123,-0.6795353,0.32602516
21736120000,21736120000,0.36577547,-0.4063025,-0.4415785
21736132000,21736132000,-0.62069535,0.4688789,0.2711937
21736140000,21736140000,0.06758106,-0.0022552547,0.07004277
21736152000,21736152000,-6.1043935,-0.19175734,0.4903269
21736160000,21736160000,3.3414612,-0.11178445,-0.045844194
21736172000,21736172000,-3.5312293,0.1654892,-0.36978593
21736176000,21736176000,-9.801313,0.2237997,0.20532727
21736192000,21736192000,-0.3422436,-0.00927923,0.08305703
21736200000,21736200000,-1.2297926,0.43206772,0.46109712
21736212000,21736212000,-0.49481097,0.06732896,-0.33658865
21736220000,21736220000,0.5492195,-0.01406161,-0.65875494
21736232000,21736232000,0.9700506,0.46178475,0.061728287
21736236000,21736236000,0.47859216,0.31683275,-0.056651212
21736248000,21736248000,0.07288288,-0.081331834,-0.2234141
21736256000,21736256000,0.22122686,-0.010872652,-0.17718518
21736268000,21736268000,0.16336699,0.29199973,0.30540788
21736276000,21736276000,0.25581273,-0.02837479,0.3905664
21736292000,21736292000,-0.2630849,-0.06836628,-0.03309607
21736300000,21736300000,0.033385023,-0.04316309,-0.24289383
21736308000,21736308000,0.064208224,-0.23407684,0.034088746
21736320000,21736320000,0.16572013,0.81327236,0.18417
21736332000,21736332000,-12.382601,-0.2096213,0.45420727
21736340000,21736340000,22.565277,0.12554106,-0.9401423
21736348000,21736348000,-3.2931848,-0.6429749,0.078008704
21736356000,21736356000,-6.98463,0.4785864,0.62694865
21736368000,21736368000,0.28891987,-0.31801245,-0.52997357
21736380000,21736380000,-1.174318,-0.2859958,0.35194498
21736392000,21736392000,0.27449822,-0.0060023065,0.023846084
21736400000,21736400000,-0.118690886,0.19806072,0.029480837
21736408000,21736408000,0.0027317782,-0.5981631,-0.35406324
21736420000,21736420000,0.11665425,0.36812735,0.119666874
21736428000,21736428000,-0.52329606,-0.17247383,0.4518657
21736440000,21736440000,0.7814235,0.0540115,-0.730106
21736452000,21736452000,-0.45190474,-0.13816682,0.29817343
21736460000,21736460000,0.3801154,-0.19310237,-0.52469575
21736468000,21736468000,0.048189767,-0.035662763,-0.37375358
21736476000,21736476000,0.2633224,-0.43564352,0.19484039
21736492000,21736492000,-0.48146886,-0.3461809,0.39452896
21736500000,21736500000,-0.086123325,0.14845453,0.21353029
21736508000,21736508000,-12.557327,-0.17685166,0.67904663
21736516000,21736516000,22.851799,-0.36672655,-1.2188867
21736532000,21736532000,-6.202521,0.63294876,0.4383745
21736540000,21736540000,0.52042043,-0.0236413,-0.2083159
21736552000,21736552000,-1.3935928,0.75520253,-0.3352609
21736556000,21736556000,-1.5606284,0.9532643,0.06035909
21736568000,21736568000,0.067631096,0.026179092,0.043314934
21736576000,21736576000,-0.006587576,0.020653581,-0.13198997
21736592000,21736592000,-0.27568114,0.13895008,-0.02525882
21736600000,21736600000,0.13061829,0.57258034,-0.49278224
21736612000,21736612000,0.25511733,-0.047398396,0.5531981
21736620000,21736620000,0.5083501,-0.14600042,-0.02584343
21736632000,21736632000,0.14792277,-0.19677538,-0.18278995
21736640000,21736640000,0.43802607,0.084450826,0.083985865
21736652000,21736652000,-0.12717208,0.04699277,-0.24630255
21736660000,21736660000,-0.03930972,-0.11597203,0.014267817
