timestamp,timestamp_sample,hover_thrust,hover_thrust_var,accel_innov,accel_innov_var,accel_innov_test_ratio,accel_noise_var,valid
21735036000,21735036000,0.49457052,0.0064160237,0.25317907,7.79299,0.0009139216,5.0492425,0
21735044000,21735044000,0.49255773,0.0046830773,0.12717032,6.917687,0.00025975754,5.0977483,0
21735132000,21735132000,0.48999923,0.0011984309,0.14048553,5.9032555,0.00037147454,5.5500817,0
21735236000,21735236000,0.48821235,0.0006563184,0.010004163,6.0833745,1.8279926e-06,5.8984385,0
21735332000,21735332000,0.4875706,0.00046790356,0.105187654,6.23946,0.00019703349,6.1027513,0
21735436000,21735436000,0.48591492,0.00035750007,0.07408309,6.3074923,9.668052e-05,6.197497,0
21735540000,21735540000,0.48419774,0.00028853386,0.17601681,6.3029222,0.000546165,6.205883,0
21735636000,21735636000,0.48252326,0.00024396075,0.017488718,6.2361565,5.4494976e-06,6.1513863,0
21735732000,21735732000,0.48078766,0.0002103854,0.1594032,6.133328,0.0004603153,6.053153,0
21735836000,21735836000,0.47919947,0.00018211172,0.40834928,5.996228,0.0030898894,5.9187613,0
21735940000,21735940000,0.47731364,0.00015965589,0.25071204,5.817625,0.0012004998,5.7475777,0
21736036000,21736036000,0.4757676,0.00014262847,0.3147449,5.6458545,0.0019495984,5.5793614,0
21736140000,21736140000,0.47423184,0.00012720632,0.2009353,5.446177,0.0008237174,5.385054,0
21736236000,21736236000,0.4727764,0.00011511616,0.2534838,5.2589607,0.0013575568,5.2007656,0
21736340000,21736340000,0.47147518,0.000103830476,0.039531052,5.052407,3.436655e-05,4.9994736,0
21736436000,21736436000,0.4702192,9.4762014e-05,0.23741859,4.8632526,0.0012878347,4.8114023,0
21736532000,21736532000,0.4691651,8.6782245e-05,0.38083065,4.6784883,0.0034444167,4.628441,0
21736636000,21736636000,0.46764,7.916436e-05,0.24697155,4.4688606,0.0015165423,4.4226604,0
21736740000,21736740000,0.46648657,7.243173e-05,0.41269168,4.274185,0.00442747,4.229745,0
21736836000,21736836000,0.46532595,6.688691e-05,0.22058797,4.092431,0.0013211124,4.0512753,0
21736932000,21736932000,0.46431944,6.188473e-05,0.2553593,3.921781,0.0018474704,3.8825588,0
21737036000,21737036000,0.46326745,5.6998993e-05,0.7247131,3.7411432,0.015598591,3.7030306,0
21737132000,21737132000,0.46241894,5.2925487e-05,0.21108434,3.580159,0.0013828248,3.5452404,0
21737236000,21737236000,0.4616779,4.8926566e-05,0.3070892,3.415628,0.003067722,3.382238,1
21737332000,21737332000,0.4600182,4.5722623e-05,1.1319504,3.260451,0.04366511,3.2328758,1
21737436000,21737436000,0.46057594,4.2862506e-05,-0.37507683,3.1375363,0.0049820626,3.1124766,1
21737532000,21737532000,0.46109065,4.0209998e-05,0.019303381,3.0180843,1.3718067e-05,2.990752,1
21737636000,21737636000,0.46063453,3.7441863e-05,0.1993351,2.8784993,0.0015337653,2.851519,1
21737732000,21737732000,0.45992398,3.5030214e-05,0.22326925,2.7474842,0.0020159518,2.7215576,1
21737836000,21737836000,0.45869896,3.258851e-05,0.31006527,2.6148221,0.0040852777,2.589983,1
21737932000,21737932000,0.45771524,3.0482293e-05,-0.4409605,2.4950826,0.008659083,2.4743192,1
21738036000,21738036000,0.4561361,2.8351475e-05,0.3898618,2.3727562,0.0071174707,2.3500493,1
21738132000,21738132000,0.4548934,2.6507178e-05,0.59086996,2.2670293,0.017111348,2.2455077,1
21738236000,21738236000,0.45327115,2.4649817e-05,0.50023514,2.153497,0.0129110515,2.1329436,1
21738332000,21738332000,0.4518765,2.3064797e-05,0.512508,2.0580063,0.014181171,2.038595,1
21738436000,21738436000,0.45053053,2.148291e-05,0.3995409,1.9546765,0.009074132,1.9362632,1
21738540000,21738540000,0.44909662,2.0032683e-05,0.54268384,1.8583443,0.017608609,1.8411856,1
21738636000,21738636000,0.4480822,1.8799314e-05,0.5445199,1.7762355,0.018547462,1.7598904,1
21738732000,21738732000,0.44674316,1.766782e-05,0.3615814,1.6937649,0.008576627,1.6784143,1
21738836000,21738836000,0.4455179,1.6541666e-05,0.4589454,1.6110562,0.014526762,1.5965333,1
21738940000,21738940000,0.44424906,1.551216e-05,0.5206981,1.529894,0.019691015,1.5163993,1
21739036000,21739036000,0.44312406,1.4637051e-05,0.4489835,1.4631157,0.015308744,1.450218,1
21739140000,21739140000,0.4418761,1.3762761e-05,0.19330263,1.3902962,0.0029862467,1.378495,1
21739172000,21739172000,0.4416044,1.3507494e-05,0.43212244,1.3697146,0.0151475025,1.3578483,1
21806356000,0,nan,nan,nan,nan,nan,nan,0
21806364000,21806364000,0.4415855,1.35081145e-05,7.214426,30.543621,0.1893392,1.5331692,0
21806452000,21806452000,0.44154716,1.3515278e-05,-0.906898,32.613213,0.0028020819,1.7900324,0
21806556000,21806556000,0.44159386,1.3522773e-05,-1.3561115,21.221878,0.00962863,1.8335172,0
21806652000,21806652000,0.4417718,1.352468e-05,-3.0367937,13.362668,0.07668226,2.0497532,0
21806756000,21806756000,0.4424584,1.3497879e-05,-2.8885968,7.793448,0.11896021,2.4395394,0
21806852000,21806852000,0.44349205,1.3407689e-05,-1.7660472,4.3305464,0.08002385,2.5290549,0
21806956000,21806956000,0.4453569,1.318064e-05,-1.04313,2.5260284,0.047862586,2.5127802,0
21807060000,21807060000,0.44624677,1.2881497e-05,-1.0991465,2.4041486,0.055835105,2.391518,0
21807156000,21807156000,0.4477303,1.2585702e-05,-1.4639461,2.3139908,0.10290726,2.302629,0
21807260000,21807260000,0.44945982,1.2148573e-05,-0.5578405,2.2211466,0.015566838,2.205247,0
21807356000,21807356000,0.4486123,1.17105765e-05,1.3047863,2.182484,0.08667328,2.1809976,0
21807452000,21807452000,0.4477883,1.1386258e-05,-0.0057924986,2.1496203,1.7343135e-06,2.1369824,0
21807556000,21807556000,0.44843832,1.1084632e-05,-0.69043875,2.0461602,0.025886193,2.0339859,0
21807660000,21807660000,0.44960448,1.0784659e-05,-0.80361867,1.950179,0.036794513,1.9385028,0
21807756000,21807756000,0.45046303,1.0493515e-05,-0.5035709,1.8656839,0.015102217,1.8536916,0
21807852000,21807852000,0.45115656,1.01825335e-05,-1.083407,1.7810322,0.07322663,1.7706778,0
21807956000,21807956000,0.4513376,9.829831e-06,0.123531625,1.698736,0.0009981318,1.6886374,0
21808060000,21808060000,0.45135793,9.511869e-06,-0.007182747,1.6256033,3.5263388e-06,1.6156979,0
21808156000,21808156000,0.4515863,9.254296e-06,-0.3300594,1.5529941,0.007794207,1.5433147,0
21808252000,21808252000,0.452098,9.020309e-06,-0.4275216,1.4845672,0.013679611,1.4754243,0
21808356000,21808356000,0.4526448,8.779628e-06,0.10362148,1.4098396,0.000846228,1.402052,0
21808460000,21808460000,0.4530097,8.536816e-06,-0.060159802,1.3427504,0.00029948493,1.3347368,1
21808556000,21808556000,0.45301917,8.314002e-06,0.2454915,1.2871795,0.005202251,1.2804083,1
21808652000,21808652000,0.4527372,8.09495e-06,0.20288551,1.2389491,0.0036915273,1.2320602,1
21808756000,21808756000,0.45219353,7.864305e-06,0.5542766,1.1950759,0.028563742,1.1899555,1
21808860000,21808860000,0.45135674,7.6431625e-06,0.53553504,1.160336,0.027463095,1.1549516,1
21808956000,21808956000,0.45040962,7.448513e-06,0.7609783,1.1346247,0.056708716,1.1303718,1
21809060000,21809060000,0.4491858,7.2486673e-06,0.83296365,1.1106938,0.069408916,1.1065696,1
21809156000,21809156000,0.44807518,7.0731307e-06,0.7316869,1.08878,0.054634612,1.083818,1
21809260000,21809260000,0.44707856,6.8865975e-06,0.7318339,1.0485365,0.05675432,1.0435029,1
21809356000,21809356000,0.4460633,6.7166075e-06,0.7193002,1.01695,0.05652991,1.0118018,1
21809452000,21809452000,0.44497296,6.5492654e-06,1.1946541,1.0022403,0.15822314,1.0,1
21809556000,21809556000,0.44380304,6.3767006e-06,0.8290848,1.0021497,0.07621191,1.0,1
21809652000,21809652000,0.44288927,6.223859e-06,0.7353386,1.0021774,0.059949793,1.0,1
21809756000,21809756000,0.44210082,6.0584534e-06,0.4581561,1.0022851,0.023269828,1.0,1
21809860000,21809860000,0.44114786,5.885598e-06,0.79086745,1.0024201,0.06932902,1.0,1
21809956000,21809956000,0.44010708,5.7241205e-06,0.8447733,1.0024643,0.07909863,1.0,1
21810060000,21810060000,0.43878058,5.557969e-06,0.84721214,1.0023532,0.07956481,1.0,1
21810156000,21810156000,0.43793172,5.4147386e-06,0.5200169,1.0023003,0.02997744,1.0,1
21810252000,21810252000,0.43734357,5.2772966e-06,0.33357066,1.0023054,0.012334829,1.0,1
21810356000,21810356000,0.43707353,5.1334737e-06,-0.4339612,1.002279,0.020877123,1.0,1
21810460000,21810460000,0.43693897,4.9929736e-06,0.031309724,1.0022951,0.00010867267,1.0,1
21810556000,21810556000,0.4370734,4.8662564e-06,-0.07198745,1.002314,0.00057447,1.0,1
21810652000,21810652000,0.43728754,4.742011e-06,-0.2714819,1.0023477,0.008169977,1.0,1
21810756000,21810756000,0.4374462,4.6117316e-06,-0.040687717,1.0023011,0.00018352107,1.0,1
21810852000,21810852000,0.43760628,4.4963467e-06,-0.17198628,1.0022951,0.0032790608,1.0,1
21810956000,21810956000,0.43773052,4.3771424e-06,-0.065143526,1.002226,0.00047047262,1.0,1
21811052000,21811052000,0.43798122,4.272149e-06,-1.0397466,1.002209,0.11985448,1.0017343,1
21811156000,21811156000,0.43819192,4.1638837e-06,-0.2012658,1.002144,0.004491251,1.0,1
21811252000,21811252000,0.43848917,4.068437e-06,-0.21592517,1.0021327,0.0051693846,1.0,1
21811356000,21811356000,0.43874806,3.970552e-06,-0.27956206,1.0020487,0.008666128,1.0,1
21811452000,21811452000,0.43902522,3.8845424e-06,-0.16390124,1.002031,0.0029787964,1.0,1
21811556000,21811556000,0.43931827,3.7963437e-06,-0.21570271,1.0019547,0.0051596547,1.0,1
21811660000,21811660000,0.43964002,3.7123848e-06,-0.26759866,1.0019138,0.007941362,1.0,1
21811756000,21811756000,0.44001874,3.638505e-06,-1.1076269,1.0018747,0.1360602,1.0003955,1
21811860000,21811860000,0.44037533,3.5616263e-06,-0.36814252,1.0018493,0.015030971,1.0,1
21811956000,21811956000,0.440739,3.4937632e-06,-0.28933483,1.0018196,0.009284733,1.0,1
21812060000,21812060000,0.44109288,3.4232621e-06,-0.3626141,1.0017875,0.014583818,1.0,1
21812156000,21812156000,0.4414231,3.3606689e-06,-0.29109251,1.0017631,0.009398413,1.0,1
21812260000,21812260000,0.4417436,3.2956834e-06,-0.31905523,1.0017239,0.011291228,1.0,1
21812356000,21812356000,0.44197926,3.2386117e-06,-0.23029244,1.0016835,0.005882831,1.0,1
21812460000,21812460000,0.44223347,3.17972e-06,-0.56446403,1.0016422,0.03534414,1.0,1
21812556000,21812556000,0.44248882,3.1278962e-06,-0.2545231,1.0016108,0.0071864254,1.0,1
21812652000,21812652000,0.4427689,3.0781289e-06,-0.2043367,1.0016022,0.0046318555,1.0,1
21812756000,21812756000,0.44297716,3.0267747e-06,-0.23364812,1.001544,0.006056365,1.0,1
21812852000,21812852000,0.4432261,2.9812334e-06,-0.16518861,1.0015409,0.0030272547,1.0,1
21812956000,21812956000,0.4434459,2.9340906e-06,-0.30757678,1.0014883,0.010495875,1.0,1
21813052000,21813052000,0.4436845,2.8920663e-06,-0.34296566,1.0014874,0.013050083,1.0,1
21813156000,21813156000,0.4439235,2.8484337e-06,-0.28601617,1.0014415,0.009076388,1.0,1
21813260000,21813260000,0.44415757,2.8063741e-06,-0.28074467,1.0014197,0.008745092,1.0,1
21813356000,21813356000,0.44440222,2.7690335e-06,-0.9044538,1.0013971,0.090766154,1.0,1
21813452000,21813452000,0.44456163,2.7328776e-06,-0.30135253,1.0013983,0.010076283,1.0,1
21813556000,21813556000,0.4447564,2.6950654e-06,-0.060879678,1.0013661,0.0004112532,1.0,1
21813652000,21813652000,0.44491845,2.6612606e-06,-0.309432,1.0013613,0.010624223,1.0,1
21813756000,21813756000,0.44507185,2.6261334e-06,-0.17234579,1.0013201,0.00329599,1.0,1
21813852000,21813852000,0.44524196,2.5947988e-06,-0.1906032,1.0013198,0.0040312996,1.0,1
21813956000,21813956000,0.44540653,2.5621143e-06,-0.20674333,1.0012823,0.004743118,1.0,1
21814060000,21814060000,0.44564202,2.5304396e-06,-0.8320768,1.001269,0.07683048,1.0,1
21814156000,21814156000,0.445734,2.5021811e-06,-0.22798453,1.0012496,0.0057680095,1.0,1
21814260000,21814260000,0.44589373,2.4726055e-06,-0.09802709,1.0012356,0.0010663834,1.0,1
21814356000,21814356000,0.44600978,2.446313e-06,-0.19825226,1.0012153,0.0043618055,1.0,1
21814452000,21814452000,0.44617444,2.420739e-06,-0.32788682,1.0012213,0.011930958,1.0,1
21814556000,21814556000,0.4463348,2.3938978e-06,-0.24598438,1.001192,0.0067151417,1.0,1
21814652000,21814652000,0.44647038,2.3697537e-06,-0.24975398,1.0011966,0.0069224997,1.0,1
21814756000,21814756000,0.44659778,2.344353e-06,-0.40123174,1.0011681,0.017866563,1.0,1
21814852000,21814852000,0.44672486,2.3214707e-06,-0.1964043,1.001174,0.004281046,1.0,1
21814956000,21814956000,0.44685578,2.297535e-06,0.014244527,1.0011482,2.2519314e-05,1.0,1
21815052000,21815052000,0.44695023,2.276089e-06,-0.1913672,1.0011456,0.0040643886,1.0,1
21815156000,21815156000,0.44707665,2.253644e-06,-0.09935032,1.0011178,0.001095496,1.0,1
21815252000,21815252000,0.44718334,2.2335332e-06,-0.23532984,1.0011187,0.0061464724,1.0,1
21815356000,21815356000,0.4473071,2.2124611e-06,-0.16422121,1.001092,0.0029932433,1.0,1
21815460000,21815460000,0.44743177,2.1919461e-06,-0.36046964,1.0010792,0.014422031,1.0,1
21815556000,21815556000,0.44754946,2.1735855e-06,-0.19232339,1.0010706,0.004105414,1.0,1
21815652000,21815652000,0.44767538,2.155676e-06,-0.055485263,1.0010784,0.00034169978,1.0,1
21815756000,21815756000,0.44775635,2.136981e-06,-0.22529714,1.0010453,0.0056339772,1.0,1
21815852000,21815852000,0.4478673,2.1201665e-06,-0.13515247,1.0010533,0.0020274413,1.0,1
21815956000,21815956000,0.44797784,2.1024532e-06,-0.14650466,1.001031,0.0023823897,1.0,1
21816060000,21816060000,0.4480807,2.0851176e-06,-0.17330556,1.0010245,0.0033337865,1.0,1
21816156000,21816156000,0.44815826,2.0694672e-06,0.29954544,1.0010208,0.009959552,1.0,1
21816260000,21816260000,0.4482633,2.0528798e-06,-0.14460103,1.0010096,0.00232093,1.0,1
21816356000,21816356000,0.448363,2.038077e-06,0.025076732,1.0010031,6.980137e-05,1.0,1
21816460000,21816460000,0.44843468,2.022478e-06,-0.109182075,1.0009885,0.0013232171,1.0,1
21816556000,21816556000,0.44853246,2.008509e-06,-0.07820136,1.0009819,0.00067882816,1.0,1
21816652000,21816652000,0.448616,1.9948557e-06,-0.24596141,1.0009863,0.0067152674,1.0,1
21816756000,21816756000,0.44871914,1.9804295e-06,-0.075212836,1.0009694,0.0006279436,1.0,1
21816852000,21816852000,0.44879326,1.9673873e-06,-0.19462883,1.0009744,0.0042048343,1.0,1
21816956000,21816956000,0.44885325,1.9536794e-06,-0.01721979,1.0009528,3.291543e-05,1.0,1
21817052000,21817052000,0.4489501,1.9413246e-06,-0.87331605,1.0009578,0.08466124,1.0,1
21817156000,21817156000,0.44901648,1.9282754e-06,-0.17300294,1.0009394,0.0033224365,1.0,1
21817260000,21817260000,0.44911462,1.9155189e-06,-0.085336454,1.0009362,0.0008083888,1.0,1
21817356000,21817356000,0.4491819,1.9040074e-06,-0.113244176,1.0009303,0.0014235914,1.0,1
21817452000,21817452000,0.4492525,1.8927033e-06,-0.11527894,1.0009366,0.0014751998,1.0,1
21817556000,21817556000,0.44933087,1.8808049e-06,-0.06950428,1.000919,0.00053626776,1.0,1
21817652000,21817652000,0.4494031,1.8700182e-06,-0.15781903,1.0009263,0.0027648667,1.0,1
21817756000,21817756000,0.44947648,1.8586212e-06,-0.6876006,1.0009071,0.052485127,1.0,1
21817852000,21817852000,0.44950676,1.8483305e-06,-0.12901604,1.000913,0.0018477729,1.0,1
21817956000,21817956000,0.44956878,1.8375079e-06,0.005852923,1.0008965,3.8028913e-06,1.0,1
21818052000,21818052000,0.4496324,1.8277145e-06,-0.19601533,1.0009024,0.004265263,1.0,1
21818156000,21818156000,0.44969368,1.8173686e-06,-0.12151928,1.0008847,0.0016393204,1.0,1
21818252000,21818252000,0.44974202,1.8080478e-06,-0.18771088,1.0008886,0.003911566,1.0,1
21818356000,21818356000,0.44979393,1.7982907e-06,-0.036666892,1.0008686,0.00014925492,1.0,1
21818452000,21818452000,0.44985446,1.7894959e-06,-0.4019026,1.0008727,0.01793165,1.0,1
21818556000,21818556000,0.4499085,1.7802478e-06,-0.0977643,1.0008562,0.0010610757,1.0,1
21818660000,21818660000,0.44998047,1.7711944e-06,0.06335737,1.0008541,0.00044563672,1.0,1
21818756000,21818756000,0.4500286,1.7630333e-06,-0.15625358,1.0008487,0.0027104975,1.0,1
21818852000,21818852000,0.4500909,1.7549816e-06,-0.057206452,1.0008575,0.00036330827,1.0,1
21818956000,21818956000,0.4501542,1.7464832e-06,-0.15070206,1.0008425,0.0025213328,1.0,1
21819052000,21819052000,0.45020697,1.7387433e-06,-0.11169876,1.0008498,0.0013851133,1.0,1
21819156000,21819156000,0.45025557,1.7305877e-06,-0.29380086,1.0008322,0.009583019,1.0,1
21819252000,21819252000,0.45030823,1.723188e-06,-0.16109058,1.0008404,0.0028809318,1.0,1
21819356000,21819356000,0.45038232,1.715394e-06,0.047517262,1.0008274,0.00025066928,1.0,1
21819452000,21819452000,0.4504186,1.7083468e-06,-0.16772553,1.0008309,0.0031231665,1.0,1
21819556000,21819556000,0.45047554,1.7009296e-06,-0.10005885,1.0008162,0.0011115121,1.0,1
21819652000,21819652000,0.45054063,1.6941871e-06,-0.1735479,1.0008246,0.003343784,1.0,1
21819756000,21819756000,0.45059055,1.6870623e-06,-0.11540145,1.0008091,0.0014785253,1.0,1
21819852000,21819852000,0.45063284,1.6805947e-06,0.3544578,1.0008179,0.013948628,1.0,1
21819956000,21819956000,0.45070767,1.6737257e-06,-0.107141525,1.0008049,0.0012744527,1.0,1
21820052000,21820052000,0.45077607,1.6674732e-06,-0.046959966,1.0008144,0.0002448271,1.0,1
21820156000,21820156000,0.45080566,1.6609006e-06,-0.06820215,1.0007964,0.00051642576,1.0,1
21820252000,21820252000,0.45086268,1.6549391e-06,-0.12471778,1.0008042,0.0017268918,1.0,1
21820356000,21820356000,0.45091632,1.6486631e-06,-0.15260482,1.0007896,0.0025855396,1.0,1
21820452000,21820452000,0.45095643,1.6429499e-06,-0.09212685,1.0007969,0.0009422886,1.0,1
21820556000,21820556000,0.45100597,1.6369074e-06,0.3128193,1.0007865,0.010864334,1.0,1
21820652000,21820652000,0.45106772,1.6313452e-06,-0.111261986,1.0007946,0.0013743779,1.0,1
21820756000,21820756000,0.45112878,1.6254949e-06,0.037281647,1.0007828,0.00015431488,1.0,1
21820852000,21820852000,0.45115876,1.6201859e-06,-0.060452923,1.0007875,0.00040574223,1.0,1
21820956000,21820956000,0.45119652,1.6145998e-06,0.0994591,1.0007741,0.0010982733,1.0,1
21821060000,21821060000,0.451242,1.6091384e-06,-0.08460888,1.0007709,0.0007947943,1.0,1
21821156000,21821156000,0.45129082,1.6041654e-06,-0.020530365,1.0007702,4.679683e-05,1.0,1
21821252000,21821252000,0.45133245,1.5992513e-06,-0.16393481,1.0007781,0.0029837475,1.0,1
21821356000,21821356000,0.45136037,1.5940578e-06,-0.059342142,1.0007646,0.00039097772,1.0,1
21821460000,21821460000,0.45140946,1.5889752e-06,0.052057736,1.0007629,0.0003008824,1.0,1
21821556000,21821556000,0.4514253,1.584421e-06,-0.045363642,1.0007565,0.00022847828,1.0,1
21821660000,21821660000,0.4514672,1.5795933e-06,0.044061914,1.0007533,0.00021555454,1.0,1
21821756000,21821756000,0.45150533,1.5752748e-06,-0.10492812,1.0007496,0.0012224071,1.0,1
21821852000,21821852000,0.45153692,1.5710115e-06,-0.027295128,1.0007567,8.2717845e-05,1.0,1
21821956000,21821956000,0.4515809,1.5665354e-06,-0.085761085,1.0007446,0.0008166101,1.0,1
21822052000,21822052000,0.4516171,1.562442e-06,-0.15608172,1.0007524,0.0027047985,1.0,1
21822156000,21822156000,0.4516758,1.5580957e-06,-0.65802443,1.0007415,0.048075035,1.0,1
21822252000,21822252000,0.45170397,1.554107e-06,-0.13628362,1.0007511,0.0020621426,1.0,1
21822356000,21822356000,0.45174593,1.5498917e-06,0.05809993,1.0007402,0.00037478947,1.0,1
21822452000,21822452000,0.4517665,1.5460719e-06,-0.10335404,1.0007453,0.0011860112,1.0,1
21822556000,21822556000,0.4517996,1.5420319e-06,0.011205666,1.0007344,1.3941644e-05,1.0,1
21822652000,21822652000,0.4518474,1.5383434e-06,-0.20502566,1.0007443,0.0046671396,1.0,1
21822756000,21822756000,0.45186412,1.5343896e-06,0.045902997,1.0007324,0.00023394923,1.0,1
21822852000,21822852000,0.4518849,1.5308265e-06,-0.23943299,1.000737,0.006365104,1.0,1
21822956000,21822956000,0.45191646,1.527084e-06,-0.08692382,1.0007257,0.0008389191,1.0,1
21823052000,21823052000,0.45195344,1.5236784e-06,0.016821906,1.0007348,3.141875e-05,1.0,1
21823156000,21823156000,0.45198193,1.5201093e-06,-0.0910714,1.0007222,0.0009208905,1.0,1
21823252000,21823252000,0.45200843,1.5168301e-06,-0.04919932,1.0007303,0.0002687563,1.0,1
21823356000,21823356000,0.45202613,1.5134001e-06,-0.060013235,1.0007175,0.00039988957,1.0,1
21823452000,21823452000,0.45206332,1.5102568e-06,-0.11465648,1.0007272,0.0014596174,1.0,1
21823556000,21823556000,0.452085,1.5069091e-06,-0.19825745,1.0007148,0.0043642153,1.0,1
21823660000,21823660000,0.4521219,1.503606e-06,-0.046771474,1.0007153,0.0002428897,1.0,1
21823756000,21823756000,0.4521554,1.500621e-06,0.1278359,1.0007154,0.0018144818,1.0,1
21823860000,21823860000,0.45217818,1.4974513e-06,-0.099573106,1.0007117,0.0011008614,1.0,1
21823956000,21823956000,0.45220208,1.4945754e-06,0.07978899,1.0007107,0.0007068624,1.0,1
21824052000,21824052000,0.45223236,1.4917435e-06,-0.1893391,1.0007188,0.0039803935,1.0,1
21824156000,21824156000,0.45225403,1.4887174e-06,-0.07722088,1.0007086,0.0006620936,1.0,1
21824252000,21824252000,0.4522717,1.4859476e-06,0.4473681,1.0007181,0.022221621,1.0,1
21824356000,21824356000,0.452296,1.4830371e-06,0.025410376,1.0007049,7.169249e-05,1.0,1
21824460000,21824460000,0.45233798,1.4801846e-06,-0.008067705,1.000706,7.2268826e-06,1.0,1
21824556000,21824556000,0.45234212,1.4775857e-06,-0.10033978,1.0007026,0.0011178891,1.0,1
21824652000,21824652000,0.4523602,1.4750228e-06,-0.00056000054,1.0007108,3.481976e-08,1.0,1
21824756000,21824756000,0.45237657,1.4723428e-06,-0.05569323,1.0006992,0.00034439657,1.0,1
21824860000,21824860000,0.45238557,1.4697092e-06,0.08878443,1.0006962,0.00087524334,1.0,1
21824956000,21824956000,0.4523932,1.4673499e-06,0.49836466,1.0006953,0.027577193,1.0,1
21825052000,21825052000,0.45243317,1.4650019e-06,-0.05081261,1.0007036,0.00028667843,1.0,1
21825156000,21825156000,0.4524663,1.4625301e-06,0.005935181,1.0006946,3.9113247e-06,1.0,1
21825252000,21825252000,0.4524798,1.4602742e-06,-0.14659314,1.0006994,0.0023860587,1.0,1
21825356000,21825356000,0.45250773,1.4579089e-06,0.08149277,1.0006893,0.0007373885,1.0,1
21825452000,21825452000,0.45253173,1.4557736e-06,-0.1433209,1.0006964,0.002280732,1.0,1
21825556000,21825556000,0.45256737,1.4534796e-06,-0.06408586,1.0006887,0.00045601907,1.0,1
21825652000,21825652000,0.452597,1.4513636e-06,-0.22194502,1.0006971,0.005469475,1.0,1
21825756000,21825756000,0.4526135,1.4491269e-06,-0.03313171,1.0006866,0.00012188412,1.0,1
21825852000,21825852000,0.4526532,1.4470961e-06,-0.74292004,1.0006936,0.061283074,1.0,1
21825956000,21825956000,0.45265368,1.4449481e-06,0.02618412,1.0006835,7.612664e-05,1.0,1
21826052000,21826052000,0.45268586,1.4429933e-06,-0.041305564,1.000693,0.0001894409,1.0,1
21826156000,21826156000,0.4527151,1.4408967e-06,-0.047826122,1.0006841,0.00025397493,1.0,1
21826252000,21826252000,0.45272312,1.4389774e-06,-0.06906999,1.0006906,0.00052970793,1.0,1
21826356000,21826356000,0.45275375,1.4369509e-06,-0.030234642,1.0006834,0.00010150103,1.0,1
21826460000,21826460000,0.4527653,1.4349297e-06,0.011424124,1.0006813,1.4491307e-05,1.0,1
21826556000,21826556000,0.45279476,1.4331226e-06,-0.6284621,1.0006784,0.0438552,1.0,1
21826652000,21826652000,0.4527953,1.431342e-06,-0.05569195,1.0006865,0.00034438504,1.0,1
21826756000,21826756000,0.45280975,1.4294847e-06,0.06173523,1.0006766,0.00042318463,1.0,1
21826852000,21826852000,0.45283222,1.4277979e-06,-0.1516662,1.0006845,0.0025540998,1.0,1
21826956000,21826956000,0.45285907,1.425965e-06,-0.014999792,1.0006768,2.4982399e-05,1.0,1
21827052000,21827052000,0.45287213,1.4242974e-06,-0.10312761,1.0006839,0.0011808929,1.0,1
21827156000,21827156000,0.4528788,1.4225357e-06,0.04936553,1.000674,0.00027059048,1.0,1
21827260000,21827260000,0.45291445,1.4208083e-06,-0.66830397,1.0006726,0.049592223,1.0,1
21827356000,21827356000,0.4529148,1.4192177e-06,-0.004200395,1.0006732,1.9590502e-06,1.0,1
21827452000,21827452000,0.45293728,1.4176514e-06,0.09381986,1.0006822,0.0009773516,1.0,1
21827556000,21827556000,0.45293063,1.4160353e-06,0.011220697,1.0006685,1.3979992e-05,1.0,1
21827652000,21827652000,0.45294583,1.4145814e-06,-0.04941596,1.0006757,0.00027114316,1.0,1
21827756000,21827756000,0.4529741,1.4130608e-06,-0.05072007,1.0006666,0.00028564574,1.0,1
21827860000,21827860000,0.45299536,1.4115523e-06,-0.091081746,1.0006651,0.00092115236,1.0,1
21827956000,21827956000,0.4530077,1.4101929e-06,-0.19915296,1.0006622,0.004403962,1.0,1
21828052000,21828052000,0.45302552,1.4088657e-06,-0.12825938,1.0006698,0.0018266061,1.0,1
21828156000,21828156000,0.45305896,1.407491e-06,0.061491594,1.0006623,0.00041985704,1.0,1
21828252000,21828252000,0.4530721,1.4062284e-06,-0.09504275,1.0006688,0.0010030097,1.0,1
21828356000,21828356000,0.4530956,1.40489e-06,0.050201517,1.0006609,0.00027983641,1.0,1
21828452000,21828452000,0.45311603,1.4036497e-06,-0.12928799,1.0006695,0.0018560223,1.0,1
21828556000,21828556000,0.45313236,1.4023088e-06,-0.031181477,1.0006615,0.00010796019,1.0,1
21828660000,21828660000,0.45313838,1.400984e-06,-0.2382549,1.000658,0.006303119,1.0,1
21828756000,21828756000,0.4531533,1.3998022e-06,-0.07394234,1.0006578,0.0006070973,1.0,1
21828852000,21828852000,0.45318937,1.3986457e-06,-0.008360602,1.0006688,7.7614395e-06,1.0,1
21828956000,21828956000,0.4531908,1.3973955e-06,0.0032061748,1.0006591,1.1414206e-06,1.0,1
21829052000,21829052000,0.45320457,1.3962347e-06,0.03805404,1.0006677,0.00016079376,1.0,1
21829156000,21829156000,0.45321867,1.3950391e-06,-0.06427696,1.0006573,0.00045875713,1.0,1
21829252000,21829252000,0.45323113,1.3939317e-06,-0.077892415,1.0006646,0.0006736888,1.0,1
21829356000,21829356000,0.45323431,1.3927885e-06,0.4844945,1.0006555,0.026064573,1.0,1
21829452000,21829452000,0.45325464,1.3917427e-06,-0.06648146,1.000662,0.00049076235,1.0,1
21829556000,21829556000,0.45328826,1.390644e-06,0.12773354,1.0006565,0.0018116839,1.0,1
21829652000,21829652000,0.45329306,1.3896241e-06,-0.0817402,1.0006623,0.00074189313,1.0,1
21829756000,21829756000,0.45332396,1.3885303e-06,-0.046168998,1.000656,0.00023668655,1.0,1
21829860000,21829860000,0.453343,1.3874259e-06,-0.07498118,1.0006555,0.0006242772,1.0,1
21829956000,21829956000,0.45335358,1.3864159e-06,-0.015147774,1.0006545,2.5478332e-05,1.0,1
21830060000,21830060000,0.45336303,1.3853528e-06,0.44444352,1.0006541,0.021933436,1.0,1
21830156000,21830156000,0.45339075,1.3843932e-06,-0.01807287,1.0006528,3.6268397e-05,1.0,1
21830252000,21830252000,0.4534158,1.3834546e-06,-0.7007039,1.0006585,0.0545181,1.0,1
21830356000,21830356000,0.4534094,1.3825008e-06,-0.036693312,1.0006485,0.00014950296,1.0,1
21830452000,21830452000,0.45343992,1.3816239e-06,-0.026543498,1.0006591,7.823258e-05,1.0,1
21830556000,21830556000,0.4534497,1.3806969e-06,-0.076884516,1.0006491,0.0006563771,1.0,1
21830652000,21830652000,0.45346877,1.3798207e-06,-0.015482388,1.0006592,2.6616271e-05,1.0,1
21830756000,21830756000,0.45349357,1.3788643e-06,0.041773785,1.0006528,0.00019376788,1.0,1
21830852000,21830852000,0.45348045,1.3779899e-06,-0.0027246252,1.0006568,8.24301e-07,1.0,1
21830956000,21830956000,0.4535029,1.377135e-06,-0.59539634,1.0006455,0.039363123,1.0,1
21831052000,21831052000,0.45349795,1.3763631e-06,-0.13005562,1.0006526,0.0018781594,1.0,1
21831156000,21831156000,0.45351857,1.3755655e-06,0.017036619,1.0006449,3.2228814e-05,1.0,1
21831260000,21831260000,0.45352957,1.3747821e-06,-0.04204328,1.0006429,0.00019627796,1.0,1
21831356000,21831356000,0.4535372,1.3740893e-06,-0.0301698,1.0006413,0.000101070385,1.0,1
21831460000,21831460000,0.45356345,1.373353e-06,-0.053573553,1.0006418,0.0003186983,1.0,1
21831556000,21831556000,0.4535873,1.3726667e-06,-0.038353097,1.0006427,0.00016333503,1.0,1
21831652000,21831652000,0.4535991,1.3719736e-06,-0.2657639,1.0006487,0.00784274,1.0,1
21831756000,21831756000,0.45361418,1.3712583e-06,0.023106048,1.0006409,5.928306e-05,1.0,1
21831852000,21831852000,0.4536475,1.3705961e-06,-0.014865674,1.000652,2.4538253e-05,1.0,1
21831956000,21831956000,0.45365092,1.3698863e-06,0.023558896,1.0006422,6.1629486e-05,1.0,1
21832060000,21832060000,0.45366803,1.3691616e-06,0.07265709,1.0006423,0.0005861849,1.0,1
21832156000,21832156000,0.45368427,1.3685275e-06,-0.02465969,1.0006417,6.752337e-05,1.0,1
21832252000,21832252000,0.4537027,1.3678786e-06,0.0113956705,1.0006497,1.44196665e-05,1.0,1
21832356000,21832356000,0.45371267,1.3672252e-06,-0.19038165,1.0006382,0.004024673,1.0,1
21832452000,21832452000,0.45372334,1.3666287e-06,-0.010900997,1.000646,1.3195002e-05,1.0,1
21832556000,21832556000,0.453739,1.3660589e-06,0.057102233,1.0006369,0.0003620655,1.0,1
21832652000,21832652000,0.4537527,1.3655291e-06,-0.09793107,1.0006441,0.0010649246,1.0,1
21832756000,21832756000,0.45378047,1.3649534e-06,0.0029681895,1.0006375,9.782818e-07,1.0,1
21832852000,21832852000,0.45381334,1.3643956e-06,-0.12758996,1.0006475,0.0018076291,1.0,1
21832956000,21832956000,0.453827,1.3637833e-06,0.009292314,1.000639,9.587996e-06,1.0,1
21833052000,21833052000,0.45383435,1.3632064e-06,0.4691224,1.000649,0.024437012,1.0,1
21833156000,21833156000,0.453855,1.3625928e-06,-0.013572926,1.0006403,2.0456271e-05,1.0,1
21833252000,21833252000,0.4538803,1.3620066e-06,0.05751326,1.0006508,0.00036729153,1.0,1
21833356000,21833356000,0.4538675,1.3614213e-06,0.047160715,1.0006379,0.00024696835,1.0,1
21833460000,21833460000,0.45386043,1.360881e-06,0.11946672,1.0006351,0.0015848043,1.0,1
21833556000,21833556000,0.45386684,1.3604346e-06,-0.028624099,1.0006341,9.097998e-05,1.0,1
21833652000,21833652000,0.45388153,1.3599712e-06,-0.04610059,1.0006427,0.00023598882,1.0,1
21833756000,21833756000,0.45389453,1.359472e-06,0.5130903,1.0006365,0.029232694,1.0,1
21833852000,21833852000,0.45392334,1.3589892e-06,-0.11890936,1.0006438,0.0015700376,1.0,1
21833956000,21833956000,0.45395166,1.3584914e-06,0.11966187,1.0006374,0.0015899824,1.0,1
21834052000,21834052000,0.45395178,1.3580358e-06,-0.060397718,1.0006423,0.0004050603,1.0,1
21834156000,21834156000,0.45396265,1.3575956e-06,0.060828738,1.0006328,0.00041086614,1.0,1
21834252000,21834252000,0.45397967,1.3571984e-06,-0.14447069,1.0006405,0.0023176023,1.0,1
21834356000,21834356000,0.45399478,1.3567638e-06,0.01105375,1.0006331,1.3567565e-05,1.0,1
21834452000,21834452000,0.45401648,1.3563449e-06,-0.087389186,1.0006423,0.0008479964,1.0,1
21834556000,21834556000,0.45401806,1.3559059e-06,0.015201778,1.0006328,2.566088e-05,1.0,1
21834652000,21834652000,0.45404798,1.3555e-06,-0.70499766,1.0006402,0.055189304,1.0,1
21834756000,21834756000,0.454042,1.3550989e-06,-0.059316114,1.000631,0.00039068697,1.0,1
21834860000,21834860000,0.45406494,1.3546928e-06,0.083737224,1.0006317,0.0007786107,1.0,1
21834956000,21834956000,0.45407414,1.3543604e-06,-0.0025626477,1.0006297,7.292257e-07,1.0,1
21835052000,21835052000,0.45408824,1.3540231e-06,-0.06366045,1.0006375,0.0004500079,1.0,1
21835156000,21835156000,0.45410195,1.3536857e-06,-0.049618687,1.0006292,0.0002733851,1.0,1
21835252000,21835252000,0.45410898,1.35336e-06,-0.1174621,1.0006369,0.0015320624,1.0,1
21835356000,21835356000,0.45413408,1.3530151e-06,-0.61411756,1.0006294,0.041878127,1.0,1
21835452000,21835452000,0.4541339,1.3526669e-06,-0.12271546,1.000639,0.001672163,1.0,1
21835556000,21835556000,0.454148,1.3522921e-06,0.11359674,1.0006326,0.0014328955,1.0,1
21835652000,21835652000,0.4541429,1.3519528e-06,-0.06459919,1.0006382,0.00046337713,1.0,1
21835756000,21835756000,0.4541553,1.3516036e-06,0.08931898,1.0006306,0.0008858725,1.0,1
21835852000,21835852000,0.45416808,1.3512813e-06,-0.123171255,1.0006375,0.0016846104,1.0,1
21835956000,21835956000,0.45416686,1.350981e-06,0.051393658,1.0006269,0.0002932948,1.0,1
21836060000,21836060000,0.45420066,1.3506907e-06,-0.65267223,1.0006268,0.04730158,1.0,1
21836156000,21836156000,0.4542009,1.3504098e-06,-0.046768274,1.0006279,0.00024287766,1.0,1
21836260000,21836260000,0.45421618,1.3500976e-06,0.18744303,1.0006293,0.0039014213,1.0,1
21836356000,21836356000,0.45422077,1.3498441e-06,-0.047892198,1.0006272,0.00025469167,1.0,1
21836452000,21836452000,0.4542299,1.3495709e-06,-0.016711216,1.000636,3.1009695e-05,1.0,1
21836556000,21836556000,0.454242,1.3492933e-06,0.0035801004,1.0006286,1.4232297e-06,1.0,1
21836652000,21836652000,0.4542439,1.3490123e-06,-0.030493429,1.0006363,0.00010325088,1.0,1
21836756000,21836756000,0.45424122,1.348741e-06,-0.17140584,1.0006254,0.0032623997,1.0,1
21836860000,21836860000,0.4542435,1.3484782e-06,0.0074782614,1.0006258,6.2099352e-06,1.0,1
21836956000,21836956000,0.4542713,1.3482346e-06,-0.020309579,1.0006292,4.580218e-05,1.0,1
21837052000,21837052000,0.4542716,1.3479572e-06,-0.10305433,1.0006363,0.0011792713,1.0,1
21837156000,21837156000,0.45428407,1.34767e-06,0.11999289,1.0006295,0.0015988039,1.0,1
21837252000,21837252000,0.45428926,1.3473979e-06,-0.025051765,1.0006363,6.968798e-05,1.0,1
21837356000,21837356000,0.45428053,1.3471564e-06,0.05044997,1.000625,0.0002826233,1.0,1
21837460000,21837460000,0.45429638,1.3469232e-06,-0.29555455,1.0006247,0.009699773,1.0,1
21837556000,21837556000,0.45430574,1.3466838e-06,0.026193563,1.0006269,7.6185876e-05,1.0,1
21837660000,21837660000,0.4543216,1.346421e-06,0.14706391,1.0006293,0.0024015768,1.0,1
21837756000,21837756000,0.45432392,1.3461705e-06,0.0021064905,1.0006288,4.9272376e-07,1.0,1
21837860000,21837860000,0.4543255,1.3458847e-06,0.0951978,1.0006291,0.0010063248,1.0,1
21837956000,21837956000,0.4543298,1.3456278e-06,0.03970602,1.0006299,0.00017506398,1.0,1
21838052000,21838052000,0.4543299,1.3453541e-06,-0.012477726,1.0006375,1.7288272e-05,1.0,1
21838156000,21838156000,0.45431954,1.3450885e-06,0.5339113,1.0006291,0.03165356,1.0,1
21838252000,21838252000,0.45433664,1.3448307e-06,-0.10034956,1.0006367,0.0011181807,1.0,1
21838356000,21838356000,0.4543568,1.3445643e-06,0.057608396,1.0006313,0.00036851483,1.0,1
21838452000,21838452000,0.4543502,1.3442972e-06,-0.064620614,1.0006375,0.00046368482,1.0,1
21838556000,21838556000,0.45435154,1.3440283e-06,0.16766098,1.0006298,0.0031213902,1.0,1
21838652000,21838652000,0.45435053,1.343794e-06,-0.02526217,1.000636,7.086351e-05,1.0,1
21838756000,21838756000,0.45434126,1.3435737e-06,0.081645355,1.0006256,0.0007401996,1.0,1
21838852000,21838852000,0.4543501,1.3433913e-06,-0.042531136,1.0006332,0.00020086142,1.0,1
21838956000,21838956000,0.4543541,1.3432181e-06,-0.00667216,1.0006243,4.9433265e-06,1.0,1
21839052000,21839052000,0.45438272,1.3430443e-06,-0.7445017,1.0006319,0.06154808,1.0,1
21839156000,21839156000,0.45437047,1.3428803e-06,-0.041475482,1.0006227,0.00019101612,1.0,1
21839252000,21839252000,0.45439503,1.3427253e-06,0.047360323,1.0006334,0.00024906453,1.0,1
21839356000,21839356000,0.45439804,1.3425736e-06,-0.07586557,1.0006235,0.00063911086,1.0,1
21839460000,21839460000,0.45439965,1.3424045e-06,0.119166955,1.0006232,0.0015768798,1.0,1
21839556000,21839556000,0.45441136,1.3422796e-06,-0.0616297,1.0006231,0.00042176168,1.0,1
21839652000,21839652000,0.45441884,1.3421176e-06,-0.03348408,1.0006324,0.00012449721,1.0,1
21839756000,21839756000,0.45443666,1.3419493e-06,-0.54923713,1.0006247,0.033497013,1.0,1
21839860000,21839860000,0.454425,1.341757e-06,0.030375557,1.0006244,0.00010245541,1.0,1
21839956000,21839956000,0.45443353,1.3416071e-06,0.13690753,1.0006249,0.0020813297,1.0,1
21840052000,21840052000,0.45443526,1.341469e-06,-0.14498715,1.0006312,0.0023342238,1.0,1
21840156000,21840156000,0.45443904,1.3413273e-06,0.004953958,1.0006232,2.7251572e-06,1.0,1
21840260000,21840260000,0.45446327,1.3411736e-06,-0.028443096,1.0006257,8.983376e-05,1.0,1
21840356000,21840356000,0.45446455,1.3409966e-06,0.04331885,1.0006267,0.00020837194,1.0,1
21840460000,21840460000,0.4544811,1.3407989e-06,-0.6237296,1.0006257,0.04319948,1.0,1
21840556000,21840556000,0.4544596,1.3406241e-06,0.009703986,1.0006255,1.0456498e-05,1.0,1
21840652000,21840652000,0.45446423,1.3404566e-06,0.1060676,1.0006343,0.0012492449,1.0,1
21840756000,21840756000,0.45446303,1.3403192e-06,-0.10213621,1.0006241,0.0011583667,1.0,1
21840860000,21840860000,0.45446813,1.340153e-06,0.07461874,1.0006242,0.00061827595,1.0,1
21840956000,21840956000,0.45447454,1.3400348e-06,-0.105503604,1.0006232,0.0012360085,1.0,1
21841052000,21841052000,0.45448273,1.3398927e-06,-0.0064556226,1.0006329,4.6276336e-06,1.0,1
21841156000,21841156000,0.45448402,1.3397357e-06,-0.18338042,1.000624,0.003734157,1.0,1
21841252000,21841252000,0.4544763,1.3395812e-06,0.018831044,1.0006323,3.9376017e-05,1.0,1
21841356000,21841356000,0.45449236,1.3394291e-06,0.16314463,1.000627,0.0029554989,1.0,1
21841452000,21841452000,0.45447424,1.3392885e-06,-0.038262643,1.0006318,0.00016256729,1.0,1
21841556000,21841556000,0.45447776,1.3391497e-06,0.102823,1.000625,0.0011739961,1.0,1
21841660000,21841660000,0.45448595,1.3389988e-06,-0.019478178,1.0006249,4.2129162e-05,1.0,1
21841756000,21841756000,0.45448163,1.3388717e-06,0.028482946,1.0006233,9.0085865e-05,1.0,1
21841852000,21841852000,0.45447737,1.3387502e-06,0.49250007,1.0006316,0.026933692,1.0,1
21841956000,21841956000,0.4544785,1.3386726e-06,0.042936258,1.0006194,0.000204709,1.0,1
21842060000,21842060000,0.4544999,1.3386124e-06,0.07738225,1.000621,0.0006649219,1.0,1
21842156000,21842156000,0.45449013,1.3385782e-06,0.00531625,1.0006182,3.1383393e-06,1.0,1
21842252000,21842252000,0.45449844,1.338531e-06,0.11107223,1.0006273,0.0013699228,1.0,1
21842356000,21842356000,0.45450988,1.3385043e-06,-0.025679577,1.0006192,7.322585e-05,1.0,1
21842452000,21842452000,0.45452482,1.3384372e-06,-0.07018261,1.000628,0.00054694526,1.0,1
21842556000,21842556000,0.4545298,1.3383733e-06,0.4975289,1.0006214,0.027486809,1.0,1
21842652000,21842652000,0.4545521,1.3382872e-06,-0.042258963,1.0006292,0.00019829968,1.0,1
21842756000,21842756000,0.4545757,1.3382038e-06,0.15429743,1.0006242,0.0026436495,1.0,1
21842852000,21842852000,0.454565,1.3381185e-06,-0.039417073,1.0006288,0.00017252548,1.0,1
21842956000,21842956000,0.4545806,1.3380466e-06,0.07070727,1.0006217,0.00055515685,1.0,1
21843060000,21843060000,0.4545987,1.3379616e-06,-0.018419102,1.0006222,3.767249e-05,1.0,1
21843156000,21843156000,0.45460653,1.3378781e-06,0.030350275,1.0006213,0.000102285245,1.0,1
21843252000,21843252000,0.4546276,1.3377945e-06,-0.1436314,1.00063,0.0022907765,1.0,1
21843356000,21843356000,0.45464,1.3377067e-06,-0.012577048,1.0006225,1.7564857e-05,1.0,1
21843452000,21843452000,0.45466152,1.3376102e-06,-0.71186054,1.0006298,0.05626961,1.0,1
21843556000,21843556000,0.45464692,1.3375239e-06,-0.03863076,1.0006214,0.00016571209,1.0,1
21843652000,21843652000,0.4546546,1.3374392e-06,0.060807783,1.0006305,0.00041058406,1.0,1
21843756000,21843756000,0.45466807,1.3373623e-06,-0.011723216,1.0006227,1.5260917e-05,1.0,1
21843852000,21843852000,0.45466983,1.3372581e-06,0.02696395,1.0006309,8.0732905e-05,1.0,1
21843956000,21843956000,0.4546807,1.3371701e-06,-0.10843585,1.000623,0.001305668,1.0,1
21844052000,21844052000,0.4546788,1.3370612e-06,-0.017308913,1.0006309,3.326773e-05,1.0,1
21844156000,21844156000,0.45470035,1.3369579e-06,-0.5587538,1.0006235,0.034667917,1.0,1
21844252000,21844252000,0.45468894,1.336836e-06,-0.0695608,1.0006315,0.00053729466,1.0,1
21844356000,21844356000,0.45468977,1.3367512e-06,0.12538798,1.0006229,0.0017458177,1.0,1
21844460000,21844460000,0.45469746,1.3366713e-06,0.04107112,1.0006222,0.0001873098,1.0,1
21844556000,21844556000,0.4546952,1.3365989e-06,0.077853285,1.0006214,0.00067304104,1.0,1
21844660000,21844660000,0.4547101,1.33653e-06,-0.03058082,1.000622,0.00010384503,1.0,1
21844756000,21844756000,0.4547094,1.3364569e-06,0.055079624,1.0006212,0.00033687573,1.0,1
21844852000,21844852000,0.45471656,1.3363907e-06,-0.2182984,1.0006273,0.005291591,1.0,1
21844956000,21844956000,0.454727,1.336342e-06,-0.007128205,1.0006199,5.642203e-06,1.0,1
21845052000,21845052000,0.4547458,1.3362938e-06,0.0044109635,1.0006292,2.1604849e-06,1.0,1
21845156000,21845156000,0.45474833,1.3362738e-06,-0.047214486,1.0006192,0.0002475365,1.0,1
21845252000,21845252000,0.4547574,1.3362336e-06,0.00084650517,1.0006274,7.956908e-08,1.0,1
21845356000,21845356000,0.45476755,1.3362304e-06,-0.06332107,1.0006183,0.00044523116,1.0,1
21845452000,21845452000,0.45477873,1.3362022e-06,-0.027799554,1.0006269,8.581456e-05,1.0,1
21845556000,21845556000,0.45478365,1.3361781e-06,-0.20944054,1.000618,0.0048709167,1.0,1
21845660000,21845660000,0.45479852,1.3361248e-06,-0.02759791,1.0006202,8.457473e-05,1.0,1
21845756000,21845756000,0.4548122,1.3360849e-06,0.092842445,1.0006213,0.0009571518,1.0,1
21845860000,21845860000,0.45481944,1.3360394e-06,-0.008227365,1.0006205,7.5163953e-06,1.0,1
21845956000,21845956000,0.45481995,1.3359927e-06,0.14224951,1.0006201,0.0022469317,1.0,1
21846060000,21846060000,0.45483422,1.335958e-06,-0.0069068987,1.0006194,5.297302e-06,1.0,1
21846156000,21846156000,0.45483938,1.33594e-06,0.0018307101,1.000618,3.7215887e-07,1.0,1
21846252000,21846252000,0.4548439,1.3359179e-06,0.39191684,1.0006275,0.017055832,1.0,1
21846356000,21846356000,0.45485398,1.3358942e-06,0.017737959,1.0006192,3.493783e-05,1.0,1
21846452000,21846452000,0.45488572,1.3358438e-06,0.031698197,1.0006313,0.00011157131,1.0,1
21846556000,21846556000,0.45486945,1.3358026e-06,0.07061602,1.0006195,0.0005537261,1.0,1
21846652000,21846652000,0.45488876,1.3357603e-06,-0.056159627,1.0006291,0.0003502134,1.0,1
21846756000,21846756000,0.4548975,1.3357212e-06,-0.059155524,1.0006211,0.00038857822,1.0,1
21846852000,21846852000,0.45490137,1.3356463e-06,0.0527554,1.0006293,0.00030904243,1.0,1
21846956000,21846956000,0.45489854,1.3356046e-06,0.4770361,1.000621,0.025269134,1.0,1
21847060000,21847060000,0.45490804,1.3355559e-06,-0.074611336,1.0006194,0.0006181561,1.0,1
21847156000,21847156000,0.45492333,1.3355138e-06,0.1953398,1.0006237,0.004237095,1.0,1
21847252000,21847252000,0.45491067,1.335446e-06,-0.10906944,1.000629,0.0013209627,1.0,1
21847356000,21847356000,0.45491737,1.335395e-06,0.015241944,1.0006219,2.579694e-05,1.0,1
21847460000,21847460000,0.45492217,1.3353313e-06,0.0068353983,1.0006207,5.1881875e-06,1.0,1
21847556000,21847556000,0.45490807,1.335314e-06,0.072439194,1.0006173,0.0005826889,1.0,1
21847652000,21847652000,0.4549157,1.3353289e-06,-0.050229475,1.0006245,0.00028015836,1.0,1
21847756000,21847756000,0.4549104,1.3353872e-06,0.042874895,1.0006143,0.00020412535,1.0,1
21847860000,21847860000,0.45493495,1.3354336e-06,0.10041737,1.0006174,0.001119714,1.0,1
21847956000,21847956000,0.45493844,1.3354596e-06,-0.09326124,1.0006169,0.0009658108,1.0,1
21848060000,21848060000,0.45494598,1.3354479e-06,0.06990129,1.0006185,0.00054257445,1.0,1
21848156000,21848156000,0.45495465,1.3354392e-06,-0.05006716,1.0006193,0.00027835215,1.0,1
21848260000,21848260000,0.4549609,1.335402e-06,0.019453576,1.0006199,4.202302e-05,1.0,1
21848356000,21848356000,0.45496383,1.3353823e-06,-0.012463945,1.0006193,1.7250419e-05,1.0,1
21848452000,21848452000,0.4549564,1.3353596e-06,-0.046762653,1.000626,0.00024281975,1.0,1
21848556000,21848556000,0.45497653,1.3353609e-06,-0.56397676,1.0006181,0.035319258,1.0,1
21848652000,21848652000,0.4549671,1.335334e-06,-0.02064638,1.0006266,4.733401e-05,1.0,1
21848756000,21848756000,0.45497042,1.3353272e-06,0.23358247,1.0006193,0.006058556,1.0,1
21848852000,21848852000,0.4549866,1.335312e-06,-0.054713096,1.0006273,0.00033240515,1.0,1
21848956000,21848956000,0.4549875,1.3353022e-06,0.07119639,1.0006183,0.000562866,1.0,1
21849060000,21849060000,0.45499265,1.335308e-06,-0.012690656,1.0006177,1.7883702e-05,1.0,1
21849156000,21849156000,0.45499107,1.3353107e-06,0.060972862,1.0006173,0.00041282186,1.0,1
21849260000,21849260000,0.45500362,1.3353236e-06,0.14625993,1.0006169,0.0023754197,1.0,1
21849356000,21849356000,0.45500264,1.3353568e-06,-0.05649866,1.0006155,0.0003544595,1.0,1
21849452000,21849452000,0.45502347,1.3353772e-06,0.035306048,1.000626,0.00013841526,1.0,1
21849556000,21849556000,0.45503166,1.3354028e-06,-0.028487222,1.0006175,9.011344e-05,1.0,1
21849652000,21849652000,0.45504212,1.3353904e-06,-0.0070282295,1.0006263,5.48501e-06,1.0,1
21849756000,21849756000,0.4550472,1.3354132e-06,-0.002256645,1.0006169,5.654785e-07,1.0,1
21849852000,21849852000,0.45505276,1.3354188e-06,-0.036774624,1.0006251,0.00015016977,1.0,1
21849956000,21849956000,0.4550766,1.3354314e-06,-0.7754835,1.0006169,0.066778205,1.0,1
21850052000,21850052000,0.45506707,1.335414e-06,-0.069119476,1.0006261,0.0005305014,1.0,1
21850156000,21850156000,0.45507923,1.3354131e-06,0.12619366,1.0006195,0.0017683309,1.0,1
21850260000,21850260000,0.4550804,1.3354058e-06,-0.0010197535,1.0006182,1.1547276e-07,1.0,1
21850356000,21850356000,0.4550851,1.3353977e-06,0.08173314,1.0006183,0.0007417975,1.0,1
21850460000,21850460000,0.45509446,1.3353927e-06,-0.018653756,1.0006185,3.8638616e-05,1.0,1
21850556000,21850556000,0.4550991,1.3353867e-06,-0.01158561,1.0006181,1.4904827e-05,1.0,1
21850652000,21850652000,0.45509744,1.3353725e-06,-0.3105444,1.0006253,0.010708618,1.0,1
21850756000,21850756000,0.45510364,1.3354002e-06,0.032412566,1.0006158,0.00011665865,1.0,1
21850852000,21850852000,0.45512813,1.3354163e-06,0.021642137,1.0006266,5.200987e-05,1.0,1
21850956000,21850956000,0.4551262,1.3354612e-06,-0.020904668,1.0006158,4.852624e-05,1.0,1
21851052000,21851052000,0.45514196,1.3354692e-06,0.08107126,1.0006256,0.0007298266,1.0,1
21851156000,21851156000,0.45514163,1.3354999e-06,-0.03962125,1.0006166,0.00017431958,1.0,1
