timestamp,roll_body,pitch_body,yaw_body,yaw_sp_move_rate,q_d[0],q_d[1],q_d[2],q_d[3],thrust_body[0],thrust_body[1],thrust_body[2],reset_integral,fw_control_yaw_wheel
173876842,0.0,0.0,-1.3131875,0.0,0.79207605,0.0,0.0,-0.6104224,0.0,0.0,0.0,0,0
173926500,0.0,0.0,-1.3127,0.0,0.7922248,0.0,0.0,-0.6102293,0.0,0.0,0.0,0,0
173976242,0.0,0.0,-1.3129327,0.0,0.7921538,0.0,0.0,-0.61032146,0.0,0.0,0.0,0,0
174026061,0.0,0.0,-1.3136022,0.0,0.79194945,0.0,0.0,-0.6105866,0.0,0.0,0.0,0,0
174075547,0.0,0.0,-1.3142153,0.0,0.7917623,0.0,0.0,-0.61082935,0.0,0.0,0.0,0,0
174125405,0.0,0.0,-1.3144784,0.0,0.7916819,0.0,0.0,-0.6109335,0.0,0.0,0.0,0,0
174174976,0.0,0.0,-1.3144059,0.0,0.79170406,0.0,0.0,-0.6109048,0.0,0.0,0.0,0,0
174224972,0.0,0.0,-1.3143915,0.0,0.79170847,0.0,0.0,-0.6108991,0.0,0.0,0.0,0,0
174274660,0.0,0.0,-1.3144192,0.0,0.7917,0.0,0.0,-0.61091006,0.0,0.0,0.0,0,0
174329050,0.0,0.0,-1.314146,0.0,0.79178345,0.0,0.0,-0.61080194,0.0,0.0,0.0,0,0
174379017,0.0,0.0,-1.3132141,0.0,0.79206795,0.0,0.0,-0.6104329,0.0,0.0,0.0,0,0
174423589,0.0,0.0,-1.3121295,0.0,0.79239887,0.0,0.0,-0.6100033,0.0,0.0,0.0,0,0
174473289,0.0,0.0,-1.3107587,0.0,0.7928168,0.0,0.0,-0.60946006,0.0,0.0,0.0,0,0
174528118,0.0,0.0,-1.3098605,0.0,0.79309046,0.0,0.0,-0.6091039,0.0,0.0,0.0,0,0
174577622,0.0,0.0,-1.308724,0.0,0.7934364,0.0,0.0,-0.6086532,0.0,0.0,0.0,0,0
174622394,0.0,0.0,-1.3076575,0.0,0.7937609,0.0,0.0,-0.60822994,0.0,0.0,0.0,0,0
174677259,0.0,0.0,-1.3063905,0.0,0.794146,0.0,0.0,-0.607727,0.0,0.0,0.0,0,0
174726723,0.0,0.0,-1.3055041,0.0,0.7944153,0.0,0.0,-0.60737497,0.0,0.0,0.0,0,0
174776478,0.0,0.0,-1.304524,0.0,0.79471284,0.0,0.0,-0.60698557,0.0,0.0,0.0,0,0
174826296,0.0,0.0,-1.3038001,0.0,0.7949325,0.0,0.0,-0.6066979,0.0,0.0,0.0,0,0
174875965,0.0,0.0,-1.3035659,0.0,0.79500353,0.0,0.0,-0.6066048,0.0,0.0,0.0,0,0
174925616,0.0,0.0,-1.3033979,0.0,0.79505444,0.0,0.0,-0.60653806,0.0,0.0,0.0,0,0
174975547,0.0,0.0,-1.3036774,0.0,0.7949697,0.0,0.0,-0.60664916,0.0,0.0,0.0,0,0
175025053,0.0,0.0,-1.3037267,0.0,0.7949548,0.0,0.0,-0.6066687,0.0,0.0,0.0,0,0
175074802,0.0,0.0,-1.30362,0.0,0.79498714,0.0,0.0,-0.60662633,0.0,0.0,0.0,0,0
175124639,0.0,0.0,-1.3043141,0.0,0.7947765,0.0,0.0,-0.6069022,0.0,0.0,0.0,0,0
175174097,0.0,0.0,-1.3054535,0.0,0.7944307,0.0,0.0,-0.6073549,0.0,0.0,0.0,0,0
175228990,0.0,0.0,-1.3070993,0.0,0.7939306,0.0,0.0,-0.60800844,0.0,0.0,0.0,0,0
175273672,0.0,0.0,-1.3081766,0.0,0.79360294,0.0,0.0,-0.608436,0.0,0.0,0.0,0,0
175323370,0.0,0.0,-1.3087057,0.0,0.79344195,0.0,0.0,-0.6086459,0.0,0.0,0.0,0,0
175378062,0.0,0.0,-1.3087791,0.0,0.7934196,0.0,0.0,-0.608675,0.0,0.0,0.0,0,0
175427644,0.0,0.0,-1.3084453,0.0,0.79352117,0.0,0.0,-0.6085426,0.0,0.0,0.0,0,0
175477366,0.0,0.0,-1.3081111,0.0,0.7936229,0.0,0.0,-0.60840994,0.0,0.0,0.0,0,0
175522513,0.0,0.0,-1.308352,0.0,0.7935496,0.0,0.0,-0.60850555,0.0,0.0,0.0,0,0
175576755,0.0,0.0,-1.3090106,0.0,0.7933492,0.0,0.0,-0.60876685,0.0,0.0,0.0,0,0
175626543,0.0,0.0,-1.3100564,0.0,0.7930307,0.0,0.0,-0.60918164,0.0,0.0,0.0,0,0
175676411,0.0,0.0,-1.3110371,0.0,0.79273194,0.0,0.0,-0.6095704,0.0,0.0,0.0,0,0
175726039,0.0,0.0,-1.3113614,0.0,0.7926331,0.0,0.0,-0.60969895,0.0,0.0,0.0,0,0
175775791,0.0,0.0,-1.3107378,0.0,0.7928232,0.0,0.0,-0.6094518,0.0,0.0,0.0,0,0
175825416,0.0,0.0,-1.3092752,0.0,0.7932686,0.0,0.0,-0.60887176,0.0,0.0,0.0,0,0
175875054,0.0,0.0,-1.3075935,0.0,0.7937803,0.0,0.0,-0.60820454,0.0,0.0,0.0,0,0
175924963,0.0,0.0,-1.3057085,0.0,0.7943532,0.0,0.0,-0.60745615,0.0,0.0,0.0,0,0
175974525,0.0,0.0,-1.3045015,0.0,0.79471964,0.0,0.0,-0.6069767,0.0,0.0,0.0,0,0
176024268,0.0,0.0,-1.3043319,0.0,0.79477113,0.0,0.0,-0.6069093,0.0,0.0,0.0,0,0
176079060,0.0,0.0,-1.3043461,0.0,0.79476684,0.0,0.0,-0.6069149,0.0,0.0,0.0,0,0
176128719,0.0,0.0,-1.3039097,0.0,0.7948992,0.0,0.0,-0.6067414,0.0,0.0,0.0,0,0
176173283,0.0,0.0,-1.3037114,0.0,0.79495937,0.0,0.0,-0.60666263,0.0,0.0,0.0,0,0
176223103,0.0,0.0,-1.3037574,0.0,0.7949454,0.0,0.0,-0.6066809,0.0,0.0,0.0,0,0
176277730,0.0,0.0,-1.3038995,0.0,0.79490227,0.0,0.0,-0.60673743,0.0,0.0,0.0,0,0
176313297,0.0,0.17453292,0.0,0.0,0.9961947,0.0,0.08715574,0.0,0.0,0.0,0.0,1,0
176372767,0.0,0.17453292,0.0,0.0,0.9961947,0.0,0.08715574,0.0,0.0,0.0,0.0,1,0
176412844,0.0,0.17453292,0.0,0.0,0.9961947,0.0,0.08715574,0.0,0.0,0.0,0.0,1,0
176472156,0.0,0.17453292,0.0,0.0,0.9961947,0.0,0.08715574,0.0,0.0,0.0,0.0,1,0
176511953,0.0,0.17453292,0.0,0.0,0.9961947,0.0,0.08715574,0.0,0.0,0.0,0.0,1,0
176571871,0.0,0.17453292,0.0,0.0,0.9961947,0.0,0.08715574,0.0,0.0,0.0,0.0,1,0
176612465,0.0,0.17453292,0.0,0.0,0.9961947,0.0,0.08715574,0.0,0.0,0.0,0.0,1,0
176671660,0.0,0.17453292,0.0,0.0,0.9961947,0.0,0.08715574,0.0,0.0,0.0,0.0,1,0
176710862,0.0,0.17453292,0.0,0.0,0.9961947,0.0,0.08715574,0.0,0.0,0.0,0.0,1,0
176770578,0.0,0.17453292,0.0,0.0,0.9961947,0.0,0.08715574,0.0,0.0,0.0,0.0,1,0
176810428,0.0,0.17453292,0.0,0.0,0.9961947,0.0,0.08715574,0.0,0.0,0.0,0.0,1,0
176870040,0.0,0.17453292,0.0,0.0,0.9961947,0.0,0.08715574,0.0,0.0,0.0,0.0,1,0
176909713,0.0,0.17453292,0.0,0.0,0.9961947,0.0,0.08715574,0.0,0.0,0.0,0.0,1,0
176969808,0.0,0.17453292,0.0,0.0,0.9961947,0.0,0.08715574,0.0,0.0,0.0,0.0,1,0
177029130,0.0,0.17453292,0.0,0.0,0.9961947,0.0,0.08715574,0.0,0.0,0.0,0.0,1,0
177068726,0.0,0.17453292,0.0,0.0,0.9961947,0.0,0.08715574,0.0,0.0,0.0,0.0,1,0
177128685,0.0,0.17453292,0.0,0.0,0.9961947,0.0,0.08715574,0.0,0.0,0.0,0.0,1,0
177168494,0.0,0.17453292,0.0,0.0,0.9961947,0.0,0.08715574,0.0,0.0,0.0,0.0,1,0
177228023,0.0,0.17453292,0.0,0.0,0.9961947,0.0,0.08715574,0.0,0.0,0.0,0.0,1,0
177267682,0.0,0.17453292,0.0,0.0,0.9961947,0.0,0.08715574,0.0,0.0,0.0,0.0,1,0
177327498,0.0,0.17453292,0.0,0.0,0.9961947,0.0,0.08715574,0.0,0.0,0.0,0.0,1,0
177367352,0.0,0.17453292,0.0,0.0,0.9961947,0.0,0.08715574,0.0,0.0,0.0,0.0,1,0
177426792,0.0,0.17453292,0.0,0.0,0.9961947,0.0,0.08715574,0.0,0.0,0.0,0.0,1,0
177466335,0.0,0.17453292,0.0,0.0,0.9961947,0.0,0.08715574,0.0,0.0,0.0,0.0,1,0
177526180,0.0,0.17453292,0.0,0.0,0.9961947,0.0,0.08715574,0.0,0.0,0.0,0.0,1,0
177565988,0.0,0.17453292,0.0,0.0,0.9961947,0.0,0.08715574,0.0,0.0,0.0,0.0,1,0
177625610,0.0,0.17453292,0.0,0.0,0.9961947,0.0,0.08715574,0.0,0.0,0.0,0.0,1,0
177665649,0.0,0.17453292,0.0,0.0,0.9961947,0.0,0.08715574,0.0,0.0,0.0,0.0,1,0
177715063,0.0,0.17453292,0.0,0.0,0.9961947,0.0,0.08715574,0.0,0.0,0.0,0.0,1,0
177774813,-0.0,0.0,-1.378184,0.0,0.7718237,0.0,0.0,-0.6358366,0.0,0.0,0.0,0,0
177814415,-0.0,0.17453292,-1.3864899,0.0,0.7662495,0.055695694,0.06703814,-0.6366048,1.0,0.0,0.0,0,0
177874015,0.0,0.17453292,-1.3884696,0.0,0.765619,0.055762023,0.06698298,-0.6373629,1.0,0.0,0.0,0,0
177913745,0.0,0.17453292,-1.3960878,0.0,0.7631857,0.056016766,0.066770084,-0.6402746,1.0,0.0,0.0,0,0
177973755,0.0,0.17453292,-1.3851106,0.0,0.7666883,0.055649452,0.06707653,-0.6360762,1.0,0.0,0.0,0,0
178013327,-0.0,0.17453292,-1.3716404,0.0,0.770955,0.055196423,0.067449816,-0.63089806,1.0,0.0,0.0,0,0
178073286,-0.0,0.17453292,-1.3463048,0.0,0.77888495,0.054337576,0.0681436,-0.62108135,1.0,0.0,0.0,0,0
178112829,-0.0,0.17453292,-1.3333613,0.0,0.7828882,0.053895433,0.068493836,-0.61602765,1.0,0.0,0.0,0,0
178172350,-0.0,0.17453292,-1.3194377,0.0,0.7871577,0.05341729,0.06886737,-0.6105625,1.0,0.0,0.0,0,0
178212365,-0.0,0.17453292,-1.3164954,0.0,0.7880552,0.053315923,0.068945885,-0.60940385,1.0,0.0,0.0,0,0
178271974,-0.0,0.17453292,-1.3174964,0.0,0.78775007,0.053350423,0.0689192,-0.6097982,1.0,0.0,0.0,0,0
178311722,-0.0,0.17453292,-1.3208174,0.0,0.78673637,0.05346478,0.06883051,-0.6111053,1.0,0.0,0.0,0,0
178371477,-0.0,0.17453292,-1.3322003,0.0,0.7832456,0.05385566,0.068525106,-0.61557305,1.0,0.0,0.0,0,0
178411051,-0.0,0.17453292,-1.3414361,0.0,0.78039455,0.054171532,0.06827567,-0.6191835,1.0,0.0,0.0,0,0
178470674,-0.0,0.17453292,-1.3495681,0.0,0.7778705,0.054448694,0.06805485,-0.62235147,1.0,0.0,0.0,0,0
178530397,-0.0,0.17453292,-1.3386995,0.0,0.7812411,0.05407806,0.06834974,-0.6181151,1.0,0.0,0.0,0,0
178570104,-0.0,0.17453292,-1.3226899,0.0,0.7861639,0.053529203,0.06878042,-0.6118417,1.0,0.0,0.0,0,0
178609829,-0.0,0.17453292,-1.303048,0.0,0.7921347,0.052851148,0.069302805,-0.6040914,1.0,0.0,0.0,0,0
178669782,-0.0,0.17453292,-1.2807988,0.0,0.7988059,0.05207693,0.06988645,-0.595242,1.0,0.0,0.0,0,0
178729166,-0.0,0.17453292,-1.2762165,0.0,0.8001676,0.05191667,0.07000559,-0.5934103,1.0,0.0,0.0,0,0
178769313,-0.0,0.17453292,-1.2753102,0.0,0.80043644,0.051884938,0.07002911,-0.5930476,1.0,0.0,0.0,0,0
178809246,-0.0,0.17453292,-1.2782674,0.0,0.79955864,0.051988427,0.06995231,-0.5942305,1.0,0.0,0.0,0,0
178868332,0.0,0.17453292,-1.2818848,0.0,0.7984826,0.052114867,0.06985816,-0.5956757,1.0,0.0,0.0,0,0
178927953,0.0,0.17453292,-1.2933782,0.0,0.7950462,0.05251546,0.069557525,-0.6002545,1.0,0.0,0.0,0,0
178967900,0.0,0.17453292,-1.3026977,0.0,0.79224056,0.052839007,0.06931206,-0.60395265,1.0,0.0,0.0,0,0
179007513,-0.0,0.17453292,-1.3192888,0.0,0.7872032,0.05341216,0.06887135,-0.61050385,1.0,0.0,0.0,0,0
179067671,-0.0,0.17453292,-1.3377862,0.0,0.7815233,0.05404684,0.068374425,-0.6177582,1.0,0.0,0.0,0,0
179126851,-0.0,0.17453292,-1.3380889,0.0,0.78142977,0.054057185,0.068366244,-0.6178765,1.0,0.0,0.0,0,0
179166658,-0.0,0.17453292,-1.3379827,0.0,0.78146255,0.054053556,0.06836911,-0.61783504,1.0,0.0,0.0,0,0
179226287,-0.0,0.17453292,-1.3458353,0.0,0.77903074,0.05432158,0.068156354,-0.62089854,1.0,0.0,0.0,0,0
179266279,-0.0027923584,0.17453292,-1.3511198,0.0,0.77746284,0.05341605,0.06888228,-0.6228592,1.0,0.0,0.0,0,0
179325887,-0.030532837,0.17453292,-1.3609576,0.0,0.7750607,0.04300843,0.07730396,-0.6256639,1.0,0.0,0.0,0,0
179375723,-0.03751119,0.17453292,-1.3716785,0.0,0.77184254,0.04072935,0.07926935,-0.6295368,1.0,0.0,0.0,0,0
179415136,-0.03320821,0.17453292,-1.3794199,0.0,0.76930994,0.042691134,0.07775006,-0.6326884,1.0,0.0,0.0,0,0
179475105,-0.0087382,0.17453292,-1.3917161,0.0,0.76482016,0.05252962,0.069681846,-0.63830656,1.0,0.0,0.0,0,0
179505709,-0.0,0.17453292,-1.3993031,0.0,0.76215535,0.056124035,0.06667995,-0.6415007,1.0,0.0,0.0,0,0
179574457,-0.0,0.17453292,-1.4261906,0.0,0.75346255,0.057015367,0.06591942,-0.6516887,1.0,0.0,0.0,0,0
179615252,-0.0,0.17453292,-1.4454594,0.0,0.747149,0.057647802,0.065367065,-0.6589175,1.0,0.0,0.0,0,0
179674087,-0.0,0.17453292,-1.4748498,0.0,0.7373858,0.058602124,0.06451289,-0.66982543,1.0,0.0,0.0,0,0
179713503,-0.0,0.17453292,-1.4924699,0.0,0.7314561,0.05916821,0.06399411,-0.67629576,1.0,0.0,0.0,0,0
179773217,-0.0,0.17453292,-1.5179812,0.0,0.7227702,0.05997966,0.063234195,-0.6855707,1.0,0.0,0.0,0,0
179813046,-0.0,0.17453292,-1.537591,0.0,0.7160136,0.060596768,0.062643066,-0.69262433,1.0,0.0,0.0,0,0
179872465,-0.0,0.17453292,-1.5734853,0.0,0.7034684,0.061711214,0.061545502,-0.70536244,1.0,0.0,0.0,0,0
179912296,-0.0,0.17453292,-1.5998415,0.0,0.6941122,0.06251689,0.060726944,-0.71457136,1.0,0.0,0.0,0,0
179971999,0.0,0.17453292,-1.6353544,0.0,0.6813151,0.063585274,0.059607346,-0.72678304,1.0,0.0,0.0,0,0
180011779,0.0,0.17453292,-1.6535206,0.0,0.6746857,0.06412406,0.059027348,-0.73294145,1.0,0.0,0.0,0,0
180071418,0.0,0.17453292,-1.6742885,0.0,0.6670386,0.06473353,0.05835831,-0.7399076,1.0,0.0,0.0,0,0
180111115,0.0,0.17453292,-1.6864694,0.0,0.66251993,0.06508775,0.057962976,-0.7439565,1.0,0.0,0.0,0,0
180170980,0.0,0.17453292,-1.7054489,0.0,0.65543026,0.06563487,0.05734271,-0.75021005,1.0,0.0,0.0,0,0
180210737,0.0,0.17453292,-1.7175964,0.0,0.6508616,0.06598195,0.056943007,-0.75417715,1.0,0.0,0.0,0,0
180270363,0.0,0.17453292,-1.7322922,0.0,0.6453025,0.06639857,0.056456648,-0.7589392,1.0,0.0,0.0,0,0
180310021,0.0,0.17453292,-1.7375433,0.0,0.64330757,0.06654657,0.056282114,-0.7606308,1.0,0.0,0.0,0,0
180371107,0.0,0.17453292,-1.7426828,0.0,0.6413508,0.06669098,0.056110922,-0.7622815,1.0,0.0,0.0,0,0
180409415,0.0,0.17453292,-1.7459404,0.0,0.64010835,0.06678229,0.05600222,-0.7633251,1.0,0.0,0.0,0,0
180469277,0.0,0.20439874,-1.7509472,0.0,0.6372906,0.07833695,0.0653584,-0.76384056,1.0,0.0,0.0,0,0
180528675,0.0,0.24783961,-1.7536315,0.0,0.6346975,0.0950143,0.07905667,-0.7628114,1.0,0.0,0.0,0,0
180568423,0.0,0.2643431,-1.7536787,0.0,0.6340056,0.10130751,0.084288895,-0.7620165,1.0,0.0,0.0,0,0
180628039,0.0,0.26498726,-1.7536144,0.0,0.63400286,0.101550214,0.08449635,-0.7619634,1.0,0.0,0.0,0,0
180667953,0.0,0.2658179,-1.7526286,0.0,0.6343432,0.10182488,0.08480986,-0.7616086,1.0,0.0,0.0,0,0
180727659,0.0,0.26716602,-1.7501514,0.0,0.6352287,0.10223257,0.08536412,-0.7607536,1.0,0.0,0.0,0,0
180767752,0.0,0.2678859,-1.74766,0.0,0.636145,0.1023997,0.08572038,-0.75992495,1.0,0.0,0.0,0,0
180826880,0.0,0.2672473,-1.7453344,0.0,0.63705564,0.102057524,0.08563599,-0.7592173,1.0,0.0,0.0,0,0
180867753,0.0,0.2684993,-1.747037,0.0,0.63635534,0.10260599,0.085947454,-0.75969523,1.0,0.0,0.0,0,0
180926485,0.0,0.2711366,-1.7507836,0.0,0.63481754,0.10377006,0.08659227,-0.7607498,1.0,0.0,0.0,0,0
180966281,0.0,0.27354607,-1.7530255,0.0,0.6338597,0.10478435,0.08723958,-0.76133525,1.0,0.0,0.0,0,0
181025784,0.0,0.27584565,-1.7539788,0.0,0.633396,0.10570157,0.08791796,-0.7615163,1.0,0.0,0.0,0,0
181075739,0.0,0.2752931,-1.7524954,0.0,0.6339849,0.10542607,0.087821186,-0.76107544,1.0,0.0,0.0,0,0
181115303,0.0,0.2753669,-1.751845,0.0,0.6342292,0.10542558,0.08787887,-0.7608653,1.0,0.0,0.0,0,0
181174926,0.0,0.27813,-1.7530901,0.0,0.6336335,0.10653189,0.0886887,-0.7611135,1.0,0.0,0.0,0,0
181225923,0.0,0.28127095,-1.7553488,0.0,0.6326336,0.10782828,0.08956198,-0.7616603,1.0,0.0,0.0,0,0
181274252,0.0,0.28289267,-1.7569523,0.0,0.63195,0.10851802,0.08998795,-0.7620795,1.0,0.0,0.0,0,0
181313926,0.0,0.28418332,-1.7577189,0.0,0.6315997,0.10904443,0.09035396,-0.76225144,1.0,0.0,0.0,0,0
181373864,0.0,0.286624,-1.7603083,0.0,0.63050175,0.11009245,0.0909822,-0.76293474,1.0,0.0,0.0,0,0
181413515,0.06229655,0.28786823,-1.7639244,0.0,0.625311,0.13026948,0.06733656,-0.7664736,0.99775004,0.0,0.0,0,0
181473281,0.17004903,0.28900763,-1.7719301,0.0,0.61421686,0.1642869,0.02566914,-0.7714199,0.993752,0.0,0.0,0,0
181513031,0.24857585,0.29068148,-1.7775761,0.0,0.60495806,0.18888499,-0.004633277,-0.77351576,0.9909738,0.0,0.0,0,0
181572560,0.37210593,0.29272297,-1.788921,0.0,0.58752126,0.22632246,-0.053008027,-0.7751046,0.986613,0.0,0.0,0,0
181614027,0.4580358,0.29460368,-1.797597,0.0,0.5736546,0.25166166,-0.08675229,-0.774636,0.98354703,0.0,0.0,0,0
181672032,0.59263355,0.29759002,-1.812033,0.0,0.5494119,0.28973284,-0.13981397,-0.77113783,0.97940546,0.0,0.0,0,0
181711794,0.6374125,0.30007553,-1.8206655,0.0,0.5390568,0.30216563,-0.15758297,-0.7702475,0.97681326,0.0,0.0,0,0
181771621,0.6486155,0.30389303,-1.8289952,0.0,0.5335044,0.30586475,-0.16200072,-0.7717354,0.97335875,0.0,0.0,0,0
181811336,0.65402204,0.3064269,-1.8289026,0.0,0.5322814,0.30821517,-0.16329946,-0.771371,0.9713428,0.0,0.0,0,0
181871906,0.66254336,0.31061795,-1.6788678,0.0,0.5865247,0.3234794,-0.14146076,-0.7289298,0.9685917,0.0,0.0,0,0
181912594,0.6668066,0.31336492,-1.6665409,0.0,0.58984935,0.32650614,-0.14009622,-0.7251513,0.96690494,0.0,0.0,0,0
181970229,0.6703125,0.31664485,-1.6399155,0.0,0.5983189,0.3304531,-0.13588893,-0.7171817,0.9645072,0.0,0.0,0,0
182029901,0.6687895,0.31922764,-1.6073382,0.0,0.6097387,0.3329786,-0.12906551,-0.7075918,0.96196586,0.0,0.0,0,0
182069952,0.6646489,0.31992906,-1.5870812,0.0,0.6174473,0.33321142,-0.12399151,-0.70168006,0.9601032,0.0,0.0,0,0
182109457,0.66044986,0.32071164,-1.5698113,0.0,0.62405336,0.33320385,-0.11937468,-0.696622,0.95811534,0.0,0.0,0,0
182169546,0.65786004,0.32351053,-1.5437778,0.0,0.63303745,0.33476928,-0.11314851,-0.6887601,0.95532006,0.0,0.0,0,0
182230668,0.6479215,0.32642102,-1.5117627,0.0,0.64516973,0.33421257,-0.10336025,-0.6792457,0.95276576,0.0,0.0,0,0
182268640,0.6370109,0.32803863,-1.49155,0.0,0.65355897,0.33216217,-0.09572144,-0.6733248,0.9511566,0.0,0.0,0,0
182308108,0.6257665,0.32938468,-1.4718171,0.0,0.6618178,0.3297725,-0.088198036,-0.6674342,0.9494317,0.0,0.0,0,0
182368233,0.6036138,0.33035603,-1.4443835,0.0,0.6743835,0.3237844,-0.076011054,-0.6592365,0.94645804,0.0,0.0,0,0
182427551,0.5798355,0.33067906,-1.4273173,0.0,0.6837442,0.31640828,-0.06535098,-0.65430033,0.9430108,0.0,0.0,0,0
182468695,0.567343,0.3313959,-1.4211046,0.0,0.68763006,0.31252894,-0.0600249,-0.6526006,0.94043523,0.0,0.0,0,0
182527176,0.54890317,0.33214128,-1.410832,0.0,0.6937182,0.30666593,-0.052152015,-0.6496087,0.9345104,0.0,0.0,0,0
182566623,0.5337389,0.3317645,-1.4075687,0.0,0.6971375,0.30136418,-0.046875283,-0.64883083,0.9302177,0.0,0.0,0,0
182626566,0.5080395,0.33100027,-1.406331,0.0,0.70146185,0.29218155,-0.038641877,-0.64891297,0.92062306,0.0,0.0,0,0
182666420,0.49405727,0.3306507,-1.4104983,0.0,0.7021818,0.2870958,-0.034834694,-0.65061766,0.9116863,0.0,0.0,0,0
182726214,0.47819096,0.3311917,-1.4118841,0.0,0.70391214,0.28165576,-0.029663173,-0.6513815,0.89669514,0.0,0.0,0,0
182775855,0.4593267,0.33121228,-1.4118105,0.0,0.7065586,0.27501094,-0.023500133,-0.651607,0.88413477,0.0,0.0,0,0
182826669,0.44165668,0.3312717,-1.4172764,0.0,0.707169,0.26872614,-0.018454343,-0.65372604,0.87086296,0.0,0.0,0,0
182866174,0.43094265,0.33156493,-1.4241092,0.0,0.7063224,0.2649697,-0.015746819,-0.6562405,0.8613543,0.0,0.0,0,0
182914843,0.42844543,0.3316738,-1.4352077,0.0,0.702986,0.26403376,-0.01635188,-0.6601737,0.85461247,0.0,0.0,0,0
182974262,0.41954195,0.3309336,-1.4398682,0.0,0.702709,0.26064384,-0.014297554,-0.6618613,0.84653527,0.0,0.0,0,0
183014026,0.41787392,0.33256352,-1.4428959,0.0,0.70171446,0.26053494,-0.013530376,-0.6629746,0.8383615,0.0,0.0,0,0
183073853,0.4173348,0.3355264,-1.4338253,0.0,0.70440376,0.26130423,-0.011059934,-0.6598584,0.8266629,0.0,0.0,0,0
183113457,0.41509253,0.33627236,-1.4233913,0.0,0.7080335,0.2607899,-0.008680026,-0.6562026,0.8225493,0.0,0.0,0,0
183174513,0.40592176,0.3359831,-1.4010952,0.0,0.7165301,0.25750148,-0.002909535,-0.6482817,0.8161088,0.0,0.0,0,0
183213097,0.40213883,0.33600876,-1.3876183,0.0,0.7213648,0.25615886,5.2531926e-05,-0.6434404,0.81084543,0.0,0.0,0,0
183272622,0.3970217,0.3371323,-1.3555914,0.0,0.7320881,0.2545786,0.006205408,-0.6318214,0.8059521,0.0,0.0,0,0
183312593,0.3863795,0.3377878,-1.3341373,0.0,0.7400864,0.2507503,0.012511386,-0.623891,0.80299646,0.0,0.0,0,0
183373335,0.36358008,0.33875793,-1.3046808,0.0,0.75188553,0.2422559,0.023571609,-0.61271894,0.79819363,0.0,0.0,0,0
183411732,0.34713316,0.33892313,-1.2891207,0.0,0.7585754,0.23588121,0.030510707,-0.6066239,0.79531384,0.0,0.0,0,0
183471627,0.313045,0.33744395,-1.2733041,0.0,0.7674205,0.22217584,0.042016134,-0.59994864,0.7878769,0.0,0.0,0,0
183512523,0.29233313,0.33679155,-1.2699033,0.0,0.7707698,0.21395211,0.04833013,-0.59816617,0.78146,0.0,0.0,0,0
183571115,0.2661904,0.33678725,-1.2700126,0.0,0.7734682,0.20386097,0.056131743,-0.5975256,0.77361244,0.0,0.0,0,0
183610739,0.24642281,0.33704913,-1.2726557,0.0,0.7746289,0.19636211,0.061880022,-0.5979657,0.7667705,0.0,0.0,0,0
183670809,0.21576926,0.3350068,-1.2864087,0.0,0.77362496,0.18436545,0.068955176,-0.6022948,0.75749534,0.0,0.0,0,0
183709991,0.19661666,0.33261323,-1.3050616,0.0,0.76993805,0.17694019,0.072121136,-0.60884,0.7513654,0.0,0.0,0,0
183769777,0.17932758,0.33014476,-1.3414012,0.0,0.76048785,0.17091644,0.07331386,-0.6221502,0.741405,0.0,0.0,0,0
183829738,0.1811625,0.3311748,-1.372484,0.0,0.75047475,0.17303845,0.07046347,-0.63394016,0.73362964,0.0,0.0,0,0
183871960,0.18534644,0.3321491,-1.3837752,0.0,0.7464294,0.17529508,0.06852342,-0.6382941,0.7307097,0.0,0.0,0,0
183908928,0.18639062,0.33277136,-1.3878646,0.0,0.74497336,0.17601553,0.06806872,-0.6398436,0.72878623,0.0,0.0,0,0
183968498,0.18577349,0.33354074,-1.3851733,0.0,0.7458166,0.17593028,0.06879711,-0.63880605,0.7278002,0.0,0.0,0,0
184028203,0.1797387,0.33342808,-1.3759408,0.0,0.74929434,0.17331623,0.07148204,-0.6351455,0.7276507,0.0,0.0,0,0
184068070,0.17523722,0.33325073,-1.3704998,0.0,0.7514235,0.17137623,0.0733098,-0.6329445,0.7273667,0.0,0.0,0,0
184127689,0.16701184,0.3329434,-1.3617773,0.0,0.75490147,0.16785832,0.07652679,-0.6293575,0.7272352,0.0,0.0,0,0
184167364,0.16040114,0.33337963,-1.3569196,0.0,0.75693905,0.16530308,0.07917677,-0.6272552,0.72745365,0.0,0.0,0,0
184226946,0.15442474,0.33381063,-1.3492947,0.0,0.75977653,0.16286045,0.081838965,-0.6241141,0.7280593,0.0,0.0,0,0
184266739,0.14798951,0.33420727,-1.344681,0.0,0.7616989,0.16034067,0.08437061,-0.6220828,0.7283929,0.0,0.0,0,0
184326475,0.14034118,0.33461297,-1.3378323,0.0,0.7643961,0.15725052,0.08744551,-0.6191318,0.728691,0.0,0.0,0,0
184367516,0.13543983,0.33465326,-1.3336986,0.0,0.7660533,0.15520465,0.0892992,-0.61733264,0.72888285,0.0,0.0,0,0
184427270,0.12682515,0.33434063,-1.3286642,0.0,0.76829165,0.15157807,0.092217386,-0.6150186,0.7281623,0.0,0.0,0,0
184465876,0.12320233,0.33421013,-1.3264248,0.0,0.7692639,0.15004253,0.09344837,-0.61399317,0.7274648,0.0,0.0,0,0
184515407,0.116469845,0.3341672,-1.3233232,0.0,0.770719,0.14729105,0.09572645,-0.6124819,0.72701573,0.0,0.0,0,0
184566114,0.11127038,0.3337118,-1.3220165,0.0,0.77153665,0.14508729,0.09723504,-0.61174035,0.7267253,0.0,0.0,0,0
184616196,0.10597212,0.33361104,-1.3233467,0.0,0.7715196,0.14307846,0.09872071,-0.6119969,0.7264286,0.0,0.0,0,0
184674495,0.10151622,0.33361852,-1.3255532,0.0,0.77116054,0.14147179,0.09993089,-0.6126264,0.7260382,0.0,0.0,0,0
184715757,0.09792474,0.33359808,-1.3267313,0.0,0.771054,0.1401401,0.1009403,-0.6129009,0.72612107,0.0,0.0,0,0
184773816,0.09013197,0.33312994,-1.3293257,0.0,0.770836,0.13712779,0.10296708,-0.613519,0.7257009,0.0,0.0,0,0
184813673,0.08626235,0.33314595,-1.3320444,0.0,0.77026415,0.13578239,0.103975676,-0.61436576,0.725159,0.0,0.0,0,0
184873405,0.07721244,0.3323293,-1.3366892,0.0,0.76950556,0.13229589,0.10612963,-0.6157073,0.7238138,0.0,0.0,0,0
184913224,0.07490958,0.3316254,-1.3414872,0.0,0.768232,0.13145179,0.10624987,-0.6174552,0.7225224,0.0,0.0,0,0
184972755,0.074548535,0.33124357,-1.3479692,0.0,0.7662795,0.13154061,0.10578744,-0.6199368,0.72047347,0.0,0.0,0,0
185012873,0.07957535,0.33099368,-1.3486131,0.0,0.7657659,0.13342348,0.104089275,-0.6204564,0.7192671,0.0,0.0,0,0
185072030,0.08330768,0.33053702,-1.3428909,0.0,0.7673235,0.13441849,0.10313949,-0.6184728,0.7176223,0.0,0.0,0,0
185111963,0.085407056,0.32962412,-1.3358655,0.0,0.7694208,0.1345869,0.102609426,-0.6159134,0.7164351,0.0,0.0,0,0
185171524,0.0812376,0.32779902,-1.3256887,0.0,0.7729627,0.13190345,0.10385577,-0.6118366,0.71392536,0.0,0.0,0,0
185211426,0.08023141,0.32633433,-1.3207035,0.0,0.7746634,0.13081543,0.103917904,-0.6099057,0.71178263,0.0,0.0,0,0
185272959,0.07740327,0.32488352,-1.3157344,0.0,0.77647007,0.12902541,0.104533456,-0.60788107,0.7083387,0.0,0.0,0,0
185310737,0.07485195,0.32401294,-1.3135275,0.0,0.7773696,0.12765849,0.10510845,-0.60692,0.7058664,0.0,0.0,0,0
185370402,0.07541529,0.3236056,-1.3091923,0.0,0.7786781,0.12752838,0.10505434,-0.60527724,0.70271975,0.0,0.0,0,0
185411543,0.0730433,0.3233948,-1.3052086,0.0,0.7800484,0.12633121,0.10594112,-0.60360694,0.70094675,0.0,0.0,0,0
185470004,0.06942321,0.32327658,-1.2989748,0.0,0.7821616,0.12454986,0.107375704,-0.6009834,0.6989809,0.0,0.0,0,0
185529477,0.064132504,0.32137257,-1.2927319,0.0,0.7844996,0.12157785,0.10859425,-0.5983197,0.6985967,0.0,0.0,0,0
185569446,0.062716566,0.3213666,-1.2896827,0.0,0.785497,0.120854326,0.10919984,-0.597046,0.6982623,0.0,0.0,0,0
185609131,0.056205116,0.3211912,-1.2873096,0.0,0.78660643,0.11811274,0.11121389,-0.59576094,0.6983835,0.0,0.0,0,0
185668528,0.049268156,0.32199016,-1.2851319,0.0,0.7876022,0.115495265,0.1137217,-0.5944838,0.6997557,0.0,0.0,0,0
185728746,0.04001542,0.3215155,-1.2845068,0.0,0.78834695,0.111674204,0.116317734,-0.5937239,0.70221424,0.0,0.0,0,0
185768019,0.034430526,0.3206212,-1.2866108,0.0,0.7880928,0.109332666,0.11750614,-0.59426296,0.70367575,0.0,0.0,0,0
185828994,0.024432952,0.31878635,-1.2958741,0.0,0.7859944,0.1054035,0.11926263,-0.59739375,0.7061829,0.0,0.0,0,0
185868415,0.018915318,0.31791365,-1.3050519,0.0,0.78359157,0.10352736,0.12009257,-0.600703,0.7078665,0.0,0.0,0,0
185927200,0.014934796,0.31850865,-1.3208282,0.0,0.7789966,0.103101075,0.12071197,-0.60659957,0.7089909,0.0,0.0,0,0
185967851,0.0118311215,0.31947142,-1.3317349,0.0,0.77577525,0.1028472,0.121469736,-0.6106065,0.70971847,0.0,0.0,0,0
186026543,0.009047074,0.32056653,-1.3467369,0.0,0.77124727,0.10301865,0.12197561,-0.6161873,0.7124826,0.0,0.0,0,0
186066285,0.010093385,0.32103497,-1.3552489,0.0,0.76853365,0.104083754,0.12139221,-0.6195051,0.7150945,0.0,0.0,0,0
186126355,0.010005257,0.32116568,-1.3646876,0.0,0.76559776,0.10466238,0.120977215,-0.62311345,0.71968937,0.0,0.0,0,0
186165869,0.01081977,0.32058907,-1.368967,0.0,0.76425654,0.10505249,0.1202779,-0.6248272,0.72276735,0.0,0.0,0,0
186205715,0.015153175,0.31984136,-1.3712394,0.0,0.7633643,0.10660988,0.118516535,-0.62598956,0.72557944,0.0,0.0,0,0
186275084,0.018849805,0.31886002,-1.3715518,0.0,0.7631315,0.10773277,0.11696708,-0.62637264,0.72959226,0.0,0.0,0,0
186325774,0.020454988,0.31984374,-1.3703506,0.0,0.7633571,0.10858192,0.11690585,-0.6259623,0.73059464,0.0,0.0,0,0
186374542,0.020357162,0.3208475,-1.3694233,0.0,0.7635874,0.10880306,0.11737107,-0.6255559,0.731626,0.0,0.0,0,0
186414480,0.021312952,0.3213175,-1.3689016,0.0,0.7636678,0.10928377,0.11728054,-0.6253909,0.73304445,0.0,0.0,0,0
186474055,0.02010974,0.32154983,-1.3687662,0.0,0.7637606,0.1088887,0.11775309,-0.6252577,0.7349642,0.0,0.0,0,0
186513706,0.020970492,0.32089862,-1.3689331,0.0,0.76370406,0.109024405,0.11722552,-0.62540233,0.73673177,0.0,0.0,0,0
186573401,0.019170567,0.3202336,-1.3704517,0.0,0.76336986,0.10821914,0.11745155,-0.6259075,0.7389457,0.0,0.0,0,0
186614470,0.018829279,0.31821817,-1.3723154,0.0,0.7629346,0.10756922,0.11668691,-0.6266927,0.74565667,0.0,0.0,0,0
186674093,0.01771789,0.31530502,-1.3763169,0.0,0.7619245,0.106467284,0.11570829,-0.62828916,0.75514555,0.0,0.0,0,0
186712703,0.018851038,0.31450936,-1.380167,0.0,0.76070356,0.10687116,0.11484294,-0.62985694,0.7578644,0.0,0.0,0,0
186772189,0.022086103,0.31349233,-1.3870198,0.0,0.7584312,0.108170465,0.113066114,-0.63269055,0.76201665,0.0,0.0,0,0
186812994,0.022455513,0.3133306,-1.3923227,0.0,0.7567412,0.10855855,0.11260031,-0.63472754,0.7649683,0.0,0.0,0,0
186871696,0.025425108,0.31280303,-1.4006358,0.0,0.7539672,0.109977685,0.11100132,-0.6380573,0.7691723,0.0,0.0,0,0
186911394,0.029835662,0.31137007,-1.4074315,0.0,0.7516414,0.111555226,0.10867335,-0.6409219,0.7730384,0.0,0.0,0,0
186971360,0.03865812,0.30940324,-1.4179652,0.0,0.74788105,0.11479544,0.10449935,-0.6454269,0.78042686,0.0,0.0,0,0
187011043,0.04435801,0.3093204,-1.4243208,0.0,0.74550045,0.1172254,0.102256335,-0.64809793,0.78358305,0.0,0.0,0,0
187070316,0.052159365,0.31068593,-1.4325383,0.0,0.74227583,0.12098189,0.09974355,-0.65149164,0.78544664,0.0,0.0,0,0
187130092,0.0611661,0.3116988,-1.4383439,0.0,0.73975873,0.12493151,0.09682516,-0.6540444,0.7881385,0.0,0.0,0,0
187170054,0.06825232,0.31162894,-1.4401395,0.0,0.73872846,0.12761396,0.09436661,-0.6550495,0.78997636,0.0,0.0,0,0
187209674,0.075333975,0.3117084,-1.4410787,0.0,0.73795855,0.13029777,0.092015065,-0.65572315,0.79136986,0.0,0.0,0,0
187269234,0.08431119,0.31214505,-1.4410067,0.0,0.7373584,0.13374674,0.089238554,-0.65608746,0.7930569,0.0,0.0,0,0
187328988,0.09406015,0.31280863,-1.4398487,0.0,0.7370288,0.13750356,0.08636666,-0.6560656,0.79322815,0.0,0.0,0,0
187371138,0.10048855,0.31351817,-1.4382192,0.0,0.73706436,0.14003158,0.08463659,-0.65571636,0.79290265,0.0,0.0,0,0
187408501,0.10613435,0.31382188,-1.4360725,0.0,0.73734677,0.14212033,0.08305136,-0.6551519,0.79393667,0.0,0.0,0,0
187468148,0.112848364,0.31360257,-1.4311572,0.0,0.738491,0.14432544,0.0811244,-0.6536208,0.79850316,0.0,0.0,0,0
187527885,0.117588446,0.31542283,-1.4249159,0.0,0.7400414,0.14640652,0.08071508,-0.65145147,0.7975835,0.0,0.0,0,0
187567525,0.120096065,0.31663504,-1.4205058,0.0,0.7411966,0.14754295,0.080679655,-0.6498843,0.794744,0.0,0.0,0,0
187627144,0.12364144,0.31578702,-1.41483,0.0,0.742843,0.14836189,0.07962929,-0.6479447,0.79580164,0.0,0.0,0,0
187667956,0.12632214,0.3141557,-1.4122247,0.0,0.7436171,0.14873916,0.078338265,-0.647127,0.7984319,0.0,0.0,0,0
187726540,0.12976286,0.31515878,-1.4103942,0.0,0.7438717,0.15026401,0.07774183,-0.6465538,0.79559565,0.0,0.0,0,0
187766301,0.12920238,0.3171969,-1.4104137,0.0,0.7437434,0.15069938,0.078692995,-0.646485,0.79201883,0.0,0.0,0,0
187826114,0.12755512,0.32063425,-1.4123546,0.0,0.74296224,0.15124923,0.08037946,-0.64704704,0.7875511,0.0,0.0,0,0
187865754,0.1258568,0.32241398,-1.4140948,0.0,0.74238324,0.1512513,0.08147011,-0.64757454,0.78451604,0.0,0.0,0,0
187915673,0.12427923,0.3239282,-1.4173963,0.0,0.74130994,0.15128045,0.082303196,-0.648691,0.78070885,0.0,0.0,0,0
187965845,0.12464898,0.32498568,-1.4217075,0.0,0.7397961,0.15193008,0.08225482,-0.65027153,0.77702063,0.0,0.0,0,0
188025803,0.12738083,0.32514444,-1.4270744,0.0,0.737827,0.15320878,0.081015445,-0.65236104,0.77523005,0.0,0.0,0,0
188074655,0.13174182,0.32500154,-1.4304069,0.0,0.73641455,0.15490408,0.07928111,-0.65376806,0.77504325,0.0,0.0,0,0
188114580,0.13536723,0.32565695,-1.4326353,0.0,0.73534924,0.1565348,0.07816745,-0.6547123,0.77425665,0.0,0.0,0,0
188173884,0.13842842,0.32693988,-1.4340962,0.0,0.7345232,0.15812597,0.07753075,-0.6553327,0.77353334,0.0,0.0,0,0
188213927,0.14054239,0.32748607,-1.4334166,0.0,0.7345325,0.15905036,0.077096745,-0.65514976,0.77349716,0.0,0.0,0,0
188273437,0.14493044,0.32694134,-1.4309149,0.0,0.73504704,0.16039342,0.07565565,-0.6544128,0.77262044,0.0,0.0,0,0
188313289,0.14945723,0.32603085,-1.4291664,0.0,0.7353318,0.16170244,0.07397393,-0.65396285,0.77284294,0.0,0.0,0,0
188374827,0.15516233,0.3240586,-1.4268386,0.0,0.735798,0.16308972,0.07155705,-0.6533626,0.7728785,0.0,0.0,0,0
188412590,0.15939894,0.32382503,-1.4254662,0.0,0.7359194,0.16452582,0.07019795,-0.65301317,0.77136886,0.0,0.0,0,0
188472355,0.1638923,0.3248268,-1.4240189,0.0,0.7359329,0.16644587,0.069228195,-0.6526147,0.76789427,0.0,0.0,0,0
188513251,0.16453075,0.3256184,-1.4224169,0.0,0.7363329,0.16687554,0.06945166,-0.6520298,0.7676254,0.0,0.0,0,0
188571754,0.1646174,0.32636988,-1.417534,0.0,0.7378495,0.16697417,0.070114486,-0.65021676,0.7676247,0.0,0.0,0,0
188611438,0.16421458,0.32688984,-1.413216,0.0,0.73923934,0.16683684,0.07080215,-0.64859664,0.765883,0.0,0.0,0,0
188671125,0.1603354,0.32749838,-1.4078802,0.0,0.7412358,0.16540052,0.07273173,-0.64646906,0.7600473,0.0,0.0,0,0
188710891,0.1591707,0.32701784,-1.4072454,0.0,0.741579,0.16479512,0.072978355,-0.6462021,0.7561162,0.0,0.0,0,0
188770515,0.15782931,0.3270471,-1.4101192,0.0,0.7407577,0.16441222,0.07318668,-0.64721745,0.7509537,0.0,0.0,0,0
188810223,0.15768665,0.32710558,-1.4131674,0.0,0.739777,0.16448916,0.07300435,-0.64833915,0.74820757,0.0,0.0,0,0
188870930,0.155615,0.32774758,-1.4172658,0.0,0.73856145,0.16407584,0.073582605,-0.64976287,0.7458403,0.0,0.0,0,0
188909718,0.15669763,0.3284381,-1.4182115,0.0,0.7381052,0.16472799,0.073413685,-0.65013534,0.74465644,0.0,0.0,0,0
188969391,0.15674289,0.32902503,-1.4166353,0.0,0.7385624,0.1648717,0.073750444,-0.6495411,0.74344045,0.0,0.0,0,0
189029034,0.15381823,0.33008716,-1.4127321,0.0,0.73997664,0.16397935,0.0754214,-0.6479638,0.74229664,0.0,0.0,0,0
189069847,0.15188818,0.3305282,-1.4093119,0.0,0.7412031,0.16327329,0.07649279,-0.6466132,0.7419466,0.0,0.0,0,0
189128297,0.14764874,0.32949543,-1.4048244,0.0,0.743085,0.16120325,0.07783408,-0.64481014,0.74296165,0.0,0.0,0,0
189168160,0.1437768,0.32861507,-1.4023567,0.0,0.7442656,0.15939122,0.07894505,-0.6437631,0.7441993,0.0,0.0,0,0
189227859,0.13591826,0.32722452,-1.4014604,0.0,0.74529094,0.15599367,0.08101598,-0.6431514,0.7459553,0.0,0.0,0,0
189267529,0.12867758,0.32644898,-1.4031061,0.0,0.7453856,0.15311965,0.08292345,-0.6434892,0.74677986,0.0,0.0,0,0
189327282,0.12361712,0.32729608,-1.4065124,0.0,0.74460477,0.15164344,0.08461456,-0.6445217,0.7454279,0.0,0.0,0,0
189367177,0.11992421,0.32858282,-1.4085815,0.0,0.74411196,0.15076244,0.08613592,-0.64509577,0.74404126,0.0,0.0,0,0
189426670,0.11383479,0.32900476,-1.4124193,0.0,0.7432949,0.14879829,0.0879739,-0.64624476,0.7460792,0.0,0.0,0,0
189466545,0.11074016,0.32830358,-1.4153688,0.0,0.74262655,0.14755696,0.08849142,-0.6472264,0.7488624,0.0,0.0,0,0
189526157,0.10505259,0.32769316,-1.4209307,0.0,0.74128914,0.14550102,0.08969716,-0.64905643,0.7521244,0.0,0.0,0,0
189565994,0.10342726,0.32731164,-1.4248431,0.0,0.74016607,0.14495312,0.089797676,-0.65044534,0.75399834,0.0,0.0,0,0
189626594,0.10310753,0.32823712,-1.4301157,0.0,0.73839957,0.14536731,0.089866325,-0.65234846,0.75285494,0.0,0.0,0,0
189675350,0.101103544,0.32983923,-1.434065,0.0,0.73713046,0.14531948,0.09083342,-0.65365916,0.7502557,0.0,0.0,0,0
189715089,0.1007922,0.3299763,-1.4367981,0.0,0.7362484,0.14537285,0.09078786,-0.6546469,0.7517998,0.0,0.0,0,0
189774919,0.10143612,0.33012187,-1.4408866,0.0,0.73485035,0.1458416,0.09033351,-0.6561746,0.75410765,0.0,0.0,0,0
189814329,0.09977013,0.32934508,-1.4434143,0.0,0.73420215,0.14509375,0.0904071,-0.6570552,0.756945,0.0,0.0,0,0
189875438,0.10265,0.32915437,-1.4458754,0.0,0.7331981,0.14619923,0.08921,-0.6580941,0.761518,0.0,0.0,0,0
189913622,0.10643693,0.3291465,-1.4451191,0.0,0.7331695,0.14755143,0.08801665,-0.6579849,0.76310337,0.0,0.0,0,0
189974757,0.1108206,0.32878685,-1.4414957,0.0,0.73406404,0.1488853,0.08671017,-0.65685946,0.7659473,0.0,0.0,0,0
190013183,0.1157226,0.3286118,-1.43793,0.0,0.73488134,0.15047593,0.085303046,-0.65576655,0.7650012,0.0,0.0,0,0
190073094,0.12142936,0.32876897,-1.4321091,0.0,0.7363424,0.15237896,0.08393415,-0.6538621,0.763365,0.0,0.0,0,0
190113993,0.1247009,0.32884976,-1.4292644,0.0,0.73701495,0.15349098,0.08311314,-0.65294844,0.76305586,0.0,0.0,0,0
190172344,0.1235175,0.32897633,-1.427712,0.0,0.73760194,0.1530303,0.08366578,-0.65232295,0.7637294,0.0,0.0,0,0
190211916,0.12291632,0.32998174,-1.428081,0.0,0.7374453,0.15314437,0.084211014,-0.652403,0.7633519,0.0,0.0,0,0
190271651,0.12071167,0.3312317,-1.4305153,0.0,0.73671734,0.1528335,0.08521327,-0.65316784,0.7628138,0.0,0.0,0,0
190311732,0.12016901,0.3314726,-1.433292,0.0,0.7358316,0.152829,0.0852687,-0.65415925,0.7627473,0.0,0.0,0,0
190372424,0.119507976,0.33126602,-1.439255,0.0,0.7339454,0.15277372,0.084952444,-0.6563288,0.76295865,0.0,0.0,0,0
190430588,0.122353256,0.3308898,-1.4458351,0.0,0.7315943,0.15397221,0.08337198,-0.6588714,0.7611719,0.0,0.0,0,0
190471770,0.1257392,0.33145016,-1.4502827,0.0,0.7298192,0.15557383,0.08211939,-0.66061866,0.75978816,0.0,0.0,0,0
190510600,0.12869994,0.33153096,-1.4540948,0.0,0.7283207,0.15683456,0.08087259,-0.6621265,0.7597364,0.0,0.0,0,0
190569959,0.13043149,0.33151925,-1.4585999,0.0,0.72669214,0.15764174,0.079940066,-0.6638352,0.7624341,0.0,0.0,0,0
190629659,0.13328618,0.33199638,-1.4609919,0.0,0.7256321,0.15892787,0.07897924,-0.6648025,0.7646202,0.0,0.0,0,0
190669745,0.13656229,0.33198503,-1.4612181,0.0,0.72529656,0.16012143,0.07786786,-0.6650133,0.7656576,0.0,0.0,0,0
190709068,0.14002492,0.3317485,-1.4606681,0.0,0.72522104,0.16127919,0.07667318,-0.6649546,0.7657488,0.0,0.0,0,0
190769180,0.14605583,0.3310605,-1.4588859,0.0,0.7253825,0.1631763,0.07455828,-0.664556,0.7646096,0.0,0.0,0,0
190828537,0.15264195,0.33050016,-1.4574912,0.0,0.72535306,0.16533275,0.072277,-0.6643072,0.7642873,0.0,0.0,0,0
190868479,0.15672493,0.33062854,-1.456948,0.0,0.72518325,0.16683535,0.07101362,-0.6642532,0.7647854,0.0,0.0,0,0
190907939,0.15926062,0.33123863,-1.4566864,0.0,0.72500473,0.16794209,0.070419826,-0.6642323,0.76562154,0.0,0.0,0,0
190967711,0.16087872,0.3318873,-1.4557549,0.0,0.7251211,0.16870499,0.070201814,-0.6639351,0.7677573,0.0,0.0,0,0
191028285,0.16380553,0.33210403,-1.4545109,0.0,0.7252672,0.16979256,0.06941625,-0.66358083,0.76823103,0.0,0.0,0,0
191067204,0.16640359,0.33139962,-1.454112,0.0,0.72524077,0.1704944,0.06832638,-0.66354275,0.76735526,0.0,0.0,0,0
191126871,0.1709793,0.32989594,-1.45625,0.0,0.7242731,0.17174071,0.06606549,-0.66450655,0.7658962,0.0,0.0,0,0
191167763,0.1733274,0.32940224,-1.4589583,0.0,0.7232145,0.17252012,0.06486832,-0.6655748,0.76485777,0.0,0.0,0,0
191226348,0.17968927,0.32988346,-1.4629996,0.0,0.72127175,0.17510144,0.06257575,-0.6672262,0.7612315,0.0,0.0,0,0
191265926,0.18226127,0.3300524,-1.465648,0.0,0.72014636,0.176165,0.061547015,-0.6682568,0.75828695,0.0,0.0,0,0
191325841,0.1869744,0.3303029,-1.4696476,0.0,0.7183682,0.1780622,0.05970879,-0.66983277,0.75558275,0.0,0.0,0,0
191367877,0.18693595,0.33058923,-1.471523,0.0,0.7177169,0.17819704,0.059660394,-0.6704989,0.75458765,0.0,0.0,0,0
191414977,0.18819457,0.32998896,-1.472125,0.0,0.7174579,0.17847204,0.058963105,-0.6707647,0.75429577,0.0,0.0,0,0
191474925,0.18756828,0.32869416,-1.4707556,0.0,0.7180913,0.17778763,0.058817007,-0.6702813,0.7538414,0.0,0.0,0,0
191514311,0.18423696,0.32842138,-1.470488,0.0,0.7185009,0.17649491,0.05985626,-0.670092,0.7504642,0.0,0.0,0,0
191575491,0.1825935,0.32794225,-1.4699243,0.0,0.7188778,0.17573224,0.060279448,-0.6698502,0.74510694,0.0,0.0,0,0
191614797,0.18190335,0.32649875,-1.4696285,0.0,0.7191678,0.17500766,0.06000323,-0.66975343,0.7438569,0.0,0.0,0,0
191673484,0.1800506,0.32545725,-1.4706342,0.0,0.7190861,0.17403416,0.060151324,-0.67008144,0.742198,0.0,0.0,0,0
191714526,0.18074858,0.32558277,-1.4702789,0.0,0.71913314,0.17431514,0.059994794,-0.669972,0.74117094,0.0,0.0,0,0
191772829,0.17870377,0.32552847,-1.4674416,0.0,0.72026557,0.17347597,0.06090586,-0.6688903,0.7395422,0.0,0.0,0,0
191812767,0.17847984,0.32547718,-1.4644996,0.0,0.72127265,0.17328885,0.061216764,-0.66782427,0.7385745,0.0,0.0,0,0
191872271,0.17467877,0.3243825,-1.4585253,0.0,0.72368914,0.17137757,0.06259277,-0.6655719,0.73693335,0.0,0.0,0,0
191911889,0.17116606,0.32328084,-1.4553585,0.0,0.7251387,0.16965047,0.06362141,-0.6643379,0.73495483,0.0,0.0,0,0
191971771,0.16984959,0.32254326,-1.4516716,0.0,0.72653836,0.16881776,0.06409584,-0.6629739,0.7320312,0.0,0.0,0,0
192011697,0.16619536,0.3212918,-1.4494513,0.0,0.72768974,0.1670156,0.06502662,-0.6620762,0.73189574,0.0,0.0,0,0
192072156,0.16403869,0.32066786,-1.4481238,0.0,0.7283626,0.16598688,0.06561822,-0.66153646,0.73235106,0.0,0.0,0,0
192110978,0.1619625,0.32083553,-1.4470854,0.0,0.7288634,0.16525003,0.06645324,-0.6610858,0.7324833,0.0,0.0,0,0
192170527,0.16033043,0.32219565,-1.4435349,0.0,0.7300535,0.16497158,0.067792915,-0.65970486,0.73317164,0.0,0.0,0,0
192211448,0.15730634,0.32274914,-1.4405458,0.0,0.73123956,0.1639415,0.06924213,-0.6584963,0.73386085,0.0,0.0,0,0
192269944,0.14817308,0.32164353,-1.4392186,0.0,0.7325103,0.16019882,0.07194153,-0.65771526,0.7331002,0.0,0.0,0,0
192309790,0.14317557,0.32055068,-1.4415803,0.0,0.7322223,0.15810435,0.07298937,-0.65842694,0.7322922,0.0,0.0,0,0
192369411,0.13856837,0.3190921,-1.4481837,0.0,0.73052704,0.15619254,0.07344573,-0.6607116,0.7318161,0.0,0.0,0,0
192428918,0.13829857,0.319731,-1.4564672,0.0,0.72775304,0.156604,0.07312488,-0.66370434,0.730179,0.0,0.0,0,0
192469069,0.13808447,0.3212195,-1.4622859,0.0,0.72571373,0.1572217,0.07329132,-0.66576964,0.7291037,0.0,0.0,0,0
192528417,0.14183912,0.3228594,-1.4668517,0.0,0.7237594,0.15928139,0.072285086,-0.66751516,0.7288363,0.0,0.0,0,0
192568123,0.141374,0.32354683,-1.467427,0.0,0.7235474,0.15935758,0.07264848,-0.6676874,0.72916704,0.0,0.0,0,0
192629095,0.1446285,0.32374746,-1.4651146,0.0,0.72404206,0.16051708,0.07182165,-0.66696256,0.7298516,0.0,0.0,0,0
192667705,0.1437546,0.32362235,-1.4617363,0.0,0.72524804,0.1600381,0.07233725,-0.66571045,0.73018366,0.0,0.0,0,0
192727285,0.14630358,0.31726292,-1.4562051,0.0,0.72741234,0.15870838,0.06957216,-0.6639598,0.71939385,0.0,0.0,0,0
192768907,0.14469092,0.31224436,-1.4527115,0.0,0.7291109,0.15637869,0.06851682,-0.6627582,0.70984954,0.0,0.0,0,0
192826560,0.14534965,0.30489096,-1.4489446,0.0,0.7309032,0.15411924,0.065852806,-0.66158235,0.6967156,0.0,0.0,0,0
192867801,0.1444085,0.29950753,-1.447375,0.0,0.7319245,0.15198778,0.0642765,-0.6611011,0.68770504,0.0,0.0,0,0
192926267,0.14212486,0.29230583,-1.4454254,0.0,0.73330593,0.14876704,0.062489256,-0.6604738,0.67264694,0.0,0.0,0,0
192965970,0.13722804,0.28688046,-1.4447966,0.0,0.7342903,0.14520049,0.062125575,-0.6602083,0.66133034,0.0,0.0,0,0
193025802,0.13299245,0.27715674,-1.4468455,0.0,0.7346422,0.14056478,0.05974633,-0.661039,0.6442851,0.0,0.0,0,0
193075212,0.13005243,0.26882604,-1.4508451,0.0,0.734126,0.1369014,0.05733342,-0.66259336,0.6298657,0.0,0.0,0,0
193116040,0.12873767,0.262201,-1.4546822,0.0,0.7334106,0.13437188,0.055040993,-0.6640961,0.6177585,0.0,0.0,0,0
193165731,0.12635511,0.25420713,-1.4592912,0.0,0.7325876,0.13101368,0.05255396,-0.66587466,0.6028679,0.0,0.0,0,0
193214568,0.12710485,0.24635243,-1.4655681,0.0,0.73097414,0.12887357,0.04898064,-0.6683333,0.5879863,0.0,0.0,0,0
193274011,0.12921178,0.23699766,-1.4723113,0.0,0.72919846,0.12672138,0.044380978,-0.6710004,0.5699337,0.0,0.0,0,0
193313808,0.12934138,0.23041816,-1.4760797,0.0,0.72834986,0.124676496,0.041669805,-0.6724774,0.5580426,0.0,0.0,0,0
193373674,0.13065304,0.23193654,-1.4813547,0.0,0.726394,0.12576601,0.041457757,-0.6744004,0.56147575,0.0,0.0,0,0
193413364,0.13381775,0.23708728,-1.4829555,0.0,0.7253168,0.12865625,0.042184576,-0.67496926,0.56869847,0.0,0.0,0,0
193472919,0.13567184,0.23640645,-1.483444,0.0,0.72507733,0.12911291,0.041276727,-0.67519546,0.5644589,0.0,0.0,0,0
193512946,0.13834274,0.23556566,-1.4822283,0.0,0.7253705,0.12977788,0.04014453,-0.6748212,0.56290954,0.0,0.0,0,0
193572444,0.16906177,0.2315757,-1.4787995,0.0,0.7247324,0.13953635,0.028544797,-0.67414963,0.5590988,0.0,0.0,0,0
193612576,0.2317114,0.22369003,-1.4763305,0.0,0.7214727,0.15957688,0.0047037443,-0.67378795,0.5492074,0.0,0.0,0,0
193673093,0.32667392,0.21160373,-1.472596,0.0,0.7154773,0.18978971,-0.031383872,-0.67163026,0.5335531,0.0,0.0,0,0
193711834,0.38764596,0.20378718,-1.4696088,0.0,0.7111572,0.20908795,-0.054407958,-0.6690123,0.52342993,0.0,0.0,0,0
193771666,0.4816267,0.19174421,-1.4640048,0.0,0.7037978,0.23871793,-0.08951756,-0.6630753,0.50849205,0.0,0.0,0,0
193812298,0.5451497,0.18369919,-1.4601139,0.0,0.6981342,0.25866538,-0.11296292,-0.657982,0.49913794,0.0,0.0,0,0
193872298,0.6394901,0.17549947,-1.4536449,0.0,0.68837965,0.2892709,-0.14589354,-0.64897686,0.49389863,0.0,0.0,0,0
193930537,0.73100317,0.17141648,-1.4457346,0.0,0.67756486,0.31993714,-0.17562285,-0.63851595,0.49805304,0.0,0.0,0,0
193970393,0.79381615,0.16847911,-1.441286,0.0,0.66904956,0.34063566,-0.19587328,-0.63085157,0.5017457,0.0,0.0,0,0
194010162,0.8561406,0.16557431,-1.4384731,0.0,0.6594678,0.36078897,-0.21594909,-0.6231368,0.50609165,0.0,0.0,0,0
194069769,0.87266463,0.16138911,-1.4318291,0.0,0.65922034,0.36577147,-0.22134572,-0.6185838,0.514612,0.0,0.0,0,0
194129218,0.87266463,0.15767914,-1.4203429,0.0,0.66337305,0.3659914,-0.22055286,-0.6142825,0.52353334,0.0,0.0,0,0
194169327,0.87266463,0.15549466,-1.4080483,0.0,0.6674935,0.36672902,-0.21907447,-0.60989225,0.52898675,0.0,0.0,0,0
194209061,0.87266463,0.15290685,-1.3919995,0.0,0.672785,0.36775786,-0.21704891,-0.60415596,0.5342457,0.0,0.0,0,0
194268474,0.87266463,0.14858058,-1.3654768,0.0,0.6814271,0.3694238,-0.21371314,-0.594567,0.54042125,0.0,0.0,0,0
194328661,0.87266463,0.14459279,-1.3368851,0.0,0.6904818,0.37137264,-0.20986287,-0.58418745,0.5450347,0.0,0.0,0,0
194369072,0.87266463,0.14186132,-1.3149151,0.0,0.69727916,0.37293372,-0.20677325,-0.5761658,0.54912424,0.0,0.0,0,0
194428005,0.87266463,0.13774891,-1.2828331,0.0,0.7070544,0.37513882,-0.2022905,-0.56429046,0.5565263,0.0,0.0,0,0
194467284,0.87266463,0.13518584,-1.261462,0.0,0.7134262,0.3766254,-0.19922808,-0.5563134,0.5619533,0.0,0.0,0,0
194527041,0.87266463,0.13104537,-1.2265611,0.0,0.7236295,0.37901458,-0.19419022,-0.54313767,0.5693054,0.0,0.0,0,0
194566766,0.87266463,0.12849641,-1.2022188,0.0,0.730552,0.38072684,-0.19053325,-0.5338893,0.5726091,0.0,0.0,0,0
194626317,0.87266463,0.12527148,-1.1628324,0.0,0.7413747,0.38364014,-0.1842416,-0.5188824,0.5741885,0.0,0.0,0,0
194666084,0.87266463,0.1227577,-1.1385641,0.0,0.7479614,0.3852623,-0.18054837,-0.50943995,0.57600594,0.0,0.0,0,0
194727729,0.87266463,0.11915819,-1.1081414,0.0,0.75610715,0.38714647,-0.17607611,-0.4974102,0.5749916,0.0,0.0,0,0
194775463,0.87266463,0.11612166,-1.0836828,0.0,0.762533,0.38859463,-0.17252484,-0.48761946,0.5730809,0.0,0.0,0,0
194815390,0.87266463,0.11348599,-1.0676144,0.0,0.7667679,0.389389,-0.17044006,-0.4810337,0.5688157,0.0,0.0,0,0
194867386,0.87266463,0.11043245,-1.0475992,0.0,0.7719327,0.3904154,-0.16774909,-0.47281712,0.56370014,0.0,0.0,0,0
194914637,0.87266463,0.10720446,-1.0285733,0.0,0.7767999,0.39130732,-0.16531749,-0.4648986,0.5614155,0.0,0.0,0,0
194974301,0.87266463,0.10342779,-1.0031664,0.0,0.783105,0.3925909,-0.16185206,-0.45433784,0.55888534,0.0,0.0,0,0
195013902,0.87266463,0.101072654,-0.98745596,0.0,0.78693336,0.39336744,-0.15971382,-0.44776064,0.5561569,0.0,0.0,0,0
195074867,0.87266463,0.097871564,-0.9579359,0.0,0.7938317,0.39504403,-0.15519176,-0.4355308,0.55414844,0.0,0.0,0,0
195113478,0.87266463,0.09489824,-0.9376307,0.0,0.79855394,0.39601815,-0.1523874,-0.4269185,0.55528575,0.0,0.0,0,0
195173198,0.87266463,0.090689555,-0.9172882,0.0,0.80332744,0.39674115,-0.15007807,-0.41801685,0.55138195,0.0,0.0,0,0
195212952,0.87266463,0.08776034,-0.90991235,0.0,0.80518854,0.39673403,-0.1498172,-0.41452196,0.54529953,0.0,0.0,0,0
195273919,0.87266463,0.08363077,-0.890927,0.0,0.809535,0.39736643,-0.14774773,-0.4061078,0.53857297,0.0,0.0,0,0
195312341,0.87266463,0.08095911,-0.8765087,0.0,0.81272614,0.39792892,-0.14598441,-0.39977163,0.53551507,0.0,0.0,0,0
195371914,0.87266463,0.0769541,-0.8516168,0.0,0.81805307,0.39899632,-0.14268595,-0.3888852,0.53282493,0.0,0.0,0,0
195412801,0.87266463,0.07439912,-0.8344005,0.0,0.821629,0.39975965,-0.14031209,-0.3813535,0.5324397,0.0,0.0,0,0
195471518,0.87266463,0.070929915,-0.8065564,0.0,0.82719845,0.40108228,-0.13618869,-0.36922675,0.53501475,0.0,0.0,0,0
195511082,0.87266463,0.068541735,-0.7873932,0.0,0.8309266,0.40197012,-0.13334504,-0.36083278,0.53868127,0.0,0.0,0,0
195570888,0.87266463,0.06508679,-0.7521158,0.0,0.8374782,0.4037075,-0.1276988,-0.34546146,0.5457994,0.0,0.0,0,0
195612325,0.87266463,0.06259916,-0.7262066,0.0,0.84210336,0.40494338,-0.123517565,-0.33410522,0.54730976,0.0,0.0,0,0
195670311,0.87266463,0.05871118,-0.68519926,0.0,0.84910244,0.4068225,-0.11685643,-0.3160145,0.54101276,0.0,0.0,0,0
195709850,0.87266463,0.055742063,-0.65944636,0.0,0.8533405,0.40787494,-0.11288673,-0.30447426,0.5362379,0.0,0.0,0,0
195769800,0.87266463,0.050641816,-0.629735,0.0,0.8581615,0.40881863,-0.1090209,-0.29075882,0.5350436,0.0,0.0,0,0
195809473,0.87266463,0.047567625,-0.6187116,0.0,0.85998136,0.4090045,-0.108097374,-0.28541636,0.53682876,0.0,0.0,0,0
195869137,0.87266463,0.043465212,-0.6030986,0.0,0.86248094,0.40930274,-0.10668176,-0.27787927,0.5415925,0.0,0.0,0,0
195928784,0.87266463,0.03969939,-0.5767421,0.0,0.86632824,0.4102037,-0.10291915,-0.26573688,0.5421392,0.0,0.0,0,0
195968369,0.87266463,0.037608054,-0.5571776,0.0,0.86902535,0.4109385,-0.099814914,-0.2568299,0.5369822,0.0,0.0,0,0
196028184,0.87266463,0.03389074,-0.51905197,0.0,0.8739937,0.41234782,-0.09359504,-0.2394668,0.5301785,0.0,0.0,0,0
196067980,0.87266463,0.031064305,-0.49728975,0.0,0.8767147,0.41303605,-0.09034644,-0.2293691,0.52804583,0.0,0.0,0,0
196127750,0.87266463,0.026850872,-0.47302252,0.0,0.87966865,0.41366705,-0.087187305,-0.21785578,0.5312599,0.0,0.0,0,0
196167376,0.87266463,0.024763554,-0.46108124,0.0,0.88106626,0.41396967,-0.08563797,-0.21217315,0.53529215,0.0,0.0,0,0
196227055,0.87266463,0.022831384,-0.43664244,0.0,0.8836917,0.4148003,-0.08142903,-0.20099518,0.5401422,0.0,0.0,0,0
196266712,0.87266463,0.021315634,-0.407998,0.0,0.886552,0.41578826,-0.07615331,-0.18800646,0.54151344,0.0,0.0,0,0
196327529,0.87266463,0.017425358,-0.36051112,0.0,0.89092976,0.41717085,-0.06799622,-0.16610004,0.5392798,0.0,0.0,0,0
196367341,0.87266463,0.013990633,-0.33116356,0.0,0.89340276,0.41787276,-0.0634037,-0.1522955,0.5349389,0.0,0.0,0,0
196405999,0.87266463,0.010999516,-0.30750892,0.0,0.8952466,0.4183897,-0.059797093,-0.14109524,0.5307245,0.0,0.0,0,0
196466989,0.87266463,0.0069802403,-0.2800596,0.0,0.89722544,0.41892058,-0.055853426,-0.12795554,0.5277902,0.0,0.0,0,0
196515401,0.87266463,0.004260935,-0.26180765,0.0,0.8984342,0.4192536,-0.053250022,-0.119193025,0.5299345,0.0,0.0,0,0
196574994,0.87266463,0.0015714541,-0.23705772,0.0,0.8999093,0.41973713,-0.049268123,-0.10750197,0.5375842,0.0,0.0,0,0
196617683,0.87266463,4.286319e-05,-0.2151715,0.0,0.9010668,0.42017686,-0.04536073,-0.09732682,0.54362404,0.0,0.0,0,0
196674336,0.87266463,-0.001868397,-0.17620496,0.0,0.902827,0.42090446,-0.03802894,-0.0793514,0.5495467,0.0,0.0,0,0
196714418,0.87266463,-0.0037053823,-0.1467384,0.0,0.9039254,0.42135745,-0.032653887,-0.06565445,0.550239,0.0,0.0,0,0
196773825,0.87266463,-0.006348625,-0.10279689,0.0,0.90517527,0.42191023,-0.02458535,-0.04522232,0.5488182,0.0,0.0,0,0
196813665,0.87266463,-0.008485407,-0.07451564,0.0,0.90573746,0.42217794,-0.019584566,-0.031967144,0.5476748,0.0,0.0,0,0
196873572,0.87266463,-0.011834867,-0.038392458,0.0,0.906173,0.42243007,-0.013474034,-0.014895979,0.54414755,0.0,0.0,0,0
196913030,0.87266463,-0.014262944,-0.018953025,0.0,0.90627265,0.42252728,-0.01046775,-0.005574561,0.5412746,0.0,0.0,0,0
196973884,0.87266463,-0.017682135,0.00319946,0.0,0.90626526,0.42261404,-0.0073365653,0.0051861336,0.5405078,0.0,0.0,0,0
197012535,0.87266463,-0.019698963,0.016344452,0.0,0.9061996,0.4226566,-0.0054726936,0.011568475,0.5425748,0.0,0.0,0,0
197072093,0.87266463,-0.022391766,0.038116507,0.0,0.90599626,0.42270842,-0.0020914872,0.022001144,0.54766375,0.0,0.0,0,0
197113103,0.87266463,-0.024252012,0.0548147,0.0,0.90576047,0.42272967,0.00059504784,0.029957183,0.5510852,0.0,0.0,0,0
197172685,0.87266463,-0.02716688,0.08475081,0.0,0.90516746,0.42272145,0.005602261,0.044125404,0.55222505,0.0,0.0,0,0
197211209,0.87266463,-0.029134601,0.10693345,0.0,0.9045877,0.42267507,0.009399729,0.054576483,0.5500892,0.0,0.0,0,0
197271065,0.8646239,-0.032039955,0.14201541,0.0,0.905119,0.41889372,0.015212518,0.07110724,0.5465034,0.0,0.0,0,0
197311007,0.85641205,-0.033867948,0.16152416,0.0,0.9060497,0.41506943,0.01814026,0.08038828,0.5449142,0.0,0.0,0,0
197371499,0.8452582,-0.03591814,0.18588513,0.0,0.9072475,0.40984353,0.021752937,0.091963165,0.5463452,0.0,0.0,0,0
197430132,0.83494335,-0.03722161,0.20947532,0.0,0.90816134,0.4049374,0.02546276,0.10305495,0.549241,0.0,0.0,0,0
197469657,0.8289612,-0.037847027,0.22806366,0.0,0.908351,0.4019982,0.028606955,0.11170237,0.5508662,0.0,0.0,0,0
197509791,0.8217416,-0.038679995,0.25191525,0.0,0.9083701,0.39839673,0.032577313,0.122810826,0.55239916,0.0,0.0,0,0
197569057,0.807804,-0.04042188,0.2934765,0.0,0.9083054,0.39142346,0.039067354,0.14227691,0.55411917,0.0,0.0,0,0
197628943,0.79164827,-0.041786753,0.33362514,0.0,0.9083353,0.38333434,0.044996962,0.16111165,0.5519827,0.0,0.0,0,0
197669873,0.7799187,-0.042692713,0.35892984,0.0,0.9084139,0.37748417,0.048417445,0.17304818,0.5501362,0.0,0.0,0,0
197728490,0.7583287,-0.04423234,0.39438385,0.0,0.9091448,0.36690718,0.052354064,0.18998371,0.5504008,0.0,0.0,0,0
197767944,0.7437734,-0.04527127,0.41291237,0.0,0.90993905,0.3598885,0.053831134,0.19898096,0.55178165,0.0,0.0,0,0
197827921,0.7223537,-0.046410717,0.4367375,0.0,0.9112436,0.349593,0.05534296,0.21061048,0.55383897,0.0,0.0,0,0
197868539,0.7073036,-0.046963997,0.45119202,0.0,0.91227233,0.34238437,0.05597871,0.21771203,0.552945,0.0,0.0,0,0
197926998,0.6867094,-0.047508538,0.47265068,0.0,0.91332746,0.33243486,0.05705371,0.22817719,0.54659945,0.0,0.0,0,0
197966682,0.67294925,-0.047884114,0.48934215,0.0,0.91363454,0.3257104,0.058030147,0.2362567,0.5419631,0.0,0.0,0,0
198026619,0.6491485,-0.048109457,0.51724166,0.0,0.9140398,0.3140406,0.05949721,0.24973926,0.5374831,0.0,0.0,0,0
198066194,0.6318711,-0.04835549,0.5338319,0.0,0.9145985,0.30567667,0.05976201,0.25787562,0.53722733,0.0,0.0,0,0
198116000,0.610724,-0.04793781,0.5526258,0.0,0.91533166,0.29538736,0.06000286,0.2670468,0.5391852,0.0,0.0,0,0
198175454,0.58373654,-0.047106095,0.5704106,0.0,0.9168588,0.28238764,0.05929131,0.2758835,0.5410726,0.0,0.0,0,0
198226424,0.56092006,-0.046388105,0.5833808,0.0,0.9182441,0.27144304,0.058233324,0.28240967,0.5398135,0.0,0.0,0,0
198274861,0.53573954,-0.045730524,0.5968756,0.0,0.9196901,0.25939476,0.05672887,0.28925127,0.5360978,0.0,0.0,0,0
198314857,0.51448184,-0.04504285,0.60683906,0.0,0.9209732,0.24923724,0.055211954,0.29434818,0.5327783,0.0,0.0,0,0
198367120,0.48738042,-0.044351824,0.62032163,0.0,0.9222883,0.23628372,0.053132903,0.30121624,0.52904636,0.0,0.0,0,0
198414111,0.46056852,-0.043384433,0.63424426,0.0,0.9232931,0.22340703,0.051095672,0.30823424,0.52601933,0.0,0.0,0,0
198473855,0.4285653,-0.042137653,0.65267485,0.0,0.9239175,0.20797813,0.048655223,0.317418,0.5233468,0.0,0.0,0,0
198513578,0.40531778,-0.040750757,0.6646627,0.0,0.9244089,0.19673309,0.046786673,0.32338107,0.5234091,0.0,0.0,0,0
198574449,0.36956826,-0.030336037,0.68038213,0.0,0.9256061,0.17815949,0.047244284,0.3305762,0.53836083,0.0,0.0,0,0
198614923,0.34385926,-0.022533737,0.68813217,0.0,0.9268024,0.16479094,0.047256004,0.3341379,0.5487057,0.0,0.0,0,0
198672605,0.30634832,-0.010540292,0.69511896,0.0,0.9289118,0.14522491,0.047070287,0.3373677,0.56260955,0.0,0.0,0,0
198714030,0.28031114,-0.0018553957,0.69833076,0.0,0.93039984,0.13158184,0.046929117,0.33888063,0.57247084,0.0,0.0,0,0
198772024,0.24888715,0.011619706,0.70340765,0.0,0.9317601,0.11453677,0.048171263,0.34115103,0.58799624,0.0,0.0,0,0
198811865,0.22537874,0.021056376,0.7108489,0.0,0.93191296,0.10177647,0.04893685,0.3446521,0.5996846,0.0,0.0,0,0
198871443,0.18695827,0.030486498,0.7243535,0.0,0.931441,0.081900485,0.04726019,0.3513922,0.6103919,0.0,0.0,0,0
198911345,0.15882745,0.027202599,0.73356915,0.0,0.9308442,0.06918468,0.041102663,0.35644525,0.6024201,0.0,0.0,0,0
198970948,0.11355771,0.03075103,0.7437111,0.0,0.9303605,0.04728623,0.034917805,0.36190352,0.6047191,0.0,0.0,0,0
199010895,0.08429012,0.03300062,0.74818164,0.0,0.93014103,0.03318934,0.030739076,0.3644051,0.6052723,0.0,0.0,0,0
199070226,0.04317299,0.03676389,0.75172377,0.0,0.9299634,0.0133290365,0.02501568,0.3665578,0.60643077,0.0,0.0,0,0
199110005,0.016922524,0.039420806,0.75269634,0.0,0.92986023,0.0006240903,0.021438185,0.36728704,0.6066786,0.0,0.0,0,0
199169699,-0.018756151,0.044433735,0.75320673,0.0,0.9295721,-0.016888104,0.017209265,0.3678508,0.60798454,0.0,0.0,0,0
199229658,-0.051720366,0.049066007,0.7526613,0.0,0.9291956,-0.03305277,0.013306286,0.36786684,0.60956615,0.0,0.0,0,0
199269025,-0.07347306,0.051847413,0.75259316,0.0,0.92874235,-0.0436659,0.010598588,0.3679928,0.6108259,0.0,0.0,0,0
199309154,-0.09307764,0.054805227,0.7523792,0.0,0.92824715,-0.05330754,0.008370796,0.36802918,0.611512,0.0,0.0,0,0
199368453,-0.12298346,0.059416335,0.7520359,0.0,0.9272964,-0.068021506,0.005019523,0.36806163,0.6119944,0.0,0.0,0,0
199428223,-0.15074293,0.06390372,0.75147235,0.0,0.9262405,-0.081700966,0.0020155564,0.36796662,0.6126738,0.0,0.0,0,0
199467845,-0.16689865,0.06682289,0.7511118,0.0,0.9255278,-0.08970994,0.0004130823,0.36789972,0.61317825,0.0,0.0,0,0
199527731,-0.19300981,0.0705094,0.74913406,0.0,0.9245176,-0.10245472,-0.0025806047,0.36710176,0.6141243,0.0,0.0,0,0
199567418,-0.20799515,0.072913334,0.7466312,0.0,0.9240972,-0.10981703,-0.004080145,0.3660163,0.6147403,0.0,0.0,0,0
199628197,-0.23097183,0.0763026,0.74060005,0.0,0.9237448,-0.1210523,-0.0063507194,0.3633201,0.6150329,0.0,0.0,0,0
199666931,-0.24367434,0.07851145,0.7352584,0.0,0.9238365,-0.12732828,-0.0072950283,0.36091602,0.6150776,0.0,0.0,0,0
199726510,-0.2623804,0.08147974,0.7250841,0.0,0.9243051,-0.13652994,-0.008601115,0.35629445,0.61539054,0.0,0.0,0,0
199767521,-0.2714732,0.0834045,0.7176078,0.0,0.9249176,-0.14109753,-0.008800805,0.35290438,0.6157814,0.0,0.0,0,0
199825946,-0.2841693,0.0862,0.70706123,0.0,0.92572755,-0.14749297,-0.008965894,0.3481292,0.61560935,0.0,0.0,0,0
199875597,-0.29346436,0.0890122,0.6991887,0.0,0.9262675,-0.15230173,-0.008677467,0.344612,0.6148258,0.0,0.0,0,0
199906516,-0.29950938,0.09094832,0.6944834,0.0,0.9265214,-0.15544242,-0.008452697,0.34252617,0.6139269,0.0,0.0,0,0
199976073,-0.31590706,0.09615552,0.6820509,0.0,0.92707664,-0.16394132,-0.007820157,0.33703274,0.61255217,0.0,0.0,0,0
200015143,-0.32462126,0.09886255,0.673062,0.0,0.92772514,-0.16844966,-0.007270674,0.33301333,0.61235803,0.0,0.0,0,0
200074190,-0.33110344,0.101921596,0.65856,0.0,0.9294114,-0.17198688,-0.0056766733,0.32647014,0.6124356,0.0,0.0,0,0
200115169,-0.33554095,0.1037187,0.64912975,0.0,0.9304655,-0.17435169,-0.004739269,0.32220018,0.61248666,0.0,0.0,0,0
200173998,-0.3387639,0.10632816,0.6348617,0.0,0.9323255,-0.17627381,-0.0027801031,0.31573558,0.61267465,0.0,0.0,0,0
200213701,-0.3403659,0.107970126,0.62521255,0.0,0.93361247,-0.17727451,-0.0014078261,0.311351,0.6124246,0.0,0.0,0,0
200273401,-0.34067985,0.11050162,0.6115029,0.0,0.93556756,-0.17779066,0.0009508312,0.3051278,0.61131805,0.0,0.0,0,0
200313238,-0.34206772,0.112035155,0.60189265,0.0,0.9368206,-0.17865092,0.002319171,0.3007419,0.61032563,0.0,0.0,0,0
200373090,-0.3412832,0.114258304,0.5873344,0.0,0.938941,-0.17856732,0.0047847605,0.2940758,0.6087088,0.0,0.0,0,0
200412728,-0.34081227,0.11555106,0.577964,0.0,0.94028425,-0.17849673,0.0063009122,0.2897666,0.6076685,0.0,0.0,0,0
200472234,-0.34002683,0.1177797,0.56506824,0.0,0.94208914,-0.1783775,0.008619099,0.28385773,0.6060152,0.0,0.0,0,0
200511713,-0.34062076,0.11922881,0.5565869,0.0,0.94315714,-0.1788083,0.0099797435,0.27996913,0.6052356,0.0,0.0,0,0
200571495,-0.33898962,0.12092759,0.54289186,0.0,0.94511074,-0.17818074,0.012234356,0.2736194,0.6047548,0.0,0.0,0,0
200612505,-0.3342028,0.12168074,0.5345744,0.0,0.9466259,-0.17595729,0.013979182,0.2697091,0.6045432,0.0,0.0,0,0
200672144,-0.3287695,0.12292333,0.5233736,0.0,0.9485334,-0.17345215,0.016275179,0.26445016,0.6041877,0.0,0.0,0,0
200710606,-0.32307932,0.12370476,0.5165646,0.0,0.9498787,-0.1707884,0.017981838,0.2612249,0.60360056,0.0,0.0,0,0
200770260,-0.31588522,0.124864236,0.5069098,0.0,0.95167935,-0.16741507,0.020283684,0.2566463,0.60139984,0.0,0.0,0,0
200810004,-0.31202808,0.12574178,0.50066936,0.0,0.9527533,-0.16561675,0.021715317,0.2536942,0.59919256,0.0,0.0,0,0
200869763,-0.30917013,0.12727702,0.4902691,0.0,0.95422006,-0.16431455,0.023667797,0.24880663,0.5953001,0.0,0.0,0,0
200909443,-0.3075699,0.1279968,0.48170784,0.0,0.9553723,-0.1635286,0.024912259,0.24474815,0.5926051,0.0,0.0,0,0
200969099,-0.30448583,0.12859711,0.46872,0.0,0.9571632,-0.16195345,0.026630124,0.23853834,0.5888957,0.0,0.0,0,0
201030100,-0.30237648,0.12950274,0.45526552,0.0,0.9588728,-0.1608559,0.028399969,0.23212434,0.58617395,0.0,0.0,0,0
201068428,-0.30199465,0.13033809,0.44669658,0.0,0.9598492,-0.1606368,0.02953514,0.22806361,0.58491534,0.0,0.0,0,0
201128201,-0.3004267,0.13089454,0.43361104,0.0,0.9614199,-0.15974283,0.03102803,0.22179137,0.58503455,0.0,0.0,0,0
201169380,-0.2992963,0.13120122,0.42488813,0.0,0.96245354,-0.15909243,0.031995643,0.21759832,0.5857508,0.0,0.0,0,0
201227596,-0.2960767,0.13177253,0.41070706,0.0,0.96419996,-0.15736434,0.03373869,0.21075237,0.58569413,0.0,0.0,0,0
201267585,-0.29335815,0.13199127,0.4010453,0.0,0.96540946,-0.15590785,0.034884606,0.20605913,0.58521026,0.0,0.0,0,0
201327068,-0.28656483,0.13213848,0.38832238,0.0,0.96721727,-0.15241171,0.036625993,0.19979995,0.5840796,0.0,0.0,0,0
201366698,-0.28185543,0.13234359,0.38082424,0.0,0.96830606,-0.15001188,0.037758626,0.19609709,0.58311707,0.0,0.0,0,0
201426528,-0.2760145,0.13206935,0.37051517,0.0,0.9697497,-0.14696008,0.038955875,0.19097316,0.58250916,0.0,0.0,0,0
201466160,-0.27346352,0.13171625,0.36453098,0.0,0.9705189,-0.14557503,0.039463352,0.18799879,0.58260477,0.0,0.0,0,0
201525936,-0.26807204,0.13159686,0.35625687,0.0,0.97168213,-0.14278173,0.0405029,0.18386629,0.58286023,0.0,0.0,0,0
201575539,-0.2652633,0.13187066,0.34962553,0.0,0.9724738,-0.14130342,0.04136328,0.18060201,0.5832331,0.0,0.0,0,0
201616551,-0.2598287,0.13184081,0.343749,0.0,0.97338164,-0.13853441,0.042246547,0.17762794,0.5835417,0.0,0.0,0,0
201675134,-0.2540873,0.1321464,0.33547127,0.0,0.9744885,-0.13558543,0.043467056,0.17349148,0.5837977,0.0,0.0,0,0
201714893,-0.2499073,0.13202314,0.3286159,0.0,0.97536373,-0.13338797,0.04422679,0.17005114,0.5840268,0.0,0.0,0,0
201774698,-0.2427249,0.13175544,0.31873152,0.0,0.97667533,-0.12964122,0.045347486,0.16505182,0.58304167,0.0,0.0,0,0
