timestamp,accel_device_id,gyro_device_id,accel_clipping[0],accel_clipping[1],accel_clipping[2],gyro_clipping[0],gyro_clipping[1],gyro_clipping[2],accel_error_count,gyro_error_count,accel_rate_hz,gyro_rate_hz,accel_raw_rate_hz,gyro_raw_rate_hz,accel_vibration_metric,gyro_vibration_metric,delta_angle_coning_metric,mean_accel[0],mean_accel[1],mean_accel[2],mean_gyro[0],mean_gyro[1],mean_gyro[2],var_accel[0],var_accel[1],var_accel[2],var_gyro[0],var_gyro[1],var_gyro[2],temperature_accel,temperature_gyro
174565404,2359306,2359306,0,0,0,0,0,0,0,0,375.36404,375.36404,3763.063,7481.936,0.17701322,0.022811983,9.2779656e-10,0.886301,-0.5200326,-9.525774,0.03224013,-0.036885392,0.029471602,0.013942424,0.0066030403,0.06295302,0.00053019257,0.0012149526,0.00015864139,26.367367,26.367367
175577533,2359306,2359306,0,0,0,0,0,0,0,0,375.25214,375.25214,3767.4312,7480.2856,0.18648794,0.023483982,5.097529e-10,0.856476,-0.40888852,-9.493737,0.0094321715,-0.029579317,0.0003754031,0.011008444,0.0118972175,0.07791221,0.0005963635,0.0009928668,0.00024507593,26.175661,26.175661
176590293,2359306,2359306,0,0,0,0,0,0,0,0,375.24045,375.24045,3762.2075,7479.8374,0.20534672,0.019483238,8.9043356e-11,0.83834684,-0.42078263,-9.441558,0.026415179,-0.006123446,0.0074320976,0.0061614946,0.0040464755,0.03226603,6.0801056e-05,1.6607792e-05,0.00010390048,26.367367,26.367367
177602845,2359306,2359306,0,0,0,0,0,0,0,0,375.25986,375.25986,3764.0835,7479.9014,0.17057103,0.012586835,1.4513161e-09,0.026762648,0.23013707,-9.162883,0.016063225,-0.0874671,-0.22077744,0.004753194,0.0017029198,0.059143633,0.0008028783,0.0011304554,0.00022118163,26.319443,26.319443
178615426,2359306,2359306,0,0,0,0,0,0,0,0,375.253,375.253,3763.8164,7479.9507,3.7194824,0.08175342,3.483914e-08,4.196953,0.829499,-9.112974,0.09780726,0.27827883,0.44079545,35.81288,2067.655,272.75983,0.47638854,0.005249688,0.013229662,26.319443,26.319443
179654756,2359306,2359306,0,10,0,0,0,0,0,0,375.2539,375.2539,3763.4854,7479.9917,7.7626576,0.14699103,6.3922265e-08,7.385873,-1.8456141,-10.080814,-0.9881809,-0.18206367,-0.45703518,73.23314,3238.2686,547.91895,0.7308171,0.079314485,0.024138087,25.983963,25.983963
180651553,2359306,2359306,0,95,0,0,0,0,0,0,375.2517,375.2517,3763.3328,7480.0737,8.9334135,0.14132367,1.746454e-08,6.1732516,-3.2256384,-11.034858,-0.07684452,0.14216241,-0.09381797,81.37521,3803.9187,537.51605,1.0164225,0.14939353,0.03383699,25.952017,25.952017
181557427,2359306,2359306,0,166,0,0,0,0,0,0,375.25458,375.25458,3763.3655,7480.044,9.117427,0.12853359,1.8803803e-08,4.3629026,-3.3267553,-11.652114,0.047453787,0.10043556,-0.13505821,87.27565,3594.7397,540.4615,0.7656671,0.06674316,0.024670657,25.840208,25.840208
182655696,2359306,2359306,0,215,0,0,0,0,0,0,375.2514,375.2514,3763.1892,7480.35,8.827183,0.1359461,3.5973315e-08,4.094715,-1.6632313,-14.263728,-0.15564254,0.24752484,0.13895221,91.12708,3436.6926,568.8783,0.83883667,0.088069014,0.031111266,25.840153,25.840153
183647329,2359306,2359306,0,250,0,0,0,0,0,0,375.25235,375.25235,3763.0452,7480.7754,8.885313,0.14132097,2.5882931e-08,2.8069623,0.43031025,-12.868882,-0.20443667,0.28197107,-0.052414663,76.279526,3462.6147,515.40674,0.83214164,0.0665995,0.050273802,25.840199,25.840199
184558052,2359306,2359306,0,267,0,0,0,0,0,0,375.25833,375.25833,3762.5752,7480.4033,9.08134,0.12398021,1.23801405e-08,2.2767034,-1.0581846,-11.27822,-0.3230224,0.022696568,0.044034936,87.11911,4214.379,651.98444,0.80288184,0.099981084,0.014391226,25.600588,25.600588
185570951,2359306,2359306,0,267,0,0,0,0,0,0,375.25714,375.25714,3762.643,7480.4263,7.1601677,0.11448326,1.8378769e-08,1.714341,-0.37887037,-8.477047,0.22953323,-0.048644464,0.100220494,35.666027,621.40216,422.36533,0.54640746,0.028609764,0.01153751,25.456833,25.456833
186583399,2359306,2359306,0,267,0,0,0,0,0,0,375.25632,375.25632,3762.2727,7480.101,6.999547,0.11597897,1.1390148e-08,3.5051272,-2.8279076,-9.704832,-0.100877635,0.05159398,-0.017130993,82.290985,4210.176,644.8014,0.8380136,0.087054975,0.01546521,25.313051,25.313051
187649146,2359306,2359306,0,605,0,0,0,0,0,0,375.25824,375.25824,3762.2905,7480.259,8.176146,0.12841322,1.4571515e-08,3.675124,-1.8948764,-8.65702,0.095371515,-0.0012432992,-0.027197061,93.71929,4070.3257,487.1891,1.0105404,0.06283433,0.030844538,25.342142,25.342142
188653437,2359306,2359306,0,1005,0,0,0,0,0,0,375.25992,375.25992,3762.2883,7480.3945,8.663459,0.13105437,8.418736e-09,3.4582057,-1.6802162,-8.877106,0.0819414,-3.332742e-05,-0.010672513,90.801216,4056.367,512.5055,1.0282642,0.06942384,0.026738109,25.376175,25.376175
189647729,2359306,2359306,0,1104,0,0,0,0,0,0,375.25925,375.25925,3762.3042,7480.2896,9.158709,0.13036765,2.451424e-08,3.2559628,-2.1328824,-8.541791,-0.118689716,-0.046464756,-0.07499048,63.326824,3965.379,510.03204,1.0667194,0.05726275,0.01927704,25.2172,25.2172
190649874,2359306,2359306,0,1439,0,0,0,0,0,0,375.26074,375.26074,3762.2468,7480.2803,8.407869,0.14045066,5.1715054e-09,3.1384315,-1.1366067,-8.890985,0.008839246,-0.029730767,-0.024067732,80.14908,4384.1367,567.5192,1.0516721,0.06872793,0.020014295,25.24087,25.24087
191625570,2359306,2359306,0,1848,0,0,0,0,0,0,375.25827,375.25827,3762.4893,7480.504,8.71666,0.13292426,1.3380532e-08,3.1248057,-1.1728579,-9.381178,0.035078317,-0.011667879,-0.012117186,83.459076,4482.2075,589.04596,1.0507246,0.07275808,0.019114275,25.23304,25.23304
192643088,2359306,2359306,0,1848,0,0,0,0,0,0,375.25977,375.25977,3762.3193,7480.2266,8.3852215,0.12300817,1.9585132e-08,2.543523,1.2202271,-9.763993,-0.23560467,0.17696676,0.021403983,89.43775,2544.6384,358.0685,1.0754833,0.06841438,0.01926367,25.073439,25.073439
193656249,2359306,2359306,0,1848,0,0,0,0,0,0,375.25946,375.25946,3762.4675,7480.423,3.89142,0.07050553,4.0886e-09,0.9721853,-0.99442387,-11.218194,-0.12403027,-0.028358847,0.07378643,1.2801036,134.52176,54.97366,0.029935496,0.03859792,9.844895e-05,24.929682,24.929682
194572224,2359306,2359306,0,1848,0,0,0,0,0,0,375.26154,375.26154,3762.2485,7480.311,2.380807,0.05778741,2.420444e-08,1.4097522,-0.9412142,-12.113674,0.2637088,0.42760682,0.40165868,1.2038083,109.20463,56.121,0.040439308,0.04082552,0.00016578178,25.073437,25.073437
195591277,2359306,2359306,0,1848,0,0,0,0,0,0,375.26273,375.26273,3762.2485,7480.2617,2.2076252,0.057379767,2.8303683e-08,1.5602758,-0.38809636,-9.7706995,0.33080748,0.3773142,0.42234495,1.071036,72.98553,33.84907,0.026203718,0.035713375,0.0011808751,24.929682,24.929682
196602760,2359306,2359306,0,1848,0,0,0,0,0,0,375.26227,375.26227,3762.1917,7480.211,2.3758917,0.06295477,2.5659848e-08,1.8145028,-1.3845677,-9.474515,0.34937567,0.11883663,0.51074195,0.97621703,70.0428,26.250721,0.021052962,0.035411682,0.00021357,24.977598,24.977598
197615637,2359306,2359306,0,1848,0,0,0,0,0,0,375.2598,375.2598,3762.087,7480.133,2.216638,0.046755575,2.1669113e-08,2.2211297,-1.178135,-11.537591,-0.12283731,0.4833694,0.4601678,1.0835345,82.76199,39.596386,0.03161411,0.033554822,0.00017870037,24.929682,24.929682
198639438,2359306,2359306,0,1848,0,0,0,0,0,0,375.2602,375.2602,3762.2507,7480.252,2.1875257,0.043926917,1.1309994e-08,1.3648051,-0.69515425,-10.055787,-0.27064055,0.03267641,0.21866049,0.87502146,72.91078,25.784334,0.026229726,0.029777104,0.00034434607,24.977598,24.977598
199651414,2359306,2359306,0,1848,0,0,0,0,0,0,375.26382,375.26382,3762.2878,7480.108,2.70834,0.052348174,1.5899479e-08,1.8580989,-0.9982157,-12.084116,-0.40634578,0.14909552,-0.08580882,12.071981,381.13403,259.94125,0.06792303,0.1516533,0.0006458181,24.88176,24.88176
200563120,2359306,2359306,0,1848,0,0,0,0,0,0,375.26224,375.26224,3762.2952,7480.1787,3.079792,0.056191534,9.200641e-09,1.5224917,-0.99318653,-10.054604,-0.014748307,0.12587538,-0.17220366,12.103548,329.46936,279.29675,0.07962142,0.13659775,0.00025828363,24.785894,24.785894
201576000,2359306,2359306,0,1848,0,0,0,0,0,0,375.26373,375.26373,3762.323,7480.038,2.4195356,0.04472429,5.805633e-09,1.3334122,-0.8815535,-9.005349,-0.072173506,-0.031038815,-0.12270007,1.7452537,219.07085,78.382866,0.03679492,0.05640869,7.3743984e-05,24.690062,24.690062
202587952,2359306,2359306,0,1848,0,0,0,0,0,0,375.2635,375.2635,3762.3171,7480.0234,2.1540558,0.04780303,1.2664805e-08,1.3375342,-1.0768971,-11.785848,0.31464174,-0.0022349972,-0.15827817,1.5165166,144.73804,68.375534,0.046802893,0.050281603,6.739413e-05,24.785894,24.785894
203611194,2359306,2359306,0,1848,0,0,0,0,0,0,375.26382,375.26382,3762.2947,7479.98,2.0869794,0.044156935,4.5238465e-08,1.1130072,-2.0431697,-8.448767,1.4198196,0.1294884,0.109976165,1.5708491,145.5901,70.75325,0.038093477,0.046315715,0.0012645696,24.690062,24.690062
204624237,2359306,2359306,0,1848,0,0,0,0,0,0,375.2636,375.2636,3762.3755,7480.131,3.408214,0.06733858,2.8028289e-08,2.0293705,-0.6399934,-16.068102,-0.18514049,0.57482344,0.16968124,42.963604,543.0346,525.6774,0.1491417,0.30356812,0.00078978424,24.54628,24.54628
205641705,2359306,2359306,0,1848,0,0,0,0,0,0,375.26443,375.26443,3762.231,7480.0005,2.3803685,0.054108642,1.9290042e-08,1.054173,-0.98170906,-10.785385,-0.5116028,0.09363483,0.22714467,1.1136175,102.41518,35.67897,0.038987678,0.03301081,0.00031432864,24.690062,24.690062
206558286,2359306,2359306,0,1848,0,0,0,0,0,0,375.26572,375.26572,3762.3198,7480.019,2.0606925,0.061209496,1.8447587e-08,0.63170487,-0.6923306,-8.969478,-0.059696313,0.35637662,0.26700088,0.35941064,46.82798,17.052197,0.019743195,0.024948021,0.0003902301,24.54628,24.54628
208584236,2359306,2359306,0,1848,0,0,0,0,0,0,375.26385,375.26385,3762.2896,7480.01,1.9827094,0.045614094,8.863213e-09,1.0857201,-0.4206216,-10.469421,-0.3356241,-0.044756837,0.053737085,1.2691866,122.68591,46.309223,0.040319573,0.045486603,4.6731377e-05,24.402525,24.402525
209596061,2359306,2359306,0,1848,0,0,0,0,0,0,375.26645,375.26645,3762.3008,7480.0703,2.0812192,0.060146194,1.5728967e-08,1.1319201,-1.6922477,-13.509213,-0.6001131,0.0045218267,0.021219382,1.5661564,175.36885,70.45227,0.043376323,0.06067848,0.0009369925,24.354609,24.354609
210608985,2359306,2359306,0,1848,0,0,0,0,0,0,375.2662,375.2662,3762.3198,7480.0884,1.9284929,0.08192312,1.0980625e-08,0.2732735,-0.5017487,-9.61357,-0.094183914,0.11324006,0.0042939424,0.58409595,69.60716,33.330315,0.058969676,0.028359465,0.0004971602,24.450441,24.450441
211626966,2359306,2359306,0,1848,0,0,0,0,0,0,375.26697,375.26697,3762.3242,7480.076,1.9120036,0.07359088,1.3129923e-08,0.22247213,-1.4883119,-11.756291,-0.37872565,0.29358965,-0.08847483,0.26814592,50.541706,18.50346,0.022041121,0.025315266,0.0009839326,24.354609,24.354609
212639483,2359306,2359306,0,1848,0,0,0,0,0,0,375.2668,375.2668,3762.3345,7480.173,1.759729,0.06250139,1.2344344e-08,0.6741566,-0.86062276,-9.972578,-0.41527057,0.07145647,-0.08614485,0.6491724,78.35763,29.252378,0.019436847,0.027065083,0.0003209605,24.402525,24.402525
213557039,2359306,2359306,0,1848,0,0,0,0,0,0,375.26663,375.26663,3762.3337,7480.1147,1.9314108,0.046655226,6.1608105e-09,1.5067626,-1.0264496,-10.788002,0.025152627,-0.12045171,-0.036910888,1.6129603,203.98557,81.60386,0.06913938,0.064547755,0.00013194441,24.402525,24.402525
214569544,2359306,2359306,0,1848,0,0,0,0,0,0,375.2677,375.2677,3762.2878,7480.136,3.0092652,0.06522002,1.36105625e-08,1.6788863,-0.26367804,-12.508467,-0.27342376,-0.03376359,-0.08770328,26.79705,383.7538,464.59164,0.110196434,0.1723288,0.00043774262,24.402525,24.402525
215580902,2359306,2359306,0,1848,0,0,0,0,0,0,375.26755,375.26755,3762.29,7480.132,3.562752,0.07199594,8.799542e-09,1.1461109,0.53866696,-13.004967,-0.10668325,0.0032115092,0.012708875,48.676674,703.754,599.4707,0.138592,0.2497432,0.00054994563,24.354609,24.354609
216604147,2359306,2359306,0,1848,0,0,0,0,0,0,375.26782,375.26782,3762.2798,7480.113,3.3163462,0.08447317,1.7169471e-08,1.1901908,-0.9538075,-9.668966,-0.30792716,0.119124286,-0.044383984,16.01068,340.89343,287.22507,0.1594387,0.15664092,0.0006605949,23.923283,23.923283
217622744,2359306,2359306,0,1848,0,0,0,0,0,0,375.26736,375.26736,3762.3022,7480.199,2.4204235,0.053345017,7.4625e-09,0.8451983,-1.0365934,-10.572391,-0.22466691,0.10866822,0.0197851,2.2959414,211.44226,105.48933,0.053139433,0.0638937,0.00011867831,24.162905,24.162905
218635759,2359306,2359306,0,1848,0,0,0,0,0,0,375.26834,375.26834,3762.2498,7480.1035,3.274038,0.072200544,5.453095e-08,2.4337199,-1.5333799,-10.977553,0.75987285,0.41219375,0.4781583,59.323433,560.9957,722.0084,0.16311222,0.22642706,0.00073841575,24.067072,24.067072
219647398,2359306,2359306,0,1848,0,0,0,0,0,0,375.26828,375.26828,3762.2798,7480.1113,3.5938,0.08681313,2.5737888e-08,2.4955401,-1.3526032,-12.448782,-0.37580043,0.2907002,0.29797184,39.78834,491.77054,536.5928,0.117025994,0.23430571,0.0012747984,24.067072,24.067072
220569216,2359306,2359306,0,1848,0,0,0,0,0,0,375.26883,375.26883,3762.267,7480.065,2.7520936,0.06476148,1.8892706e-08,1.8192931,-1.1115012,-9.591266,-0.11049133,0.17389347,0.39464343,5.019683,248.95671,166.00049,0.093266994,0.085771054,0.00034831613,24.162905,24.162905
221582031,2359306,2359306,0,1848,0,0,0,0,0,0,375.26773,375.26773,3762.2935,7480.048,2.6715965,0.07537705,2.6356291e-08,1.3416213,-1.7151276,-8.521574,-0.7108928,0.17342232,0.41784853,9.89045,254.95348,196.63068,0.090148486,0.11270477,0.00026705358,24.01915,24.01915
222599700,2359306,2359306,0,1848,0,0,0,0,0,0,375.26935,375.26935,3762.2827,7480.076,2.595255,0.061024647,1.7299655e-08,1.6165668,-0.58851075,-9.02158,-0.23652223,0.11005775,0.2392592,37.71597,446.15198,477.45026,0.10813015,0.21512271,0.00034921858,23.875368,23.875368
223617683,2359306,2359306,0,1848,0,0,0,0,0,0,375.26993,375.26993,3762.2766,7480.095,3.8163397,0.07434995,2.2722206e-08,1.978443,-0.9515045,-11.621227,-0.5422866,0.023287216,-0.020477299,55.89933,719.45654,680.0622,0.25880167,0.17788553,0.001120579,23.923285,23.923285
224636282,2359306,2359306,0,1848,0,0,0,0,0,0,375.2686,375.2686,3762.318,7480.117,3.9888341,0.09266564,1.2610862e-08,1.3204876,-0.47735983,-9.659368,0.0468398,-0.2544161,-0.0596313,31.516268,527.6933,495.12793,0.14859627,0.16218086,0.0006031051,23.875368,23.875368
225648121,2359306,2359306,0,1848,0,0,0,0,0,0,375.27045,375.27045,3762.2546,7480.068,2.7653658,0.06710368,3.0084664e-08,0.9834016,-1.6943359,-9.9850235,0.9180278,0.26984385,0.28077903,3.99166,209.55441,132.46764,0.06936152,0.07493655,0.0008101226,23.635748,23.635748
226560021,2359306,2359306,0,1848,0,0,0,0,0,0,375.2697,375.2697,3762.2424,7480.1533,3.2364144,0.083334655,3.0028687e-08,1.4775956,-0.3619635,-17.408733,0.24197398,0.41261917,0.31780082,22.605364,488.69513,397.79538,0.17012097,0.21326213,0.00046381642,23.827452,23.827452
227572964,2359306,2359306,0,1848,0,0,0,0,0,0,375.2706,375.2706,3762.2253,7480.0884,2.4928133,0.07017016,2.0173594e-08,1.5251845,-0.9857692,-13.4383135,-0.11272041,0.3492926,0.32433572,1.6559118,156.16492,69.64008,0.09238192,0.05384731,0.0002348208,23.635748,23.635748
228584674,2359306,2359306,0,1848,0,0,0,0,0,0,375.27054,375.27054,3762.268,7480.1094,2.0788836,0.049590047,1.4482294e-08,1.5588405,-0.6438547,-10.509392,-0.41650164,0.28435868,0.26886708,1.5170474,126.65224,58.322147,0.028413678,0.04158787,0.00011939771,23.68367,23.68367
229607897,2359306,2359306,0,1848,0,0,0,0,0,0,375.27075,375.27075,3762.2878,7480.0957,2.1620932,0.050651617,9.716665e-09,1.3967178,-1.7593383,-8.015359,-0.11125305,-0.094323196,0.20284505,3.4832513,174.1543,96.73197,0.04439355,0.063258946,8.9880974e-05,23.731613,23.731613
230620981,2359306,2359306,0,1848,0,0,0,0,0,0,375.27075,375.27075,3762.3198,7480.1753,2.2787323,0.04918188,1.4722011e-08,1.3014604,-0.8512784,-9.179875,-0.4835965,-0.024397722,0.093960464,2.3884196,195.25229,105.8881,0.053027324,0.060163707,0.00020618891,23.635748,23.635748
231632865,2359306,2359306,0,1848,0,0,0,0,0,0,375.27155,375.27155,3762.2817,7480.0737,2.0131698,0.045391582,3.4765484e-09,0.40109453,-0.52944547,-8.139575,0.08676153,0.038828287,-0.0018642652,1.0396247,104.43638,44.725964,0.02338455,0.042406805,0.00016112653,23.827452,23.827452
232645628,2359306,2359306,0,1848,0,0,0,0,0,0,375.27155,375.27155,3762.3267,7480.077,1.8472917,0.056966417,1.1123513e-08,0.34071448,-1.4692554,-9.3376,-0.3635755,-0.12981802,-0.014341545,1.009821,103.0667,36.428226,0.028185548,0.031572483,0.0010832427,23.635748,23.635748
233556902,2359306,2359306,0,1848,0,0,0,0,0,0,375.2717,375.2717,3762.3271,7480.0522,1.8383036,0.056367684,5.115077e-09,0.6827722,-0.3169627,-6.010349,0.13063121,-0.078112185,-0.057590786,1.0724365,134.61621,49.31024,0.028242255,0.048412528,0.0001912358,23.635748,23.635748
234569432,2359306,2359306,0,1848,0,0,0,0,0,0,375.27255,375.27255,3762.3682,7480.0713,2.1490142,0.047525436,4.9255857e-09,1.29317,-1.0485958,-10.94909,0.08907605,0.11612442,-0.020878542,4.51248,251.80112,174.56885,0.059463024,0.09088112,0.00020884315,23.635748,23.635748
235581886,2359306,2359306,0,1848,0,0,0,0,0,0,375.27243,375.27243,3762.4106,7480.068,3.09516,0.060611177,9.070549e-09,1.5093633,-0.13016224,-10.85543,0.19713587,0.057908215,0.09223905,31.11318,381.92627,496.48914,0.115092,0.17476925,0.00043773762,23.68367,23.68367
236599831,2359306,2359306,0,1848,0,0,0,0,0,0,375.27298,375.27298,3762.3738,7480.082,4.354326,0.0742588,9.204237e-09,1.9744337,-1.1373222,-10.248573,0.054018933,0.16353703,0.027019193,62.767025,871.79596,656.38464,0.26238787,0.1997204,0.0012414593,23.635748,23.635748
237615269,2359306,2359306,0,1848,0,0,0,0,0,0,375.27298,375.27298,3762.367,7480.0786,4.6637063,0.076184995,7.888887e-09,1.6753776,-0.9766414,-10.112111,0.054754786,-0.10341955,-0.01453557,59.052544,917.2518,651.0563,0.22520755,0.19527565,0.0011109075,23.491991,23.491991
238635922,2359306,2359306,0,1848,0,0,0,0,0,0,375.27322,375.27322,3762.3816,7480.117,3.7797182,0.07016332,9.785563e-09,1.5149988,-2.1011605,-10.104912,-0.23480703,0.08404515,0.0046665682,28.746029,408.17734,448.1394,0.12973198,0.17390506,0.00034682846,23.204453,23.204453
239648224,2359306,2359306,0,1848,0,0,0,0,0,0,375.2732,375.2732,3762.3428,7480.0786,3.269353,0.059070878,9.089208e-09,1.1170276,-0.23345278,-9.833,-0.25735828,-0.0010445137,-0.020737283,20.3862,384.75592,360.73456,0.07900408,0.16236211,0.00026278375,23.156538,23.156538
240565532,2359306,2359306,0,1848,0,0,0,0,0,0,375.27393,375.27393,3762.354,7480.094,3.0357106,0.071168035,1.7257301e-08,1.3025674,-0.5053021,-13.573709,-0.13871928,-0.16620927,-0.007565123,3.4988682,259.89764,152.97235,0.10468415,0.1082944,0.0006951226,23.204453,23.204453
241582781,2359306,2359306,0,1848,0,0,0,0,0,0,375.27362,375.27362,3762.3376,7480.1055,2.1502173,0.06393593,1.3994628e-08,0.6013507,0.017964572,-8.225857,0.4234164,0.03029847,-0.060862873,0.569069,86.17586,33.79576,0.028315395,0.045479093,0.0012107154,23.156538,23.156538
242605947,2359306,2359306,0,1848,0,0,0,0,0,0,375.2739,375.2739,3762.3323,7480.1147,2.316668,0.08107062,3.2930068e-08,1.6469036,-0.22877058,-5.156599,0.31484592,-0.19014192,-0.4041634,11.144311,249.22423,238.87712,0.18263881,0.135514,0.00026711638,23.396133,23.396133
243618970,2359306,2359306,0,1848,0,0,0,0,0,0,375.2739,375.2739,3762.3584,7480.15,2.958288,0.08621688,2.4060828e-08,1.5625736,-1.1063212,-7.6133327,0.6219617,-0.11658442,-0.094964705,20.796766,349.79306,324.69888,0.15167151,0.16469139,0.00080478354,23.300295,23.300295
244631920,2359306,2359306,0,1848,0,0,0,0,0,0,375.27457,375.27457,3762.2966,7480.106,3.4415877,0.07708441,1.2090933e-08,1.971047,-1.0981817,-12.525891,0.28828198,0.17367764,0.10273142,54.321064,714.57874,619.76306,0.14415434,0.27932197,0.000541103,23.204453,23.204453
245643609,2359306,2359306,0,1848,0,0,0,0,0,0,375.27457,375.27457,3762.262,7480.0957,2.754911,0.05566541,1.1860242e-08,-0.4379426,-0.6369292,-9.340314,-0.054066405,0.07427188,0.22306001,0.3627425,37.968082,10.885899,0.021915665,0.014224947,0.00017173069,23.204453,23.204453
246565426,2359306,2359306,0,1848,0,0,0,0,0,0,375.275,375.275,3762.2703,7480.1147,2.7566197,0.04915909,1.4406354e-08,-0.535384,-0.3446627,-9.040704,-0.01859612,0.20640825,0.1793832,0.5944916,23.452385,24.129374,0.008379277,0.016059523,0.0004157081,23.017801,23.017801
247583808,2359306,2359306,0,1848,0,0,0,0,0,0,375.2754,375.2754,3762.303,7480.141,2.7972734,0.051414043,1.0503487e-08,-0.17832011,-0.31996134,-8.481817,-0.03527792,-0.32308692,0.042833883,0.9819692,27.814425,26.011772,0.0090723485,0.013894746,0.0008259185,23.300295,23.300295
248595843,2359306,2359306,0,1848,0,0,0,0,0,0,375.2754,375.2754,3762.246,7480.1704,2.4361398,0.052607063,7.23518e-09,0.14875981,-0.5931027,-6.9649396,0.031148534,0.14781466,-0.012261412,0.16093212,28.180359,17.834469,0.014137638,0.01649997,0.00036671283,23.348211,23.348211
249613801,2359306,2359306,0,1848,0,0,0,0,0,0,375.27582,375.27582,3762.244,7480.172,2.0023534,0.046244446,6.7248456e-09,0.72756016,-0.3948747,-10.567685,-0.17937148,0.055796918,-0.07428836,0.23161057,43.133984,13.056184,0.011453037,0.01756352,0.00024388861,23.156538,23.156538
250632425,2359306,2359306,0,1848,0,0,0,0,0,0,375.2749,375.2749,3762.2512,7480.206,1.6937047,0.048341572,7.716435e-09,0.85597473,-1.0823487,-11.940941,-0.15551749,0.20144472,-0.06374043,0.43401167,49.46847,18.594076,0.02762212,0.020391643,0.0004536042,23.396133,23.396133
251644220,2359306,2359306,0,1848,0,0,0,0,0,0,375.27615,375.27615,3762.235,7480.1924,1.6528485,0.041306864,8.866248e-09,0.6227078,-0.52178484,-11.066372,-0.21872939,0.0369262,-0.13980585,0.28202417,46.723583,15.131917,0.017259303,0.021068692,0.0001425999,23.156538,23.156538
252560887,2359306,2359306,0,1848,0,0,0,0,0,0,375.27612,375.27612,3762.198,7480.1865,1.7055261,0.0379155,8.044311e-09,0.23364565,-0.6758572,-10.831039,0.04169747,0.122896075,-0.17811437,0.26412034,42.401653,9.978186,0.008566766,0.013248344,0.00015101471,23.156538,23.156538
253573482,2359306,2359306,0,1848,0,0,0,0,0,0,375.2761,375.2761,3762.1648,7480.19,2.1969075,0.046513196,1.6792715e-08,0.20736574,-0.70922846,-11.281965,-0.0819844,-0.12951799,-0.21233533,0.48048154,33.23867,16.478933,0.06201119,0.0137768295,0.00036753985,23.333076,23.333076
254586528,2359306,2359306,0,1848,0,0,0,0,0,0,375.27606,375.27606,3762.2046,7480.2324,1.9956728,0.04295648,1.1861342e-08,0.4596918,-0.78475624,-10.126418,-0.13095944,0.2295565,-0.22165701,0.16678245,34.37572,14.67475,0.008118126,0.015398736,0.00020225752,23.300295,23.300295
255603911,2359306,2359306,0,1848,0,0,0,0,0,0,375.27643,375.27643,3762.2422,7480.1904,3.434321,0.06866949,2.9333725e-08,4.024122,-2.1076326,-12.696031,0.41407958,0.28252563,-0.24961618,46.152798,999.9752,155.26541,0.8905739,0.18358387,0.012210148,23.012758,23.012758
256616928,2359306,2359306,0,1848,0,0,0,0,0,0,375.2764,375.2764,3762.2542,7480.231,5.4487567,0.08096874,1.14069385e-08,1.6932187,-1.7087284,-11.266425,0.32770994,0.065921806,-0.17998248,46.980537,740.2952,491.5259,0.18686412,0.25566307,0.0006058385,23.156538,23.156538
257628839,2359306,2359306,0,1848,0,0,0,0,0,0,375.27695,375.27695,3762.2441,7480.2144,2.4699256,0.04626377,9.340571e-09,0.4585373,-0.72450596,-9.538893,-0.11355561,0.07331559,-0.24962783,0.7976963,83.8639,30.29549,0.02146615,0.027906673,0.00016769877,23.156538,23.156538
258641566,2359306,2359306,0,1848,0,0,0,0,0,0,375.27695,375.27695,3762.243,7480.2,1.8620273,0.044157717,1.731439e-08,0.8322229,-0.8264211,-9.2425,0.38278532,0.041898966,-0.213427,0.79017025,80.7619,32.948486,0.082089685,0.037741195,0.00027966933,23.156538,23.156538
259654109,2359306,2359306,0,1848,0,0,0,0,0,0,375.2775,375.2775,3762.2722,7480.1924,2.1605546,0.053609364,1.6693052e-08,1.7611074,-0.36888,-11.52505,0.028894221,0.2322409,-0.3168259,8.662601,282.58997,225.01625,0.07104776,0.12127992,0.00040028043,22.964842,22.964842
260565354,2359306,2359306,0,1848,0,0,0,0,0,0,375.27762,375.27762,3762.245,7480.2017,2.754948,0.060312357,1.3043959e-08,1.7152644,-0.9797098,-11.77375,-0.10651422,0.24550514,-0.23738427,4.577131,260.70636,171.20535,0.09734346,0.09589971,0.00024728247,22.998886,22.998886
261588523,2359306,2359306,0,1848,0,0,0,0,0,0,375.2778,375.2778,3762.2761,7480.204,2.139443,0.050584823,1.2348882e-08,1.1987989,-1.1994171,-11.808795,0.061603848,0.19442675,-0.25722983,1.3561417,146.48398,64.24112,0.034851674,0.047954597,6.84943e-05,23.189322,23.189322
262601338,2359306,2359306,0,1848,0,0,0,0,0,0,375.2778,375.2778,3762.2832,7480.2417,1.7905911,0.046268363,1.0223987e-08,0.68398064,-0.9441677,-12.399979,-0.2050988,0.118796416,-0.22826323,0.7822226,80.03044,31.25653,0.017923037,0.03153867,0.00016025483,23.156538,23.156538
263613716,2359306,2359306,0,1848,0,0,0,0,0,0,375.2778,375.2778,3762.265,7480.2334,1.7510692,0.04451535,1.4478229e-08,0.3341839,-0.75740427,-9.022269,0.3197721,0.1168538,-0.14196765,0.72517896,83.88232,33.10344,0.018011177,0.029833285,5.352746e-05,22.869001,22.869001
264626194,2359306,2359306,0,1848,0,0,0,0,0,0,375.2783,375.2783,3762.2686,7480.2393,1.7469071,0.056733076,1.2725937e-08,-0.17875808,-0.65312207,-11.779491,-0.14946985,-0.04661263,-0.13481963,0.41483998,30.905382,17.866077,0.018518195,0.037356496,0.00018894058,23.156538,23.156538
265638580,2359306,2359306,0,1848,0,0,0,0,0,0,375.2783,375.2783,3762.3047,7480.2246,2.6026816,0.07317937,8.9862e-09,-0.94681615,-0.76848334,-8.277116,0.104857355,0.08048086,-0.043511417,0.35709637,12.619753,14.077732,0.01892949,0.021189189,0.00045219503,23.012758,23.012758
266651393,2359306,2359306,0,1848,0,0,0,0,0,0,375.2783,375.2783,3762.289,7480.235,2.692043,0.057278913,7.162423e-09,0.16260329,-0.8307257,-9.258852,0.14024073,-0.17019483,-0.037585646,0.9055394,25.946823,29.338627,0.0065202815,0.014831772,0.00019933748,22.869001,22.869001
267562601,2359306,2359306,0,1848,0,0,0,0,0,0,375.2784,375.2784,3762.3303,7480.237,2.7047791,0.052315574,8.4395975e-09,0.8191786,-0.51000106,-11.195182,-0.1642411,0.14581205,-0.09517013,0.32178062,29.49219,17.555262,0.01948726,0.013734805,0.00021996611,22.869001,22.869001
268575097,2359306,2359306,0,1848,0,0,0,0,0,0,375.27893,375.27893,3762.326,7480.2505,2.879159,0.048357073,1.1657961e-08,0.5911229,-0.45672393,-9.069882,0.26943308,-0.111714825,0.042601705,1.0818133,26.282063,20.108212,0.0077234064,0.013651949,0.00022775882,22.836195,22.836195
269587620,2359306,2359306,0,1848,0,0,0,0,0,0,375.2789,375.2789,3762.3203,7480.228,2.713166,0.061617978,2.1093541e-08,0.0055284183,-0.3579243,-9.226586,0.25601593,0.20810911,0.07030286,0.4874858,14.901593,20.73967,0.0213956,0.010145097,0.00073988433,22.858912,22.858912
270600267,2359306,2359306,0,1848,0,0,0,0,0,0,375.27887,375.27887,3762.3306,7480.238,2.9666176,0.07841625,2.2873753e-08,-0.29371127,-0.84108794,-10.566131,-0.27357826,-0.13825531,0.08188699,0.39915672,14.826854,15.867783,0.092709005,0.010784588,0.0013570824,22.869001,22.869001
271617927,2359306,2359306,0,1848,0,0,0,0,0,0,375.27917,375.27917,3762.3528,7480.2383,2.790108,0.07523327,6.6651142e-09,0.15346402,-0.45378295,-11.389996,-0.12196628,0.049315415,-0.0014229454,0.21268657,8.029299,6.8916683,0.009566744,0.016163915,0.00021014403,22.82106,22.82106
272630663,2359306,2359306,0,1848,0,0,0,0,0,0,375.27914,375.27914,3762.3623,7480.237,2.96735,0.081051454,6.474654e-09,0.4179368,-0.50306106,-9.537313,-0.11090033,0.17007941,-0.04862727,0.4272069,10.408903,11.843906,0.008877182,0.00580848,0.0002656167,22.964842,22.964842
273643462,2359306,2359306,0,1848,0,0,0,0,0,0,375.2791,375.2791,3762.3535,7480.2812,2.803958,0.07135379,1.1860171e-08,1.0860987,-0.5083633,-10.53931,0.16905293,0.13369663,0.04932534,0.7192069,16.33458,16.211216,0.004320607,0.012543546,0.0002671684,22.964842,22.964842
274554433,2359306,2359306,0,1848,0,0,0,0,0,0,375.2797,375.2797,3762.3643,7480.262,2.9525692,0.06811181,1.4976804e-08,1.6641326,-0.7627845,-8.247218,0.22911727,-0.033951633,0.01753997,0.9085272,17.494053,29.065985,0.010647626,0.026663778,0.00032809694,22.982494,22.982494
275567107,2359306,2359306,0,1848,0,0,0,0,0,0,375.27966,375.27966,3762.3704,7480.262,2.953027,0.0684768,1.0633731e-08,1.1667498,-0.9876641,-11.954199,-0.09522853,0.2947541,0.074977055,0.66692936,16.302103,23.336624,0.017912429,0.029767266,0.00021226598,22.99006,22.99006
276579582,2359306,2359306,0,1848,0,0,0,0,0,0,375.27963,375.27963,3762.3848,7480.265,2.9271724,0.07116104,9.372299e-09,0.8574818,-0.56688607,-8.352776,-0.09134645,-0.099613234,-0.027299719,0.7672312,16.671247,18.116825,0.010253997,0.013529829,0.0002506895,22.99258,22.99258
277592609,2359306,2359306,0,1848,0,0,0,0,0,0,375.2796,375.2796,3762.3997,7480.318,2.7996595,0.07267983,5.2595257e-09,1.0852847,-0.730551,-10.20503,-0.079105526,0.079501264,0.019824222,0.56666094,14.224522,13.634085,0.009220837,0.018189128,0.00033230238,22.914402,22.914402
278604591,2359306,2359306,0,1848,0,0,0,0,0,0,375.28,375.28,3762.3748,7480.293,2.788008,0.0683065,1.3374533e-08,1.3974986,-0.52290124,-6.6395535,0.16575919,0.0072803996,-0.03998982,0.59161234,17.656384,27.112572,0.008166111,0.04302886,0.0003465492,22.869001,22.869001
279617271,2359306,2359306,0,1848,0,0,0,0,0,0,375.27997,375.27997,3762.3674,7480.3027,2.9656281,0.06497385,1.1052909e-08,1.7689801,-0.730708,-8.963921,0.14869426,-0.2162775,0.046541322,1.5738853,21.33016,48.327908,0.0147249065,0.013147996,0.00021585468,23.12627,23.12627
280629724,2359306,2359306,0,1848,0,0,0,0,0,0,375.2804,375.2804,3762.348,7480.304,2.776687,0.06334719,9.981157e-09,1.3770722,-0.5135755,-9.832035,-0.21466954,0.069918595,-0.011403989,0.7677017,18.7318,23.321754,0.017157162,0.015180401,0.00035915256,22.964842,22.964842
281647649,2359306,2359306,0,1848,0,0,0,0,0,0,375.2802,375.2802,3762.368,7480.3027,2.7768276,0.071126714,1.2030842e-08,1.2990901,-0.2237406,-9.935326,0.09084228,-0.3055343,0.020583047,1.5479919,18.855835,39.32461,0.013292171,0.014677837,0.001288494,22.964842,22.964842
282564170,2359306,2359306,0,1848,0,0,0,0,0,0,375.28058,375.28058,3762.363,7480.304,2.7351809,0.07750507,1.803665e-08,1.2795509,-0.8123364,-7.6411934,0.24007742,0.02235634,-0.078198925,0.9827098,17.97392,26.237284,0.00874538,0.048342086,0.00032589713,22.964842,22.964842
283576901,2359306,2359306,0,1848,0,0,0,0,0,0,375.28055,375.28055,3762.3665,7480.3223,2.8757284,0.07639949,1.5384352e-08,1.505706,-0.6540824,-7.7950873,0.030754842,-0.48164803,-0.06274531,1.7186894,26.138243,40.132046,0.0064145895,0.031627756,0.0008906187,22.985016,22.985016
284589350,2359306,2359306,0,1848,0,0,0,0,0,0,375.28052,375.28052,3762.3545,7480.3267,2.7368736,0.07431557,1.0607038e-08,1.8270622,-0.6387352,-10.1305685,-0.06862562,-0.28364012,0.011991244,1.4543281,26.922037,33.024525,0.007467618,0.030430077,0.00066905125,23.113653,23.113653
285601827,2359306,2359306,0,1848,0,0,0,0,0,0,375.2809,375.2809,3762.3462,7480.3325,3.1463413,0.07520791,2.758546e-08,2.1394644,-1.2566581,-10.774615,0.17979862,0.6801779,0.12589128,0.5670779,24.136644,33.95043,0.006851148,0.027144345,0.0007432205,22.99259,22.99259
286614541,2359306,2359306,0,1848,0,0,0,0,0,0,375.28085,375.28085,3762.3315,7480.3257,3.0839968,0.0682525,1.1092798e-08,1.596264,-0.547253,-7.561258,0.08457602,-0.3280589,0.029782442,1.9847052,28.824518,40.198475,0.006264977,0.03689245,0.00056579674,23.04554,23.04554
287626992,2359306,2359306,0,1848,0,0,0,0,0,0,375.28082,375.28082,3762.3286,7480.3223,2.9013221,0.07433069,1.7050576e-08,1.2554325,-0.977458,-8.964964,0.0784884,0.30046758,0.05421079,0.4785279,14.281472,19.06504,0.02796027,0.010327287,0.0015881086,22.906836,22.906836
288639500,2359306,2359306,0,1848,0,0,0,0,0,0,375.2808,375.2808,3762.3057,7480.34,2.8974996,0.08427527,2.8615467e-08,1.6270082,-0.46446323,-14.016337,-0.30520442,-0.054296527,0.022511497,1.133883,18.92799,38.990204,0.047641587,0.12405022,0.002180925,23.005192,23.005192
289556632,2359306,2359306,0,1848,0,0,0,0,0,0,375.2812,375.2812,3762.3115,7480.3647,3.0506592,0.0959254,5.707646e-08,0.87854797,-1.1969991,-5.623494,-0.8424886,-0.3753079,0.048679803,1.6636938,25.126814,38.78762,0.031264093,0.053692628,0.00237891,23.007715,23.007715
290573935,2359306,2359306,0,1848,0,0,0,0,0,0,375.2814,375.2814,3762.2947,7480.343,3.1903143,0.108095236,2.7733053e-08,0.94267476,-0.49183622,-6.8022304,0.20573859,-0.5087934,-0.030973246,1.9152089,26.131855,37.420883,0.026420701,0.06444878,0.00039504928,22.927,22.927
291591959,2359306,2359306,0,1848,0,0,0,0,0,0,375.28082,375.28082,3762.276,7480.3325,3.2743487,0.10668105,3.178496e-08,1.027211,-0.45786044,-13.449077,-0.21396758,0.08842844,-0.069426276,0.3922155,16.012804,14.07514,0.081322014,0.104708835,0.0018169059,22.84126,22.84126
292599101,2359306,2359306,18,1866,26,0,16,14,0,0,375.28134,375.28134,3762.2874,7480.3394,5.9363637,0.27868047,1.3755e-06,-14.128316,4.0819473,-17.702246,0.1912495,0.10008145,-0.14515752,1274.18,989.0964,2043.2845,6.4654636,0.95767325,0.15675667,22.916916,22.916916
293580795,2359306,2359306,18,1866,33,0,16,14,0,0,375.2813,375.2813,3762.317,7480.374,11.273047,0.46718225,5.7797358e-08,-4.489408,-0.027270837,-9.235071,-0.29379693,-0.1143035,0.022661056,4.2128744,2.4036083,74.55864,0.044057507,0.41822585,0.0034856903,22.914392,22.914392
294592050,2359306,2359306,18,1866,33,0,16,14,0,0,375.28168,375.28168,3762.2856,7480.3477,3.4789429,0.15911862,3.011739e-10,0.38053522,0.20937255,-9.537349,-0.08913786,-0.004367829,0.0076104156,0.0025752415,0.014156354,0.04929403,0.001083932,7.329445e-05,1.0837958e-05,22.808464,22.808464
295604767,2359306,2359306,18,1866,33,0,16,14,0,0,375.28165,375.28165,3762.2817,7480.3535,0.69457585,0.04264424,6.407101e-11,0.38688695,0.19046162,-9.562539,0.014375058,-0.008846646,0.009101056,0.00043522313,0.0007868314,0.0135453725,6.480731e-05,4.6052924e-06,1.3442183e-05,22.869001,22.869001
296624410,2359306,2359306,18,1866,33,0,16,14,0,0,375.28186,375.28186,3762.2703,7480.352,0.1903558,0.010351043,3.670363e-11,0.38778207,0.19940886,-9.536842,0.013126486,-0.00857878,0.008114093,0.00046291196,0.00035052458,0.028133115,3.5332003e-05,3.8780236e-06,6.250426e-06,22.869001,22.869001
297640437,2359306,2359306,18,1866,33,0,16,14,0,0,375.2821,375.2821,3762.2646,7480.336,0.14411607,0.008774461,8.351353e-11,0.38292786,0.18765825,-9.506411,0.012014935,-0.009143038,0.008534467,0.0010327703,0.0010160427,0.03412194,0.000114217684,2.407999e-05,2.2957378e-05,22.98249,22.98249
