timestamp,timestamp_sample,time_utc_usec,device_id,lat,lon,alt,alt_ellipsoid,s_variance_m_s,c_variance_rad,eph,epv,hdop,vdop,noise_per_ms,jamming_indicator,vel_m_s,vel_n_m_s,vel_e_m_s,vel_d_m_s,cog_rad,timestamp_time_relative,heading,heading_offset,heading_accuracy,rtcm_injection_rate,automatic_gain_control,fix_type,jamming_state,spoofing_state,vel_ned_valid,satellites_used,selected_rtcm_instance
174235949,0,1743472101124780,10813469,364536380,1274068878,34220,54241,0.209,0.64185965,0.712,0.89800006,0.5,0.71,88,8,0.096,-0.095000006,-0.010000001,-0.07,2.0975053,0,nan,0.0,0.0,0.0,0,3,1,1,1,27,0
174737807,0,1743472101624780,10813469,364536381,1274068878,34246,54266,0.132,0.7524589,0.711,0.89500004,0.5,0.71,88,8,0.036000002,0.035,-0.002,-0.036000002,2.5280986,0,nan,0.0,0.0,0.0,0,3,1,1,1,27,0
175234088,0,1743472102124780,10813469,364536381,1274068879,34296,54316,0.17400001,0.7524737,0.71000004,0.892,0.5,0.71,88,7,0.024,-0.020000001,0.014,-0.056,2.5280986,0,nan,0.0,0.0,0.0,0,3,1,1,1,27,0
175731024,0,1743472102624780,10813469,364536381,1274068878,34310,54331,0.133,0.7524877,0.70900005,0.89000005,0.5,0.71,88,7,0.043,-0.019000001,-0.039,0.001,2.5280986,0,nan,0.0,0.0,0.0,0,3,1,1,1,27,0
176228282,0,1743472103124779,10813469,364536382,1274068879,34336,54357,0.20600002,0.7525015,0.708,0.887,0.52,0.72999996,65,9,0.054,0.053000003,0.006,0.023000002,2.5280986,0,nan,0.0,0.0,0.0,0,3,1,1,1,26,0
176732808,0,1743472103624779,10813469,364536382,1274068879,34365,54385,0.102000006,0.75251436,0.707,0.88500005,0.52,0.72999996,65,9,0.026,0.016,-0.020000001,-0.022000002,2.5280986,0,nan,0.0,0.0,0.0,0,3,1,1,1,26,0
177232835,0,1743472104124779,10813469,364536381,1274068886,34363,54384,0.136,0.67015773,0.70600003,0.882,0.51,0.71999997,57,7,0.17,-0.14400001,-0.091000006,0.098000005,2.9280202,0,nan,0.0,0.0,0.0,0,3,1,1,1,26,0
177730814,0,1743472104624779,10813469,364536382,1274068875,34334,54355,0.172,0.71407473,0.70500004,0.88000005,0.5,0.71,57,7,0.11800001,0.091000006,-0.075,0.079,4.3442435,0,nan,0.0,0.0,0.0,0,3,1,1,1,26,0
178232844,0,1743472105124779,10813469,364536385,1274068860,34435,54455,0.19500001,0.16096821,0.708,0.882,0.5,0.71,81,15,0.34800002,0.208,0.279,-0.163,3.064437,0,nan,0.0,0.0,0.0,0,3,1,1,1,26,0
178730009,0,1743472105624779,10813469,364536391,1274068883,34380,54400,0.22100002,0.48419324,0.711,0.88500005,0.5,0.71,81,15,0.009000001,-0.001,0.009000001,0.128,1.7014978,0,nan,0.0,0.0,0.0,0,3,1,1,1,25,0
179231813,0,1743472106124779,10813469,364536412,1274068762,34838,54858,0.291,0.034165516,0.71400005,0.887,0.51,0.74,87,11,8.292001,2.503,-7.905,-2.463,5.0190315,0,nan,0.0,0.0,0.0,0,3,1,1,1,26,0
179737905,0,1743472106624779,10813469,364536497,1274068260,34875,54895,0.286,0.03440498,0.72300005,0.89400005,0.5,0.71,87,11,10.927,1.567,-10.814,0.56100005,4.856273,0,nan,0.0,0.0,0.0,0,3,1,1,1,26,0
180234811,0,1743472107124779,10813469,364536547,1274067578,34393,54413,0.317,0.03411089,0.73800004,0.90700006,0.5,0.71,87,12,13.742001,0.49500003,-13.734,0.96700007,4.748396,0,nan,0.0,0.0,0.0,0,3,1,1,1,26,0
180731947,0,1743472107624779,10813469,364536516,1274066750,34035,54054,0.30600002,0.02589737,0.75100005,0.91800004,0.48999998,0.7,87,12,15.838,-1.256,-15.788001,0.21100001,4.6329985,0,nan,0.0,0.0,0.0,0,3,1,1,1,27,0
181222832,0,1743472108124779,10813469,364536425,1274065845,34643,54663,0.284,0.023218287,0.76100004,0.92300004,0.5,0.71,87,12,17.107,-3.2430003,-16.797,-2.46,4.5216866,0,nan,0.0,0.0,0.0,0,3,1,1,1,26,0
181722001,0,1743472108624778,10813469,364536282,1274064897,36099,56119,0.294,0.02296033,0.777,0.93000007,0.5,0.71,87,12,17.758001,-3.2120001,-17.465,-3.6160002,4.530526,0,nan,0.0,0.0,0.0,0,3,1,1,1,26,0
182223090,0,1743472109124778,10813469,364536122,1274063895,37692,57711,0.266,0.019910192,0.79,0.93600005,0.48999998,0.7,94,18,18.533,-3.147,-18.263,-3.8260002,4.5417495,0,nan,0.0,0.0,0.0,0,3,1,1,1,27,0
182727561,0,1743472109624778,10813469,364536061,1274062859,39614,59633,0.256,0.01723373,0.795,0.94100004,0.51,0.71999997,94,18,18.527,0.684,-18.515001,-4.827,4.7492967,0,nan,0.0,0.0,0.0,0,3,1,1,1,26,0
183224811,0,1743472110124778,10813469,364536132,1274061829,42125,62144,0.256,0.019455533,0.8,0.94500005,0.48999998,0.7,87,10,18.801,1.7,-18.724,-4.5280004,4.802909,0,nan,0.0,0.0,0.0,0,3,1,1,1,27,0
183724477,0,1743472110624778,10813469,364536258,1274060791,44534,64553,0.22500001,0.021493902,0.80600005,0.952,0.48999998,0.7,87,10,18.616001,4.1730003,-18.142,-5.368,4.9384747,0,nan,0.0,0.0,0.0,0,3,1,1,1,27,0
184227897,0,1743472111124778,10813469,364536447,1274059810,47121,67140,0.266,0.024871292,0.813,0.95900005,0.51,0.71999997,87,8,17.86,3.9210002,-17.425001,-4.5990005,4.9337063,0,nan,0.0,0.0,0.0,0,3,1,1,1,27,0
184724859,0,1743472111624778,10813469,364536637,1274058841,49258,69276,0.22900002,0.022974292,0.822,0.966,0.48999998,0.7,87,8,17.906,4.6780005,-17.284,-4.2330003,4.9767184,0,nan,0.0,0.0,0.0,0,3,1,1,1,27,0
185235920,0,1743472112124778,10813469,364536842,1274057885,51504,71522,0.21700001,0.020494528,0.82900006,0.9710001,0.48999998,0.7,87,9,17.766,4.321,-17.232,-4.6870003,4.9580855,0,nan,0.0,0.0,0.0,0,3,1,1,1,27,0
185729917,0,1743472112624778,10813469,364537029,1274056940,53970,73988,0.21100001,0.018816045,0.83400005,0.975,0.48999998,0.7,87,9,17.331001,4.0930004,-16.841002,-4.3050003,4.9508033,0,nan,0.0,0.0,0.0,0,3,1,1,1,27,0
186230149,0,1743472113124778,10813469,364537222,1274056006,55873,75891,0.21700001,0.01850206,0.836,0.97700006,0.48999998,0.7,75,9,17.271,4.188,-16.755001,-2.9980001,4.957327,0,nan,0.0,0.0,0.0,0,3,1,1,1,26,0
186730836,0,1743472113624778,10813469,364537394,1274055064,57677,77695,0.20500001,0.02063206,0.83900005,0.97900003,0.51,0.71,75,9,17.233002,3.6350002,-16.846,-3.782,4.9248996,0,nan,0.0,0.0,0.0,0,3,1,1,1,26,0
187231956,0,1743472114124778,10813469,364537547,1274054108,59556,79573,0.24300002,0.021208368,0.841,0.98100007,0.51,0.71,70,9,17.664001,3.0860002,-17.392,-3.2680001,4.8880196,0,nan,0.0,0.0,0.0,0,3,1,1,1,24,0
187727059,0,1743472114624777,10813469,364537676,1274053122,61280,81297,0.193,0.0155252265,0.841,0.98200005,0.51,0.71,70,9,18.108002,2.696,-17.906,-3.5830002,4.861843,0,nan,0.0,0.0,0.0,0,3,1,1,1,26,0
188236080,0,1743472115124777,10813469,364537797,1274052125,63183,83200,0.19600001,0.0112758735,0.83900005,0.98100007,0.51,0.71,75,16,18.277,2.6220002,-18.088001,-3.7010002,4.856317,0,nan,0.0,0.0,0.0,0,3,1,1,1,27,0
188735849,0,1743472115624777,10813469,364537907,1274051127,65215,85232,0.208,0.010507232,0.83500004,0.97900003,0.51,0.71,75,16,18.143002,2.407,-17.982,-3.7000003,4.8454475,0,nan,0.0,0.0,0.0,0,3,1,1,1,26,0
189238277,0,1743472116124777,10813469,364538015,1274050132,67347,87363,0.21100001,0.010125701,0.832,0.97800004,0.53,0.72999996,75,17,18.176,2.569,-17.993,-3.989,4.854185,0,nan,0.0,0.0,0.0,0,3,1,1,1,26,0
189739819,0,1743472116624777,10813469,364538134,1274049135,69287,89304,0.20700002,0.010833258,0.82900006,0.9760001,0.51,0.71,75,17,17.948,2.585,-17.761002,-3.7970002,4.8569036,0,nan,0.0,0.0,0.0,0,3,1,1,1,26,0
190242006,0,1743472117124777,10813469,364538246,1274048132,71081,91097,0.209,0.010571284,0.82600003,0.97400004,0.53,0.72999996,80,16,18.039001,2.1200001,-17.914001,-3.91,4.8301578,0,nan,0.0,0.0,0.0,0,3,1,1,1,25,0
190738926,0,1743472117624777,10813469,364538338,1274047143,73126,93142,0.20600002,0.009867218,0.823,0.9710001,0.53,0.71999997,80,16,17.948,1.8040001,-17.857,-3.5440001,4.8130693,0,nan,0.0,0.0,0.0,0,3,1,1,1,26,0
191231838,0,1743472118124777,10813469,364538409,1274046156,75327,95343,0.21900001,0.01121182,0.82100004,0.96800005,0.53,0.71999997,86,8,17.726002,1.6630001,-17.648,-4.5880003,4.8063536,0,nan,0.0,0.0,0.0,0,3,1,1,1,25,0
191737804,0,1743472118624777,10813469,364538469,1274045180,77861,97877,0.19700001,0.01049292,0.818,0.966,0.53,0.71999997,86,8,17.502,1.383,-17.448,-5.247,4.7914677,0,nan,0.0,0.0,0.0,0,3,1,1,1,26,0
192235868,0,1743472119124777,10813469,364538555,1274044183,80084,100099,0.18,0.009992359,0.81700003,0.96400005,0.53,0.71999997,86,8,18.198,1.881,-18.101002,-4.1540003,4.8159122,0,nan,0.0,0.0,0.0,0,3,1,1,1,26,0
192737514,0,1743472119624777,10813469,364538645,1274043185,82127,102141,0.19100001,0.0099105025,0.81500006,0.961,0.53,0.71999997,86,8,18.211,1.9720001,-18.103,-3.3430002,4.8208838,0,nan,0.0,0.0,0.0,0,3,1,1,1,27,0
193235845,0,1743472120124776,10813469,364538723,1274042185,83969,103983,0.164,0.008756142,0.81200004,0.95800006,0.53,0.71999997,85,6,17.810001,1.914,-17.707,-3.4080002,4.820039,0,nan,0.0,0.0,0.0,0,3,1,1,1,26,0
193735895,0,1743472120624776,10813469,364538804,1274041202,85332,105346,0.15100001,0.008262563,0.808,0.95400006,0.53999996,0.75,85,6,17.539001,1.937,-17.432001,-2.066,4.823049,0,nan,0.0,0.0,0.0,0,3,1,1,1,25,0
194231340,0,1743472121124776,10813469,364538891,1274040242,86203,106217,0.13700001,0.008064643,0.80500007,0.95100003,0.55,0.75,85,6,17.34,2.4780002,-17.162,-0.661,4.855808,0,nan,0.0,0.0,0.0,0,3,1,1,1,25,0
194728711,0,1743472121624776,10813469,364539053,1274039327,86595,106609,0.143,0.008725424,0.80200005,0.9480001,0.53,0.75,85,6,16.722,5.538,-15.778001,-0.51900005,5.0499673,0,nan,0.0,0.0,0.0,0,3,1,1,1,27,0
195233514,0,1743472122124776,10813469,364539397,1274038523,87049,107062,0.21200001,0.010230945,0.8,0.94900006,0.58,0.78,60,6,15.976001,9.207001,-13.056001,-1.1320001,5.3266172,0,nan,0.0,0.0,0.0,0,3,1,1,1,25,0
195730681,0,1743472122624776,10813469,364539861,1274037875,87715,107729,0.23700002,0.015681434,0.8,0.94900006,0.53999996,0.75,60,6,15.607,11.554001,-10.492001,-0.65800005,5.5459547,0,nan,0.0,0.0,0.0,0,3,1,1,1,25,0
196231821,0,1743472123124776,10813469,364540442,1274037396,88114,108128,0.26500002,0.011144799,0.80200005,0.95000005,0.58,0.81,55,6,15.312,13.711,-6.8180003,-0.71400005,5.821748,0,nan,0.0,0.0,0.0,0,3,1,1,1,25,0
196730341,0,1743472123624776,10813469,364541094,1274037092,88100,108113,0.238,0.011885168,0.80300003,0.95400006,0.51,0.72999996,55,6,15.465001,14.957001,-3.9300003,0.38500002,6.0262375,0,nan,0.0,0.0,0.0,0,3,1,1,1,27,0
197235810,0,1743472124124776,10813469,364541788,1274037008,87732,107745,0.19600001,0.008516857,0.80100006,0.95500004,0.5,0.7,82,6,15.727001,15.712001,0.70400006,0.9110001,0.044798933,0,nan,0.0,0.0,0.0,0,3,1,1,1,26,0
197733813,0,1743472124624776,10813469,364542489,1274037153,87181,107194,0.194,0.007927634,0.79700005,0.95600003,0.53,0.76,82,6,15.781001,15.144001,4.439,1.153,0.28514665,0,nan,0.0,0.0,0.0,0,3,1,1,1,25,0
198235844,0,1743472125124776,10813469,364543159,1274037518,86322,106336,0.185,0.0084442515,0.79300004,0.957,0.5,0.71999997,88,7,16.232,13.987,8.237,1.7140001,0.532249,0,nan,0.0,0.0,0.0,0,3,1,1,1,25,0
198732921,0,1743472125624775,10813469,364543776,1274038048,85114,105127,0.186,0.009518502,0.78900003,0.957,0.51,0.76,88,7,16.847,13.084001,10.613001,2.5340002,0.6814863,0,nan,0.0,0.0,0.0,0,3,1,1,1,24,0
199231115,0,1743472126124775,10813469,364544356,1274038700,83712,103725,0.18200001,0.010780898,0.78700006,0.961,0.51,0.81,94,15,17.952002,12.687,12.700001,2.5430002,0.78590286,0,nan,0.0,0.0,0.0,0,3,1,1,1,25,0
199731844,0,1743472126624775,10813469,364544934,1274039433,82517,102531,0.177,0.010918255,0.78400004,0.96300006,0.48999998,0.71999997,94,15,18.699001,13.134001,13.309001,1.9300001,0.7920424,0,nan,0.0,0.0,0.0,0,3,1,1,1,27,0
200234255,0,1743472127124775,10813469,364545548,1274040158,81811,101825,0.18100001,0.015104603,0.78400004,0.96500003,0.55,0.78,94,14,19.125,14.148001,12.869,1.35,0.73811644,0,nan,0.0,0.0,0.0,0,3,1,1,1,25,0
200731819,0,1743472127624775,10813469,364546219,1274040817,81427,101441,0.16600001,0.013367302,0.786,0.96700007,0.53999996,0.74,94,14,18.852001,15.383,10.896001,0.483,0.61629075,0,nan,0.0,0.0,0.0,0,3,1,1,1,26,0
201235809,0,1743472128124775,10813469,364546945,1274041369,81496,101510,0.158,0.011592302,0.786,0.96800005,0.51,0.75,87,8,18.859001,16.423,9.272,0.031000001,0.5139794,0,nan,0.0,0.0,0.0,0,3,1,1,1,28,0
201736033,0,1743472128624775,10813469,364547704,1274041822,81593,101607,0.13100001,0.009042202,0.78400004,0.96700007,0.5,0.7,87,8,18.757,17.142,7.6130004,-0.09,0.41793162,0,nan,0.0,0.0,0.0,0,3,1,1,1,28,0
202236818,0,1743472129124775,10813469,364548487,1274042179,81771,101785,0.128,0.008636586,0.781,0.966,0.5,0.69,82,6,18.579,17.598001,5.9570003,-0.48200002,0.3264113,0,nan,0.0,0.0,0.0,0,3,1,1,1,27,0
202733844,0,1743472129624775,10813469,364549290,1274042455,82123,102137,0.133,0.010162005,0.78000003,0.96700007,0.53999996,0.71999997,82,6,18.319,17.778002,4.421,-1.1880001,0.24373262,0,nan,0.0,0.0,0.0,0,3,1,1,1,25,0
203235983,0,1743472130124775,10813469,364550099,1274042673,82546,102560,0.143,0.010252413,0.781,0.96900004,0.53999996,0.71,88,6,18.419,18.018002,3.8230002,-0.80600005,0.20908363,0,nan,0.0,0.0,0.0,0,3,1,1,1,25,0
203733902,0,1743472130624775,10813469,364550918,1274042872,82765,102779,0.16100001,0.0116151655,0.78200006,0.97300005,0.53999996,0.71,88,6,18.729,18.333,3.831,-0.333,0.20597765,0,nan,0.0,0.0,0.0,0,3,1,1,1,27,0
204234970,0,1743472131124775,10813469,364551735,1274043160,82934,102947,0.16100001,0.010042799,0.78400004,0.98200005,0.51,0.71999997,88,11,19.188002,17.873001,6.9810004,-0.735,0.37238553,0,nan,0.0,0.0,0.0,0,3,1,1,1,27,0
204732891,0,1743472131624774,10813469,364552486,1274043680,83560,103574,0.16900001,0.008987572,0.786,0.99300003,0.51,0.75,88,11,19.29,15.367001,11.659,-1.5870001,0.6490499,0,nan,0.0,0.0,0.0,0,3,1,1,1,26,0
205231810,0,1743472132124774,10813469,364553093,1274044414,84847,104862,0.172,0.008554906,0.78700006,1.003,0.51,0.75,76,6,19.131,11.682,15.151001,-2.5930002,0.913975,0,nan,0.0,0.0,0.0,0,3,1,1,1,26,0
205727038,0,1743472132624774,10813469,364553518,1274045312,86092,106106,0.24300002,0.009218655,0.785,1.008,0.51,0.75,76,6,18.715,7.4860005,17.152,-2.5080001,1.1592622,0,nan,0.0,0.0,0.0,0,3,1,1,1,26,0
206229724,0,1743472133124774,10813469,364553826,1274046305,86580,106594,0.21800001,0.007991339,0.78400004,1.011,0.51,0.77,70,12,18.936,5.446,18.136002,-0.58000004,1.2790704,0,nan,0.0,0.0,0.0,0,3,1,1,1,27,0
206725498,0,1743472133624774,10813469,364553999,1274047339,86611,106625,0.24800001,0.011358776,0.78400004,1.013,0.5,0.77,70,12,18.879002,2.13,18.758001,-0.055000003,1.4577549,0,nan,0.0,0.0,0.0,0,3,1,1,1,27,0
207226807,0,1743472134124774,10813469,364554034,1274048390,86302,106317,0.201,0.008860687,0.78300005,1.014,0.51,0.75,69,9,18.922,-0.57000005,18.914001,0.60800004,1.600908,0,nan,0.0,0.0,0.0,0,3,1,1,1,28,0
208200983,0,1743472134999775,10813469,364553866,1274050228,84901,104916,0.16000001,0.010558019,0.77900004,1.018,0.51,0.78999996,65,6,19.327002,-3.5720003,18.994001,1.8880001,1.7567024,0,nan,0.0,0.0,0.0,0,3,1,1,1,24,0
208734018,0,1743472135624774,10813469,364553609,1274051544,83833,103849,0.142,0.010002307,0.78000003,1.024,0.51,0.7,65,6,19.660002,-5.2850003,18.936,1.4870001,1.8429768,0,nan,0.0,0.0,0.0,0,3,1,1,1,26,0
209240255,0,1743472136124774,10813469,364553360,1274052605,82999,103014,0.155,0.010254159,0.777,1.0220001,0.53,0.72999996,79,15,20.147001,-5.597,19.354,1.304,1.8523158,0,nan,0.0,0.0,0.0,0,3,1,1,1,27,0
209737674,0,1743472136624774,10813469,364553114,1274053684,82569,102586,0.14,0.009763371,0.776,1.0200001,0.58,0.78,79,15,20.135,-5.355,19.410002,0.053000003,1.8400105,0,nan,0.0,0.0,0.0,0,3,1,1,1,26,0
210236307,0,1743472137124773,10813469,364552882,1274054762,82602,102619,0.15,0.010056238,0.77300006,1.0200001,0.52,0.72999996,85,13,20.081001,-5.11,19.42,-0.87600005,1.8280916,0,nan,0.0,0.0,0.0,0,3,1,1,1,26,0
210737928,0,1743472137624773,10813469,364552670,1274055843,83113,103129,0.16100001,0.010103012,0.772,1.0200001,0.55,0.74,85,13,19.800001,-4.5540004,19.269001,-0.96400005,1.802872,0,nan,0.0,0.0,0.0,0,3,1,1,1,23,0
211242990,0,1743472138124773,10813469,364552491,1274056913,83598,103615,0.16700001,0.009883275,0.771,1.021,0.53,0.77,90,10,19.710001,-4.039,19.292002,-0.44000003,1.7771912,0,nan,0.0,0.0,0.0,0,3,1,1,1,24,0
211737392,0,1743472138624773,10813469,364552333,1274057975,84205,104222,0.158,0.010186439,0.76900005,1.0220001,0.51,0.74,90,10,19.321001,-3.683,18.967001,-1.014,1.7625947,0,nan,0.0,0.0,0.0,0,3,1,1,1,27,0
212239363,0,1743472139124773,10813469,364552189,1274059027,84385,104403,0.147,0.010095508,0.767,1.0220001,0.53,0.74,90,6,19.137001,-3.131,18.879002,0.71300006,1.7351434,0,nan,0.0,0.0,0.0,0,3,1,1,1,24,0
212736169,0,1743472139624773,10813469,364552051,1274060071,83982,104000,0.14500001,0.009364215,0.76500005,1.021,0.53,0.74,90,6,18.943,-3.275,18.658,0.98300004,1.7445588,0,nan,0.0,0.0,0.0,0,3,1,1,1,26,0
213236975,0,1743472140124773,10813469,364551930,1274061120,83415,103432,0.12900001,0.010865023,0.762,1.018,0.51,0.74,90,7,19.082,-2.7410002,18.885,0.96500003,1.7149208,0,nan,0.0,0.0,0.0,0,3,1,1,1,25,0
213735808,0,1743472140624773,10813469,364551821,1274062177,82953,102971,0.117000006,0.009768259,0.75900006,1.0150001,0.51,0.74,90,7,19.215,-2.664,19.03,0.79600006,1.7098871,0,nan,0.0,0.0,0.0,0,3,1,1,1,27,0
214231555,0,1743472141124773,10813469,364551720,1274063254,82550,102568,0.112,0.008542689,0.75600004,1.011,0.53,0.76,68,14,19.695002,-2.512,19.534,0.80100006,1.6987,0,nan,0.0,0.0,0.0,0,3,1,1,1,27,0
214729860,0,1743472141624773,10813469,364551629,1274064354,82251,102270,0.105000004,0.008830493,0.753,1.006,0.53,0.76,68,14,20.007002,-2.26,19.879002,0.36400002,1.6840036,0,nan,0.0,0.0,0.0,0,3,1,1,1,26,0
215230814,0,1743472142124773,10813469,364551539,1274065475,81884,101903,0.108,0.010478606,0.75000006,1.001,0.57,0.77,59,5,20.271002,-2.0860002,20.163,0.49800003,1.6738646,0,nan,0.0,0.0,0.0,0,3,1,1,1,23,0
215733044,0,1743472142624772,10813469,364551454,1274066612,81501,101520,0.10700001,0.008838871,0.748,0.99700004,0.53999996,0.77,59,5,20.603,-2.0600002,20.499,0.36100003,1.6709719,0,nan,0.0,0.0,0.0,0,3,1,1,1,26,0
216239202,0,1743472143124772,10813469,364551366,1274067752,81331,101350,0.109000005,0.00984261,0.74600005,0.99300003,0.57,0.77,71,11,20.567001,-2.0670002,20.463001,-0.223,1.6714753,0,nan,0.0,0.0,0.0,0,3,1,1,1,25,0
216736184,0,1743472143624772,10813469,364551284,1274068891,81506,101525,0.117000006,0.010084512,0.74500006,0.989,0.57,0.77,71,11,20.471,-1.9410001,20.379002,-0.735,1.6657565,0,nan,0.0,0.0,0.0,0,3,1,1,1,25,0
217235175,0,1743472144124772,10813469,364551207,1274070025,81862,101882,0.127,0.009284628,0.74200004,0.98600006,0.53999996,0.77,87,6,20.368,-2.1620002,20.253,-0.44900003,1.6771517,0,nan,0.0,0.0,0.0,0,3,1,1,1,27,0
217735830,0,1743472144624772,10813469,364551130,1274071153,81938,101958,0.120000005,0.008389797,0.74,0.98200005,0.51,0.74,87,6,20.287,-2.127,20.175001,-0.011000001,1.6758584,0,nan,0.0,0.0,0.0,0,3,1,1,1,26,0
218228967,0,1743472145124772,10813469,364551056,1274072274,82082,102103,0.115,0.008784242,0.73700005,0.97900003,0.51,0.74,93,16,20.264002,-2.5,20.109001,-0.455,1.6944824,0,nan,0.0,0.0,0.0,0,3,1,1,1,26,0
218737259,0,1743472145624772,10813469,364550887,1274073383,82214,102235,0.13000001,0.009581508,0.73600006,0.97800004,0.55,0.74,93,16,20.372002,-5.716,19.553001,-0.94100004,1.8551959,0,nan,0.0,0.0,0.0,0,3,1,1,1,26,0
219232170,0,1743472146124772,10813469,364550527,1274074411,82774,102795,0.179,0.0106915375,0.735,0.98,0.53,0.74,86,5,19.977001,-10.542001,16.969,-1.9540001,2.1267202,0,nan,0.0,0.0,0.0,0,3,1,1,1,24,0
219736810,0,1743472146624772,10813469,364549987,1274075280,83545,103566,0.18300001,0.010921048,0.734,0.98300004,0.53999996,0.75,86,5,19.604,-13.905001,13.819,-2.1890001,2.3592734,0,nan,0.0,0.0,0.0,0,3,1,1,1,27,0
220236358,0,1743472147124772,10813469,364549318,1274075968,84248,104269,0.21700001,0.010218727,0.73600006,0.9850001,0.53,0.76,80,6,18.861,-15.571001,10.643001,-1.128,2.5420403,0,nan,0.0,0.0,0.0,0,3,1,1,1,27,0
220737830,0,1743472147624772,10813469,364548586,1274076503,84428,104449,0.23600002,0.010440384,0.73600006,0.98600006,0.53,0.76,80,6,18.753,-16.900002,8.128,-0.201,2.6932933,0,nan,0.0,0.0,0.0,0,3,1,1,1,27,0
221234811,0,1743472148124772,10813469,364547798,1274076846,84416,104438,0.20500001,0.0075495956,0.73600006,0.9850001,0.51,0.78999996,86,6,18.219002,-17.766,4.0410004,-0.13900001,2.917918,0,nan,0.0,0.0,0.0,0,3,1,1,1,26,0
221733586,0,1743472148624771,10813469,364546985,1274077006,84278,104299,0.192,0.006734004,0.734,0.9850001,0.51,0.83,86,6,18.246,-18.141,1.9560001,0.67200005,3.034178,0,nan,0.0,0.0,0.0,0,3,1,1,1,24,0
222232047,0,1743472149124771,10813469,364546164,1274077018,83942,103964,0.19900002,0.008282983,0.73300004,0.98700005,0.51,0.74,92,5,18.115002,-18.076,-1.1880001,0.354,3.2072043,0,nan,0.0,0.0,0.0,0,3,1,1,1,26,0
222735830,0,1743472149624771,10813469,364545349,1274076911,83312,103334,0.17,0.010228677,0.73300004,0.99100006,0.53,0.81,92,5,18.272001,-18.106,-2.46,1.608,3.2766483,0,nan,0.0,0.0,0.0,0,3,1,1,1,24,0
223232824,0,1743472150124771,10813469,364544529,1274076715,82495,102517,0.252,0.014164045,0.73300004,0.99600005,0.53,0.83,85,13,18.887001,-18.461,-3.9900002,1.4770001,3.354431,0,nan,0.0,0.0,0.0,0,3,1,1,1,23,0
223736496,0,1743472150624771,10813469,364543705,1274076456,81940,101962,0.19000001,0.012177859,0.73600006,1.0020001,0.56,0.78999996,85,13,19.103,-18.464,-4.901,0.39000002,3.401069,0,nan,0.0,0.0,0.0,0,3,1,1,1,26,0
224235133,0,1743472151124771,10813469,364542869,1274076168,81570,101592,0.171,0.011190876,0.73800004,1.005,0.55,0.76,85,17,19.425001,-18.717001,-5.197,-0.15900001,3.4124017,0,nan,0.0,0.0,0.0,0,3,1,1,1,26,0
224738954,0,1743472151624771,10813469,364542024,1274075892,81458,101480,0.149,0.009263858,0.892,1.212,0.53,0.78,85,17,19.487001,-18.905,-4.727,-0.36200002,3.3865986,0,nan,0.0,0.0,0.0,0,3,1,1,1,28,0
225231817,0,1743472152124771,10813469,364541170,1274075654,81526,101547,0.157,0.010571109,1.0250001,1.3920001,0.53,0.77,80,16,19.551,-19.152,-3.9320002,-0.60300004,3.3440783,0,nan,0.0,0.0,0.0,0,3,1,1,1,26,0
225733898,0,1743472152624771,10813469,364540306,1274075446,81729,101750,0.14500001,0.0097899,0.952,1.2900001,0.51,0.77,80,16,19.416,-18.886002,-4.504,-0.30900002,3.3757155,0,nan,0.0,0.0,0.0,0,3,1,1,1,26,0
226240041,0,1743472153124771,10813469,364539482,1274075116,81807,101829,0.22100002,0.0112730805,0.73600006,1.001,0.5,0.76,79,16,19.053001,-17.459002,-7.629,0.054,3.5535312,0,nan,0.0,0.0,0.0,0,3,1,1,1,25,0
226737050,0,1743472153624771,10813469,364538774,1274074569,82076,102098,0.21100001,0.012058829,0.73700005,1.006,0.53,0.78999996,79,16,17.959002,-13.064001,-12.324,-2.0700002,3.8978481,0,nan,0.0,0.0,0.0,0,3,1,1,1,23,0
227175373,0,1743472153999772,10813469,364538401,1274074018,83149,103170,0.165,0.009512393,0.73800004,1.0120001,0.51,0.77,80,11,16.823,-9.06,-14.175001,-3.4350002,4.143647,0,nan,0.0,0.0,0.0,0,3,1,1,1,26,0
227741356,0,1743472154624770,10813469,364538024,1274072987,84883,104905,0.124000005,0.008018042,0.73800004,1.019,0.5,0.76,80,11,15.705001,-3.8890002,-15.216001,-2.5530002,4.46216,0,nan,0.0,0.0,0.0,0,3,1,1,1,25,0
228242807,0,1743472155124770,10813469,364537936,1274072133,85994,106015,0.116000004,0.007485368,0.734,1.018,0.52,0.76,79,18,15.298,-0.549,-15.2890005,-1.4530001,4.6765184,0,nan,0.0,0.0,0.0,0,3,1,1,1,26,0
228740843,0,1743472155624770,10813469,364537990,1274071287,86538,106559,0.109000005,0.007207337,0.731,1.0150001,0.5,0.75,79,18,15.286,2.7800002,-15.031001,-0.648,4.895281,0,nan,0.0,0.0,0.0,0,3,1,1,1,26,0
229236819,0,1743472156124770,10813469,364538177,1274070457,86642,106663,0.117000006,0.008478286,0.72800004,1.014,0.5,0.75,79,9,15.564001,5.7380004,-14.467001,-0.08800001,5.090008,0,nan,0.0,0.0,0.0,0,3,1,1,1,28,0
229740258,0,1743472156624770,10813469,364538487,1274069659,86444,106464,0.116000004,0.008435525,0.726,1.0150001,0.48999998,0.71999997,79,9,16.113,7.7550006,-14.124001,0.9480001,5.2144947,0,nan,0.0,0.0,0.0,0,3,1,1,1,27,0
230236810,0,1743472157124770,10813469,364538877,1274068879,85894,105914,0.14400001,0.010105107,0.725,1.018,0.48999998,0.72999996,80,10,16.693,9.459001,-13.755001,1.3700001,5.314802,0,nan,0.0,0.0,0.0,0,3,1,1,1,26,0
230735228,0,1743472157624770,10813469,364539340,1274068121,85322,105342,0.14400001,0.009810844,0.726,1.021,0.5,0.72999996,80,10,17.269001,10.819,-13.460001,0.99700004,5.389413,0,nan,0.0,0.0,0.0,0,3,1,1,1,28,0
231235854,0,1743472158124770,10813469,364539839,1274067364,84778,104798,0.127,0.009111142,0.725,1.021,0.48999998,0.69,80,9,17.657001,11.264001,-13.597001,0.588,5.4042244,0,nan,0.0,0.0,0.0,0,3,1,1,1,27,0
231731906,0,1743472158624770,10813469,364540350,1274066604,84483,104502,0.11800001,0.009565102,0.72400004,1.018,0.48,0.68,80,9,17.688002,11.136001,-13.742001,0.72200006,5.39344,0,nan,0.0,0.0,0.0,0,3,1,1,1,28,0
232228921,0,1743472159124770,10813469,364540844,1274065839,84300,104319,0.106000006,0.009294751,0.72200006,1.013,0.48999998,0.69,80,8,17.424002,10.661,-13.782001,0.57000005,5.370804,0,nan,0.0,0.0,0.0,0,3,1,1,1,27,0
232732557,0,1743472159624770,10813469,364541308,1274065065,84054,104073,0.108,0.010110692,0.72,1.0090001,0.5,0.7,80,8,17.129002,9.784,-14.059001,0.36200002,5.3203974,0,nan,0.0,0.0,0.0,0,3,1,1,1,28,0
233230213,0,1743472160124769,10813469,364541731,1274064273,83809,103828,0.106000006,0.008555603,0.71800005,1.0040001,0.51,0.71999997,64,18,16.825,9.082001,-14.163001,0.77000004,5.2825584,0,nan,0.0,0.0,0.0,0,3,1,1,1,27,0
233730820,0,1743472160624769,10813469,364542127,1274063472,83480,103498,0.11400001,0.010086258,0.716,0.9990001,0.51,0.7,64,18,16.814001,8.634001,-14.428,0.943,5.2516384,0,nan,0.0,0.0,0.0,0,3,1,1,1,28,0
234237825,0,1743472161124769,10813469,364542495,1274062657,83244,103262,0.10700001,0.009235584,0.71400005,0.994,0.48,0.68,64,7,16.864,7.879,-14.910001,0.52000004,5.198504,0,nan,0.0,0.0,0.0,0,3,1,1,1,28,0
234727828,0,1743472161624769,10813469,364542846,1274061819,83025,103044,0.097,0.009622524,0.712,0.99000007,0.52,0.7,64,7,16.946001,7.4610004,-15.216001,0.113000005,5.1682673,0,nan,0.0,0.0,0.0,0,3,1,1,1,26,0
235238646,0,1743472162124769,10813469,364543187,1274060968,82858,102876,0.093,0.009194045,0.71000004,0.9850001,0.48,0.68,74,19,17.081001,7.4530005,-15.369,0.596,5.163909,0,nan,0.0,0.0,0.0,0,3,1,1,1,27,0
235744043,0,1743472162624769,10813469,364543520,1274060099,82510,102528,0.102000006,0.009501747,0.708,0.98100007,0.48999998,0.69,74,19,17.325,7.333,-15.6970005,0.74200004,5.149391,0,nan,0.0,0.0,0.0,0,3,1,1,1,27,0
236241160,0,1743472163124769,10813469,364543855,1274059216,82281,102299,0.098000005,0.008985828,0.70600003,0.97700006,0.51,0.7,78,10,17.647001,7.3580003,-16.04,0.59900004,5.14248,0,nan,0.0,0.0,0.0,0,3,1,1,1,27,0
236742096,0,1743472163624769,10813469,364544191,1274058312,82120,102138,0.096,0.008806931,0.70500004,0.97300005,0.5,0.69,78,10,18.011002,7.4150004,-16.414001,0.42900002,5.136693,0,nan,0.0,0.0,0.0,0,3,1,1,1,28,0
237249812,0,1743472164124769,10813469,364544530,1274057396,82138,102155,0.087000005,0.008036718,0.703,0.96800005,0.5,0.69,78,11,18.237001,7.6370006,-16.561,-0.053000003,5.1444607,0,nan,0.0,0.0,0.0,0,3,1,1,1,28,0
237741909,0,1743472164624769,10813469,364544877,1274056467,82145,102163,0.091000006,0.008230973,0.70100003,0.96400005,0.51,0.7,78,11,18.431002,7.6930003,-16.749,-0.25,5.142941,0,nan,0.0,0.0,0.0,0,3,1,1,1,27,0
238239834,0,1743472165124769,10813469,364545228,1274055533,82203,102220,0.09200001,0.007681717,0.69900006,0.95900005,0.5,0.69,79,8,18.581001,7.8870006,-16.824001,0.25,5.150762,0,nan,0.0,0.0,0.0,0,3,1,1,1,27,0
238740526,0,1743472165624769,10813469,364545588,1274054607,82364,102380,0.098000005,0.008043175,0.698,0.95500004,0.5,0.68,79,8,18.470001,8.0390005,-16.628,-0.23700002,5.1627235,0,nan,0.0,0.0,0.0,0,3,1,1,1,27,0
239243372,0,1743472166124768,10813469,364545951,1274053686,82426,102443,0.09200001,0.007847,0.69600004,0.95100003,0.51,0.68,79,14,18.343,8.028001,-16.493,0.016,5.165381,0,nan,0.0,0.0,0.0,0,3,1,1,1,27,0
239745844,0,1743472166624768,10813469,364546316,1274052770,82527,102544,0.078,0.008090299,0.694,0.94600004,0.5,0.69,79,14,18.224,7.9480004,-16.399,-0.521,5.163663,0,nan,0.0,0.0,0.0,0,3,1,1,1,28,0
240237254,0,1743472167124768,10813469,364546674,1274051856,82640,102656,0.079,0.008985653,0.69200003,0.94200003,0.5,0.69,79,8,17.980001,7.7380004,-16.230001,-0.94600004,5.157268,0,nan,0.0,0.0,0.0,0,3,1,1,1,27,0
240735803,0,1743472167624768,10813469,364547031,1274050955,82879,102895,0.087000005,0.009858492,0.69100004,0.938,0.5,0.69,79,8,17.757,7.8750005,-15.915001,-1.105,5.1718907,0,nan,0.0,0.0,0.0,0,3,1,1,1,27,0
241237825,0,1743472168124768,10813469,364547381,1274050064,83432,103448,0.089,0.0097785555,0.689,0.93500006,0.52,0.69,79,8,17.545,7.589,-15.818001,-1.7730001,5.159739,0,nan,0.0,0.0,0.0,0,3,1,1,1,25,0
241733816,0,1743472168624768,10813469,364547725,1274049191,84113,104129,0.098000005,0.010063568,0.689,0.93200004,0.56,0.74,79,8,17.288,7.9890003,-15.331,-0.98800004,5.19277,0,nan,0.0,0.0,0.0,0,3,1,1,1,26,0
242236084,0,1743472169124768,10813469,364548072,1274048341,84393,104408,0.094000004,0.0101798065,0.688,0.929,0.56,0.74,79,8,16.876001,7.2030005,-15.262001,-0.312,5.1533313,0,nan,0.0,0.0,0.0,0,3,1,1,1,27,0
242735811,0,1743472169624768,10813469,364548370,1274047457,84486,104501,0.10700001,0.011017042,0.68700004,0.92600006,0.52,0.71,79,8,17.393002,5.8760004,-16.37,0.20600002,5.057037,0,nan,0.0,0.0,0.0,0,3,1,1,1,27,0
243233874,0,1743472170124768,10813469,364548577,1274046519,84549,104564,0.143,0.01719795,0.688,0.9250001,0.53999996,0.71,80,9,17.527,3.1980002,-17.233002,-0.3,4.895865,0,nan,0.0,0.0,0.0,0,3,1,1,1,25,0
243734806,0,1743472170624768,10813469,364548710,1274045543,84571,104586,0.13000001,0.014387622,0.69000006,0.924,0.56,0.71999997,80,9,17.836,2.6940002,-17.631,0.231,4.8639903,0,nan,0.0,0.0,0.0,0,3,1,1,1,27,0
244235731,0,1743472171124768,10813469,364548815,1274044542,84140,104154,0.128,0.013753544,0.69200003,0.92300004,0.53,0.74,85,17,18.336,2.601,-18.150002,1.1700001,4.854707,0,nan,0.0,0.0,0.0,0,3,1,1,1,24,0
244738824,0,1743472171624768,10813469,364548954,1274043523,83722,103736,0.10700001,0.0115423845,0.694,0.92100006,0.55,0.75,85,17,18.705002,3.8040001,-18.314001,0.24400002,4.9171987,0,nan,0.0,0.0,0.0,0,3,1,1,1,26,0
245245813,0,1743472172124767,10813469,364549152,1274042506,83716,103730,0.087000005,0.008550542,0.693,0.91700006,0.52,0.71999997,74,20,18.843,5.057,-18.151001,-0.047000002,4.984091,0,nan,0.0,0.0,0.0,0,3,1,1,1,27,0
245738868,0,1743472172624767,10813469,364549413,1274041516,83708,103722,0.094000004,0.0083271405,0.69000006,0.91300005,0.52,0.71999997,74,20,18.380001,6.6310005,-17.142,0.467,5.081516,0,nan,0.0,0.0,0.0,0,3,1,1,1,25,0
246241804,0,1743472173124767,10813469,364549740,1274040597,83400,103413,0.101,0.008917934,0.689,0.91,0.57,0.81,79,17,17.597,7.7170005,-15.814001,0.878,5.1663833,0,nan,0.0,0.0,0.0,0,3,1,1,1,25,0
246743815,0,1743472173624767,10813469,364550111,1274039746,82872,102885,0.109000005,0.01018225,0.68700004,0.90700006,0.51,0.74,79,17,17.04,8.684,-14.661,1.0600001,5.2471466,0,nan,0.0,0.0,0.0,0,3,1,1,1,25,0
247235827,0,1743472174124767,10813469,364550519,1274038956,82315,102328,0.116000004,0.011399617,0.68600005,0.90300006,0.53999996,0.71999997,79,12,16.621,9.287001,-13.784,1.1420001,5.305265,0,nan,0.0,0.0,0.0,0,3,1,1,1,24,0
247734345,0,1743472174624767,10813469,364550950,1274038207,81558,101571,0.12200001,0.010846872,0.68600005,0.901,0.58,0.76,79,12,16.357,9.834001,-13.070001,1.6650001,5.3574424,0,nan,0.0,0.0,0.0,0,3,1,1,1,25,0
248240135,0,1743472175124767,10813469,364551391,1274037476,80716,100728,0.116000004,0.010429215,0.68500006,0.89800006,0.53999996,0.71999997,85,14,16.375,9.893001,-13.049001,1.5790001,5.3610587,0,nan,0.0,0.0,0.0,0,3,1,1,1,25,0
248734833,0,1743472175624767,10813469,364551842,1274036747,79910,99922,0.11400001,0.009543634,0.684,0.89500004,0.53999996,0.71999997,85,14,16.363,9.913,-13.018001,1.9360001,5.3632207,0,nan,0.0,0.0,0.0,0,3,1,1,1,25,0
249238817,0,1743472176124767,10813469,364552291,1274036017,78885,98898,0.123,0.009390394,0.683,0.892,0.52,0.74,85,9,16.562,9.865001,-13.304001,2.299,5.3504567,0,nan,0.0,0.0,0.0,0,3,1,1,1,25,0
249735814,0,1743472176624767,10813469,364552731,1274035265,77735,97747,0.117000006,0.008968723,0.68100005,0.89000005,0.51,0.71,85,9,16.673,9.458,-13.731001,2.1160002,5.3155684,0,nan,0.0,0.0,0.0,0,3,1,1,1,26,0
250234818,0,1743472177124767,10813469,364553146,1274034478,76674,96686,0.119,0.008795237,0.68,0.8880001,0.53999996,0.75,74,8,16.844,8.787001,-14.371,2.4980001,5.2611876,0,nan,0.0,0.0,0.0,0,3,1,1,1,26,0
250735793,0,1743472177624766,10813469,364553513,1274033649,75546,95558,0.128,0.009366833,0.679,0.88600004,0.53999996,0.71999997,74,8,17.006,7.5140004,-15.2560005,2.0540001,5.170042,0,nan,0.0,0.0,0.0,0,3,1,1,1,27,0
251232802,0,1743472178124766,10813469,364553821,1274032773,74590,94602,0.132,0.010693633,0.67800003,0.88500005,0.53999996,0.71999997,64,6,17.194,6.15,-16.056002,1.9460001,5.0781994,0,nan,0.0,0.0,0.0,0,3,1,1,1,24,0
251731300,0,1743472178624766,10813469,364554061,1274031857,73803,93815,0.132,0.014594443,0.68,0.88500005,0.53999996,0.71999997,64,6,17.249,4.6800003,-16.602001,1.4820001,4.9871635,0,nan,0.0,0.0,0.0,0,3,1,1,1,26,0
252238010,0,1743472179124766,10813469,364554233,1274030918,73085,93096,0.134,0.01637625,0.683,0.88600004,0.52,0.71,64,14,17.173,3.17,-16.878,1.274,4.89807,0,nan,0.0,0.0,0.0,0,3,1,1,1,27,0
252733844,0,1743472179624766,10813469,364554325,1274029968,72364,92375,0.14600001,0.014967943,0.68700004,0.887,0.52,0.71,64,14,17.09,0.97800004,-17.062,1.567,4.769633,0,nan,0.0,0.0,0.0,0,3,1,1,1,26,0
253240342,0,1743472180124766,10813469,364554324,1274029021,71685,91696,0.15400001,0.013519494,0.69100004,0.887,0.52,0.71,73,17,16.924002,-0.84000003,-16.903,1.557,4.662717,0,nan,0.0,0.0,0.0,0,3,1,1,1,27,0
253737408,0,1743472180624766,10813469,364554244,1274028088,70909,90919,0.16900001,0.012663236,0.69500005,0.8880001,0.53,0.71999997,73,17,16.793001,-2.5080001,-16.605001,1.6330001,4.562487,0,nan,0.0,0.0,0.0,0,3,1,1,1,26,0
254231832,0,1743472181124766,10813469,364554080,1274027180,70174,90184,0.178,0.012334417,0.69900006,0.88900006,0.52,0.71,74,14,16.563002,-4.493,-15.942,1.8060001,4.4376917,0,nan,0.0,0.0,0.0,0,3,1,1,1,25,0
254732243,0,1743472181624766,10813469,364553837,1274026308,69395,89405,0.187,0.012566022,0.703,0.88900006,0.53999996,0.71,74,14,16.76,-6.3580003,-15.507001,1.6170001,4.3232684,0,nan,0.0,0.0,0.0,0,3,1,1,1,28,0
255230785,0,1743472182124766,10813469,364553510,1274025469,68498,88509,0.20300001,0.012917705,0.707,0.88900006,0.52,0.71999997,73,14,16.79,-8.212001,-14.644001,1.9470001,4.2013087,0,nan,0.0,0.0,0.0,0,3,1,1,1,27,0
255731888,0,1743472182624766,10813469,364553083,1274024659,67647,87657,0.17500001,0.011052821,0.708,0.887,0.48999998,0.69,73,14,17.987001,-10.928,-14.287001,1.2770001,4.0594306,0,nan,0.0,0.0,0.0,0,3,1,1,1,27,0
256233099,0,1743472183124766,10813469,364552531,1274023888,67154,87164,0.158,0.01040286,0.70900005,0.88500005,0.52,0.71,79,16,18.989,-13.754001,-13.092001,0.694,3.9023166,0,nan,0.0,0.0,0.0,0,3,1,1,1,27,0
256737827,0,1743472183624765,10813469,364551858,1274023211,67129,87139,0.155,0.0090408055,0.707,0.882,0.5,0.7,79,16,19.42,-15.7300005,-11.39,-0.097,3.7683008,0,nan,0.0,0.0,0.0,0,3,1,1,1,28,0
257228838,0,1743472184124765,10813469,364551119,1274022634,67137,87147,0.133,0.007866024,0.70500004,0.87900007,0.5,0.7,79,11,19.368,-16.812,-9.615001,-0.044000003,3.6611106,0,nan,0.0,0.0,0.0,0,3,1,1,1,28,0
257726833,0,1743472184624765,10813469,364550337,1274022172,67255,87265,0.117000006,0.0074260263,0.702,0.87500006,0.51,0.71,79,11,19.098001,-17.477001,-7.6980004,0.24300002,3.5564787,0,nan,0.0,0.0,0.0,0,3,1,1,1,28,0
258235218,0,1743472185124765,10813469,364549522,1274021830,67316,87326,0.120000005,0.007033851,0.69900006,0.87200004,0.5,0.7,79,18,18.937,-18.224,-5.1460004,-0.261,3.4168296,0,nan,0.0,0.0,0.0,0,3,1,1,1,27,0
258737845,0,1743472185624765,10813469,364548690,1274021616,67405,87414,0.12900001,0.008711287,0.697,0.87100005,0.52,0.71,79,18,18.874,-18.631,-3.0240002,-0.022000002,3.3024983,0,nan,0.0,0.0,0.0,0,3,1,1,1,27,0
259236835,0,1743472186124765,10813469,364547848,1274021508,67350,87359,0.135,0.008626639,0.69500005,0.87100005,0.53999996,0.71,79,16,18.771002,-18.745,-0.9760001,0.52900004,3.193628,0,nan,0.0,0.0,0.0,0,3,1,1,1,27,0
259743809,0,1743472186624765,10813469,364546999,1274021521,67314,87323,0.14,0.0085289,0.694,0.87200004,0.51,0.7,79,16,19.019001,-18.953001,1.5740001,0.261,3.0587502,0,nan,0.0,0.0,0.0,0,3,1,1,1,28,0
260245349,0,1743472187124765,10813469,364546149,1274021688,67227,87237,0.18400002,0.010573379,0.694,0.873,0.5,0.69,79,13,19.179,-18.648,4.4810004,0.17500001,2.905749,0,nan,0.0,0.0,0.0,0,3,1,1,1,28,0
260739961,0,1743472187624765,10813469,364545324,1274022009,67176,87186,0.185,0.009979967,0.69500005,0.874,0.52,0.7,79,13,19.326,-17.914001,7.2510004,-0.040000003,2.756965,0,nan,0.0,0.0,0.0,0,3,1,1,1,28,0
261244471,0,1743472188124765,10813469,364544543,1274022469,67256,87266,0.20400001,0.013400289,0.697,0.87900007,0.48,0.68,79,8,19.289001,-16.764,9.542001,-0.068,2.624145,0,nan,0.0,0.0,0.0,0,3,1,1,1,27,0
261744209,0,1743472188624765,10813469,364543827,1274023066,67395,87406,0.15400001,0.011052821,0.697,0.88100004,0.48,0.68,79,8,19.312,-15.341001,11.7300005,-0.455,2.4888206,0,nan,0.0,0.0,0.0,0,3,1,1,1,28,0
262247692,0,1743472189124765,10813469,364543192,1274023777,67536,87547,0.164,0.013698914,0.698,0.88100004,0.48,0.68,79,9,19.043001,-13.207001,13.719001,-0.16800001,2.337159,0,nan,0.0,0.0,0.0,0,3,1,1,1,28,0
262738092,0,1743472189624764,10813469,364542633,1274024570,67589,87600,0.13100001,0.012793438,0.69900006,0.88100004,0.48999998,0.7,79,9,18.875,-11.494,14.972001,-0.22700001,2.225531,0,nan,0.0,0.0,0.0,0,3,1,1,1,27,0
263245279,0,1743472190124764,10813469,364542158,1274025432,67596,87607,0.112,0.011680442,0.69900006,0.88100004,0.48,0.68,80,19,18.75,-9.675,16.061,0.123,2.112987,0,nan,0.0,0.0,0.0,0,3,1,1,1,28,0
263742813,0,1743472190624764,10813469,364541772,1274026349,67500,87511,0.106000006,0.01202078,0.69900006,0.88100004,0.48,0.68,80,19,18.479,-7.6440005,16.824001,0.49600002,1.9972552,0,nan,0.0,0.0,0.0,0,3,1,1,1,28,0
264245279,0,1743472191124764,10813469,364541481,1274027303,67328,87339,0.11100001,0.012578936,0.69900006,0.88100004,0.48999998,0.7,79,10,18.279001,-5.642,17.386002,0.3,1.8845893,0,nan,0.0,0.0,0.0,0,3,1,1,1,28,0
264742214,0,1743472191624764,10813469,364541290,1274028284,67099,87110,0.1,0.013072865,0.69900006,0.88100004,0.48,0.68,79,10,18.023,-3.0700002,17.759,0.097,1.7419733,0,nan,0.0,0.0,0.0,0,3,1,1,1,28,0
265239192,0,1743472192124764,10813469,364541173,1274029259,66298,86310,0.128,0.015709708,0.70000005,0.88100004,0.5,0.74,80,18,17.346,-2.2340002,17.201,2.4050002,1.6999454,0,nan,0.0,0.0,0.0,0,3,1,1,1,26,0
265738221,0,1743472192624764,10813469,364541068,1274030198,64815,84827,0.13700001,0.018402401,0.702,0.882,0.48999998,0.71999997,80,18,16.805,-2.2810001,16.649,3.2730002,1.7069585,0,nan,0.0,0.0,0.0,0,3,1,1,1,28,0
266238808,0,1743472193124764,10813469,364540967,1274031116,63470,83482,0.13700001,0.021430898,0.707,0.883,0.48999998,0.7,79,11,16.545,-2.4510002,16.362001,2.4250002,1.7194937,0,nan,0.0,0.0,0.0,0,3,1,1,1,27,0
266740845,0,1743472193624764,10813469,364540860,1274032021,62417,82429,0.134,0.01927367,0.711,0.88500005,0.48999998,0.71999997,79,11,16.44,-2.631,16.228,1.6240001,1.7315215,0,nan,0.0,0.0,0.0,0,3,1,1,1,27,0
267241817,0,1743472194124764,10813469,364540754,1274032923,61434,81447,0.14600001,0.019814199,0.71500003,0.88600004,0.48999998,0.71999997,80,14,16.318,-2.364,16.146,2.032,1.7161605,0,nan,0.0,0.0,0.0,0,3,1,1,1,26,0
267739818,0,1743472194624764,10813469,364540646,1274033828,60570,80583,0.15100001,0.018685669,0.71800005,0.887,0.5,0.74,80,14,16.42,-2.5430002,16.222,1.3360001,1.7263198,0,nan,0.0,0.0,0.0,0,3,1,1,1,26,0
268235814,0,1743472195124764,10813469,364540538,1274034734,59782,79795,0.142,0.016330872,0.72,0.887,0.5,0.74,91,15,16.457,-2.279,16.299002,1.3330001,1.7096959,0,nan,0.0,0.0,0.0,0,3,1,1,1,26,0
268738855,0,1743472195624763,10813469,364540437,1274035643,59026,79039,0.143,0.016096648,0.721,0.8880001,0.48999998,0.71,91,15,16.492,-2.3200002,16.328001,1.269,1.711939,0,nan,0.0,0.0,0.0,0,3,1,1,1,27,0
269236775,0,1743472196124763,10813469,364540328,1274036544,58540,78553,0.134,0.016728282,0.72200006,0.88900006,0.5,0.71,64,10,16.298,-2.384,16.123001,0.72800004,1.7176207,0,nan,0.0,0.0,0.0,0,3,1,1,1,27,0
269732931,0,1743472196624763,10813469,364540216,1274037429,58173,78186,0.134,0.01639283,0.72300005,0.89000005,0.5,0.71,64,10,15.991001,-2.582,15.781001,0.69000006,1.7329615,0,nan,0.0,0.0,0.0,0,3,1,1,1,26,0
270237828,0,1743472197124763,10813469,364540100,1274038291,57699,77713,0.134,0.016865464,0.725,0.89100003,0.5,0.71,55,7,15.485001,-2.6490002,15.2560005,0.67600006,1.7427032,0,nan,0.0,0.0,0.0,0,3,1,1,1,27,0
270739836,0,1743472197624763,10813469,364539992,1274039124,57172,77186,0.148,0.016356178,0.725,0.89300007,0.48999998,0.69,55,7,14.931001,-2.285,14.755001,0.84700006,1.7244365,0,nan,0.0,0.0,0.0,0,3,1,1,1,28,0
271238056,0,1743472198124763,10813469,364539881,1274039928,56454,76468,0.178,0.017634284,0.72700006,0.897,0.48999998,0.7,55,15,14.302001,-2.237,14.126,1.7090001,1.7278486,0,nan,0.0,0.0,0.0,0,3,1,1,1,28,0
271740255,0,1743472198624763,10813469,364539777,1274040702,55771,75786,0.165,0.017676344,0.72900003,0.90200007,0.48999998,0.7,55,15,13.857,-2.315,13.662001,1.1550001,1.7386672,0,nan,0.0,0.0,0.0,0,3,1,1,1,27,0
272245813,0,1743472199124763,10813469,364539680,1274041451,55057,75071,0.16100001,0.017346129,0.73,0.90500003,0.5,0.71,77,6,13.5130005,-2.0530002,13.356001,1.312,1.7233213,0,nan,0.0,0.0,0.0,0,3,1,1,1,27,0
272740958,0,1743472199624763,10813469,364539587,1274042184,54305,74319,0.17300001,0.018468026,0.731,0.906,0.48999998,0.7,77,6,13.243001,-1.9920001,13.092001,1.5730001,1.7218242,0,nan,0.0,0.0,0.0,0,3,1,1,1,27,0
273239805,0,1743472200124763,10813469,364539499,1274042901,53625,73640,0.17300001,0.019687662,0.73200005,0.90800005,0.48999998,0.7,88,6,12.9210005,-1.5840001,12.824,1.0,1.6936995,0,nan,0.0,0.0,0.0,0,3,1,1,1,27,0
273741810,0,1743472200624763,10813469,364539424,1274043611,53030,73045,0.172,0.02138639,0.734,0.91200006,0.48999998,0.7,88,6,12.863001,-1.5530001,12.768001,1.1910001,1.6918254,0,nan,0.0,0.0,0.0,0,3,1,1,1,28,0
274237803,0,1743472201124763,10813469,364539355,1274044318,52450,72465,0.158,0.020078791,0.73600006,0.915,0.48999998,0.7,94,12,12.898001,-1.5790001,12.801001,0.89900005,1.6935515,0,nan,0.0,0.0,0.0,0,3,1,1,1,27,0
274754827,0,1743472201624762,10813469,364539294,1274045031,51857,71872,0.16000001,0.020038823,0.73700005,0.91700006,0.48,0.68,94,12,12.993001,-1.4330001,12.913001,0.99600005,1.6813042,0,nan,0.0,0.0,0.0,0,3,1,1,1,27,0
275194837,0,1743472201999763,10813469,364539246,1274045568,51466,71481,0.172,0.019084826,0.73700005,0.91800004,0.5,0.71999997,94,6,13.009001,-1.5450001,12.917001,0.89900005,1.6898068,0,nan,0.0,0.0,0.0,0,3,1,1,1,27,0
275751034,0,1743472202624762,10813469,364539161,1274046466,50867,70883,0.17300001,0.017826967,0.74200004,0.92600006,0.48999998,0.7,94,6,13.0720005,-1.725,12.957001,0.51100004,1.7031733,0,nan,0.0,0.0,0.0,0,3,1,1,1,28,0
276198856,0,1743472202999763,10813469,364539108,1274046998,50592,70608,0.158,0.017349271,0.74200004,0.92800003,0.48999998,0.7,94,7,12.744,-1.6470001,12.637001,0.38000003,1.7004122,0,nan,0.0,0.0,0.0,0,3,1,1,1,27,0
276755079,0,1743472203624762,10813469,364539011,1274047870,50107,70122,0.163,0.016964251,0.74500006,0.93500006,0.48,0.68,94,7,12.596001,-1.8690001,12.456,0.89300007,1.719751,0,nan,0.0,0.0,0.0,0,3,1,1,1,27,0
277188850,0,1743472203999763,10813469,364538951,1274048386,49717,69733,0.15900001,0.017609324,0.74500006,0.93600005,0.48,0.68,94,6,12.478001,-1.8490001,12.34,1.0300001,1.719499,0,nan,0.0,0.0,0.0,0,3,1,1,1,28,0
277745282,0,1743472204624762,10813469,364538845,1274049239,49006,69022,0.162,0.017780716,0.748,0.94200003,0.48999998,0.7,94,6,12.383,-1.8670001,12.242001,1.013,1.7221365,0,nan,0.0,0.0,0.0,0,3,1,1,1,28,0
278184486,0,1743472204999763,10813469,364538782,1274049751,48530,68546,0.15900001,0.017731149,0.748,0.943,0.48999998,0.7,94,9,12.464001,-2.038,12.2960005,1.021,1.7350684,0,nan,0.0,0.0,0.0,0,3,1,1,1,27,0
278740933,0,1743472205624762,10813469,364538674,1274050604,47790,67807,0.156,0.016671559,0.75100005,0.94900006,0.48999998,0.7,94,9,12.543,-1.8730001,12.402,1.4380001,1.7206509,0,nan,0.0,0.0,0.0,0,3,1,1,1,27,0
279231816,0,1743472206124762,10813469,364538595,1274051292,47105,67121,0.16000001,0.014828491,0.75000006,0.94900006,0.48999998,0.7,66,12,12.650001,-1.6910001,12.537001,1.3720001,1.7048739,0,nan,0.0,0.0,0.0,0,3,1,1,1,28,0
279743214,0,1743472206624762,10813469,364538519,1274051989,46491,66507,0.186,0.019189546,0.75000006,0.95000005,0.48999998,0.7,66,12,12.764001,-1.4460001,12.682,1.064,1.6843362,0,nan,0.0,0.0,0.0,0,3,1,1,1,28,0
280234805,0,1743472207124762,10813469,364538447,1274052690,45981,65998,0.18,0.018731046,0.75100005,0.95400006,0.48,0.68,82,10,12.665001,-1.5740001,12.566001,0.98800004,1.6953691,0,nan,0.0,0.0,0.0,0,3,1,1,1,28,0
280731846,0,1743472207624761,10813469,364538367,1274053386,45595,65612,0.162,0.01835423,0.75100005,0.95500004,0.48,0.68,82,10,12.860001,-1.9640001,12.709001,0.67200005,1.7240819,0,nan,0.0,0.0,0.0,0,3,1,1,1,28,0
281235054,0,1743472208124761,10813469,364538290,1274054080,45035,65052,0.16000001,0.018838909,0.75100005,0.95600003,0.48,0.68,88,6,12.467001,-1.751,12.343,0.717,1.7117362,0,nan,0.0,0.0,0.0,0,3,1,1,1,28,0
281731692,0,1743472208624761,10813469,364538215,1274054766,44433,64450,0.172,0.02001945,0.75000006,0.95600003,0.48,0.68,88,6,12.308001,-1.9150001,12.158001,0.74300003,1.7269993,0,nan,0.0,0.0,0.0,0,3,1,1,1,28,0
282230837,0,1743472209124761,10813469,364538125,1274055443,43991,64009,0.177,0.018349867,0.75000006,0.957,0.48,0.68,71,10,12.324,-2.061,12.151001,0.70400006,1.7388382,0,nan,0.0,0.0,0.0,0,3,1,1,1,28,0
282735891,0,1743472209624761,10813469,364538030,1274056118,43598,63616,0.171,0.019009601,0.75100005,0.96000004,0.48999998,0.69,71,10,12.333,-2.115,12.150001,0.864,1.7431078,0,nan,0.0,0.0,0.0,0,3,1,1,1,27,0
283232947,0,1743472210124761,10813469,364537944,1274056797,43143,63161,0.164,0.0212054,0.75100005,0.961,0.48999998,0.7,61,6,12.162001,-1.904,12.012001,0.62700003,1.7279994,0,nan,0.0,0.0,0.0,0,3,1,1,1,27,0
283743806,0,1743472210624761,10813469,364537856,1274057475,42650,62668,0.164,0.020586856,0.75100005,0.9620001,0.48,0.68,61,6,12.503,-2.2440002,12.3,0.95900005,1.7512343,0,nan,0.0,0.0,0.0,0,3,1,1,1,28,0
284240813,0,1743472211124761,10813469,364537771,1274058160,42097,62115,0.172,0.022298152,0.75200003,0.9620001,0.48,0.68,75,6,12.464001,-1.7860001,12.336,0.86700004,1.7146094,0,nan,0.0,0.0,0.0,0,3,1,1,1,28,0
284737813,0,1743472211624761,10813469,364537687,1274058840,41470,61488,0.17300001,0.023380954,0.753,0.9620001,0.48999998,0.7,75,6,12.433001,-2.196,12.238001,1.067,1.748372,0,nan,0.0,0.0,0.0,0,3,1,1,1,27,0
285237043,0,1743472212124761,10813469,364537597,1274059528,40826,60844,0.19600001,0.022814943,0.754,0.96300006,0.48,0.68,86,6,12.622001,-1.746,12.501,1.3540001,1.7095944,0,nan,0.0,0.0,0.0,0,3,1,1,1,28,0
285735813,0,1743472212624761,10813469,364537515,1274060235,40197,60215,0.208,0.025170963,0.757,0.96800005,0.48,0.68,86,6,13.075001,-1.7830001,12.953001,0.96800005,1.7076005,0,nan,0.0,0.0,0.0,0,3,1,1,1,28,0
286236198,0,1743472213124761,10813469,364537441,1274060957,39760,59779,0.194,0.02118306,0.75900006,0.97200006,0.48,0.68,92,6,13.082001,-1.6500001,12.977,0.63600004,1.697285,0,nan,0.0,0.0,0.0,0,3,1,1,1,28,0
286736043,0,1743472213624760,10813469,364537366,1274061684,39368,59387,0.16600001,0.020356996,0.76000005,0.97400004,0.48,0.68,92,6,13.099001,-1.6960001,12.989,0.763,1.7006557,0,nan,0.0,0.0,0.0,0,3,1,1,1,28,0
287233821,0,1743472214124760,10813469,364537291,1274062408,38855,58874,0.172,0.02034059,0.76100004,0.97400004,0.48,0.68,80,6,13.110001,-1.8010001,12.985001,1.2,1.7086134,0,nan,0.0,0.0,0.0,0,3,1,1,1,28,0
287742274,0,1743472214624760,10813469,364537203,1274063125,38417,58436,0.162,0.019705988,0.76000005,0.97200006,0.48,0.68,80,6,12.982,-1.8750001,12.846001,1.103,1.7157515,0,nan,0.0,0.0,0.0,0,3,1,1,1,28,0
288242806,0,1743472215124760,10813469,364537117,1274063843,37798,57817,0.193,0.018514104,0.76000005,0.97200006,0.48,0.68,80,16,13.05,-2.026,12.892,1.0890001,1.7266895,0,nan,0.0,0.0,0.0,0,3,1,1,1,28,0
288739737,0,1743472215624760,10813469,364537032,1274064561,37180,57199,0.19000001,0.019560952,0.76000005,0.97300005,0.48999998,0.7,80,16,13.22,-2.094,13.053,0.689,1.7298911,0,nan,0.0,0.0,0.0,0,3,1,1,1,28,0
289238373,0,1743472216124760,10813469,364536948,1274065288,36564,56584,0.19600001,0.022171965,0.76100004,0.97400004,0.48,0.68,92,15,13.143001,-1.9660001,12.995001,0.712,1.720917,0,nan,0.0,0.0,0.0,0,3,1,1,1,27,0
289738298,0,1743472216624760,10813469,364536866,1274066011,36165,56184,0.17600001,0.021672975,0.763,0.9760001,0.5,0.71,92,15,13.245001,-1.593,13.149,1.32,1.6913576,0,nan,0.0,0.0,0.0,0,3,1,1,1,27,0
290240844,0,1743472217124760,10813469,364536784,1274066728,35754,55774,0.158,0.020371133,0.763,0.975,0.5,0.71,92,12,12.76,-2.4780002,12.517,0.386,1.7662337,0,nan,0.0,0.0,0.0,0,3,1,1,1,27,0
290737910,0,1743472217624760,10813469,364536681,1274067440,35262,55282,0.15400001,0.021800209,0.763,0.97400004,0.5,0.71,92,12,13.041,-2.0960002,12.871,1.2260001,1.73224,0,nan,0.0,0.0,0.0,0,3,1,1,1,26,0
291239166,0,1743472218124760,10813469,364536577,1274068144,34823,54843,0.21400002,0.03562374,0.771,0.97800004,0.52,0.72999996,92,12,12.852,-2.322,12.64,1.246,1.7524952,0,nan,0.0,0.0,0.0,0,3,1,1,1,26,0
291743428,0,1743472218624760,10813469,364536461,1274068834,34439,54459,0.21200001,0.02591901,0.776,0.984,0.52,0.72999996,92,12,12.553,-2.8170002,12.233001,0.23600002,1.7971749,0,nan,0.0,0.0,0.0,0,3,1,1,1,26,0
292239864,0,1743472219124760,10813469,364536354,1274069500,33929,53950,0.20500001,0.02904891,0.78000003,0.989,0.52,0.72999996,92,7,11.854,-1.7700001,11.721001,1.733,1.7206401,0,nan,0.0,0.0,0.0,0,3,1,1,1,27,0
292740152,0,1743472219624760,10813469,364536265,1274070124,33158,53179,0.23900001,0.057919797,0.78400004,0.99600005,0.52,0.72999996,92,7,9.798,-1.7820001,9.635,-0.4,1.753681,0,nan,0.0,0.0,0.0,0,3,1,1,1,27,0
293237835,0,1743472220124759,10813469,364536210,1274070559,33130,53150,0.201,0.06958331,0.79700005,1.006,0.52,0.72999996,86,8,6.018,-1.169,5.9030004,-0.001,1.7398394,0,nan,0.0,0.0,0.0,0,3,1,1,1,27,0
293740370,0,1743472220624759,10813469,364536155,1274070815,33044,53065,0.15400001,0.0888966,0.80200005,1.008,0.52,0.72999996,86,8,3.5900002,-0.68200004,3.525,0.067,1.793263,0,nan,0.0,0.0,0.0,0,3,1,1,1,26,0
294241849,0,1743472221124759,10813469,364536125,1274070937,33029,53050,0.128,0.22579236,0.80200005,1.006,0.52,0.72999996,75,18,1.166,-0.43800002,1.0810001,-0.081,1.8842613,0,nan,0.0,0.0,0.0,0,3,1,1,1,27,0
294739006,0,1743472221624759,10813469,364536118,1274070942,33014,53035,0.156,0.57856476,0.8,1.0040001,0.5,0.71,75,18,0.062000003,0.030000001,0.054,-0.053000003,3.4529808,0,nan,0.0,0.0,0.0,0,3,1,1,1,27,0
295239817,0,1743472222124759,10813469,364536115,1274070941,33030,53051,0.155,0.5785845,0.79700005,0.9990001,0.5,0.72999996,80,8,0.023000002,-0.022000002,-0.007,0.042000003,3.4529808,0,nan,0.0,0.0,0.0,0,3,1,1,1,27,0
295739985,0,1743472222624759,10813469,364536113,1274070938,33030,53051,0.208,0.7536919,0.794,0.99500006,0.5,0.71,80,8,0.068,0.063,0.026,-0.007,2.3728566,0,nan,0.0,0.0,0.0,0,3,1,1,1,27,0
296237760,0,1743472223124759,10813469,364536110,1274070935,33034,53055,0.186,0.7537087,0.79,0.989,0.5,0.71,80,9,0.089,-0.066,-0.060000002,-0.056,2.3728566,0,nan,0.0,0.0,0.0,0,3,1,1,1,27,0
296737814,0,1743472223624759,10813469,364536107,1274070931,33048,53069,0.134,0.7537225,0.785,0.984,0.52,0.72999996,80,9,0.036000002,0.034,-0.012,-0.017,2.3728566,0,nan,0.0,0.0,0.0,0,3,1,1,1,26,0
297240957,0,1743472224124759,10813469,364536104,1274070927,33043,53064,0.16100001,0.7573613,0.781,0.97900003,0.52,0.72999996,80,11,0.11400001,-0.086,-0.075,-0.010000001,3.1119056,0,nan,0.0,0.0,0.0,0,3,1,1,1,26,0
297749827,0,1743472224624759,10813469,364536100,1274070924,33051,53072,0.157,0.7573755,0.776,0.97400004,0.52,0.72999996,80,11,0.018000001,0.015000001,0.010000001,0.040000003,3.1119056,0,nan,0.0,0.0,0.0,0,3,1,1,1,27,0
