timestamp,timestamp_sample,baro_device_id,baro_alt_meter,baro_temp_celcius,baro_pressure_pa,rho,calibration_count
173912751,173872113,3997706,-69.725525,23.289997,102165.29,1.237169,0
174025715,174025352,3997706,-69.95277,23.289999,102168.0,1.2372018,0
174208549,174178016,3997706,-69.75724,23.289999,102165.664,1.2371734,0
174412546,174382214,3997706,-69.5617,23.294998,102163.336,1.2371453,0
174616244,174585661,3997706,-69.68854,23.295,102164.836,1.2371635,0
174820009,174789624,3997706,-69.799515,23.300001,102166.164,1.2371795,0
175024807,174994139,3997706,-69.92106,23.300001,102167.664,1.2371978,0
175228921,175197909,3997706,-69.66212,23.31,102164.5,1.2371595,0
175351115,175351016,3997706,-69.70439,23.31,102165.0,1.2371656,0
175554313,175554209,3997706,-69.53528,23.31,102163.0,1.2371413,0
175758073,175757852,3997706,-70.11659,23.32,102170.0,1.237226,0
175960245,175960177,3997706,-69.53528,23.32,102163.0,1.2371413,0
176163783,176163711,3997706,-69.12308,23.32,102158.0,1.2370807,0
176365717,176365645,3997706,-69.45073,23.32,102162.0,1.2371291,0
176568741,176568671,3997706,-69.70439,23.33,102165.0,1.2371656,0
176770914,176770812,3997706,-69.619835,23.33,102164.0,1.2371533,0
176974634,176974563,3997706,-69.53528,23.33,102163.0,1.2371413,0
177177956,177177881,3997706,-69.37146,23.33,102161.0,1.237117,0
177381718,177381641,3997706,-69.37146,23.33,102161.0,1.236697,0
177585659,177585587,3997706,-69.619835,23.34,102164.0,1.2367333,0
177789466,177789392,3997706,-69.70439,23.34,102165.0,1.2367455,0
177993951,177993780,3997706,-69.78366,23.34,102166.0,1.2371776,0
178197827,178197748,3997706,-70.032036,23.35,102169.0,1.2367939,0
178401572,178401504,3997706,-70.444244,23.34,102174.0,1.2368544,0
178605588,178605492,3997706,-71.273926,23.35,102184.0,1.2373955,0
178810518,178810447,3997706,-70.61335,23.35,102176.0,1.2372986,0
179014057,179013732,3997706,-71.43775,23.35,102186.0,1.2378403,0
179218131,179218062,3997706,-71.43775,23.359999,102186.0,1.2378403,0
179422395,179422287,3997706,-70.861725,23.359999,102179.0,1.2381761,0
179626374,179626268,3997706,-71.84995,23.35,102191.0,1.2387427,0
179820099,179779298,3997706,-71.2158,23.347141,102183.29,1.2386492,0
180024022,179983120,3997706,-71.03612,23.339998,102181.14,1.2390445,0
180136383,180136308,3997706,-71.52231,23.34,102187.0,1.2395372,0
180339900,180339817,3997706,-70.940994,23.33,102180.0,1.2398742,0
180543156,180543085,3997706,-71.52231,23.33,102187.0,1.2399591,0
180746460,180746261,3997706,-71.77068,23.31,102190.0,1.2404176,0
180948817,180948736,3997706,-71.273926,23.31,102184.0,1.2407674,0
181151838,181151768,3997706,-71.43775,23.3,102186.0,1.2412143,0
181355685,181355616,3997706,-71.1101,23.289999,102182.0,1.2411658,0
181557814,181557690,3997706,-70.19586,23.279999,102171.0,1.2414551,0
181760859,181760665,3997706,-69.45073,23.269999,102162.0,1.241769,0
181964304,181964012,3997706,-69.95277,23.26,102168.0,1.2422655,0
182167235,182167125,3997706,-68.790146,23.25,102154.0,1.2425191,0
182370976,182370890,3997706,-67.55354,23.23,102139.0,1.2423366,0
182573802,182573729,3997706,-66.88768,23.23,102131.0,1.2422394,0
182776190,182776091,3997706,-65.481964,23.21,102114.0,1.2424564,0
182980428,182980331,3997706,-65.15431,23.199999,102110.0,1.2424078,0
183183229,183183158,3997706,-63.331116,23.189999,102088.0,1.2425642,0
183386494,183386421,3997706,-62.755093,23.17,102081.0,1.242479,0
183588877,183588808,3997706,-61.5132,23.16,102066.0,1.2427206,0
183791909,183791838,3997706,-61.259537,23.15,102063.0,1.2426841,0
183994072,183993966,3997706,-59.19324,23.13,102038.0,1.2428043,0
184197814,184197700,3997706,-58.36884,23.119999,102028.0,1.2431071,0
184401551,184401483,3997706,-58.36884,23.109999,102028.0,1.2431071,0
184605581,184605470,3997706,-57.37004,23.1,102016.0,1.243386,0
184809252,184809181,3997706,-56.54564,23.09,102006.0,1.2432641,0
185014301,185014229,3997706,-55.46757,23.07,101993.0,1.2435306,0
185217829,185217727,3997706,-54.80699,23.06,101985.0,1.2438586,0
185421927,185421856,3997706,-53.395992,23.05,101968.0,1.2436513,0
185626612,185626514,3997706,-52.566307,23.029999,101958.0,1.243955,0
185829521,185829425,3997706,-51.905727,23.01,101950.0,1.2442831,0
186013185,185981790,3997706,-51.287422,23.005,101942.5,1.2441916,0
186215672,186185125,3997706,-50.288624,22.99,101930.5,1.2440451,0
186418452,186387895,3997706,-49.807724,22.975,101924.664,1.2439739,0
186621012,186590804,3997706,-49.089012,22.964998,101916.0,1.2442942,0
186823680,186793021,3997706,-48.285748,22.949999,101906.336,1.2446023,0
187027258,186996121,3997706,-47.752,22.94,101899.836,1.2449495,0
187148231,187148144,3997706,-46.187748,22.93,101881.0,1.2447194,0
187351497,187351426,3997706,-46.351566,22.92,101883.0,1.2447438,0
187555243,187555176,3997706,-45.025127,22.91,101867.0,1.2445484,0
187758547,187758467,3997706,-45.194233,22.89,101869.0,1.2449994,0
187961841,187961771,3997706,-44.27999,22.88,101858.0,1.245292,0
188166256,188166181,3997706,-43.371033,22.859999,101847.0,1.2451575,0
188370203,188370133,3997706,-42.37224,22.859999,101835.0,1.2454379,0
188574610,188574539,3997706,-42.37224,22.84,101835.0,1.2454379,0
188778377,188778302,3997706,-40.966522,22.83,101818.0,1.2456573,0
188982395,188982282,3997706,-39.640076,22.82,101802.0,1.2454616,0
189187118,189186762,3997706,-39.8039,22.8,101804.0,1.245486,0
189391038,189390910,3997706,-38.556725,22.789999,101789.0,1.24573,0
189594995,189594916,3997706,-38.392902,22.769999,101787.0,1.2461333,0
189799593,189799523,3997706,-36.902634,22.76,101769.0,1.2459129,0
190002518,190002448,3997706,-36.152218,22.75,101760.0,1.2458028,0
190207329,190207244,3997706,-35.158703,22.74,101748.0,1.2456559,0
190411312,190411236,3997706,-34.82577,22.73,101744.0,1.2460349,0
190615248,190615149,3997706,-34.41357,22.71,101739.0,1.2459736,0
190818973,190818903,3997706,-32.918015,22.699999,101721.0,1.2457532,0
191022723,191022652,3997706,-32.336708,22.68,101714.0,1.2460954,0
191226701,191226597,3997706,-32.003777,22.67,101710.0,1.2460463,0
191420626,191379897,3997706,-31.147663,22.660002,101699.71,1.2463487,0
191624373,191583777,3997706,-30.603346,22.647142,101693.14,1.2462682,0
191827645,191787094,3997706,-29.630972,22.64,101681.43,1.2461247,0
191939571,191939500,3997706,-29.097223,22.63,101675.0,1.246046,0
192142870,192142798,3997706,-27.5224,22.609999,101656.0,1.2462415,0
192346586,192346493,3997706,-27.437845,22.6,101655.0,1.2462293,0
192549862,192549512,3997706,-27.189468,22.59,101652.0,1.2461926,0
192752227,192752156,3997706,-26.111403,22.58,101639.0,1.2460331,0
192955140,192955068,3997706,-25.197159,22.57,101628.0,1.2463267,0
193157423,193157352,3997706,-24.700405,22.56,101622.0,1.2462533,0
193360446,193360351,3997706,-23.617054,22.539999,101609.0,1.2460938,0
193563927,193563694,3997706,-23.28412,22.529999,101605.0,1.2460446,0
193767988,193767912,3997706,-23.28412,22.519999,101605.0,1.2464736,0
193971554,193971301,3997706,-22.62354,22.5,101597.0,1.2463754,0
194175395,194175030,3997706,-22.454433,22.5,101595.0,1.2463509,0
194377816,194377742,3997706,-21.957676,22.48,101589.0,1.2462772,0
194581082,194581013,3997706,-22.036945,22.47,101590.0,1.2467184,0
194784813,194784737,3997706,-21.873121,22.46,101588.0,1.246694,0
194988207,194988135,3997706,-21.291811,22.449999,101581.0,1.246608,0
195190671,195190602,3997706,-21.291811,22.439999,101581.0,1.2470374,0
195393765,195393697,3997706,-21.291811,22.43,101581.0,1.2470374,0
195595853,195595778,3997706,-21.207256,22.42,101580.0,1.2470251,0
195799404,195799321,3997706,-20.625946,22.42,101573.0,1.2469392,0
196002719,196002627,3997706,-20.625946,22.41,101573.0,1.2469392,0
196206145,196206023,3997706,-21.127987,22.4,101579.0,1.2474424,0
196410418,196410312,3997706,-20.546677,22.4,101572.0,1.2473564,0
196614809,196614731,3997706,-20.462122,22.39,101571.0,1.2469146,0
196818164,196818036,3997706,-20.37757,22.39,101570.0,1.2473319,0
197021380,197021236,3997706,-20.95888,22.39,101577.0,1.2474178,0
197223783,197223706,3997706,-21.043432,22.38,101578.0,1.2474301,0
197427027,197426956,3997706,-21.46092,22.38,101583.0,1.2479213,0
197610299,197579271,3997706,-21.249535,22.374998,101580.5,1.2478907,0
197812812,197782517,3997706,-21.386934,22.369997,101582.164,1.2479111,0
198015993,197985533,3997706,-21.556044,22.375,101584.164,1.2479357,0
198219592,198188997,3997706,-22.079222,22.369997,101590.5,1.2480135,0
198421733,198391533,3997706,-22.454433,22.369997,101595.0,1.2480688,0
198624835,198594190,3997706,-22.967041,22.359999,101601.164,1.2485746,0
198746785,198746709,3997706,-23.86543,22.359999,101612.0,1.2482777,0
198950533,198950461,3997706,-23.617054,22.35,101609.0,1.248671,0
199154960,199154889,3997706,-24.864227,22.35,101624.0,1.2488554,0
199358885,199358814,3997706,-25.197159,22.34,101628.0,1.2489045,0
199561710,199561607,3997706,-25.445538,22.33,101631.0,1.2489414,0
199764978,199764780,3997706,-25.530092,22.32,101632.0,1.2489537,0
199967405,199967307,3997706,-26.523605,22.31,101644.0,1.2491012,0
200171101,200171034,3997706,-26.444336,22.3,101643.0,1.2490888,0
200374405,200374307,3997706,-26.275225,22.289999,101641.0,1.2490642,0
200576762,200576689,3997706,-27.104916,22.279999,101651.0,1.2496179,0
200779338,200779116,3997706,-26.94109,22.26,101649.0,1.2495934,0
200981739,200981672,3997706,-26.771982,22.25,101647.0,1.2495688,0
201185476,201185408,3997706,-27.020359,22.24,101650.0,1.2496057,0
201388336,201388231,3997706,-26.856535,22.23,101648.0,1.2495811,0
201592036,201591790,3997706,-26.692713,22.21,101646.0,1.2495565,0
201794169,201794097,3997706,-26.771982,22.199999,101647.0,1.2495688,0
201997679,201997609,3997706,-26.608158,22.189999,101645.0,1.2499753,0
202200671,202200474,3997706,-26.444336,22.17,101643.0,1.2499506,0
202403347,202403272,3997706,-26.523605,22.16,101644.0,1.249963,0
202606692,202606567,3997706,-26.275225,22.15,101641.0,1.2499261,0
202809826,202809728,3997706,-25.857738,22.14,101636.0,1.2498646,0
203012523,203012428,3997706,-26.026848,22.13,101638.0,1.2498893,0
203216224,203216115,3997706,-26.026848,22.119999,101638.0,1.2498893,0
203419498,203419426,3997706,-25.857738,22.109999,101636.0,1.2498646,0
203623758,203623685,3997706,-25.530092,22.09,101632.0,1.2498155,0
203817615,203776562,3997706,-25.78904,22.087143,101635.14,1.249854,0
204021601,203980871,3997706,-25.693914,22.077145,101634.0,1.24984,0
204224396,204184010,3997706,-25.609362,22.069998,101633.0,1.2502589,0
204428078,204387543,3997706,-25.197159,22.06,101628.0,1.2501974,0
204539981,204539910,3997706,-25.028051,22.06,101626.0,1.2501729,0
204743251,204742887,3997706,-25.028051,22.05,101626.0,1.2501729,0
204945724,204945609,3997706,-24.615849,22.05,101621.0,1.2501112,0
205148781,205148670,3997706,-24.615849,22.05,101621.0,1.2501112,0
205352150,205351815,3997706,-23.453228,22.039999,101607.0,1.2499391,0
205554586,205554512,3997706,-23.28412,22.05,101605.0,1.2499144,0
205757316,205757192,3997706,-23.204851,22.039999,101604.0,1.2499021,0
205961090,205960725,3997706,-22.454433,22.039999,101595.0,1.2497915,0
206163804,206163728,3997706,-22.787363,22.039999,101599.0,1.2498406,0
206369492,206368444,3997706,-22.538986,22.029999,101596.0,1.2498038,0
206572637,206572566,3997706,-22.206053,22.029999,101592.0,1.2497545,0
206776885,206776798,3997706,-22.538986,22.029999,101596.0,1.2498038,0
206980117,206979884,3997706,-22.1215,22.02,101591.0,1.2501737,0
207185247,207185178,3997706,-22.454433,22.01,101595.0,1.2502229,0
207388951,207388883,3997706,-22.787363,22.01,101599.0,1.2502722,0
208000614,208000539,3997706,-24.531294,21.99,101620.0,1.2505306,0
208613271,208613194,3997706,-25.530092,21.96,101632.0,1.2506783,0
208816757,208816675,3997706,-25.445538,21.949999,101631.0,1.250666,0
209020849,209020707,3997706,-25.530092,21.939999,101632.0,1.2506783,0
209225133,209225024,3997706,-25.609362,21.93,101633.0,1.2506906,0
209409434,209378230,3997706,-25.65164,21.92,101633.5,1.2506967,0
209612954,209582408,3997706,-25.762617,21.910002,101634.836,1.2507132,0
209816699,209785909,3997706,-25.974,21.9,101637.336,1.250744,0
210019972,209989398,3997706,-25.762617,21.89,101634.836,1.2507132,0
210223474,210192670,3997706,-25.556515,21.88,101632.336,1.2506824,0
210425575,210395243,3997706,-25.65164,21.874998,101633.5,1.2506967,0
210547585,210547514,3997706,-25.360985,21.869999,101630.0,1.2506537,0
210749529,210749387,3997706,-26.026848,21.859999,101638.0,1.2507521,0
210952289,210952218,3997706,-24.198364,21.85,101616.0,1.2504814,0
211154932,211154830,3997706,-24.452024,21.84,101619.0,1.2500867,0
211358147,211358072,3997706,-24.282917,21.84,101617.0,1.2500621,0
211562144,211562017,3997706,-23.786161,21.83,101611.0,1.2499883,0
211765848,211765777,3997706,-24.531294,21.83,101620.0,1.250099,0
211969612,211969541,3997706,-23.949984,21.83,101613.0,1.2500129,0
212173739,212173029,3997706,-24.113808,21.82,101615.0,1.2500376,0
212376419,212376318,3997706,-24.531294,21.81,101620.0,1.250099,0
212579584,212579270,3997706,-24.282917,21.81,101617.0,1.2496309,0
212781996,212781917,3997706,-24.700405,21.789999,101622.0,1.2501236,0
212985981,212985912,3997706,-25.112604,21.789999,101627.0,1.2501851,0
213188978,213188907,3997706,-25.028051,21.779999,101626.0,1.2497417,0
213391478,213391390,3997706,-25.530092,21.779999,101632.0,1.2502466,0
213594677,213594609,3997706,-25.281715,21.77,101629.0,1.2502098,0
213797470,213797250,3997706,-25.693914,21.75,101634.0,1.2502712,0
214000396,214000247,3997706,-25.942295,21.74,101637.0,1.2503082,0
214204079,214204002,3997706,-25.942295,21.73,101637.0,1.2503082,0
214408823,214408499,3997706,-26.523605,21.72,101644.0,1.2503943,0
214612647,214612443,3997706,-26.275225,21.71,101641.0,1.2503573,0
214816701,214816629,3997706,-26.856535,21.689999,101648.0,1.2504435,0
215021300,215021229,3997706,-26.692713,21.689999,101646.0,1.2504189,0
215224308,215224188,3997706,-27.437845,21.68,101655.0,1.2505295,0
215417869,215376570,3997706,-26.89353,21.67,101648.43,1.2504487,0
215620472,215579881,3997706,-27.321585,21.65714,101653.57,1.250512,0
215823458,215782675,3997706,-27.141907,21.647142,101651.43,1.2504857,0
216026092,215985594,3997706,-27.131338,21.632856,101651.29,1.2504839,0
216229546,216189204,3997706,-27.485409,21.619997,101655.57,1.2509683,0
216341251,216341178,3997706,-27.437845,21.609999,101655.0,1.2509613,0
216544358,216544279,3997706,-27.5224,21.609999,101656.0,1.2505418,0
216748114,216747315,3997706,-27.189468,21.59,101652.0,1.2504927,0
216949911,216949843,3997706,-26.523605,21.58,101644.0,1.2503943,0
217153226,217153154,3997706,-26.771982,21.57,101647.0,1.2508628,0
217356454,217356225,3997706,-26.856535,21.55,101648.0,1.2508751,0
217560904,217560833,3997706,-26.856535,21.539999,101648.0,1.2508751,0
217765299,217765231,3997706,-26.523605,21.539999,101644.0,1.250826,0
217969262,217969177,3997706,-26.35978,21.52,101642.0,1.2508013,0
218172996,218172928,3997706,-26.275225,21.52,101641.0,1.250789,0
218377897,218377575,3997706,-26.35978,21.5,101642.0,1.2503697,0
218581793,218581387,3997706,-25.693914,21.5,101634.0,1.2507029,0
218785608,218785537,3997706,-25.942295,21.48,101637.0,1.2507398,0
218989609,218989509,3997706,-25.693914,21.47,101634.0,1.2507029,0
219193761,219193669,3997706,-25.112604,21.47,101627.0,1.2506167,0
219397133,219397047,3997706,-25.197159,21.46,101628.0,1.250629,0
219601894,219601819,3997706,-24.198364,21.449999,101616.0,1.2504814,0
219805380,219805305,3997706,-23.701607,21.449999,101610.0,1.2504076,0
220009591,220009516,3997706,-23.368673,21.449999,101606.0,1.2503582,0
220213531,220213457,3997706,-23.617054,21.439999,101609.0,1.2503953,0
220417276,220417201,3997706,-22.70281,21.439999,101598.0,1.2502599,0
220622625,220622553,3997706,-22.951187,21.43,101601.0,1.2502968,0
220826001,220825653,3997706,-22.951187,21.42,101601.0,1.2502968,0
221009875,220978727,3997706,-22.70281,21.42,101598.0,1.2502599,0
221212814,221182459,3997706,-22.856064,21.414999,101599.836,1.2502824,0
221416536,221385773,3997706,-23.051596,21.4,101602.164,1.2503111,0
221621285,221590251,3997706,-22.871918,21.394999,101600.0,1.2502846,0
221824255,221793443,3997706,-23.162573,21.39,101603.5,1.2503276,0
222027098,221996856,3997706,-23.358105,21.38,101605.836,1.2503563,0
222149032,222148931,3997706,-23.617054,21.369999,101609.0,1.2503953,0
222352746,222352674,3997706,-24.113808,21.369999,101615.0,1.2504691,0
222556508,222556413,3997706,-24.282917,21.359999,101617.0,1.2504936,0
222760451,222760384,3997706,-24.282917,21.35,101617.0,1.2504936,0
222963341,222963255,3997706,-24.864227,21.33,101624.0,1.2505798,0
223165589,223165511,3997706,-24.779675,21.33,101623.0,1.2505676,0
223369000,223368394,3997706,-25.693914,21.32,101634.0,1.2507029,0
223571221,223571152,3997706,-25.360985,21.31,101630.0,1.2506537,0
223775156,223774948,3997706,-25.609362,21.3,101633.0,1.2506906,0
223978264,223978185,3997706,-25.693914,21.289999,101634.0,1.2507029,0
224182491,224182402,3997706,-25.445538,21.27,101631.0,1.250666,0
224385954,224385885,3997706,-26.190672,21.27,101640.0,1.2507766,0
224589215,224589100,3997706,-25.609362,21.26,101633.0,1.2506906,0
224792779,224792697,3997706,-25.360985,21.25,101630.0,1.2506537,0
224994903,224994793,3997706,-25.028051,21.23,101626.0,1.2506044,0
225197857,225197782,3997706,-24.948782,21.23,101625.0,1.2505921,0
225400283,225400211,3997706,-25.112604,21.21,101627.0,1.2506167,0
225603543,225603469,3997706,-24.452024,21.199999,101619.0,1.2505183,0
225805686,225805597,3997706,-24.452024,21.189999,101619.0,1.2505183,0
226009479,226009384,3997706,-24.864227,21.18,101624.0,1.2505798,0
226213143,226213053,3997706,-24.198364,21.17,101616.0,1.2504814,0
226416419,226416349,3997706,-22.951187,21.16,101601.0,1.2502968,0
226620874,226620782,3997706,-22.871918,21.15,101600.0,1.2502846,0
226824577,226824503,3997706,-22.871918,21.15,101600.0,1.2502846,0
227018523,226977658,3997706,-22.015806,21.14,101589.71,1.2501578,0
227223234,227182184,3997706,-21.672304,21.137142,101585.57,1.2501069,0
227426967,227386233,3997706,-20.93774,21.132856,101576.71,1.249998,0
227538833,227538728,3997706,-20.795055,21.13,101575.0,1.2499768,0
227742822,227742751,3997706,-20.213745,21.119999,101568.0,1.2498907,0
227947180,227947088,3997706,-19.632435,21.119999,101561.0,1.2498045,0
228151091,228151023,3997706,-19.299501,21.119999,101557.0,1.2497554,0
228355331,228355239,3997706,-18.882015,21.109999,101552.0,1.2496938,0
228559314,228559211,3997706,-18.633638,21.1,101549.0,1.2496569,0
228764118,228763763,3997706,-18.79746,21.09,101551.0,1.2496815,0
228967936,228967703,3997706,-18.882015,21.08,101552.0,1.2496938,0
229171641,229171348,3997706,-18.38526,21.08,101546.0,1.2500514,0
229376038,229375960,3997706,-18.882015,21.07,101552.0,1.2501252,0
229579246,229579052,3997706,-18.79746,21.06,101551.0,1.2496815,0
229783725,229783654,3997706,-19.130394,21.06,101555.0,1.2501622,0
229987688,229987588,3997706,-19.051125,21.039999,101554.0,1.2497183,0
230192080,230192012,3997706,-19.130394,21.029999,101555.0,1.2501622,0
230396500,230395736,3997706,-19.711704,21.029999,101562.0,1.2502484,0
230599759,230599689,3997706,-20.044636,21.02,101566.0,1.2502975,0
230802532,230802461,3997706,-19.880812,21.01,101564.0,1.250273,0
231006131,231006057,3997706,-20.37757,21.0,101570.0,1.2503469,0
231208719,231208620,3997706,-19.965366,21.0,101565.0,1.2502853,0
231411936,231411869,3997706,-20.625946,20.98,101573.0,1.2503837,0
231615160,231615088,3997706,-20.37757,20.97,101570.0,1.2503469,0
231817618,231817513,3997706,-20.462122,20.96,101571.0,1.2503592,0
232020648,232020549,3997706,-20.625946,20.949999,101573.0,1.2503837,0
232222534,232222466,3997706,-20.874325,20.939999,101576.0,1.2504207,0
232426272,232426200,3997706,-21.043432,20.939999,101578.0,1.2504454,0
232610128,232579400,3997706,-20.985302,20.93,101577.336,1.2504371,0
232814072,232783512,3997706,-21.207256,20.925001,101580.0,1.2504699,0
233017827,232987111,3997706,-21.127987,20.92,101579.0,1.2504576,0
233221856,233191234,3997706,-21.138557,20.910002,101579.164,1.2504597,0
233426495,233395547,3997706,-21.46092,20.9,101583.0,1.2505069,0
233548311,233547963,3997706,-21.043432,20.9,101578.0,1.2504454,0
233750782,233750688,3997706,-21.46092,20.89,101583.0,1.2505069,0
233953848,233953775,3997706,-21.54019,20.89,101584.0,1.2505192,0
234156437,234156333,3997706,-22.036945,20.89,101590.0,1.250593,0
234359655,234359578,3997706,-22.036945,20.89,101590.0,1.250593,0
234562709,234562618,3997706,-22.787363,20.88,101599.0,1.2507038,0
234764789,234764696,3997706,-22.206053,20.88,101592.0,1.2506177,0
234968811,234968268,3997706,-22.206053,20.869999,101592.0,1.2510498,0
235171647,235171573,3997706,-22.454433,20.859999,101595.0,1.2506546,0
235375033,235374915,3997706,-22.787363,20.859999,101599.0,1.2507038,0
235578746,235578558,3997706,-22.454433,20.85,101595.0,1.2506546,0
235782663,235782592,3997706,-23.701607,20.85,101610.0,1.2512714,0
235985180,235985090,3997706,-22.871918,20.84,101600.0,1.2507162,0
236187798,236187576,3997706,-24.282917,20.84,101617.0,1.2513576,0
236389612,236389516,3997706,-23.617054,20.83,101609.0,1.2512591,0
236592924,236592622,3997706,-23.453228,20.83,101607.0,1.2512345,0
236795241,236795168,3997706,-23.453228,20.82,101607.0,1.2508024,0
236998777,236998706,3997706,-24.113808,20.81,101615.0,1.2509009,0
237202084,237202012,3997706,-23.617054,20.8,101609.0,1.2512591,0
237405486,237405143,3997706,-23.453228,20.8,101607.0,1.2508024,0
237609317,237609054,3997706,-24.282917,20.789999,101617.0,1.2513576,0
237813176,237813046,3997706,-23.453228,20.779999,101607.0,1.2508024,0
238017460,238017386,3997706,-23.453228,20.77,101607.0,1.2512345,0
238221846,238221778,3997706,-23.532497,20.77,101608.0,1.2512468,0
238425153,238425068,3997706,-23.532497,20.76,101608.0,1.2512468,0
238619491,238578415,3997706,-23.759737,20.76,101610.71,1.2512801,0
238823482,238782405,3997706,-23.759737,20.75,101610.71,1.2512801,0
238934905,238934822,3997706,-23.949984,20.74,101613.0,1.2508761,0
239139090,239139018,3997706,-23.86543,20.74,101612.0,1.2512959,0
239343025,239342954,3997706,-23.786161,20.73,101611.0,1.2512836,0
239548821,239548743,3997706,-23.453228,20.73,101607.0,1.2508024,0
239752347,239752133,3997706,-23.617054,20.72,101609.0,1.2512591,0
239955462,239955387,3997706,-23.204851,20.71,101604.0,1.2511975,0
240159172,240158940,3997706,-23.28412,20.699999,101605.0,1.2512097,0
240361729,240361633,3997706,-23.786161,20.699999,101611.0,1.2508515,0
240564733,240564662,3997706,-22.951187,20.699999,101601.0,1.2511606,0
240767391,240767265,3997706,-22.70281,20.689999,101598.0,1.2511235,0
240970023,240969949,3997706,-22.951187,20.68,101601.0,1.2511606,0
241173186,241172945,3997706,-22.454433,20.68,101595.0,1.2506546,0
241375548,241375478,3997706,-21.957676,20.68,101589.0,1.2505807,0
241579278,241579184,3997706,-21.709297,20.67,101586.0,1.2505438,0
241782558,241782479,3997706,-21.788567,20.66,101587.0,1.2505561,0
241985821,241985627,3997706,-21.624743,20.66,101585.0,1.2505316,0
242189629,242189293,3997706,-21.207256,20.66,101580.0,1.2504699,0
242392153,242392057,3997706,-21.376366,20.66,101582.0,1.2504945,0
242595186,242595114,3997706,-21.788567,20.66,101587.0,1.2505561,0
242797787,242797697,3997706,-21.709297,20.65,101586.0,1.2505438,0
243000524,243000443,3997706,-21.46092,20.65,101583.0,1.2505069,0
243203642,243203426,3997706,-21.788567,20.65,101587.0,1.2505561,0
243405975,243405879,3997706,-20.874325,20.65,101576.0,1.2504207,0
243609676,243609605,3997706,-21.873121,20.65,101588.0,1.2505684,0
243813012,243812913,3997706,-21.624743,20.65,101585.0,1.2505316,0
244016279,244016073,3997706,-22.036945,20.65,101590.0,1.250593,0
244220715,244220615,3997706,-21.788567,20.65,101587.0,1.2505561,0
244424622,244424539,3997706,-21.709297,20.65,101586.0,1.2505438,0
244607850,244577370,3997706,-22.549555,20.65,101596.164,1.2506689,0
244811598,244780578,3997706,-22.549555,20.65,101596.164,1.2506689,0
245014593,244983765,3997706,-22.856064,20.64,101599.836,1.2507141,0
245217453,245187182,3997706,-22.62354,20.64,101597.0,1.2506791,0
245421140,245390780,3997706,-22.512564,20.63,101595.664,1.2506628,0
245624885,245593669,3997706,-21.999952,20.624998,101589.5,1.2505869,0
245747031,245746919,3997706,-22.1215,20.619999,101591.0,1.2506053,0
245950726,245950655,3997706,-22.62354,20.619999,101597.0,1.2506791,0
246154015,246153944,3997706,-22.290607,20.609999,101593.0,1.25063,0
246356392,246356308,3997706,-22.036945,20.6,101590.0,1.250593,0
246560128,246560052,3997706,-22.70281,20.6,101598.0,1.2506914,0
246762828,246762754,3997706,-22.70281,20.6,101598.0,1.2506914,0
246966306,246965993,3997706,-23.204851,20.6,101604.0,1.2507653,0
247170133,247169780,3997706,-23.701607,20.59,101610.0,1.2508392,0
247372740,247372661,3997706,-23.617054,20.59,101609.0,1.250827,0
247576226,247576155,3997706,-24.198364,20.59,101616.0,1.2509131,0
247779462,247779394,3997706,-24.034538,20.59,101614.0,1.2508885,0
247983045,247982974,3997706,-24.700405,20.59,101622.0,1.250987,0
248185180,248185069,3997706,-24.864227,20.59,101624.0,1.2510116,0
248388151,248388027,3997706,-25.281715,20.59,101629.0,1.2510731,0
248590564,248590480,3997706,-25.77847,20.59,101635.0,1.2511469,0
248793252,248793180,3997706,-25.857738,20.59,101636.0,1.2511592,0
248995675,248995608,3997706,-26.692713,20.6,101646.0,1.2512825,0
249198981,249198909,3997706,-27.353292,20.59,101654.0,1.2513809,0
249403387,249403310,3997706,-27.274023,20.59,101653.0,1.2513686,0
249607139,249607047,3997706,-28.10371,20.59,101663.0,1.2514917,0
249811079,249810977,3997706,-28.600466,20.58,101669.0,1.2515656,0
250014800,250014728,3997706,-28.9334,20.58,101673.0,1.2516147,0
250219598,250219492,3997706,-29.26633,20.58,101677.0,1.251664,0
250423400,250423009,3997706,-30.09602,20.58,101687.0,1.2517871,0
250626249,250626158,3997706,-30.17529,20.57,101688.0,1.2517993,0
250818995,250778674,3997706,-30.735462,20.569998,101694.71,1.251882,0
251021081,250980845,3997706,-31.174088,20.569998,101700.0,1.2519472,0
251224815,251184353,3997706,-31.55458,20.567142,101704.57,1.2520034,0
251336721,251336653,3997706,-31.83995,20.57,101708.0,1.2520456,0
251539540,251539469,3997706,-31.924505,20.56,101709.0,1.2520579,0
251741696,251741612,3997706,-32.42126,20.56,101715.0,1.2521318,0
251945222,251945150,3997706,-32.918015,20.56,101721.0,1.2522057,0
252148410,252148338,3997706,-33.00257,20.56,101722.0,1.252218,0
252351914,252351817,3997706,-33.25095,20.56,101725.0,1.2522548,0
252555975,252555903,3997706,-33.66315,20.56,101730.0,1.2523165,0
252760622,252760536,3997706,-33.83226,20.56,101732.0,1.252341,0
252963515,252963440,3997706,-33.996082,20.56,101734.0,1.2523657,0
253167131,253167026,3997706,-34.82577,20.56,101744.0,1.2524889,0
253369013,253368942,3997706,-34.577393,20.57,101741.0,1.2524519,0
253572743,253572675,3997706,-35.07415,20.56,101747.0,1.2525257,0
253776206,253776093,3997706,-35.570908,20.57,101753.0,1.2530323,0
253978803,253978733,3997706,-35.740013,20.56,101755.0,1.2530569,0
254181743,254181672,3997706,-35.98839,20.57,101758.0,1.2526611,0
254384894,254384782,3997706,-36.400593,20.57,101763.0,1.2527227,0
254587296,254587225,3997706,-37.151012,20.57,101772.0,1.2528335,0
254790615,254790482,3997706,-37.31484,20.58,101774.0,1.2532909,0
254994022,254993945,3997706,-37.563213,20.57,101777.0,1.252895,0
255198259,255198157,3997706,-38.392902,20.58,101787.0,1.2534511,0
255402673,255402577,3997706,-38.392902,20.57,101787.0,1.2530181,0
255606733,255606337,3997706,-39.555523,20.58,101801.0,1.2531905,0
255810334,255810256,3997706,-39.555523,20.57,101801.0,1.2531905,0
256014062,256013987,3997706,-39.719345,20.57,101803.0,1.2532151,0
256218000,256217929,3997706,-39.8039,20.56,101804.0,1.2532274,0
256422801,256422452,3997706,-39.640076,20.56,101802.0,1.2532028,0
256625705,256625608,3997706,-40.136833,20.55,101808.0,1.2532767,0
256809603,256779209,3997706,-39.983578,20.550001,101806.164,1.253254,0
257015381,256984285,3997706,-39.761623,20.539999,101803.5,1.2532213,0
257218633,257187705,3997706,-39.5978,20.539999,101801.5,1.2536296,0
257422575,257392058,3997706,-39.777477,20.529999,101803.664,1.2532233,0
257626308,257595691,3997706,-39.70878,20.525002,101802.836,1.253213,0
257748722,257748652,3997706,-39.967728,20.52,101806.0,1.253252,0
257952705,257952584,3997706,-39.967728,20.51,101806.0,1.253252,0
258156639,258156546,3997706,-39.719345,20.5,101803.0,1.2532151,0
258360393,258360277,3997706,-39.47097,20.5,101800.0,1.2531782,0
258565192,258565109,3997706,-39.8039,20.49,101804.0,1.2532274,0
258768864,258768541,3997706,-39.88846,20.48,101805.0,1.2532398,0
258971806,258971708,3997706,-39.967728,20.48,101806.0,1.253252,0
259174616,259174546,3997706,-40.05228,20.47,101807.0,1.2532643,0
259378518,259378450,3997706,-40.136833,20.47,101808.0,1.2532767,0
259582052,259581974,3997706,-40.221386,20.46,101809.0,1.253289,0
259784171,259784064,3997706,-40.136833,20.449999,101808.0,1.2537097,0
259987080,259987008,3997706,-40.05228,20.439999,101807.0,1.2532643,0
260189592,260189498,3997706,-40.300655,20.439999,101810.0,1.2533013,0
260392343,260392268,3997706,-39.88846,20.43,101805.0,1.2532398,0
260595568,260595484,3997706,-40.221386,20.43,101809.0,1.253289,0
260799279,260798987,3997706,-40.385212,20.42,101811.0,1.2533135,0
261003278,261003171,3997706,-39.967728,20.41,101806.0,1.253252,0
261207549,261207461,3997706,-40.300655,20.39,101810.0,1.2533013,0
261411933,261411866,3997706,-40.385212,20.39,101811.0,1.2533135,0
261615228,261615153,3997706,-39.719345,20.38,101803.0,1.2532151,0
261819149,261819079,3997706,-39.967728,20.38,101806.0,1.253252,0
262022091,262021884,3997706,-40.221386,20.369999,101809.0,1.253289,0
262224105,262224031,3997706,-39.640076,20.369999,101802.0,1.2532028,0
262417374,262376286,3997706,-39.603085,20.352858,101801.57,1.2531976,0
262619692,262579121,3997706,-39.544956,20.35,101800.86,1.2531888,0
262822478,262781724,3997706,-39.74577,20.342855,101803.29,1.2532187,0
263024876,262984397,3997706,-39.81447,20.337143,101804.14,1.2532291,0
263227681,263187024,3997706,-39.76691,20.33,101803.57,1.2532221,0
263339548,263339393,3997706,-39.8039,20.33,101804.0,1.2532274,0
263543026,263542837,3997706,-39.555523,20.32,101801.0,1.2531905,0
263746847,263746498,3997706,-39.88846,20.31,101805.0,1.2532398,0
263948945,263948847,3997706,-40.05228,20.3,101807.0,1.2532643,0
264152081,264152009,3997706,-39.967728,20.3,101806.0,1.2528194,0
264356369,264356288,3997706,-40.221386,20.289999,101809.0,1.253289,0
264558267,264558196,3997706,-39.967728,20.279999,101806.0,1.253252,0
264761363,264761283,3997706,-40.05228,20.27,101807.0,1.2528317,0
264964747,264964672,3997706,-39.719345,20.27,101803.0,1.2527826,0
265167149,265167076,3997706,-40.63359,20.26,101814.0,1.2529179,0
265370872,265370804,3997706,-40.966522,20.26,101818.0,1.2533997,0
265574671,265574571,3997706,-41.960037,20.25,101830.0,1.2535475,0
265778560,265778486,3997706,-42.29297,20.25,101834.0,1.253164,0
265981873,265981780,3997706,-43.371033,20.25,101847.0,1.253324,0
266186277,266186206,3997706,-43.0381,20.24,101843.0,1.2532748,0
266390015,266389924,3997706,-44.11617,20.24,101856.0,1.2534348,0
266593488,266593416,3997706,-44.69748,20.24,101863.0,1.253521,0
266796681,266796607,3997706,-44.945858,20.24,101866.0,1.2535578,0
266999136,266999035,3997706,-45.52188,20.24,101873.0,1.253644,0
267202395,267202289,3997706,-45.690987,20.24,101875.0,1.2536687,0
267405341,267405261,3997706,-46.10319,20.25,101880.0,1.25373,0
267607786,267607713,3997706,-46.187748,20.24,101881.0,1.2537425,0
267810436,267810364,3997706,-47.017433,20.25,101891.0,1.2538655,0
268012921,268012847,3997706,-46.76906,20.25,101888.0,1.2538285,0
268216674,268216592,3997706,-47.35037,20.24,101895.0,1.2539147,0
268420417,268420341,3997706,-47.678013,20.25,101899.0,1.253964,0
268625438,268625055,3997706,-47.92639,20.24,101902.0,1.2540008,0
268828082,268828011,3997706,-48.01095,20.24,101903.0,1.2540132,0
269012205,268981769,3997706,-48.000378,20.24,101902.836,1.2540112,0
269215485,269185029,3997706,-48.1642,20.24,101904.836,1.2540358,0
269418645,269388418,3997706,-48.12192,20.24,101904.336,1.2540296,0
269622255,269591740,3997706,-48.5077,20.234999,101909.0,1.254087,0
269824351,269794065,3997706,-48.481277,20.24,101908.664,1.2540829,0
269946274,269946191,3997706,-48.5077,20.23,101909.0,1.254087,0
270150050,270149730,3997706,-48.5077,20.23,101909.0,1.254087,0
270352942,270352869,3997706,-48.75608,20.23,101912.0,1.2541239,0
270556398,270556099,3997706,-49.421944,20.24,101920.0,1.2542224,0
270758699,270758629,3997706,-49.421944,20.24,101920.0,1.2542224,0
270962467,270962360,3997706,-49.670322,20.24,101923.0,1.2542592,0
271165808,271165543,3997706,-49.99797,20.24,101927.0,1.2543086,0
271369122,271368904,3997706,-49.99797,20.23,101927.0,1.2543086,0
271573207,271573129,3997706,-50.16708,20.23,101929.0,1.2543331,0
271776774,271776646,3997706,-50.74839,20.23,101936.0,1.2544193,0
271980707,271980634,3997706,-50.57928,20.23,101934.0,1.2543947,0
272183163,272183094,3997706,-51.572792,20.24,101946.0,1.2545424,0
272386285,272386195,3997706,-51.40897,20.23,101944.0,1.2545177,0
272589951,272589883,3997706,-51.905727,20.23,101950.0,1.2545916,0
272793340,272793262,3997706,-52.154102,20.23,101953.0,1.2546284,0
272995988,272995919,3997706,-52.487038,20.23,101957.0,1.2546778,0
273198980,273198905,3997706,-52.814682,20.23,101961.0,1.2547269,0
273402581,273402514,3997706,-52.98379,20.22,101963.0,1.2547514,0
273604675,273604605,3997706,-52.98379,20.22,101963.0,1.2547514,0
273808402,273808140,3997706,-53.64437,20.22,101971.0,1.25485,0
274011235,274011167,3997706,-53.81348,20.22,101973.0,1.2548746,0
274215898,274215826,3997706,-54.14113,20.21,101977.0,1.2549238,0
274418892,274418710,3997706,-54.30495,20.21,101979.0,1.2549485,0
274623580,274623508,3997706,-54.558613,20.21,101982.0,1.2549853,0
274827095,274827023,3997706,-54.88626,20.21,101986.0,1.2550346,0
275021452,274980558,3997706,-54.960247,20.205713,101986.86,1.2550452,0
275225191,275184634,3997706,-55.039516,20.210001,101987.86,1.2550575,0
275337061,275336993,3997706,-55.055374,20.199999,101988.0,1.2550592,0
275540377,275540296,3997706,-55.30375,20.199999,101991.0,1.2550961,0
275743754,275743686,3997706,-55.631397,20.199999,101995.0,1.2551453,0
275947388,275947307,3997706,-55.38302,20.199999,101992.0,1.2551084,0
276150956,276150887,3997706,-55.800503,20.199999,101997.0,1.25517,0
276353464,276353386,3997706,-55.879772,20.199999,101998.0,1.2551823,0
276556430,276556342,3997706,-56.212708,20.199999,102002.0,1.2552315,0
276759649,276759347,3997706,-56.12815,20.189999,102001.0,1.2552192,0
276961865,276961794,3997706,-56.376534,20.199999,102004.0,1.255256,0
277164751,277164426,3997706,-56.54564,20.189999,102006.0,1.2552806,0
277367507,277367418,3997706,-56.873287,20.189999,102010.0,1.25533,0
277570973,277570905,3997706,-56.794018,20.189999,102009.0,1.2553177,0
277773977,277773775,3997706,-57.454597,20.18,102017.0,1.255416,0
277977411,277977104,3997706,-57.78753,20.18,102021.0,1.2554653,0
278179908,278179808,3997706,-57.78753,20.18,102021.0,1.2554653,0
278382932,278382793,3997706,-57.8668,20.18,102022.0,1.2554775,0
278586367,278585996,3997706,-58.696487,20.18,102032.0,1.2556007,0
278788533,278788462,3997706,-58.44811,20.17,102029.0,1.2555637,0
278991812,278991461,3997706,-58.696487,20.17,102032.0,1.2556007,0
279195206,279194904,3997706,-59.277798,20.17,102039.0,1.2556868,0
279397913,279397841,3997706,-59.69,20.17,102044.0,1.2557483,0
279601913,279601797,3997706,-60.022934,20.16,102048.0,1.2557975,0
279806631,279806270,3997706,-59.77455,20.16,102045.0,1.2557606,0
280010392,280010074,3997706,-59.938377,20.16,102047.0,1.2557852,0
280214521,280214413,3997706,-59.605446,20.16,102043.0,1.255736,0
280418629,280418530,3997706,-60.186756,20.15,102050.0,1.2558222,0
280622055,280621915,3997706,-60.519688,20.15,102054.0,1.2558714,0
280826326,280826223,3997706,-60.683514,20.15,102056.0,1.255896,0
281010172,280979322,3997706,-60.794487,20.15,102057.336,1.2559124,0
281213536,281183066,3997706,-60.889614,20.144999,102058.5,1.2554933,0
281418548,281388159,3997706,-60.916035,20.144999,102058.836,1.2559309,0
281621810,281591379,3997706,-61.20669,20.144999,102062.336,1.2559739,0
281826215,281795800,3997706,-61.386368,20.14,102064.5,1.2560005,0
281948895,281948565,3997706,-61.428646,20.14,102065.0,1.2555733,0
282151255,282151158,3997706,-61.5132,20.13,102066.0,1.2555856,0
282354582,282354509,3997706,-61.5132,20.13,102066.0,1.2555856,0
282558329,282558250,3997706,-61.840847,20.13,102070.0,1.2556348,0
282761742,282761670,3997706,-62.755093,20.119999,102081.0,1.2557701,0
282964232,282964161,3997706,-62.670536,20.119999,102080.0,1.2557578,0
283169328,283169245,3997706,-62.422157,20.119999,102077.0,1.2557209,0
283371746,283371671,3997706,-62.422157,20.109999,102077.0,1.2557209,0
283574745,283574671,3997706,-62.834362,20.109999,102082.0,1.2557824,0
283776833,283776760,3997706,-62.91891,20.109999,102083.0,1.2557948,0
283980435,283980355,3997706,-63.57949,20.1,102091.0,1.25546,0
284184151,284184077,3997706,-63.827873,20.1,102094.0,1.2554969,0
284387222,284387151,3997706,-63.912426,20.09,102095.0,1.2555091,0
284591827,284591753,3997706,-64.160805,20.09,102098.0,1.2555461,0
284794742,284794646,3997706,-64.32463,20.09,102100.0,1.2555707,0
284998327,284998231,3997706,-64.82138,20.09,102106.0,1.2556444,0
285202172,285201774,3997706,-65.402695,20.08,102113.0,1.2557305,0
285403984,285403916,3997706,-65.402695,20.08,102113.0,1.2557305,0
285607473,285607343,3997706,-64.82138,20.08,102106.0,1.2556444,0
285810095,285809994,3997706,-66.2271,20.07,102123.0,1.2558535,0
286013045,286012967,3997706,-66.14254,20.07,102122.0,1.2558413,0
286216616,286216549,3997706,-65.814896,20.06,102118.0,1.2557919,0
286418748,286418674,3997706,-66.47547,20.06,102126.0,1.2558904,0
286622238,286622168,3997706,-66.47547,20.06,102126.0,1.2558904,0
286825241,286825169,3997706,-66.06327,20.05,102121.0,1.255829,0
287030057,287029851,3997706,-66.88768,20.05,102131.0,1.2559519,0
287223375,287182515,3997706,-66.62873,20.050001,102127.86,1.2554802,0
287427406,287386351,3997706,-66.855965,20.045715,102130.57,1.2559465,0
287538566,287538468,3997706,-67.136055,20.05,102134.0,1.2555555,0
287741421,287741293,3997706,-67.22061,20.039999,102135.0,1.2555679,0
287944238,287944132,3997706,-67.46899,20.039999,102138.0,1.2556047,0
288147904,288147829,3997706,-68.29339,20.029999,102148.0,1.2557276,0
288349806,288349734,3997706,-67.71736,20.029999,102141.0,1.2556416,0
288552377,288552152,3997706,-67.88119,20.029999,102143.0,1.2552334,0
288754743,288754675,3997706,-68.29339,20.029999,102148.0,1.2552947,0
288958525,288958443,3997706,-67.965744,20.02,102144.0,1.2552457,0
289161760,289161686,3997706,-68.95926,20.02,102156.0,1.255393,0
289366148,289366076,3997706,-68.62632,20.01,102152.0,1.2549114,0
289569446,289569375,3997706,-69.45073,20.01,102162.0,1.2550342,0
289773858,289773762,3997706,-69.202354,20.0,102159.0,1.2549974,0
289977791,289977698,3997706,-69.37146,19.99,102161.0,1.2550219,0
290181510,290181442,3997706,-69.37146,19.99,102161.0,1.2545896,0
290387316,290387244,3997706,-69.2869,19.99,102160.0,1.2545773,0
290590449,290590354,3997706,-70.52879,19.99,102175.0,1.2547615,0
290793941,290793841,3997706,-70.364975,19.98,102173.0,1.254737,0
290996891,290996807,3997706,-70.61335,19.97,102176.0,1.2547737,0
291199611,291199539,3997706,-70.52879,19.97,102175.0,1.2543294,0
291403027,291402902,3997706,-70.940994,19.98,102180.0,1.254391,0
291605542,291605470,3997706,-70.364975,19.97,102173.0,1.254305,0
291808550,291808473,3997706,-70.61335,19.96,102176.0,1.2543417,0
292011691,292011383,3997706,-71.353195,19.96,102185.0,1.2540203,0
292213969,292213898,3997706,-71.02555,19.96,102181.0,1.2535398,0
292417708,292417636,3997706,-71.60158,19.949999,102188.0,1.2536258,0
292620914,292620836,3997706,-72.09833,19.939999,102194.0,1.2536993,0
292824404,292824313,3997706,-72.182884,19.939999,102195.0,1.2537116,0
293028470,293028395,3997706,-71.84995,19.93,102191.0,1.2536625,0
293211220,293180777,3997706,-72.14061,19.93,102194.5,1.2532742,0
293415879,293385376,3997706,-72.22517,19.92,102195.5,1.2528555,0
293619960,293589148,3997706,-72.182884,19.915,102195.0,1.2528493,0
293824617,293793408,3997706,-72.29386,19.914999,102196.336,1.252435,0
294028310,293997586,3997706,-72.29386,19.910002,102196.336,1.252435,0
294150567,294150471,3997706,-72.34671,19.91,102197.0,1.2524431,0
294353345,294353268,3997706,-72.43126,19.91,102198.0,1.2520249,0
294556635,294556418,3997706,-71.93451,19.9,102192.0,1.2519513,0
294758994,294758910,3997706,-72.26744,19.9,102196.0,1.2520005,0
294962671,294962604,3997706,-71.77068,19.9,102190.0,1.2514969,0
295166454,295166384,3997706,-72.09833,19.9,102194.0,1.2515458,0
295369307,295369120,3997706,-72.34671,19.9,102197.0,1.2515826,0
295572049,295571982,3997706,-72.67964,19.9,102201.0,1.2516315,0
295775099,295775024,3997706,-72.26744,19.89,102196.0,1.2515703,0
295978572,295978214,3997706,-71.93451,19.89,102192.0,1.2515213,0
296181995,296181651,3997706,-72.34671,19.9,102197.0,1.2515826,0
296384900,296384795,3997706,-72.01906,19.89,102193.0,1.2511038,0
296588650,296588546,3997706,-72.09833,19.9,102194.0,1.2511159,0
296793681,296793588,3997706,-72.182884,19.89,102195.0,1.2511283,0
296997276,296997188,3997706,-72.43126,19.9,102198.0,1.2511649,0
297201233,297201158,3997706,-72.09833,19.9,102194.0,1.2511159,0
297405827,297405750,3997706,-72.51053,19.9,102199.0,1.2511772,0
297608782,297608650,3997706,-72.43126,19.91,102198.0,1.2511649,0
297813517,297813436,3997706,-71.60158,19.91,102188.0,1.2506132,0
298017503,298017432,3997706,-71.93451,19.91,102192.0,1.2506621,0
