timestamp,timestamp_sample,q[0],q[1],q[2],q[3],delta_q_reset[0],delta_q_reset[1],delta_q_reset[2],delta_q_reset[3],quat_reset_counter
173876758,173875589,0.7904619,0.044682596,0.024639659,-0.6103822,0.9999807,5.464529e-11,-1.8752676e-10,-0.0062185097,2
173926463,173925299,0.79065955,0.04381763,0.025242697,-0.6101643,0.9999807,5.464529e-11,-1.8752676e-10,-0.0062185097,2
173976203,173975009,0.7906117,0.043425042,0.025431853,-0.6102464,0.9999807,5.464529e-11,-1.8752676e-10,-0.0062185097,2
174026024,174024720,0.7904183,0.043326456,0.02506571,-0.6105189,0.9999807,5.464529e-11,-1.8752676e-10,-0.0062185097,2
174075508,174074430,0.7902447,0.043215975,0.024550319,-0.6107726,0.9999807,5.464529e-11,-1.8752676e-10,-0.0062185097,2
174125366,174124139,0.7901838,0.043035567,0.023868848,-0.6108911,0.9999807,5.464529e-11,-1.8752676e-10,-0.0062185097,2
174174937,174173849,0.79020214,0.043137725,0.023619398,-0.61086965,0.9999807,5.464529e-11,-1.8752676e-10,-0.0062185097,2
174224936,174223559,0.79018974,0.043363716,0.023838013,-0.6108613,0.9999807,5.464529e-11,-1.8752676e-10,-0.0062185097,2
174274621,174273276,0.7901685,0.043538895,0.023975665,-0.61087096,0.9999807,5.464529e-11,-1.8752676e-10,-0.0062185097,2
174329014,174327951,0.79025346,0.043525446,0.023906915,-0.6107647,0.9999807,5.464529e-11,-1.8752676e-10,-0.0062185097,2
174378981,174377661,0.7905343,0.043593936,0.023801895,-0.6104003,0.9999807,5.464529e-11,-1.8752676e-10,-0.0062185097,2
174423553,174422400,0.7908616,0.04372947,0.023319198,-0.60998523,0.9999807,5.464529e-11,-1.8752676e-10,-0.0062185097,2
174473250,174472110,0.7912813,0.0438295,0.02254914,-0.6094625,0.9999807,5.464529e-11,-1.8752676e-10,-0.0062185097,2
174528075,174526791,0.7915712,0.043732107,0.0216344,-0.6091261,0.9999807,5.464529e-11,-1.8752676e-10,-0.0062185097,2
174577539,174576501,0.7919205,0.043792177,0.02095337,-0.60869133,0.9999807,5.464529e-11,-1.8752676e-10,-0.0062185097,2
174622336,174621241,0.7922419,0.043893147,0.0206226,-0.6082772,0.9999807,5.464529e-11,-1.8752676e-10,-0.0062185097,2
174677198,174675921,0.79262805,0.04390381,0.020416293,-0.6077799,0.9999807,5.464529e-11,-1.8752676e-10,-0.0062185097,2
174726688,174725632,0.79289913,0.043869074,0.020431178,-0.6074284,0.9999807,5.464529e-11,-1.8752676e-10,-0.0062185097,2
174776445,174775343,0.79320294,0.043822344,0.02010699,-0.6070457,0.9999807,5.464529e-11,-1.8752676e-10,-0.0062185097,2
174826261,174825052,0.7934257,0.043820716,0.019810736,-0.6067644,0.9999807,5.464529e-11,-1.8752676e-10,-0.0062185097,2
174875933,174874762,0.7934882,0.04396483,0.019739404,-0.60667443,0.9999807,5.464529e-11,-1.8752676e-10,-0.0062185097,2
174925584,174924472,0.7935273,0.044161443,0.019668235,-0.6066114,0.9999807,5.464529e-11,-1.8752676e-10,-0.0062185097,2
174975515,174974182,0.7934318,0.044332396,0.019652365,-0.6067243,0.9999807,5.464529e-11,-1.8752676e-10,-0.0062185097,2
175025021,175023892,0.7934164,0.044321988,0.01975564,-0.6067419,0.9999807,5.464529e-11,-1.8752676e-10,-0.0062185097,2
175074767,175073602,0.79344314,0.04432995,0.020201301,-0.6066916,0.9999807,5.464529e-11,-1.8752676e-10,-0.0062185097,2
175124606,175123312,0.79323006,0.044270158,0.020787766,-0.60695493,0.9999807,5.464529e-11,-1.8752676e-10,-0.0062185097,2
175174065,175173022,0.7928821,0.04416572,0.02159463,-0.6073888,0.9999807,5.464529e-11,-1.8752676e-10,-0.0062185097,2
175228957,175227704,0.7923863,0.04398927,0.02226589,-0.60802394,0.9999807,5.464529e-11,-1.8752676e-10,-0.0062185097,2
175273639,175272443,0.79207784,0.04367943,0.022375215,-0.60844404,0.9999807,5.464529e-11,-1.8752676e-10,-0.0062185097,2
175323338,175322153,0.7919589,0.04301835,0.02239515,-0.60864526,0.9999807,5.464529e-11,-1.8752676e-10,-0.0062185097,2
175378023,175376834,0.7919939,0.04205597,0.02264191,-0.6086579,0.9999807,5.464529e-11,-1.8752676e-10,-0.0062185097,2
175427609,175426544,0.7921292,0.041500628,0.022664346,-0.60851914,0.9999807,5.464529e-11,-1.8752676e-10,-0.0062185097,2
175477331,175476254,0.79225546,0.04111875,0.022518039,-0.6083859,0.9999807,5.464529e-11,-1.8752676e-10,-0.0062185097,2
175522455,175520993,0.79220474,0.040808212,0.022189723,-0.60848516,0.9999807,5.464529e-11,-1.8752676e-10,-0.0062185097,2
175576722,175575674,0.79202324,0.040544428,0.021918736,-0.6087487,0.9999807,5.464529e-11,-1.8752676e-10,-0.0062185097,2
175626510,175625385,0.7917033,0.040562935,0.02200154,-0.60916054,0.9999807,5.464529e-11,-1.8752676e-10,-0.0062185097,2
175676371,175675095,0.79141295,0.040353484,0.022410657,-0.6095367,0.9999807,5.464529e-11,-1.8752676e-10,-0.0062185097,2
175726007,175724805,0.7913231,0.04012509,0.022837669,-0.6096526,0.9999807,5.464529e-11,-1.8752676e-10,-0.0062185097,2
175775751,175774515,0.7915383,0.03967748,0.022915453,-0.60939944,0.9999807,5.464529e-11,-1.8752676e-10,-0.0062185097,2
175825384,175824225,0.7920126,0.039211385,0.022703024,-0.6088211,0.9999807,5.464529e-11,-1.8752676e-10,-0.0062185097,2
175875017,175873935,0.79252476,0.03923388,0.022464897,-0.6081616,0.9999807,5.464529e-11,-1.8752676e-10,-0.0062185097,2
175924930,175923645,0.7930727,0.039653756,0.022441097,-0.6074207,0.9999807,5.464529e-11,-1.8752676e-10,-0.0062185097,2
175974490,175973356,0.7934173,0.039925665,0.022921585,-0.6069346,0.9999807,5.464529e-11,-1.8752676e-10,-0.0062185097,2
176024200,176023066,0.79347706,0.03961677,0.023786686,-0.6068434,0.9999807,5.464529e-11,-1.8752676e-10,-0.0062185097,2
176079024,176077747,0.7934791,0.03932819,0.024711454,-0.6068226,0.9999807,5.464529e-11,-1.8752676e-10,-0.0062185097,2
176128687,176127457,0.7936035,0.039327774,0.025390146,-0.60663193,0.9999807,5.464529e-11,-1.8752676e-10,-0.0062185097,2
176173251,176172196,0.79365814,0.03934044,0.025780892,-0.60654306,0.9999807,5.464529e-11,-1.8752676e-10,-0.0062185097,2
176223067,176221906,0.7936352,0.039435286,0.026072767,-0.6065544,0.9999807,5.464529e-11,-1.8752676e-10,-0.0062185097,2
176277697,176276587,0.7935994,0.03928008,0.026233803,-0.6066044,0.9999807,5.464529e-11,-1.8752676e-10,-0.0062185097,2
176327448,176326299,0.7935179,0.03887404,0.026231332,-0.60673726,0.9999807,5.464529e-11,-1.8752676e-10,-0.0062185097,2
176377295,176376007,0.79348546,0.03897327,0.025807189,-0.6067915,0.9999807,5.464529e-11,-1.8752676e-10,-0.0062185097,2
176426917,176425717,0.7936468,0.039453376,0.025322512,-0.60656995,0.9999807,5.464529e-11,-1.8752676e-10,-0.0062185097,2
176476550,176475428,0.79379344,0.04004919,0.02465417,-0.6063664,0.9999807,5.464529e-11,-1.8752676e-10,-0.0062185097,2
176526405,176525138,0.7938924,0.04043171,0.02434561,-0.60622394,0.9999807,5.464529e-11,-1.8752676e-10,-0.0062185097,2
176575880,176574848,0.7938889,0.04075564,0.024212806,-0.6062121,0.9999807,5.464529e-11,-1.8752676e-10,-0.0062185097,2
176625697,176624558,0.793514,0.040906265,0.024127483,-0.606696,0.9999807,5.464529e-11,-1.8752676e-10,-0.0062185097,2
176675543,176674268,0.7931168,0.04075329,0.023766177,-0.60723984,0.9999807,5.464529e-11,-1.8752676e-10,-0.0062185097,2
176725030,176723978,0.7928063,0.04013273,0.022867022,-0.6077209,0.9999807,5.464529e-11,-1.8752676e-10,-0.0062185097,2
176779807,176778659,0.7924576,0.038895823,0.022260793,-0.6082785,0.9999807,5.464529e-11,-1.8752676e-10,-0.0062185097,2
176824815,176823399,0.7920501,0.0369924,0.022578597,-0.6089158,0.9999807,5.464529e-11,-1.8752676e-10,-0.0062185097,2
176874195,176873120,0.79137236,0.03398026,0.024545178,-0.60989565,0.9999807,5.464529e-11,-1.8752676e-10,-0.0062185097,2
176924355,176922819,0.79063165,0.031006496,0.028679838,-0.6108336,0.9999807,5.464529e-11,-1.8752676e-10,-0.0062185097,2
176978572,176977503,0.7911967,0.029673146,0.035631873,-0.6098014,0.9999807,5.464529e-11,-1.8752676e-10,-0.0062185097,2
177028226,177027210,0.7932491,0.0301961,0.04238156,-0.60666966,0.9999807,5.464529e-11,-1.8752676e-10,-0.0062185097,2
177073448,177071950,0.79633313,0.03149462,0.04838601,-0.6020968,0.9999807,5.464529e-11,-1.8752676e-10,-0.0062185097,2
177127787,177126630,0.80016124,0.03276884,0.053650882,-0.5964812,0.9999807,5.464529e-11,-1.8752676e-10,-0.0062185097,2
177177461,177176341,0.8032598,0.032977857,0.05686882,-0.59199,0.9999807,5.464529e-11,-1.8752676e-10,-0.0062185097,2
177227210,177226051,0.8051873,0.03236266,0.05678787,-0.5894075,0.9999807,5.464529e-11,-1.8752676e-10,-0.0062185097,2
177271881,177270790,0.80563354,0.032085583,0.054963846,-0.5889857,0.9999807,5.464529e-11,-1.8752676e-10,-0.0062185097,2
177326740,177325471,0.80487937,0.0317874,0.051997826,-0.5903007,0.9999807,5.464529e-11,-1.8752676e-10,-0.0062185097,2
177376354,177375181,0.8035228,0.029642468,0.048782684,-0.5925306,0.9999807,5.464529e-11,-1.8752676e-10,-0.0062185097,2
177425960,177424891,0.80131835,0.026236927,0.046573505,-0.5958451,0.9999807,5.464529e-11,-1.8752676e-10,-0.0062185097,2
177476040,177474601,0.79847777,0.022369297,0.044641554,-0.59995013,0.9999807,5.464529e-11,-1.8752676e-10,-0.0062185097,2
177525512,177524311,0.7950468,0.019474836,0.04283735,-0.6047202,0.9999807,5.464529e-11,-1.8752676e-10,-0.0062185097,2
177575072,177574022,0.79152447,0.017932164,0.041109864,-0.6094895,0.9999807,5.464529e-11,-1.8752676e-10,-0.0062185097,2
177625012,177623732,0.7884737,0.018849187,0.0403617,-0.61345315,0.9999807,5.464529e-11,-1.8752676e-10,-0.0062185097,2
177674565,177673442,0.7860309,0.02484284,0.041205674,-0.616312,0.9999807,5.464529e-11,-1.8752676e-10,-0.0062185097,2
177724208,177723152,0.781979,0.0362789,0.04144896,-0.6208662,0.9999807,5.464529e-11,-1.8752676e-10,-0.0062185097,2
177774057,177772862,0.77065486,0.03546253,0.039938405,-0.6350106,0.9999807,5.464529e-11,-1.8752676e-10,-0.0062185097,2
177823638,177822572,0.7691004,0.025415493,0.024288705,-0.6381604,0.9999807,5.464529e-11,-1.8752676e-10,-0.0062185097,2
177878464,177877254,0.768002,0.014193342,-0.0058771367,-0.6402633,0.9999807,5.464529e-11,-1.8752676e-10,-0.0062185097,2
177923089,177921993,0.76605606,0.005742715,-0.005348836,-0.64272594,0.9999807,5.464529e-11,-1.8752676e-10,-0.0062185097,2
177972840,177971703,0.7694758,-0.01453987,0.01941968,-0.63821524,0.9999807,5.464529e-11,-1.8752676e-10,-0.0062185097,2
178027504,178026384,0.77557135,-0.017165681,0.048421793,-0.62916607,0.9999807,5.464529e-11,-1.8752676e-10,-0.0062185097,2
178077383,178076094,0.78215206,-0.0018595199,0.059225623,-0.6202639,0.9999807,5.464529e-11,-1.8752676e-10,-0.0062185097,2
178127052,178125811,0.7864109,0.016579073,0.060065657,-0.6145528,0.9999807,5.464529e-11,-1.8752676e-10,-0.0062185097,2
178176647,178175515,0.789424,0.023205072,0.060224343,-0.6104462,0.9999807,5.464529e-11,-1.8752676e-10,-0.0062185097,2
178226502,178225225,0.790155,0.023317454,0.062167894,-0.6093001,0.9999807,5.464529e-11,-1.8752676e-10,-0.0062185097,2
178275979,178274935,0.7894819,0.025457636,0.06746441,-0.60952353,0.9999807,5.464529e-11,-1.8752676e-10,-0.0062185097,2
178326072,178324645,0.7877847,0.028130189,0.0739096,-0.610853,0.9999807,5.464529e-11,-1.8752676e-10,-0.0062185097,2
178375452,178374355,0.78446686,0.02727856,0.07780219,-0.6146661,0.9999807,5.464529e-11,-1.8752676e-10,-0.0062185097,2
178425197,178424065,0.78119487,0.024521355,0.081222765,-0.61849505,0.9999807,5.464529e-11,-1.8752676e-10,-0.0062185097,2
178475238,178473779,0.77959543,0.022837007,0.08542617,-0.62000954,0.9999807,5.464529e-11,-1.8752676e-10,-0.0062185097,2
178529551,178528456,0.78261286,0.026917469,0.09149176,-0.61516005,0.9999807,5.464529e-11,-1.8752676e-10,-0.0062185097,2
178574213,178573196,0.7877968,0.03237656,0.09516579,-0.60767716,0.9999807,5.464529e-11,-1.8752676e-10,-0.0062185097,2
178624373,178622906,0.7944347,0.041007247,0.09817279,-0.5979584,0.9999807,5.464529e-11,-1.8752676e-10,-0.0062185097,2
178673713,178672616,0.798503,0.048557766,0.10049411,-0.5915539,0.9999807,5.464529e-11,-1.8752676e-10,-0.0062185097,2
178728388,178727297,0.79879475,0.055243168,0.10594006,-0.5896202,0.9999807,5.464529e-11,-1.8752676e-10,-0.0062185097,2
178778186,178777007,0.7983551,0.059107702,0.11256767,-0.58861184,0.9999807,5.464529e-11,-1.8752676e-10,-0.0062185097,2
178822978,178821746,0.7968321,0.05969617,0.12088813,-0.588966,0.9999807,5.464529e-11,-1.8752676e-10,-0.0062185097,2
178877726,178876427,0.79477215,0.06398317,0.13483591,-0.588271,0.9999807,5.464529e-11,-1.8752676e-10,-0.0062185097,2
178927264,178926137,0.7901938,0.07208503,0.15050913,-0.58969885,0.9999807,5.464529e-11,-1.8752676e-10,-0.0062185097,2
178976941,178975847,0.7837894,0.08504562,0.17291716,-0.5903739,0.9999807,5.464529e-11,-1.8752676e-10,-0.0062185097,2
179021717,179020586,0.77737075,0.08398728,0.17777556,-0.59752566,0.9999807,5.464529e-11,-1.8752676e-10,-0.0062185097,2
179076374,179075272,0.7786921,0.05939041,0.1482619,-0.6067369,0.9999807,5.464529e-11,-1.8752676e-10,-0.0062185097,2
179126019,179124977,0.77967554,0.056999158,0.12612721,-0.61069554,0.9999807,5.464529e-11,-1.8752676e-10,-0.0062185097,2
179176040,179174687,0.77943194,0.06352976,0.10366933,-0.6145752,0.9999807,5.464529e-11,-1.8752676e-10,-0.0062185097,2
179225541,179224397,0.7778663,0.06267059,0.08625145,-0.6193199,0.9999807,5.464529e-11,-1.8752676e-10,-0.0062185097,2
179275202,179274107,0.77783006,0.0417013,0.073982604,-0.62271035,0.9999807,5.464529e-11,-1.8752676e-10,-0.0062185097,2
179324909,179323817,0.7766955,0.011338369,0.06882722,-0.62600195,0.9999807,5.464529e-11,-1.8752676e-10,-0.0062185097,2
179374636,179373529,0.77357805,-0.004105776,0.065779045,-0.63026446,0.9999807,5.464529e-11,-1.8752676e-10,-0.0062185097,2
179424289,179423237,0.7705701,0.00538117,0.050710525,-0.63531196,0.9999807,5.464529e-11,-1.8752676e-10,-0.0062185097,2
179474181,179472947,0.7664834,0.033037804,0.039620984,-0.64018905,0.9999807,5.464529e-11,-1.8752676e-10,-0.0062185097,2
179523720,179522657,0.7606352,0.054163642,0.037510313,-0.64582765,0.9999807,5.464529e-11,-1.8752676e-10,-0.0062185097,2
179578473,179577338,0.7533123,0.05142048,0.05273004,-0.65352595,0.9999807,5.464529e-11,-1.8752676e-10,-0.0062185097,2
179628285,179627047,0.7465122,0.028660461,0.0693251,-0.6611295,0.9999807,5.464529e-11,-1.8752676e-10,-0.0062185097,2
179672869,179671787,0.73989594,0.010297339,0.07197019,-0.6687813,0.9999807,5.464529e-11,-1.8752676e-10,-0.0062185097,2
179722520,179721496,0.7325751,0.01327459,0.05616136,-0.6782356,0.9999807,5.464529e-11,-1.8752676e-10,-0.0062185097,2
179777412,179776177,0.72396946,0.03210862,0.027296783,-0.68854356,0.9999807,5.464529e-11,-1.8752676e-10,-0.0062185097,2
179827022,179825887,0.71459657,0.042418092,0.015433849,-0.69807905,0.9999807,5.464529e-11,-1.8752676e-10,-0.0062185097,2
179877096,179875601,0.7042607,0.03206502,0.027409123,-0.7086871,0.9999807,5.464529e-11,-1.8752676e-10,-0.0062185097,2
179926589,179925307,0.6933379,0.008534263,0.05222445,-0.7186671,0.9999807,5.464529e-11,-1.8752676e-10,-0.0062185097,2
179976076,179975017,0.6830228,-0.0083222035,0.06879151,-0.72710276,0.9999807,5.464529e-11,-1.8752676e-10,-0.0062185097,2
180026115,180024727,0.6751942,-0.009862292,0.066529445,-0.7345675,0.9999807,5.464529e-11,-1.8752676e-10,-0.0062185097,2
180075607,180074437,0.6690993,0.0004668499,0.0495185,-0.7415214,0.9999807,5.464529e-11,-1.8752676e-10,-0.0062185097,2
180125294,180124146,0.6632322,0.01415241,0.031742513,-0.7476063,0.9999807,5.464529e-11,-1.8752676e-10,-0.0062185097,2
180175257,180173856,0.65715206,0.021636276,0.03476534,-0.752645,0.9999807,5.464529e-11,-1.8752676e-10,-0.0062185097,2
180224729,180223566,0.65177166,0.015641954,0.05422736,-0.7563124,0.9999807,5.464529e-11,-1.8752676e-10,-0.0062185097,2
180279399,180278247,0.64744985,0.0012390175,0.07558961,-0.7583491,0.9999807,5.464529e-11,-1.8752676e-10,-0.0062185097,2
180324126,180322985,0.64534456,-0.010946658,0.07862732,-0.75975555,0.9999807,5.464529e-11,-1.8752676e-10,-0.0062185097,2
180373766,180372695,0.64364326,-0.014135205,0.068362534,-0.76213527,0.9999807,5.464529e-11,-1.8752676e-10,-0.0062185097,2
180423514,180422405,0.64215916,-0.0033366363,0.052987713,-0.7647306,0.9999807,5.464529e-11,-1.8752676e-10,-0.0062185097,2
180478271,180477086,0.64045286,0.014048619,0.04812897,-0.7663592,0.9999807,5.464529e-11,-1.8752676e-10,-0.0062185097,2
180527890,180526795,0.6393881,0.02934548,0.053572007,-0.76645404,0.9999807,5.464529e-11,-1.8752676e-10,-0.0062185097,2
180572626,180571535,0.6392722,0.034139518,0.060201854,-0.76585984,0.9999807,5.464529e-11,-1.8752676e-10,-0.0062185097,2
180627294,180626215,0.6394126,0.034718826,0.07150458,-0.76474386,0.9999807,5.464529e-11,-1.8752676e-10,-0.0062185097,2
180676967,180675925,0.64000916,0.03492637,0.07912006,-0.76348436,0.9999807,5.464529e-11,-1.8752676e-10,-0.0062185097,2
180726946,180725635,0.6406264,0.0402107,0.08060051,-0.76255137,0.9999807,5.464529e-11,-1.8752676e-10,-0.0062185097,2
180776462,180775344,0.64110905,0.051388476,0.075096026,-0.7620362,0.9999807,5.464529e-11,-1.8752676e-10,-0.0062185097,2
180826100,180825054,0.64123267,0.057792738,0.06807081,-0.7621333,0.9999807,5.464529e-11,-1.8752676e-10,-0.0062185097,2
180875819,180874764,0.6402618,0.05867151,0.066125974,-0.763053,0.9999807,5.464529e-11,-1.8752676e-10,-0.0062185097,2
180925563,180924473,0.6389634,0.060399525,0.06714553,-0.76391697,0.9999807,5.464529e-11,-1.8752676e-10,-0.0062185097,2
180975240,180974183,0.6374145,0.06810663,0.07345206,-0.7639823,0.9999807,5.464529e-11,-1.8752676e-10,-0.0062185097,2
181025079,181023893,0.6365041,0.07784284,0.08123111,-0.76302326,0.9999807,5.464529e-11,-1.8752676e-10,-0.0062185097,2
181074744,181073621,0.63636255,0.085043214,0.08314032,-0.7621668,0.9999807,5.464529e-11,-1.8752676e-10,-0.0062185097,2
181124349,181123312,0.6369556,0.08096062,0.08174137,-0.76226723,0.9999807,5.464529e-11,-1.8752676e-10,-0.0062185097,2
181179258,181177993,0.6368107,0.07641917,0.076152325,-0.76343507,0.9999807,5.464529e-11,-1.8752676e-10,-0.0062185097,2
181223851,181222731,0.63596755,0.07670171,0.07472268,-0.76425046,0.9999807,5.464529e-11,-1.8752676e-10,-0.0062185097,2
181273483,181272441,0.63480496,0.08153234,0.0711585,-0.76505667,0.9999807,5.464529e-11,-1.8752676e-10,-0.0062185097,2
181328339,181327122,0.6335347,0.08802053,0.06556229,-0.76589024,0.9999807,5.464529e-11,-1.8752676e-10,-0.0062185097,2
181377871,181376831,0.6316031,0.09605406,0.0654341,-0.7665308,0.9999807,5.464529e-11,-1.8752676e-10,-0.0062185097,2
181422687,181421570,0.62940717,0.10074757,0.06855874,-0.7674609,0.9999807,5.464529e-11,-1.8752676e-10,-0.0062185097,2
181472519,181471280,0.62700313,0.10088516,0.07657758,-0.76865166,0.9999807,5.464529e-11,-1.8752676e-10,-0.0062185097,2
181527154,181525960,0.6237143,0.10307418,0.07841435,-0.7708486,0.9999807,5.464529e-11,-1.8752676e-10,-0.0062185097,2
181577073,181575670,0.61833286,0.11206504,0.06594648,-0.7750852,0.9999807,5.464529e-11,-1.8752676e-10,-0.0062185097,2
181626503,181625380,0.61151606,0.12466244,0.045771144,-0.78000796,0.9999807,5.464529e-11,-1.8752676e-10,-0.0062185097,2
181676135,181675090,0.6036292,0.13876452,0.02224683,-0.78478116,0.9999807,5.464529e-11,-1.8752676e-10,-0.0062185097,2
181726225,181724799,0.5956884,0.15396617,-0.0027906804,-0.788316,0.9999807,5.464529e-11,-1.8752676e-10,-0.0062185097,2
181775586,181774508,0.58800375,0.17363775,-0.030649075,-0.7894062,0.9999807,5.464529e-11,-1.8752676e-10,-0.0062185097,2
181825249,181824218,0.5813484,0.19683948,-0.058497537,-0.78731596,0.9999807,5.464529e-11,-1.8752676e-10,-0.0062185097,2
181875079,181873927,0.63253486,0.21972282,-0.05825574,-0.74042416,0.99748486,2.0487476e-09,-4.222969e-09,0.070880644,3
181924707,181923637,0.63416904,0.23393986,-0.059971094,-0.7345103,0.99748486,2.0487476e-09,-4.222969e-09,0.070880644,3
181974477,181973347,0.6394598,0.24327713,-0.056733415,-0.72710985,0.99748486,2.0487476e-09,-4.222969e-09,0.070880644,3
182029189,182028026,0.64756125,0.25139457,-0.05230287,-0.7174467,0.99748486,2.0487476e-09,-4.222969e-09,0.070880644,3
182073794,182072765,0.6533992,0.25768194,-0.0556655,-0.70962733,0.99748486,2.0487476e-09,-4.222969e-09,0.070880644,3
182123554,182122475,0.6562623,0.26966557,-0.07388459,-0.7008148,0.99748486,2.0487476e-09,-4.222969e-09,0.070880644,3
182173371,182172184,0.6559078,0.28975,-0.09976237,-0.6898387,0.99748486,2.0487476e-09,-4.222969e-09,0.070880644,3
182227935,182226864,0.6571707,0.31072587,-0.1164063,-0.67677593,0.99748486,2.0487476e-09,-4.222969e-09,0.070880644,3
182277873,182276574,0.6644329,0.31450748,-0.1111595,-0.6687732,0.99748486,2.0487476e-09,-4.222969e-09,0.070880644,3
182322496,182321312,0.67359895,0.31151673,-0.09667248,-0.66323173,0.99748486,2.0487476e-09,-4.222969e-09,0.070880644,3
182377032,182375993,0.68273973,0.30964005,-0.080887415,-0.6568461,0.99748486,2.0487476e-09,-4.222969e-09,0.070880644,3
182426756,182425702,0.6861745,0.31188643,-0.07518454,-0.65286964,0.99748486,2.0487476e-09,-4.222969e-09,0.070880644,3
182476512,182475412,0.6856228,0.31870043,-0.07749958,-0.64988095,0.99748486,2.0487476e-09,-4.222969e-09,0.070880644,3
182526216,182525122,0.68456143,0.32695282,-0.07713142,-0.64693767,0.99748486,2.0487476e-09,-4.222969e-09,0.070880644,3
182576027,182574831,0.68350047,0.3317268,-0.07811167,-0.64551,0.99748486,2.0487476e-09,-4.222969e-09,0.070880644,3
182625643,182624540,0.68453103,0.3299456,-0.07459842,-0.6457463,0.99748486,2.0487476e-09,-4.222969e-09,0.070880644,3
182675460,182674249,0.6874216,0.32030553,-0.06726602,-0.6483296,0.99748486,2.0487476e-09,-4.222969e-09,0.070880644,3
182725229,182723959,0.6911368,0.31162223,-0.05650419,-0.6496375,0.99748486,2.0487476e-09,-4.222969e-09,0.070880644,3
182774801,182773668,0.6943462,0.30420697,-0.045696687,-0.65057933,0.99748486,2.0487476e-09,-4.222969e-09,0.070880644,3
182824431,182823378,0.6971943,0.2934281,-0.038261823,-0.6529595,0.99748486,2.0487476e-09,-4.222969e-09,0.070880644,3
182874284,182873087,0.6979864,0.2842323,-0.03740859,-0.6562223,0.99748486,2.0487476e-09,-4.222969e-09,0.070880644,3
182928806,182927768,0.69797856,0.2762286,-0.038955983,-0.65954995,0.99748486,2.0487476e-09,-4.222969e-09,0.070880644,3
182973567,182972506,0.70049584,0.2673315,-0.034263007,-0.6608068,0.99748486,2.0487476e-09,-4.222969e-09,0.070880644,3
183023465,183022215,0.703168,0.25826988,-0.03280818,-0.6616457,0.99748486,2.0487476e-09,-4.222969e-09,0.070880644,3
183077977,183076896,0.7067945,0.25715348,-0.028221939,-0.6584202,0.99748486,2.0487476e-09,-4.222969e-09,0.070880644,3
183127969,183126605,0.71168303,0.25718597,-0.026487784,-0.65319306,0.99748486,2.0487476e-09,-4.222969e-09,0.070880644,3
183177492,183176314,0.7190712,0.25369462,-0.021208737,-0.64662653,0.99748486,2.0487476e-09,-4.222969e-09,0.070880644,3
183222101,183221053,0.72785395,0.24430425,-0.020285718,-0.640416,0.99748486,2.0487476e-09,-4.222969e-09,0.070880644,3
183277226,183275733,0.7374311,0.24500203,-0.019755293,-0.6291098,0.99748486,2.0487476e-09,-4.222969e-09,0.070880644,3
183326503,183325442,0.7431473,0.25355008,-0.023429725,-0.6187855,0.99748486,2.0487476e-09,-4.222969e-09,0.070880644,3
183376199,183375151,0.7457505,0.2663049,-0.029423999,-0.6099773,0.99748486,2.0487476e-09,-4.222969e-09,0.070880644,3
183426015,183424861,0.74815273,0.27523342,-0.027277455,-0.6031336,0.99748486,2.0487476e-09,-4.222969e-09,0.070880644,3
183475730,183474570,0.75256765,0.27168667,-0.017398063,-0.5996046,0.99748486,2.0487476e-09,-4.222969e-09,0.070880644,3
183525336,183524279,0.7547607,0.2670388,-0.008503695,-0.59912807,0.99748486,2.0487476e-09,-4.222969e-09,0.070880644,3
183575133,183573989,0.7525607,0.27171725,-0.0017500428,-0.59984934,0.99748486,2.0487476e-09,-4.222969e-09,0.070880644,3
183624735,183623698,0.74923164,0.27477527,0.0074123307,-0.60257417,0.99748486,2.0487476e-09,-4.222969e-09,0.070880644,3
183674506,183673408,0.7465034,0.26986104,0.020908715,-0.6078409,0.99748486,2.0487476e-09,-4.222969e-09,0.070880644,3
183724263,183723117,0.74440765,0.2545406,0.028724195,-0.61663705,0.99748486,2.0487476e-09,-4.222969e-09,0.070880644,3
183778844,183777797,0.74328256,0.22768202,0.030837638,-0.6282843,0.99748486,2.0487476e-09,-4.222969e-09,0.070880644,3
183828787,183827506,0.7428623,0.20439425,0.034203574,-0.6365601,0.99748486,2.0487476e-09,-4.222969e-09,0.070880644,3
183873467,183872245,0.7425923,0.1916034,0.03900329,-0.64056516,0.99748486,2.0487476e-09,-4.222969e-09,0.070880644,3
183923032,183921954,0.7424768,0.18799235,0.044746935,-0.6413928,0.99748486,2.0487476e-09,-4.222969e-09,0.070880644,3
183977709,183976634,0.7435139,0.18814766,0.05010075,-0.63974804,0.99748486,2.0487476e-09,-4.222969e-09,0.070880644,3
184027426,184026343,0.74523365,0.19014975,0.05614706,-0.63664544,0.99748486,2.0487476e-09,-4.222969e-09,0.070880644,3
184077099,184076054,0.74814147,0.1873481,0.058090053,-0.6338853,0.99748486,2.0487476e-09,-4.222969e-09,0.070880644,3
184126831,184125762,0.7508148,0.18606423,0.055738315,-0.6313085,0.99748486,2.0487476e-09,-4.222969e-09,0.070880644,3
184176593,184175471,0.75342965,0.18439321,0.0500332,-0.6291578,0.99748486,2.0487476e-09,-4.222969e-09,0.070880644,3
184226233,184225180,0.7562154,0.18174951,0.045627255,-0.626916,0.99748486,2.0487476e-09,-4.222969e-09,0.070880644,3
184276059,184274891,0.75889546,0.17871678,0.043521397,-0.62469506,0.99748486,2.0487476e-09,-4.222969e-09,0.070880644,3
184325702,184324599,0.76167506,0.17421433,0.047495056,-0.62228984,0.99748486,2.0487476e-09,-4.222969e-09,0.070880644,3
184375390,184374308,0.76446337,0.1685499,0.053407263,-0.61994714,0.99748486,2.0487476e-09,-4.222969e-09,0.070880644,3
184425422,184424024,0.7678531,0.15838532,0.062348172,-0.61759907,0.99748486,2.0487476e-09,-4.222969e-09,0.070880644,3
184479760,184478697,0.7714646,0.14504796,0.07170931,-0.6153546,0.99748486,2.0487476e-09,-4.222969e-09,0.070880644,3
184524760,184523438,0.7731649,0.14001936,0.078168266,-0.61359626,0.99748486,2.0487476e-09,-4.222969e-09,0.070880644,3
184574458,184573145,0.77365893,0.13825609,0.07929726,-0.6132283,0.99748486,2.0487476e-09,-4.222969e-09,0.070880644,3
184623927,184622855,0.7728682,0.13997339,0.07868063,-0.6139149,0.99748486,2.0487476e-09,-4.222969e-09,0.070880644,3
184679010,184677534,0.77137935,0.14460376,0.07600517,-0.6150503,0.99748486,2.0487476e-09,-4.222969e-09,0.070880644,3
184723572,184722272,0.7699245,0.14961222,0.07414637,-0.6159015,0.99748486,2.0487476e-09,-4.222969e-09,0.070880644,3
184773014,184771982,0.768551,0.15299127,0.072017945,-0.6170386,0.99748486,2.0487476e-09,-4.222969e-09,0.070880644,3
184828049,184826662,0.7683836,0.14819562,0.074845105,-0.61808014,0.99748486,2.0487476e-09,-4.222969e-09,0.070880644,3
184877521,184876371,0.7687779,0.13993894,0.07859143,-0.61904854,0.99748486,2.0487476e-09,-4.222969e-09,0.070880644,3
184927117,184926080,0.76959765,0.1259467,0.080863185,-0.62074,0.99748486,2.0487476e-09,-4.222969e-09,0.070880644,3
184972019,184970818,0.77054495,0.112446174,0.08461903,-0.6216559,0.99748486,2.0487476e-09,-4.222969e-09,0.070880644,3
185026577,185025498,0.7724969,0.09874021,0.09201367,-0.6205099,0.99748486,2.0487476e-09,-4.222969e-09,0.070880644,3
185076310,185075209,0.7744838,0.09688159,0.095818326,-0.6177441,0.99748486,2.0487476e-09,-4.222969e-09,0.070880644,3
185125962,185124917,0.776814,0.09852212,0.09956291,-0.6139551,0.99748486,2.0487476e-09,-4.222969e-09,0.070880644,3
185175734,185174626,0.77905506,0.09863929,0.10519014,-0.61014634,0.99748486,2.0487476e-09,-4.222969e-09,0.070880644,3
185225412,185224335,0.7803802,0.10100323,0.10672961,-0.60779434,0.99748486,2.0487476e-09,-4.222969e-09,0.070880644,3
185275184,185274044,0.78072983,0.105958514,0.10547126,-0.6067204,0.99748486,2.0487476e-09,-4.222969e-09,0.070880644,3
185324794,185323753,0.780315,0.114299595,0.10217836,-0.6063034,0.99748486,2.0487476e-09,-4.222969e-09,0.070880644,3
185374570,185373462,0.78019345,0.122073956,0.097159036,-0.6057692,0.99748486,2.0487476e-09,-4.222969e-09,0.070880644,3
185424388,185423171,0.78068906,0.12807247,0.09453378,-0.6043058,0.99748486,2.0487476e-09,-4.222969e-09,0.070880644,3
185473950,185472880,0.78167576,0.13138922,0.0907925,-0.6028904,0.99748486,2.0487476e-09,-4.222969e-09,0.070880644,3
185528754,185527560,0.7827925,0.13484348,0.08775891,-0.6011252,0.99748486,2.0487476e-09,-4.222969e-09,0.070880644,3
185578361,185577269,0.78330594,0.13902555,0.0815651,-0.6003757,0.99748486,2.0487476e-09,-4.222969e-09,0.070880644,3
185623076,185622007,0.78349966,0.1411572,0.080614716,-0.5997536,0.99748486,2.0487476e-09,-4.222969e-09,0.070880644,3
185673043,185671716,0.7829759,0.14541501,0.085016765,-0.5988117,0.99748486,2.0487476e-09,-4.222969e-09,0.070880644,3
185727542,185726396,0.7818904,0.14902462,0.093462504,-0.5980837,0.99748486,2.0487476e-09,-4.222969e-09,0.070880644,3
185777158,185776105,0.7808316,0.14807314,0.10145759,-0.59840024,0.99748486,2.0487476e-09,-4.222969e-09,0.070880644,3
185827025,185825815,0.77996707,0.14067209,0.1030793,-0.6010303,0.99748486,2.0487476e-09,-4.222969e-09,0.070880644,3
185876623,185875523,0.7782983,0.13311079,0.09935824,-0.60552555,0.99748486,2.0487476e-09,-4.222969e-09,0.070880644,3
185926306,185925232,0.7762674,0.12468987,0.09260625,-0.610971,0.99748486,2.0487476e-09,-4.222969e-09,0.070880644,3
185976146,185974942,0.7735742,0.11829238,0.0873217,-0.6164128,0.99748486,2.0487476e-09,-4.222969e-09,0.070880644,3
186025760,186024650,0.7705725,0.11421845,0.08604045,-0.6211033,0.99748486,2.0487476e-09,-4.222969e-09,0.070880644,3
186075441,186074359,0.76809233,0.10934997,0.09089201,-0.624352,0.99748486,2.0487476e-09,-4.222969e-09,0.070880644,3
186125601,186124069,0.7667169,0.101287656,0.10253941,-0.6255972,0.99748486,2.0487476e-09,-4.222969e-09,0.070880644,3
186174840,186173780,0.7661185,0.09274012,0.11466656,-0.6255505,0.99748486,2.0487476e-09,-4.222969e-09,0.070880644,3
186224650,186223494,0.7662959,0.08545099,0.12159358,-0.62506306,0.99748486,2.0487476e-09,-4.222969e-09,0.070880644,3
186274385,186273196,0.7668086,0.08251531,0.11979471,-0.62517595,0.99748486,2.0487476e-09,-4.222969e-09,0.070880644,3
186324008,186322904,0.76707226,0.084740594,0.11315749,-0.62579113,0.99748486,2.0487476e-09,-4.222969e-09,0.070880644,3
186373698,186372615,0.76671755,0.090570234,0.10744017,-0.6264166,0.99748486,2.0487476e-09,-4.222969e-09,0.070880644,3
186428371,186427295,0.76602095,0.09702557,0.10477047,-0.62675446,0.99748486,2.0487476e-09,-4.222969e-09,0.070880644,3
186478068,186477012,0.7654806,0.10021884,0.10791537,-0.62637836,0.99748486,2.0487476e-09,-4.222969e-09,0.070880644,3
186522908,186521741,0.7653899,0.09953743,0.11065338,-0.62612015,0.99748486,2.0487476e-09,-4.222969e-09,0.070880644,3
186577571,186576420,0.7651248,0.09745347,0.11433044,-0.6261115,0.99748486,2.0487476e-09,-4.222969e-09,0.070880644,3
186627285,186626129,0.764404,0.09692864,0.11606337,-0.62675416,0.99748486,2.0487476e-09,-4.222969e-09,0.070880644,3
186676901,186675838,0.7629736,0.09893481,0.116652116,-0.6280729,0.99748486,2.0487476e-09,-4.222969e-09,0.070880644,3
186726640,186725547,0.7612542,0.10027407,0.11543151,-0.6301688,0.99748486,2.0487476e-09,-4.222969e-09,0.070880644,3
186776299,186775256,0.7590664,0.10296573,0.11355006,-0.6327107,0.99748486,2.0487476e-09,-4.222969e-09,0.070880644,3
186826085,186824965,0.75705874,0.10285037,0.1123199,-0.6353488,0.99748486,2.0487476e-09,-4.222969e-09,0.070880644,3
186875731,186874674,0.75482124,0.10306424,0.11255905,-0.63792884,0.99748486,2.0487476e-09,-4.222969e-09,0.070880644,3
186925554,186924383,0.75259703,0.10024096,0.1103126,-0.64138967,0.99748486,2.0487476e-09,-4.222969e-09,0.070880644,3
186975288,186974092,0.75079584,0.09443784,0.107456535,-0.64485687,0.99748486,2.0487476e-09,-4.222969e-09,0.070880644,3
187024840,187023801,0.74873644,0.092133105,0.10509535,-0.6479662,0.99748486,2.0487476e-09,-4.222969e-09,0.070880644,3
187074575,187073510,0.74646264,0.09320106,0.10469247,-0.65049714,0.99748486,2.0487476e-09,-4.222969e-09,0.070880644,3
187129270,187128190,0.7444912,0.09545783,0.10482007,-0.6524059,0.99748486,2.0487476e-09,-4.222969e-09,0.070880644,3
187173963,187172931,0.7431504,0.10054372,0.102770664,-0.6534957,0.99748486,2.0487476e-09,-4.222969e-09,0.070880644,3
187223955,187222636,0.74254537,0.10294739,0.09951426,-0.65431285,0.99748486,2.0487476e-09,-4.222969e-09,0.070880644,3
187278460,187277316,0.74225926,0.10579392,0.09679606,-0.6545911,0.99748486,2.0487476e-09,-4.222969e-09,0.070880644,3
187328051,187327025,0.7424663,0.106901295,0.094008856,-0.6545826,0.99748486,2.0487476e-09,-4.222969e-09,0.070880644,3
187377974,187376734,0.7430878,0.10764463,0.09024261,-0.65428543,0.99748486,2.0487476e-09,-4.222969e-09,0.070880644,3
187422536,187421472,0.7434658,0.11105357,0.08608743,-0.6538461,0.99748486,2.0487476e-09,-4.222969e-09,0.070880644,3
187477206,187476152,0.7438066,0.11863204,0.081936404,-0.6526597,0.99748486,2.0487476e-09,-4.222969e-09,0.070880644,3
187527109,187525861,0.7441918,0.12571526,0.082841694,-0.6507777,0.99748486,2.0487476e-09,-4.222969e-09,0.070880644,3
187576679,187575569,0.7449403,0.13032438,0.08745104,-0.6484073,0.99748486,2.0487476e-09,-4.222969e-09,0.070880644,3
187626408,187625278,0.74612594,0.13120812,0.0920182,-0.64623004,0.99748486,2.0487476e-09,-4.222969e-09,0.070880644,3
187676248,187674987,0.74740195,0.12951335,0.0925377,-0.64502203,0.99748486,2.0487476e-09,-4.222969e-09,0.070880644,3
187725730,187724696,0.74749047,0.13241018,0.08377049,-0.6455293,0.99748486,2.0487476e-09,-4.222969e-09,0.070880644,3
187775540,187774405,0.74578387,0.14184204,0.07084442,-0.64704585,0.99748486,2.0487476e-09,-4.222969e-09,0.070880644,3
187825384,187824114,0.7434775,0.15085721,0.06296973,-0.6484737,0.99748486,2.0487476e-09,-4.222969e-09,0.070880644,3
187874894,187873823,0.74213535,0.15327081,0.06479276,-0.64926517,0.99748486,2.0487476e-09,-4.222969e-09,0.070880644,3
187924655,187923531,0.7422076,0.14698784,0.073336564,-0.64972633,0.99748486,2.0487476e-09,-4.222969e-09,0.070880644,3
187979335,187978211,0.7428033,0.13560972,0.084346846,-0.65018386,0.99748486,2.0487476e-09,-4.222969e-09,0.070880644,3
188024007,188022954,0.74277973,0.12895055,0.08786958,-0.6510983,0.99748486,2.0487476e-09,-4.222969e-09,0.070880644,3
188073829,188072658,0.74201906,0.12769902,0.08495122,-0.6525979,0.99748486,2.0487476e-09,-4.222969e-09,0.070880644,3
188123694,188122367,0.7404626,0.1320901,0.077905014,-0.6543685,0.99748486,2.0487476e-09,-4.222969e-09,0.070880644,3
188178117,188177046,0.73871595,0.13958544,0.073283896,-0.65531987,0.99748486,2.0487476e-09,-4.222969e-09,0.070880644,3
188228149,188226755,0.7381473,0.14382643,0.07604605,-0.6547286,0.99748486,2.0487476e-09,-4.222969e-09,0.070880644,3
188272571,188271493,0.73887473,0.14265545,0.083418615,-0.6532649,0.99748486,2.0487476e-09,-4.222969e-09,0.070880644,3
188327206,188326174,0.74047744,0.13778757,0.09030969,-0.6515766,0.99748486,2.0487476e-09,-4.222969e-09,0.070880644,3
188377001,188375881,0.7420432,0.13302104,0.09022691,-0.65079683,0.99748486,2.0487476e-09,-4.222969e-09,0.070880644,3
188426667,188425590,0.7429516,0.13200177,0.08184964,-0.65107536,0.99748486,2.0487476e-09,-4.222969e-09,0.070880644,3
188476381,188475299,0.74294895,0.13491902,0.07243389,-0.6515958,0.99748486,2.0487476e-09,-4.222969e-09,0.070880644,3
188526176,188525008,0.74235284,0.14257394,0.06521316,-0.65140796,0.99748486,2.0487476e-09,-4.222969e-09,0.070880644,3
188575820,188574716,0.74185306,0.15120952,0.065307684,-0.650019,0.99748486,2.0487476e-09,-4.222969e-09,0.070880644,3
188625585,188624426,0.7418285,0.1581115,0.07124643,-0.64777714,0.99748486,2.0487476e-09,-4.222969e-09,0.070880644,3
188675297,188674134,0.7420284,0.16194583,0.0779146,-0.6458303,0.99748486,2.0487476e-09,-4.222969e-09,0.070880644,3
188724922,188723843,0.742434,0.1598818,0.07968797,-0.64566195,0.99748486,2.0487476e-09,-4.222969e-09,0.070880644,3
188774769,188773551,0.7424575,0.156459,0.0769145,-0.64680886,0.99748486,2.0487476e-09,-4.222969e-09,0.070880644,3
188824435,188823260,0.7424114,0.15178096,0.07275677,-0.6484554,0.99748486,2.0487476e-09,-4.222969e-09,0.070880644,3
188879020,188877940,0.7421298,0.14854626,0.069570415,-0.6498749,0.99748486,2.0487476e-09,-4.222969e-09,0.070880644,3
188924056,188922678,0.74219304,0.14806996,0.06911989,-0.64995944,0.99748486,2.0487476e-09,-4.222969e-09,0.070880644,3
188973531,188972386,0.7435635,0.143272,0.07383869,-0.6489487,0.99748486,2.0487476e-09,-4.222969e-09,0.070880644,3
189028186,189027066,0.74530417,0.13981783,0.08129543,-0.6468105,0.99748486,2.0487476e-09,-4.222969e-09,0.070880644,3
189077988,189076774,0.74561185,0.14431788,0.08453461,-0.64504975,0.99748486,2.0487476e-09,-4.222969e-09,0.070880644,3
189127522,189126483,0.7445574,0.15444712,0.082276955,-0.64421344,0.99748486,2.0487476e-09,-4.222969e-09,0.070880644,3
189172255,189171221,0.7432303,0.16429311,0.075909145,-0.64409196,0.99748486,2.0487476e-09,-4.222969e-09,0.070880644,3
189227165,189225900,0.7424195,0.16902184,0.070644595,-0.6444024,0.99748486,2.0487476e-09,-4.222969e-09,0.070880644,3
189276683,189275609,0.7427308,0.1651545,0.06930056,-0.6451917,0.99748486,2.0487476e-09,-4.222969e-09,0.070880644,3
189326433,189325318,0.7429346,0.16059323,0.06902954,-0.646137,0.99748486,2.0487476e-09,-4.222969e-09,0.070880644,3
189376312,189375027,0.7424104,0.15893517,0.07133079,-0.64689904,0.99748486,2.0487476e-09,-4.222969e-09,0.070880644,3
189425809,189424737,0.7416648,0.15731078,0.075761214,-0.6476472,0.99748486,2.0487476e-09,-4.222969e-09,0.070880644,3
189475580,189474446,0.7409678,0.15435378,0.08192558,-0.6484057,0.99748486,2.0487476e-09,-4.222969e-09,0.070880644,3
189525394,189524152,0.740349,0.1500279,0.0872279,-0.6494354,0.99748486,2.0487476e-09,-4.222969e-09,0.070880644,3
189574975,189573866,0.7396905,0.14548518,0.091347314,-0.65065175,0.99748486,2.0487476e-09,-4.222969e-09,0.070880644,3
189624690,189623569,0.73876494,0.1435908,0.09067046,-0.65221703,0.99748486,2.0487476e-09,-4.222969e-09,0.070880644,3
189674571,189673278,0.7377532,0.14289545,0.08632627,-0.6541016,0.99748486,2.0487476e-09,-4.222969e-09,0.070880644,3
189729041,189727958,0.7367014,0.14266348,0.08103789,-0.65601146,0.99748486,2.0487476e-09,-4.222969e-09,0.070880644,3
189778711,189777666,0.73602414,0.1410815,0.07751074,-0.65753835,0.99748486,2.0487476e-09,-4.222969e-09,0.070880644,3
189823571,189822404,0.7358692,0.13751276,0.07613843,-0.6586271,0.99748486,2.0487476e-09,-4.222969e-09,0.070880644,3
189873270,189872115,0.73619986,0.13272645,0.07868101,-0.65894073,0.99748486,2.0487476e-09,-4.222969e-09,0.070880644,3
189927979,189926792,0.7371257,0.12946565,0.08640068,-0.65758604,0.99748486,2.0487476e-09,-4.222969e-09,0.070880644,3
189972657,189971530,0.7379522,0.12938875,0.09443654,-0.65556616,0.99748486,2.0487476e-09,-4.222969e-09,0.070880644,3
190027254,190026210,0.7391191,0.13111724,0.09880784,-0.6532597,0.99748486,2.0487476e-09,-4.222969e-09,0.070880644,3
190077136,190075918,0.7397593,0.1359364,0.095897585,-0.6519825,0.99748486,2.0487476e-09,-4.222969e-09,0.070880644,3
190126729,190125626,0.7395308,0.14253506,0.0885915,-0.6518662,0.99748486,2.0487476e-09,-4.222969e-09,0.070880644,3
190176430,190175335,0.73842984,0.14980586,0.079755515,-0.6526244,0.99748486,2.0487476e-09,-4.222969e-09,0.070880644,3
190226202,190225043,0.73658794,0.1574247,0.07303936,-0.6536979,0.99748486,2.0487476e-09,-4.222969e-09,0.070880644,3
190275817,190274752,0.7347508,0.16210587,0.07242186,-0.6546893,0.99748486,2.0487476e-09,-4.222969e-09,0.070880644,3
190325712,190324460,0.7334144,0.16197176,0.07702415,-0.65569496,0.99748486,2.0487476e-09,-4.222969e-09,0.070880644,3
190375333,190374169,0.73308027,0.1559233,0.0835733,-0.65673196,0.99748486,2.0487476e-09,-4.222969e-09,0.070880644,3
190424943,190423877,0.73309654,0.14760922,0.089125656,-0.657904,0.99748486,2.0487476e-09,-4.222969e-09,0.070880644,3
190474831,190473586,0.7328666,0.14048211,0.087625496,-0.6599191,0.99748486,2.0487476e-09,-4.222969e-09,0.070880644,3
190524426,190523305,0.7316596,0.13937286,0.08260889,-0.66213685,0.99748486,2.0487476e-09,-4.222969e-09,0.070880644,3
190574084,190573003,0.72989,0.14331022,0.075029425,-0.6641487,0.99748486,2.0487476e-09,-4.222969e-09,0.070880644,3
190628902,190627682,0.72837454,0.14731605,0.07286505,-0.66517615,0.99748486,2.0487476e-09,-4.222969e-09,0.070880644,3
190673527,190672420,0.72788066,0.14896925,0.07698962,-0.66488385,0.99748486,2.0487476e-09,-4.222969e-09,0.070880644,3
190723242,190722128,0.72868335,0.1458423,0.08545834,-0.6636622,0.99748486,2.0487476e-09,-4.222969e-09,0.070880644,3
190778200,190776808,0.7302409,0.14067106,0.09123647,-0.6622959,0.99748486,2.0487476e-09,-4.222969e-09,0.070880644,3
190827553,190826516,0.731232,0.13788156,0.08840778,-0.6621727,0.99748486,2.0487476e-09,-4.222969e-09,0.070880644,3
190877378,190876225,0.7312197,0.13948363,0.08144789,-0.6627431,0.99748486,2.0487476e-09,-4.222969e-09,0.070880644,3
190922281,190920963,0.73055977,0.14363988,0.07577911,-0.6632553,0.99748486,2.0487476e-09,-4.222969e-09,0.070880644,3
190976800,190975642,0.7290047,0.15251984,0.0713218,-0.6634781,0.99748486,2.0487476e-09,-4.222969e-09,0.070880644,3
191026504,191025351,0.72762054,0.16002807,0.07122807,-0.66323906,0.99748486,2.0487476e-09,-4.222969e-09,0.070880644,3
191076389,191075059,0.72672826,0.16396758,0.07238498,-0.6631298,0.99748486,2.0487476e-09,-4.222969e-09,0.070880644,3
191125860,191124767,0.7267359,0.16118379,0.07359804,-0.6636701,0.99748486,2.0487476e-09,-4.222969e-09,0.070880644,3
191175593,191174476,0.72737336,0.15354401,0.07580465,-0.6645344,0.99748486,2.0487476e-09,-4.222969e-09,0.070880644,3
191225443,191224184,0.7272394,0.1490982,0.078142196,-0.6654221,0.99748486,2.0487476e-09,-4.222969e-09,0.070880644,3
191274993,191273892,0.72582144,0.1509737,0.074029155,-0.66701573,0.99748486,2.0487476e-09,-4.222969e-09,0.070880644,3
191324979,191323601,0.7235159,0.15683578,0.0661756,-0.6689903,0.99748486,2.0487476e-09,-4.222969e-09,0.070880644,3
191374598,191373309,0.7210942,0.16456458,0.059491564,-0.6703749,0.99748486,2.0487476e-09,-4.222969e-09,0.070880644,3
191424059,191423018,0.7190332,0.17270552,0.057006944,-0.6707566,0.99748486,2.0487476e-09,-4.222969e-09,0.070880644,3
191478854,191477697,0.71801144,0.17809302,0.060116723,-0.6701705,0.99748486,2.0487476e-09,-4.222969e-09,0.070880644,3
191528489,191527405,0.7181534,0.1776287,0.064765595,-0.66970825,0.99748486,2.0487476e-09,-4.222969e-09,0.070880644,3
191573277,191572143,0.71839195,0.1771432,0.06711664,-0.6693495,0.99748486,2.0487476e-09,-4.222969e-09,0.070880644,3
191623327,191621852,0.7181824,0.1783173,0.062274218,-0.66973054,0.99748486,2.0487476e-09,-4.222969e-09,0.070880644,3
191677631,191676531,0.71761894,0.18008451,0.052327402,-0.670712,0.99748486,2.0487476e-09,-4.222969e-09,0.070880644,3
191727406,191726239,0.7172774,0.18295589,0.045472704,-0.6707999,0.99748486,2.0487476e-09,-4.222969e-09,0.070880644,3
191777243,191775948,0.71754134,0.18518044,0.04447991,-0.6699734,0.99748486,2.0487476e-09,-4.222969e-09,0.070880644,3
191826705,191825656,0.7187791,0.18538499,0.04937704,-0.6682448,0.99748486,2.0487476e-09,-4.222969e-09,0.070880644,3
191876600,191875364,0.72120225,0.1817526,0.05836997,-0.6659027,0.99748486,2.0487476e-09,-4.222969e-09,0.070880644,3
191926197,191925073,0.72411734,0.17463045,0.06571166,-0.6639581,0.99748486,2.0487476e-09,-4.222969e-09,0.070880644,3
191975840,191974781,0.7261253,0.17080157,0.065689184,-0.66276234,0.99748486,2.0487476e-09,-4.222969e-09,0.070880644,3
192025904,192024489,0.7276898,0.16769418,0.060346015,-0.6623478,0.99748486,2.0487476e-09,-4.222969e-09,0.070880644,3
192075283,192074202,0.7283619,0.16707392,0.05511753,-0.66222155,0.99748486,2.0487476e-09,-4.222969e-09,0.070880644,3
192124978,192123910,0.72846586,0.16899653,0.05015637,-0.66201365,0.99748486,2.0487476e-09,-4.222969e-09,0.070880644,3
192179839,192178585,0.72780424,0.17624271,0.05072915,-0.66080713,0.99748486,2.0487476e-09,-4.222969e-09,0.070880644,3
192224492,192223326,0.7276885,0.17999014,0.057402615,-0.659377,0.99748486,2.0487476e-09,-4.222969e-09,0.070880644,3
192274208,192273031,0.7291697,0.17350952,0.070720755,-0.65818274,0.99748486,2.0487476e-09,-4.222969e-09,0.070880644,3
192323896,192322749,0.73083586,0.16146027,0.08129017,-0.65818053,0.99748486,2.0487476e-09,-4.222969e-09,0.070880644,3
192378537,192377419,0.73086965,0.15234186,0.0793718,-0.66054654,0.99748486,2.0487476e-09,-4.222969e-09,0.070880644,3
192428233,192427128,0.7293766,0.1495632,0.071588896,-0.6637136,0.99748486,2.0487476e-09,-4.222969e-09,0.070880644,3
192472910,192471866,0.7272189,0.15042534,0.06436217,-0.6666202,0.99748486,2.0487476e-09,-4.222969e-09,0.070880644,3
192527632,192526544,0.72507614,0.15422456,0.06342029,-0.66817456,0.99748486,2.0487476e-09,-4.222969e-09,0.070880644,3
192577354,192576253,0.72454756,0.15555233,0.06856326,-0.6679323,0.99748486,2.0487476e-09,-4.222969e-09,0.070880644,3
192627185,192625961,0.72577643,0.15264674,0.07706458,-0.66633976,0.99748486,2.0487476e-09,-4.222969e-09,0.070880644,3
192676747,192675669,0.72792715,0.14873151,0.083763525,-0.6640668,0.99748486,2.0487476e-09,-4.222969e-09,0.070880644,3
192726547,192725378,0.7302176,0.14501223,0.08466488,-0.662258,0.99748486,2.0487476e-09,-4.222969e-09,0.070880644,3
192776305,192775086,0.7316818,0.14508648,0.0789508,-0.66133076,0.99748486,2.0487476e-09,-4.222969e-09,0.070880644,3
192825832,192824795,0.73202056,0.14866368,0.07141629,-0.6610181,0.99748486,2.0487476e-09,-4.222969e-09,0.070880644,3
192875909,192874503,0.73155504,0.15425253,0.06253086,-0.661153,0.99748486,2.0487476e-09,-4.222969e-09,0.070880644,3
192925501,192924211,0.7308542,0.15989234,0.05811763,-0.66099095,0.99748486,2.0487476e-09,-4.222969e-09,0.070880644,3
192975044,192973919,0.7305802,0.16162847,0.0591668,-0.66077846,0.99748486,2.0487476e-09,-4.222969e-09,0.070880644,3
193025015,193023628,0.73081857,0.15784614,0.06095428,-0.6612666,0.99748486,2.0487476e-09,-4.222969e-09,0.070880644,3
193074438,193073336,0.73122364,0.1502404,0.062203333,-0.66247314,0.99748486,2.0487476e-09,-4.222969e-09,0.070880644,3
193124146,193123045,0.73138946,0.14216384,0.062425084,-0.66404974,0.99748486,2.0487476e-09,-4.222969e-09,0.070880644,3
193174182,193172753,0.7311058,0.13611941,0.059737153,-0.66587335,0.99748486,2.0487476e-09,-4.222969e-09,0.070880644,3
193228506,193227432,0.73000306,0.13036449,0.054424737,-0.6686843,0.99748486,2.0487476e-09,-4.222969e-09,0.070880644,3
193278204,193277141,0.72889984,0.12716804,0.048689265,-0.67094165,0.99748486,2.0487476e-09,-4.222969e-09,0.070880644,3
193323156,193321878,0.7280061,0.12477068,0.0440969,-0.6726774,0.99748486,2.0487476e-09,-4.222969e-09,0.070880644,3
193372679,193371586,0.72742367,0.12014684,0.03889377,-0.6744678,0.99748486,2.0487476e-09,-4.222969e-09,0.070880644,3
193427466,193426265,0.72725517,0.11758039,0.037357133,-0.6751883,0.99748486,2.0487476e-09,-4.222969e-09,0.070880644,3
193477091,193475973,0.72716075,0.117840186,0.038656555,-0.6751716,0.99748486,2.0487476e-09,-4.222969e-09,0.070880644,3
193526741,193525682,0.7274346,0.11961819,0.04231872,-0.6743439,0.99748486,2.0487476e-09,-4.222969e-09,0.070880644,3
193576592,193575390,0.7282974,0.1202778,0.04576332,-0.673069,0.99748486,2.0487476e-09,-4.222969e-09,0.070880644,3
193626355,193625098,0.72976136,0.11764635,0.047807075,-0.67180514,0.99748486,2.0487476e-09,-4.222969e-09,0.070880644,3
193675878,193674812,0.73147887,0.113686636,0.04729737,-0.67065424,0.99748486,2.0487476e-09,-4.222969e-09,0.070880644,3
193725741,193724515,0.7327162,0.11466018,0.039703045,-0.6696296,0.99748486,2.0487476e-09,-4.222969e-09,0.070880644,3
193775316,193774223,0.73277247,0.12439924,0.02398002,-0.6685763,0.99748486,2.0487476e-09,-4.222969e-09,0.070880644,3
193824990,193823932,0.73115224,0.14244609,0.002921896,-0.6671709,0.99748486,2.0487476e-09,-4.222969e-09,0.070880644,3
193874688,193873640,0.7283072,0.16500936,-0.018319046,-0.66483456,0.99748486,2.0487476e-09,-4.222969e-09,0.070880644,3
193929396,193928319,0.7240268,0.19229944,-0.04221278,-0.66107804,0.99748486,2.0487476e-09,-4.222969e-09,0.070880644,3
193974154,193973056,0.71959186,0.21396703,-0.06140205,-0.65775037,0.99748486,2.0487476e-09,-4.222969e-09,0.070880644,3
194023863,194022764,0.7144182,0.23438622,-0.08234905,-0.6541319,0.99748486,2.0487476e-09,-4.222969e-09,0.070880644,3
194073652,194072473,0.7097056,0.25450307,-0.101262785,-0.64907014,0.99748486,2.0487476e-09,-4.222969e-09,0.070880644,3
194128200,194127152,0.7060486,0.27413362,-0.11850972,-0.6421072,0.99748486,2.0487476e-09,-4.222969e-09,0.070880644,3
194178112,194176860,0.70543337,0.2895198,-0.12731755,-0.6342968,0.99748486,2.0487476e-09,-4.222969e-09,0.070880644,3
194222622,194221597,0.7068119,0.3014055,-0.13131797,-0.62636036,0.99748486,2.0487476e-09,-4.222969e-09,0.070880644,3
194277422,194276279,0.7111999,0.31036246,-0.13237567,-0.6167225,0.99748486,2.0487476e-09,-4.222969e-09,0.070880644,3
194327264,194325984,0.71633583,0.3170417,-0.13224137,-0.60733837,0.99748486,2.0487476e-09,-4.222969e-09,0.070880644,3
194376733,194375692,0.7211276,0.326664,-0.1330672,-0.59628755,0.99748486,2.0487476e-09,-4.222969e-09,0.070880644,3
194426760,194425401,0.7246317,0.33784539,-0.13704447,-0.5847975,0.99748486,2.0487476e-09,-4.222969e-09,0.070880644,3
194476358,194475115,0.72813946,0.34869114,-0.14046316,-0.5731471,0.99748486,2.0487476e-09,-4.222969e-09,0.070880644,3
194525862,194524817,0.7322788,0.3594557,-0.14102402,-0.56095606,0.99748486,2.0487476e-09,-4.222969e-09,0.070880644,3
194575904,194574525,0.7379564,0.36702368,-0.13829781,-0.5491701,0.99748486,2.0487476e-09,-4.222969e-09,0.070880644,3
194625314,194624233,0.74428684,0.37444654,-0.13263284,-0.5368757,0.99748486,2.0487476e-09,-4.222969e-09,0.070880644,3
194675000,194673942,0.74958867,0.3814639,-0.12879935,-0.5253694,0.99748486,2.0487476e-09,-4.222969e-09,0.070880644,3
194725098,194723650,0.7554334,0.3841666,-0.124473564,-0.5159873,0.99748486,2.0487476e-09,-4.222969e-09,0.070880644,3
194774441,194773358,0.7615762,0.38587582,-0.119884446,-0.5066847,0.99748486,2.0487476e-09,-4.222969e-09,0.070880644,3
194829095,194828037,0.7702986,0.38091427,-0.11432324,-0.49847227,0.99748486,2.0487476e-09,-4.222969e-09,0.070880644,3
194873817,194872775,0.7761248,0.37954545,-0.11035753,-0.4913216,0.99748486,2.0487476e-09,-4.222969e-09,0.070880644,3
194923585,194922482,0.78057224,0.38075554,-0.107318684,-0.48395765,0.99748486,2.0487476e-09,-4.222969e-09,0.070880644,3
194978381,194977169,0.7854467,0.38337338,-0.09994045,-0.4755108,0.99748486,2.0487476e-09,-4.222969e-09,0.070880644,3
195028010,195026870,0.7894069,0.38486224,-0.093131535,-0.46908894,0.99748486,2.0487476e-09,-4.222969e-09,0.070880644,3
195077733,195076578,0.7926093,0.3912603,-0.08423446,-0.45998955,0.99748486,2.0487476e-09,-4.222969e-09,0.070880644,3
195122348,195121315,0.7938459,0.39891148,-0.0807329,-0.45184126,0.99748486,2.0487476e-09,-4.222969e-09,0.070880644,3
195177051,195175994,0.7987916,0.3975532,-0.07616094,-0.44506514,0.99748486,2.0487476e-09,-4.222969e-09,0.070880644,3
195226730,195225703,0.8054241,0.38972676,-0.07355456,-0.44044852,0.99748486,2.0487476e-09,-4.222969e-09,0.070880644,3
195276665,195275411,0.8117655,0.3851499,-0.070095144,-0.4333394,0.99748486,2.0487476e-09,-4.222969e-09,0.070880644,3
195326334,195325120,0.8172585,0.38313496,-0.06833097,-0.4250024,0.99748486,2.0487476e-09,-4.222969e-09,0.070880644,3
195375898,195374829,0.8219133,0.38389573,-0.066884324,-0.41546237,0.99748486,2.0487476e-09,-4.222969e-09,0.070880644,3
195426007,195424539,0.82532305,0.3874346,-0.06745015,-0.4051997,0.99748486,2.0487476e-09,-4.222969e-09,0.070880644,3
195475468,195474244,0.82726663,0.39463285,-0.06929042,-0.3938194,0.99748486,2.0487476e-09,-4.222969e-09,0.070880644,3
195525015,195523952,0.8282668,0.4039987,-0.07212897,-0.3815189,0.99748486,2.0487476e-09,-4.222969e-09,0.070880644,3
195574732,195573660,0.8295189,0.4143333,-0.07071565,-0.36773035,0.99748486,2.0487476e-09,-4.222969e-09,0.070880644,3
195624484,195623369,0.8343007,0.41721815,-0.062494792,-0.35491663,0.99748486,2.0487476e-09,-4.222969e-09,0.070880644,3
195679162,195678048,0.8439436,0.41104794,-0.0466927,-0.34149474,0.99748486,2.0487476e-09,-4.222969e-09,0.070880644,3
195724059,195722785,0.850589,0.40716133,-0.035563625,-0.33083764,0.99748486,2.0487476e-09,-4.222969e-09,0.070880644,3
195773579,195772493,0.8533409,0.4091043,-0.031648535,-0.32162294,0.99748486,2.0487476e-09,-4.222969e-09,0.070880644,3
195823256,195822201,0.8535694,0.41372645,-0.033242483,-0.31487268,0.99748486,2.0487476e-09,-4.222969e-09,0.070880644,3
195878072,195876880,0.8530795,0.4204101,-0.034086492,-0.30716276,0.99748486,2.0487476e-09,-4.222969e-09,0.070880644,3
195927657,195926589,0.8553208,0.42268714,-0.027703667,-0.29831952,0.99748486,2.0487476e-09,-4.222969e-09,0.070880644,3
195972471,195971336,0.86124974,0.41709352,-0.018954005,-0.2896939,0.99748486,2.0487476e-09,-4.222969e-09,0.070880644,3
196027254,196026008,0.8688051,0.4109103,-0.0049888603,-0.2762346,0.99748486,2.0487476e-09,-4.222969e-09,0.070880644,3
196076793,196075713,0.87281406,0.41001874,0.0013787766,-0.26472306,0.99748486,2.0487476e-09,-4.222969e-09,0.070880644,3
196126805,196125422,0.87305784,0.41564998,-5.6715275e-05,-0.2549609,0.99748486,2.0487476e-09,-4.222969e-09,0.070880644,3
196176328,196175130,0.8717014,0.4237613,-0.0049942643,-0.24604478,0.99748486,2.0487476e-09,-4.222969e-09,0.070880644,3
196225921,196224838,0.8723197,0.42847848,-0.0048114834,-0.23546015,0.99748486,2.0487476e-09,-4.222969e-09,0.070880644,3
196275931,196274547,0.87551093,0.4298857,0.0047114096,-0.2205831,0.99748486,2.0487476e-09,-4.222969e-09,0.070880644,3
196325379,196324255,0.88191533,0.42447513,0.01771519,-0.204285,0.99748486,2.0487476e-09,-4.222969e-09,0.070880644,3
196375046,196373963,0.89022464,0.4136462,0.028605426,-0.1886235,0.99748486,2.0487476e-09,-4.222969e-09,0.070880644,3
196424886,196423671,0.89694136,0.40483224,0.033136692,-0.17466865,0.99748486,2.0487476e-09,-4.222969e-09,0.070880644,3
196474461,196473380,0.9010426,0.40085465,0.031075854,-0.1627024,0.99748486,2.0487476e-09,-4.222969e-09,0.070880644,3
196524288,196523088,0.9018219,0.40395057,0.026252313,-0.15116853,0.99748486,2.0487476e-09,-4.222969e-09,0.070880644,3
196579035,196577767,0.89992446,0.41316506,0.021802884,-0.13767879,0.99748486,2.0487476e-09,-4.222969e-09,0.070880644,3
196623541,196622504,0.8977712,0.42177123,0.022144467,-0.12500274,0.99748486,2.0487476e-09,-4.222969e-09,0.070880644,3
196673315,196672213,0.8973838,0.42655566,0.027197758,-0.10960359,0.99748486,2.0487476e-09,-4.222969e-09,0.070880644,3
196727956,196726891,0.8997407,0.4250589,0.0368603,-0.09183144,0.99748486,2.0487476e-09,-4.222969e-09,0.070880644,3
196777776,196776600,0.9026553,0.42103368,0.046620004,-0.07596499,0.99748486,2.0487476e-09,-4.222969e-09,0.070880644,3
196827564,196826308,0.9054732,0.4162938,0.055603452,-0.06104248,0.99748486,2.0487476e-09,-4.222969e-09,0.070880644,3
196872230,196871046,0.9087337,0.40981558,0.062154602,-0.048900302,0.99748486,2.0487476e-09,-4.222969e-09,0.070880644,3
196926745,196925724,0.9124127,0.40219563,0.06648854,-0.0363458,0.99748486,2.0487476e-09,-4.222969e-09,0.070880644,3
196976990,196975433,0.91351587,0.4002753,0.06742608,-0.026874585,0.99748486,2.0487476e-09,-4.222969e-09,0.070880644,3
197026227,197025141,0.91225904,0.40358478,0.0675957,-0.018267602,0.99748486,2.0487476e-09,-4.222969e-09,0.070880644,3
197075937,197074849,0.9100306,0.40856907,0.0694843,-0.009356604,0.99748486,2.0487476e-09,-4.222969e-09,0.070880644,3
197125607,197124558,0.9083094,0.4118438,0.07320403,0.00036170264,0.99748486,2.0487476e-09,-4.222969e-09,0.070880644,3
197175405,197174266,0.90917283,0.4084846,0.0800491,0.01171715,0.99748486,2.0487476e-09,-4.222969e-09,0.070880644,3
197225060,197223974,0.9113349,0.40150654,0.08762105,0.024162954,0.99748486,2.0487476e-09,-4.222969e-09,0.070880644,3
197274993,197273682,0.91345483,0.39405552,0.09446885,0.037366573,0.99748486,2.0487476e-09,-4.222969e-09,0.070880644,3
197324494,197323391,0.9139861,0.39093575,0.09692362,0.049036987,0.99748486,2.0487476e-09,-4.222969e-09,0.070880644,3
197374156,197373099,0.91225916,0.39346832,0.09697809,0.059674762,0.99748486,2.0487476e-09,-4.222969e-09,0.070880644,3
197429029,197427780,0.90983415,0.39724115,0.09650514,0.07133118,0.99748486,2.0487476e-09,-4.222969e-09,0.070880644,3
197478563,197477486,0.9078063,0.39904678,0.098500825,0.08334853,0.99748486,2.0487476e-09,-4.222969e-09,0.070880644,3
197523239,197522224,0.9057509,0.3994477,0.10376268,0.096386425,0.99748486,2.0487476e-09,-4.222969e-09,0.070880644,3
197573275,197571933,0.9039013,0.39767185,0.110714436,0.11208059,0.99748486,2.0487476e-09,-4.222969e-09,0.070880644,3
197627742,197626611,0.90360576,0.3912415,0.11684421,0.12951508,0.99748486,2.0487476e-09,-4.222969e-09,0.070880644,3
197677728,197676320,0.90309167,0.38566566,0.12123044,0.14488156,0.99748486,2.0487476e-09,-4.222969e-09,0.070880644,3
197727213,197726028,0.9009704,0.38397822,0.124628596,0.1589994,0.99748486,2.0487476e-09,-4.222969e-09,0.070880644,3
197776835,197775740,0.89810556,0.38536146,0.12545457,0.17077541,0.99748486,2.0487476e-09,-4.222969e-09,0.070880644,3
197826830,197825445,0.8955942,0.38648683,0.12521307,0.18127546,0.99748486,2.0487476e-09,-4.222969e-09,0.070880644,3
197876232,197875153,0.89538944,0.3824365,0.123935506,0.1914684,0.99748486,2.0487476e-09,-4.222969e-09,0.070880644,3
197925911,197924861,0.8981339,0.3707489,0.122330725,0.20232637,0.99748486,2.0487476e-09,-4.222969e-09,0.070880644,3
197975886,197974570,0.9008031,0.3575726,0.121931955,0.21407561,0.99748486,2.0487476e-09,-4.222969e-09,0.070880644,3
198025415,198024278,0.90185237,0.34688616,0.12316589,0.22619131,0.99748486,2.0487476e-09,-4.222969e-09,0.070880644,3
198075046,198073986,0.9000963,0.3442513,0.12360381,0.23672718,0.99748486,2.0487476e-09,-4.222969e-09,0.070880644,3
198129819,198128665,0.89637786,0.34677294,0.12319194,0.2471418,0.99748486,2.0487476e-09,-4.222969e-09,0.070880644,3
198174432,198173403,0.8940652,0.34811655,0.12042026,0.25487497,0.99748486,2.0487476e-09,-4.222969e-09,0.070880644,3
198224210,198223111,0.89401937,0.3433627,0.11543192,0.26364177,0.99748486,2.0487476e-09,-4.222969e-09,0.070880644,3
198273938,198272819,0.89616144,0.33225784,0.10963313,0.2729105,0.99748486,2.0487476e-09,-4.222969e-09,0.070880644,3
198328519,198327498,0.89908344,0.31829044,0.10240402,0.28258407,0.99748486,2.0487476e-09,-4.222969e-09,0.070880644,3
198373278,198372236,0.901159,0.30649176,0.097890794,0.2905044,0.99748486,2.0487476e-09,-4.222969e-09,0.070880644,3
198423092,198421944,0.9035094,0.2924155,0.09338901,0.29906955,0.99748486,2.0487476e-09,-4.222969e-09,0.070880644,3
198477705,198476623,0.905168,0.2783135,0.09029419,0.30831712,0.99748486,2.0487476e-09,-4.222969e-09,0.070880644,3
198527826,198526331,0.9048855,0.27096608,0.089394465,0.3158613,0.99748486,2.0487476e-09,-4.222969e-09,0.070880644,3
198577276,198576039,0.9041431,0.2660999,0.08882911,0.3222197,0.99748486,2.0487476e-09,-4.222969e-09,0.070880644,3
198621931,198620777,0.90435237,0.26043925,0.08587128,0.3270237,0.99748486,2.0487476e-09,-4.222969e-09,0.070880644,3
198677057,198675456,0.9066125,0.2485679,0.07798901,0.3319421,0.99748486,2.0487476e-09,-4.222969e-09,0.070880644,3
198726282,198725165,0.9094849,0.23522598,0.06921868,0.33573043,0.99748486,2.0487476e-09,-4.222969e-09,0.070880644,3
198775938,198774872,0.9116234,0.22304219,0.06261484,0.33952084,0.99748486,2.0487476e-09,-4.222969e-09,0.070880644,3
198825827,198824580,0.9131215,0.20954783,0.061547436,0.3442537,0.99748486,2.0487476e-09,-4.222969e-09,0.070880644,3
198875392,198874288,0.9147076,0.19319925,0.06310165,0.34928828,0.99748486,2.0487476e-09,-4.222969e-09,0.070880644,3
198925084,198923997,0.91616005,0.17605579,0.065456346,0.35407728,0.99748486,2.0487476e-09,-4.222969e-09,0.070880644,3
198974920,198973705,0.91785264,0.15906951,0.06407375,0.3579636,0.99748486,2.0487476e-09,-4.222969e-09,0.070880644,3
199024433,199023413,0.91964674,0.1423661,0.059362244,0.36118966,0.99748486,2.0487476e-09,-4.222969e-09,0.070880644,3
199074222,199073121,0.92093676,0.13066843,0.053315453,0.3632613,0.99748486,2.0487476e-09,-4.222969e-09,0.070880644,3
199124143,199122829,0.92202365,0.12143975,0.047281697,0.3645398,0.99748486,2.0487476e-09,-4.222969e-09,0.070880644,3
199178548,199177508,0.923315,0.11076432,0.041924898,0.3653258,0.99748486,2.0487476e-09,-4.222969e-09,0.070880644,3
199228664,199227216,0.9248287,0.098107934,0.036629763,0.3656844,0.99748486,2.0487476e-09,-4.222969e-09,0.070880644,3
