timestamp,timestamp_sample,device_id,magnetometer_ga[0],magnetometer_ga[1],magnetometer_ga[2],calibration_count
174274362,174273941,864265,0.11495175,0.31109467,0.53162485,3
174692729,174692605,864265,0.10018307,0.31409302,0.5120092,3
175254016,175253962,864265,0.09809874,0.31417108,0.5131368,3
175670266,175670199,864265,0.11881305,0.30951604,0.5312498,3
176226229,176226162,864265,0.11918278,0.30673984,0.53190297,3
176782869,176782816,864265,0.09994048,0.30797964,0.5133861,3
177204662,177204304,864265,0.074147075,0.26817885,0.5113028,3
177760329,177760256,864265,0.045001213,0.27704784,0.4848063,3
178183655,178183420,864265,0.13038307,0.23700865,0.5244835,3
178738220,178737897,864265,0.06618196,0.23277926,0.51086086,3
179280116,179224714,864265,0.08064588,0.27315035,0.42794457,3
179710787,179710717,864265,0.068631105,0.26847285,0.42464617,3
180270499,180270292,864265,0.020673797,0.26364917,0.44385535,3
180688277,180688225,864265,-0.03164147,0.27638376,0.41691303,3
181248917,181248851,864265,-0.059061933,0.30060017,0.39441127,3
181665209,181665096,864265,-0.088529125,0.3451579,0.3416765,3
182228074,182227960,864265,-0.032668013,0.46576163,0.14947194,3
182789284,182789045,864265,-0.04188675,0.45314944,0.18518981,3
183205906,183205854,864265,-0.006180127,0.42779365,0.25003067,3
183766783,183766723,864265,-0.016440261,0.40685573,0.28847542,3
184190374,184190315,864265,0.016622724,0.3713892,0.35112393,3
184750263,184750197,864265,0.00709341,0.34663847,0.36347452,3
185169553,185169488,864265,0.014585448,0.29979566,0.40571672,3
185727686,185727580,864265,0.006035714,0.3344286,0.37586358,3
186291729,186291667,864265,0.0047314004,0.2832108,0.41758645,3
186709881,186709816,864265,-0.005560575,0.29574707,0.40696102,3
187272233,187272171,864265,-0.010199295,0.30852574,0.39531612,3
187709476,187709412,864265,-0.006438238,0.32555136,0.3807286,3
188270727,188270664,864265,-0.019578315,0.33544782,0.36987504,3
188686829,188686763,864265,-0.005079815,0.34429696,0.3758021,3
189244277,189243760,864265,-0.021291288,0.35231888,0.35436353,3
189789464,189734187,864265,-0.018117512,0.32975498,0.37954473,3
190227944,190227891,864265,-0.022653894,0.34069633,0.36532962,3
190782752,190782431,864265,-0.028792659,0.3199816,0.38506088,3
191200235,191199947,864265,-0.027150752,0.33340392,0.37100765,3
191755924,191755869,864265,-0.028950756,0.36504644,0.3387234,3
192177309,192177180,864265,-0.021810409,0.3576533,0.34859505,3
192733926,192733496,864265,-0.014913416,0.3197381,0.3945576,3
193280957,193224990,864265,-0.01711446,0.33386996,0.38003364,3
193709337,193709277,864265,-0.008011634,0.33113357,0.3810132,3
194269767,194269442,864265,0.03063414,0.47392687,0.15722685,3
194691006,194690937,864265,0.08657144,0.47731006,0.11883487,3
195243335,195243260,864265,0.12541306,0.45679832,0.16864067,3
195785580,195728848,864265,0.17806639,0.4293472,0.20002182,3
196221360,196221290,864265,0.20697692,0.404607,0.22399208,3
196782483,196723927,864265,0.24886969,0.345183,0.28998145,3
197218894,197218823,864265,0.25694785,0.28811458,0.36670554,3
197775455,197775402,864265,0.22160365,0.22423966,0.40470356,3
198191943,198191846,864265,0.22000131,0.15693295,0.43842414,3
198752681,198752605,864265,0.2272512,0.006229296,0.4647082,3
199174075,199174011,864265,0.20350829,-0.10941571,0.4611279,3
199734231,199734159,864265,0.18782964,-0.250825,0.4069347,3
200291863,200291574,864265,0.20463638,-0.30504432,0.3577176,3
200715258,200715190,864265,0.23439251,-0.30665678,0.3702355,3
201272872,201272819,864265,0.22643998,-0.25674996,0.38480103,3
201690513,201690447,864265,0.23554005,-0.24445193,0.38671342,3
202246022,202245957,864265,0.25922215,-0.19562969,0.40050966,3
202668739,202668668,864265,0.26253575,-0.13436475,0.42355037,3
203232897,203232834,864265,0.29011145,-0.05815643,0.4563627,3
203787263,203787193,864265,0.26259822,0.19977553,0.39726627,3
204204812,204204748,864265,0.2340163,0.19607395,0.41942027,3
204761401,204761339,864265,0.14050938,0.16809532,0.46425676,3
205183624,205183515,864265,0.10535028,0.15364605,0.49334085,3
205757378,205757231,864265,0.049999714,0.08529241,0.51989543,3
206173427,206173362,864265,0.012419099,0.078262515,0.50460964,3
206729968,206729918,864265,-0.055942044,0.026760388,0.50547945,3
207285803,207285470,864265,-0.07239884,-0.009360202,0.5031436,3
208260293,208260241,864265,-0.11327674,-0.12585208,0.47630528,3
208680912,208680862,864265,-0.116835445,-0.17467469,0.45887995,3
209238201,209238136,864265,-0.1292284,-0.24620746,0.42808673,3
209782386,209724759,864265,-0.12959127,-0.26223114,0.41285083,3
210218519,210218203,864265,-0.13137406,-0.27868962,0.39825678,3
210778535,210720306,864265,-0.124440104,-0.2821508,0.40136757,3
211213233,211213180,864265,-0.13044012,-0.26600182,0.4071174,3
211769393,211769191,864265,-0.10597088,-0.27865407,0.40648875,3
212189449,212189228,864265,-0.124748744,-0.25000393,0.41964525,3
212755467,212755399,864265,-0.11228623,-0.28068492,0.4032065,3
213175376,213175302,864265,-0.11257338,-0.2840509,0.40064627,3
213732771,213732495,864265,-0.09023454,-0.25979847,0.43832642,3
214280997,214225589,864265,-0.108432926,-0.26454863,0.41590616,3
214716154,214716066,864265,-0.090318576,-0.26517352,0.4191466,3
215277080,215276935,864265,-0.09634442,-0.24204266,0.4314481,3
215693459,215693241,864265,-0.07772619,-0.25770938,0.44311646,3
216254735,216254670,864265,-0.071914725,-0.26024684,0.44409528,3
216676409,216676249,864265,-0.11423606,-0.25090367,0.4217776,3
217233964,217233913,864265,-0.11554348,-0.23886296,0.42923158,3
217782037,217726601,864265,-0.1051266,-0.24033028,0.4343236,3
218212238,218212171,864265,-0.09929995,-0.07379163,0.50509137,3
218768145,218767827,864265,-0.20942275,0.09415672,0.44830346,3
219184047,219183993,864265,-0.27739525,0.099583775,0.4016514,3
219740245,219740182,864265,-0.3380049,0.14682515,0.3348228,3
220282505,220227102,864265,-0.3508841,0.16398412,0.31210408,3
220719413,220719318,864265,-0.355706,0.21860066,0.26742274,3
221273698,221273645,864265,-0.36220244,0.23358321,0.24826571,3
221691697,221691622,864265,-0.3207647,0.24711452,0.28214258,3
222246705,222246608,864265,-0.31399888,0.25494283,0.2777132,3
222668041,222667977,864265,-0.31332192,0.24633123,0.2936097,3
223228302,223227543,864265,-0.30308697,0.22166067,0.32234445,3
223784028,223783962,864265,-0.2951068,0.17451854,0.3580277,3
224201419,224201355,864265,-0.28643724,0.1423851,0.38083225,3
224760818,224760765,864265,-0.3082028,0.11704007,0.37376028,3
225182770,225182436,864265,-0.31989336,0.11990224,0.36391577,3
225743727,225743662,864265,-0.31653476,0.3181415,0.20817006,3
226286230,226229971,864265,-0.257126,0.40688935,0.096957594,3
226716240,226715882,864265,-0.20927341,0.4452847,0.0133214975,3
227272860,227272579,864265,-0.13007508,0.47738928,0.00020554541,3
227689123,227689048,864265,-0.0671483,0.49066216,-0.0048739915,3
228245453,228245389,864265,0.03259182,0.49051273,0.08210722,3
228668466,228668397,864265,0.07019845,0.48127958,0.11572671,3
229222917,229222864,864265,0.14439973,0.45268717,0.16480811,3
229778433,229778370,864265,0.18308826,0.41356087,0.22822757,3
230195703,230195638,864265,0.21655619,0.36646694,0.29951662,3
230750622,230750557,864265,0.21762806,0.2904802,0.36084956,3
231167574,231167215,864265,0.21317875,0.25165594,0.39177746,3
231723151,231723062,864265,0.21087086,0.2307417,0.42802235,3
232277393,232277276,864265,0.19458276,0.2056212,0.45131823,3
232694984,232694889,864265,0.17314494,0.20156868,0.4387937,3
233251580,233251527,864265,0.15632704,0.24061717,0.4242665,3
233673428,233673376,864265,0.16526955,0.23425493,0.44499922,3
234229426,234229359,864265,0.1434119,0.26278347,0.4143394,3
234784998,234784929,864265,0.12450653,0.2909785,0.4000459,3
235201065,235201013,864265,0.12523197,0.28702602,0.4027479,3
235757823,235757423,864265,0.14674887,0.31540874,0.39555195,3
236178026,236177964,864265,0.12099804,0.30479681,0.3903836,3
236733714,236733651,864265,0.113321565,0.30184752,0.39390096,3
237290251,237290155,864265,0.11851081,0.3141661,0.382733,3
237716099,237715826,864265,0.113110594,0.31924054,0.382287,3
238272170,238272106,864265,0.10258795,0.31941965,0.38174134,3
238687877,238687545,864265,0.10252901,0.31219378,0.38772836,3
239248835,239248764,864265,0.11173545,0.30774382,0.3903145,3
239665040,239664987,864265,0.12516466,0.29146925,0.42144692,3
240221782,240221713,864265,0.11787842,0.31529036,0.3817338,3
240778341,240778192,864265,0.12520665,0.29165164,0.39927018,3
241198574,241198522,864265,0.15995553,0.29635704,0.40423197,3
241755219,241755152,864265,0.14218956,0.31405154,0.39623156,3
242176710,242176549,864265,0.14124773,0.13876304,0.47389185,3
242735227,242735160,864265,0.08277067,0.12254616,0.49001616,3
243280779,243225215,864265,0.06496613,0.19917302,0.46953568,3
243709702,243709617,864265,0.06501672,0.3235339,0.40245134,3
244270580,244270517,864265,0.08046705,0.38017854,0.34051222,3
244688027,244687961,864265,0.05803482,0.40583915,0.292073,3
245244263,245244199,864265,0.07586845,0.43084484,0.24886228,3
245786867,245730312,864265,0.11031531,0.42210096,0.25837937,3
246217070,246217002,864265,0.13785079,0.39334285,0.28644636,3
246772770,246772717,864265,0.16913603,0.3588869,0.31556126,3
247190783,247190711,864265,0.18263592,0.33274016,0.33704877,3
247756889,247756765,864265,0.19794856,0.28680554,0.37160522,3
248179140,248179080,864265,0.20648171,0.26624802,0.3836708,3
248735222,248735160,864265,0.1994146,0.2634544,0.3894354,3
249291294,249291231,864265,0.20563595,0.22912815,0.40873715,3
249711835,249711756,864265,0.20856257,0.20863017,0.4465775,3
250270313,250270261,864265,0.18739668,0.16692844,0.4720888,3
250686800,250686709,864265,0.14839613,0.17208834,0.4600299,3
251267506,251267439,864265,0.1283042,0.18228391,0.46169472,3
251705004,251704939,864265,0.10405295,0.17657296,0.46822533,3
252275027,252274892,864265,0.072911516,0.16578887,0.4777821,3
252690509,252690440,864265,0.033195835,0.17325309,0.47862452,3
253246730,253246680,864265,0.002249781,0.17714459,0.47794297,3
253788793,253733077,864265,-0.017189167,0.17755926,0.48106247,3
254220085,254220020,864265,-0.05825029,0.16194671,0.478841,3
254780548,254780496,864265,-0.09018162,0.15210435,0.47636977,3
255201812,255201755,864265,-0.1125552,0.146893,0.46958178,3
255758515,255758451,864265,-0.16048583,0.10738543,0.46107924,3
256176499,256176247,864265,-0.19708848,0.0707983,0.4545905,3
256747749,256747693,864265,-0.21935907,0.07295012,0.4552154,3
257291679,257236427,864265,-0.27408886,0.042055402,0.42151895,3
257723759,257723692,864265,-0.29207918,-0.0036601718,0.40929863,3
258279265,258279202,864265,-0.31520098,-0.043782827,0.38862547,3
258695484,258695413,864265,-0.320715,-0.036380135,0.38498795,3
259251559,259251492,864265,-0.3241235,-0.11139924,0.36321214,3
259672309,259672242,864265,-0.3187602,-0.17316566,0.3416419,3
260233914,260233859,864265,-0.31534728,-0.20449495,0.32958218,3
260780509,260725358,864265,-0.29965946,-0.24416333,0.31685087,3
261214399,261214046,864265,-0.28277922,-0.28974417,0.2925887,3
261770371,261769818,864265,-0.25530413,-0.31764227,0.29038805,3
262191069,262190780,864265,-0.23311375,-0.33526722,0.2903304,3
262756298,262756232,864265,-0.18861195,-0.36701897,0.29029337,3
263178617,263178547,864265,-0.1714515,-0.3675017,0.29550704,3
263745184,263745117,864265,-0.14723712,-0.3875486,0.28258827,3
264169826,264169759,864265,-0.10683576,-0.4124095,0.265407,3
264729299,264729229,864265,-0.07508768,-0.39571074,0.30004826,3
265290688,265290622,864265,-0.06389441,-0.26347196,0.4409521,3
265706844,265706701,864265,-0.07078748,-0.25589603,0.42972648,3
266262385,266262316,864265,-0.09000558,-0.24695626,0.4314486,3
266678687,266678625,864265,-0.07766931,-0.2487432,0.44009906,3
267234470,267234420,864265,-0.10100082,-0.2519247,0.42553514,3
267790945,267790883,864265,-0.08467893,-0.2519205,0.42928445,3
268207017,268206954,864265,-0.08283407,-0.26169443,0.42389637,3
268762700,268762646,864265,-0.09286328,-0.23436765,0.4383718,3
269180836,269180767,864265,-0.0957524,-0.246755,0.43036664,3
269738924,269738819,864265,-0.11306858,-0.25186676,0.42278197,3
270161088,270160874,864265,-0.1126536,-0.25609225,0.42130733,3
270738894,270738828,864265,-0.109183766,-0.25803664,0.41955844,3
271282434,271227086,864265,-0.106677786,-0.2756024,0.41088837,3
271714702,271714512,864265,-0.095848925,-0.2761148,0.4125433,3
272270449,272270380,864265,-0.10304955,-0.27197292,0.41275966,3
272691266,272691175,864265,-0.09923674,-0.2794283,0.41388556,3
273248741,273248688,864265,-0.083240904,-0.27572834,0.41492417,3
273674343,273674269,864265,-0.09889237,-0.261568,0.4220902,3
274230505,274230440,864265,-0.08955537,-0.26168308,0.4225359,3
274785089,274785021,864265,-0.09629505,-0.258197,0.42447942,3
275202559,275202506,864265,-0.097643755,-0.24999638,0.43088734,3
275770508,275770318,864265,-0.07443372,-0.25884458,0.44520625,3
276193083,276193001,864265,-0.10916539,-0.2425673,0.430782,3
276757286,276757219,864265,-0.10445472,-0.252701,0.425751,3
277174209,277174154,864265,-0.11179411,-0.25251326,0.42476028,3
277730239,277730175,864265,-0.10384022,-0.2556795,0.4264213,3
278286009,278285944,864265,-0.10228967,-0.26639402,0.41722232,3
278702505,278702450,864265,-0.10037872,-0.26503152,0.4176596,3
279262800,279262748,864265,-0.080963396,-0.258087,0.44107664,3
279681165,279681089,864265,-0.10407392,-0.2544324,0.42348242,3
280240358,280240281,864265,-0.12205819,-0.25159347,0.4223039,3
280782420,280727199,864265,-0.11071973,-0.25726345,0.4277521,3
281217381,281217331,864265,-0.119475044,-0.25293618,0.4212243,3
281773389,281773318,864265,-0.102731675,-0.24701712,0.44627422,3
282195197,282195131,864265,-0.13010496,-0.252884,0.41873926,3
282759905,282759830,864265,-0.10069601,-0.27098653,0.4159956,3
283175970,283175894,864265,-0.092125796,-0.2678804,0.43281633,3
283732374,283732306,864265,-0.10788356,-0.26421237,0.41775057,3
284280227,284223780,864265,-0.12566361,-0.26282507,0.41627845,3
284709262,284709199,864265,-0.12518553,-0.24150294,0.42579713,3
285265746,285265681,864265,-0.113552675,-0.28445324,0.40047792,3
285683544,285683492,864265,-0.10311305,-0.2652515,0.43295026,3
286240664,286240448,864265,-0.0968286,-0.23643745,0.448394,3
286785818,286730554,864265,-0.12341915,-0.24597126,0.42707157,3
287222637,287222325,864265,-0.13110258,-0.24506824,0.4225748,3
287777404,287777350,864265,-0.12527652,-0.24381168,0.42565548,3
288200101,288200042,864265,-0.109226756,-0.26428795,0.41804922,3
288756329,288756258,864265,-0.08735624,-0.2867817,0.4048391,3
289176062,289175724,864265,-0.0884916,-0.24154934,0.43758696,3
289736608,289736539,864265,-0.10036278,-0.24149916,0.4482455,3
290288031,290229589,864265,-0.089338385,-0.22831888,0.44567692,3
290726834,290726522,864265,-0.10096622,-0.25309697,0.42592853,3
291286632,291286570,864265,-0.12620933,-0.25761315,0.4164925,3
291712883,291712816,864265,-0.124723576,-0.26342916,0.41262782,3
292274253,292274106,864265,-0.15028232,-0.30470747,0.37396908,3
292690599,292690496,864265,-0.10819438,-0.2104174,0.4469626,3
293254465,293254061,864265,-0.14756054,-0.25161433,0.41298148,3
293674894,293674815,864265,-0.16281617,-0.27468488,0.39189073,3
294234300,294234247,864265,-0.21211374,-0.24474669,0.4031004,3
294780341,294724834,864265,-0.2068701,-0.23772308,0.40856034,3
295217207,295217142,864265,-0.21038455,-0.2360881,0.40475434,3
295782664,295782596,864265,-0.21064043,-0.23644513,0.40532684,3
296200428,296200363,864265,-0.21050797,-0.23618166,0.40548083,3
296756914,296756847,864265,-0.20986755,-0.23675238,0.40533048,3
297173661,297173415,864265,-0.21061178,-0.23623209,0.40383393,3
297733586,297733509,864265,-0.19706282,-0.23930824,0.4176578,3
