timestamp,roll,pitch,yaw,thrust_body[0],thrust_body[1],thrust_body[2],reset_integral
173842268,-0.105643325,-0.23367448,0.009878292,0.0,0.0,0.0,1
173866961,-0.102910936,-0.23370872,0.009625392,0.0,0.0,0.0,1
173886705,-0.10105775,-0.23383157,0.009460239,0.0,0.0,0.0,1
173906691,-0.09860061,-0.23364274,0.00921963,0.0,0.0,0.0,1
173926520,-0.09665955,-0.23363763,0.009039455,0.0,0.0,0.0,1
173946543,-0.09561799,-0.23341611,0.0089321025,0.0,0.0,0.0,1
173966406,-0.09439286,-0.23345497,0.008820857,0.0,0.0,0.0,1
173986174,-0.09458843,-0.23294143,0.0088215405,0.0,0.0,0.0,1
174006364,-0.0945119,-0.23230845,0.008794368,0.0,0.0,0.0,1
174026083,-0.09514572,-0.23148368,0.008824256,0.0,0.0,0.0,1
174045949,-0.09531948,-0.23064895,0.008802717,0.0,0.0,0.0,1
174065673,-0.09578088,-0.22972605,0.008819901,0.0,0.0,0.0,1
174085763,-0.09656254,-0.22849934,0.008840468,0.0,0.0,0.0,1
174105441,-0.096900985,-0.22716884,0.008823939,0.0,0.0,0.0,1
174125423,-0.09754687,-0.22588998,0.008827242,0.0,0.0,0.0,1
174145171,-0.09774886,-0.2253877,0.008821128,0.0,0.0,0.0,1
174165338,-0.09835978,-0.22506869,0.008861161,0.0,0.0,0.0,1
174184990,-0.09887753,-0.22537835,0.0089132115,0.0,0.0,0.0,1
174205138,-0.098964624,-0.22589028,0.008945356,0.0,0.0,0.0,1
174224990,-0.09895237,-0.22676265,0.008966689,0.0,0.0,0.0,1
174244609,-0.099182494,-0.22737798,0.009023147,0.0,0.0,0.0,1
174264900,-0.09921574,-0.22781481,0.009041425,0.0,0.0,0.0,1
174284360,-0.09924644,-0.2278024,0.009048641,0.0,0.0,0.0,1
174304377,-0.09919956,-0.22751306,0.009034127,0.0,0.0,0.0,1
174329068,-0.0994113,-0.22751632,0.009055898,0.0,0.0,0.0,1
174344217,-0.09929031,-0.22744988,0.009039996,0.0,0.0,0.0,1
174363895,-0.0997528,-0.22752653,0.009081931,0.0,0.0,0.0,1
174388831,-0.100612,-0.22695062,0.009141908,0.0,0.0,0.0,1
174403818,-0.1009451,-0.22663069,0.009158035,0.0,0.0,0.0,1
174423619,-0.102243416,-0.2257013,0.009245217,0.0,0.0,0.0,1
174448844,-0.103573725,-0.22447681,0.009316553,0.0,0.0,0.0,1
174468330,-0.10476861,-0.2232765,0.0093796635,0.0,0.0,0.0,1
174483307,-0.10541171,-0.22218138,0.009390225,0.0,0.0,0.0,1
174508044,-0.10678267,-0.22041273,0.009441188,0.0,0.0,0.0,1
174528136,-0.10764122,-0.21889497,0.00944547,0.0,0.0,0.0,1
174542847,-0.10818408,-0.21779971,0.009444952,0.0,0.0,0.0,1
174567794,-0.10956622,-0.21646926,0.00949997,0.0,0.0,0.0,1
174587610,-0.110455096,-0.21612039,0.0095587075,0.0,0.0,0.0,1
174607573,-0.111258246,-0.21556473,0.009606301,0.0,0.0,0.0,1
174627336,-0.111953355,-0.2151599,0.009645052,0.0,0.0,0.0,1
174647358,-0.11219214,-0.2144922,0.009643906,0.0,0.0,0.0,1
174667133,-0.11246504,-0.21433946,0.009643351,0.0,0.0,0.0,1
174682230,-0.11231143,-0.21429288,0.009637361,0.0,0.0,0.0,1
174707095,-0.11214543,-0.21433541,0.009620184,0.0,0.0,0.0,1
174726741,-0.112317145,-0.21428256,0.009634284,0.0,0.0,0.0,1
174747076,-0.11216877,-0.21361881,0.009600087,0.0,0.0,0.0,1
174766497,-0.11292593,-0.21321109,0.009642865,0.0,0.0,0.0,1
174786457,-0.11312992,-0.21249121,0.009630125,0.0,0.0,0.0,1
174806342,-0.11348934,-0.21204881,0.00963603,0.0,0.0,0.0,1
174826314,-0.114189215,-0.21156833,0.009676236,0.0,0.0,0.0,1
174846046,-0.1145532,-0.2116789,0.009702617,0.0,0.0,0.0,1
174866046,-0.11509612,-0.21168123,0.009749436,0.0,0.0,0.0,1
174885825,-0.115138225,-0.21179248,0.009761139,0.0,0.0,0.0,1
174905827,-0.11593716,-0.21199462,0.0098354155,0.0,0.0,0.0,1
174925634,-0.116021,-0.2120069,0.009845005,0.0,0.0,0.0,1
174945577,-0.116661005,-0.21241212,0.009917969,0.0,0.0,0.0,1
174965647,-0.116904445,-0.21249488,0.009943135,0.0,0.0,0.0,1
174985279,-0.11678897,-0.21248686,0.0099349,0.0,0.0,0.0,1
175005263,-0.11686709,-0.21241319,0.009934915,0.0,0.0,0.0,1
175030002,-0.11654505,-0.21303326,0.009930246,0.0,0.0,0.0,1
175045291,-0.116201036,-0.2134187,0.009917605,0.0,0.0,0.0,1
175064820,-0.11522595,-0.21420111,0.009871325,0.0,0.0,0.0,1
175084731,-0.11493872,-0.21509655,0.009888162,0.0,0.0,0.0,1
175104507,-0.11393234,-0.21588168,0.009832765,0.0,0.0,0.0,1
175124657,-0.11295971,-0.21684845,0.009798322,0.0,0.0,0.0,1
175144347,-0.11212007,-0.21795745,0.0097663505,0.0,0.0,0.0,1
175169260,-0.110416986,-0.21958919,0.009687928,0.0,0.0,0.0,1
175184205,-0.109549455,-0.22038352,0.009648184,0.0,0.0,0.0,1
175204012,-0.1081185,-0.2215422,0.00957805,0.0,0.0,0.0,1
175229011,-0.107046776,-0.22203748,0.009512076,0.0,0.0,0.0,1
175243722,-0.106661625,-0.22209409,0.00948068,0.0,0.0,0.0,1
175263767,-0.10573957,-0.22181483,0.009395855,0.0,0.0,0.0,1
175288552,-0.10434321,-0.22128041,0.009247051,0.0,0.0,0.0,1
175308534,-0.10367045,-0.22038603,0.009152366,0.0,0.0,0.0,1
175323409,-0.10261563,-0.21969293,0.00903092,0.0,0.0,0.0,1
175348153,-0.10087659,-0.21868281,0.008835537,0.0,0.0,0.0,1
175368083,-0.09892618,-0.2179507,0.008634929,0.0,0.0,0.0,1
175382939,-0.09789634,-0.21763305,0.008531468,0.0,0.0,0.0,1
175402842,-0.09663395,-0.216838,0.008393544,0.0,0.0,0.0,1
175427662,-0.095792525,-0.2161461,0.00829285,0.0,0.0,0.0,1
175447773,-0.09561091,-0.21544299,0.008248764,0.0,0.0,0.0,1
175462438,-0.09505391,-0.21502638,0.008181182,0.0,0.0,0.0,1
175487449,-0.094725095,-0.21394353,0.00811863,0.0,0.0,0.0,1
175507201,-0.09422097,-0.21285652,0.008036546,0.0,0.0,0.0,1
175522531,-0.094494626,-0.21215342,0.008029868,0.0,0.0,0.0,1
175546947,-0.09458802,-0.21101962,0.007990754,0.0,0.0,0.0,1
175567008,-0.094228655,-0.21047853,0.007945255,0.0,0.0,0.0,1
175586803,-0.09428145,-0.21029381,0.007932843,0.0,0.0,0.0,1
175606733,-0.094109565,-0.210432,0.0079228915,0.0,0.0,0.0,1
175626561,-0.09391263,-0.2107414,0.007915978,0.0,0.0,0.0,1
175646432,-0.09292655,-0.2112668,0.00785309,0.0,0.0,0.0,1
175666552,-0.09200412,-0.21147256,0.0077834004,0.0,0.0,0.0,1
175686157,-0.09135396,-0.21207385,0.0077456427,0.0,0.0,0.0,1
175706441,-0.09041202,-0.21257672,0.0076916954,0.0,0.0,0.0,1
175726060,-0.08948775,-0.21279265,0.0076159122,0.0,0.0,0.0,1
175745891,-0.0886202,-0.21238483,0.007537141,0.0,0.0,0.0,1
175765766,-0.08781467,-0.21199834,0.007453023,0.0,0.0,0.0,1
175785758,-0.087153345,-0.21133983,0.0073764217,0.0,0.0,0.0,1
175805501,-0.08645921,-0.21012929,0.007281192,0.0,0.0,0.0,1
175825434,-0.086489886,-0.20938878,0.007252886,0.0,0.0,0.0,1
175845241,-0.08641147,-0.20866086,0.0072206976,0.0,0.0,0.0,1
175865337,-0.08708493,-0.20841762,0.0072626327,0.0,0.0,0.0,1
175885097,-0.087849416,-0.20833938,0.0073250225,0.0,0.0,0.0,1
175904931,-0.088659145,-0.20887184,0.0074032284,0.0,0.0,0.0,1
175924981,-0.08941889,-0.20953125,0.0074890507,0.0,0.0,0.0,1
175944723,-0.08939435,-0.21061188,0.00752499,0.0,0.0,0.0,1
175964928,-0.08954448,-0.21184868,0.007579978,0.0,0.0,0.0,1
175984413,-0.08841792,-0.2126642,0.0075174747,0.0,0.0,0.0,1
176009480,-0.08675048,-0.21394876,0.0074217524,0.0,0.0,0.0,1
176024286,-0.08533243,-0.21471603,0.0073234085,0.0,0.0,0.0,1
176044269,-0.08369212,-0.21578448,0.007217972,0.0,0.0,0.0,1
176068943,-0.08196303,-0.21687962,0.0071058706,0.0,0.0,0.0,1
176084062,-0.08080307,-0.21778303,0.007033202,0.0,0.0,0.0,1
176103740,-0.08027726,-0.21882915,0.007019069,0.0,0.0,0.0,1
176128737,-0.07936218,-0.22021005,0.0069825896,0.0,0.0,0.0,1
176148875,-0.07882948,-0.2210018,0.0069680554,0.0,0.0,0.0,1
176163454,-0.078561276,-0.22143504,0.0069553284,0.0,0.0,0.0,1
176188308,-0.07840592,-0.22217068,0.0069659175,0.0,0.0,0.0,1
176208143,-0.07802729,-0.22286488,0.0069533936,0.0,0.0,0.0,1
176223121,-0.07773592,-0.2232486,0.0069411877,0.0,0.0,0.0,1
176242879,-0.07748293,-0.22339632,0.006923983,0.0,0.0,0.0,1
176267960,-0.0768337,-0.22357598,0.006873175,0.0,0.0,0.0,1
176287676,-0.076003835,-0.22324532,0.0067926943,0.0,0.0,0.0,1
176302822,-0.07549049,-0.22301093,0.006739127,0.0,0.0,0.0,1
176327492,-0.07496596,0.21393646,-0.0064113284,0.0,0.0,0.0,1
176347396,-0.07491063,0.21470678,-0.0064307293,0.0,0.0,0.0,1
176362176,-0.075453065,0.21517093,-0.006491899,0.0,0.0,0.0,1
176387010,-0.0767802,0.21549958,-0.0066180336,0.0,0.0,0.0,1
176407041,-0.07876167,0.21566272,-0.006792295,0.0,0.0,0.0,1
176426960,-0.08008558,0.21579424,-0.0069131637,0.0,0.0,0.0,1
176446873,-0.08184596,0.21607141,-0.007075494,0.0,0.0,0.0,1
176466607,-0.08366052,0.21644083,-0.007243372,0.0,0.0,0.0,1
176486612,-0.085364334,0.21672958,-0.0074030804,0.0,0.0,0.0,1
176506332,-0.08648955,0.21678884,-0.0075031114,0.0,0.0,0.0,1
176526445,-0.08705044,0.2167267,-0.007549575,0.0,0.0,0.0,1
176546213,-0.087497756,0.21670693,-0.00758811,0.0,0.0,0.0,1
176566079,-0.08838465,0.21648669,-0.007659767,0.0,0.0,0.0,1
176585926,-0.0890232,0.21603082,-0.0076998114,0.0,0.0,0.0,1
176605809,-0.089388184,0.21589546,-0.0077221254,0.0,0.0,0.0,1
176625737,-0.0894738,0.21609378,-0.007735513,0.0,0.0,0.0,1
176645522,-0.08959742,0.21640837,-0.0077556027,0.0,0.0,0.0,1
176665738,-0.089875385,0.21720667,-0.007801802,0.0,0.0,0.0,1
176685377,-0.0897675,0.21885948,-0.007844502,0.0,0.0,0.0,1
176705290,-0.08983559,0.22111617,-0.00792808,0.0,0.0,0.0,1
176725070,-0.089948714,0.2233375,-0.008019597,0.0,0.0,0.0,1
176745262,-0.08955855,0.22551203,-0.008062551,0.0,0.0,0.0,1
176764806,-0.08824312,0.22774352,-0.00802284,0.0,0.0,0.0,1
176784777,-0.08610351,0.23004745,-0.007906032,0.0,0.0,0.0,1
176804620,-0.08294466,0.23231213,-0.0076927105,0.0,0.0,0.0,1
176824863,-0.07802471,0.23395453,-0.007294217,0.0,0.0,0.0,1
176849602,-0.07035613,0.23508663,-0.00661244,0.0,0.0,0.0,1
176864258,-0.064361185,0.23537304,-0.0060599893,0.0,0.0,0.0,1
176884311,-0.05507076,0.23492952,-0.0051811966,0.0,0.0,0.0,1
176908999,-0.04238751,0.231906,-0.003948104,0.0,0.0,0.0,1
176924427,-0.035103492,0.22799383,-0.0032224183,0.0,0.0,0.0,1
176943852,-0.025531206,0.22039366,-0.0022720157,0.0,0.0,0.0,1
176968939,-0.0132584255,0.20934406,-0.0011224602,0.0,0.0,0.0,1
176988527,-0.0043315534,0.1995042,-0.00035011244,0.0,0.0,0.0,1
177003550,0.0013072514,0.19135295,0.000101514386,0.0,0.0,0.0,1
177028266,0.008840728,0.17617093,0.00063429127,0.0,0.0,0.0,1
177048274,0.014031114,0.16311352,0.0009337226,0.0,0.0,0.0,1
177063074,0.017983064,0.15387852,0.0011282285,0.0,0.0,0.0,1
177082999,0.022429956,0.14298153,0.0013058266,0.0,0.0,0.0,1
177108267,0.026369719,0.13138387,0.0014090769,0.0,0.0,0.0,1
177127834,0.029135913,0.12312858,0.0014580066,0.0,0.0,0.0,1
177142935,0.031292196,0.11779194,0.0014954017,0.0,0.0,0.0,1
177167487,0.035185497,0.1110532,0.0015782111,0.0,0.0,0.0,1
177187593,0.036940444,0.1084082,0.0016075782,0.0,0.0,0.0,1
177202252,0.037585568,0.10851826,0.0016283549,0.0,0.0,0.0,1
177227250,0.03738263,0.11140762,0.001654939,0.0,0.0,0.0,1
177247038,0.035806764,0.11482011,0.0016318283,0.0,0.0,0.0,1
177267077,0.033532906,0.11861267,0.0015781232,0.0,0.0,0.0,1
177286849,0.03075059,0.12247124,0.0014944259,0.0,0.0,0.0,1
177306709,0.028116832,0.12681575,0.0014129286,0.0,0.0,0.0,1
177326810,0.025736935,0.1324974,0.0013480184,0.0,0.0,0.0,1
177346443,0.024250396,0.13960859,0.001335949,0.0,0.0,0.0,1
177366733,0.024641244,0.14773583,0.00143557,0.0,0.0,0.0,1
177386401,0.026876722,0.15591958,0.0016549338,0.0,0.0,0.0,1
177406206,0.03013439,0.16358326,0.0019493257,0.0,0.0,0.0,1
177426029,0.03382357,0.17105246,0.0022885813,0.0,0.0,0.0,1
177445952,0.038008753,0.17875369,0.0026881052,0.0,0.0,0.0,1
177465765,0.0426695,0.18670417,0.003153032,0.0,0.0,0.0,1
177485819,0.04667934,0.19425264,0.0035933813,0.0,0.0,0.0,1
177505510,0.049706995,0.20101093,0.0039653354,0.0,0.0,0.0,1
177525647,0.052330147,0.20679218,0.0043004844,0.0,0.0,0.0,1
177545467,0.053935967,0.21192336,0.0045458344,0.0,0.0,0.0,1
177565235,0.05457212,0.21660328,0.004704719,0.0,0.0,0.0,1
177585082,0.05422779,0.22028123,0.0047625243,0.0,0.0,0.0,1
177604975,0.052976795,0.22150357,0.004695095,0.0,0.0,0.0,1
177625055,0.049680267,0.2190797,0.0043732226,0.0,0.0,0.0,1
177644697,0.04424135,0.21276546,0.0037998208,0.0,0.0,0.0,1
177665079,0.03543471,0.20320876,0.002917775,0.0,0.0,0.0,1
177689440,0.017878164,0.18694252,0.0013643602,0.0,0.0,0.0,1
177704563,0.003130739,0.17431359,0.00022359857,0.0,0.0,0.0,1
177724248,-0.013255724,0.16109157,-0.0008679131,0.0,0.0,0.0,1
177749226,-0.017848592,0.15403245,-0.0011004852,0.0,0.0,0.0,1
177763990,-0.015172256,0.16002993,-0.00095272984,0.0,0.0,0.0,1
177784169,-0.005638806,-0.2548214,0.0005891085,0.0,0.0,0.0,0
177803838,-0.007948247,0.21302438,-0.0006486356,1.0,0.0,0.0,0
177823680,-0.020284576,0.2616836,-0.002006485,1.0,0.0,0.0,0
177843701,-0.042729042,0.33033946,-0.005343046,1.0,0.0,0.0,0
177863620,-0.06624731,0.3887933,-0.009982865,1.0,0.0,0.0,0
177888353,-0.07486843,0.4228096,-0.012544453,1.0,0.0,0.0,0
177903206,-0.07006433,0.43157595,-0.01204019,1.0,0.0,0.0,0
177923206,-0.039187,0.43831104,-0.0068644965,1.0,0.0,0.0,0
177947909,0.040061772,0.4308106,0.006944891,1.0,0.0,0.0,0
177967952,0.1022635,0.41384864,0.017148256,1.0,0.0,0.0,0
177982789,0.1479411,0.39313895,0.023738904,1.0,0.0,0.0,0
178007616,0.19905595,0.34498948,0.02836548,1.0,0.0,0.0,0
178027549,0.21948867,0.30133086,0.02745285,1.0,0.0,0.0,0
178042506,0.2226407,0.27121246,0.0250793,1.0,0.0,0.0,0
178067538,0.20350626,0.22646709,0.019168261,1.0,0.0,0.0,0
178087110,0.17836025,0.19406919,0.014409718,1.0,0.0,0.0,0
178107095,0.14629744,0.16819139,0.010185568,1.0,0.0,0.0,0
178127128,0.1202193,0.14840053,0.0073640267,1.0,0.0,0.0,0
178147010,0.10224688,0.13565332,0.0056609744,1.0,0.0,0.0,0
178166634,0.094076484,0.12898105,0.0048973532,1.0,0.0,0.0,0
178186698,0.093375884,0.12521724,0.0047131204,1.0,0.0,0.0,0
178206428,0.09555866,0.12254489,0.004717282,1.0,0.0,0.0,0
178226543,0.09808742,0.11874005,0.004706453,1.0,0.0,0.0,0
178246270,0.10102924,0.11145258,0.0045973067,1.0,0.0,0.0,0
178266158,0.10488252,0.09889707,0.004300612,1.0,0.0,0.0,0
178286115,0.10698325,0.08361561,0.0037425247,1.0,0.0,0.0,0
178305863,0.110619746,0.069213614,0.0032107935,1.0,0.0,0.0,0
178326130,0.11630868,0.057784203,0.0028104747,1.0,0.0,0.0,0
178345640,0.1226439,0.05075704,0.0025591035,1.0,0.0,0.0,0
178365605,0.1295787,0.04713552,0.0024839519,1.0,0.0,0.0,0
178385388,0.13880715,0.044382222,0.0024997746,1.0,0.0,0.0,0
178405515,0.14854293,0.042615153,0.0025555359,1.0,0.0,0.0,0
178425240,0.15746102,0.04152612,0.002634881,1.0,0.0,0.0,0
178445259,0.16815968,0.039558236,0.0027125818,1.0,0.0,0.0,0
178464928,0.17638265,0.03474299,0.0025679576,1.0,0.0,0.0,0
178484904,0.17921679,0.02560456,0.0020319829,1.0,0.0,0.0,0
178504712,0.18108809,0.012731829,0.0011796303,1.0,0.0,0.0,0
178529618,0.1790362,-0.0067728306,-0.00022770876,1.0,0.0,0.0,0
178544681,0.17744246,-0.017233985,-0.0009761321,1.0,0.0,0.0,0
178564453,0.16985159,-0.03197284,-0.0019257647,1.0,0.0,0.0,0
178589357,0.15591246,-0.051719535,-0.0029755677,1.0,0.0,0.0,0
178604110,0.146365,-0.063759744,-0.003496948,1.0,0.0,0.0,0
178624413,0.13352695,-0.0797769,-0.004061288,1.0,0.0,0.0,0
178643958,0.12223553,-0.09397982,-0.004433631,1.0,0.0,0.0,0
178663890,0.112084664,-0.10677635,-0.004649862,1.0,0.0,0.0,0
178683653,0.10032299,-0.11885149,-0.004650277,1.0,0.0,0.0,0
178703649,0.09489405,-0.13317436,-0.004914557,1.0,0.0,0.0,0
178728434,0.09433189,-0.15504436,-0.0056812586,1.0,0.0,0.0,0
178743511,0.09346844,-0.16822505,-0.006129913,1.0,0.0,0.0,0
178763187,0.09595116,-0.18388645,-0.0069249943,1.0,0.0,0.0,0
178788091,0.10263279,-0.19944352,-0.008064698,1.0,0.0,0.0,0
178808270,0.115264475,-0.2140556,-0.0096835755,1.0,0.0,0.0,0
178823022,0.12251534,-0.22864902,-0.010960885,1.0,0.0,0.0,0
178847789,0.13450244,-0.25832033,-0.013576024,1.0,0.0,0.0,0
178867618,0.14403626,-0.28455415,-0.016035581,1.0,0.0,0.0,0
178882651,0.151644,-0.30436277,-0.018077433,1.0,0.0,0.0,0
178907333,0.16323717,-0.34281886,-0.021845914,1.0,0.0,0.0,0
178927304,0.1680924,-0.38472286,-0.025142122,1.0,0.0,0.0,0
178947212,0.17512086,-0.43494904,-0.029598782,1.0,0.0,0.0,0
178967168,0.18483984,-0.48859978,-0.03519811,1.0,0.0,0.0,0
178986934,0.19783945,-0.5337389,-0.041591004,1.0,0.0,0.0,0
179006776,0.21184967,-0.5465207,-0.04648852,1.0,0.0,0.0,0
179021760,0.2212527,-0.527347,-0.047595356,1.0,0.0,0.0,0
179046613,0.2325643,-0.45480978,-0.04404689,1.0,0.0,0.0,0
179066862,0.23771411,-0.37638858,-0.037879247,1.0,0.0,0.0,0
179086389,0.21885334,-0.28806534,-0.027134242,1.0,0.0,0.0,0
179106371,0.20004159,-0.24415614,-0.019816091,1.0,0.0,0.0,0
179126059,0.16915464,-0.2369918,-0.016431617,1.0,0.0,0.0,0
179146132,0.12818258,-0.19866565,-0.010732712,1.0,0.0,0.0,0
179165839,0.08955468,-0.17185505,-0.006298825,1.0,0.0,0.0,0
179185922,0.055870898,-0.16757743,-0.003759047,1.0,0.0,0.0,0
179205591,0.03563216,-0.14954728,-0.0022441268,1.0,0.0,0.0,0
179225587,0.023881735,-0.097231045,-0.0010757837,1.0,0.0,0.0,0
179245558,0.026756532,-0.03869677,-0.0005607134,1.0,0.0,0.0,0
179265378,0.052783374,0.0013644559,-0.00014623719,1.0,0.0,0.0,0
179285460,0.08188223,0.0340231,-0.0029268302,1.0,0.0,0.0,0
179305020,0.10132751,0.081380256,-0.014793609,1.0,0.0,0.0,0
179325057,0.119581185,0.13466726,-0.023119884,1.0,0.0,0.0,0
179344804,0.13355595,0.17124753,-0.028901584,1.0,0.0,0.0,0
179369791,0.13860159,0.19436194,-0.034047905,1.0,0.0,0.0,0
179384650,0.12942831,0.20683625,-0.034595273,1.0,0.0,0.0,0
179404659,0.10032916,0.22128747,-0.013880448,1.0,0.0,0.0,0
179429367,0.04608587,0.22275627,-0.016258413,1.0,0.0,0.0,0
179444289,0.020260967,0.21058604,-0.015164766,1.0,0.0,0.0,0
179464186,-0.016816039,0.18867527,-0.0072698733,1.0,0.0,0.0,0
179484022,-0.047216535,0.16850117,0.005508742,1.0,0.0,0.0,0
179503990,-0.064289264,0.14643043,-0.0039231246,1.0,0.0,0.0,0
179523811,-0.08557767,0.11784276,-0.0042932015,1.0,0.0,0.0,0
179543929,-0.08095264,0.09004199,-0.0031193083,1.0,0.0,0.0,0
179568459,-0.04437609,0.070715845,-0.0012942236,1.0,0.0,0.0,0
179583749,-0.008743536,0.068056725,-0.00023912186,1.0,0.0,0.0,0
179603265,0.048207797,0.07010449,0.0013329843,1.0,0.0,0.0,0
179628332,0.12347774,0.08154252,0.0038621668,1.0,0.0,0.0,0
179648068,0.17393953,0.101328984,0.0066458057,1.0,0.0,0.0,0
179663029,0.19713192,0.120966315,0.009016307,1.0,0.0,0.0,0
179687946,0.20313288,0.15289168,0.01198176,1.0,0.0,0.0,0
179707731,0.17660487,0.1725502,0.0118980585,1.0,0.0,0.0,0
179722560,0.14262605,0.18488023,0.010335391,1.0,0.0,0.0,0
179747442,0.06809886,0.20563959,0.0054916283,1.0,0.0,0.0,0
179767599,0.006027587,0.22109392,0.0005246147,1.0,0.0,0.0,0
179787263,-0.0482673,0.23053169,-0.004418082,1.0,0.0,0.0,0
179807296,-0.08528178,0.23367536,-0.0079585,1.0,0.0,0.0,0
179827093,-0.09803829,0.23272803,-0.009150259,1.0,0.0,0.0,0
179847068,-0.08446082,0.2304225,-0.0078099966,1.0,0.0,0.0,0
179866733,-0.044301584,0.22760813,-0.0040477333,1.0,0.0,0.0,0
179886698,0.016463129,0.22422504,0.0014818411,1.0,0.0,0.0,0
179906571,0.088050455,0.22226205,0.007835185,1.0,0.0,0.0,0
179926629,0.15875086,0.22391379,0.014188494,1.0,0.0,0.0,0
179946276,0.22082874,0.22686647,0.020018294,1.0,0.0,0.0,0
179966173,0.2656237,0.22885187,0.024350861,1.0,0.0,0.0,0
179986231,0.28991175,0.23167723,0.02687462,1.0,0.0,0.0,0
180006026,0.29463997,0.23809417,0.02796419,1.0,0.0,0.0,0
180026156,0.27901712,0.24623315,0.02737941,1.0,0.0,0.0,0
180045768,0.2464551,0.2546134,0.024984522,1.0,0.0,0.0,0
180065684,0.20653859,0.2632915,0.021626215,1.0,0.0,0.0,0
180085491,0.15711527,0.2729188,0.017029686,1.0,0.0,0.0,0
180105582,0.10811841,0.27997687,0.0120705785,1.0,0.0,0.0,0
180125343,0.07187671,0.27794623,0.008036142,1.0,0.0,0.0,0
180145442,0.04872361,0.2657999,0.0052528763,1.0,0.0,0.0,0
180165025,0.05077282,0.2489417,0.005144297,1.0,0.0,0.0,0
180184924,0.07124135,0.23216565,0.006732928,1.0,0.0,0.0,0
180204840,0.10630973,0.21604304,0.00936604,1.0,0.0,0.0,0
180224779,0.15487869,0.19972678,0.012639342,1.0,0.0,0.0,0
180244743,0.20326848,0.18576352,0.015362758,1.0,0.0,0.0,0
180264399,0.25258452,0.18111809,0.018357707,1.0,0.0,0.0,0
180284831,0.29250458,0.18801114,0.021772994,1.0,0.0,0.0,0
180304263,0.3191468,0.20309499,0.025509972,1.0,0.0,0.0,0
180324167,0.33623105,0.22192991,0.029367946,1.0,0.0,0.0,0
180348960,0.32980952,0.2466274,0.03208401,1.0,0.0,0.0,0
180364032,0.31922954,0.26024833,0.032865733,1.0,0.0,0.0,0
180383715,0.29012722,0.27430582,0.03165275,1.0,0.0,0.0,0
180408623,0.24236429,0.2808188,0.027306275,1.0,0.0,0.0,0
180423556,0.21400505,0.27783254,0.023979343,1.0,0.0,0.0,0
180443439,0.17545395,0.2664197,0.01898934,1.0,0.0,0.0,0
180468631,0.15002139,0.27863315,0.017099664,1.0,0.0,0.0,0
180488087,0.12920822,0.28707764,0.0152536845,1.0,0.0,0.0,0
180503236,0.12046853,0.3014512,0.014922973,1.0,0.0,0.0,0
180527933,0.112249345,0.29892528,0.013727911,1.0,0.0,0.0,0
180547992,0.11052761,0.31309035,0.0140587995,1.0,0.0,0.0,0
180562837,0.1173599,0.33782095,0.016036635,1.0,0.0,0.0,0
180587764,0.13051741,0.3267109,0.01724948,1.0,0.0,0.0,0
180607439,0.14687002,0.3104859,0.01848756,1.0,0.0,0.0,0
180627343,0.16425706,0.29787964,0.019817656,1.0,0.0,0.0,0
180647355,0.17882572,0.2883757,0.02083448,1.0,0.0,0.0,0
180667139,0.18928476,0.2801244,0.021435345,1.0,0.0,0.0,0
180687037,0.19403394,0.2698858,0.021215456,1.0,0.0,0.0,0
180702142,0.19369489,0.26235062,0.020576112,1.0,0.0,0.0,0
180726987,0.18113668,0.25268927,0.018483296,1.0,0.0,0.0,0
180746719,0.16185158,0.24551564,0.016070478,1.0,0.0,0.0,0
180767079,0.13775837,0.23576882,0.013167271,1.0,0.0,0.0,0
180786373,0.11018846,0.22615829,0.010067047,1.0,0.0,0.0,0
180806448,0.090561785,0.22318205,0.008074799,1.0,0.0,0.0,0
180826140,0.075280294,0.22739969,0.006803648,1.0,0.0,0.0,0
180846163,0.06707905,0.23093694,0.0061870427,1.0,0.0,0.0,0
180865931,0.06614446,0.23214772,0.006150083,1.0,0.0,0.0,0
180886073,0.06615289,0.23297556,0.0061737555,1.0,0.0,0.0,0
180905698,0.06685239,0.2326877,0.0062454217,1.0,0.0,0.0,0
180925604,0.064541385,0.22711942,0.005935165,1.0,0.0,0.0,0
180945577,0.0621927,0.2138634,0.0054414473,1.0,0.0,0.0,0
180965415,0.06411973,0.19522959,0.0051546316,1.0,0.0,0.0,0
180985528,0.06464598,0.17430894,0.004663875,1.0,0.0,0.0,0
181005162,0.06749721,0.1522036,0.004280686,1.0,0.0,0.0,0
181025132,0.06377063,0.12820065,0.0034356883,1.0,0.0,0.0,0
181044891,0.05861141,0.10668389,0.0026163296,1.0,0.0,0.0,0
181064853,0.05107375,0.09555923,0.0019809043,1.0,0.0,0.0,0
181084694,0.04847117,0.09580883,0.0018363668,1.0,0.0,0.0,0
181104725,0.04996346,0.10279722,0.0020134803,1.0,0.0,0.0,0
181124392,0.055153582,0.114465244,0.0024546676,1.0,0.0,0.0,0
181144449,0.050956056,0.13080534,0.0025862432,1.0,0.0,0.0,0
181164205,0.05329506,0.14666356,0.003059332,1.0,0.0,0.0,0
181189047,0.045048334,0.15875924,0.0028483367,1.0,0.0,0.0,0
181204098,0.04376778,0.16304408,0.002850524,1.0,0.0,0.0,0
181223891,0.04260833,0.16688876,0.0028406575,1.0,0.0,0.0,0
181248764,0.029264374,0.16713245,0.0019646748,1.0,0.0,0.0,0
181263690,0.022527874,0.16659324,0.0015129627,1.0,0.0,0.0,0
181283622,0.004092215,0.1633727,0.00026873662,1.0,0.0,0.0,0
181308353,-0.011907166,0.16375665,-0.00078092836,1.0,0.0,0.0,0
181328382,-0.028436622,0.16129196,-0.0018557304,1.0,0.0,0.0,0
181343131,-0.03689732,0.15525754,-0.0023387799,1.0,0.0,0.0,0
181368002,-0.048721075,0.14065003,-0.002800874,1.0,0.0,0.0,0
181388046,-0.056658834,0.13162018,-0.0030400723,1.0,0.0,0.0,0
181402824,0.008915815,0.12509526,0.009440536,0.9989754,0.0,0.0,0
181422728,0.09713909,0.11156867,0.009180384,0.99775004,0.0,0.0,0
181447518,0.1966827,0.09522965,0.0074876985,0.9964586,0.0,0.0,0
181467417,0.30413517,0.08834053,0.0046774824,0.99511296,0.0,0.0,0
181487340,0.41165626,0.08413424,0.002217735,0.993752,0.0,0.0,0
181507267,0.51203597,0.080618925,0.0014952916,0.9922866,0.0,0.0,0
181527195,0.6007547,0.07764372,0.003228321,0.9909738,0.0,0.0,0
181542398,0.6846174,0.0781838,0.0059038126,0.98955697,0.0,0.0,0
181566829,0.7471492,0.08264579,0.012113349,0.9880719,0.0,0.0,0
181586826,0.81115395,0.08977874,0.018082777,0.986613,0.0,0.0,0
181606588,0.8696102,0.0977586,0.024843633,0.98514146,0.0,0.0,0
181626547,0.92559344,0.10648151,0.03220885,0.98354703,0.0,0.0,0
181646459,0.9816224,0.1159932,0.03978144,0.9821891,0.0,0.0,0
181666226,1.0379876,0.12723324,0.046733562,0.98077166,0.0,0.0,0
181686400,1.0949398,0.1370309,0.053185705,0.97940546,0.0,0.0,0
181706072,1.1351483,0.14881223,0.062206354,0.9780881,0.0,0.0,0
181726266,1.08325,0.16149423,0.06887415,0.97681326,0.0,0.0,0
181745779,1.0247931,0.1734672,0.07625896,0.9755462,0.0,0.0,0
181765813,0.9603607,0.18201345,0.08479888,0.97444975,0.0,0.0,0
181785608,0.8928118,0.18929224,0.09391483,0.97335875,0.0,0.0,0
181805536,0.8200853,0.19489828,0.10006109,0.9723468,0.0,0.0,0
181825293,0.7505578,0.20163527,0.10925479,0.9713428,0.0,0.0,0
181845412,0.6964381,0.20530514,0.11726526,0.9704002,0.0,0.0,0
181865129,0.6557542,0.20401633,0.124724284,0.9694902,0.0,0.0,0
181889921,0.61606514,0.19553472,0.13486165,0.9685917,0.0,0.0,0
181905000,0.60490173,0.18657754,0.13460168,0.9678054,0.0,0.0,0
181924779,0.5839466,0.17781709,0.14203173,0.96690494,0.0,0.0,0
181944898,0.5708638,0.16872926,0.14847584,0.96616745,0.0,0.0,0
181964595,0.5632909,0.15980549,0.15348548,0.96534276,0.0,0.0,0
181984976,0.55078,0.15175936,0.15914467,0.9645072,0.0,0.0,0
182004302,0.54527247,0.14786617,0.17242508,0.9636043,0.0,0.0,0
182029235,0.5268917,0.14121224,0.1788386,0.9628224,0.0,0.0,0
182044008,0.5144469,0.14061095,0.18119518,0.96196586,0.0,0.0,0
182064126,0.48861906,0.14570063,0.18414597,0.961011,0.0,0.0,0
182088814,0.43665072,0.16218469,0.18778864,0.9601032,0.0,0.0,0
182103909,0.3961736,0.17742187,0.18859376,0.9591256,0.0,0.0,0
182123612,0.33309305,0.20220786,0.19007275,0.95811534,0.0,0.0,0
182148543,0.24019097,0.23729132,0.19247086,0.9571332,0.0,0.0,0
182168711,0.16081241,0.2646596,0.19497363,0.95620245,0.0,0.0,0
182183279,0.09949625,0.2838871,0.19730775,0.95532006,0.0,0.0,0
182208263,0.01783472,0.295757,0.18653397,0.9544635,0.0,0.0,0
182228023,-0.030043375,0.30491057,0.18974,0.95367974,0.0,0.0,0
182242991,-0.061044443,0.30953485,0.19123721,0.95276576,0.0,0.0,0
182267726,-0.07346931,0.3055479,0.19321167,0.9519969,0.0,0.0,0
182287774,-0.06725032,0.29514155,0.19413191,0.9511566,0.0,0.0,0
182307469,-0.060262118,0.28337762,0.19874409,0.9503057,0.0,0.0,0
182322537,-0.050676364,0.27112505,0.20005353,0.9494317,0.0,0.0,0
182347454,-0.040358625,0.25187954,0.20388149,0.94844055,0.0,0.0,0
182367196,-0.04072891,0.2365057,0.20780246,0.94750524,0.0,0.0,0
182382174,-0.050211996,0.2266561,0.21094514,0.94645804,0.0,0.0,0
182406910,-0.062850185,0.21340303,0.21312414,0.9453655,0.0,0.0,0
182426878,-0.08965147,0.20891218,0.21709551,0.9442224,0.0,0.0,0
182446709,-0.11814116,0.20442615,0.21572071,0.9430108,0.0,0.0,0
182466702,-0.15078443,0.20119935,0.21220762,0.9417666,0.0,0.0,0
182486424,-0.18368071,0.19663331,0.20930035,0.94043523,0.0,0.0,0
182506477,-0.21383946,0.1984557,0.22412744,0.93833995,0.0,0.0,0
182526261,-0.24601808,0.18835537,0.22526437,0.9362694,0.0,0.0,0
182546221,-0.27668887,0.18089738,0.22458485,0.9345104,0.0,0.0,0
182565983,-0.30338106,0.17578663,0.22191715,0.93251246,0.0,0.0,0
182585908,-0.32617468,0.17090334,0.21933553,0.9302177,0.0,0.0,0
182605791,-0.33776212,0.16323806,0.2173142,0.92777336,0.0,0.0,0
182625685,-0.3439245,0.15760028,0.21503296,0.9243362,0.0,0.0,0
182645696,-0.3444912,0.15302932,0.21206027,0.92062306,0.0,0.0,0
182665682,-0.32972133,0.1485943,0.20952152,0.91650957,0.0,0.0,0
182685676,-0.31475338,0.14328134,0.20817065,0.9116863,0.0,0.0,0
182705247,-0.2890141,0.12812047,0.19646634,0.9071572,0.0,0.0,0
182725303,-0.27773863,0.11948467,0.1975405,0.9016532,0.0,0.0,0
182745031,-0.2653074,0.109481424,0.19954354,0.89669514,0.0,0.0,0
182764949,-0.25511807,0.10026929,0.2002004,0.89170814,0.0,0.0,0
182784730,-0.25397572,0.09316818,0.19716798,0.88413477,0.0,0.0,0
182804728,-0.23908505,0.08994975,0.19294047,0.87870014,0.0,0.0,0
182824476,-0.23007876,0.090465665,0.18883282,0.8734604,0.0,0.0,0
182844598,-0.21684639,0.09505314,0.18502541,0.87086296,0.0,0.0,0
182864267,-0.21845452,0.10096297,0.17751801,0.8637476,0.0,0.0,0
182884182,-0.21336812,0.11197521,0.17142321,0.8613543,0.0,0.0,0
182904169,-0.21163045,0.13001654,0.18202834,0.85747105,0.0,0.0,0
182928847,-0.19488162,0.13816792,0.17806646,0.85461247,0.0,0.0,0
182944181,-0.18438,0.139688,0.17646152,0.8522214,0.0,0.0,0
182963735,-0.164532,0.13987242,0.17481698,0.8493268,0.0,0.0,0
182983689,-0.15268955,0.14674142,0.1710572,0.84653527,0.0,0.0,0
183008460,-0.12145352,0.15125926,0.14924426,0.8453594,0.0,0.0,0
183023510,-0.11600841,0.15797892,0.14559075,0.8383615,0.0,0.0,0
183048153,-0.10092456,0.15802006,0.14590086,0.8345192,0.0,0.0,0
183068179,-0.0963788,0.15528154,0.14695765,0.8303424,0.0,0.0,0
183082948,-0.10154317,0.15607443,0.14596903,0.8266629,0.0,0.0,0
183102907,-0.10203781,0.15998612,0.15031332,0.8244886,0.0,0.0,0
183128011,-0.10865428,0.16086555,0.14882657,0.8225493,0.0,0.0,0
183147698,-0.10972821,0.1587318,0.14886369,0.8208242,0.0,0.0,0
183162758,-0.10486293,0.15640572,0.14853054,0.81873137,0.0,0.0,0
183187434,-0.099578805,0.16450284,0.14499943,0.8161088,0.0,0.0,0
183207362,-0.07948227,0.17906593,0.13927811,0.8136745,0.0,0.0,0
183222146,-0.07617965,0.1902838,0.13419807,0.81084543,0.0,0.0,0
183247212,-0.07699512,0.19966973,0.12951127,0.80910057,0.0,0.0,0
183266857,-0.08413011,0.20108266,0.12742385,0.8073346,0.0,0.0,0
183286917,-0.10814639,0.20535111,0.123165764,0.8059521,0.0,0.0,0
183306704,-0.13801244,0.20573573,0.112468995,0.8050096,0.0,0.0,0
183326544,-0.17834479,0.20254377,0.107863314,0.80299646,0.0,0.0,0
183346688,-0.23288609,0.19903196,0.10336476,0.8013977,0.0,0.0,0
183366426,-0.27906123,0.19833854,0.09736452,0.7999603,0.0,0.0,0
183386757,-0.32930908,0.1967415,0.091361634,0.79819363,0.0,0.0,0
183406092,-0.36504683,0.18728317,0.092194624,0.79677796,0.0,0.0,0
183426059,-0.39108494,0.17279434,0.09392435,0.79531384,0.0,0.0,0
183445818,-0.41321388,0.1601188,0.09448485,0.7935851,0.0,0.0,0
183465952,-0.4155306,0.14811319,0.09465693,0.7910956,0.0,0.0,0
183485784,-0.42275232,0.13578543,0.09486326,0.7878769,0.0,0.0,0
183505609,-0.42231822,0.12334899,0.09360387,0.7849366,0.0,0.0,0
183525380,-0.43541485,0.11345399,0.092855655,0.78146,0.0,0.0,0
183545297,-0.4541006,0.100834645,0.09315664,0.778617,0.0,0.0,0
183565211,-0.47663814,0.08097474,0.09650619,0.77605236,0.0,0.0,0
183585061,-0.50259703,0.058856737,0.10173666,0.77361244,0.0,0.0,0
183605039,-0.5252576,0.037984923,0.106111415,0.77136844,0.0,0.0,0
183624785,-0.53125906,0.019013317,0.10951106,0.7667705,0.0,0.0,0
183644968,-0.53810406,-0.0012783331,0.113471985,0.76266795,0.0,0.0,0
183664564,-0.52949065,-0.024712265,0.1176942,0.760447,0.0,0.0,0
183684779,-0.5225223,-0.04050426,0.119035944,0.75749534,0.0,0.0,0
183709290,-0.49557498,-0.04337043,0.11815898,0.75462466,0.0,0.0,0
183724308,-0.48349175,-0.042244524,0.11244621,0.7513654,0.0,0.0,0
183744068,-0.45718762,-0.032783896,0.104717135,0.7481843,0.0,0.0,0
183769010,-0.40634358,-0.00678916,0.09270671,0.74478006,0.0,0.0,0
183783913,-0.37620682,0.013724676,0.0842467,0.741405,0.0,0.0,0
183803884,-0.32629853,0.037477575,0.07336746,0.73838,0.0,0.0,0
183828835,-0.27007982,0.056785397,0.06837337,0.73575985,0.0,0.0,0
183848536,-0.22779956,0.06733919,0.06682455,0.73362964,0.0,0.0,0
183863643,-0.20168684,0.07425594,0.066510595,0.7318124,0.0,0.0,0
183888239,-0.16893816,0.07847035,0.06651338,0.7307097,0.0,0.0,0
183908254,-0.15561655,0.073567376,0.06754547,0.7294774,0.0,0.0,0
183923079,-0.14914885,0.068383366,0.069274575,0.72878623,0.0,0.0,0
183943006,-0.13877198,0.06293649,0.07060749,0.7283233,0.0,0.0,0
183967797,-0.13596588,0.05528125,0.07202286,0.7279277,0.0,0.0,0
183987851,-0.13515656,0.04270972,0.07422267,0.7278002,0.0,0.0,0
184002654,-0.13326162,0.03229686,0.07705072,0.7279781,0.0,0.0,0
184027467,-0.1332204,0.022967514,0.07896041,0.7278154,0.0,0.0,0
184047422,-0.13615975,0.022953093,0.07728443,0.7276507,0.0,0.0,0
184062399,-0.13965279,0.023608817,0.07571538,0.72749466,0.0,0.0,0
184087448,-0.13870476,0.02443945,0.0748279,0.7273667,0.0,0.0,0
184107014,-0.14993778,0.029295135,0.078552514,0.72729725,0.0,0.0,0
184126982,-0.15971951,0.039177753,0.075520165,0.72724146,0.0,0.0,0
184146902,-0.17376971,0.05189224,0.07163668,0.7272352,0.0,0.0,0
184166696,-0.18462121,0.06364115,0.06703774,0.72756493,0.0,0.0,0
184186487,-0.19694363,0.07328868,0.063459866,0.72745365,0.0,0.0,0
184206583,-0.19772056,0.08347576,0.05455584,0.7276949,0.0,0.0,0
184226274,-0.20694382,0.09472274,0.05066718,0.72786456,0.0,0.0,0
184246266,-0.21553583,0.10461384,0.047479402,0.7280593,0.0,0.0,0
184266101,-0.21464531,0.11158184,0.044897445,0.7283182,0.0,0.0,0
184286006,-0.220918,0.115640745,0.042075556,0.7283929,0.0,0.0,0
184305963,-0.21609679,0.11594039,0.040954884,0.7287271,0.0,0.0,0
184325747,-0.2038862,0.114553764,0.04110768,0.7286986,0.0,0.0,0
184345970,-0.2003361,0.112074256,0.0405893,0.728691,0.0,0.0,0
184365493,-0.18892948,0.110541485,0.040620673,0.7288295,0.0,0.0,0
184385457,-0.17309363,0.108576804,0.040579528,0.72888285,0.0,0.0,0
184405264,-0.15863341,0.10617983,0.0411541,0.7285718,0.0,0.0,0
184425465,-0.13241155,0.1054973,0.04142204,0.7283592,0.0,0.0,0
184445057,-0.10685197,0.10795237,0.041354515,0.7281623,0.0,0.0,0
184464974,-0.082067855,0.10945354,0.04121569,0.7277254,0.0,0.0,0
184484753,-0.058781356,0.10865237,0.04170015,0.7274648,0.0,0.0,0
184504699,-0.047971964,0.10552686,0.04371225,0.72749317,0.0,0.0,0
184524805,-0.04201451,0.099073395,0.043459345,0.72701573,0.0,0.0,0
184549401,-0.036736295,0.09744875,0.04338843,0.7268767,0.0,0.0,0
184564283,-0.04214455,0.09840664,0.042021867,0.7267182,0.0,0.0,0
184584188,-0.044733625,0.09833099,0.04150004,0.7267253,0.0,0.0,0
184609154,-0.052869085,0.095499314,0.040525753,0.7264399,0.0,0.0,0
184623971,-0.06458213,0.0949808,0.03890936,0.7264286,0.0,0.0,0
184644250,-0.07809428,0.094626516,0.037775848,0.7261611,0.0,0.0,0
184668721,-0.089252815,0.09320676,0.03728286,0.72626287,0.0,0.0,0
184688747,-0.10730823,0.088263586,0.036280654,0.7260382,0.0,0.0,0
184703497,-0.11616157,0.08497277,0.034194987,0.72604436,0.0,0.0,0
184723613,-0.13469476,0.08198299,0.033045977,0.72612107,0.0,0.0,0
184748297,-0.15636227,0.078787975,0.03149989,0.7260546,0.0,0.0,0
184763309,-0.16472864,0.077973045,0.030857269,0.7258906,0.0,0.0,0
184782992,-0.17242959,0.07821309,0.029513484,0.7257009,0.0,0.0,0
184807877,-0.16424334,0.080047674,0.03001969,0.7255083,0.0,0.0,0
184828096,-0.15234095,0.08077826,0.029317865,0.725159,0.0,0.0,0
184842690,-0.15042065,0.08086652,0.027832543,0.7247853,0.0,0.0,0
184867769,-0.13424258,0.084653035,0.02705761,0.7245053,0.0,0.0,0
184887438,-0.119530536,0.09475272,0.025518663,0.7238138,0.0,0.0,0
184902481,-0.10833113,0.10454457,0.023992505,0.7232167,0.0,0.0,0
184927158,-0.066808164,0.12027807,0.023692764,0.7225224,0.0,0.0,0
184947361,-0.047665022,0.13277833,0.022989633,0.7217919,0.0,0.0,0
184966976,-0.013845396,0.14375113,0.02383732,0.7211566,0.0,0.0,0
184987042,0.024229813,0.15196891,0.019738913,0.72047347,0.0,0.0,0
185006718,0.061683834,0.15641771,0.016348068,0.7199628,0.0,0.0,0
185026618,0.09390302,0.15843487,0.0129671935,0.7192671,0.0,0.0,0
185046677,0.106953315,0.1584012,0.011552479,0.7186696,0.0,0.0,0
185066440,0.116064526,0.15244144,0.011005037,0.7181456,0.0,0.0,0
185086737,0.12037878,0.1438192,0.011211398,0.7176223,0.0,0.0,0
185106240,0.12331288,0.13459669,0.011342814,0.71708196,0.0,0.0,0
185126098,0.12893932,0.12629993,0.011090761,0.7164351,0.0,0.0,0
185145871,0.1301074,0.11733365,0.010399409,0.7157606,0.0,0.0,0
185165982,0.13411467,0.10606016,0.00977233,0.71491545,0.0,0.0,0
185185674,0.1356255,0.09457985,0.009548896,0.71392536,0.0,0.0,0
185205634,0.13670014,0.08696502,0.009176593,0.7128833,0.0,0.0,0
185225453,0.12383945,0.08228324,0.010899543,0.71178263,0.0,0.0,0
185245353,0.11146129,0.07707172,0.011851967,0.710621,0.0,0.0,0
185265434,0.10046908,0.07182423,0.01349977,0.7094042,0.0,0.0,0
185285200,0.080452375,0.06654685,0.01665276,0.7083387,0.0,0.0,0
185305328,0.0675896,0.059994817,0.019691857,0.7070356,0.0,0.0,0
185324838,0.036201075,0.054782,0.024256729,0.7058664,0.0,0.0,0
185344798,0.017034652,0.05295937,0.027516473,0.70477366,0.0,0.0,0
185364661,-0.0005895829,0.052038323,0.030652206,0.70372,0.0,0.0,0
185389839,-0.026860638,0.048675507,0.032207813,0.70271975,0.0,0.0,0
185404497,-0.036472745,0.044832148,0.031525128,0.7018138,0.0,0.0,0
185424435,-0.05368123,0.04348506,0.031462345,0.70094675,0.0,0.0,0
185449190,-0.07126798,0.04849292,0.030935036,0.70002156,0.0,0.0,0
185464147,-0.08361244,0.05021433,0.029308906,0.6992315,0.0,0.0,0
185483957,-0.09256428,0.046001516,0.028787088,0.6989809,0.0,0.0,0
185508784,-0.10070282,0.04099437,0.028284092,0.69941777,0.0,0.0,0
185528800,-0.11832944,0.047856253,0.026796201,0.69891393,0.0,0.0,0
185543549,-0.1413097,0.054604705,0.024201257,0.6985967,0.0,0.0,0
185563604,-0.15544802,0.05996467,0.022641538,0.6984763,0.0,0.0,0
185588311,-0.17206198,0.057267696,0.022217326,0.6982623,0.0,0.0,0
185603668,-0.18496363,0.056162696,0.021017335,0.6981855,0.0,0.0,0
185623117,-0.19450614,0.055699307,0.01964522,0.6983835,0.0,0.0,0
185648036,-0.20013018,0.047751315,0.019818433,0.6987183,0.0,0.0,0
185667851,-0.2064774,0.03156884,0.020597288,0.69916666,0.0,0.0,0
185683008,-0.21538182,0.017635018,0.020474715,0.6997557,0.0,0.0,0
185707782,-0.21605805,-0.0039233128,0.022640843,0.70055044,0.0,0.0,0
185727636,-0.21638925,-0.018742323,0.02343208,0.70129764,0.0,0.0,0
185742414,-0.22018327,-0.029825455,0.022377197,0.70221424,0.0,0.0,0
185767240,-0.21183607,-0.046685476,0.022796383,0.7029442,0.0,0.0,0
185787443,-0.20321666,-0.052989207,0.022287305,0.70367575,0.0,0.0,0
185807082,-0.1947877,-0.04952755,0.020255469,0.7043381,0.0,0.0,0
185827066,-0.1937613,-0.040969495,0.0168044,0.70513713,0.0,0.0,0
185846821,-0.18349037,-0.030852482,0.015101229,0.7061829,0.0,0.0,0
185866754,-0.1786372,-0.016413217,0.012898933,0.7068356,0.0,0.0,0
185886543,-0.18042518,0.0034409463,0.009452924,0.7078665,0.0,0.0,0
185906696,-0.17419513,0.024609815,0.006242792,0.70865077,0.0,0.0,0
185926353,-0.17160994,0.04396173,0.0044066426,0.7087864,0.0,0.0,0
185946344,-0.16809037,0.061341554,0.0023150307,0.7089909,0.0,0.0,0
185966109,-0.16951504,0.078386925,-0.00034214545,0.7092466,0.0,0.0,0
185986213,-0.16594242,0.09302948,-0.0014282167,0.70971847,0.0,0.0,0
186006067,-0.15805551,0.10263752,-0.0017476798,0.7102371,0.0,0.0,0
186025806,-0.15603146,0.10581878,-0.0026352226,0.7112274,0.0,0.0,0
186046078,-0.14526628,0.10648992,-0.0026809114,0.7124826,0.0,0.0,0
186065535,-0.12899801,0.10490987,-0.0017976001,0.71400416,0.0,0.0,0
186085497,-0.10654588,0.10023488,-0.00036225628,0.7150945,0.0,0.0,0
186105387,-0.080504075,0.09260892,0.00029228957,0.7164618,0.0,0.0,0
186125642,-0.049676593,0.08338898,0.001954652,0.7180313,0.0,0.0,0
186145158,-0.013962497,0.07408735,0.0038010874,0.71968937,0.0,0.0,0
186165105,0.018662466,0.06570502,0.0014316137,0.7214338,0.0,0.0,0
186184821,0.044340894,0.059083186,-0.0028879128,0.72276735,0.0,0.0,0
186204895,0.07419357,0.056088883,-0.005322063,0.7244441,0.0,0.0,0
186229918,0.097966194,0.05674361,-0.006130774,0.72557944,0.0,0.0,0
186244476,0.10881445,0.059408437,-0.006733669,0.72764283,0.0,0.0,0
186264660,0.10966772,0.065594934,-0.0069863345,0.72863245,0.0,0.0,0
186289224,0.104125276,0.07617712,-0.0076743877,0.72959226,0.0,0.0,0
186304255,0.099181086,0.08273524,-0.007064468,0.72995186,0.0,0.0,0
186324052,0.08524758,0.09042137,-0.0046291184,0.73030347,0.0,0.0,0
186343943,0.06622823,0.09525302,-0.0021251843,0.73059464,0.0,0.0,0
186363757,0.047845226,0.0970891,0.0004924586,0.7311532,0.0,0.0,0
186383820,0.03162829,0.09598044,0.0027668714,0.731626,0.0,0.0,0
186403577,0.017099136,0.09378595,0.005131483,0.73247087,0.0,0.0,0
186428419,0.005720772,0.08838137,0.0069913873,0.73304445,0.0,0.0,0
186443272,-0.0019982671,0.0825568,0.007623352,0.73374057,0.0,0.0,0
186463221,-0.0038883921,0.07241652,0.0077550574,0.73436975,0.0,0.0,0
186488499,0.0017746036,0.06384911,0.0075001307,0.7349642,0.0,0.0,0
186508000,0.0064413897,0.05937466,0.0070946044,0.73596364,0.0,0.0,0
186522948,0.014038657,0.05624438,0.006204293,0.73673177,0.0,0.0,0
186547689,0.023763042,0.05199357,0.004405871,0.7376933,0.0,0.0,0
186567730,0.026992444,0.04842099,0.003408193,0.73823714,0.0,0.0,0
186582507,0.033095572,0.04636067,0.0024373042,0.7389457,0.0,0.0,0
186607416,0.03982957,0.041748777,0.0015326793,0.7421558,0.0,0.0,0
186627361,0.03949419,0.036597077,0.0015289746,0.74565667,0.0,0.0,0
186647178,0.04268745,0.030496277,0.0011535784,0.7485304,0.0,0.0,0
186667042,0.036478445,0.024334505,0.0020233316,0.7516896,0.0,0.0,0
186686916,0.03153343,0.020123476,0.0026467817,0.75514555,0.0,0.0,0
186706784,0.030198723,0.019489802,0.0028193165,0.7564691,0.0,0.0,0
186726685,0.02713034,0.018998666,0.0037170853,0.7578644,0.0,0.0,0
186746805,0.022607226,0.016741605,0.0045896857,0.75946224,0.0,0.0,0
186766455,0.018918354,0.015196847,0.006073914,0.76065856,0.0,0.0,0
186786748,0.01861354,0.01624909,0.0068333433,0.76201665,0.0,0.0,0
186806207,0.019939288,0.018381804,0.0069330567,0.763429,0.0,0.0,0
186826126,0.01983236,0.019704157,0.006736828,0.7649683,0.0,0.0,0
186845938,0.02366918,0.018708603,0.006297652,0.76625186,0.0,0.0,0
186866148,0.027050594,0.01713458,0.006130953,0.76776403,0.0,0.0,0
186885716,0.031256333,0.017784974,0.0060142777,0.7691723,0.0,0.0,0
186905701,0.040405948,0.022734776,0.0057509555,0.77053714,0.0,0.0,0
186925598,0.04830267,0.030811755,0.005266453,0.7730384,0.0,0.0,0
186945495,0.06318065,0.04167218,0.003500912,0.775514,0.0,0.0,0
186965411,0.076991335,0.05187652,0.002308629,0.7781892,0.0,0.0,0
186985213,0.09104538,0.060327645,0.0010523634,0.78042686,0.0,0.0,0
187005371,0.10087623,0.06642304,0.0004413124,0.7831448,0.0,0.0,0
187024890,0.106056325,0.07220957,0.0007782833,0.78358305,0.0,0.0,0
187044986,0.10941627,0.07487184,0.001334709,0.7841506,0.0,0.0,0
187069682,0.11522418,0.07323992,0.0014349761,0.7848036,0.0,0.0,0
187084720,0.12405644,0.07230652,0.0010016777,0.78544664,0.0,0.0,0
187104454,0.12984121,0.07132655,0.0012650463,0.78630966,0.0,0.0,0
187129315,0.12992679,0.06758416,0.002423934,0.7871381,0.0,0.0,0
187144276,0.12817667,0.06410728,0.0041142907,0.7881385,0.0,0.0,0
187164230,0.12555279,0.059808075,0.005958087,0.7890891,0.0,0.0,0
187183941,0.12395048,0.05932345,0.007821858,0.78997636,0.0,0.0,0
187208817,0.122658394,0.062356755,0.009260942,0.79079354,0.0,0.0,0
187223996,0.12593734,0.063503906,0.010214139,0.79136986,0.0,0.0,0
187243786,0.12702537,0.063422166,0.011398641,0.7921109,0.0,0.0,0
187268579,0.12415598,0.06425103,0.013065237,0.7925544,0.0,0.0,0
187283356,0.124375015,0.0663547,0.014087831,0.7930569,0.0,0.0,0
187303312,0.12455015,0.06928691,0.014630296,0.79353815,0.0,0.0,0
187328094,0.12831406,0.07367156,0.015028474,0.79342943,0.0,0.0,0
187348140,0.129767,0.07842669,0.01602201,0.79322815,0.0,0.0,0
187362977,0.13496588,0.08293448,0.016417406,0.79301137,0.0,0.0,0
187387907,0.1299082,0.090514466,0.017965272,0.79290265,0.0,0.0,0
187407820,0.123051904,0.094243295,0.022870982,0.79249793,0.0,0.0,0
187422584,0.1205221,0.094113894,0.024284028,0.79393667,0.0,0.0,0
187447774,0.1032985,0.091335334,0.02836511,0.79540896,0.0,0.0,0
187467346,0.09311345,0.08810264,0.031184452,0.79717076,0.0,0.0,0
187487297,0.08150455,0.08240006,0.034350272,0.79850316,0.0,0.0,0
187507092,0.075558536,0.0724549,0.03044054,0.8000954,0.0,0.0,0
187527150,0.072339155,0.061708234,0.032075785,0.7988702,0.0,0.0,0
187546831,0.0691158,0.05005251,0.033900317,0.7975835,0.0,0.0,0
187566875,0.07234169,0.039088544,0.03474216,0.7962253,0.0,0.0,0
187586617,0.07695346,0.029595504,0.035191216,0.794744,0.0,0.0,0
187606684,0.080683686,0.02305486,0.042968422,0.79315513,0.0,0.0,0
187626450,0.08923987,0.015216712,0.042334873,0.79474777,0.0,0.0,0
187646286,0.09691455,0.010198233,0.041978043,0.79580164,0.0,0.0,0
187666145,0.10450797,0.010857549,0.041296214,0.7971074,0.0,0.0,0
187686127,0.10447734,0.017706957,0.04163448,0.7984319,0.0,0.0,0
187706118,0.095471725,0.026065608,0.03610382,0.79948175,0.0,0.0,0
187725771,0.07482279,0.03772763,0.039061055,0.79751265,0.0,0.0,0
187746102,0.044319037,0.048784036,0.043107804,0.79559565,0.0,0.0,0
187765574,0.008515763,0.06000375,0.047429785,0.79374933,0.0,0.0,0
187785586,-0.023423923,0.068488546,0.049954314,0.79201883,0.0,0.0,0
187805397,-0.051767863,0.07271613,0.04836593,0.79033273,0.0,0.0,0
187825425,-0.07080989,0.07333273,0.047397655,0.78894895,0.0,0.0,0
187845144,-0.08165868,0.07025133,0.04714217,0.7875511,0.0,0.0,0
187865065,-0.08282176,0.065913826,0.047427304,0.78609645,0.0,0.0,0
187884893,-0.072655976,0.061640885,0.047815308,0.78451604,0.0,0.0,0
187909735,-0.0509451,0.056959182,0.049239166,0.7827843,0.0,0.0,0
187924696,-0.02995622,0.05529225,0.04948518,0.78070885,0.0,0.0,0
187944594,0.00036814576,0.052386954,0.047265463,0.7792209,0.0,0.0,0
187964702,0.033208016,0.050533827,0.04240951,0.7777708,0.0,0.0,0
187984392,0.06277667,0.050766908,0.037921306,0.77702063,0.0,0.0,0
188004284,0.082487024,0.05435031,0.038014248,0.77556795,0.0,0.0,0
188024048,0.10176156,0.05825717,0.03517102,0.77522576,0.0,0.0,0
188049096,0.107167825,0.06589558,0.0341042,0.77523005,0.0,0.0,0
188063834,0.111767426,0.06996625,0.034065474,0.77505785,0.0,0.0,0
188083775,0.10488254,0.07582233,0.035552867,0.77504325,0.0,0.0,0
188108547,0.08952728,0.083871804,0.036716904,0.77469236,0.0,0.0,0
188123735,0.07966678,0.08726122,0.03856416,0.77425665,0.0,0.0,0
188143403,0.064456515,0.088850796,0.04109938,0.7739614,0.0,0.0,0
188168185,0.045931686,0.0860407,0.04449877,0.77372926,0.0,0.0,0
188188507,0.036017925,0.08111127,0.046634074,0.77353334,0.0,0.0,0
188203113,0.032138955,0.07586449,0.048685327,0.77354264,0.0,0.0,0
188228198,0.037002895,0.061814092,0.04965288,0.77349716,0.0,0.0,0
188247736,0.050865408,0.04887569,0.04932991,0.77342284,0.0,0.0,0
188262799,0.064390436,0.040209107,0.04859836,0.7730279,0.0,0.0,0
188287539,0.091866024,0.031633563,0.045443982,0.77262044,0.0,0.0,0
188307461,0.10896611,0.026505101,0.045886364,0.77272844,0.0,0.0,0
188327250,0.1307267,0.022526775,0.043239206,0.77284294,0.0,0.0,0
188347266,0.15023951,0.021544987,0.040829126,0.7728486,0.0,0.0,0
188367149,0.15731741,0.028097922,0.040365145,0.77278495,0.0,0.0,0
188386943,0.16366287,0.04129225,0.039056387,0.7728785,0.0,0.0,0
188401918,0.1614059,0.05190916,0.036577936,0.77258456,0.0,0.0,0
188426708,0.15068708,0.0685867,0.037511457,0.77136886,0.0,0.0,0
188446693,0.14149159,0.08000784,0.038535673,0.7701318,0.0,0.0,0
188466438,0.12437933,0.0922801,0.040595714,0.7689669,0.0,0.0,0
188486421,0.10743545,0.102614395,0.042371195,0.76789427,0.0,0.0,0
188506343,0.08506124,0.10739482,0.047930595,0.76781064,0.0,0.0,0
188526222,0.06119827,0.105484694,0.051451057,0.7676254,0.0,0.0,0
188546022,0.04193678,0.09891449,0.054705888,0.767529,0.0,0.0,0
188566002,0.027481502,0.08812219,0.058194406,0.7675681,0.0,0.0,0
188585730,0.019957399,0.0724186,0.061423533,0.7676247,0.0,0.0,0
188605788,0.01682323,0.053724714,0.059040178,0.7676286,0.0,0.0,0
188625626,0.013025792,0.03752266,0.061512135,0.765883,0.0,0.0,0
188645610,0.012167943,0.022553587,0.063287705,0.76405585,0.0,0.0,0
188665509,0.010139532,0.008241688,0.06482311,0.7621012,0.0,0.0,0
188685155,0.011058043,-0.0032166266,0.065709695,0.7600473,0.0,0.0,0
188705384,0.014418482,-0.005564394,0.066412374,0.75778365,0.0,0.0,0
188724967,0.01908066,-0.00016449958,0.065155424,0.7561162,0.0,0.0,0
188749919,0.026691096,0.009428215,0.06268099,0.75438637,0.0,0.0,0
188764704,0.025477724,0.01587495,0.061996836,0.75264263,0.0,0.0,0
188784827,0.022892797,0.026798433,0.060812533,0.7509537,0.0,0.0,0
188804469,0.025292989,0.040161353,0.0613754,0.7492651,0.0,0.0,0
188824482,0.028120419,0.051899366,0.05953577,0.74820757,0.0,0.0,0
188844269,0.03584831,0.06119455,0.05673848,0.74731356,0.0,0.0,0
188864205,0.030402796,0.06905275,0.056233734,0.7464398,0.0,0.0,0
188889353,0.029723682,0.07846001,0.05510468,0.7458403,0.0,0.0,0
188903917,0.030730363,0.0811086,0.054695144,0.7451283,0.0,0.0,0
188924097,0.030337896,0.08053992,0.05507208,0.74465644,0.0,0.0,0
188948625,0.046426963,0.07784986,0.05244804,0.74437046,0.0,0.0,0
188963935,0.055978466,0.07818127,0.051356502,0.74378854,0.0,0.0,0
188983421,0.07853981,0.077719204,0.047844097,0.74344045,0.0,0.0,0
189008439,0.09443956,0.07110387,0.044784594,0.7430512,0.0,0.0,0
189028230,0.099021144,0.062570415,0.04445045,0.742621,0.0,0.0,0
189043243,0.1028985,0.05582169,0.044108544,0.74229664,0.0,0.0,0
189067947,0.09219219,0.04354542,0.046676904,0.7420307,0.0,0.0,0
189087857,0.07658371,0.03196574,0.049791094,0.7419466,0.0,0.0,0
189102785,0.06175027,0.024160886,0.05565858,0.7417018,0.0,0.0,0
189127602,0.026760696,0.015024911,0.062715374,0.7423322,0.0,0.0,0
189147884,-0.010279892,0.010686373,0.06880678,0.74296165,0.0,0.0,0
189167360,-0.04310447,0.0077806986,0.07096592,0.74363047,0.0,0.0,0
189187510,-0.06829804,0.0052515115,0.070369475,0.7441993,0.0,0.0,0
189207217,-0.09062976,0.005197452,0.0702998,0.74476147,0.0,0.0,0
189227220,-0.10147177,0.009389651,0.06875753,0.7455611,0.0,0.0,0
189241917,-0.10635732,0.013593621,0.06675778,0.7459553,0.0,0.0,0
189266853,-0.10994545,0.020761278,0.063525334,0.7465171,0.0,0.0,0
189286669,-0.10705301,0.02588498,0.061311208,0.74677986,0.0,0.0,0
189306714,-0.10174731,0.03172642,0.05407784,0.74716586,0.0,0.0,0
189326477,-0.10154048,0.037208747,0.05211195,0.7462534,0.0,0.0,0
189346347,-0.10011359,0.038303383,0.051330082,0.7454279,0.0,0.0,0
189366443,-0.095775284,0.03749169,0.05098878,0.74476445,0.0,0.0,0
189386085,-0.09511268,0.035998423,0.04998994,0.74404126,0.0,0.0,0
189406382,-0.09748947,0.034090597,0.055975664,0.74340963,0.0,0.0,0
189425853,-0.08941008,0.02685639,0.055977285,0.7447631,0.0,0.0,0
189445836,-0.08097689,0.018469963,0.05641314,0.7460792,0.0,0.0,0
189465666,-0.07231252,0.012124156,0.056364607,0.7474745,0.0,0.0,0
189485738,-0.058474742,0.008766238,0.056272984,0.7488624,0.0,0.0,0
189505380,-0.04742137,0.005375232,0.05425943,0.7504286,0.0,0.0,0
189525435,-0.039587054,0.00094582385,0.05333171,0.7513168,0.0,0.0,0
189545188,-0.028310088,-0.002731628,0.05286735,0.7521244,0.0,0.0,0
189565148,-0.017923826,-0.0029425835,0.052660752,0.7530548,0.0,0.0,0
189585028,-0.009129405,-0.001731411,0.050383758,0.75399834,0.0,0.0,0
189604835,-0.007117314,-0.0004909902,0.04445809,0.7549121,0.0,0.0,0
189624731,-0.0044775303,0.0065536886,0.04353465,0.75339884,0.0,0.0,0
189644550,-0.009687077,0.015292802,0.04356056,0.75285494,0.0,0.0,0
189664820,-0.019880679,0.025057662,0.042687103,0.75127614,0.0,0.0,0
189684354,-0.022418706,0.032368295,0.04185916,0.7502557,0.0,0.0,0
189704303,-0.03070696,0.03954297,0.04633381,0.75118804,0.0,0.0,0
189729086,-0.037443392,0.051111158,0.04479654,0.7517998,0.0,0.0,0
189744159,-0.041207794,0.058004424,0.044193346,0.7525802,0.0,0.0,0
189763837,-0.042590585,0.06511826,0.043652996,0.753124,0.0,0.0,0
189788812,-0.039426133,0.073112406,0.042802606,0.75410765,0.0,0.0,0
189803621,-0.041655328,0.07809197,0.044394754,0.7555811,0.0,0.0,0
189823652,-0.034103144,0.08458394,0.04379537,0.756945,0.0,0.0,0
189848584,-0.022156745,0.09049928,0.044150732,0.7585063,0.0,0.0,0
189868288,-0.00479699,0.09057171,0.042604335,0.7598369,0.0,0.0,0
189883314,0.007002761,0.087473914,0.041157242,0.761518,0.0,0.0,0
189908064,0.030108321,0.07918155,0.03696448,0.7622911,0.0,0.0,0
189928024,0.050749213,0.07042112,0.034907088,0.76310337,0.0,0.0,0
189942840,0.06271126,0.06176102,0.03424689,0.7640312,0.0,0.0,0
189967944,0.08202799,0.04332395,0.032393504,0.76496917,0.0,0.0,0
189987554,0.09159284,0.029928219,0.03241042,0.7659473,0.0,0.0,0
190007557,0.10370243,0.021399304,0.02955763,0.7655797,0.0,0.0,0
190027301,0.10810406,0.016239453,0.030267105,0.7650012,0.0,0.0,0
190047279,0.105464205,0.013257201,0.031859383,0.76451164,0.0,0.0,0
190067123,0.095948756,0.012049849,0.034154955,0.7639412,0.0,0.0,0
190082135,0.0847768,0.013288369,0.036963776,0.763365,0.0,0.0,0
190107152,0.064509265,0.017347647,0.043035656,0.7627523,0.0,0.0,0
190126798,0.044178605,0.020785715,0.046973612,0.76305586,0.0,0.0,0
190146731,0.020999478,0.024518572,0.050875053,0.76313615,0.0,0.0,0
190166527,-0.005167015,0.029914027,0.054523177,0.76358473,0.0,0.0,0
190186565,-0.033944707,0.034796745,0.056198183,0.7637294,0.0,0.0,0
190206263,-0.053983863,0.036801655,0.05313136,0.76366657,0.0,0.0,0
190226247,-0.072092086,0.035956,0.05277633,0.7633519,0.0,0.0,0
190246009,-0.08648018,0.033208676,0.052584294,0.7632365,0.0,0.0,0
190266035,-0.09461727,0.028455853,0.052398562,0.7631314,0.0,0.0,0
190285806,-0.09760345,0.021570103,0.053239956,0.7628138,0.0,0.0,0
190305690,-0.09386877,0.014702813,0.056343302,0.7625437,0.0,0.0,0
190325757,-0.08186232,0.008485283,0.057088595,0.7627473,0.0,0.0,0
190345567,-0.06790218,0.00486245,0.05736559,0.7630104,0.0,0.0,0
190365735,-0.048514184,0.0025063606,0.057400912,0.76288927,0.0,0.0,0
190385191,-0.025900012,0.00085649,0.057772,0.76295865,0.0,0.0,0
190405172,-0.0022701824,-0.00044788473,0.052921012,0.76275957,0.0,0.0,0
190429934,0.028610686,0.0077887457,0.047430586,0.7620108,0.0,0.0,0
190445030,0.039550014,0.01683999,0.045244455,0.7611719,0.0,0.0,0
190464723,0.05256228,0.02902158,0.04246089,0.76043725,0.0,0.0,0
190484915,0.06191799,0.038665228,0.04096278,0.75978816,0.0,0.0,0
190504573,0.06144264,0.048192464,0.04505972,0.7591423,0.0,0.0,0
190524532,0.056966472,0.057530742,0.045505006,0.7597364,0.0,0.0,0
190544336,0.042357307,0.066475645,0.047354437,0.76050055,0.0,0.0,0
190569184,0.021493945,0.07304176,0.050394118,0.7614511,0.0,0.0,0
190584016,0.01248882,0.07437724,0.052097283,0.7624341,0.0,0.0,0
190603913,0.0058243233,0.07410851,0.051888324,0.7635071,0.0,0.0,0
190628943,0.0035353722,0.06968823,0.053003594,0.76439476,0.0,0.0,0
190643783,0.0040800436,0.06379479,0.0536041,0.7646202,0.0,0.0,0
190664028,0.011049677,0.053847145,0.05398203,0.76512575,0.0,0.0,0
190688461,0.029628089,0.040576667,0.052958913,0.7656576,0.0,0.0,0
190708388,0.052408967,0.03074322,0.048949156,0.76598746,0.0,0.0,0
190723285,0.07132159,0.025150547,0.046994217,0.7657488,0.0,0.0,0
190748226,0.09608488,0.019142715,0.04394542,0.76542675,0.0,0.0,0
190768141,0.11413468,0.018016087,0.041902795,0.7652453,0.0,0.0,0
190783188,0.12978753,0.019350827,0.040309094,0.7646096,0.0,0.0,0
190802720,0.13632849,0.026192755,0.04142798,0.7640785,0.0,0.0,0
190827597,0.14017412,0.037322063,0.040973086,0.7641662,0.0,0.0,0
190847865,0.1323931,0.04644862,0.042365585,0.7642873,0.0,0.0,0
190862470,0.12738541,0.0529881,0.043480724,0.7645088,0.0,0.0,0
190887421,0.11649912,0.06230458,0.045381527,0.7647854,0.0,0.0,0
190907217,0.10313223,0.067610495,0.047968656,0.7651918,0.0,0.0,0
190922329,0.09292945,0.06913322,0.049782865,0.76562154,0.0,0.0,0
190946916,0.06932482,0.06711641,0.05384076,0.76625854,0.0,0.0,0
190966899,0.050029814,0.06288634,0.05774159,0.7669536,0.0,0.0,0
190986731,0.036813825,0.055757545,0.06106305,0.7677573,0.0,0.0,0
191006585,0.024998812,0.046483632,0.061249707,0.76861787,0.0,0.0,0
191026545,0.019743744,0.03629631,0.063895814,0.7683818,0.0,0.0,0
191046371,0.011879758,0.027011277,0.0666522,0.76823103,0.0,0.0,0
191066518,0.009277253,0.020365644,0.06861066,0.76783603,0.0,0.0,0
191086112,0.015198438,0.016856208,0.06880673,0.76735526,0.0,0.0,0
191106435,0.02137599,0.016909914,0.07100305,0.7666567,0.0,0.0,0
191125904,0.038443424,0.019272221,0.068366244,0.76638365,0.0,0.0,0
191145870,0.05650862,0.024368865,0.065152384,0.7658962,0.0,0.0,0
191165700,0.076143414,0.030045455,0.061396275,0.7654533,0.0,0.0,0
191185711,0.096666254,0.034033034,0.05787412,0.76485777,0.0,0.0,0
191205456,0.116468795,0.035004858,0.051425558,0.7642111,0.0,0.0,0
191225484,0.12798902,0.036745805,0.050214224,0.7626767,0.0,0.0,0
191245166,0.13283844,0.03960547,0.05010844,0.7612315,0.0,0.0,0
191265184,0.12516089,0.0441658,0.05144119,0.7597185,0.0,0.0,0
191285074,0.11050409,0.049774475,0.0536968,0.75828695,0.0,0.0,0
191304831,0.093868226,0.05496698,0.058896262,0.7569094,0.0,0.0,0
191325020,0.07830975,0.05862075,0.06174988,0.75628567,0.0,0.0,0
191344596,0.059313834,0.06076109,0.0649229,0.75558275,0.0,0.0,0
191364627,0.036609165,0.061173607,0.06836914,0.7547197,0.0,0.0,0
191384364,0.016319148,0.05798805,0.07214429,0.75458765,0.0,0.0,0
191409457,-0.002802789,0.049622037,0.08007192,0.7543241,0.0,0.0,0
191424100,-0.014074083,0.04305472,0.08308328,0.75429577,0.0,0.0,0
191444194,-0.025823716,0.03229776,0.08668901,0.754376,0.0,0.0,0
191468912,-0.028786596,0.017144844,0.08972826,0.75409,0.0,0.0,0
191483944,-0.026921006,0.0090275705,0.09055448,0.7538414,0.0,0.0,0
191503677,-0.021713074,0.00019189235,0.08397968,0.7522634,0.0,0.0,0
191528530,-0.016479192,-0.007303174,0.08359828,0.7504642,0.0,0.0,0
191548477,-0.011464538,-0.012151924,0.08329061,0.74869484,0.0,0.0,0
191563350,-0.008029092,-0.015109062,0.083108455,0.74689054,0.0,0.0,0
191588277,-0.016844561,-0.014667159,0.084424816,0.74510694,0.0,0.0,0
191608104,-0.028006364,-0.009251417,0.091952346,0.74447,0.0,0.0,0
191623368,-0.03585459,-0.0034095584,0.09158009,0.7438569,0.0,0.0,0
191647788,-0.057673387,0.010677333,0.08872993,0.74317753,0.0,0.0,0
191667891,-0.072887994,0.02094539,0.08634877,0.7426335,0.0,0.0,0
191687550,-0.08632551,0.030155452,0.084949076,0.742198,0.0,0.0,0
191702587,-0.09451862,0.03594985,0.08213645,0.7416405,0.0,0.0,0
191727450,-0.11075112,0.04223986,0.0808824,0.74117094,0.0,0.0,0
191747310,-0.116064645,0.04345109,0.08067577,0.7407012,0.0,0.0,0
191762190,-0.12292186,0.04187226,0.080029614,0.7400742,0.0,0.0,0
191786965,-0.12734409,0.036308724,0.08046129,0.7395422,0.0,0.0,0
191807272,-0.121234596,0.03003877,0.08257341,0.7389808,0.0,0.0,0
191826753,-0.115974255,0.021036774,0.08401343,0.7385745,0.0,0.0,0
191846712,-0.102269664,0.010388895,0.0861418,0.7381422,0.0,0.0,0
191866664,-0.08642493,0.0015526555,0.08753055,0.737748,0.0,0.0,0
191886614,-0.071728624,-0.0054072603,0.08711263,0.73693335,0.0,0.0,0
191906312,-0.05368194,-0.010701955,0.084736675,0.73614156,0.0,0.0,0
191926238,-0.04061384,-0.010192572,0.084243685,0.73495483,0.0,0.0,0
191946073,-0.03140064,-0.0067433678,0.08330254,0.7338981,0.0,0.0,0
191966116,-0.027653117,-0.0015642802,0.08299974,0.7329065,0.0,0.0,0
191985828,-0.027786588,0.005391231,0.081418194,0.7320312,0.0,0.0,0
192005760,-0.0384341,0.015678499,0.08337042,0.7322397,0.0,0.0,0
192025945,-0.04566251,0.029616842,0.08093673,0.73189574,0.0,0.0,0
192045566,-0.052240472,0.04104972,0.07850545,0.73193073,0.0,0.0,0
192065757,-0.05413343,0.047721002,0.077324614,0.73200226,0.0,0.0,0
192085240,-0.07015597,0.053674508,0.07545584,0.73235106,0.0,0.0,0
192105207,-0.079079784,0.05926921,0.07032583,0.73256594,0.0,0.0,0
192125050,-0.09348235,0.062827446,0.06923121,0.7324833,0.0,0.0,0
192144979,-0.10318826,0.058009055,0.069429964,0.7326217,0.0,0.0,0
192164753,-0.11352293,0.049235333,0.070966095,0.73286206,0.0,0.0,0
192184935,-0.12697282,0.037759833,0.07168611,0.73317164,0.0,0.0,0
192204647,-0.13342649,0.022763861,0.07304106,0.73351467,0.0,0.0,0
192224543,-0.12738422,0.005320267,0.075601846,0.73386085,0.0,0.0,0
192249688,-0.10503091,-0.015165591,0.07828158,0.7337773,0.0,0.0,0
192264201,-0.08733492,-0.023344254,0.07842787,0.7335714,0.0,0.0,0
192284312,-0.06153264,-0.030348506,0.07680168,0.7331002,0.0,0.0,0
192308970,-0.027213003,-0.03371982,0.07654076,0.7325096,0.0,0.0,0
192324021,-0.008965152,-0.03322402,0.07255107,0.7322922,0.0,0.0,0
192343798,0.011871643,-0.026629886,0.06722923,0.7320682,0.0,0.0,0
192368712,0.01908676,-0.0087985555,0.063714094,0.7320048,0.0,0.0,0
192388463,0.015572527,0.0058154264,0.061692677,0.7318161,0.0,0.0,0
192403581,0.011796166,0.016284361,0.057377014,0.7317766,0.0,0.0,0
192428275,0.0014200512,0.036415044,0.056947526,0.730936,0.0,0.0,0
192448168,-0.0070423875,0.051482774,0.056777224,0.730179,0.0,0.0,0
192463004,-0.01710937,0.060660448,0.05729692,0.7295715,0.0,0.0,0
192483151,-0.028080057,0.06567395,0.05642933,0.7291037,0.0,0.0,0
192508170,-0.036679838,0.064875275,0.0589331,0.72884643,0.0,0.0,0
192527673,-0.035380304,0.059039608,0.05994506,0.7287545,0.0,0.0,0
192542643,-0.032939073,0.053888958,0.06126578,0.7288363,0.0,0.0,0
192567417,-0.025787152,0.042912453,0.06299318,0.72903603,0.0,0.0,0
192587444,-0.013788457,0.031771805,0.062412333,0.72916704,0.0,0.0,0
192602220,-0.0013589992,0.024984999,0.06256617,0.72925735,0.0,0.0,0
192627226,0.023258071,0.015157344,0.05948215,0.7295811,0.0,0.0,0
192646926,0.04175479,0.009183578,0.057431094,0.7298516,0.0,0.0,0
192666906,0.056101736,0.0042683408,0.05537043,0.729965,0.0,0.0,0
192686697,0.070439085,0.001408265,0.052633215,0.73018366,0.0,0.0,0
192706716,0.08014134,0.00077333313,0.051945917,0.72785056,0.0,0.0,0
192726589,0.08325285,0.0021896681,0.051715646,0.7240552,0.0,0.0,0
192746443,0.08211726,0.005086128,0.052276183,0.71939385,0.0,0.0,0
192766642,0.06600678,0.007937976,0.054768648,0.7144732,0.0,0.0,0
192786110,0.055385116,0.0094188275,0.056273956,0.70984954,0.0,0.0,0
192806134,0.035306193,0.011045658,0.061156083,0.7054502,0.0,0.0,0
192825874,0.021541642,0.012257551,0.06434686,0.70107144,0.0,0.0,0
