timestamp,timestamp_sample,xyz[0],xyz[1],xyz[2]
173844038,173843280,-0.061626673,-0.33780158,0.0061441218
173868925,173868133,-0.054106526,-0.33840352,0.0046834196
173886293,173885531,-0.057083,-0.33588016,0.005489222
173908628,173907900,-0.047862187,-0.33603647,0.0066593434
173926089,173925299,-0.058656376,-0.33648401,0.0077867485
173945937,173945189,-0.05938592,-0.33408824,0.008978684
173968698,173967553,-0.07001055,-0.33517066,0.010306352
173985688,173984951,-0.074062355,-0.33023697,0.011173765
174005944,174004835,-0.07660789,-0.3306959,0.011439665
174027935,174027205,-0.07975952,-0.32525787,0.011124637
174045372,174044603,-0.0747362,-0.32682416,0.011307866
174065255,174064487,-0.083812274,-0.3229687,0.011000533
174087658,174086857,-0.07949999,-0.31934208,0.010089444
174105005,174104255,-0.08294297,-0.31762767,0.009575676
174124932,174124139,-0.07820657,-0.3165595,0.008181022
174147247,174146509,-0.082839504,-0.3212368,0.008110631
174164690,174163908,-0.08193613,-0.32218984,0.008062955
174187058,174186287,-0.08024242,-0.32875535,0.007680277
174206920,174206161,-0.07738674,-0.32846496,0.009024678
174227004,174226045,-0.076468565,-0.33325163,0.009477365
174246712,174245929,-0.07985455,-0.33021575,0.008878846
174264479,174263331,-0.07354671,-0.3303252,0.008453353
174286468,174285697,-0.0802516,-0.32609585,0.007954063
174306394,174305581,-0.07457614,-0.32694918,0.007371193
174328676,174327951,-0.08114657,-0.32671672,0.00662528
174346096,174345349,-0.07500401,-0.32705924,0.0047354065
174366002,174365233,-0.08130836,-0.32791388,0.0038087904
174388352,174387603,-0.08313649,-0.3224657,0.0036882006
174405737,174405002,-0.08663005,-0.3224199,0.0032531638
174425617,174424892,-0.09194203,-0.3170668,0.0024478803
174448385,174447255,-0.090291664,-0.31738153,0.0019999847
174467884,174467139,-0.09431973,-0.3117315,0.0033200139
174485613,174484538,-0.09069122,-0.3105593,0.004467572
174507650,174506907,-0.094591334,-0.3063698,0.005523229
174530047,174529277,-0.087055534,-0.3040176,0.004848651
174544963,174544190,-0.094494425,-0.30445936,0.0041928967
174567351,174566559,-0.09307531,-0.3061324,0.0032230916
174587163,174586443,-0.09575305,-0.30887586,0.003451711
174607117,174606334,-0.09353103,-0.30683145,0.0037358694
174626948,174626220,-0.08949658,-0.30744928,0.004026649
174646867,174646095,-0.09049587,-0.30390456,0.003753954
174666711,174665983,-0.08583089,-0.3084809,0.0035540638
174684088,174683378,-0.087052464,-0.30792516,0.004649411
174706705,174705748,-0.083723746,-0.30950135,0.005080928
174726358,174725632,-0.088143386,-0.3067219,0.005112768
174748730,174748001,-0.08688297,-0.3034157,0.0045289886
174766113,174765400,-0.09571459,-0.30281097,0.0041462327
174786018,174785284,-0.08994969,-0.3014388,0.004332408
174808374,174807653,-0.09157756,-0.3023749,0.0058470774
174825797,174825052,-0.09712552,-0.3016107,0.0067842496
174845656,174844936,-0.09299367,-0.30568352,0.007972758
174868040,174867305,-0.09348163,-0.30441502,0.0083144335
174888026,174887189,-0.09302297,-0.3068887,0.008092064
174905340,174904588,-0.09634708,-0.30486962,0.008206195
174928027,174926958,-0.092484996,-0.30741954,0.0091942735
174947607,174946842,-0.098007396,-0.30675507,0.01082406
174965271,174964240,-0.091612175,-0.30581796,0.010847233
174987383,174986610,-0.09002081,-0.30546355,0.010522982
175007221,175006494,-0.08751409,-0.30562955,0.009465838
175029599,175028863,-0.08924647,-0.3104326,0.008324286
175044574,175043780,-0.08263776,-0.31063354,0.0083500445
175066852,175066146,-0.08255398,-0.3155516,0.009411795
175086791,175086030,-0.083872996,-0.31442946,0.011470548
175104133,175103428,-0.075856104,-0.31691107,0.0130734695
175126580,175125798,-0.08126597,-0.31807336,0.014332615
175146413,175145683,-0.07296676,-0.32208702,0.01443202
175168784,175168051,-0.07356628,-0.32386824,0.015490211
175186336,175185450,-0.07175749,-0.32504252,0.01636392
175206076,175205334,-0.075325824,-0.3248964,0.016945766
175228468,175227704,-0.074834615,-0.32006136,0.01572966
175245852,175245102,-0.077198006,-0.3195162,0.01532406
175265714,175264986,-0.0733343,-0.31495535,0.014151019
175288121,175287356,-0.070752375,-0.31456038,0.012660984
175308015,175307240,-0.06985676,-0.30925763,0.010780841
175325362,175324638,-0.0636186,-0.3094058,0.009579901
175347728,175347008,-0.06296006,-0.30842033,0.009051034
175367705,175366892,-0.055450164,-0.3101837,0.008799181
175385021,175384290,-0.061263222,-0.30840117,0.007923759
175404949,175404175,-0.062061444,-0.30668423,0.006597991
175427284,175426544,-0.068281464,-0.30763528,0.005716878
175447177,175446428,-0.06785991,-0.30454022,0.0060554883
175464554,175463827,-0.06906312,-0.30559072,0.0064517846
175489443,175488682,-0.069913715,-0.2998332,0.00829451
175506795,175506080,-0.06934864,-0.2999628,0.00901358
175524247,175523479,-0.07847851,-0.29724726,0.009383864
175546560,175545849,-0.07196404,-0.29898605,0.009733196
175566513,175565733,-0.07338738,-0.29939717,0.011057482
175588824,175588107,-0.07216988,-0.30254164,0.012124422
175606227,175605501,-0.07566458,-0.30472538,0.012482635
175626136,175625385,-0.066996515,-0.30570948,0.012711225
175648516,175647754,-0.06497519,-0.3062463,0.012933689
175666038,175665153,-0.06332214,-0.30574206,0.011642639
175685769,175685037,-0.06251894,-0.310534,0.010349092
175708150,175707406,-0.0603823,-0.3077639,0.008994104
175725575,175724805,-0.0554267,-0.30633846,0.0076546557
175745444,175744689,-0.062264822,-0.30256495,0.0051242863
175767799,175767063,-0.0572577,-0.3021774,0.002962377
175785233,175784457,-0.060568333,-0.29864487,0.001896057
175805061,175804341,-0.05911517,-0.2952218,0.00033315667
175827424,175826710,-0.06771026,-0.29542723,-0.00033910957
175847380,175846594,-0.06795893,-0.29678854,-0.00016710401
175864744,175863993,-0.07219579,-0.2996992,-0.000718558
175884652,175883877,-0.07675862,-0.29990512,-0.0011937119
175906991,175906247,-0.07589896,-0.30592653,-0.0014395354
175926884,175926131,-0.073307194,-0.3072801,-0.0002322336
175944258,175943529,-0.06941857,-0.31219298,0.0013574949
175966641,175965899,-0.06455884,-0.31186655,0.0031371317
175986498,175985783,-0.05482454,-0.31386256,0.0051188767
176008907,176008152,-0.050889667,-0.3141604,0.0073899697
176026279,176025551,-0.0433473,-0.3160395,0.0082624825
176046177,176045435,-0.049032733,-0.318316,0.008008358
176068526,176067807,-0.046269108,-0.31836703,0.0064943978
176085918,176085203,-0.049730185,-0.32194352,0.00552525
176105838,176105091,-0.053396396,-0.32201973,0.0047787772
176128224,176127457,-0.053791393,-0.3256551,0.00450127
176148463,176147341,-0.05663953,-0.322695,0.0056956518
176165456,176164739,-0.055514373,-0.32336336,0.0060273698
176187865,176187109,-0.061609812,-0.32289237,0.0068574655
176207727,176206993,-0.05716301,-0.3254534,0.007068567
176225209,176224392,-0.056643225,-0.32426488,0.007167977
176247497,176246761,-0.052101146,-0.32214215,0.007194334
176267393,176266645,-0.05703881,-0.32131734,0.0073691336
176287267,176286529,-0.05079197,-0.31819686,0.008086737
176304696,176303928,-0.05026312,-0.31848288,0.0082739685
176327071,176326299,-0.056025475,0.3138381,-0.0035519379
176346941,176346181,-0.05915526,0.31415796,-0.0042243283
176364354,176363580,-0.06787424,0.31332442,-0.0046646902
176386656,176385949,-0.062617965,0.31290093,-0.0061499737
176406602,176405834,-0.081525855,0.31332907,-0.007745072
176428942,176428203,-0.07257972,0.31232753,-0.00857444
176446399,176445601,-0.08662008,0.31195316,-0.008321571
176466188,176465485,-0.08180086,0.31387544,-0.007307108
176488583,176487855,-0.080661,0.3121763,-0.0073702554
176505962,176505254,-0.08025422,0.31235784,-0.0070015416
176525928,176525138,-0.07454276,0.3115785,-0.007365322
176548268,176547508,-0.07263845,0.3112704,-0.0068903184
176565648,176564906,-0.07817691,0.30968004,-0.0045641647
176585525,176584790,-0.07626808,0.30789337,-0.0014853331
176607906,176607160,-0.07407935,0.31155622,0.00055673363
176628126,176627044,-0.071581826,0.3126793,0.00020429971
176645163,176644442,-0.07308457,0.31462413,-3.6030775e-05
176665378,176664326,-0.07236321,0.3201375,0.00040073338
176687449,176686696,-0.070299685,0.32994005,0.0006168225
176707326,176706580,-0.072253846,0.3357237,-0.0011744732
176724691,176723978,-0.07218693,0.33688706,-0.003147797
176747103,176746348,-0.062411893,0.34095824,-0.002136727
176766935,176766232,-0.050119463,0.34411117,0.00060164236
176784362,176783630,-0.04222379,0.34790176,0.0022464108
176806749,176806000,-0.023262067,0.35036927,0.0024871144
176826605,176825884,-0.0004664145,0.34619844,0.0020911258
176851554,176850739,0.022516914,0.3440256,0.0058273803
176866395,176865651,0.043306,0.34048766,0.011128301
176886670,176885537,0.06285287,0.33150163,0.014646238
176908639,176907906,0.07873616,0.31041726,0.009074033
176926086,176925304,0.07927711,0.2836054,0.0012577241
176945901,176945189,0.088257656,0.255485,-0.0057781604
176968354,176967562,0.1007976,0.23715444,-0.012698313
176988154,176987442,0.09937096,0.21591511,-0.021164168
177005610,177004840,0.08746216,0.19299597,-0.030973764
177027914,177027210,0.07604499,0.164788,-0.043912444
177047820,177047094,0.08385423,0.14357565,-0.0522037
177065242,177064493,0.08938932,0.13458775,-0.056315802
177085093,177084377,0.07658433,0.13142626,-0.057457235
177107821,177106746,0.06924889,0.1277735,-0.05384584
177127418,177126630,0.06870663,0.12191518,-0.049632203
177145053,177144029,0.07502414,0.12121314,-0.048681967
177167101,177166399,0.07483124,0.12879744,-0.04666518
177187049,177186283,0.05831974,0.14423907,-0.039253786
177204456,177203681,0.04659675,0.16434012,-0.028626299
177226810,177226051,0.026367784,0.1813667,-0.015074016
177246670,177245935,0.011247919,0.19045587,-0.007378797
177269022,177268304,-0.0016276755,0.19950819,0.0009927505
177286458,177285706,-0.010781487,0.20352106,0.008177077
177306301,177305587,-0.010952869,0.21478318,0.015193477
177328881,177327957,-0.01144043,0.23702984,0.020389581
177346057,177345355,-0.00047482207,0.25301135,0.023193311
177366358,177365239,0.021683792,0.2703049,0.027373308
177388336,177387609,0.041943047,0.2818905,0.03513691
177405767,177405007,0.049880397,0.2871634,0.040248364
177425621,177424891,0.055368636,0.2978082,0.044067893
177448029,177447261,0.06703518,0.31344697,0.04869891
177465382,177464659,0.072501056,0.3228014,0.05180081
177487916,177487029,0.06395728,0.33103848,0.056410734
177505149,177504427,0.056291807,0.33292812,0.059306003
177527510,177526801,0.053600475,0.33548862,0.060247626
177544946,177544196,0.044149064,0.3379738,0.05961043
177564784,177564080,0.034952942,0.34128612,0.05910558
177587495,177586450,0.024166461,0.33670482,0.056341697
177604567,177603848,0.013211537,0.31893045,0.050553806
177624687,177623732,-0.013731171,0.2893622,0.04180605
177646851,177646102,-0.04465731,0.24699225,0.035588376
177664686,177663501,-0.08955211,0.21922372,0.034956124
177689057,177688355,-0.17388365,0.16469195,0.03659419
177706506,177705753,-0.23985992,0.12566207,0.046879113
177726386,177725639,-0.16543539,0.15684712,0.09742321
177748786,177748007,-0.05850438,0.20937276,0.17974053
177766128,177765406,0.012622508,0.3272351,0.18488607
177786002,177785290,0.049404733,-0.17524508,0.11648079
177806085,177805174,-0.097018756,0.5806302,0.0010633722
177825796,177825058,-0.18226947,0.82210225,-0.036632594
177846059,177844944,-0.3141315,1.0,-0.009519018
177865544,177864826,-0.28862378,0.95490974,0.040215693
177887931,177887196,-0.1065725,0.79356086,0.049415324
177905377,177904594,0.056275867,0.7526153,0.03321699
177925250,177924479,0.48823676,0.71099955,-0.0035628788
177947557,177946848,0.76000965,0.61817336,-0.044075035
177967497,177966732,0.77289486,0.5328865,-0.05142429
177984849,177984131,0.80258805,0.41381386,-0.05366144
178007207,178006500,0.55804753,0.2769519,-0.07477249
178027157,178026384,0.41208744,0.20153864,-0.09321119
178044563,178043783,0.21003298,0.1733295,-0.10274504
178067165,178066152,0.016743097,0.14118125,-0.10349385
178086756,178086036,-0.08654698,0.1152348,-0.09342565
178109179,178108407,-0.17889842,0.118938245,-0.082074285
178126617,178125811,-0.10934386,0.13100018,-0.078886494
178146463,178145688,-0.04442898,0.16280413,-0.07873677
178168805,178168058,0.06507683,0.18828417,-0.062550105
178186232,178185456,0.12681125,0.1992471,-0.04709874
178206046,178205341,0.17654516,0.19931795,-0.03371366
178228513,178227710,0.14020322,0.179874,-0.024862641
178245887,178245120,0.16714984,0.15022358,-0.02428239
178265733,178264993,0.20428805,0.09002789,-0.015012317
178285728,178284877,0.16916536,0.05205415,-0.0112306485
178307985,178307247,0.1815916,0.044737536,-0.0027264997
178325729,178324645,0.16459835,0.04367258,0.0065989853
178345266,178344529,0.18165128,0.06745767,0.02366976
178367626,178366898,0.22908424,0.073205635,0.03828172
178387512,178386784,0.23144472,0.07488995,0.039337996
178404964,178404181,0.29312348,0.079982,0.033896837
178427249,178426551,0.29533902,0.08745262,0.02890798
178447177,178446435,0.3483591,0.06700766,0.019490227
178464545,178463834,0.26589108,0.044175796,0.006579499
178486918,178486203,0.24399246,-0.011714194,-0.03226035
178506859,178506087,0.22202076,-0.050112173,-0.06355097
178529215,178528456,0.24416783,-0.07927841,-0.091771975
178546855,178545855,0.2520862,-0.092571184,-0.11022274
178566467,178565739,0.19567254,-0.1200921,-0.13079414
178588891,178588108,0.09993939,-0.15800837,-0.1440474
178606262,178605514,0.14223126,-0.18774143,-0.15265514
178626151,178625391,0.07621732,-0.20666386,-0.14545202
178645980,178645275,0.06378208,-0.21876293,-0.12788805
178668447,178667646,0.10191848,-0.23686123,-0.102316834
178685763,178685043,0.08229982,-0.2556611,-0.075891465
178705684,178704929,0.15716681,-0.2990904,-0.064003974
178728022,178727297,0.121689886,-0.3575329,-0.06093834
178745428,178744695,0.18657465,-0.37690485,-0.06403826
178765442,178764579,0.19530654,-0.38455003,-0.055243224
178787684,178786949,0.28620008,-0.3888528,-0.041350197
178810059,178809318,0.2625312,-0.4569686,-0.033349108
178824970,178824231,0.27691486,-0.5113643,-0.040334575
178847348,178846601,0.32241103,-0.58041257,-0.053870477
178867239,178866485,0.2789172,-0.6380745,-0.047747836
178884647,178883883,0.3564699,-0.6880888,-0.030545684
178906958,178906253,0.2575679,-0.7944671,-0.02198745
178926883,178926137,0.2784975,-0.9399356,-0.034698643
178949308,178948506,0.27805814,-1.0,-0.034108907
178966700,178965905,0.3716462,-1.0,-0.027209738
178989269,178988274,0.33382654,-1.0,-0.003994193
179008912,179008158,0.33020547,-0.8941703,0.048454024
179026501,179025557,0.2887159,-0.5848347,0.05855335
179046181,179045441,0.31786776,-0.2976434,0.010808476
179066496,179065339,0.31229165,-0.07321181,-0.010898223
179085989,179085212,0.026108338,0.107590936,-0.006753512
179105866,179105093,0.03456838,-0.29902166,-0.023984224
179125684,179124977,-0.14216673,-0.3176,-0.049507525
179148115,179147347,-0.20667127,-0.057765864,-0.01997377
179165471,179164745,-0.18198206,-0.18563642,-0.011534743
179185387,179184629,-0.22055408,-0.3063348,0.0009499364
179207747,179206998,-0.08882504,-0.043713205,0.0123472065
179225152,179224397,-0.0098151425,0.20401874,0.026164146
179245143,179244281,0.19045587,0.26941,0.0393065
179267363,179266652,0.5226475,0.18834755,0.047426887
179285078,179284049,0.56343275,0.23985326,0.05657963
179304652,179303933,0.69619095,0.43673024,0.057346556
179327041,179326303,0.59537035,0.5078447,0.06481567
179346899,179346186,0.4968079,0.411692,0.06595952
179369351,179368556,0.35347617,0.36143187,0.058824975
179386665,179385954,0.0456465,0.41135675,0.05829256
179406596,179405838,-0.05938404,0.20455322,0.02322518
179428985,179428208,-0.17334667,0.15221724,0.022332666
179446421,179445606,-0.15593435,0.11018666,0.020206142
179466197,179465490,-0.18612811,0.08658371,0.024403278
179486088,179485375,-0.1664442,0.07448284,0.034229595
179506161,179505258,-0.13960424,0.043077216,0.037332755
179525866,179525142,-0.065125115,0.003526302,0.04238015
179546149,179545026,0.037796926,-0.004353673,0.047964435
179568101,179567396,0.17584702,0.02452799,0.051195547
179585610,179584804,0.24005315,0.04759255,0.056389425
179605455,179604678,0.5364689,0.09111695,0.10273664
179627797,179627047,0.55227906,0.13034797,0.11028613
179647681,179646931,0.47232777,0.20186538,0.11420738
179665071,179664330,0.38341287,0.26348734,0.11336599
179687484,179686699,0.13501905,0.27874312,0.118180536
179707297,179706583,-0.04080322,0.19671573,0.07279712
179724792,179723982,-0.13646628,0.20324555,0.07216585
179747063,179746351,-0.20358536,0.22720148,0.06857116
179767241,179766235,-0.22336502,0.23832938,0.06940086
179789354,179788605,-0.23522788,0.22729352,0.07359868
179806838,179806013,-0.13388824,0.20716847,0.07176945
179826669,179825887,-0.035302293,0.19766454,0.07822867
179849042,179848256,0.118029736,0.19757514,0.084567085
179866369,179865655,0.1929902,0.19033796,0.092808984
179886278,179885539,0.29345748,0.1864077,0.098982185
179906168,179905423,0.37405267,0.19381084,0.106088825
179928501,179927792,0.4147012,0.20202804,0.110059716
179945908,179945191,0.3991789,0.20794742,0.11120505
179965789,179965075,0.33069173,0.20545043,0.110628515
179988623,179987448,0.21774158,0.21014197,0.11049798
180005580,180004843,0.15100744,0.20380619,0.088653475
180025810,180024727,0.06940348,0.2115374,0.08692239
180047868,180047096,-0.0041101626,0.22380295,0.08510362
180067707,180066980,-0.040740456,0.23413813,0.08284168
180085135,180084378,-0.10211171,0.23891144,0.08212552
180107488,180106748,-0.07259245,0.23130305,0.07472676
180127373,180126632,-0.039061226,0.20535558,0.07436738
180144851,180144030,-0.019952279,0.18203127,0.07544705
180167143,180166400,0.10068703,0.15769629,0.07696308
180187005,180186283,0.1444752,0.14679664,0.0784149
180206951,180206168,0.16781032,0.11794709,0.062030118
180226774,180226051,0.19523935,0.10758564,0.062450998
180246902,180245936,0.20848103,0.10899491,0.062113967
180266575,180265819,0.23146373,0.12783003,0.06260365
180284444,180283218,0.21319626,0.14578359,0.062075112
180306297,180305587,0.22208218,0.19163576,0.07156911
180326230,180325471,0.19048269,0.210855,0.07244617
180348578,180347840,0.10110571,0.22249141,0.07434528
180365981,180365239,0.10270454,0.23298512,0.07338355
180385848,180385126,0.028568627,0.22987424,0.07208267
180408199,180407493,0.01324336,0.2066802,0.06619038
180425595,180424891,-0.006851324,0.18724008,0.063857734
180445493,180444775,-0.008447464,0.16522332,0.061172567
180468254,180467144,0.051221702,0.16286801,0.059091188
180490234,180489513,0.009308396,0.14686678,0.05783189
180505487,180504427,0.04123371,0.13993701,0.046741456
180527526,180526795,0.045305293,0.14781319,0.04460034
180547479,180546679,0.072167076,0.16547528,0.044739
180564787,180564078,0.09393313,0.18903184,0.044693038
180587193,180586447,0.081963316,0.18341121,0.04591707
180607063,180606334,0.108532734,0.1758325,0.048134252
180629424,180628701,0.12866937,0.17006809,0.047160204
180649382,180648585,0.12339455,0.1698121,0.047192782
180666723,180665983,0.11477866,0.16946122,0.0467248
180686636,180685868,0.10310133,0.16049385,0.0459734
180703981,180703265,0.07791569,0.15270154,0.0466074
180726620,180725635,0.06253742,0.15561008,0.04403996
180746299,180745518,0.043138288,0.14946592,0.04354558
180768621,180767889,0.0051227557,0.1384416,0.04333379
180786009,180785286,0.0130431615,0.13638495,0.042701613
180805916,180805170,0.023183374,0.14561766,0.042415656
180828265,180827540,0.030745236,0.16104482,0.042472646
180845714,180844939,0.037945237,0.15469107,0.045386627
180868097,180867307,0.058300532,0.15279579,0.045842163
180887897,180887191,0.06704116,0.15327452,0.04671473
180905306,180904589,0.04479687,0.1303371,0.036370233
180925189,180924473,0.044388622,0.119857945,0.035791032
180947962,180946843,0.036820404,0.09833117,0.036107063
180964967,180964241,0.054005697,0.08915438,0.03497066
180987669,180986611,0.036851726,0.07319423,0.034966066
181007213,181006495,0.049472645,0.061468735,0.03397906
181024656,181023893,0.037763003,0.049911894,0.032551233
181044495,181043777,0.036871802,0.043938518,0.032397155
181066903,181066146,0.031918213,0.057149973,0.03120116
181086733,181086030,0.05623276,0.06921311,0.03158893
181106626,181105914,0.064989485,0.10008654,0.04620177
181126519,181125798,0.08502501,0.115239576,0.04825936
181146398,181145682,0.06169903,0.1292451,0.04907545
181166293,181165568,0.058491606,0.1334847,0.05060044
181188665,181187935,0.049724944,0.12858735,0.04980271
181206314,181205333,0.035948444,0.098066874,0.03570727
181226141,181225217,0.014978883,0.100688085,0.03507408
181248330,181247586,0.03316325,0.09790391,0.034325507
181265701,181264985,0.012051625,0.094982825,0.033854138
181285617,181284869,0.0015321266,0.09639737,0.032685824
181307963,181307238,0.005372566,0.100309104,0.03498629
181327869,181327122,-0.012198344,0.092952885,0.03482639
181345251,181344520,0.010418646,0.08188105,0.034037836
181367612,181366894,-0.0014642167,0.07670229,0.0356173
181387659,181386775,0.009550802,0.076051444,0.036297835
181404891,181404172,0.025784375,0.06383045,0.03862864
181424855,181424056,0.05129028,0.052839074,0.03976563
181447145,181446425,0.08813714,0.05234521,0.039217174
181467073,181466309,0.11849573,0.05451251,0.038985755
181486926,181486193,0.12786193,0.05309634,0.038513385
181506835,181506076,0.107022,0.044940416,0.033143867
181526687,181525960,0.09588521,0.04522457,0.03461472
181544129,181543359,0.10011391,0.050606716,0.035886046
181566453,181565728,0.080951184,0.055044163,0.038235355
181586374,181585612,0.08801986,0.061146688,0.0403112
181608737,181607982,0.09231454,0.06453574,0.043287255
181626122,181625380,0.0946127,0.0701863,0.045093123
181646045,181645264,0.101283394,0.07592061,0.047291428
181668410,181667633,0.09727951,0.08065856,0.050599143
181685946,181685031,0.12208681,0.08377784,0.051034763
181705668,181704915,0.11861068,0.09280293,0.05528495
181728042,181727284,0.107508495,0.10154207,0.057380475
181747906,181747168,0.08528161,0.10375588,0.05794228
181765334,181764566,0.06741081,0.10172126,0.059456352
181787659,181786935,0.05586088,0.10373859,0.06032582
181807615,181806819,0.043057285,0.10133821,0.058680456
181824933,181824218,0.03615345,0.10275129,0.05956836
181847303,181846587,0.058839392,0.098922454,0.0617261
181867309,181866471,0.06347702,0.09335018,0.06302162
181889552,181888840,0.08774527,0.0867379,0.06282423
181904570,181903753,0.09467695,0.07804529,0.058765076
181926847,181926122,0.07587611,0.07159315,0.059640706
181946746,181946006,0.10650262,0.06934032,0.060278747
181964151,181963404,0.105059855,0.06455767,0.06013024
181986524,181985781,0.104115084,0.060380626,0.059669577
182006404,182005658,0.13326482,0.062117644,0.0667121
182028771,182028026,0.09588367,0.062190294,0.06738259
182046128,182045425,0.11153081,0.0660403,0.06735099
182066071,182065309,0.080582514,0.07452584,0.06731208
182088412,182087678,0.05332666,0.08884713,0.06697845
182105781,182105076,0.023396512,0.09939862,0.06716988
182125664,182124960,-0.014417729,0.11237182,0.06659678
182148090,182147330,-0.03422077,0.12373724,0.06550399
182168350,182167213,-0.043233987,0.13098012,0.06619473
182185383,182184611,-0.07362576,0.13741983,0.06720716
182207746,182206981,-0.03593257,0.12506297,0.060278606
182230071,182229350,-0.016083501,0.12952203,0.06198393
182245039,182244263,-0.00011121127,0.13079035,0.06306172
182267361,182266632,0.02682961,0.12782353,0.06561348
182287250,182286516,0.04071505,0.12179274,0.066500925
182307104,182306400,0.052420657,0.11684654,0.0687485
182329616,182328769,0.06369384,0.10699351,0.07025597
182347042,182346167,0.052818984,0.103838705,0.07012439
182366789,182366051,0.051783144,0.09638648,0.07153362
182384235,182383454,0.032844406,0.092391625,0.074176
182406545,182405819,0.027712764,0.091859445,0.07398554
182426446,182425702,0.0060428316,0.09168563,0.07584736
182448779,182448072,-0.0048085195,0.093794,0.07656384
182468960,182467956,-0.025295418,0.09301633,0.075560935
182488619,182487839,-0.017306654,0.08661798,0.07547294
182508481,182507723,-0.026417967,0.08900803,0.086839736
182525839,182525122,-0.042940725,0.086357266,0.08783321
182545765,182545005,-0.03768015,0.09011552,0.08823404
182568081,182567374,-0.035989832,0.08931856,0.08790294
182585499,182584773,-0.033451546,0.088488735,0.08678936
182608048,182607142,-0.016353106,0.08302602,0.08774696
182627782,182627025,-0.022979539,0.0852023,0.08736015
182645313,182644424,0.00668452,0.08663829,0.086363204
182665144,182664308,0.019903833,0.08399399,0.08650557
182687429,182686678,0.020366397,0.079700135,0.08650317
182704846,182704075,0.020741923,0.063070044,0.076952524
182727188,182726445,0.013109303,0.055978734,0.07613592
182747039,182746328,0.028912926,0.051486827,0.07689346
182766996,182766212,0.023353066,0.050087966,0.076868854
182786849,182786096,0.031682763,0.051211193,0.07664765
182804225,182803494,0.02891267,0.05566066,0.07539448
182826916,182825863,0.014546083,0.056187127,0.07495082
182846473,182845747,0.011551593,0.06160492,0.074298635
182866578,182865631,0.0024542634,0.06784388,0.07250101
182886264,182885514,-0.010699968,0.07415625,0.07015543
182906606,182905404,0.01961206,0.09069577,0.083031215
182928480,182927768,0.010330817,0.087359436,0.08107716
182945954,182945188,0.038645394,0.08738386,0.080321334
182965810,182965050,0.048533395,0.09034292,0.079107374
182985681,182984933,0.03661927,0.10055597,0.07687765
183008033,183007302,0.033661205,0.08746797,0.06271284
183025471,183024701,0.010191529,0.08277741,0.060158852
183047807,183047070,0.03845125,0.07655822,0.059881408
183067701,183066954,0.021863738,0.07531183,0.058639824
183085082,183084352,0.012329611,0.076949835,0.05817875
183107440,183106721,0.017272612,0.08313001,0.05900731
183127653,183126605,0.014876845,0.07969163,0.057646845
183147267,183146488,0.02894662,0.076305,0.057429813
183164904,183163887,0.051075093,0.08135958,0.05757241
183187022,183186256,0.030828865,0.09364463,0.05422487
183206906,183206140,0.05835555,0.105279766,0.05197015
183224255,183223538,0.02547068,0.10592919,0.046850592
183246679,183245914,0.023960182,0.098270774,0.04553436
183266502,183265791,0.013306335,0.097721696,0.044132363
183288893,183288160,-0.0074793827,0.102095045,0.04301912
183306348,183305558,-0.008149615,0.09679362,0.038946483
183326148,183325442,-0.029112738,0.08891062,0.03782671
183348783,183347812,-0.051270574,0.09050905,0.03859755
183365941,183365209,-0.040250152,0.09384765,0.037958454
183386250,183385094,-0.06333292,0.0892893,0.037339076
183408237,183407462,-0.031336132,0.07978455,0.04038521
183425615,183424861,-0.04022887,0.073680855,0.0414583
183445458,183444744,-0.023354426,0.073267005,0.043037772
183467885,183467114,0.0043082493,0.071840525,0.044865265
183487730,183486997,-0.0077870195,0.06605162,0.045746088
183505154,183504396,-0.011671719,0.0618995,0.04616733
183527477,183526765,-0.03342968,0.057910092,0.04697434
183547366,183546649,-0.040960327,0.046432797,0.048884165
183567399,183566533,-0.045025542,0.031233627,0.051486384
183584644,183583931,-0.06622913,0.025198808,0.053525664
183607345,183606300,-0.04064015,0.017942324,0.057447538
183626922,183626184,-0.041544843,0.010494959,0.059550952
183644572,183643582,-0.045922693,0.0039593666,0.061679028
183666665,183665951,-0.009443882,-0.004298306,0.06528484
183686593,183685835,-0.022478793,0.0005810391,0.0662554
183708913,183708204,-0.012861948,0.011071075,0.07145279
183726346,183725602,-0.00033754815,0.017699644,0.06929161
183746233,183745486,0.005361809,0.030656887,0.06752604
183768576,183767855,0.016522447,0.048625167,0.06555242
183785974,183785254,0.020900756,0.06317634,0.06198669
183805845,183805137,0.023569325,0.059918582,0.0556914
183830726,183829992,0.021185406,0.05743478,0.05415895
183848127,183847390,0.03651623,0.05959028,0.05220607
183865905,183864788,0.019616945,0.059317373,0.051121276
183887881,183887157,0.019417558,0.054082274,0.050003264
183907771,183907041,0.0038418015,0.04500577,0.048848234
183925155,183924440,0.01571342,0.043029986,0.047947086
183945086,183944326,0.014407992,0.042646013,0.04777482
183967401,183966692,0.0055330177,0.035786573,0.046491433
183989829,183989061,0.005716495,0.021299303,0.047132485
184004729,184003974,0.009145003,0.018397996,0.047685407
184027060,184026343,0.0032461893,0.024641855,0.04759944
184047040,184046227,0.0101967435,0.02893201,0.047019355
184064347,184063625,0.011209186,0.030689185,0.04581684
184087044,184085995,0.009905962,0.029187333,0.044889912
184106638,184105878,0.004389599,0.041309383,0.051248606
184128999,184128247,-0.01026333,0.05182648,0.050375316
184148856,184148131,-0.00864916,0.059706293,0.048859846
184166261,184165529,-0.010259474,0.06032555,0.048418246
184188616,184187899,-0.018803108,0.06738353,0.046662375
184206052,184205297,0.0010882436,0.06367071,0.038887065
184225905,184225180,-0.011567753,0.06973062,0.03772257
184248265,184247549,-0.013272169,0.071701124,0.037432462
184265719,184264948,-0.005632273,0.07214603,0.037613373
184288191,184287317,-0.0045430586,0.07270864,0.036557306
184305603,184304715,0.007411258,0.068682626,0.037029304
184325337,184324599,0.010986769,0.06820038,0.03692015
184345586,184344482,0.0139785,0.06796619,0.036858324
184367727,184366852,0.02036532,0.066583745,0.0374415
184387491,184386736,0.028124943,0.06647612,0.037299786
184404898,184404133,0.02809482,0.06590621,0.039181918
184427538,184426503,0.04477539,0.07025381,0.039458815
184447092,184446387,0.041062307,0.07166164,0.039526373
184464526,184463785,0.057774443,0.07328449,0.039175577
184484395,184483668,0.042920053,0.06943193,0.039482895
184506756,184506037,0.0553965,0.069180444,0.043154582
184526692,184525921,0.034367457,0.06752786,0.04340748
184549015,184548290,0.033131015,0.071012676,0.04402011
184566670,184565689,0.013480851,0.071255796,0.04492128
184586291,184585572,0.01261094,0.06843708,0.045175266
184608716,184607941,0.004122959,0.066832714,0.045203257
184626188,184625339,0.008521852,0.070428625,0.044364803
184646451,184645223,-0.004361797,0.07028025,0.044478327
184668332,184667594,0.0026114127,0.066313155,0.04431058
184685758,184684991,-0.017197238,0.060275864,0.044434886
184705617,184704874,-0.009193746,0.05731402,0.040740725
184728004,184727243,-0.02476832,0.056866553,0.04086233
184747850,184747127,-0.01914922,0.05602874,0.040459916
184765240,184764525,-0.016515747,0.05827893,0.04052459
184785283,184784409,-0.009909652,0.05861096,0.04054819
184807490,184806779,0.013331535,0.06484331,0.042823434
184827730,184826662,0.01955252,0.062841296,0.042946514
184844763,184844060,0.019203847,0.065463625,0.041987192
184867190,184866429,0.035782937,0.069276065,0.0425313
184887036,184886313,0.02999318,0.08203748,0.041897103
184904476,184903711,0.038506147,0.086005256,0.04157308
184926786,184926080,0.05530707,0.09103532,0.04192525
184946719,184945964,0.04059636,0.09584432,0.04120679
184969196,184968337,0.07358943,0.10227145,0.04136289
184986529,184985731,0.07385221,0.102195226,0.03865344
185006356,185005615,0.08939695,0.10577299,0.039025065
185028740,185027984,0.078695536,0.104630016,0.036168117
185046329,185045382,0.054672755,0.09965312,0.03504638
185065995,185065268,0.058107167,0.0920526,0.033137564
185088388,185087635,0.042768084,0.08490847,0.032587793
185105827,185105033,0.05450882,0.08400266,0.030862704
185125647,185124917,0.0547498,0.07921715,0.030940894
185145513,185144800,0.061010383,0.07311689,0.030892644
185165431,185164684,0.060499106,0.06698009,0.030695928
185185295,185184567,0.068171225,0.06514913,0.0310285
185205199,185204451,0.04888993,0.062471427,0.029888282
185227570,185226820,0.038928587,0.0619344,0.030271959
185247424,185246704,0.039585233,0.058183853,0.031665094
185265025,185264102,0.034288373,0.05567942,0.031645868
185287176,185286471,0.018215014,0.05127019,0.0331042
185307396,185306355,0.026226273,0.05381132,0.03741484
185324469,185323753,-0.0043915403,0.05108608,0.037896223
185346884,185346122,0.0069966074,0.052549046,0.039712593
185366708,185366005,-0.0021726557,0.052847106,0.039294433
185389177,185388375,0.0007328316,0.047609307,0.03973503
185406481,185405773,0.01144692,0.04676348,0.040133137
185426404,185425656,-0.015683323,0.050890613,0.03923605
185448806,185448026,-0.005116013,0.05746417,0.03934706
185466173,185465424,0.010896722,0.05563784,0.03872416
185486070,185485308,-0.0048239264,0.044084605,0.038500145
185508394,185507676,0.007821844,0.049322505,0.036287725
185528345,185527560,-0.020945333,0.058559652,0.03594328
185545687,185544959,-0.028556086,0.06433619,0.035168495
185565979,185564842,-0.020785283,0.056482043,0.03516725
185587937,185587211,-0.022188196,0.052094407,0.0356789
185605351,185604609,-0.008933352,0.057707757,0.03685991
185625209,185624493,-0.023771869,0.053975128,0.037018433
185647614,185646861,-0.009675285,0.04370923,0.037693802
185667457,185666745,-0.01573566,0.02695436,0.03789783
185684913,185684143,-0.014470987,0.018705953,0.03865658
185707279,185706512,-0.003342616,0.016248796,0.04079707
185729585,185728882,-0.0028224261,0.010068697,0.041595146
185744602,185743795,0.0069402414,0.004290085,0.04238486
185766870,185766163,0.007957848,0.00013008193,0.04284816
185787064,185786047,0.00800362,0.004788112,0.04418881
185809162,185808417,0.015696926,0.020225113,0.04618645
185829215,185828300,-0.0040892307,0.02365739,0.046156816
185846427,185845698,0.011667737,0.031775158,0.046688516
185868862,185868067,0.0013823531,0.046930928,0.04620716
185886177,185885465,-0.00081072317,0.056564633,0.04620458
185906131,185905349,0.0066726743,0.06113574,0.041144364
185928485,185927718,-0.0046921396,0.06787842,0.040832188
185945882,185945120,-0.0017618174,0.07140127,0.04148708
185968436,185967485,-0.014746101,0.080750406,0.040931564
185988401,185987369,-0.0029952824,0.08382829,0.04087613
186008415,186007253,0.006034843,0.0896541,0.043822117
186025388,186024650,-0.0015411548,0.08444243,0.043781728
186048255,186047020,0.010569248,0.082365945,0.044106346
186067611,186066903,0.022041611,0.07974236,0.043542754
186085055,186084301,0.031988293,0.07495512,0.04392538
186104983,186104185,0.056435794,0.070483446,0.044717323
186127295,186126554,0.057874307,0.06319524,0.044965964
186147467,186146438,0.07832392,0.060850736,0.044634685
186164577,186163836,0.063806996,0.057902146,0.04383192
186187264,186186205,0.07182524,0.058853183,0.041539237
186204407,186203603,0.08026275,0.061318558,0.03934177
186229540,186228457,0.056266204,0.06485447,0.038841624
186246640,186245855,0.06426928,0.07138722,0.037903853
186266778,186265739,0.036553107,0.0758434,0.037565924
186288838,186288108,0.039322402,0.081090495,0.036780834
186306276,186305507,0.019974973,0.07630592,0.03372133
186326111,186325390,0.020183695,0.07996152,0.033994664
186346030,186345273,0.01506073,0.07978666,0.034797765
186365866,186365157,0.0038763424,0.07623793,0.035959244
186385781,186385041,0.002479437,0.07259696,0.036900703
186405643,186404927,0.0014636113,0.07281416,0.0383909
186428016,186427295,0.009056083,0.0687866,0.039266158
186445456,186444692,0.025869643,0.063295014,0.039116636
186465340,186464584,0.02571405,0.05858918,0.039371178
186488141,186486944,0.03509806,0.05877633,0.03914678
186507605,186506828,0.041598916,0.06253979,0.041505728
186525314,186524226,0.039299812,0.058213055,0.04162039
186547308,186546595,0.03510842,0.05648821,0.04184183
186567227,186566478,0.035489988,0.055169087,0.041770447
186584612,186583878,0.039031893,0.05663047,0.04157451
186606982,186606246,0.06530803,0.07410321,0.05860004
186626897,186626129,0.05096075,0.070104405,0.05933092
186649261,186648498,0.04897041,0.06179946,0.060103256
186666633,186665897,0.020356458,0.059429947,0.06125089
186686492,186685780,0.032295242,0.060216557,0.062632814
186706429,186705664,0.023596385,0.05013093,0.049442545
186726301,186725547,0.028055493,0.04955136,0.049788248
186746405,186745431,0.030179841,0.04821476,0.050284278
186766077,186765315,0.021826802,0.049885496,0.051037602
186788421,186787683,0.023971416,0.05100329,0.05221289
186805833,186805085,0.022535084,0.053122174,0.052905962
186825710,186824965,0.022748163,0.051369958,0.05320404
186848049,186847334,0.045033026,0.049910717,0.05283204
186865521,186864732,0.021123163,0.047777954,0.053737927
186885337,186884616,0.032052822,0.05154862,0.054415848
186907738,186906985,0.03400986,0.0743657,0.06603937
186927755,186926868,0.03792223,0.08391667,0.06633061
186945024,186944267,0.07181175,0.09133496,0.06562355
186967744,186966636,0.046170175,0.09390102,0.06570334
186987226,186986519,0.05531106,0.09540012,0.065593295
187004973,187003917,0.044689637,0.076932445,0.047934648
187027061,187026286,0.035130307,0.07571274,0.048532866
187046948,187046170,0.03226386,0.07299037,0.048448123
187069298,187068539,0.04597607,0.07112796,0.048469298
187086687,187085937,0.052353747,0.06960747,0.04816474
187106537,187105821,0.045379177,0.07171704,0.049245965
187128904,187128190,0.031902105,0.068770915,0.049017612
187146340,187145589,0.030060425,0.06497697,0.048646014
187166206,187165471,0.038084287,0.0658233,0.049012974
187186095,187185358,0.039745484,0.07096784,0.049088843
187208444,187207724,0.028647792,0.071503066,0.048421763
187226079,187225124,0.04187148,0.07063008,0.047938306
187245721,187245006,0.04202309,0.069227844,0.04785019
187268108,187267374,0.02996312,0.07130366,0.048773214
187285527,187284772,0.037174553,0.075440116,0.047961835
187305399,187304656,0.04324498,0.07167418,0.044495385
187327735,187327025,0.034644842,0.07267522,0.045136724
187347652,187346909,0.026224395,0.07640703,0.044677954
187365062,187364307,0.047807325,0.08110108,0.044151288
187387428,187386676,0.02029976,0.082288586,0.044716343
187407448,187406559,0.025600255,0.09737857,0.057147935
187424709,187423958,0.039003722,0.09597521,0.05629034
187450038,187448812,0.024665415,0.091479905,0.056846242
187466967,187466210,0.01621442,0.088472694,0.05857509
187489387,187488583,0.02527174,0.08180242,0.058467146
187506714,187505977,0.014650026,0.055787615,0.042420644
187526604,187525861,0.02065085,0.048522633,0.042873234
187548950,187548230,0.031569235,0.042804807,0.04276977
187566406,187565628,0.031781156,0.04031907,0.043658134
187588795,187587996,0.04029739,0.03685814,0.04318492
187608583,187607880,0.07012199,0.05062307,0.06410707
187628573,187627764,0.065473884,0.04966202,0.0641232
187645875,187645168,0.05669046,0.052339397,0.06470647
187668505,187667531,0.06536519,0.061531197,0.06444433
187688176,187687415,0.045276795,0.071424596,0.06479117
187705722,187704813,0.010992577,0.05318924,0.04460434
187725415,187724696,-0.0011784123,0.057319764,0.04569327
187747808,187747065,-0.016302451,0.06161105,0.04741008
187765204,187764463,-0.022781383,0.06600433,0.048685122
187785090,187784347,-0.024026,0.067232005,0.050172742
187807799,187806716,-0.022322305,0.064268224,0.05051272
187824856,187824114,-0.011555978,0.06377223,0.050529476
187844707,187843998,-0.0052439803,0.06055311,0.050682142
187867121,187866366,0.014945059,0.056402076,0.05166902
187887099,187886250,0.025300827,0.055103797,0.05187308
187909360,187908619,0.043744415,0.057377964,0.053321682
187924301,187923531,0.056501336,0.05736524,0.053826123
187946621,187945900,0.05991996,0.05504579,0.05321651
187966528,187965784,0.07251502,0.05616857,0.052212615
187986763,187985668,0.06620606,0.059145927,0.051004175
188006340,188005551,0.071809165,0.07180011,0.059053384
188026182,188025435,0.066991575,0.07614202,0.058062848
188048563,188047804,0.0348281,0.078998774,0.058027998
188065926,188065201,0.044166736,0.082434535,0.057336245
188085847,188085085,0.03017032,0.08570669,0.05770055
188108169,188107454,0.009254847,0.0817054,0.05523653
188125583,188124853,0.010496524,0.083230205,0.05521717
188145495,188144736,0.0069786757,0.07987658,0.05582519
188167821,188167105,0.0114077395,0.07486149,0.056553114
188188123,188186988,0.020394769,0.07079874,0.056844294
188205100,188204386,0.0128179155,0.06632833,0.058746982
188227552,188226755,0.051652398,0.058197036,0.058517266
188247364,188246639,0.056317244,0.052773606,0.05797855
188264788,188264041,0.054438435,0.049537882,0.058548544
188287132,188286406,0.07488584,0.052690245,0.057021134
188307023,188306289,0.06735012,0.054794233,0.060972616
188329435,188328658,0.088039935,0.051898465,0.060846042
188346789,188346056,0.07029333,0.057889502,0.059818286
188366763,188365940,0.05386672,0.06911649,0.059308115
188386534,188385823,0.051554993,0.080342904,0.05900526
188403956,188403222,0.036249124,0.07664156,0.049280755
188426348,188425590,0.03222332,0.07778467,0.050946545
188446233,188445474,0.020824302,0.08225272,0.050973665
188468552,188467843,0.019270817,0.091342926,0.051106326
188485996,188485241,0.013912655,0.09016273,0.05185426
188505834,188505125,0.008464857,0.09355997,0.057588972
188528230,188527493,0.0021997632,0.08656404,0.05906874
188545620,188544892,0.019049019,0.08117132,0.059348673
188565537,188564775,0.021555439,0.072273456,0.060350396
188587868,188587145,0.017168874,0.056734417,0.062164977
188607738,188607027,0.021455219,0.041829247,0.05329523
188625191,188624426,0.0239789,0.03930759,0.053709265
188647513,188646795,0.03472934,0.031123651,0.05448777
188667784,188666678,0.03268718,0.026730193,0.05493733
188684783,188684076,0.028485497,0.026520958,0.05634213
188707247,188706445,0.03963347,0.038388684,0.058217842
188727070,188726332,0.035099126,0.046301365,0.05837827
188749469,188748697,0.032930925,0.04805333,0.058299154
188766813,188766095,0.018951278,0.053054824,0.058572285
188786742,188785979,0.024429152,0.06061427,0.05876988
188806580,188805862,0.026590513,0.072872974,0.06362713
188826473,188825746,0.036962718,0.076815814,0.06314572
188846445,188845629,0.0473477,0.07896334,0.062542744
188866215,188865512,0.025782282,0.08270229,0.061399296
188888896,188887882,0.03470341,0.08373712,0.061955657
188905995,188905279,0.026280958,0.08226357,0.061000288
188925932,188925163,0.036284816,0.07648666,0.06123055
188948243,188947532,0.06459227,0.078950204,0.059811484
188965715,188964930,0.052115835,0.07950042,0.059292752
188985561,188984813,0.085713744,0.07713108,0.058127455
189007917,189007182,0.050759528,0.06711903,0.055694867
189027815,189027066,0.055382613,0.060987502,0.055419724
189045234,189044464,0.050609056,0.057979483,0.055063102
189070302,189069318,0.026326302,0.049051333,0.056215517
189087449,189086716,0.032813024,0.046357352,0.056569528
189104833,189104114,0.012147732,0.044895604,0.06367034
189127201,189126483,-0.009856129,0.045745865,0.06583815
189147491,189146367,-0.021233417,0.04534179,0.06747569
189169455,189168735,-0.019788299,0.046803914,0.068913594
189186952,189186133,-0.0060702027,0.046662755,0.06875558
189209494,189208502,-0.008724873,0.05138428,0.072102785
189226629,189225900,0.003326012,0.060174216,0.07200725
189244068,189243300,0.021552077,0.0636344,0.07168274
189266418,189265667,0.0146355,0.06383873,0.072178714
189286272,189285554,0.025206652,0.06728152,0.07166939
189308626,189307920,0.011754716,0.060900576,0.05953404
189326094,189325318,0.022084216,0.06091793,0.058822583
189348482,189347687,0.011521043,0.055432115,0.05931061
189368626,189367570,0.0237758,0.054825272,0.059460375
189385691,189384968,0.010781556,0.053823575,0.059968837
189406017,189404852,0.023539476,0.06338132,0.077261
189427926,189427220,0.031713776,0.05685711,0.07788079
189445403,189444628,0.0448372,0.0537783,0.077570274
189465270,189464502,0.04936747,0.05532442,0.07800015
189487986,189486871,0.049437515,0.05447963,0.078523204
189507536,189506755,0.04983071,0.04892533,0.07365481
189524907,189524152,0.04196943,0.04459735,0.07449236
189547261,189546521,0.049105234,0.047261402,0.074064165
189564641,189563919,0.04904658,0.048729774,0.073902115
189584571,189583803,0.05307706,0.051275194,0.07306318
189606886,189606172,0.015198076,0.039845075,0.057052117
189627096,189626055,0.027869692,0.046499666,0.056822192
189646662,189645938,0.015559486,0.05305592,0.056283712
189664325,189663337,0.01149529,0.053998023,0.056994308
189686492,189685705,0.014843821,0.058335517,0.05615801
189706329,189705589,0.0075610955,0.07536071,0.069386385
189728700,189727958,0.023065899,0.083242014,0.068627395
189746520,189745356,0.003823635,0.08449208,0.069075495
189765972,189765239,0.023128703,0.08584653,0.069112584
189788363,189787608,0.017072458,0.0907139,0.06888951
189805709,189805006,0.04036162,0.105039075,0.075500496
189825599,189824891,0.049762882,0.10808997,0.07573271
189848214,189847258,0.0421556,0.10440393,0.07560135
189867901,189867142,0.068851374,0.10011764,0.07496527
189885699,189884540,0.048301928,0.09252858,0.0742174
189907696,189906909,0.0711379,0.083657995,0.06686783
189927546,189926792,0.06409642,0.07651704,0.06587025
189944928,189944192,0.06634661,0.065785415,0.06489362
189967338,189966559,0.06356533,0.05568339,0.06483034
189987154,189986442,0.04977646,0.05156878,0.064032726
190007089,190006326,0.05188244,0.045066025,0.054580793
190026942,190026210,0.042281434,0.045056764,0.05400588
190046847,190046093,0.040444523,0.04544185,0.05404479
190066771,190065976,0.032032736,0.04756157,0.05445931
190084113,190083374,0.0057450724,0.049005605,0.056154463
190106793,190105743,0.020182524,0.059090976,0.06330445
190126372,190125626,0.0005119152,0.060187165,0.06490063
190148748,190147995,0.006304994,0.06278606,0.06684203
190166132,190165393,-0.016366547,0.06503479,0.068531066
190186025,190185279,-0.026576424,0.06628011,0.06979372
190208368,190207645,-0.0043582283,0.06134624,0.06474132
190225803,190225043,-0.013036291,0.05712675,0.06514936
190245641,190244927,0.0014861836,0.055206534,0.06563325
190268043,190267296,-0.0036298265,0.050242655,0.066925794
190287898,190287182,0.0027571742,0.045425676,0.06760901
190305294,190304577,0.023532046,0.04927542,0.0732424
190327865,190326946,0.034237728,0.046268176,0.07411433
190347581,190346830,0.048019007,0.04809454,0.07408809
190365354,190364227,0.044834804,0.047704224,0.07494334
190387376,190386596,0.062501356,0.04871353,0.07451289
190407244,190406480,0.056483876,0.04729631,0.06784922
190429566,190428848,0.057860896,0.05657055,0.06673923
190444555,190443761,0.048446886,0.06354594,0.06566973
190466833,190466130,0.041411478,0.06769976,0.065695226
190486742,190486013,0.028381556,0.069392994,0.0650822
190504128,190503411,0.035226755,0.087863,0.0773465
190526525,190525781,0.0281059,0.09417422,0.07750806
190546464,190545663,0.013878669,0.09638565,0.07741284
190568795,190568039,0.0017143574,0.09266575,0.078971684
190586433,190585430,0.011454274,0.0931837,0.078891955
190606053,190605314,0.015102347,0.085210375,0.07475861
190628418,190627682,0.0331479,0.078591995,0.07466907
190645834,190645080,0.02352489,0.07133351,0.075487316
190665718,190664964,0.034744233,0.06412649,0.07534779
190688073,190687333,0.059425667,0.06165415,0.07428013
190707960,190707216,0.06426301,0.054763097,0.068603165
190725352,190724614,0.072927505,0.052406088,0.067253456
190750215,190749469,0.07542724,0.05387224,0.06575233
190767642,190766867,0.060648747,0.054696716,0.065833546
190784986,190784264,0.07102572,0.06245303,0.06454746
190805072,190804148,0.052081604,0.07389689,0.069598205
190827226,190826516,0.054957535,0.07838072,0.069699325
190847504,190846400,0.042806186,0.08298197,0.06989265
190864521,190863798,0.028353801,0.08496573,0.07133786
190889492,190888652,0.025338275,0.08737313,0.07191485
190906788,190906050,0.021837994,0.08866166,0.072991125
190924187,190923448,0.025999626,0.08492284,0.07381713
190946534,190945817,0.004827939,0.07989664,0.07528444
190966460,190965700,0.0033490674,0.07517838,0.07690815
190989228,190988069,0.017416665,0.07073404,0.07766608
191006171,191005467,0.010161857,0.057990078,0.07076975
191028860,191027836,0.021441083,0.052718855,0.07239205
191048455,191047719,0.006771231,0.049965486,0.073155224
191066112,191065120,0.03566531,0.052451674,0.0734529
191085718,191085001,0.038004503,0.054655485,0.07376378
191108112,191107370,0.038001586,0.059788898,0.07991822
191125532,191124767,0.057280596,0.06610928,0.079623476
191148295,191147136,0.06573644,0.07052771,0.078443
191167985,191167020,0.07692286,0.07350578,0.07753705
191185227,191184417,0.063306056,0.071034044,0.0779743
191205051,191204301,0.05497682,0.06097679,0.067289434
191227432,191226670,0.049724177,0.06309191,0.06664093
191244789,191244067,0.04438357,0.06426267,0.066473804
191264695,191263951,0.034579262,0.068598084,0.066557065
191284693,191283834,0.025862627,0.07207503,0.06725995
191307125,191306203,0.008644908,0.07658669,0.074679464
191324644,191323601,0.009220053,0.07896366,0.075141124
191344224,191343484,-0.0007210256,0.077285975,0.07609272
191366604,191365853,0.009418394,0.07590189,0.07665746
191386482,191385737,0.005789394,0.07130313,0.077697195
191408891,191408105,0.0064155273,0.06778634,0.08522687
191426204,191425503,-0.0027592832,0.06229156,0.08647698
191446132,191445387,0.007357411,0.054374043,0.08770384
191468545,191467755,0.02721972,0.05137245,0.08803281
191485895,191485154,0.03467492,0.046614096,0.08853614
191505787,191505037,0.040917385,0.03988342,0.075974815
191528130,191527405,0.026215333,0.03667729,0.07631702
191548029,191547289,0.0287171,0.035172127,0.07594306
191565405,191564687,0.024063233,0.035619196,0.075744644
191587815,191587055,0.015969146,0.04067622,0.07486647
191607670,191606939,0.0170496,0.056031413,0.088381894
191625077,191624337,0.0037817308,0.06187309,0.08832373
191647417,191646706,-0.0129916705,0.06853832,0.08803655
191667362,191666589,-0.012313885,0.07182548,0.08713053
191687178,191686472,-0.011547988,0.07515621,0.086191885
191704631,191703870,-0.0139417555,0.074201144,0.08308173
191727003,191726239,-0.011904953,0.074771926,0.08193037
191746880,191746122,-0.0053902743,0.07159848,0.08245666
191764346,191763520,0.005499243,0.06860511,0.0818236
191786609,191785889,0.0045506507,0.06176004,0.082533576
191806814,191805773,0.018710684,0.058965437,0.08393032
191828847,191828141,0.01550352,0.04967997,0.084729545
191846279,191845539,0.03717619,0.048359185,0.08476616
191866178,191865423,0.03657836,0.0449357,0.08532685
191888543,191887791,0.062413678,0.045857098,0.08488317
191905910,191905189,0.051007282,0.04152252,0.081097156
191925821,191925073,0.04674796,0.04744238,0.08069604
191948216,191947442,0.031572912,0.04996041,0.08078993
191965655,191964839,0.018517613,0.053752653,0.08001999
191985463,191984723,0.024022223,0.05792716,0.07987299
192007826,192007092,0.014703073,0.07928072,0.0886233
192025419,192024489,0.014354728,0.08660113,0.08815872
192045129,192044373,0.020004742,0.08842072,0.087956436
192067475,192066742,0.006201632,0.08606415,0.087691836
192087407,192086625,0.012446419,0.09164214,0.08733617
192107255,192106508,-0.0044025243,0.0872891,0.081055656
192124643,192123910,-0.008224715,0.0828365,0.080546476
192147036,192146275,-0.005188632,0.06905066,0.08163864
192166869,192166158,-0.0092597855,0.063565135,0.081739046
192184365,192183556,-0.010010455,0.055878576,0.08275897
192206657,192205927,0.00088128087,0.044616062,0.08320293
192226525,192225809,0.023160977,0.03341748,0.08505361
192249284,192248177,0.048123907,0.033015653,0.085944995
192266316,192265575,0.06890964,0.0336511,0.08624478
192286555,192285459,0.08252462,0.03568493,0.08656166
192308556,192307828,0.07339369,0.03797125,0.09039661
192325958,192325225,0.06458617,0.042348307,0.09028805
192345826,192345120,0.059141543,0.054203734,0.08878648
192368237,192367477,0.024709595,0.06574468,0.088421404
192388065,192387361,0.02835011,0.0718695,0.088288926
192405529,192404759,0.008752248,0.07003225,0.077547684
192427917,192427128,0.018853588,0.07982475,0.07790424
192447731,192447011,0.00093603536,0.084327206,0.07830535
192465149,192464409,0.0073530767,0.0846927,0.07815408
192485054,192484292,0.0070227664,0.080086224,0.07799309
192507800,192506664,0.010095983,0.07868246,0.08266068
192527270,192526544,0.029267713,0.07433391,0.08297965
192545084,192543942,0.01651291,0.068042465,0.08273019
192567037,192566311,0.032921884,0.061154462,0.08327379
192586973,192586195,0.04543775,0.0549937,0.08230237
192604311,192603592,0.039545093,0.05429297,0.08391878
192629313,192628447,0.06343691,0.052211314,0.082253225
192646566,192645844,0.0499577,0.051764395,0.080836155
192668919,192668213,0.07507212,0.051999167,0.079548225
192686326,192685611,0.06571894,0.051376935,0.078789756
192706267,192705494,0.060742877,0.058774635,0.07871126
192728901,192727863,0.048979588,0.063057885,0.079001054
192748480,192747746,0.03449878,0.06712398,0.07833895
192768368,192767630,0.030681526,0.067741856,0.0795515
192788269,192787513,0.01808753,0.0652193,0.08093873
192805698,192804915,0.007349222,0.06879874,0.083823055
192825514,192824795,0.008505505,0.069524005,0.08613448
192847933,192847164,-0.008108846,0.072345704,0.087220095
192868011,192867047,-0.016414924,0.06751202,0.08887509
192885198,192884444,-0.00806509,0.064171925,0.08936453
192907764,192906814,-0.008746622,0.052444976,0.07984703
192924975,192924211,0.0054688193,0.046915844,0.08028241
192944868,192944095,0.0039815707,0.04033795,0.08136718
192964692,192963978,0.0074951896,0.033969864,0.08220577
192987467,192986347,0.015125661,0.033812083,0.08269409
193004459,193003744,0.01970043,0.03820422,0.092218
193024686,193023628,0.03279565,0.04102634,0.09207187
193047017,193045997,0.041614443,0.04482868,0.09263026
193066636,193065880,0.034478735,0.044879086,0.09300502
193088995,193088249,0.040127013,0.043030974,0.093317196
193106397,193105647,0.03745157,0.0453052,0.09300961
193126274,193125530,0.044583965,0.05031556,0.09288895
193148644,193147899,0.03264939,0.053533737,0.09236738
193166089,193165297,0.034767434,0.055759735,0.09288149
193185889,193185180,0.024040747,0.057775214,0.0930641
193205786,193205064,0.028956689,0.0638094,0.09324975
193228184,193227432,0.024133893,0.06306133,0.0927512
193245804,193244830,0.0112884035,0.06373286,0.092593
193267911,193267199,0.029800527,0.06657952,0.092754744
193287856,193287082,0.0075015794,0.07000483,0.09247948
193305209,193304480,0.023458598,0.07036406,0.09433377
193325127,193324364,0.020158822,0.07549745,0.09406642
193347452,193346732,0.023850491,0.08132354,0.09406563
193367366,193366615,0.030762607,0.08979,0.09331622
193384717,193384013,0.021551667,0.090261616,0.09193916
193407100,193406382,0.035601076,0.086400785,0.08393222
193427141,193426265,0.02741949,0.08758615,0.083205506
193444382,193443663,0.028974539,0.0896944,0.08320782
193467138,193466032,0.028917164,0.08362014,0.08289441
193486647,193485915,0.03429643,0.07626814,0.08286147
193509055,193508284,0.033450495,0.0704286,0.08657535
193526405,193525682,0.03609608,0.06586748,0.086519666
193546294,193545565,0.03318841,0.06505223,0.08609121
193568648,193567934,0.043243106,0.06306195,0.08578394
193586124,193585332,0.057117727,0.062076155,0.08573633
193605938,193605215,0.07944491,0.05933776,0.087411374
193628300,193627584,0.08607789,0.060221776,0.086739436
193645717,193644985,0.1085303,0.05974593,0.08669503
193665626,193664875,0.11400219,0.060292363,0.0859098
193685513,193684748,0.11952416,0.060482696,0.08576796
193707863,193707123,0.11593171,0.06672038,0.08882722
193725432,193724515,0.10936993,0.064828254,0.08932146
193745135,193744400,0.1074934,0.066573404,0.090831295
193767519,193766767,0.086215876,0.06991629,0.09343186
193787406,193786650,0.085517086,0.068998925,0.09657767
193804819,193804048,0.072979786,0.069968134,0.10193737
193827154,193826417,0.0709692,0.067438394,0.10718131
193847051,193846300,0.06679312,0.064390115,0.111629024
193864411,193863698,0.06909443,0.06315766,0.115294166
193886782,193886068,0.06740224,0.06325839,0.120721206
193906781,193905950,0.06377873,0.063663766,0.122884214
193929045,193928319,0.055573188,0.06706012,0.12789722
193946756,193945717,0.063818045,0.0699418,0.13342364
193966346,193965600,0.06656791,0.07591434,0.13841827
193991408,193990468,0.075788505,0.08855584,0.14397688
194006095,194005367,0.08235693,0.097519785,0.15443644
194025979,194025250,0.081022546,0.10319064,0.1580991
194048348,194047618,0.08729655,0.108142555,0.16156112
194065768,194065016,0.07004933,0.112950705,0.16468711
194085630,194084903,0.06896079,0.118912645,0.16824436
194105530,194104783,0.06893047,0.12025803,0.1661416
194127888,194127152,0.061953317,0.12525824,0.16863613
194145295,194144550,0.06992338,0.12451804,0.17128095
194165199,194164434,0.06260252,0.1231271,0.17363426
194187518,194186802,0.06709192,0.1244607,0.17638059
194207825,194206685,0.06928752,0.13038243,0.1847429
194224806,194224082,0.07196643,0.13107122,0.18739459
194249690,194248941,0.07827865,0.13124198,0.1892582
194267048,194266335,0.08963901,0.13301216,0.19075339
194284484,194283732,0.08528484,0.13494657,0.19195616
194306817,194306101,0.07838346,0.1295635,0.18913962
194329209,194328471,0.08660566,0.13044819,0.19064124
194349097,194348353,0.06751575,0.12839857,0.19179574
194369354,194368237,0.061238043,0.12891547,0.19382213
194386475,194385634,0.054669857,0.13352768,0.19576041
194408783,194408009,0.030592164,0.13848335,0.19584076
194429012,194427886,0.041567925,0.14396808,0.19817601
194445999,194445284,0.030081633,0.14392321,0.19958167
194468415,194467653,0.028613685,0.15398039,0.20228429
194485777,194485051,0.030731682,0.15546373,0.20402855
194508709,194507420,0.014965877,0.15725315,0.21119946
194525528,194524817,0.03476679,0.15756094,0.21394415
194545476,194544700,0.028979715,0.15910515,0.21621995
194567780,194567070,0.0348197,0.16588485,0.21899411
194585230,194584467,0.042062487,0.16177301,0.2207022
194608082,194606836,0.025728872,0.15750593,0.22813082
194624952,194624233,0.03934493,0.1580834,0.23077075
194644844,194644117,0.022048758,0.161374,0.23331381
194667209,194666488,0.024295202,0.16811815,0.2367108
194684729,194683884,0.04182576,0.17024557,0.23925883
194704487,194703767,0.026593305,0.16669701,0.23680416
194726877,194726135,0.04929525,0.17009285,0.2385933
194746724,194746020,0.030114824,0.16484635,0.23878701
194769162,194768387,0.04214461,0.16735882,0.2404525
194786517,194785785,0.060216095,0.16708435,0.24066289
194806447,194805668,0.060676057,0.17206436,0.24043715
194828776,194828037,0.07665747,0.16701543,0.240054
194846165,194845435,0.062432565,0.16033916,0.23920721
194866182,194865318,0.058559913,0.15733178,0.24015982
194888406,194887687,0.051663768,0.15784527,0.24154542
194908603,194907570,0.052633367,0.16510952,0.25251627
194925702,194924972,0.04983947,0.16260268,0.25430837
194945628,194944851,0.0592524,0.1531663,0.25700969
194967995,194967220,0.053808417,0.14709309,0.26011252
194985391,194984618,0.057698194,0.14512643,0.2636054
195005270,195004501,0.05545196,0.1393149,0.25972816
195027611,195026870,0.055572763,0.13200817,0.26202962
195047468,195046753,0.046207044,0.1187323,0.26422915
195064923,195064151,0.03732102,0.10746057,0.2676046
195087288,195086520,0.024155527,0.107965656,0.27156124
195107116,195106403,0.01726771,0.11907885,0.27993324
195124573,195123801,0.020005975,0.12599383,0.28368768
195146910,195146169,0.044251475,0.12929274,0.28638354
195167182,195166053,0.060069323,0.13394344,0.28725928
195189152,195188421,0.07954126,0.13627435,0.28573057
195206580,195205819,0.08704768,0.14385241,0.29588506
195226419,195225703,0.078325555,0.13420765,0.29331818
195248852,195248071,0.08201845,0.12881608,0.2915396
195266187,195265469,0.08616307,0.12639673,0.29087102
195286123,195285353,0.06087938,0.12679842,0.28917804
195308472,195307721,0.08955449,0.12360182,0.28892422
195325914,195325120,0.06535392,0.12349947,0.28804782
195345754,195345003,0.0732041,0.12275482,0.28843507
195365607,195364891,0.06592139,0.12195629,0.28813317
195388234,195387255,0.047371585,0.12897402,0.2880491
195405408,195404652,0.0565781,0.13119951,0.29015028
195425696,195424539,0.037785765,0.13394146,0.28991276
195447608,195446904,0.031248089,0.14208296,0.29074338
195467551,195466788,0.022210738,0.14844635,0.29152256
195484926,195484186,0.0062002987,0.15651909,0.29220486
195507291,195506554,0.00778572,0.17495689,0.3051739
195527171,195526438,-0.007509568,0.17887272,0.3064622
195544602,195543836,-0.009021266,0.18209818,0.30865318
195566954,195566204,-0.0058408403,0.1847072,0.31241095
195586802,195586087,0.0033098701,0.18746394,0.3165743
195606861,195605971,0.032965153,0.1892912,0.32409346
195626624,195625854,0.05318966,0.18150538,0.32706276
195646833,195645738,0.07523237,0.16717048,0.32987925
195668873,195668107,0.083698936,0.15415277,0.33195722
195686298,195685504,0.092380606,0.1443239,0.33373517
195706091,195705387,0.08066564,0.13250239,0.33627552
195728547,195727756,0.06403156,0.13095805,0.3391612
