timestamp,timestamp_sample,yaw_composite,yaw_variance,yaw[0],yaw[1],yaw[2],yaw[3],yaw[4],innov_vn[0],innov_vn[1],innov_vn[2],innov_vn[3],innov_vn[4],innov_ve[0],innov_ve[1],innov_ve[2],innov_ve[3],innov_ve[4],weight[0],weight[1],weight[2],weight[3],weight[4],yaw_composite_valid
178341425,178240138,-1.2341534,0.20458755,-0.7524822,-0.8681833,-1.4150547,0.29153022,-3.0992916,-0.18516517,-0.6715854,-0.47649592,-1.216053,0.26616552,0.9072943,0.3961402,0.8113011,-0.62797236,-1.295877,0.10196153,0.21326509,0.6796049,0.001873916,0.0032945692,0
178352230,178250080,-1.2343125,0.20458867,-0.7526409,-0.8683422,-1.4152141,0.2913709,-3.0994506,-0.18516517,-0.6715854,-0.47649592,-1.216053,0.26616552,0.9072943,0.3961402,0.8113011,-0.62797236,-1.295877,0.10196153,0.21326509,0.6796049,0.001873916,0.0032945692,0
179345431,179244281,-2.4078364,3.5705872,-2.5406845,-1.2841121,-0.027461736,1.229248,2.485917,0.0,0.0,0.0,0.0,0.0,0.0,0.0,0.0,0.0,0.0,0.2,0.2,0.2,0.2,0.2,0
180340022,180238479,-1.771528,0.0038954,-1.8626125,-1.7716345,-1.6940387,1.2238492,-2.5245395,-0.9564285,-0.5334583,0.09022793,3.347795,-2.9189198,0.45123863,0.44111538,0.1458168,8.494522,2.9189644,4.0295494e-05,0.9981798,0.0016993396,4.0295494e-05,4.0295494e-05,1
181343704,181242615,-1.6306623,0.001752405,-1.6756129,-1.6311524,-1.6185949,0.94277745,-2.1674047,0.32377052,0.42384195,0.4916656,9.846282,-1.6414802,0.5941467,0.5590477,0.54925156,9.28847,3.5818148,0.00020053195,0.9600781,0.039594427,6.3480016e-05,6.3480016e-05,1
182338042,182236809,-1.460918,0.003529105,-1.5020838,-1.4622995,-1.4424701,0.9397911,-1.9455748,-0.12306261,-0.11175442,-0.10247517,7.9631615,-0.9672773,0.93676376,0.9409237,0.94257355,8.435658,2.6131487,0.00037653864,0.9324645,0.06640585,0.00037653864,0.00037653864,1
183342155,183240936,-2.025412,0.0010571704,-1.629339,-1.60344,-1.6153611,1.2293105,-2.025427,0.2586379,0.25066793,0.26194966,-2.3522677,0.10541046,0.820837,0.87358475,0.85450935,7.3087425,0.37947845,1.4036835e-05,1.4036835e-05,1.4036835e-05,1.4036835e-05,0.99994385,1
184336338,184235122,-1.8869313,0.0012853941,-1.5576891,-1.5378314,-1.5533978,1.5235322,-1.8870792,0.4490683,0.43196893,0.45057416,-5.719351,0.6690395,0.30267143,0.327919,0.30870628,2.2813463,-0.10508919,0.00016487253,0.000164202,0.00016109105,5.404088e-05,0.99945575,1
185341675,185239247,-1.7818491,0.0021289673,-1.4640278,-1.4450543,-1.4610199,1.725592,-1.781947,0.13826609,0.121216774,0.13859797,-3.7039692,0.42989445,0.8283005,0.8320198,0.829031,-0.15877151,0.7239685,0.00016287276,0.00016287276,0.00016287276,0.00016287276,0.9993486,1
186334839,186233428,-1.8077503,0.0015517637,-1.4953823,-1.476587,-1.492023,1.7568302,-1.8094633,0.08126259,0.07251644,0.081092834,-0.9315126,0.2344842,0.34501266,0.34565926,0.34515,-0.6783848,0.30942154,0.0017766521,0.0019108088,0.0017455523,1.3841001e-05,0.99455315,1
187338970,187237549,-1.7524716,0.02604116,-1.5728002,-1.5540835,-1.5686995,1.665203,-1.8843005,-0.13226509,-0.132133,-0.13224435,1.0506375,-0.10094118,0.32995605,0.3174019,0.32728577,0.3963585,0.5361557,0.12077886,0.16742158,0.12408591,2.0569982e-05,0.58769304,1
188342972,188241668,-1.571948,0.0014015319,-1.5818251,-1.5633917,-1.5768311,1.6218222,-1.8874546,-0.2606144,-0.2608714,-0.26063967,0.74341846,-0.2312119,0.3686905,0.35921097,0.36616707,0.36000633,0.52259636,0.24474494,0.4808195,0.27325332,1.7234297e-05,0.0011649645,1
189337144,189235842,-1.5558709,0.0022491585,-1.5664052,-1.5480554,-1.5611962,1.6273837,-1.8704692,-0.2359953,-0.24179268,-0.2367971,0.10654163,-0.12566829,0.43356895,0.43051147,0.43271065,-0.25257683,0.46657753,0.23085691,0.50110185,0.26775876,0.000107732565,0.00017476328,1
190341174,190239956,-1.5731888,0.0013860151,-1.5838374,-1.5655031,-1.5785737,1.6069708,-1.8875308,0.064502,0.060055256,0.06387591,0.7152436,0.1582756,0.17817879,0.1722889,0.17651367,-0.34197998,0.26135445,0.22764799,0.50626636,0.26596546,9.307045e-06,0.00011092154,1
191335299,191234126,-1.5890179,0.001443976,-1.5997388,-1.5816228,-1.5944278,1.5860146,-1.8997165,-0.17150342,-0.17610753,-0.17218673,0.69423413,-0.070227504,0.03532791,0.027545929,0.03305435,-0.51039696,0.14910316,0.22172424,0.5152246,0.26301047,8.166947e-06,3.2482458e-05,1
192339422,192238235,-1.5899676,0.0025354603,-1.6005623,-1.5825573,-1.5953158,1.5875777,-1.8987352,2.861023e-05,-0.0022473335,-0.00029551983,-0.22017348,0.03519857,0.38601303,0.38804054,0.38661003,0.10581207,0.34650803,0.22292826,0.5123482,0.26455912,0.000112356814,5.21488e-05,1
193343609,193242345,-1.5859014,0.0016200931,-1.5963765,-1.5784183,-1.5911949,1.5951043,-1.8938144,0.14191747,0.13720107,0.14126778,-0.18481243,0.21775365,-0.053340912,-0.050310135,-0.05245781,-0.6342468,-0.11636543,0.22620507,0.507709,0.26600766,7.843604e-06,7.0398404e-05,1
194337939,194236510,-1.4633609,0.0016722094,-1.4720799,-1.4561226,-1.4698039,1.7192894,-1.7591414,-0.034611702,-0.04503107,-0.036115408,-1.1237836,0.1256032,0.25280952,0.26264954,0.25573158,-1.054142,0.062726974,0.22646606,0.5092917,0.26420105,9.653199e-06,3.1516905e-05,1
195343582,195240615,-0.93265015,0.00093689765,-0.93737096,-0.93001294,-0.93606913,2.2079017,-1.071943,0.4578848,0.43910122,0.4564314,-12.900379,0.7816925,-0.16330051,-0.12468052,-0.14941311,-7.5970125,-0.8264103,0.17607476,0.602801,0.2210867,1.8749814e-05,1.8749814e-05,1
196335945,196234780,-0.4308972,0.0006072617,-0.43411857,-0.42993963,-0.4322667,2.6818776,-0.5010645,0.47378254,0.4616642,0.4754095,-20.53011,0.74121857,-0.01738882,-0.0025286674,-0.009791851,-18.390553,-0.25611496,0.13575928,0.69687665,0.16732714,1.8465802e-05,1.8465802e-05,1
197340017,197238889,0.13303235,0.0004237089,0.1303642,0.13357572,0.1326841,-3.0118344,0.08783673,-0.012219429,-0.020259857,-0.009725571,-22.734758,0.17967987,-0.013804972,-0.009316683,-0.010592282,-31.555218,-0.07853311,0.12834094,0.72574925,0.1458775,7.3526194e-06,2.4962219e-05,1
198334990,198233053,0.60051656,0.00042778894,0.59872663,0.6008467,0.60034674,-2.486779,0.57147753,0.32066536,0.3161192,0.32229614,-18.077919,0.43086147,-0.023306847,-0.024757385,-0.024636269,-44.310814,-0.00924778,0.12323705,0.74103004,0.13571055,1.1181949e-05,1.1181949e-05,1
199338293,199237158,0.76828706,0.00043029626,0.7669291,0.7685381,0.7681192,-2.2621927,0.7458225,0.06103134,0.05902767,0.061883926,-14.075416,0.11087227,-0.15799999,-0.15945148,-0.1595087,-50.315643,-0.144454,0.12095546,0.7468931,0.13213512,8.155044e-06,8.155044e-06,1
200342430,200241260,0.6338916,0.0005918989,0.63234985,0.63413554,0.63391966,-2.4032483,0.6114667,0.22191715,0.22197247,0.2218914,-16.519535,0.2203741,-0.3763752,-0.37404823,-0.3738327,-47.671482,-0.39846516,0.1194901,0.7485883,0.13188864,1.6427182e-05,1.6427182e-05,1
201337036,201235415,0.42749456,0.00058365136,0.42577845,0.42771256,0.4277592,-2.709165,0.40604538,0.25960922,0.2606125,0.2588501,-20.49031,0.23111534,-0.13552094,-0.13250923,-0.13217354,-37.819027,-0.1630745,0.11567414,0.74879074,0.13550036,1.044855e-05,2.430361e-05,1
202340668,202239511,0.2183406,0.0005943348,0.2165065,0.21852921,0.21882582,-3.0182521,0.19843534,0.1532116,0.15407562,0.15229416,-21.238796,0.126091,-0.20802689,-0.20627308,-0.20597601,-28.315372,-0.22297096,0.11379258,0.7473125,0.13885942,9.6007325e-06,2.583218e-05,1
203344886,203243604,0.08346852,0.00072073005,0.08325959,0.08361352,0.0828479,3.0488575,0.07186314,0.23251343,0.23303032,0.23187637,-20.113873,0.21543884,-0.42615843,-0.42522025,-0.42500997,-21.213436,-0.4336574,0.11215898,0.7460552,0.1417383,2.0174373e-05,2.7383541e-05,1
204339118,204237755,0.41453284,0.0006931777,0.41294912,0.41468585,0.41496462,-2.9112873,0.3976625,0.06449127,0.06383324,0.06535721,-18.390017,0.08679581,-0.26045656,-0.26084805,-0.26093102,-25.25626,-0.25758982,0.11164773,0.74627316,0.14204298,9.880659e-06,2.6188378e-05,1
205343137,205241850,0.98394555,0.00051756133,0.9835275,0.9840184,0.9838786,-2.219094,0.9769446,0.3036661,0.30356407,0.30567265,-6.124197,0.32621288,-0.17119598,-0.17661572,-0.17876148,-39.661377,-0.1369133,0.10932382,0.7499831,0.14064054,1.2702825e-05,3.9801445e-05,1
206337161,206236003,1.3388842,0.00043840663,1.339299,1.3389229,1.338365,-1.7276449,1.337506,-0.27301693,-0.27238035,-0.27141476,7.257124,-0.2698202,-0.15911484,-0.16360664,-0.16573715,-42.434753,-0.13393974,0.10925852,0.7494839,0.14118989,1.1189841e-05,5.6539277e-05,1
207341669,207240097,1.608185,0.00041313525,1.6089574,1.6082064,1.6074536,-1.3308325,1.6091039,0.013985395,0.01422292,0.014492512,18.55506,0.0142354965,-0.08357811,-0.08681488,-0.08837128,-39.961456,-0.0656147,0.112876214,0.7479596,0.13908444,7.4264954e-06,7.223939e-05,1
208335447,208234247,1.8005252,0.0005328851,1.801335,1.8005449,1.7997936,-1.0574317,1.8019109,-0.41735768,-0.41726375,-0.4171703,23.685852,-0.41739416,-0.060878754,-0.06297493,-0.06397438,-36.97464,-0.049261093,0.112887375,0.74796003,0.13906483,1.5853248e-05,7.183229e-05,1
209340572,209238336,1.8295094,0.00054039684,1.8289015,1.8295454,1.8298312,-0.96943706,1.8250574,0.053486824,0.053687096,0.05386877,25.3452,0.05324602,-0.102674484,-0.10325241,-0.10351753,-34.68965,-0.099458694,0.11305502,0.74798626,0.1388792,7.5702446e-06,7.1904986e-05,1
210344027,210242423,1.8064998,0.00063558616,1.8058742,1.8065361,1.806835,-0.99699754,1.8019792,0.015061855,0.01508379,0.015109062,22.55614,0.015028477,-0.012176514,-0.011983871,-0.011869431,-32.73989,-0.01325798,0.11324975,0.74797887,0.138692,7.103619e-06,7.232532e-05,1
211337882,211236569,1.7564496,0.0007488524,1.7558001,1.756486,1.7568046,-1.0916893,1.7518603,0.23105383,0.23088932,0.23074651,18.4648,0.23125863,-0.16381645,-0.16329002,-0.1630249,-30.325531,-0.16667747,0.1128853,0.74805015,0.13898334,1.014201e-05,7.103518e-05,1
212341962,212240656,1.7453396,0.0008167424,1.744691,1.7453743,1.7456937,-1.1477479,1.7407887,0.0533669,0.053146124,0.052949667,15.047171,0.053658962,-0.13056564,-0.13012314,-0.12990189,-27.33022,-0.13297081,0.11256611,0.7480581,0.13929762,7.776101e-06,7.0364666e-05,1
213336326,213234801,1.7151247,0.0009043256,1.7144626,1.7151589,1.7154889,-1.211403,1.7105306,-0.047889233,-0.04780531,-0.047729492,12.715257,-0.04800701,0.0028953552,0.0032482147,0.0034332275,-25.086586,0.0009498596,0.11240566,0.7480574,0.13945967,7.205892e-06,7.00589e-05,1
214340090,214238889,1.6746482,0.0009959532,1.6739688,1.6746824,1.6750263,-1.2973591,1.6700035,0.097426414,0.09780455,0.098142624,10.851124,0.09690142,-0.0058498383,-0.0056095123,-0.0054855347,-23.993746,-0.0071868896,0.11273747,0.7480499,0.13913435,7.4299273e-06,7.0813796e-05,1
215334785,215233024,1.6215328,0.001081558,1.6208311,1.6215665,1.6219292,-1.3864872,1.6168268,-0.015690327,-0.015340328,-0.015027761,9.122332,-0.016181946,0.08952522,0.08965874,0.089738846,-22.748823,0.088788986,0.112633064,0.74805135,0.13923766,7.379329e-06,7.059864e-05,1
216338601,216237103,1.5975795,0.0011840124,1.5968704,1.5976131,1.5979819,-1.4331092,1.5928544,0.16908884,0.16913319,0.16917408,7.8128004,0.16902423,-0.047941208,-0.04776573,-0.04767227,-20.556854,-0.048877716,0.112664506,0.74806654,0.13919012,8.1802655e-06,7.052583e-05,1
217342402,217241181,1.5934974,0.001275628,1.5927881,1.5935308,1.5939001,-1.4418011,1.5887743,0.119454384,0.11928654,0.11913967,6.936683,0.11968827,-0.037139893,-0.037147522,-0.037137985,-17.325596,-0.03706932,0.11257016,0.74806786,0.13928415,7.613665e-06,7.027147e-05,1
218336449,218235316,1.6831255,0.0013676623,1.6840543,1.6831366,1.6823221,-1.336622,1.6853092,0.08234835,0.08224678,0.08215904,6.4356976,0.08248782,-0.06289482,-0.06305313,-0.06313133,-14.292976,-0.06201744,0.112506084,0.7480542,0.139362,7.449601e-06,7.024208e-05,1
219340797,219239392,2.185759,0.0007847181,2.186428,2.1857646,2.1852136,-0.5585371,2.1877291,-0.12073231,-0.123147964,-0.12505627,19.210577,-0.11498356,0.15244675,0.15024757,0.14908981,-4.01565,0.16368484,0.11219118,0.74823964,0.13949221,8.889319e-06,6.8183515e-05,1
220344560,220243468,2.629493,0.0005117026,2.6293564,2.62951,2.6295857,0.07822928,2.628529,-0.41525555,-0.41925716,-0.42223454,22.652472,-0.40387154,0.14137745,0.13969612,0.13861561,10.572749,0.14790058,0.11662618,0.74805504,0.13522448,1.6627699e-05,7.7709694e-05,1
221338930,221237602,3.0090497,0.00041076046,3.0082996,3.009078,3.009611,0.5983794,3.0056055,-0.12620926,-0.13008499,-0.13295174,19.631853,-0.11492348,0.12566233,0.124625206,0.12392712,22.167969,0.12931633,0.11964781,0.74769336,0.13256462,8.356369e-06,8.588535e-05,1
222344735,222241676,-3.0313802,0.00041654913,-3.0323524,-3.03135,-3.030652,0.97237724,-3.0357072,-0.20413399,-0.20647812,-0.20820236,14.311941,-0.1973095,-0.036288142,-0.03651774,-0.03666663,28.7984,-0.035491943,0.117101595,0.74806726,0.13474391,8.684694e-06,7.85236e-05,1
223336914,223235807,-2.8658023,0.0004617123,-2.8667538,-2.8657715,-2.8650866,1.221717,-2.8700259,0.112421036,0.11135483,0.11057472,11.434314,0.11553192,-0.0262146,-0.026423454,-0.026560307,30.818901,-0.025510311,0.11805267,0.7479604,0.13389827,7.5533876e-06,8.100587e-05,1
224341145,224239876,-2.8759375,0.00054466724,-2.8754995,-2.8759391,-2.876266,1.2529442,-2.874249,0.033107758,0.032831192,0.032619476,10.130967,0.033920288,0.11164713,0.111457825,0.11133242,30.054192,0.11227751,0.11773321,0.74801356,0.1341656,7.535417e-06,8.0063415e-05,1
225336075,225234003,-2.9563754,0.0006454472,-2.9558802,-2.9563775,-2.9567454,1.1505029,-2.9544454,0.19227219,0.19265366,0.1929245,10.789918,0.19117737,-0.09921694,-0.09932566,-0.09939718,25.593548,-0.09885454,0.11766378,0.74803084,0.13421682,8.746287e-06,7.982147e-05,1
226339242,226238071,-2.5207548,0.00067938067,-2.5213149,-2.5207336,-2.5203323,1.6564898,-2.5233,0.16903305,0.16769981,0.16671753,4.1260138,0.17291832,-0.016749859,-0.015247822,-0.01418829,26.957806,-0.02165556,0.11705051,0.74811035,0.13475269,8.238798e-06,7.812956e-05,1
227343306,227242137,-1.9147965,0.00042576625,-1.9142876,-1.9147959,-1.9151636,2.5040934,-1.9127413,0.165905,0.1633625,0.16152191,-13.167159,0.17368984,-0.2928648,-0.28734875,-0.2834463,25.340805,-0.3106718,0.11832699,0.74800223,0.1335773,1.2364082e-05,8.111172e-05,1
228337481,228236263,-1.480994,0.00033270125,-1.479968,-1.4809943,-1.4817299,3.0993028,-1.4767593,0.22380027,0.22283518,0.22214049,-22.268185,0.22681251,-0.16952991,-0.16653728,-0.16441059,15.444677,-0.17920971,0.110539146,0.7490034,0.14038724,1.018607e-05,6.0007926e-05,1
229341588,229240328,-1.1745995,0.000350653,-1.1736526,-1.1745963,-1.1752727,-2.7652884,-1.1707051,-0.1515007,-0.1512022,-0.15099525,-25.510485,-0.15245724,-0.17575741,-0.17389107,-0.17256355,7.1885557,-0.18180752,0.108208165,0.74917305,0.14255503,9.094335e-06,5.4647287e-05,1
230335805,230234450,-1.003531,0.00039165313,-1.002746,-1.0035276,-1.0040884,-2.4984937,-1.0003089,-0.0013170242,-0.0008535385,-0.0005264282,-25.393597,-0.002793312,-0.044130325,-0.043167114,-0.042482376,2.1533642,-0.047244072,0.10745875,0.74921936,0.14326175,7.200033e-06,5.2998923e-05,1
231340833,231238513,-0.967221,0.00047327302,-0.96705556,-0.967213,-0.96732754,-2.3988967,-0.9665787,-0.1495285,-0.14931583,-0.14916992,-23.831156,-0.15019417,0.13927937,0.13961506,0.13985729,0.53367615,0.13819695,0.10698766,0.74924576,0.14370598,8.540911e-06,5.201739e-05,1
232334763,232232632,-1.0551999,0.0005702043,-1.0543128,-1.0551952,-1.0558279,-2.4966652,-1.0515565,-0.19758129,-0.19765186,-0.1976986,-20.727478,-0.1973648,0.028734207,0.028557777,0.028438568,1.6195021,0.02931881,0.10701025,0.7492484,0.14368087,8.440723e-06,5.2061507e-05,1
233337966,233236691,-1.0931147,0.00065065175,-1.093125,-1.0931054,-1.0930933,-2.5901465,-1.0932115,-0.22785187,-0.22803783,-0.2281704,-16.91701,-0.22725391,-0.0356102,-0.03597641,-0.03622532,3.5455275,-0.034433365,0.10729031,0.7492428,0.14340533,9.000646e-06,5.262796e-05,1
234341831,234240749,-1.184999,0.00072555454,-1.1851215,-1.1849902,-1.1848985,-2.739157,-1.1855619,-0.10605383,-0.106517315,-0.10685015,-13.615181,-0.104595184,0.09262657,0.09232044,0.09210968,4.946806,0.09363079,0.10763071,0.7492377,0.14307053,7.773168e-06,5.3317268e-05,1
235335998,235234866,-1.2240845,0.0008082411,-1.2242534,-1.2240751,-1.2239497,-2.8146594,-1.224843,-0.15139198,-0.15179968,-0.15209484,-11.143229,-0.15010405,-0.03527546,-0.035437584,-0.035541534,5.087431,-0.034754753,0.10822548,0.7492158,0.14249635,7.94569e-06,5.455112e-05,1
236340602,236238922,-1.2271968,0.00089779566,-1.2273774,-1.2271879,-1.2270542,-2.8277586,-1.2280028,-0.050155163,-0.050584316,-0.050893307,-9.099658,-0.04880762,0.03503418,0.034986496,0.0349617,4.7494307,0.03520012,0.108647905,0.74920213,0.1420872,7.2540574e-06,5.5439024e-05,1
237344351,237242977,-1.2338072,0.0009935332,-1.2340026,-1.2337973,-1.233652,-2.8291028,-1.2346798,-0.15256786,-0.15283346,-0.15302372,-7.3188715,-0.15174055,0.046369553,0.04638481,0.046390533,3.946292,0.046354294,0.10901961,0.7491861,0.14173006,7.973504e-06,5.6225417e-05,1
238338367,238237090,-1.2302406,0.0010943929,-1.2304335,-1.2302293,-1.2300849,-2.8214045,-1.2311068,-0.20302534,-0.20304632,-0.2030654,-5.159293,-0.2029643,0.14217567,0.14217949,0.14218521,2.8751822,0.14217758,0.109157674,0.7491796,0.1415969,9.341472e-06,5.6510402e-05,1
239342650,239241144,-1.2161424,0.0011896074,-1.2163227,-1.2161322,-1.215998,-2.8131635,-1.216952,-0.18731642,-0.18710518,-0.18695688,-2.394528,-0.18797827,0.06082344,0.060796738,0.06078911,1.2555037,0.060918808,0.108982615,0.7491972,0.1417556,8.451364e-06,5.6126257e-05,1
240336576,240235255,-1.2062367,0.0012858217,-1.2064071,-1.2062259,-1.2060983,-2.8151314,-1.2070084,0.059607983,0.059862614,0.06003952,-0.0056447983,0.058810234,-0.0126514435,-0.012729645,-0.012765884,0.20010757,-0.012413025,0.10876525,0.7492211,0.14194888,9.200143e-06,5.5660534e-05,1
241340546,241239307,-1.1428722,0.0013666791,-1.1429764,-1.142864,-1.1427854,-2.747806,-1.1433581,0.009115219,0.009510994,0.009790897,0.48044348,0.007874489,0.050169945,0.050074577,0.050024986,-0.0139455795,0.050462723,0.108527906,0.7492469,0.1421628,7.187043e-06,5.5152846e-05,1
242346702,242243362,-1.2137403,0.0014405019,-1.2126911,-1.2137403,-1.2144896,-2.8103898,-1.2094015,0.12878609,0.12894917,0.12906218,0.66798544,0.1282835,-0.055250168,-0.055430412,-0.055540085,0.23070145,-0.0546875,0.108587824,0.749248,0.14210111,7.791107e-06,5.5272827e-05,1
243338637,243237469,-1.4900173,0.0011819776,-1.4887372,-1.4900188,-1.4909312,-2.9337118,-1.4846975,0.2052927,0.20413518,0.20331073,1.5906327,0.2089715,-0.006099701,-0.007019043,-0.0076618195,3.9613762,-0.0031204224,0.10881181,0.7492444,0.14187923,8.804336e-06,5.5715525e-05,1
244342627,244241519,-1.4897102,0.0010665227,-1.4884207,-1.4897143,-1.490634,-2.803934,-1.4843402,-0.20464993,-0.20535946,-0.20586777,0.21567464,-0.20239663,0.049655914,0.049411774,0.04924965,2.9264574,0.05044365,0.10967814,0.74919844,0.14105716,8.681492e-06,5.7574907e-05,1
245336887,245235628,-1.3329934,0.0011048928,-1.3317792,-1.3329992,-1.3338673,-2.589364,-1.3279374,0.030888557,0.031013966,0.031096458,-0.65253544,0.030485153,0.10798836,0.10843086,0.108760834,-0.72171974,0.1065712,0.11033842,0.74916357,0.14043136,7.569738e-06,5.9035687e-05,1
246341052,246239677,-1.1442403,0.0009796191,-1.1432343,-1.144245,-1.1449661,-2.2365396,-1.1400571,0.09716797,0.09881163,0.09997606,0.45107508,0.091959,0.019907951,0.020439148,0.020835876,-2.2167702,0.018179893,0.11092242,0.74912804,0.13988155,7.5629564e-06,6.0312086e-05,1
247335549,247233786,-1.0436453,0.00091044814,-1.0428629,-1.0436484,-1.0442104,-1.9856964,-1.0403982,0.041811943,0.04313469,0.044073105,0.67466354,0.03761959,-0.0019702911,-0.0015544891,-0.0012483597,-1.6460781,-0.0033044815,0.1110915,0.749126,0.13971472,7.198813e-06,6.0618226e-05,1
248339363,248237838,-1.0098282,0.0009626853,-1.0091246,-1.0098301,-1.0103353,-1.8958405,-1.0069133,-0.016763687,-0.01642418,-0.016188622,0.09491348,-0.017829895,-0.10986805,-0.109690666,-0.10955334,-0.5687237,-0.11043835,0.110906154,0.74913704,0.13988914,7.5168746e-06,6.016479e-05,1
249343111,249241896,-1.0479101,0.0010582231,-1.0471498,-1.0479126,-1.0484583,-1.9313753,-1.0447565,-0.07924271,-0.0795393,-0.0797596,-0.24422836,-0.078300476,-0.057056427,-0.05709362,-0.05710888,0.08553219,-0.056936264,0.110819384,0.7491304,0.13998286,7.42542e-06,5.996521e-05,1
250337183,250236000,-1.167034,0.0011141921,-1.1661348,-1.1670392,-1.1676847,-2.0254064,-1.1632929,0.0052289963,0.004419327,0.0038337708,-0.29194736,0.007795334,-0.10642433,-0.10676384,-0.106993675,0.65062046,-0.105345726,0.11131286,0.7490895,0.13952908,7.500598e-06,6.10864e-05,1
251341569,251240050,-1.3162124,0.0010264117,-1.3151748,-1.3162217,-1.3169672,-2.0525186,-1.3118753,-0.04189062,-0.04294777,-0.04370737,-0.27294683,-0.038532734,-0.021240234,-0.022014618,-0.022558212,1.2654924,-0.018749237,0.11209824,0.74902767,0.13880393,7.2824882e-06,6.2882296e-05,1
252345300,252244100,-1.5067089,0.00091170135,-1.505522,-1.5067221,-1.5075742,-2.108181,-1.5017282,-0.18164563,-0.18223119,-0.18265653,-0.13333201,-0.17976284,-0.0631485,-0.06404495,-0.06467247,1.1362228,-0.060272217,0.1128258,0.7489676,0.13813351,8.519359e-06,6.458451e-05,1
253339682,253238208,-1.7130083,0.0007881559,-1.7117394,-1.7130231,-1.7139328,-2.180653,-1.7076699,-0.09848231,-0.09829527,-0.09817189,0.20960283,-0.09903401,0.13441086,0.13355637,0.13295746,1.2050438,0.13712692,0.112329565,0.749028,0.13857093,8.141378e-06,6.3367384e-05,1
254343526,254242259,-1.9352688,0.0007131323,-1.9341062,-1.9352821,-1.9361148,-2.3061032,-1.9303688,0.08126402,0.08188343,0.08231449,0.38012695,0.07933998,-0.16307354,-0.16367435,-0.16410732,0.5996094,-0.16112995,0.11196803,0.74907017,0.13889098,8.309275e-06,6.249271e-05,1
255337554,255236369,-2.179006,0.00066637306,-2.1781445,-2.179016,-2.1796322,-2.476616,-2.1753674,0.17148113,0.17255783,0.173316,0.4800005,0.16810703,-0.09311104,-0.093634605,-0.094005585,0.49393845,-0.09144497,0.112234816,0.7490478,0.13864575,8.50647e-06,6.307955e-05,1
256342717,256240418,-2.4696894,0.0005638025,-2.469265,-2.4696934,-2.4699938,-2.683442,-2.4678953,0.19145393,0.1931181,0.19429111,0.49710274,0.18624401,-0.14686108,-0.14753342,-0.14800167,0.51633835,-0.14473629,0.111573905,0.74911946,0.13923573,9.431444e-06,6.146735e-05,1
257336854,257234527,-2.6823363,0.0005056853,-2.6823318,-2.6823359,-2.6823347,-2.8403888,-2.6823134,0.059064865,0.061847687,0.06381035,0.38080597,0.050279617,-0.01127243,-0.011787415,-0.012142181,0.24939346,-0.00963974,0.11133077,0.74918354,0.13941774,7.302469e-06,6.069016e-05,1
258339661,258238571,-2.9391797,0.00049738423,-2.9396515,-2.9391718,-2.9388275,-3.0678856,-2.941169,0.0676384,0.07072449,0.0729084,0.3908825,0.057876587,-0.020442486,-0.020844936,-0.021117687,0.068517685,-0.019172668,0.11306972,0.7490663,0.13779204,7.4827713e-06,6.447792e-05,1
259343865,259242617,3.0969858,0.00049428566,3.0962365,3.0969987,3.0975437,2.9917986,3.0938265,0.02340889,0.025779724,0.027460098,0.2678032,0.015861511,0.076274574,0.07604182,0.07589114,0.09826851,0.07699847,0.11363872,0.7490464,0.1372419,7.401679e-06,6.561523e-05,1
260339689,260236725,2.7781687,0.00047288951,2.7774184,2.778183,2.7787297,2.6964328,2.7750049,0.08537483,0.08772087,0.08937073,0.32544518,0.07793045,-0.09699154,-0.0967536,-0.0965662,-0.12892675,-0.09776449,0.11481859,0.7489429,0.13616033,9.864312e-06,6.836613e-05,1
261342243,261240765,2.4781425,0.00044279755,2.4776533,2.4781535,2.4785104,2.418827,2.476081,0.10482597,0.106573105,0.107810974,0.27645302,0.099271774,0.076740265,0.078084946,0.07905483,-0.0089559555,0.07246971,0.116502576,0.7487556,0.13465983,9.549012e-06,7.256037e-05,1
262336314,262234867,2.2244706,0.0004264066,2.2243776,2.2244735,2.2245417,2.1825786,2.2240849,-0.016775131,-0.015504837,-0.014598846,0.08059502,-0.020825386,-0.0114917755,-0.00917244,-0.007505417,-0.11746311,-0.018875122,0.118071556,0.74855864,0.13327703,1.6181648e-05,7.657753e-05,1
263340365,263238910,1.9658648,0.0004422809,1.9662145,1.9658557,1.9655999,1.9353708,1.9673575,0.06552887,0.06643772,0.06708431,0.11209774,0.06263924,0.0027656555,0.00513649,0.006832123,-0.0905571,-0.00475502,0.120016135,0.74828327,0.13160786,1.0899628e-05,8.18202e-05,1
264334690,264233010,1.7421654,0.00046060386,1.7428424,1.7421466,1.7416497,1.7201927,1.745055,0.14098024,0.14156961,0.14198112,0.15977097,0.13912487,0.014953613,0.017234802,0.018867493,-0.068977356,0.007730484,0.12063586,0.7482035,0.13106787,9.270447e-06,8.337088e-05,1
265338333,265237051,1.6777239,0.00048999256,1.6785592,1.677701,1.6770875,1.6613969,1.6812885,-0.027001143,-0.02720213,-0.027352095,-0.030875206,-0.026347399,0.042463303,0.04374504,0.044668198,-0.0037193298,0.03839302,0.12038395,0.7482651,0.13125847,9.9987665e-06,8.245816e-05,1
266342434,266241093,1.6881254,0.0005808721,1.6889609,1.6881024,1.6874888,1.6722604,1.691691,0.009108305,0.00881052,0.008587122,0.0033779144,0.010085344,0.058094025,0.058174133,0.058252335,0.055189133,0.057828903,0.120486215,0.74825144,0.13116951,1.0273018e-05,8.273898e-05,1
267338046,267235197,1.6845584,0.00067852176,1.6853935,1.684535,1.683922,1.6687438,1.688122,-0.013732433,-0.013718367,-0.013719797,-0.013645172,-0.013746023,0.17074203,0.1707344,0.17074585,0.1709404,0.17076111,0.12062916,0.74825037,0.13102657,1.0690331e-05,8.318253e-05,1
268340512,268239241,1.6293952,0.00077717693,1.6302459,1.6293718,1.6287475,1.6136878,1.633026,-0.118302345,-0.11815238,-0.11805606,-0.11566806,-0.11874771,0.12960434,0.12961388,0.12963295,0.12916183,0.12957,0.12044394,0.748306,0.13115478,1.2616679e-05,8.265618e-05,1
269344338,269243285,1.629101,0.0008763368,1.6299521,1.6290776,1.6284534,1.613409,1.632732,-0.019369364,-0.019396782,-0.019426107,-0.020047426,-0.019254446,0.07891464,0.078863144,0.0788517,0.08035278,0.079034805,0.120390214,0.7483354,0.1311794,1.248318e-05,8.2519015e-05,1
270339547,270237389,1.6375641,0.0009710282,1.6367965,1.6375864,1.6381463,1.6088364,1.6342968,0.0003707409,7.200241e-05,-0.00014948845,-0.0053679943,0.0013463497,0.117741585,0.11759853,0.11750889,0.12298012,0.11820507,0.120346084,0.7483585,0.13120088,1.2131282e-05,8.238428e-05,1
271342487,271241434,1.6262473,0.001058838,1.6254637,1.62627,1.6268423,1.5977637,1.62291,-0.23463416,-0.234967,-0.23521161,-0.24098969,-0.23355627,0.25866222,0.25865078,0.25866127,0.25906086,0.25868607,0.12048788,0.74835736,0.1310598,1.2192075e-05,8.279159e-05,1
272336958,272235540,1.6037828,0.0011497712,1.6029875,1.6038063,1.6043879,1.5755134,1.6003929,-0.06314826,-0.06329489,-0.063408375,-0.06607652,-0.06265426,0.24433804,0.24443817,0.24452877,0.2409296,0.24400806,0.12072148,0.74835324,0.13082512,1.6771522e-05,8.3477964e-05,1
273340929,273239587,1.5543332,0.0012462828,1.5535367,1.5543573,1.5549405,1.5261928,1.5509361,-0.22254622,-0.22251415,-0.22250175,-0.22216308,-0.22261953,0.3266554,0.32683945,0.32699013,0.32046223,0.32606792,0.12101456,0.7483391,0.13054158,2.0358895e-05,8.4345396e-05,1
274336919,274233694,1.5455487,0.0013352667,1.5447576,1.5455736,1.5461535,1.5174638,1.5421718,0.034610033,0.034878016,0.0350585,0.039337635,0.03378856,0.29638577,0.29648495,0.2965765,0.29280853,0.2960577,0.121504925,0.74829805,0.1300794,3.1806598e-05,8.580723e-05,1
275339046,275237743,1.5257864,0.0014178636,1.5249969,1.5258116,1.5263906,1.4977794,1.522416,0.12958872,0.12996137,0.13021576,0.13622904,0.12843859,0.35903645,0.35908222,0.3591318,0.35735512,0.35890007,0.12166447,0.74830353,0.12991187,3.3849974e-05,8.627605e-05,1
276343016,276241790,1.5799886,0.0015086096,1.5808198,1.5799637,1.5793549,1.565106,1.583537,-0.022442222,-0.022290826,-0.022194624,-0.019852161,-0.022887826,0.37995148,0.37986565,0.3798275,0.38264942,0.3802147,0.12173564,0.7483244,0.12982027,3.320586e-05,8.646881e-05,1
277337312,277235897,1.5678675,0.0016024937,1.5670791,1.5678922,1.568471,1.5398427,1.5645012,-0.05526662,-0.05517149,-0.055114746,-0.053715825,-0.05553496,0.28277683,0.28266335,0.28260517,0.2863226,0.28311253,0.12143425,0.7484228,0.13002674,3.0656665e-05,8.556549e-05,1
278341203,278239944,1.5531526,0.0016981896,1.5523663,1.553177,1.5537539,1.5251362,1.5497961,0.13826942,0.13844979,0.13856828,0.14137006,0.13772964,0.21218967,0.21216488,0.2121706,0.21276283,0.2122469,0.121355616,0.74846977,0.13005964,2.9764546e-05,8.534086e-05,1
279335317,279234051,1.539924,0.0017786984,1.5391386,1.5399488,1.5405251,1.511997,1.5365704,0.06974316,0.070017815,0.07020402,0.07453871,0.068898916,0.122597694,0.12273502,0.12285519,0.11770058,0.12214565,0.12152292,0.7484718,0.12988864,3.0864885e-05,8.584657e-05,1
280340249,280238098,1.5498381,0.0018547429,1.5490491,1.5498633,1.5504421,1.5219861,1.5464689,-0.06514943,-0.06491077,-0.06475067,-0.061004877,-0.065877676,0.26738834,0.26741982,0.26746655,0.26613426,0.26727772,0.12173852,0.74846476,0.12967846,3.183501e-05,8.64946e-05,1
281334174,281232204,1.5946671,0.0019486027,1.5938791,1.5946923,1.5952704,1.5668021,1.591301,0.05544865,0.055437922,0.055420876,0.055093408,0.05551052,0.15344238,0.15345669,0.1534853,0.15294361,0.15339851,0.12173203,0.74849266,0.1296574,3.1516574e-05,8.647041e-05,1
282337520,282236251,1.603442,0.002039205,1.6026582,1.6034667,1.6040415,1.5756943,1.6000947,-0.0084991455,-0.008463621,-0.008446455,-0.007999182,-0.008586407,0.14405155,0.14388084,0.1437769,0.14968109,0.14459324,0.12155044,0.7485525,0.12978125,2.9894562e-05,8.5920175e-05,1
283342534,283240298,1.5885104,0.00213252,1.5877268,1.5885352,1.5891098,1.5607933,1.585164,0.07648718,0.07657516,0.076628804,0.07789302,0.07623255,0.29772663,0.2978115,0.29788876,0.29479027,0.29745102,0.121549584,0.7485706,0.1297639,2.9936595e-05,8.591273e-05,1
284345905,284244344,1.6049409,0.0022169505,1.6041598,1.6049658,1.6055385,1.5773298,1.6016041,0.08863187,0.088739514,0.08880842,0.09036791,0.08831382,0.033034325,0.033197403,0.03333187,0.027439117,0.032505035,0.1216033,0.7485739,0.12970658,3.0091756e-05,8.607042e-05,1
285339541,285238449,1.5530283,0.002297898,1.5522447,1.5530533,1.5536275,1.5254992,1.5496813,-0.30295062,-0.3026588,-0.30245972,-0.29794502,-0.3038497,0.13293934,0.13285542,0.13281631,0.13541412,0.1331873,0.12154234,0.7486061,0.12973519,3.0525167e-05,8.589499e-05,1
286345327,286242495,1.5479562,0.0023360993,1.5471643,1.5479817,1.5485618,1.520839,1.5445749,0.01823306,0.018488765,0.018662214,0.022530675,0.017447114,0.10232258,0.1023674,0.10241699,0.10064888,0.10217285,0.12175015,0.7485723,0.12956062,3.046869e-05,8.65138e-05,1
287338136,287236599,1.5555078,0.0024227947,1.554713,1.5555333,1.5561153,1.5284598,1.5521142,0.053053975,0.053066373,0.053067207,0.053150058,0.053039074,-0.02933979,-0.029452324,-0.029509544,-0.025953293,-0.029001236,0.12169766,0.7485939,0.12959152,3.0453744e-05,8.636093e-05,1
288341867,288240644,1.5572144,0.0025171777,1.5564214,1.5572398,1.5578212,1.5302395,1.5538284,0.097287655,0.09729576,0.09729278,0.09729195,0.09728944,-0.0072746277,-0.0073566437,-0.0073843,-0.0049829483,-0.0070466995,0.12168525,0.7485951,0.12960283,3.0415467e-05,8.631841e-05,1
289336039,289234747,1.5027945,0.00260832,1.502009,1.5028195,1.5033957,1.4759904,1.4994423,-0.020049095,-0.019976616,-0.019934177,-0.018945217,-0.020249605,0.07499027,0.07488251,0.07482147,0.078336716,0.07533169,0.121657856,0.74860466,0.12962066,3.062538e-05,8.623635e-05,1
290340083,290238796,1.5373881,0.0026668347,1.5382264,1.5373629,1.5367491,1.5240185,1.5409681,0.306216,0.30614734,0.30608916,0.3049698,0.30646467,0.35480404,0.35449696,0.35430145,0.36439228,0.35575676,0.12149039,0.7486401,0.1297543,2.9376488e-05,8.571723e-05,1
291344107,291242835,1.5671203,0.0027508354,1.5663391,1.5671448,1.5677184,1.5407685,1.5637863,-0.021063328,-0.021133661,-0.02119255,-0.022339106,-0.020809889,-0.009837151,-0.009921074,-0.009963036,-0.0071897507,-0.009571075,0.12144191,0.7486466,0.12979625,2.9656701e-05,8.555622e-05,1
292338099,292236945,1.6648258,0.0027770523,1.6640488,1.6648504,1.6654207,1.6391059,1.6615056,-0.41557872,-0.41592062,-0.4161719,-0.42116106,-0.41446507,0.08050537,0.08069897,0.08085537,0.07451916,0.07987785,0.121542804,0.74863636,0.12970588,2.9193588e-05,8.585727e-05,1
293342207,293240979,1.9029578,0.001546712,1.9019314,1.902996,1.9037539,1.8850404,1.8985374,-0.12803435,-0.12948489,-0.13052213,-0.1493895,-0.12342405,0.6682148,0.6683173,0.668406,0.6642628,0.66790485,0.124796316,0.74799556,0.12705378,5.827831e-05,9.605118e-05,1
294337278,294235083,2.0776,0.00094163837,2.076571,2.077641,2.078403,2.0646667,2.073151,-0.07433021,-0.07483786,-0.075203836,-0.08167678,-0.07271099,0.5217025,0.5221857,0.5225495,0.51643264,0.52019405,0.12666099,0.74764633,0.12553078,5.9634407e-05,0.00010223866,1
295340283,295239121,2.0807471,0.0009372893,2.0797,2.080793,2.081572,2.068413,2.0762024,-0.27813706,-0.27811706,-0.27811497,-0.2779798,-0.27816728,0.72178656,0.72156954,0.72143155,0.7236912,0.72247416,0.12808691,0.74728215,0.1243032,0.00016324708,0.0001644464,1
296335206,296233220,2.080803,0.0010109494,2.0797532,2.0808473,2.0816274,2.0684483,2.07625,-0.25209868,-0.25197256,-0.25189734,-0.2505356,-0.25245684,0.8243759,0.82392067,0.82361203,0.8285377,0.82581365,0.1249811,0.7477913,0.12648496,0.00036841462,0.0003742261,1
296662413,296561273,2.0798793,0.00102878,2.0788255,2.0799215,2.0807025,2.0675082,2.0753174,-0.37992868,-0.37979537,-0.37971544,-0.37827513,-0.38030836,0.7475394,0.7470734,0.7467577,0.75180906,0.74901175,0.123756364,0.7481285,0.1274157,0.0003405332,0.0003588172,1
