timestamp,timestamp_sample,accel_device_id,gyro_device_id,delta_angle[0],delta_angle[1],delta_angle[2],delta_velocity[0],delta_velocity[1],delta_velocity[2],delta_angle_dt,delta_velocity_dt,delta_angle_clipping,delta_velocity_clipping,accel_calibration_count,gyro_calibration_count
174169948,174168878,3670026,3670026,2.2918703e-05,3.7014743e-06,2.2410368e-05,0.0038854047,-0.001621177,-0.048806515,4970,4970,0,0,1,1
174671943,174670950,3670026,3670026,-0.00011609061,5.9942163e-06,0.00011061858,0.003964124,-0.00262597,-0.048561778,4967,4967,0,0,1,1
175168993,175168051,3670026,3670026,-2.6694841e-05,0.00014625306,-0.0001341424,0.004523754,-0.0020158256,-0.04836488,4969,4969,0,0,1,1
175671059,175670124,3670026,3670026,-5.3009368e-05,4.6779704e-05,-7.999732e-05,0.0040550027,-0.0017439334,-0.048433144,4971,4971,0,0,1,1
176173129,176172196,3670026,3670026,-0.00011312816,3.6920046e-05,5.134084e-06,0.004629881,-0.0013972633,-0.04873912,4971,4971,0,0,1,1
176670434,176669297,3670026,3670026,3.7075342e-06,-0.000138894,-0.00015091151,0.0029420797,-0.001337901,-0.04848597,4971,4971,0,0,1,1
177167307,177166399,3670026,3670026,-0.00041968856,0.00041582625,0.0010443751,0.0160882,-0.00091098534,-0.047162324,4965,4965,0,0,1,1
177669510,177668471,3670026,3670026,0.0011827563,0.0011275329,-0.00069160835,0.016303824,-0.0070956224,-0.04684204,4970,4970,0,0,1,1
178171469,178170543,3670026,3670026,0.00032972093,0.00041825886,0.00073837856,0.00480147,0.013836662,-0.05456421,4971,4971,0,0,1,1
178668658,178667646,3670026,3670026,0.00095924264,0.0011891103,0.0010786934,0.0328005,-0.003363159,-0.046869405,4972,4972,0,0,1,1
179170638,179169716,3670026,3670026,0.0032251705,-0.0008427409,-0.00049311336,0.04026394,-0.0018841835,0.02955518,4971,4971,0,0,1,1
179672736,179671787,3670026,3670026,-0.0009002793,-0.0025144839,-0.0023158086,0.035857394,-0.007663626,-0.03563362,4971,4971,0,0,1,1
180169992,180168885,3670026,3670026,-0.0015575784,0.0017176341,-0.0015977083,0.03258876,-0.015635658,-0.047571108,4971,4971,0,0,1,1
180666929,180665983,3670026,3670026,-0.00091711804,0.00097372395,0.00023298114,0.02997498,-0.012724473,-0.06926568,4971,4971,0,0,1,1
181169248,181168051,3670026,3670026,0.0004828928,-0.0010392716,-0.00026562365,0.025140662,-0.008535656,-0.03427472,4970,4970,0,0,1,1
181671064,181670118,3670026,3670026,0.0054366123,-0.00069749984,-0.001097954,0.018184466,-0.0071969456,-0.039234146,4971,4971,0,0,1,1
182173248,182172184,3670026,3670026,0.0064478465,0.0005648349,0.0024740992,0.021114562,-0.008566266,-0.04346548,4971,4971,0,0,1,1
182670185,182669278,3670026,3670026,-0.003030267,3.4341087e-05,6.389046e-05,0.019118212,-0.009169373,-0.051738605,4970,4970,0,0,1,1
183172268,183171343,3670026,3670026,-0.0015413233,0.00015672922,0.0019611777,0.01720918,-0.020902308,-0.077697694,4971,4971,0,0,1,1
183669417,183668437,3670026,3670026,-0.0031903512,0.0008070873,-0.0018476332,0.012156858,-0.0038588154,-0.07945759,4971,4971,0,0,1,1
184171556,184170500,3670026,3670026,0.00026522673,-0.0008022802,0.0008946446,0.008197594,-0.008833973,-0.034274615,4971,4971,0,0,1,1
184668559,184667594,3670026,3670026,0.0009522723,0.00035046352,-0.00021833427,0.012220352,-0.0069696605,-0.04399404,4973,4973,0,0,1,1
185170651,185169655,3670026,3670026,-0.00034373597,0.0010478474,0.0007020512,0.013293063,-0.0030135682,-0.071393445,4971,4971,0,0,1,1
185672917,185671716,3670026,3670026,-8.8002325e-06,0.001990155,-3.3202658e-05,0.008003221,-0.0041487496,-0.027407432,4971,4971,0,0,1,1
186169832,186168807,3670026,3670026,-0.0022953316,0.0006850748,-0.00036175243,0.012012932,-0.0069114473,-0.060777146,4971,4971,0,0,1,1
186672159,186670868,3670026,3670026,0.0007562683,0.00027977413,-0.0004009769,0.018358035,-0.0013063205,-0.053902052,4971,4971,0,0,1,1
187173850,187172931,3670026,3670026,0.0012066774,6.165961e-05,-0.000152178,0.018124899,-0.012839635,-0.05250644,4973,4973,0,0,1,1
187671000,187670016,3670026,3670026,-0.00011538501,-0.00069477217,0.0002431178,0.018126747,-0.010362016,-0.059382915,4970,4970,0,0,1,1
188168019,188167105,3670026,3670026,0.0013423817,0.0004445027,-0.00012131754,0.015685223,-0.008838944,-0.03977869,4971,4971,0,0,1,1
188670091,188669163,3670026,3670026,-0.00029731973,0.0013575729,0.00012508122,0.01595084,-0.010445403,-0.079657145,4971,4971,0,0,1,1
189172142,189171221,3670026,3670026,0.002040964,0.00023692506,0.00015365251,0.017448043,-0.0012433338,-0.05346363,4971,4971,0,0,1,1
189669406,189668307,3670026,3670026,9.715405e-05,-0.0006892847,-0.0003292515,0.016367288,-0.0069713504,-0.03698174,4970,4970,0,0,1,1
190171300,190170364,3670026,3670026,0.00252983,-0.00042421746,7.099538e-05,0.017301876,-0.005415401,-0.037842494,4971,4971,1,0,1,1
190668540,190667451,3670026,3670026,-0.0008442984,0.0009736932,-0.00010544252,0.015960578,-0.012378603,-0.05071992,4969,4969,0,0,1,1
191170413,191169507,3670026,3670026,-0.001560309,-0.000711473,-0.00021567277,0.016972004,-0.010484318,-0.04444422,4973,4973,0,0,1,1
191667561,191666589,3670026,3670026,0.0014241093,-0.0010258065,0.00020443035,0.012520161,-0.008199202,-0.033057198,4971,4971,0,0,1,1
192169635,192168644,3670026,3670026,0.00093448185,0.0012448267,9.338566e-05,0.012644148,0.0018664884,-0.028491288,4971,4971,0,0,1,1
192671665,192670699,3670026,3670026,-0.0018370568,0.00037849342,0.00040448553,0.012102953,-0.007769751,-0.056724988,4971,4971,0,0,1,1
193168800,193167782,3670026,3670026,-0.00048709963,-0.0011708885,-0.00034676536,0.0043338574,0.0068172547,-0.046918016,4971,4971,0,0,1,1
193670781,193669836,3670026,3670026,0.00033342783,-0.0007158121,0.00045027857,0.0021541622,-0.0040836046,-0.053102266,4961,4961,0,0,1,1
194172839,194171889,3670026,3670026,0.0032372077,0.0015387681,0.0012707636,0.0030729184,-0.0031390146,-0.039484236,4971,4971,0,0,1,1
194669901,194668971,3670026,3670026,9.744757e-05,0.0022442844,0.0017802456,0.0085766185,0.0025013532,-0.07298727,4971,4971,0,0,1,1
195171980,195171024,3670026,3670026,-0.0014670392,0.0005426681,0.0011575775,0.008899137,-0.004771753,-0.07577977,4971,4971,0,0,1,1
195669075,195668107,3670026,3670026,-0.0025497307,0.0030419056,0.0014957921,0.007871342,-0.001867361,-0.070707686,4972,4972,0,0,1,1
196171190,196170159,3670026,3670026,0.0021073464,0.00037870972,0.0019305607,0.0054202466,0.0048371134,-0.02905717,4970,4970,0,0,1,1
196673196,196672213,3670026,3670026,0.00020620276,0.002848889,0.0022899287,0.009528609,0.0009369581,-0.06014109,4972,4972,0,0,1,1
197170237,197169295,3670026,3670026,-0.0010863495,0.0023907588,0.0014503797,0.009588372,-0.004052913,-0.065541625,4969,4969,0,0,1,1
197672318,197671349,3670026,3670026,-0.00079616136,0.002154987,0.002335829,0.008923035,0.0024410735,-0.05957392,4971,4971,0,0,1,1
198169421,198168432,3670026,3670026,8.957549e-05,-0.00030191103,0.0018866834,0.013011057,-0.007784482,-0.043032262,4971,4971,0,0,1,1
198671578,198670485,3670026,3670026,-0.002952836,-0.00061824336,0.00076936744,0.0119663095,-0.0061428277,-0.04392272,4971,4971,0,0,1,1
199168538,199167566,3670026,3670026,-0.0024266723,-2.2411352e-05,2.5775971e-05,0.008362278,0.003974031,-0.052252073,4971,4971,0,0,1,1
199670893,199669617,3670026,3670026,-0.0025033304,0.00068617216,-0.0007124972,0.0067157126,-0.0020809874,-0.05838664,4971,4971,0,0,1,1
200172598,200171667,3670026,3670026,-0.0023578682,0.000754912,-0.0010362408,0.009020273,-0.0014696036,-0.05642475,4970,4970,0,0,1,1
200669694,200668746,3670026,3670026,-0.001478269,0.0006631097,-0.0007146367,0.0065806224,-0.0043233256,-0.072133064,4971,4971,0,0,1,1
201171714,201170795,3670026,3670026,-0.00016600567,0.00052288454,-0.0010338407,0.007809933,-6.890181e-05,-0.04257147,4971,4971,0,0,1,1
201668836,201667874,3670026,3670026,-0.00082862197,-0.00026152076,-0.0007476127,0.005856836,-0.014567141,-0.04615161,4972,4972,0,0,1,1
202170855,202169920,3670026,3670026,0.00022036201,-0.00063614,-0.0011959628,0.004985234,-0.013442984,-0.056442868,4971,4971,0,0,1,1
202668135,202666996,3670026,3670026,0.0005376526,-0.0006521956,-0.00074224256,0.008320662,0.0013452327,-0.043101832,4970,4970,0,0,1,1
203169942,203169043,3670026,3670026,0.002355428,0.00013031793,-0.0005267363,0.0073411274,-0.011722235,-0.037126757,4971,4971,0,0,1,1
203672067,203671089,3670026,3670026,0.007136787,0.00078914006,0.0011130084,0.0038458947,-0.0039360537,-0.043721642,4970,4970,0,0,1,1
204169117,204168164,3670026,3670026,0.0011654617,0.00228508,0.0022731316,0.009704611,-0.013037393,-0.057081934,4964,4964,0,0,1,1
204671178,204670212,3670026,3670026,-0.0030922596,0.002397292,0.0012223761,0.011759057,-0.006194854,-0.094597556,4971,4971,0,0,1,1
205168249,205167289,3670026,3670026,-0.00018866548,0.0019617397,0.0018991901,0.009541938,0.00032185283,-0.0727388,4971,4971,0,0,1,1
205670262,205669336,3670026,3670026,-0.0016633663,-0.00030141693,0.0012092137,0.005453809,-0.008001811,-0.07012148,4971,4971,0,0,1,1
206172674,206171383,3670026,3670026,-0.0009871954,0.0018527476,0.0014142557,0.0038370534,-0.011559586,-0.045888327,4971,4971,0,0,1,1
206669385,206668459,3670026,3670026,-0.0018752166,0.000811485,0.0013921921,0.003397029,0.0008965302,-0.058635324,4970,4970,0,0,1,1
207171469,207170506,3670026,3670026,0.0010653635,-0.00026586535,0.0009686972,0.0027611922,0.001262683,-0.039990544,4970,4970,0,0,1,1
208170681,208169627,3670026,3670026,-0.0008649379,-0.0002452364,0.000754637,0.0012903701,0.0017570243,-0.053903848,4971,4971,0,0,1,1
208667736,208666701,3670026,3670026,0.0006588279,-0.0010159324,0.00019995714,0.00015777568,-0.0014637292,-0.03829646,4971,4971,0,0,1,1
209169922,209168745,3670026,3670026,-0.0026878745,0.0022190523,-0.00014241689,0.0042307964,-0.012715245,-0.06629834,4971,4971,0,0,1,1
209671721,209670789,3670026,3670026,0.00013712587,-0.0017706284,0.0006119873,0.004372893,-0.01244781,-0.055988148,4971,4971,0,0,1,1
210168801,210167862,3670026,3670026,0.00015027038,0.00014927716,-0.00037259347,0.00072011125,-0.0006540182,-0.056925453,4971,4971,0,0,1,1
210670929,210669906,3670026,3670026,0.0029696086,-0.0029759184,-0.00026712954,0.006098276,0.0026341716,-0.05107685,4971,4971,0,0,1,1
211167931,211166978,3670026,3670026,-0.0001315709,0.003111001,-0.0004372335,0.0033906628,-0.0027927551,-0.07298614,4970,4970,0,0,1,1
211670147,211669022,3670026,3670026,-0.00097389164,-0.0010382194,-2.3754736e-05,0.0015381739,-0.01762928,-0.061438628,4967,4967,0,0,1,1
212167061,212166095,3670026,3670026,0.0016672451,0.0015465685,0.00055710407,-4.7033345e-06,0.002212547,-0.038405225,4970,4970,0,0,1,1
212669383,212668139,3670026,3670026,-0.00087831664,-7.0617825e-05,-0.000245428,0.0014726295,-0.014315718,-0.056564465,4971,4971,0,0,1,1
213171158,213170181,3670026,3670026,0.00031537813,-0.0006377851,9.021025e-06,0.006635351,0.0040163524,-0.041754853,4967,4967,0,0,1,1
213673430,213672223,3670026,3670026,0.0008391173,0.0006014681,-0.00014953705,0.009209993,-0.013888225,-0.034963153,4970,4970,0,0,1,1
214170345,214169294,3670026,3670026,-0.00021628103,3.0465633e-05,-0.00018402681,0.0072997645,-0.0027234762,-0.054355193,4968,4968,0,0,1,1
214672284,214671335,3670026,3670026,0.0009380176,-0.000505073,-0.0002968214,0.012310676,-0.007463809,-0.030953683,4970,4970,0,0,1,1
215174339,215173376,3670026,3670026,0.00036235285,-0.0003221283,-2.9856285e-05,0.010152017,-0.011910766,-0.03982471,4971,4971,0,0,1,1
215671438,215670445,3670026,3670026,0.0013699919,-0.00024400649,-0.00020393387,0.004845496,-0.0019267808,-0.036142413,4971,4971,0,0,1,1
216168433,216167513,3670026,3670026,0.00074015575,-0.0002308329,0.00045197914,0.004127817,-0.0045760563,-0.02874239,4970,4970,0,0,1,1
216670515,216669554,3670026,3670026,-0.0008334066,8.353325e-06,0.00015645799,0.0057678055,-0.0067047323,-0.08353113,4972,4972,0,0,1,1
217172573,217171591,3670026,3670026,0.00082403806,0.0001179141,-8.932308e-05,0.006482531,-0.005157618,-0.040543053,4970,4970,0,0,1,1
217669655,217668659,3670026,3670026,-0.000790651,-0.00012812676,5.023093e-05,0.006259524,0.0011891333,-0.059736703,4971,4971,0,0,1,1
218171824,218170697,3670026,3670026,0.005736146,0.00089068944,0.0011585429,0.012128095,-0.009474565,-0.03959762,4967,4967,0,0,1,1
218673693,218672735,3670026,3670026,0.00028346165,0.0026619004,0.0021359692,0.011218735,0.003639124,-0.081178695,4971,4971,0,0,1,1
219171079,219169802,3670026,3670026,-0.0005088287,-0.00012790316,0.0012915502,0.008669318,-0.0027907356,-0.06565491,4966,4966,0,0,1,1
219667809,219666872,3670026,3670026,-0.00093681866,0.00091302214,0.0011163708,0.01541989,-0.008815705,-0.054721396,4973,4973,1,0,1,1
220169857,220168908,3670026,3670026,0.0009684537,-0.00048271313,0.0015928037,0.012567977,-0.007813554,-0.02716278,4970,4970,0,0,1,1
220671908,220670946,3670026,3670026,0.0009926795,9.713597e-05,0.0017134901,0.008027945,-0.0014722173,-0.035959356,4971,4971,0,0,1,1
221169150,221168013,3670026,3670026,-0.0018810633,-0.0007695175,0.0008549572,0.011623912,-0.011116732,-0.052885216,4971,4971,0,0,1,1
221671059,221670050,3670026,3670026,0.00066259067,0.00020756864,0.0022728706,0.0068458235,-0.0017304395,-0.042710446,4971,4971,0,0,1,1
222173031,222172086,3670026,3670026,-0.0020836554,-1.2786458e-05,0.00041775787,0.008339479,-0.004262137,-0.052169517,4970,4970,0,0,1,1
222670060,222669152,3670026,3670026,-0.0022881126,0.00058790075,0.0010248617,0.011777553,-0.018254073,-0.05801116,4970,4970,0,0,1,1
223172125,223171188,3670026,3670026,-0.001025125,0.0011127209,0.0004988069,0.009719945,-0.0024724274,-0.06324831,4971,4971,0,0,1,1
223669194,223668253,3670026,3670026,-0.0037943984,-0.0013996992,1.1322935e-05,0.009373698,-0.005494288,-0.06274509,4971,4971,0,0,1,1
224171232,224170288,3670026,3670026,-0.0003920449,-0.00037779423,-0.00016930002,0.0061215097,-0.0027155385,-0.04233226,4971,4971,0,0,1,1
224668435,224667351,3670026,3670026,0.00044172187,-0.00054394326,-0.0005369974,0.010522968,-0.0043406337,-0.030461954,4970,4970,0,0,1,1
225170316,225169385,3670026,3670026,-0.0015413559,0.00058486126,-0.00014215922,0.00014103176,-0.007101851,-0.046491113,4970,4970,0,0,1,1
225672368,225671419,3670026,3670026,0.0029823636,0.0009122496,0.0017544093,0.0059075104,-0.0015479125,-0.053258,4971,4971,0,0,1,1
226169450,226168481,3670026,3670026,0.0009097991,0.002287929,0.0023536975,0.009011399,-0.0009398599,-0.06546489,4971,4971,0,0,1,1
226671491,226670514,3670026,3670026,-0.0020612443,0.00061838,0.0009285249,0.006231391,-0.003548929,-0.08186417,4970,4970,0,0,1,1
227168557,227167578,3670026,3670026,0.00020670121,0.0016243983,0.0018639112,0.007646609,-0.0071496605,-0.06595625,4971,4971,0,0,1,1
227670572,227669611,3670026,3670026,0.00035998036,0.0011158957,0.0011462338,0.007328556,-0.012621568,-0.052044395,4970,4970,0,0,1,1
228172624,228171645,3670026,3670026,-0.0023587493,0.0018774688,0.001914311,0.005307377,-0.00025438104,-0.05355901,4971,4971,0,0,1,1
228669666,228668707,3670026,3670026,-0.002375496,0.00016245338,0.0015023883,0.0058894246,-0.018206866,-0.06217989,4970,4970,0,0,1,1
229171733,229170744,3670026,3670026,-0.00023508426,-0.00042676108,0.0010637835,0.007703145,0.00012591021,-0.04699491,4975,4975,0,0,1,1
229668791,229667801,3670026,3670026,0.0007116963,0.00021213385,0.0010717794,0.012683461,-0.007836791,-0.024885498,4971,4971,0,0,1,1
230170790,230169835,3670026,3670026,-0.0020461164,0.001650762,0.0003642148,0.008297705,0.0017125452,-0.0691714,4973,4973,0,0,1,1
230667862,230666893,3670026,3670026,-0.0033002824,-0.00036938116,0.00061194896,0.0059107705,-0.0019558817,-0.05071898,4969,4969,0,0,1,1
231170097,231168924,3670026,3670026,-5.4976525e-05,-3.3477936e-05,-0.00048283325,0.0012346212,-0.0097860675,-0.04652101,4971,4971,0,0,1,1
231671857,231670954,3670026,3670026,0.00087840186,0.00020482176,7.4472864e-06,-0.0006397396,-0.009741761,-0.04402013,4970,4970,0,0,1,1
232178899,232177955,3670026,3670026,0.00052463653,0.0005837682,-0.0004140889,0.00054480124,0.0031488216,-0.04758997,4970,4970,0,0,1,1
232671064,232670044,3670026,3670026,-0.0014285097,-0.00017307104,0.0002163709,0.0030138898,-0.009323216,-0.05491752,4971,4971,0,0,1,1
233168070,233167103,3670026,3670026,0.0009839536,0.00022655808,-0.00072285463,0.0038632832,-0.0075536766,-0.0423328,4971,4971,0,0,1,1
233670142,233669133,3670026,3670026,0.0010332493,0.0015397536,-0.0004226158,0.0051505086,0.0057653757,-0.06839587,4972,4972,0,0,1,1
234172131,234171161,3670026,3670026,0.00071261596,-0.0002864978,-0.00022108492,0.0006773579,-0.0037936016,-0.041728992,4970,4970,0,0,1,1
234669213,234668220,3670026,3670026,0.0022790325,0.00021144997,-1.800898e-05,0.008224618,0.0028168,-0.057272803,4971,4971,0,0,1,1
235171233,235170249,3670026,3670026,-0.00033915642,-0.00012454145,-0.00031849966,0.007773501,0.000768634,-0.041591544,4971,4971,0,0,1,1
235673455,235672277,3670026,3670026,0.0027594178,0.00023542054,2.5957896e-05,0.0040949755,-0.001533915,-0.043425083,4971,4971,0,0,1,1
236170281,236169334,3670026,3670026,-0.000131263,0.0004867069,-6.89715e-05,0.0073018004,-0.0038271397,-0.03950477,4971,4971,0,0,1,1
236667362,236666392,3670026,3670026,-0.00056508416,0.0006058854,0.00013995556,0.01248677,-0.0074717915,-0.041449774,4971,4971,0,0,1,1
237169344,237168419,3670026,3670026,-0.00013778787,-0.0012656453,-0.00018354897,0.008280635,-0.0057058795,-0.040618762,4971,4971,0,0,1,1
237671806,237670446,3670026,3670026,0.0016330278,-0.00043428878,-0.00016044988,0.0046800366,-0.0011258112,-0.044860877,4971,4971,0,0,1,1
238168433,238167502,3670026,3670026,-0.00035720682,0.0012517795,0.00012375128,0.008676359,0.0015219672,-0.051454272,4970,4970,0,0,1,1
238670481,238669529,3670026,3670026,-0.0019207342,-1.0619214e-05,4.2871226e-05,0.010050317,0.0008460459,-0.054407295,4971,4971,0,0,1,1
239172500,239171558,3670026,3670026,0.0013116552,-0.00017955991,5.61836e-05,0.009522701,0.003974276,-0.05677205,4973,4973,0,0,1,1
239669573,239668611,3670026,3670026,-0.00056268205,-4.3574706e-05,-8.719044e-05,0.008856707,-0.00033547825,-0.04897636,4970,4970,0,0,1,1
240171596,240170638,3670026,3670026,0.000796945,-0.00061316416,0.00051763054,0.0034514202,-0.00023813732,-0.044437286,4971,4971,0,0,1,1
240668685,240667693,3670026,3670026,-0.00013676718,-0.0015208409,-0.00040012438,0.006295783,9.090073e-05,-0.027184606,4971,4971,0,0,1,1
241170645,241169719,3670026,3670026,-0.0016321474,-0.00014622397,0.000473712,0.0025922286,0.0044286232,-0.03274983,4970,4970,0,0,1,1
241672858,241671745,3670026,3670026,-0.00030783302,-0.00054972066,-0.0011815188,0.00088639726,-0.0002318908,-0.0384882,4971,4971,0,0,1,1
242169775,242168803,3670026,3670026,-0.006562064,0.00083672366,2.782205e-06,0.005128756,0.0029454634,-0.031575304,4974,4974,0,0,1,1
242671758,242670826,3670026,3670026,-3.5246463e-05,0.0018734047,-0.0023625907,0.013544651,-0.0065407106,-0.065410435,4971,4971,0,0,1,1
243173832,243172852,3670026,3670026,0.004100677,-0.0014421769,-0.0005878979,0.0019730437,-0.002967907,-0.06019872,4971,4971,0,0,1,1
243670837,243669908,3670026,3670026,-0.00042295308,-0.0012650724,-0.00061507954,0.0048381267,-0.0038215807,-0.031125696,4969,4969,0,0,1,1
244168086,244166962,3670026,3670026,0.002069103,0.00034168866,0.00069186423,0.007980611,0.0012505766,-0.054608826,4971,4971,0,0,1,1
244669889,244668986,3670026,3670026,0.0013692118,0.0005014278,0.00055869855,0.0100766225,-0.013227714,-0.051116705,4970,4970,0,0,1,1
245172006,245171011,3670026,3670026,0.0005608847,0.00036575776,0.0008764433,0.0076617086,-0.0069491374,-0.045121804,4971,4971,0,0,1,1
245668971,245668065,3670026,3670026,-0.001388235,0.000457469,0.001046222,-0.0045973035,0.0050168736,-0.046954412,4971,4971,0,0,1,1
246171161,246170089,3670026,3670026,-0.00090637687,7.4360236e-05,0.0006670311,-0.0017993884,-0.0025339879,-0.0442179,4969,4969,0,0,1,1
246668123,246667143,3670026,3670026,-0.00038810834,-0.00022208242,0.00045408952,-0.0040229666,0.0061407657,-0.0581908,4970,4970,0,0,1,1
247170223,247169169,3670026,3670026,0.00033578358,-0.00041002687,0.00025301625,-0.0025406412,-0.011457895,-0.041765876,4967,4967,0,0,1,1
247672121,247671195,3670026,3670026,-0.0012636111,-0.0002832922,-0.00020649457,-0.00040245662,-0.007679309,-0.026617555,4970,4970,0,0,1,1
248169227,248168250,3670026,3670026,-0.0012251234,0.0006749734,0.00034628686,7.7440316e-05,0.004187577,-0.04310556,4970,4970,0,0,1,1
248671326,248670276,3670026,3670026,-0.00020299666,0.00036255058,-0.00016271166,0.0018665995,0.0027774053,-0.049350817,4970,4970,0,0,1,1
249173292,249172303,3670026,3670026,-0.00025175407,-0.0005021069,-2.0287192e-05,0.0037689914,0.0014246396,-0.05481911,4971,4971,0,0,1,1
249670759,249669359,3670026,3670026,-0.00041491896,0.00062995474,-0.00055925,0.0010994805,0.0023826878,-0.050435323,4972,4972,0,0,1,1
250172277,250171383,3670026,3670026,-0.0033275585,0.00092603476,-0.0011149854,0.00365096,-0.00031299362,-0.060016107,4970,4970,0,0,1,1
250669777,250668438,3670026,3670026,0.00097224716,6.090271e-05,-0.00029509777,0.0041828733,0.004779089,-0.062972285,4971,4971,0,0,1,1
251171424,251170463,3670026,3670026,0.00029201442,0.0007045489,-0.0007113753,0.0035681564,-0.0007231678,-0.063224554,4971,4971,0,0,1,1
251668503,251667517,3670026,3670026,0.00014469128,-0.0003570975,-0.00079494016,0.004000914,-0.006896861,-0.055745658,4971,4971,0,0,1,1
252170452,252169542,3670026,3670026,-0.0004955236,-0.00041941254,-0.0012964422,0.0023923884,-0.005325041,-0.057422232,4971,4971,0,0,1,1
252672656,252671566,3670026,3670026,-0.0003642336,0.00030143233,-0.0011223826,0.0016625947,-0.014215246,-0.056418803,4970,4970,0,0,1,1
253169616,253168621,3670026,3670026,0.0008485905,-0.0007598325,-0.0008653552,0.0017437916,-0.01498161,-0.046892118,4970,4970,0,0,1,1
253671623,253670646,3670026,3670026,0.0010764961,0.0004776414,-0.001024248,0.00030387973,-0.0014894712,-0.04408206,4971,4971,0,0,1,1
254168645,254167701,3670026,3670026,-0.0019521507,0.00042621183,-0.0012133537,0.0004996115,-0.003911641,-0.046569746,4971,4971,0,0,1,1
254670673,254669727,3670026,3670026,-0.00034267842,0.00037003428,-0.0010414665,0.0034231741,0.0034884636,-0.06361689,4971,4971,0,0,1,1
255167767,255166781,3670026,3670026,0.0005384027,-0.00030917773,-0.0012275195,0.0027946436,-0.0020291808,-0.050912537,4970,4970,0,0,1,1
255669737,255668807,3670026,3670026,0.0003018451,-0.0006550638,-0.001579649,0.01897744,-0.008098631,-0.055375542,4971,4971,0,0,1,1
256171791,256170831,3670026,3670026,-0.00036780402,0.001257359,-0.0010853308,0.012427106,-0.0032599736,-0.057296675,4970,4970,0,0,1,1
256673793,256672855,3670026,3670026,0.00026908214,-0.00035486402,-0.0010291445,0.0029395835,0.004106062,-0.05539499,4971,4971,0,0,1,1
257170868,257169908,3670026,3670026,-0.00016637005,0.0006140408,-0.001008432,0.005951594,-0.0009784125,-0.059828397,4969,4969,0,0,1,1
257667930,257666966,3670026,3670026,-0.0012515973,0.0005552867,-0.0012253843,0.0055221063,-0.005936228,-0.048397895,4976,4976,0,0,1,1
258170010,258168983,3670026,3670026,-0.0010170096,0.00038789466,-0.0014706731,0.0040705274,0.0021548895,-0.04757253,4970,4970,0,0,1,1
258671909,258671007,3670026,3670026,0.004281912,0.0011608356,-0.0008766002,0.00081510935,0.0006385998,-0.030861959,4971,4971,0,0,1,1
259168996,259168059,3670026,3670026,-0.0021810208,0.0005596135,-0.0011156437,0.01103555,-0.0065871626,-0.05844838,4964,4964,0,0,1,1
259671005,259670082,3670026,3670026,0.0009039586,0.0012294449,-0.0014714581,0.0050919065,-0.0037799603,-0.04792098,4962,4962,0,0,1,1
260173036,260172104,3670026,3670026,0.0015423984,-0.00044574685,-0.0012075637,0.0063771326,-0.004835153,-0.055646468,4970,4970,0,0,1,1
260670141,260669157,3670026,3670026,0.0020030292,0.0003558329,-0.001307555,0.011628338,-0.00626862,-0.051788144,4971,4971,0,0,1,1
261167165,261166207,3670026,3670026,0.0026252458,0.00097631046,-0.0011700335,0.0071160044,0.00065685576,-0.05684799,4970,4970,0,0,1,1
261669282,261668235,3670026,3670026,0.0016020896,0.00084434997,-0.0012961832,0.010707345,-0.0074879583,-0.05720421,4976,4976,0,0,1,1
262171195,262170251,3670026,3670026,0.0017321063,0.0005007939,-0.00083034864,0.005270867,0.0045024366,-0.052448884,4971,4971,0,0,1,1
262668523,262667301,3670026,3670026,-0.0009511445,0.00012183839,-0.0010315119,0.0010070859,-0.0021714335,-0.048375696,4970,4970,0,0,1,1
263170253,263169330,3670026,3670026,-0.0006219011,0.001059788,-0.0014109063,0.004728424,-0.008567761,-0.043449298,4978,4978,0,0,1,1
263672387,263671343,3670026,3670026,-0.0009805029,0.0007983946,-0.0008589125,0.002640294,-0.008811828,-0.05909897,4970,4970,0,0,1,1
264174334,264173364,3670026,3670026,-0.0007800251,-1.2560179e-05,-0.0015685098,0.0020944567,-0.012547965,-0.050931755,4971,4971,0,0,1,1
264671462,264670414,3670026,3670026,0.0023964348,-0.0018338984,-0.0007297112,-0.0023250105,-0.015265826,-0.029025648,4971,4971,0,0,1,1
265168399,265167466,3670026,3670026,0.00395989,7.6508375e-05,0.0005278807,-0.008682342,-0.004596696,-0.026110511,4973,4973,0,0,1,1
265670433,265669484,3670026,3670026,-0.0012748454,0.001426812,-9.8546596e-05,-0.0013955906,-0.011220738,-0.057738684,4970,4970,0,0,1,1
266172532,266171506,3670026,3670026,-0.00076106325,0.00064411055,-0.00011933536,0.00031157697,0.0029162231,-0.06395298,4971,4971,0,0,1,1
266669524,266668558,3670026,3670026,0.0006510921,-0.00017519704,-0.0002645838,0.0012582004,-0.011937879,-0.03770847,4971,4971,0,0,1,1
267171767,267170580,3670026,3670026,-0.000739137,0.00105467,0.00022654988,0.0049784067,0.0007962947,-0.060565032,4971,4971,0,0,1,1
267668584,267667632,3670026,3670026,2.7559096e-05,-0.00085672335,-0.0003842061,0.0046210536,-0.01603018,-0.041035328,4971,4971,0,0,1,1
268170922,268169654,3670026,3670026,0.0016521758,-0.00029531433,0.00016087129,0.0028763318,-4.1650783e-05,-0.03553439,4971,4971,0,0,1,1
268667626,268666705,3670026,3670026,0.0012269621,-0.00048852805,-0.00015160123,0.0033288572,0.0021778075,-0.046098173,4971,4971,0,0,1,1
269169705,269168727,3670026,3670026,0.0009834293,-0.0006708881,0.00018054678,0.002859585,-0.0016130682,-0.048467048,4970,4970,0,0,1,1
269671680,269670749,3670026,3670026,-0.0008843772,-0.00091637496,0.00015370638,0.00089894974,-0.011436039,-0.05648161,4970,4970,0,0,1,1
270168785,270167801,3670026,3670026,-0.0023574748,-0.0007237773,-0.00065754296,0.0010152095,0.0017277861,-0.04693049,4970,4970,0,0,1,1
270670878,270669824,3670026,3670026,0.002065092,-5.2394913e-05,0.0005074702,-0.003101097,0.004279923,-0.023168188,4971,4971,0,0,1,1
271172801,271171851,3670026,3670026,-0.0026354818,0.0010966251,-0.0005910772,0.00040333738,-0.0035379531,-0.057873596,4975,4975,0,0,1,1
271669822,271668900,3670026,3670026,-0.00030470316,-0.0020210855,-2.8607561e-05,-0.0007956632,-0.0015761699,-0.049598,4970,4970,0,0,1,1
272171929,272170923,3670026,3670026,0.00025679969,0.00046993617,-0.00020654107,-0.0017958716,-0.0071975417,-0.04211576,4971,4971,0,0,1,1
272668942,272667976,3670026,3670026,-0.00029963406,0.00035694032,-0.00019481783,0.0038195646,0.0025961136,-0.04924832,4962,4962,0,0,1,1
273170913,273170000,3670026,3670026,0.00072419556,-0.0007816619,-8.730502e-05,0.0044226297,0.0007785968,-0.048711903,4971,4971,0,0,1,1
273673187,273672024,3670026,3670026,0.00093203434,-0.00050786237,0.00011635144,0.0055562067,-0.00046156504,-0.04471162,4971,4971,0,0,1,1
274170000,274169077,3670026,3670026,0.00087118783,-0.0003117326,-5.9472142e-05,0.006313965,0.0008245379,-0.03356654,4971,4971,0,0,1,1
274672389,274671101,3670026,3670026,0.00026716283,0.00016424179,-3.2065524e-05,0.0073882383,-0.0074008936,-0.0415813,4971,4971,0,0,1,1
275169132,275168157,3670026,3670026,-0.0011042273,6.5284665e-05,-0.00010920818,0.007014594,-0.0018125763,-0.049596317,4973,4973,0,0,1,1
275671114,275670178,3670026,3670026,6.4845476e-06,-0.0018971802,0.0003782833,0.0024103834,0.0063469587,-0.042771805,4970,4970,0,0,1,1
276168139,276167232,3670026,3670026,0.00054457353,0.0006364967,6.001919e-05,0.0037952827,-0.0060592154,-0.047416594,4971,4971,0,0,1,1
276670285,276669256,3670026,3670026,0.00015949932,-0.0001694118,-8.341152e-05,0.0022325106,-0.0108946655,-0.061148368,4971,4971,0,0,1,1
277172187,277171279,3670026,3670026,0.00020949377,-0.000642703,2.0834166e-05,0.0050176466,0.00589383,-0.044052396,4967,4967,0,0,1,1
277669268,277668333,3670026,3670026,0.0010734558,-0.00025947083,0.0001856772,0.0056260712,0.004076308,-0.042840146,4970,4970,0,0,1,1
278171304,278170357,3670026,3670026,-0.000103294515,0.00030307018,-0.0003005969,0.0051206234,-0.008358705,-0.047030974,4971,4971,0,0,1,1
278668483,278667410,3670026,3670026,-0.0010915112,0.0020538848,-0.00022092603,0.008871068,-0.010662761,-0.055062737,4970,4970,0,0,1,1
279170389,279169434,3670026,3670026,0.0019229681,-0.00044119763,0.00037294402,0.008563487,-0.012489329,-0.05819882,4970,4970,0,0,1,1
279672379,279671458,3670026,3670026,0.00081690954,-8.166594e-05,6.585972e-05,0.0077190218,-0.011949798,-0.03920756,4971,4971,0,0,1,1
280169605,280168513,3670026,3670026,-0.0008577404,0.001269602,3.791079e-05,0.005981516,0.0038764807,-0.051443666,4972,4972,0,0,1,1
280671464,280670538,3670026,3670026,-0.0016161337,-0.0002786271,-0.00017301785,0.0072342344,0.0015980039,-0.04537651,4974,4974,0,0,1,1
281173566,281172558,3670026,3670026,-0.00052103656,-0.00267886,0.00068282,0.0051791524,0.004201448,-0.03958605,4971,4971,0,0,1,1
281670547,281669611,3670026,3670026,-0.00057756074,-0.0013527148,-0.00029895303,0.0066778823,-0.011434803,-0.052821405,4971,4971,0,0,1,1
282167630,282166664,3670026,3670026,-0.0010639292,0.00038568032,-0.0004449047,0.00725363,-0.008201502,-0.044261083,4970,4970,0,0,1,1
282669632,282668687,3670026,3670026,-0.0010663446,-0.0009075967,-0.0004304865,0.007521412,-0.00024268977,-0.05232524,4970,4970,0,0,1,1
283171692,283170710,3670026,3670026,0.0014143634,-0.0022816358,0.0007228135,0.0055207545,-0.010779611,-0.03920357,4970,4970,0,0,1,1
283668673,283667763,3670026,3670026,-0.001194334,0.00137318,-0.00082873186,0.0047166096,0.00496481,-0.050170813,4970,4970,0,0,1,1
284170783,284169786,3670026,3670026,-0.0013937254,-0.0015221285,0.0007195353,0.007949232,-0.0022270004,-0.049358137,4970,4970,0,0,1,1
284672815,284671810,3670026,3670026,0.00010038145,-0.0013822567,-0.00029878624,0.008627913,-0.008451646,-0.025489662,4971,4971,0,0,1,1
285169951,285168862,3670026,3670026,-0.0020740398,0.002579769,-0.0012460386,0.008061522,0.003196833,-0.03728158,4970,4970,0,0,1,1
285666812,285665915,3670026,3670026,0.0010756878,-0.0019515412,0.00050190935,0.009135467,-0.0056913816,-0.084644414,4971,4971,0,0,1,1
286168902,286167938,3670026,3670026,0.0015320486,-0.00040798206,-9.983638e-05,0.008148569,0.0034139904,-0.039379016,4971,4971,0,0,1,1
286671071,286669960,3670026,3670026,-0.0001308709,0.0022926691,0.00014219635,0.0066757556,-0.0037819943,-0.024173956,4971,4971,0,0,1,1
287172937,287171982,3670026,3670026,-0.00041226376,0.00012889269,-0.00016228885,0.0056920443,0.006566713,-0.049664605,4970,4970,2,0,1,1
287670270,287669036,3670026,3670026,0.0015088597,0.0008490436,0.00063776853,0.005057518,0.0051177535,-0.043403666,4972,4972,1,0,1,1
288172085,288171056,3670026,3670026,-0.002257776,-0.00045284975,-0.00031374564,0.009045971,-0.0019313518,-0.05139801,4969,4969,0,0,1,1
288674189,288673079,3670026,3670026,-0.0024861966,-0.0034364727,-0.00040133315,0.008326606,-0.008323292,-0.06076762,4971,4971,0,0,1,1
289171054,289170130,3670026,3670026,-0.0004389168,-0.000527571,-0.0015899609,0.0064089275,0.005567118,-0.022614073,4970,4970,0,0,1,1
289668127,289667182,3670026,3670026,0.008830455,0.002619314,0.002354129,0.0035437532,-0.00845768,-0.06578002,4971,4971,0,0,1,1
290170162,290169204,3670026,3670026,-0.001064006,-0.0029152054,-0.0013782051,0.0048957583,0.0046217474,-0.018201094,4971,4971,0,0,1,1
290672247,290671226,3670026,3670026,-0.00017763369,0.0025619143,0.00022001006,0.0071715615,0.0011499801,-0.0508392,4971,4971,0,0,1,1
291169297,291168277,3670026,3670026,-0.0016595208,0.0018459345,5.8923546e-05,0.003588385,0.0060526114,-0.05380459,4971,4971,0,0,1,1
291671253,291670298,3670026,3670026,-0.0019356874,-0.003065714,-0.0007969292,0.0038335864,-0.007542321,-0.032529138,4970,4970,0,0,1,1
292168305,292167351,3670026,3670026,0.00040413605,0.00073284697,0.0014479836,-0.002619231,0.00089423195,-0.04664391,4971,4971,0,0,1,1
292670329,292669371,3670026,3670026,0.015770236,-0.0037149277,-0.0012728521,-0.0050264853,0.04195407,0.019991145,4971,4971,0,0,1,1
293167535,293166421,3670026,3670026,0.0028600697,0.006437704,0.0021824935,-0.09590805,0.06719993,-0.05929108,4970,4970,0,0,1,1
293669393,293668442,3670026,3670026,-0.0024480103,0.0022049418,-0.0003828278,-0.028215403,0.0020985943,-0.0711969,4970,4970,0,0,1,1
294171526,294170463,3670026,3670026,-0.0008229517,0.0010336362,0.0023219702,-0.03186144,0.009781294,-0.059220787,4971,4971,0,0,1,1
294673457,294672484,3670026,3670026,0.0003435284,-3.3729325e-06,1.7866763e-06,0.0017919751,0.0013553714,-0.049452096,4971,4971,0,0,1,1
295170502,295169534,3670026,3670026,5.6043962e-05,-5.1728905e-05,1.3954037e-05,0.0029493037,0.00068123813,-0.046705805,4971,4971,0,0,1,1
295672467,295671554,3670026,3670026,2.795921e-06,3.7612656e-06,-4.1956764e-06,0.0018090759,0.0014339621,-0.04882883,4971,4971,0,0,1,1
296169567,296168604,3670026,3670026,5.7166494e-06,-4.0905607e-06,5.089475e-06,0.0018912696,0.0014296366,-0.04877446,4971,4971,0,0,1,1
296671597,296670624,3670026,3670026,6.902091e-06,-1.47472865e-05,-7.875113e-06,0.0018335463,0.001412645,-0.04889308,4970,4970,0,0,1,1
297173805,297167675,3670026,3670026,4.8360893e-05,-7.169756e-05,-3.008745e-06,0.0017603892,0.0012827081,-0.048487682,4971,4971,0,0,2,1
297670790,297669695,3670026,3670026,9.457327e-06,-6.7882156e-06,-3.566094e-06,0.0016954348,0.00129334,-0.048532955,4964,4964,0,0,2,1
