timestamp,timestamp_sample,xyz[0],xyz[1],xyz[2],xyz_derivative[0],xyz_derivative[1],xyz_derivative[2]
173843837,173843280,-0.036045793,0.0043459893,0.010776444,-0.4587012,-0.5919043,0.31059185
173868694,173868133,-0.045692172,0.005850473,0.016177595,0.073183864,0.4982411,0.091570854
173886082,173885531,-0.03850016,-0.0017723546,0.012215775,0.20270386,-0.62980014,-0.26486492
173908449,173907900,-0.050879635,-0.00033476242,0.006029452,-0.08131094,0.4787087,-0.2188902
173925881,173925299,-0.029630242,0.00074596406,0.00060858484,1.3665352,-0.22066404,-0.30728367
173945742,173945189,-0.02626645,-0.0047738743,-0.0051221913,-0.19771297,0.059988398,-0.19657277
173968500,173967553,-0.005526115,-0.0019562587,-0.011370629,1.3014318,-0.3703665,-0.32469836
173985504,173984951,0.0014948098,-0.01378032,-0.015138018,-0.20168884,-0.38792524,-0.21362944
174005732,174004835,0.0061188815,-0.010456708,-0.016397,0.5311323,0.073318206,0.027926672
174027755,174027205,0.010835597,-0.021220222,-0.014921803,-0.33451158,-0.2799731,0.06373642
174045159,174044603,0.0018980624,-0.014133138,-0.015834264,-0.1295511,0.4542106,-0.066186465
174065042,174064487,0.017197087,-0.022023533,-0.014370718,0.609731,-0.63670367,0.17294982
174087436,174086857,0.008413524,-0.025635574,-0.010351358,-0.41593322,0.23350124,0.21775696
174104808,174104255,0.014089491,-0.026543021,-0.008134841,0.3215652,-0.24664462,0.081964135
174124691,174124139,0.004950068,-0.023877677,-0.0020880755,-0.51559114,0.5904755,0.39930105
174147057,174146509,0.012734657,-0.008290532,-0.0018060213,0.58997154,0.20707124,0.003232357
174164456,174163908,0.010135736,-0.00459511,-0.0014112219,-0.586486,0.42518967,0.024784332
174186868,174186287,0.006538309,0.012213335,0.00041833078,0.038252626,0.5364615,-0.024675965
174206721,174206161,0.0013203239,0.009417718,-0.005315131,-0.38324267,-0.051631656,-0.34270328
174226813,174226045,-0.00030173274,0.019031294,-0.007205774,0.9500331,0.3176451,-0.07316418
174246492,174245929,0.0054243114,0.008356963,-0.004384348,-0.45988488,-0.69655836,0.15213642
174264277,174263331,-0.0058839982,0.0073829778,-0.0024767194,-0.58069897,0.04385399,0.11703478
174286248,174285697,0.006044658,-0.004520687,-0.00025953096,0.43370664,-0.6343462,0.12922975
174306136,174305581,-0.004021585,-0.001064474,0.0022240425,-0.36097997,0.50185496,0.15761751
174328499,174327951,0.007399006,-0.0021084493,0.0055565992,0.51379645,-0.36316493,0.23951891
174345897,174345349,-0.0033832744,-0.0005174384,0.013726659,-0.6363731,0.30334046,0.37893105
174365798,174365233,0.0072310036,0.0015089731,0.01792194,0.70590365,-0.2241406,0.098075755
174388152,174387603,0.009835273,-0.011401951,0.018577304,-0.13368556,-0.12981126,-0.011009854
174405553,174405002,0.015082179,-0.009938154,0.020631196,0.7118519,-0.110308684,0.24241889
174425441,174424892,0.022769455,-0.020870471,0.024469946,-0.17541254,-0.46445492,0.25016847
174448186,174447255,0.018474197,-0.016287643,0.026610704,-0.058026753,0.09006341,-0.09298765
174467697,174467139,0.023693308,-0.027508767,0.021179078,-0.016882204,-0.58794934,-0.31221113
174485413,174484538,0.016156478,-0.02479895,0.016224096,-0.1971504,0.35255566,-0.22334202
174507457,174506907,0.021339789,-0.031197978,0.011851173,0.11716942,-0.4378796,-0.16694413
174529837,174529277,0.0065842285,-0.029735096,0.014774216,-0.40792036,0.1959474,0.20979987
174544734,174544190,0.019112617,-0.024242766,0.017628422,0.7425613,0.31867862,0.1906425
174567126,174566559,0.014859781,-0.015087213,0.022056222,-0.5791066,0.7835027,0.120417066
174586996,174586443,0.018760087,-0.0059897024,0.021176973,0.48014885,0.029881882,-0.06679815
174606889,174606334,0.012991578,-0.009612419,0.020279024,-0.7534897,0.022153487,-0.06964879
174624264,174623726,0.005471777,-0.0055420296,0.019091448,-0.10580584,0.047410786,-0.09101412
174646635,174646095,0.0062978654,-0.013817906,0.020351782,-0.39237058,-0.23675483,0.14620948
174666525,174665983,-0.0020635258,0.0007281797,0.021124925,-0.29495057,0.7952488,-0.06503996
174683923,174683378,0.00012211228,-0.0010730844,0.016371205,0.18748336,-0.36553687,-0.3252337
174706484,174705748,-0.0057638213,0.0031372237,0.0144568235,-0.15536582,0.33061826,-0.009525513
174726176,174725632,0.0022949004,-0.004376992,0.014297051,0.009559302,-0.7023104,-0.062770836
174748541,174748001,1.680362e-05,-0.010708707,0.016754068,0.07580302,0.091036305,0.20874256
174765939,174765400,0.015352894,-0.011239973,0.018468946,0.88482475,-0.34111843,0.051587097
174785830,174785284,0.0039536664,-0.012355699,0.017795457,-0.84866405,0.19875403,-0.11448347
174808201,174807653,0.006571225,-0.007392772,0.011149642,0.7416449,0.05427293,-0.24250704
174825590,174825052,0.015895676,-0.008108029,0.007157554,0.11850097,0.1488062,-0.14186332
174845485,174844936,0.007573562,0.0033687777,0.002137406,-0.08075354,0.42024192,-0.23779058
174867855,174867305,0.0077487123,-0.0003994829,0.00083387946,-0.15152821,-0.052118156,-0.016768169
174885246,174884704,0.0053911298,0.005139456,0.0016606741,0.11218398,0.3746728,0.058261476
174905148,174904588,0.01215933,-0.00015312168,0.0015204533,0.1795987,-0.44473633,0.02536767
174925091,174924472,0.0044814604,0.0050168335,-0.0017300409,-0.2117226,0.4543207,-0.2144183
174947399,174946842,0.013664024,0.0031079967,-0.009456514,0.43238696,-0.38557673,-0.17884934
174965070,174964240,0.002101034,0.00029373137,-0.00950719,-0.79441744,-0.05443029,0.06407495
174987164,174986610,-0.00076945906,-0.00070053054,-0.008080813,0.07398677,-0.1637668,0.12031677
175007035,175006494,-0.0053521143,3.9925013e-05,-0.003476305,-0.354097,0.39165896,0.25045392
175026932,175026378,-0.0019628368,0.011257378,0.0013309156,0.29660326,0.26706666,0.13184455
175044343,175043780,-0.013222125,0.0105106365,0.0013188564,-0.92036486,0.048441082,0.07897702
175066688,175066146,-0.011937321,0.020047264,-0.0034825583,0.5306168,0.3034024,-0.27849036
175086576,175086030,-0.009185697,0.013485449,-0.012385595,-0.3620676,-0.31211743,-0.44121295
175103970,175103428,-0.022328623,0.01823455,-0.01955186,-0.44260553,0.37747532,-0.34451985
175126349,175125798,-0.011103407,0.01654335,-0.025192885,0.4349565,-0.21674076,-0.14033537
175146226,175145683,-0.024757205,0.023125779,-0.025747336,-0.7100458,0.4460468,-0.08320199
175168596,175168051,-0.021463031,0.02308594,-0.030672573,0.39625353,-0.278897,-0.2304514
175186150,175185450,-0.023361932,0.021669207,-0.034610868,-0.22794946,0.14754288,-0.16031265
175205873,175205334,-0.015013899,0.016733274,-0.03741164,0.7304813,-0.6424391,-0.07142982
175228243,175227704,-0.014802854,0.0017358919,-0.032281928,-0.2911179,-0.39885712,0.21443304
175245664,175245102,-0.009657787,-7.434728e-05,-0.030718211,0.40776986,-0.16134924,0.09284509
175265528,175264986,-0.015280004,-0.011396256,-0.025931302,-0.39692274,-0.45155135,0.3184756
175287910,175287356,-0.018618789,-0.010937945,-0.019847896,0.44934806,-0.0860792,0.3002097
175307798,175307240,-0.01871334,-0.022075808,-0.012107079,-0.49533662,-0.45923224,0.47881567
175325191,175324638,-0.02830424,-0.018192574,-0.007408294,-0.4018851,0.31250006,0.23232
175347547,175347008,-0.027484411,-0.017570108,-0.005723831,-0.34906065,-0.08255842,-0.024933815
175367524,175366892,-0.038493417,-0.009838994,-0.0053181155,-0.28521213,0.47962642,0.0054995487
175384843,175384290,-0.025984267,-0.012859538,-0.002092795,0.85258,-0.33085597,0.21909893
175404760,175404175,-0.022814117,-0.014419555,0.0031575488,-0.2881747,0.15238602,0.27164337
175427083,175426544,-0.010987759,-0.009803228,0.006732378,0.65290934,-0.16316989,-0.02462951
175446977,175446428,-0.010873105,-0.015332722,0.0049677724,-0.16312662,-0.11835949,-0.12639835
175464378,175463827,-0.008131265,-0.010300792,0.0029873836,0.66903067,0.23730086,-0.23847887
175489227,175488682,-0.006158298,-0.021732803,-0.0052764053,-0.2800503,-0.3792936,-0.23366755
175506626,175506080,-0.006482385,-0.018215984,-0.008677013,0.4215631,0.24330737,-0.17411909
175524030,175523479,0.009449032,-0.02176112,-0.010358445,0.71390086,-0.15283033,-0.049834628
175546393,175545849,-0.002034476,-0.012896921,-0.012054681,-0.4386011,0.5312227,-0.1888074
175566285,175565733,0.00040857246,-0.010202826,-0.017882373,0.19350578,-0.13571414,-0.34321097
175588652,175588107,-0.0015175567,-6.5136366e-05,-0.022663793,0.011288636,0.68089026,-0.22766997
175606054,175605501,0.0048048757,0.0055807885,-0.024238715,0.18753725,0.19884181,-0.12474168
175625927,175625385,-0.010517667,0.007251741,-0.025232134,-0.9884779,0.2694122,-0.03087767
175648301,175647754,-0.01248736,0.0062088957,-0.026491666,0.40074134,-0.46784,-0.02751343
175665828,175665153,-0.01481207,0.0043183095,-0.020998325,-0.24105763,0.17787464,0.35099098
175685583,175685037,-0.014596698,0.015503658,-0.015679518,0.33115202,0.4508408,0.3113965
175707948,175707406,-0.017209604,0.005209619,-0.00994588,-0.5165769,-0.6014089,0.28408203
175725376,175724805,-0.02493011,0.00095259305,-0.0043616253,-0.29059067,-0.30191624,0.3342823
175745236,175744689,-0.011646264,-0.00878024,0.0064064367,0.24213094,-0.46732947,0.5809398
175767625,175767063,-0.019196326,-0.0077327923,0.01541869,-0.123578146,0.08604674,0.44098344
175785003,175784457,-0.012406117,-0.015426217,0.019807275,0.36084574,-0.6211031,0.19960055
175804892,175804341,-0.014626238,-0.020615213,0.026391624,-0.25014147,0.14628312,0.3180353
175827255,175826710,0.0012936831,-0.01588747,0.029037977,0.7337736,-0.08912421,0.007178676
175844665,175844109,0.0018742502,-0.01064049,0.028040074,-0.07611171,0.4256214,0.018833509
175864537,175863993,0.008949299,-0.00042265264,0.030631544,0.72169936,0.4705778,0.21307233
175884435,175883877,0.015965417,0.00029657906,0.032951865,0.194751,0.18011728,0.15343033
175906796,175906247,0.012912001,0.014718662,0.034402244,-0.0045759906,0.4604175,-0.069302134
175926675,175926131,0.0072351913,0.01582067,0.029469898,-0.49363068,0.15139394,-0.3502699
175944073,175943529,1.5828467e-05,0.025975078,0.022706853,-0.22419856,0.523653,-0.42959
175966444,175965899,-0.008554815,0.019229412,0.015139965,-0.691375,-0.56353074,-0.33634508
175986335,175985783,-0.024373678,0.02146892,0.006270852,-0.5935741,0.30831814,-0.41779095
176008693,176008152,-0.029848266,0.017851966,-0.0038362555,-0.33256292,-0.30160242,-0.46796492
176026090,176025551,-0.040595558,0.019358639,-0.008158752,-0.34639406,0.2044074,-0.16258846
176045979,176045435,-0.02817894,0.021371093,-0.007452554,0.66125804,-0.113958284,-0.06019987
176068362,176067807,-0.031486418,0.01807743,-0.0011315441,-0.4231878,0.21718003,0.33639652
176085747,176085203,-0.022939796,0.023418289,0.0026606328,0.8487276,0.097459584,0.12789056
176105640,176105091,-0.015668431,0.019528413,0.0058582323,-0.102914274,-0.062155068,0.22361262
176128006,176127457,-0.013516211,0.025285121,0.0068563167,0.51530766,0.1279424,-0.11096581
176148264,176147341,-0.008170105,0.0132117765,0.0017196487,-0.17820123,-0.52753425,-0.21962492
176165281,176164739,-0.009515347,0.012979693,0.00017770263,0.102062136,0.18398336,0.011164403
176187663,176187109,0.0016914599,0.009335517,-0.0034332704,0.28691387,-0.18345714,-0.113987
176207543,176206993,-0.0061638,0.013659205,-0.0043108435,-0.10235951,0.17506361,-0.105444394
176224948,176224392,-0.006359216,0.008330793,-0.0048440085,-0.15096281,-0.4173516,0.048181243
176244817,176244275,-0.013855572,0.0011644582,-0.0047590155,-0.44965053,0.05585236,-0.13278715
176267196,176266645,-0.004195696,-0.0009441498,-0.0060298853,0.5315365,-0.45968097,-0.20618978
176287081,176286529,-0.014865627,-0.008635328,-0.009290575,-0.77653,-0.22935653,-0.13766465
176304477,176303928,-0.014643755,-0.006478261,-0.010429046,0.3852987,-0.0710733,-0.09754018
176326902,176326299,-0.0037372373,-0.017174216,-0.008885236,0.21602471,-0.14068988,0.0760754
176346739,176346181,0.002100589,-0.014889791,-0.00599707,0.5697931,0.27806917,0.17765263
176364125,176363580,0.01684496,-0.010185944,-0.0043518976,0.27041432,0.46517888,0.1517557
176386495,176385949,0.005546342,-0.008063782,0.0016312916,-3.3879635,-0.058787167,0.5303531
176406398,176405834,0.037022784,-0.0088084545,0.008023204,-1.2060599,-0.83256686,0.18812798
176428748,176428203,0.018840004,-0.005030869,0.01107643,-1.0432655,-0.4094036,-0.086620025
176446151,176445601,0.04202261,-0.0030249385,0.009497112,0.14977688,0.4052176,-0.3216385
176466025,176465485,0.03071599,-0.006984605,0.0043994114,-1.5275304,0.12442977,-0.36920294
176488401,176487855,0.025967667,-0.00095576723,0.003969853,-1.5865425,0.67769414,-0.16457804
176505800,176505254,0.024022529,-0.001200318,0.0020691133,-0.28095144,0.16186029,0.0059139323
176525690,176525138,0.012944462,0.00066921103,0.0034439364,0.15769003,-0.067260966,0.039327115
176548049,176547508,0.008697431,0.0014216562,0.0011763475,0.21468402,0.14670548,-0.17321903
176565464,176564906,0.017604383,0.005215488,-0.009175565,-0.15965839,0.23183973,-0.65342456
176585336,176584790,0.013235505,0.008391894,-0.022767277,-0.29112843,-0.0008563811,-0.6777169
176607714,176607160,0.008655987,-0.0025347807,-0.03176896,-0.24325638,-0.5153096,-0.20954663
176627944,176627044,0.0040793824,-0.004815231,-0.03028479,0.05071001,0.06977649,0.08428344
176644988,176644442,0.0066877874,-0.00926686,-0.029277645,0.40608436,-0.28364357,-0.012808
176665173,176664326,0.004922328,-0.021867558,-0.031361103,-0.56784004,-0.8373442,-0.14220265
176687235,176686696,0.0013846259,-0.040970515,-0.032495715,0.14742208,-0.79917073,0.08623565
176707121,176706580,0.004778797,-0.04787622,-0.025011223,0.056244377,-0.12636936,0.43638396
176724526,176723978,0.0045502996,-0.044457845,-0.01667594,0.060775585,0.168539,0.42176405
176746895,176746348,-0.012406708,-0.04490867,-0.02133106,-0.74476653,-0.05383973,-0.37617576
176766776,176766232,-0.032530878,-0.044751696,-0.03310728,-0.9888202,0.071727715,-0.58531106
176784171,176783630,-0.04452818,-0.048357453,-0.039966658,-0.8837867,-0.18700856,-0.24509484
176806563,176806000,-0.073147856,-0.043893866,-0.040065065,-1.6722564,0.3605888,0.03287196
176826437,176825884,-0.10703765,-0.026107186,-0.03682604,-1.2290461,0.88207036,0.058832895
176851282,176850739,-0.13746244,-0.015758198,-0.05050875,-1.7290779,0.23210979,-0.929932
176866206,176865651,-0.1662842,-0.005005392,-0.071497895,-1.9263144,0.7563586,-1.3612641
176886506,176885537,-0.18833247,0.017719436,-0.08348104,-1.126745,1.3885986,-0.25624895
176908448,176907906,-0.20274664,0.06689735,-0.055496518,-0.66501033,2.6524663,1.7216249
176925865,176925304,-0.19004577,0.12093885,-0.017723277,0.45571756,3.0142043,2.014108
176945735,176945189,-0.1928428,0.16772152,0.016533442,0.002702193,1.7205683,1.5619797
176968115,176967562,-0.20157652,0.18336442,0.05021749,0.35819855,0.79128397,1.6582755
176987986,176987442,-0.18640228,0.20367336,0.09015329,0.27095333,1.0996271,2.0638046
177005397,177004840,-0.15431824,0.22408779,0.13529372,1.5140339,1.130266,2.7000158
177027751,177027210,-0.12528065,0.25392658,0.19336283,1.6324049,1.2740766,2.4404387
177047634,177047094,-0.1321151,0.26075205,0.23065302,-0.5265896,-0.06755534,1.7350453
177065044,177064493,-0.1347038,0.23631313,0.24957387,-0.25374794,-1.5916481,0.88731915
177084932,177084377,-0.1056982,0.20223948,0.25522032,1.616101,-1.7805508,-0.08507034
177107615,177106746,-0.08814354,0.17537604,0.23982581,0.5518378,-0.9422171,-0.71516985
177127181,177126630,-0.08332492,0.15808949,0.22167282,0.028110001,-0.97745246,-0.8351737
177144857,177144029,-0.090661,0.13138267,0.21771955,-0.85860807,-1.5634505,-0.092262544
177166938,177166399,-0.0859124,0.08855311,0.20919405,0.6770451,-2.1651328,-0.7558655
177186841,177186283,-0.05353221,0.03343387,0.17705385,1.1885293,-2.9851706,-1.9355507
177204235,177203681,-0.031215616,-0.022340529,0.13087119,1.1415203,-2.9861743,-2.6787622
177226595,177226051,0.0048877387,-0.06027362,0.07193854,1.5962526,-1.3097748,-2.4401488
177246492,177245935,0.030020654,-0.07225743,0.03836663,0.8320791,-0.46880195,-1.5887297
177268855,177268304,0.049265206,-0.078539394,0.001672888,0.6389453,-0.21188247,-1.6686819
177286263,177285706,0.06274836,-0.07819708,-0.029850323,0.5328626,-0.11920066,-1.8584313
177306135,177305587,0.05928427,-0.09265833,-0.060736343,-0.21580479,-1.0097288,-1.5037533
177328701,177327957,0.056003563,-0.12629977,-0.083685495,-0.36532822,-1.5374075,-0.88155437
177345896,177345355,0.034708403,-0.14934982,-0.0959604,-1.2653154,-1.2400318,-0.75718015
177366175,177365239,-0.0050281477,-0.16539685,-0.1139096,-1.9446644,-0.59182876,-0.89805037
177388163,177387609,-0.037713587,-0.15668364,-0.14675201,-1.1704727,0.68388855,-1.5788999
177405551,177405007,-0.048573487,-0.14834991,-0.16819356,-0.45480606,0.5361734,-1.2063997
177425436,177424891,-0.053371303,-0.14821032,-0.18357834,-0.052476306,-0.27874348,-0.7590076
177445327,177444779,-0.06626046,-0.15235966,-0.20010425,-0.6719848,-0.26654878,-0.831099
177465211,177464659,-0.07202811,-0.15525372,-0.21409048,0.029104175,0.031681914,-0.7400934
177487568,177487029,-0.049633004,-0.1403375,-0.23204525,0.8343788,0.75097054,-0.7846566
177504978,177504427,-0.03271766,-0.12528078,-0.2435752,0.79457635,0.90752935,-0.58192337
177527349,177526801,-0.02333312,-0.103338584,-0.24607004,0.78518844,0.8334301,0.023300799
177544752,177544196,-0.0046906606,-0.09490377,-0.24256952,0.8319695,0.3829877,0.20306629
177564621,177564080,0.012930237,-0.08504041,-0.23968498,0.7348004,0.5842966,0.08225328
177587297,177586450,0.031831987,-0.05381725,-0.2273018,0.38376018,1.7817737,0.76108176
177604400,177603848,0.050267972,-0.0005414253,-0.20221674,1.1895413,3.3824005,1.5917901
177624507,177623732,0.09464637,0.07410555,-0.16506268,2.2726557,3.7542908,1.7608136
177646680,177646102,0.14088042,0.16096355,-0.14056784,2.4639513,3.6828587,0.76844764
177664489,177663501,0.21239184,0.20942631,-0.1402204,3.9709752,2.5775073,-0.10415242
177688896,177688355,0.34087935,0.29889372,-0.15287633,5.305912,4.695244,-0.782371
177706298,177705753,0.43249357,0.34064814,-0.20333493,3.6064076,0.49425977,-3.9575248
177726184,177725639,0.2769865,0.20396926,-0.4276303,-11.145328,-7.413156,-13.866821
177748563,177748007,0.079272516,0.033751763,-0.78716135,-8.843687,-10.830376,-13.602242
177765950,177765406,-0.043507837,-0.2640228,-0.80890197,-10.731929,-17.389143,1.6117524
177785837,177785290,-0.09536482,-0.51958895,-0.49932683,4.25226,-10.170438,19.914812
177805905,177805174,0.16225225,-0.73337907,0.009265871,11.558725,-12.758006,23.05352
177825599,177825058,0.2924657,-1.1726738,0.16387908,7.66946,-24.323193,3.2834969
177845893,177844944,0.48763573,-1.4278165,0.028177178,5.3576794,-4.1165037,-8.90895
177865374,177864826,0.3980947,-0.96023995,-0.2035566,-10.53976,27.910364,-11.737665
177887740,177887196,0.05601093,-0.3744963,-0.24180743,-7.1062317,22.500713,1.3951436
177905154,177904594,-0.22968128,-0.19760275,-0.16349809,-17.898933,8.070827,5.55949
177925028,177924479,-0.94869435,-0.043345656,0.01918624,-39.751167,12.569578,8.994015
177947397,177946848,-1.3182672,0.20007564,0.23226593,-0.04730526,8.709368,9.065936
177967278,177966732,-1.2268186,0.38004127,0.29423994,4.137642,9.690465,2.0700812
177984683,177984131,-1.1716717,0.6011418,0.3280456,9.242203,13.003098,2.1637695
178007044,178006500,-0.64916265,0.81728446,0.42116383,21.990244,7.456624,3.989092
178026980,178026384,-0.3397585,0.8388658,0.48427287,16.331955,-2.3439353,2.7129023
178044339,178043783,0.038061067,0.7452284,0.49873322,26.403997,-5.27042,0.83120584
178066972,178066152,0.3641689,0.67792004,0.46359122,11.682847,-3.0371509,-2.4109218
178086576,178086036,0.51079524,0.6072119,0.38488528,5.456792,-3.7354295,-4.14248
178108953,178108407,0.6121435,0.4562562,0.30009848,-1.2116635,-7.5937114,-3.9388673
178126378,178125811,0.45220807,0.35832205,0.2680912,-7.206662,-6.3395495,-1.364617
178146239,178145688,0.30340612,0.21051355,0.24995928,-5.8601823,-8.549499,-1.30141
178168615,178168058,0.089472376,0.10404497,0.16583662,-7.716646,-1.7489235,-4.3221135
178186005,178185456,-0.020708112,0.06442367,0.093479574,-2.548643,1.4947668,-3.904054
178205882,178205341,-0.104785025,0.05537512,0.032824527,-10.738798,2.0132282,-1.7496768
178228265,178227710,-0.031676628,0.09192682,-0.006059095,4.562241,3.4584877,-1.9506621
178245672,178245120,-0.073243886,0.15290889,-0.008342882,-4.6364493,3.3919585,0.40064344
178265542,178264993,-0.13200523,0.2701379,-0.04832182,-11.259546,4.924249,-0.6528983
178285562,178284877,-0.062121224,0.30963624,-0.063857175,-6.0949154,1.9651964,1.1229082
178307793,178307247,-0.075160176,0.2522434,-0.09981053,-4.556386,-5.296248,-1.7373904
178325540,178324645,-0.034569465,0.21668887,-0.137587,11.968594,-2.4375443,-3.3946614
178345074,178344529,-0.052813232,0.11683065,-0.20658654,7.250244,-5.2967224,-4.5477858
178367440,178366898,-0.120293334,0.08055514,-0.26026797,-0.7378088,0.9613051,-2.316075
178387329,178386784,-0.10576358,0.064642265,-0.25447628,10.334153,-0.36969182,-0.41785762
178404723,178404181,-0.2004316,0.04509489,-0.22220032,-7.6637034,0.41313374,2.188665
178427089,178426551,-0.181675,0.01933771,-0.190419,-6.9917717,-1.9901797,2.5312693
178446979,178446435,-0.25447053,0.06729521,-0.14202367,-11.760119,2.7541766,3.9006472
178464382,178463834,-0.09225714,0.115798675,-0.08177873,7.8666463,2.5892575,3.897538
178486748,178486203,-0.04059608,0.22222947,0.085495256,4.3608437,5.2231646,6.908317
178506682,178506087,0.006595496,0.2709178,0.21261172,14.50403,2.8243172,4.4572554
178528995,178528456,-0.03043835,0.2798865,0.31942397,-4.4075565,-2.1108472,4.6244674
178546649,178545855,-0.04409375,0.25503722,0.3839171,-5.8114614,-1.2543827,4.1836357
178566284,178565739,0.048672136,0.2650452,0.45348337,-7.511149,-0.45383015,4.1593614
178588676,178588108,0.20601785,0.29794854,0.48695552,11.327474,1.0655944,0.9194617
178606072,178605514,0.11222545,0.30818138,0.5042437,-5.9240894,2.2704475,-0.20523906
178625939,178625391,0.21234442,0.28770474,0.45129076,9.13512,-1.2636447,-4.0912433
178645816,178645275,0.2186227,0.25626487,0.35653692,13.447383,-0.88348776,-6.7563562
178665702,178665161,0.1831002,0.2406206,0.23555411,6.2599435,-0.6227,-7.0931425
178685596,178685043,0.15255821,0.24205863,0.109278984,-10.32466,0.2578557,-6.3187222
178705478,178704929,0.011099117,0.29425272,0.05337519,-15.54323,0.69700646,-0.78503954
178727854,178727297,0.0762322,0.37218207,0.035474394,11.914347,1.4724278,-1.4105048
178745241,178744695,-0.040014118,0.34427297,0.04494085,-8.566425,-1.1610091,0.03949477
178765265,178764579,-0.049217712,0.29139042,0.0022942347,1.5612906,-2.7720773,-2.664276
178787497,178786949,-0.20137283,0.24183534,-0.060527448,-17.48364,-0.7564131,-1.9875584
178809869,178809318,-0.13069504,0.3444468,-0.099163085,15.365417,5.6523757,-0.97862685
178824778,178824231,-0.1419006,0.4242919,-0.07146589,3.6392632,4.8124294,0.8606882
178847142,178846601,-0.20349178,0.500743,-0.018821606,-1.3686223,2.2406542,1.307611
178867031,178866485,-0.104864754,0.5368827,-0.054498237,13.586201,0.87744784,-4.502402
178884435,178883883,-0.22440845,0.55217755,-0.13693424,-11.911263,1.6199751,-3.621499
178906798,178906253,-0.02660708,0.69992083,-0.17905998,11.909417,8.639197,-0.34126878
178926681,178926137,-0.053146522,0.91426045,-0.13016462,-5.8197584,9.588835,2.0230129
178949136,178948506,-0.03485745,1.0714247,-0.14873356,9.365006,5.9001355,-3.1837592
178966459,178965905,-0.18885726,1.0950273,-0.18907121,-18.381903,-1.3382311,-1.6173868
178989078,178988274,-0.09079194,0.77450746,-0.31198347,5.7551985,-21.088186,-7.4621377
179008698,179008158,-0.05862364,-0.021723978,-0.5447016,1.6348449,-39.958538,-11.950506
179023613,179023071,-0.07282459,-0.6820848,-0.58278286,-10.281777,-39.814888,0.98520434
179045986,179045441,8.410384e-05,-1.3444722,-0.34051552,12.727593,-25.074043,10.694673
179066307,179065339,0.026469676,-1.6362269,-0.21692824,19.787642,-11.655897,1.0880394
179088234,179087695,0.36377385,-1.7159703,-0.17759138,-10.261786,9.912383,2.073475
179105654,179105093,0.47334793,-0.3752495,-0.07629245,9.96789,83.029625,9.859519
179125521,179124977,0.74823785,-0.30981663,0.046822052,27.197569,-32.728577,4.031391
179147901,179147347,0.7746785,-0.8337306,-0.056581806,4.542355,-4.3814387,-6.5832224
179165290,179164745,0.67528474,-0.38541594,-0.07740906,-24.138092,28.042595,-0.29355583
179185179,179184629,0.68446994,-0.0272908,-0.11737264,-7.5299945,9.052706,-0.9962514
179207537,179206998,0.39941674,-0.66740024,-0.15316606,-3.6617322,-39.681946,-0.5991779
179224956,179224397,0.23990647,-1.1803328,-0.20392042,1.0495383,-23.1679,-4.1125116
179244945,179244281,-0.124212585,-1.0952584,-0.2502524,-17.81419,12.211203,-5.0866957
179267196,179266652,-0.66548854,-0.64046407,-0.27235577,-25.775484,17.551888,-0.54926074
179284900,179284049,-0.69934916,-0.67417073,-0.31411925,-9.3928795,-7.9973583,-2.3823547
179304472,179303933,-0.892106,-1.020483,-0.35175854,-9.118411,-18.95809,-0.97572356
179326849,179326303,-0.64953756,-0.9228938,-0.39704248,22.37282,13.531422,-3.2524364
179346732,179346186,-0.43835914,-0.49579856,-0.40963662,27.840336,23.093084,-2.4753244
179369132,179368556,-0.16468441,-0.26828197,-0.38313863,15.963875,5.184275,1.7803433
179386494,179385954,0.37381262,-0.32994774,-0.3694604,25.743967,-5.0620303,1.2680511
179406392,179405838,0.72851586,-0.2639923,-0.33267996,11.018552,4.765186,3.1029108
179426264,179425725,1.0392739,0.08790974,-0.29195255,3.834338,16.4588,3.8801785
179446165,179445606,1.039607,0.39906862,-0.27974772,-13.397053,11.276858,2.7960484
179466034,179465490,1.1054361,0.4439787,-0.27516794,-12.321779,-0.6421953,1.6490635
179485923,179485375,0.93348294,0.41157556,-0.31067955,-20.934408,0.83581626,-1.6864556
179505977,179505258,0.70367426,0.5117014,-0.35505307,-9.238122,9.318941,-3.0503025
179525682,179525142,0.31229794,0.61770517,-0.39973828,-10.955103,6.3347774,-4.2144613
179545961,179545026,-0.15917428,0.5033891,-0.4404173,-8.234666,-6.520019,-4.134589
179567934,179567396,-0.7468798,0.1940235,-0.44922343,-31.095724,-12.28787,0.09388848
179585391,179584804,-0.9558809,0.0027934606,-0.4839701,-12.829189,-11.661099,-1.7630881
179605221,179604678,-1.1530291,-0.094505966,-0.48217708,-10.5128565,-7.6882067,0.4834714
179627592,179627047,-1.077358,-0.20992745,-0.5004383,14.796057,-4.7354584,-2.3684912
179647484,179646931,-0.76289666,-0.40942407,-0.49475095,32.997463,-7.5018444,-1.7510048
179664869,179664330,-0.46312076,-0.5286013,-0.45873335,14.908839,-5.217248,2.7390308
179687251,179686699,0.21234567,-0.45338988,-0.4573446,31.734852,3.8430405,0.34858087
179707128,179706583,0.73474705,-0.34496656,-0.42580593,26.468948,2.6176593,1.8573631
179724590,179723982,1.0632285,-0.284476,-0.41419563,24.987326,3.7754164,-0.700462
179746897,179746351,1.2327322,-0.33535483,-0.37818497,-5.4393497,-3.4217815,2.913957
179767062,179766235,1.1910731,-0.306419,-0.39681157,-19.08093,0.68041843,1.3509064
179789178,179788605,1.1041312,-0.15005277,-0.4550441,-3.845753,5.891587,-3.2830472
179806623,179806013,0.63827455,-0.04626462,-0.48109835,-25.74581,6.49015,-1.9387182
179826439,179825887,0.14849986,0.025921537,-0.54283655,-22.696726,6.133157,-3.659712
179846331,179845771,-0.35427997,0.046429303,-0.59677255,-19.29561,4.0062265,-4.505954
179866198,179865655,-0.81288433,0.05929124,-0.6379948,-9.981637,2.5489693,-4.060829
179886078,179885539,-1.1568344,0.071779154,-0.65312016,-1.5348797,0.94897383,-2.5282238
179905971,179905423,-1.3448634,0.028317897,-0.6463026,4.22444,-3.8696742,-0.781828
179928340,179927792,-1.3489698,-0.012767582,-0.6178122,4.2109103,1.3308616,0.7247131
179945736,179945191,-1.1780714,-0.0349524,-0.5845763,3.5475304,-2.4991558,2.8733048
179965620,179965075,-0.7676492,0.00018970706,-0.52858263,14.587697,-2.0291874,5.2898893
179988408,179987448,-0.19437604,-0.0069410233,-0.48517984,35.447575,-0.00606621,0.8687392
180005394,180004843,-0.0025114196,-0.110197194,-0.4126612,8.021048,-4.6585975,4.3080645
180025622,180024727,0.41873193,-0.11568567,-0.3733595,13.733193,0.99619275,3.0613058
180047640,180047096,0.7401574,-0.14272037,-0.34826827,5.3266153,-3.3145285,1.3746967
180067521,180066980,0.8583171,-0.16495636,-0.32377523,2.2471097,-4.7277417,2.9054863
180084931,180084378,1.1122409,-0.15092833,-0.32227322,20.22085,2.3540406,-1.4535838
180107289,180106748,0.8500841,-0.07713081,-0.2928943,-25.168879,5.177286,2.3638163
180127180,180126632,0.58601254,0.13888957,-0.29942113,-24.8882,10.730356,1.5763584
180144592,180144030,0.4370784,0.28760365,-0.31702498,-12.6357765,5.889568,-1.2041504
180166944,180166400,-0.24418643,0.36718407,-0.32682315,-25.294172,3.8242035,-0.97798526
180186837,180186283,-0.4465731,0.35440147,-0.3241622,-2.3027315,2.6558588,-0.97732604
180206765,180206168,-0.77911955,0.3513563,-0.32222635,-5.857465,3.2636614,-1.9104692
180226590,180226051,-0.87196165,0.35109386,-0.2955803,13.546678,1.7193717,-0.6574134
180246720,180245936,-0.86010915,0.23610677,-0.26026097,12.126971,-7.7095947,-0.32112676
180266370,180265819,-0.91646075,-0.0049770335,-0.23873366,6.8981276,-14.414108,0.03844319
180284205,180283218,-0.7053845,-0.17052594,-0.20357169,17.896208,-6.845676,1.5525798
180306135,180305587,-0.498038,-0.3533946,-0.1798627,2.090861,-8.520648,2.2190263
180326013,180325471,-0.25203013,-0.40369466,-0.1609045,8.359663,-4.78566,3.4892182
180348393,180347840,0.31918016,-0.37064105,-0.16723686,27.667051,2.007369,-1.5520775
180365783,180365239,0.28656378,-0.33902484,-0.13841845,-3.1556246,2.4576201,2.2306385
180385674,180385126,0.7049418,-0.20351739,-0.11893736,10.253142,8.213752,2.0773597
180408035,180407493,0.7239809,-0.021615494,-0.11586338,-6.6376443,6.734885,0.5533188
180425432,180424891,0.7880048,0.16782913,-0.0996891,8.326907,12.007862,-0.029215068
180445313,180444775,0.7191963,0.3232382,-0.08300703,-3.5381708,10.110141,-1.8255497
180468069,180467144,0.26400694,0.4670915,-0.051036812,-20.223837,5.7489324,3.3354273
180490055,180489513,0.5021987,0.64430225,-0.044337235,9.448116,6.0478864,-1.0373713
180505304,180504427,0.20514935,0.6468375,-0.042253383,-8.4234,-1.5299876,-1.2014272
180527356,180526795,0.16012031,0.56541663,0.0002122022,3.7489715,-2.5711076,1.4880129
180547237,180546679,-0.08048756,0.42112893,-0.0040665,-15.294301,-3.6565723,-1.3423802
180564617,180564078,-0.2466667,0.26109046,0.011185261,-12.297607,-9.073213,2.3464668
180586986,180586447,-0.11646192,0.2797883,-0.006428922,17.40934,3.7268708,-2.2102046
180606886,180606334,-0.27486554,0.31450793,-0.006906296,7.880731,2.4584908,-1.8375286
180629251,180628701,-0.38887233,0.26742345,0.024999212,-8.219486,-1.9394486,1.8497369
180646658,180646099,-0.253633,0.17948382,0.02388796,6.5216684,-6.431496,0.0318952
180666533,180665983,-0.21484253,0.16795206,0.043929946,-0.13851187,-2.9042633,1.4145133
180686467,180685868,-0.09952426,0.21099536,0.058379564,-0.38197038,-2.3728209,2.4112306
180703815,180703265,0.11334828,0.2365555,0.041142523,21.052483,1.7753085,-2.0180395
180726441,180725635,0.22418225,0.14611074,0.080002666,-1.2641858,-3.8507018,3.0732281
180746063,180745518,0.34620658,0.17616248,0.071727596,-8.191587,2.4412727,1.1209296
180768431,180767889,0.5982929,0.22744678,0.049222365,15.252265,-0.35626674,-0.9262994
180785828,180785286,0.48677436,0.19878095,0.043680068,-7.184887,-0.6058888,-1.2525905
180805709,180805170,0.35329768,0.016664019,0.010277096,-1.8945312,-5.512623,-3.1010513
180828085,180827540,0.24869418,-0.13937306,-0.0022839466,-11.34529,-5.3121934,1.1971943
180845491,180844939,0.17045815,-0.027735736,-0.06532287,-0.85472834,7.376298,-4.63409
180867857,180867307,-0.003083088,0.015103358,-0.071550645,-10.26154,1.4581645,0.92511845
180887733,180887191,-0.07592839,0.020424828,-0.08565081,-12.421134,1.3468101,0.19356817
180905140,180904589,0.011954693,0.035261102,-0.083170645,2.5527155,0.14414997,0.6532124
180925016,180924473,0.013089236,0.1824258,-0.06630319,-7.5039506,5.0380816,2.062639
180947757,180946843,0.090494186,0.4071354,-0.076167524,8.7688875,10.356862,-2.2064867
180964785,180964241,-0.09331154,0.44874564,-0.045101102,-14.108337,1.676903,3.0086262
180987160,180986611,0.0975255,0.48752058,-0.047168702,13.365355,0.77117413,-0.61494505
181007036,181006495,-0.033129964,0.49222013,-0.023912778,4.756106,-1.1088667,0.3356517
181024444,181023893,0.09154851,0.5325467,0.009785048,5.478106,3.47782,0.9705799
181044318,181043777,0.08999559,0.43350133,0.0065054903,3.8165045,-2.7850623,-1.2935156
181066710,181066146,0.12548831,0.077233106,0.031317305,-6.4438767,-18.057674,2.7633634
181086572,181086030,-0.14599141,-0.11905164,0.019307937,-28.222298,-11.064612,1.76607
181106459,181105914,-0.027598754,-0.18348657,0.0057360735,-5.8659134,-3.590772,1.1440232
181123862,181123312,-0.08430971,-0.2627945,-0.041397978,3.0350926,-6.3484483,-2.5802548
181146224,181145682,0.0016513135,-0.30546752,-0.041163366,-14.131722,1.6064045,-1.4978138
181166110,181165568,0.03264157,-0.23242058,-0.06390576,14.353272,8.840025,-1.6463782
181188479,181187935,0.08575659,-0.08722731,-0.047362093,-10.58871,4.4045477,1.9677167
181206081,181205333,0.06775364,-0.007689752,-0.08114648,5.05331,3.8114486,-2.7428126
181225758,181225217,0.2969944,-0.015465807,-0.061565317,36.88327,0.4686387,-0.5397974
181248128,181247586,0.067367814,0.043792073,-0.04547354,-22.734222,4.8969336,0.6842853
181265532,181264985,0.2825481,0.08476143,-0.03541115,15.269819,-0.19233459,1.0459268
181285428,181284869,0.35559234,0.03632184,-0.013000746,-4.023578,-7.2864285,1.0380657
181307791,181307238,0.28475812,0.023803573,-0.04181314,11.553781,3.3912718,-2.2075806
181327663,181327122,0.4328784,0.13860372,-0.044665035,15.684185,10.2429,-2.6754546
181345065,181344520,0.16374013,0.25236043,-0.028857158,-16.549152,5.7869124,1.7050637
181367434,181366894,0.26551163,0.23885603,-0.0703557,10.573491,-4.5595107,-1.9694474
181387462,181386775,0.12534104,0.16993356,-0.08768284,-9.223405,-4.8779674,-1.2042221
181404716,181404172,0.06179394,0.25899413,-0.10124953,1.7754337,7.619798,-1.9443238
181424678,181424056,-0.048745215,0.32978454,-0.12966742,6.0541053,5.51473,-3.1563838
181446967,181446425,-0.26543444,0.22096166,-0.11828895,-18.00086,-7.2248635,2.1077816
181466856,181466309,-0.38658786,0.11405947,-0.12648624,-16.159595,-4.798506,1.4689344
181486746,181486193,-0.2638555,0.10076863,-0.13009547,-0.76110077,1.5730605,0.7910762
181506618,181506076,0.02296739,0.13292892,-0.14031447,14.597451,4.717966,-1.2572095
181526514,181525960,0.3647432,0.093077146,-0.17147394,26.351812,0.89391655,-3.624665
181543908,181543359,0.474391,-0.015711915,-0.17664,-2.694682,-6.6592903,1.3251339
181566270,181565728,0.8728972,-0.06964256,-0.20205298,27.78656,-2.3403516,-1.692217
181586151,181585612,0.91147465,-0.1268006,-0.20920981,12.686836,-3.130765,-1.638152
181608533,181607982,0.9540843,-0.10103803,-0.21716169,0.9576679,3.6125214,-1.5270269
181625927,181625380,1.0634289,-0.14520153,-0.21908036,-1.8425183,-4.0611653,0.9090565
181645818,181645264,1.0880046,-0.17224263,-0.213269,-10.692995,-3.8585877,2.6765733
181668178,181667633,1.2227416,-0.14007255,-0.23076567,13.517343,2.5091898,-1.9878831
181685752,181685031,1.0439883,-0.12362154,-0.19539654,-9.194495,1.0929618,2.7716763
181705467,181704915,1.2105694,-0.1457865,-0.1816001,-6.6669893,-0.033654902,0.80964565
181727828,181727284,1.2111788,-0.17186669,-0.16208558,-0.6878832,-1.8837495,2.1919603
181747713,181747168,1.3651335,-0.10230666,-0.1085444,-1.1315782,1.526232,4.3526
181765125,181764566,1.4864848,0.0052673025,-0.095893785,11.266312,6.3646235,-0.621752
181787477,181786935,1.4457917,0.045224193,-0.019801091,-7.1742115,1.4950681,4.423758
181807372,181806819,1.4380237,0.07963353,0.010607324,-14.473783,1.6608062,2.6924167
181824757,181824218,1.4124696,0.10752795,0.0426216,-4.8002553,0.8551094,2.472769
181847140,181846587,0.9564167,0.22424486,0.0661209,-16.967882,7.4825325,-0.6347884
181867115,181866471,0.8092405,0.32307166,0.09017173,2.5625489,7.9798927,-0.66209906
181886896,181886354,0.604627,0.41969207,0.1301297,0.0035201635,6.4769983,-0.008433616
181904355,181903753,0.25179568,0.44317618,0.20683393,-25.972578,1.6153102,4.7575684
181926661,181926122,0.46573257,0.46230206,0.25673065,12.391562,-0.7036215,1.8467247
181946548,181946006,0.019799445,0.4200985,0.28675547,-15.8038845,-4.454883,1.4897323
181963955,181963404,0.040569205,0.4604315,0.31677827,4.517126,4.1250525,0.9062745
181986333,181985781,0.032900214,0.44104213,0.38764176,-14.886474,-2.8260336,4.149857
182006203,182005658,-0.22518414,0.42688692,0.40480515,-13.632167,-3.180123,3.826715
182028571,182028026,0.22835395,0.36873573,0.4166563,13.336949,-4.015464,-1.340781
182045964,182045425,0.006131367,0.27647683,0.43983293,-8.590696,-3.9234884,1.5766802
182065865,182065309,0.35105914,0.15604757,0.4555535,11.818083,-3.0571353,0.58827263
182088220,182087678,0.6101584,-0.008849831,0.47892842,2.6974273,-9.459919,2.1330347
182105618,182105076,0.8794152,-0.04326514,0.469804,21.853876,0.17327693,-1.7335972
182125501,182124960,1.2184182,-0.06986734,0.48809978,30.978407,1.9891121,-1.2694346
182147871,182147330,1.2991685,-0.03278629,0.52077603,0.06288524,3.3370986,2.4002097
182168150,182167213,1.2265888,0.07976676,0.50754595,-17.961294,5.894877,0.078245044
182185178,182184611,1.4293697,0.17932786,0.49337944,8.895052,4.0995636,-0.5150495
182207532,182206981,0.8480497,0.32990053,0.44126177,-24.302153,8.68052,-3.543542
182229898,182229350,0.42256263,0.34303573,0.4101718,-20.369955,-1.5702925,0.45622137
182244807,182244263,0.12301384,0.35702822,0.38011682,-35.449486,-2.0332122,0.24675663
182267184,182266632,-0.2953517,0.4031526,0.29835302,-10.828024,2.5294263,-4.8184175
182287056,182286516,-0.4749376,0.44665906,0.26848075,6.8259563,1.6355587,-2.4510913
182306941,182306400,-0.60793203,0.46911427,0.25426516,-8.501022,-2.6350868,-1.6672533
182324359,182323799,-0.770545,0.4859044,0.22874019,2.0090237,3.0880036,-2.0335913
182346815,182346167,-0.54222184,0.44646543,0.24830471,-2.2866476,-3.3286624,2.0966294
182366600,182366051,-0.5171928,0.4605663,0.23215845,-5.5654397,-2.3167808,1.6639552
182384022,182383454,-0.2561856,0.41500607,0.1795859,20.980434,-3.7390537,-3.6778867
182406366,182405819,-0.21636513,0.2953448,0.16266564,-3.5832586,-3.3966937,-0.5530455
182426249,182425702,0.043964285,0.24609686,0.13484873,2.773951,0.58673584,-0.92089796
182448616,182448072,0.13005291,0.15096256,0.11069698,-3.7766197,-6.449922,-0.20536545
182468494,182467956,0.34796128,0.13920318,0.1186498,3.1720343,-2.6478002,2.1305125
182488385,182487839,0.15372244,0.23701884,0.10017245,-24.780386,3.0699983,1.6101387
182508265,182507723,0.18370631,0.32620227,0.084943466,-2.2405438,2.364044,1.9845101
182525668,182525122,0.32787952,0.30150762,0.059514504,9.532238,-4.6023,-1.8307003
182545557,182545005,0.18498091,0.15314798,0.05159321,-3.7997308,-9.789615,-1.2378252
182567918,182567374,0.09486091,0.11844621,0.052460253,-0.8455653,3.3594222,-0.6715012
182585331,182584773,0.01112985,0.09873763,0.06806308,-13.517129,-2.456621,1.741355
182607863,182607142,-0.2364756,0.12782174,0.02169056,-0.70342255,0.94904983,-3.624864
182627572,182627025,-0.1654979,0.03797869,0.021643229,19.06802,-2.8391974,-1.815377
182645136,182644424,-0.5598896,-0.025170693,0.03221216,-29.557087,-1.502571,0.5562526
182664871,182664308,-0.69416785,-0.0065554194,0.013302016,-4.6752934,3.686577,-0.16684438
182687220,182686678,-0.6472764,0.030604277,0.013055364,-6.67727,-1.0042967,0.84643346
182704634,182704075,-0.66106415,0.14433184,-0.0022038505,8.709499,8.883959,-1.6162803
182724515,182723959,-0.37436697,0.2301236,0.02320081,26.47448,7.5611115,-0.95045596
182744391,182743843,-0.53176934,0.22914885,0.024635118,5.2961197,0.5833946,-2.0992925
182766769,182766212,-0.5921372,0.14863558,0.06219044,-2.0372498,-3.0985925,2.216146
182786647,182786096,-0.7024358,0.058197476,0.048639055,-11.909615,-1.7825278,-0.6770596
182804039,182803494,-0.64990133,-0.062441293,0.033934087,0.785063,-8.473687,-0.044945315
182826455,182825863,-0.39542878,-0.081695125,0.019428207,17.978209,1.5167797,-1.8376579
182846289,182845747,-0.3203076,-0.153758,0.014560355,15.654476,-0.8064387,-2.586372
182866412,182865631,-0.18852025,-0.2298408,0.017077446,21.368622,-2.2098851,-1.7801703
182886070,182885514,0.013055062,-0.25835735,0.05098865,22.512259,0.13875699,0.38718566
182906418,182905404,-0.36043915,-0.21520051,0.046271443,-13.980779,1.3180147,-0.9769838
182928311,182927768,-0.21596068,-0.08565338,0.08210127,5.0800233,7.0698595,0.1271964
182945761,182945188,-0.53317434,-0.057295952,0.08915635,-24.181627,-0.4241725,1.469959
182965588,182965050,-0.6054266,-0.1062921,0.115299836,-1.5105218,-7.845792,4.3247128
182985475,182984933,-0.43089646,-0.23009263,0.15258844,-12.203751,-6.967851,3.8987403
183007866,183007302,-0.42865208,-0.16182406,0.14227481,6.501911,5.9150434,-1.2481351
183025252,183024701,-0.057957385,0.028287943,0.19278759,25.982368,11.148967,2.7185059
183047624,183047070,-0.44414848,0.18145768,0.19781503,-16.66859,3.005487,1.8380009
183067494,183066954,-0.17936225,0.17592585,0.2508372,9.34696,-5.827497,4.473801
183084906,183084352,-0.052249633,0.13991943,0.2580621,3.9878519,-0.5695553,-1.1560785
183104788,183104236,0.01645151,0.12034169,0.3153763,29.669514,1.9254738,1.0852885
183127481,183126605,-0.08575732,0.19106725,0.37190285,-8.0219755,4.891899,2.7262154
183147030,183146488,-0.28689453,0.24444965,0.36701137,-16.924046,3.272342,-0.07096204
183164712,183163887,-0.57178485,0.11018353,0.3554613,-16.215649,-11.19802,1.0869944
183186801,183186256,-0.28346962,-0.10014558,0.43357527,4.8675103,-7.1630535,1.5714532
183206696,183206140,-0.61812854,-0.20776625,0.45020548,5.472206,0.06389006,-1.3811461
183224090,183223538,-0.1391187,-0.075150914,0.55413115,16.012758,8.95132,6.0643177
183246466,183245914,-0.12157933,0.16992472,0.5412602,-2.8087335,7.9697094,-1.5257803
183266339,183265791,0.02096803,0.19336052,0.55381835,25.870817,-3.6312375,1.5207466
183288702,183288160,0.24517167,0.14703356,0.531706,13.581021,1.3575586,-2.749808
183306163,183305558,0.19752973,0.18574095,0.51138127,-15.225566,2.277622,-0.07593777
183325984,183325442,0.41821688,0.34193844,0.49142995,9.997731,4.4830647,1.7965695
183348614,183347812,0.5896023,0.25974745,0.40616056,-1.903439,-7.319563,-5.2727904
183365754,183365209,0.33393627,0.17560002,0.3696552,-7.666062,-1.3999816,-1.5331104
183386077,183385094,0.5528232,0.27342448,0.32660556,0.33937538,9.930316,-2.8191524
183408006,183407462,-0.029431669,0.41254273,0.24394749,-28.77108,1.8132027,-2.0357952
183425414,183424861,0.04021523,0.43046668,0.2054301,14.520212,1.1275173,-2.9516528
183445287,183444744,-0.26424566,0.31210658,0.1521785,-15.627243,-2.0811944,-5.996591
183467675,183467114,-0.64983153,0.21027839,0.100868165,-10.402419,-3.794665,0.18636733
183487539,183486997,-0.49285007,0.21957639,0.07287641,-12.567638,-0.99346143,0.27509084
183504949,183504396,-0.44955435,0.18620208,0.0022797263,13.113788,-3.345249,-4.0177355
183524820,183524279,-0.06277089,0.15426958,-0.029879153,30.390017,-1.2705526,-2.9734147
183547192,183546649,-0.087494984,0.2982148,-0.07790066,-4.8551173,9.754153,-1.9742483
183567200,183566533,-0.085319474,0.443781,-0.13229491,-12.47842,6.708006,-1.9664813
183584473,183583931,0.16404031,0.40967065,-0.16976227,13.293216,-5.1075797,-2.3213775
183607156,183606300,-0.27372587,0.32109094,-0.23602486,-32.293213,-2.2710927,-3.4204075
183626729,183626184,-0.27785105,0.30294874,-0.26571476,1.8572173,2.158455,-0.39693233
183644389,183643582,-0.24411891,0.29809335,-0.30996966,-2.8073347,-2.543715,-3.2826033
183666497,183665951,-0.7481745,0.2092074,-0.36215174,-17.02608,-5.849855,-0.7858192
183686389,183685835,-0.54269457,-0.049954582,-0.36517262,-5.647191,-13.552374,1.2998918
183708748,183708204,-0.6418435,-0.28892294,-0.39800978,7.6801496,-7.9046593,-1.967915
183726146,183725602,-0.7606377,-0.3999645,-0.36433712,-9.038476,-7.2187204,3.0875459
183746028,183745486,-0.7797519,-0.5735486,-0.35401234,-14.185023,-12.495463,3.3277962
183768401,183767855,-0.84670436,-0.7582984,-0.35243216,6.499771,-5.1533484,-0.32181063
183785797,183785254,-0.80863404,-0.7938636,-0.31363505,-3.7377934,0.27139062,1.8341316
183805682,183805137,-0.76589423,-0.56823325,-0.29159734,8.857501,10.864696,1.3693683
183828274,183827506,-0.7638349,-0.35424712,-0.25087142,-6.1377697,6.186271,3.0058563
183847948,183847390,-0.7462797,-0.2799949,-0.19518735,-6.388952,0.48219737,5.4035463
183865736,183864788,-0.42113215,-0.18203348,-0.15454692,15.194045,7.5340123,1.7090071
183887698,183887157,-0.35539272,-0.016119508,-0.107392445,5.441183,7.8033924,0.8822436
183907584,183907041,-0.08834414,0.15298991,-0.053610656,32.57455,8.474714,1.731613
183924982,183924440,-0.24572776,0.12928525,0.0009270172,-19.62697,-4.3388424,3.4823427
183944873,183944326,-0.20294361,0.08558706,0.021664364,2.6882284,-4.41122,1.9339554
183967234,183966692,-0.06708066,0.18629105,0.077904776,-4.7577705,4.927652,3.3924434
183989606,183989061,-0.07109168,0.36328104,0.07809411,9.6459255,8.933275,-0.6996427
184004532,184003974,-0.1138555,0.3292683,0.104958944,5.562588,0.77914137,0.9736949
184026888,184026343,-0.0316957,0.10818744,0.12078775,9.945412,-8.453168,-0.7254708
184046867,184046227,-0.13849105,0.0007247883,0.12716144,15.191306,-0.21291827,-1.2055255
184064171,184063625,-0.15655176,-0.024783622,0.15212527,-5.9959326,-2.4527216,1.0426962
184086833,184085995,-0.1370381,0.013565679,0.17318349,-7.383013,-1.083481,1.7313207
184106424,184105878,-0.06055259,-0.11326798,0.17967163,-7.1264195,-10.918565,2.4658484
184128798,184128247,0.095167264,-0.20658322,0.17444323,9.5962715,-0.9119115,0.20228824
184148689,184148131,0.040163826,-0.23848592,0.18375924,-17.12497,-0.9054225,1.298132
184166071,184165529,0.035099037,-0.16499667,0.1598719,11.698664,6.1360326,-1.7645456
184188444,184187899,0.10997457,-0.18554159,0.17337576,-2.9541874,-4.373005,-0.20206644
184205847,184205297,-0.16431335,-0.20285901,0.1648156,-22.883942,-2.273475,0.25988278
184225719,184225180,0.003763822,-0.22567153,0.1683243,-1.885545,-3.607012,2.236669
184248091,184247549,-0.00038304948,-0.14266074,0.1392109,-9.696585,5.7649965,-1.3196797
184265495,184264948,-0.11635358,-0.095608816,0.10901892,3.8342519,3.8580778,-2.35969
184287859,184287317,-0.14350897,-0.051758606,0.115658425,-12.692404,-0.3748268,0.8971794
184305424,184304715,-0.31744865,0.045011703,0.08475766,-10.768632,6.570021,-1.5868766
184325162,184324599,-0.33745858,0.047001425,0.08877847,-0.7334439,0.03486703,1.942483
184345417,184344482,-0.3748412,0.03119241,0.08414081,-20.336464,-4.547333,1.4831259
184367400,184366852,-0.43365029,0.04465137,0.064724915,-10.342197,2.8745964,-0.71203655
184387280,184386736,-0.508086,0.03053718,0.0686348,-11.117568,-1.1323696,1.6769938
184404691,184404133,-0.47091222,0.057493724,0.040438358,6.6391063,3.931273,-2.1672368
184427041,184426503,-0.6270652,-0.04407063,0.036242105,1.5830137,-6.343794,-0.58175355
184446930,184446387,-0.5112752,-0.047872793,0.033242863,15.069846,1.2735053,-1.7686865
184464336,184463785,-0.70307755,-0.06855173,0.04181235,-14.425612,-2.9960907,0.93700016
184484213,184483668,-0.42905807,0.017733071,0.035644773,12.997172,0.998953,-0.2983005
184506586,184506037,-0.49273404,0.08235674,0.043732807,-13.624578,-0.079808086,1.4816588
184526525,184525921,-0.20342788,0.057766713,0.034118358,5.5709786,-7.4034486,0.91865903
184548834,184548290,-0.17781773,-0.027555149,0.015002098,-6.3481374,-4.5792937,0.25233495
184566478,184565689,0.06829367,-0.016766286,-0.023328207,18.117268,4.117804,-3.232269
184586115,184585572,0.073205434,0.04089415,-0.033218805,9.920777,8.053304,-1.4905603
184608494,184607941,0.16479214,0.048234235,-0.046577018,11.73071,0.6865007,-1.7408724
184625895,184625339,0.079012536,-0.030381702,-0.030795254,-6.6493216,-6.1084256,2.0950663
184645767,184645223,0.21307702,-0.027988166,-0.04100959,-3.1009023,-3.7599318,-0.08369303
184668153,184667594,0.09756361,0.04801974,-0.036136646,-14.308909,1.5904118,1.7845329
184688028,184687476,0.18150818,0.07293763,-0.03357796,-12.736446,-4.169477,1.3401582
184705444,184704874,0.18367866,0.080183946,-0.037933495,-2.3655539,1.0708792,0.18600129
184725307,184724758,0.19664697,0.027742105,-0.027453786,-12.815617,-3.979407,1.9629579
184747669,184747127,0.22775693,0.057067595,-0.04593728,5.0979996,4.721206,-0.7598833
184765064,184764525,0.16260123,-0.0016092652,-0.051289737,-1.9276835,-3.3515823,-1.3802819
184785078,184784409,0.04940876,-0.004157137,-0.06091646,7.963295,2.9260836,-2.195368
184807317,184806779,-0.25322008,-0.06705213,-0.061586805,-10.00454,-4.6840816,-0.36870086
184827545,184826662,-0.31230193,-0.014443269,-0.068862796,2.5285485,1.9618837,-1.817787
184844602,184844060,-0.28987333,-0.06316391,-0.046315715,-1.2020128,-6.157781,2.1945019
184866981,184866429,-0.4890465,-0.11821178,-0.067582935,-22.628033,-2.7185516,-0.79979324
184886866,184886313,-0.36696038,-0.2935487,-0.05362873,3.8447833,-9.716889,2.6827495
184904270,184903711,-0.46399146,-0.28575352,-0.091056295,-15.87925,4.8933806,-2.9749749
184926619,184926080,-0.6126988,-0.2649353,-0.10091505,9.898761,1.5436969,-0.9008332
184946513,184945964,-0.3581685,-0.24214932,-0.07869927,14.455072,4.718267,-1.5658048
184968973,184968337,-0.7140211,-0.23753983,-0.07173679,-8.576912,-0.11903592,0.3063587
184986282,184985731,-0.64051,-0.16862391,-0.006465887,0.39846906,1.4794911,5.1471496
185006186,185005615,-0.70581806,-0.10930067,0.016979458,-17.470778,-2.8139226,2.1274674
185028525,185027984,-0.46932936,-0.054539125,0.06831892,2.421789,0.9845669,3.5917957
185046157,185045382,-0.12761046,0.050937016,0.09154717,23.639172,8.920591,0.41526675
185065822,185065268,-0.14802817,0.16306303,0.1424364,-2.145442,9.477333,1.7786939
185088192,185087635,0.06822288,0.21152928,0.15369157,17.29296,4.8272467,-1.1353709
185105578,185105033,-0.09342446,0.13223189,0.17785795,-8.48965,-7.6439114,1.2470267
185125455,185124917,-0.08301084,0.15304857,0.16798013,5.1558123,0.41644487,-1.5795524
185145348,185144800,-0.15913509,0.20049751,0.15800299,9.000682,8.058484,-2.1266525
185165230,185164684,-0.13463248,0.2250941,0.15162899,3.7962658,4.1012115,0.02060621
185185124,185184567,-0.22976997,0.15358235,0.13432981,-17.577177,-8.227089,0.8318763
185204995,185204451,0.005466628,0.074660085,0.107586704,12.308481,-8.534296,-0.94452685
185227378,185226820,0.11774185,0.034214154,0.10656134,-11.995689,-4.5813317,1.0409306
185247250,185246704,0.08311722,0.06723167,0.06425599,-0.013857494,-2.729174,-1.1476827
185264760,185264102,0.14160575,0.08384093,0.07276167,-6.844767,-2.2607563,1.5491555
185287013,185286471,0.3141095,0.11802059,0.053357784,-4.6653285,4.678305,-1.106082
185307210,185306355,0.20592675,0.09489777,0.055143945,1.9488857,-3.391496,2.5191116
185324297,185323753,0.5370648,0.10770766,0.067926586,9.851713,2.278786,0.5663826
185346674,185346122,0.33133978,0.056409646,0.047360543,3.0564125,2.327143,-1.8935723
185366544,185366005,0.4057679,0.043235317,0.08538621,10.867667,3.5873165,1.9894475
185388937,185388375,0.31219873,0.12403715,0.082386374,-3.748231,8.3029995,-1.4226384
185406315,185405773,0.15003109,0.10612953,0.07816269,5.869676,-1.3288438,-0.6936877
185426209,185425656,0.44776103,0.01544276,0.102380745,20.338024,-1.0921519,-0.32719174
185448639,185448026,0.27841344,-0.07350869,0.09272403,6.68736,1.9507701,-1.4827715
185465962,185465424,0.042489983,-0.010963322,0.09426462,-16.778473,2.020762,-0.16606198
185485888,185485308,0.21709359,0.17143399,0.09407061,16.866673,8.008294,-0.68408406
185508221,185507676,0.029263256,-0.029534686,0.089434594,-6.2041373,-15.069914,-1.2202356
185528114,185527560,0.37854362,-0.17112525,0.088119745,26.046967,-1.3531463,-1.2373004
185545500,185544959,0.4136708,-0.19682552,0.085489675,0.24112733,1.6923479,-1.4321343
185565798,185564842,0.27321765,0.014846255,0.06974559,12.91,15.003601,-1.4790683
185587759,185587211,0.25374046,0.08659906,0.0471806,5.8668194,3.7816622,-2.4310837
185605161,185604609,0.039576806,-0.014641932,0.031983834,-11.271007,-8.542392,-0.9380753
185625037,185624493,0.20623304,0.055863794,0.015071406,20.971514,6.6328034,-1.6309806
185647410,185646861,0.0061224406,0.21109489,-0.0067413566,-3.018762,8.485393,-1.6144372
185667287,185666745,0.06870059,0.4076814,-0.008050476,12.193529,11.421611,-1.1835608
185684683,185684143,0.02934946,0.39681077,-0.027044319,4.1240325,-0.6217698,-2.021475
185707063,185706512,-0.11899681,0.28754058,-0.04377255,-5.8044267,-9.64596,-0.36673778
185729421,185728882,-0.12698154,0.23468731,-0.05383823,-8.257487,-5.9037466,0.46697116
185744414,185743795,-0.25800905,0.24298315,-0.084082656,-13.486364,-4.641032,-1.394773
185766705,185766163,-0.25871953,0.1912519,-0.092477635,-9.26011,-10.149265,0.42656076
185786882,185786047,-0.24541128,0.020170826,-0.12976097,0.054536354,-12.020541,-2.4330292
185808964,185808417,-0.30276734,-0.22436602,-0.15280116,-2.9351587,-13.483368,-0.6870034
185828847,185828300,-0.061960004,-0.20968854,-0.17355566,15.590789,2.5445862,-2.3741512
185846248,185845698,-0.23950349,-0.29400754,-0.19378938,-7.8546476,-7.5808783,-1.2295169
185868636,185868067,-0.09890793,-0.414763,-0.19111529,-3.2080755,-10.834561,1.4749233
185886004,185885465,-0.08429148,-0.46209702,-0.20816328,-7.248706,-1.302739,-0.6879949
185905895,185905349,-0.18149483,-0.4702388,-0.21720578,-9.469315,-1.9062544,1.1051494
185925778,185925232,0.08311665,-0.374807,-0.22629511,8.711606,2.4597495,-1.0171418
185945674,185945120,-0.06188651,-0.31929204,-0.24575661,6.7192616,5.8244414,-1.7378234
185968251,185967485,0.112355866,-0.31120118,-0.24218576,17.406351,3.368605,-0.89034516
185987919,185987369,-0.042593397,-0.23288852,-0.24043365,-0.004233911,9.150847,-0.66480684
186008243,186007253,-0.1371021,-0.14910091,-0.21933328,-8.760662,3.4071348,2.3208468
186025207,186024650,-0.044334255,-0.019903876,-0.21835059,4.939948,9.294683,0.05297091
186047568,186047020,-0.16952232,0.030561168,-0.21868819,7.3591065,5.5175886,-1.0545732
186067445,186066903,-0.2769985,0.06862502,-0.18614496,0.6308404,6.0665255,1.5594875
186084854,186084301,-0.36398888,0.13281146,-0.18220939,2.1982565,6.9061174,-0.9183215
186104738,186104185,-0.58857703,0.18541607,-0.15380678,-1.8629497,6.627554,1.3319563
186127099,186126554,-0.51695687,0.2188461,-0.1377279,8.707551,4.9228625,-0.5893961
186146976,186146438,-0.6803745,0.1795832,-0.1076611,-5.1094627,1.2821914,1.5371361
186164387,186163836,-0.44210857,0.17529453,-0.091262415,22.76591,3.09903,0.09877512
186186754,186186205,-0.46249756,0.08381718,-0.065024115,0.24326764,-4.9508348,0.14614663
186204148,186203603,-0.51603806,0.0053474572,-0.03270396,-9.458821,-8.253053,2.765466
186226616,186225972,-0.24121939,-0.044946186,-0.013095577,5.2167897,-1.849363,1.4798329
186246403,186245855,-0.22448106,-0.15140519,0.00074007956,-6.5232143,-8.215303,2.6484394
186266542,186265739,0.11845066,-0.17594159,0.008319154,8.53419,-4.958798,0.27354053
186288669,186288108,0.0776758,-0.19330674,0.02530442,-12.063458,-4.0579014,2.0096748
186306064,186305507,0.27864328,-0.13292532,0.020195266,12.469352,5.777589,-0.1514762
186325931,186325390,0.24289832,-0.13290429,0.031235026,-10.991741,0.5672646,1.2985525
186345816,186345273,0.2678842,-0.08127221,0.025766673,-8.612737,-0.9943678,1.6491688
186365701,186365157,0.3739611,0.010676053,0.009770518,-0.4349782,0.9606862,-0.7875521
186385584,186385041,0.3535853,0.07645823,-0.0016981922,10.334629,3.66946,-2.014398
186405479,186404927,0.33247927,0.0838475,0.003946236,10.182279,5.277969,-1.0531762
186427852,186427295,0.20928828,0.13105473,-0.010380959,3.6792524,3.5700805,-1.722308
186445242,186444692,-0.031401128,0.17195623,0.0028195437,-19.593267,0.11470312,1.9775263
186465139,186464584,-0.033804752,0.17227256,-0.0036634756,-10.550376,-6.1377273,0.2919314
186487949,186486944,-0.14603823,0.100500025,0.0031308578,-16.146711,-5.448477,1.3892252
186507379,186506828,-0.19244751,0.03352854,-0.006955278,-17.31423,-6.381273,1.2269722
186525133,186524226,-0.14278139,0.08126158,-0.019137267,0.70339644,4.1082788,-0.53031105
186547139,186546595,-0.070654355,0.08339707,-0.037127882,16.819923,2.314089,-1.7650682
186567024,186566478,-0.06589676,0.075633034,-0.041769434,12.009337,4.1854787,-1.9099562
186584426,186583878,-0.09082319,0.024970166,-0.045071542,2.2887652,-3.4935129,-0.67744774
186606787,186606246,-0.1681869,0.021941263,-0.04094261,-12.495757,-2.5582898,1.6982263
186626681,186626129,-0.04088103,0.038661137,-0.05560733,-9.176819,-2.6551044,0.83564395
186649040,186648498,-0.016785039,0.09609968,-0.07146532,-2.1113253,2.6063,0.015350108
186666446,186665897,0.2233478,0.08607198,-0.08948253,21.67474,0.20598023,-1.9543921
186686328,186685780,0.10566359,0.03958123,-0.10820439,8.665042,2.1092587,-2.8033147
186706243,186705664,0.12835252,0.0039200503,-0.10381285,7.5494094,3.4200335,-0.64100164
186726086,186725547,0.07078438,0.012204278,-0.10166802,-11.469661,1.8382652,0.72050554
186746209,186745431,0.037191033,0.018929832,-0.10394382,-13.714311,-2.0488796,2.203368
186765873,186765315,0.120077536,-0.026759662,-0.10826486,-11.687255,-6.379176,1.6627787
186788228,186787683,0.08911336,-0.034713577,-0.12523457,-2.6820085,2.0376272,-0.76267433
186805641,186805085,0.107906565,-0.05369683,-0.13393663,5.9766784,-1.1394526,-0.89136785
186825505,186824965,0.10435021,-0.008340016,-0.13757971,14.730609,2.8058305,-1.5589526
186847878,186847334,-0.13250376,0.009804624,-0.12527794,-19.884869,-1.1257539,1.6284364
186865293,186864732,0.13903497,0.033208154,-0.14695752,22.214905,2.1344297,-1.9059547
186885169,186884616,0.023047099,-0.03095858,-0.15754756,-2.2314494,0.76705885,-1.915485
186907530,186906985,0.08133314,-0.17035054,-0.17466576,9.686692,-7.121463,-0.7847693
186927581,186926868,0.060510475,-0.23682225,-0.17775531,7.0493145,-3.5812612,-1.2774541
186944815,186944267,-0.22466183,-0.27620453,-0.16498159,-18.778648,-2.0035326,1.8645197
186967552,186966636,0.044615746,-0.20159984,-0.17161646,19.289093,5.197781,-1.4505519
186987065,186986519,-0.009774824,-0.15186378,-0.1719566,14.96802,6.6270385,-2.1014574
187004780,187003917,-0.015888166,-0.1505423,-0.13751511,-3.5853992,-0.7886052,2.9357693
187026849,187026286,0.11210815,-0.05897964,-0.14597784,6.8697624,6.305609,-1.3094373
187046722,187046170,0.15424867,0.017829759,-0.13335113,7.2155514,7.3439317,-0.56141406
187069086,187068539,-0.0027718956,0.046012416,-0.1264489,-7.6444907,-1.505243,0.53449523
187086485,187085937,-0.059162844,0.060315363,-0.117442615,-3.570634,1.4883668,0.39616823
187106372,187105821,0.059178594,0.05491407,-0.085696615,-1.7497536,2.0954638,1.4232823
187128734,187128190,0.22315109,0.086555116,-0.06918416,13.079132,0.97087777,0.4934023
187146147,187145589,0.23487696,0.1140995,-0.039523404,-4.991408,1.5739263,1.6409167
187166013,187165471,0.1328875,0.061572425,-0.03298268,-11.911167,-2.7446694,1.629801
187185927,187185358,0.108118676,-0.03396624,-0.018319467,-17.434832,-4.2887526,1.7109858
187208269,187207724,0.23255853,-0.04695665,-0.023210282,13.861337,0.5695113,-0.7979839
187225908,187225124,0.07471398,-0.013473772,0.0022866223,-13.625423,1.6143467,1.9804215
187245551,187245006,0.07475921,0.012922058,0.0151997935,-11.033826,-0.9210892,2.3166945
187267916,187267374,0.2174946,-0.020394363,-0.0003672128,12.613853,-1.7775325,-1.6394018
187285329,187284772,0.12694602,-0.07218322,0.03426964,-6.46243,-3.0036418,2.6855617
187305207,187304656,0.01407749,-0.06395901,0.034587298,-19.892757,-1.3138028,2.083915
187327571,187327025,0.13833529,-0.048165027,0.015922563,18.64654,0.72112846,-1.2653013
187347453,187346909,0.2550058,-0.08053189,0.036583606,21.665707,-0.48884195,-0.9542345
187364862,187364307,-0.021832587,-0.11967526,0.05856097,-17.739548,-2.4887705,1.9898412
187387227,187386676,0.3359287,-0.081087105,0.04765243,26.855984,2.5825682,-1.251548
187407254,187406559,0.30248964,-0.017124109,0.05052311,9.606267,5.0787053,-2.0674834
187424518,187423958,0.15153544,0.009256629,0.085235305,-8.933439,0.98220587,3.0117111
187444468,187443841,0.27600828,0.055048548,0.0998381,-11.779945,0.39163437,2.6461682
187466757,187466210,0.33334127,0.08874608,0.071039736,12.181169,2.02058,-2.1150808
187489152,187488583,0.20550564,0.14081688,0.1009131,-15.362042,2.0461495,2.186867
187506524,187505977,0.25809354,0.2344592,0.0751354,7.911633,5.2754745,-2.2243934
187526409,187525861,0.16090469,0.29830405,0.07228617,12.489021,3.4679687,-1.6764623
187546286,187545744,0.1682496,0.2910015,0.07561859,12.705983,-0.16244489,-1.6447695
187566187,187565628,-0.0047013722,0.25260186,0.06732591,5.2810616,-2.1474516,-1.7015173
