timestamp,timestamp_sample,ref_timestamp,ref_lat,ref_lon,x,y,z,delta_xy[0],delta_xy[1],delta_z,vx,vy,vz,z_deriv,delta_vxy[0],delta_vxy[1],delta_vz,ax,ay,az,heading,delta_heading,ref_alt,dist_bottom,eph,epv,evh,evv,vxy_max,vz_max,hagl_min,hagl_max,xy_valid,z_valid,v_xy_valid,v_z_valid,xy_reset_counter,z_reset_counter,vxy_reset_counter,vz_reset_counter,heading_reset_counter,heading_good_for_control,xy_global,z_global,dist_bottom_valid,dist_bottom_sensor_bitfield,dead_reckoning
173926856,173925299,43973845,36.4533956,127.4065695,26.845936,28.471138,-0.77544487,-0.00019583842,0.0002981637,-4.5001507e-05,-0.01857354,-0.0017133299,0.008397608,-0.0021055292,0.040229075,0.0045862254,0.07276097,0.092242874,-0.09805364,0.023580506,-1.3127,-0.012437099,33.46734,0.09881294,0.22676961,0.19860682,0.11726764,0.08398158,inf,inf,inf,inf,1,1,1,1,2,2,2,2,2,0,1,1,0,0,0
174026836,174024720,43973845,36.4533956,127.4065695,26.84733,28.4693,-0.7752825,-0.00019583842,0.0002981637,-4.5001507e-05,-0.011149224,-0.008095359,0.012051311,0.0018622414,0.040229075,0.0045862254,0.07276097,0.07044678,-0.020515816,0.05992962,-1.3136022,-0.012437099,33.46734,0.10065186,0.22491409,0.1972059,0.11607968,0.08347672,inf,inf,inf,inf,1,1,1,1,2,2,2,2,2,0,1,1,0,0,0
174125882,174124139,43973845,36.4533956,127.4065695,26.850067,28.468348,-0.774557,-0.00019583842,0.0002981637,-4.5001507e-05,-0.0046542543,-0.008520835,0.008608349,-0.0009145451,0.040229075,0.0045862254,0.07276097,0.01983621,-0.06400326,-0.02068233,-1.3144784,-0.012437099,33.46734,0.10032344,0.23215216,0.20234308,0.1205167,0.08541644,inf,inf,inf,inf,1,1,1,1,2,2,2,2,2,0,1,1,0,0,0
174225514,174223559,43973845,36.4533956,127.4065695,26.855558,28.467808,-0.7733763,-0.00019583842,0.0002981637,-4.5001507e-05,0.0046690376,-0.0015955911,0.005942022,-0.0021359327,0.040229075,0.0045862254,0.07276097,0.07298054,-0.00452917,-0.09658787,-1.3143915,-0.012437099,33.46734,0.10246259,0.22992156,0.2007288,0.11901208,0.08479885,inf,inf,inf,inf,1,1,1,1,2,2,2,2,2,0,1,1,0,0,0
174324591,174322980,43973845,36.4533956,127.4065695,26.860569,28.467487,-0.7738086,-0.00019583842,0.0002981637,-4.5001507e-05,0.01024749,-0.0059894393,0.0048287534,-0.0033176555,0.040229075,0.0045862254,0.07276097,0.033050116,0.0113940695,0.06317755,-1.3141875,-0.012437099,33.46734,0.0996322,0.22802137,0.19964728,0.117882736,0.08437481,inf,inf,inf,inf,1,1,1,1,2,2,2,2,2,0,1,1,0,0,0
174424002,174422400,43973845,36.4533956,127.4065695,26.867224,28.467737,-0.7740505,-0.00019583842,0.0002981637,-4.5001507e-05,0.017893694,-0.008887454,0.0073923874,-0.0008728151,0.040229075,0.0045862254,0.07276097,-0.024026612,-0.048314992,-0.027396476,-1.3121295,-0.012437099,33.46734,0.099778235,0.2261827,0.19826066,0.11678326,0.083892845,inf,inf,inf,inf,1,1,1,1,2,2,2,2,2,0,1,1,0,0,0
174523546,174521820,43973845,36.4533956,127.4065695,26.875475,28.467281,-0.7737281,-0.00019583842,0.0002981637,-4.5001507e-05,0.020389296,-0.010543055,0.004846815,-0.002895252,0.040229075,0.0045862254,0.07276097,-0.03439119,-0.01626248,-0.048109617,-1.3099324,-0.012437099,33.46734,0.103374004,0.22434247,0.19686902,0.11564934,0.08339945,inf,inf,inf,inf,1,1,1,1,2,2,2,2,2,0,1,1,0,0,0
174623864,174621241,43973845,36.4533956,127.4065695,26.883757,28.46599,-0.7730235,-0.00019583842,0.0002981637,-4.5001507e-05,0.014836029,-0.0097457515,0.00060720765,-0.0059020985,0.040229075,0.0045862254,0.07276097,-0.009689665,0.08639978,-0.029195568,-1.3076575,-0.012437099,33.46734,0.10253507,0.22251925,0.19548428,0.11451309,0.08289773,inf,inf,inf,inf,1,1,1,1,2,2,2,2,2,0,1,1,0,0,0
174722360,174720661,43973845,36.4533956,127.4065695,26.886862,28.46538,-0.77333313,-0.00019583842,0.0002981637,-4.5001507e-05,0.0056362813,-0.009603923,-0.00072003086,-0.0069144648,0.040229075,0.0045862254,0.07276097,-0.05832785,-0.05579435,0.0064980816,-1.3055995,-0.012437099,33.46734,0.101301074,0.22958134,0.2005838,0.11896342,0.08484744,inf,inf,inf,inf,1,1,1,1,2,2,2,2,2,0,1,1,0,0,0
174821625,174820081,43973845,36.4533956,127.4065695,26.890276,28.464602,-0.7752918,-0.00019583842,0.0002981637,-4.5001507e-05,-0.00044833764,-0.011109059,-0.0049507725,-0.012202276,0.040229075,0.0045862254,0.07276097,-0.024765674,0.0384387,-0.004006578,-1.3038534,-0.012437099,33.46734,0.098517,0.22769465,0.19917606,0.11784883,0.08435704,inf,inf,inf,inf,1,1,1,1,2,2,2,2,2,0,1,1,0,0,0
174921075,174919501,43973845,36.4533956,127.4065695,26.893625,28.464762,-0.7787368,-0.00019583842,0.0002981637,-4.5001507e-05,-0.006719098,-0.009103688,-0.0075757876,-0.017030219,0.040229075,0.0045862254,0.07276097,-0.09924912,-0.037001874,-0.03824313,-1.3033985,-0.012437099,33.46734,0.095606804,0.22585277,0.19779491,0.11677251,0.083876364,inf,inf,inf,inf,1,1,1,1,2,2,2,2,2,0,1,1,0,0,0
175030316,175028863,43973845,36.4533956,127.4065695,26.896168,28.465082,-0.78303915,-0.00019583842,0.0002981637,-4.5001507e-05,-0.0135999285,-0.007673054,-0.011088641,-0.022713732,0.040229075,0.0045862254,0.07276097,-0.13666429,0.008854458,0.020866912,-1.3036976,-0.012437099,33.46734,0.096956134,0.22472122,0.196976,0.1161093,0.08359112,inf,inf,inf,inf,1,1,1,1,2,2,2,2,2,0,1,1,0,0,0
175120013,175118341,43973845,36.4533956,127.4065695,26.89726,28.46507,-0.78666663,-0.00019583842,0.0002981637,-4.5001507e-05,-0.01185503,-0.00753077,-0.011506458,-0.0246341,0.040229075,0.0045862254,0.07276097,0.050554603,0.038063247,-0.021469206,-1.304212,-0.012437099,33.46734,0.09780723,0.23121253,0.20155133,0.12013477,0.08533136,inf,inf,inf,inf,1,1,1,1,2,2,2,2,2,0,1,1,0,0,0
175229346,175227704,43973845,36.4533956,127.4065695,26.897911,28.465815,-0.7908622,-0.00019583842,0.0002981637,-4.5001507e-05,-0.0040057465,-0.00894633,-0.011670488,-0.02612539,0.040229075,0.0045862254,0.07276097,0.06307416,0.03855309,0.049584843,-1.3070993,-0.012437099,33.46734,0.097816825,0.22981136,0.20057514,0.119195834,0.084953144,inf,inf,inf,inf,1,1,1,1,2,2,2,2,2,0,1,1,0,0,0
175318665,175317182,43973845,36.4533956,127.4065695,26.899332,28.466942,-0.79482895,-0.00019583842,0.0002981637,-4.5001507e-05,0.0030374439,-0.006684232,-0.0063578924,-0.022642873,0.040229075,0.0045862254,0.07276097,0.106013544,0.05973222,0.014813221,-1.3086777,-0.012437099,33.46734,0.0960353,0.22721961,0.19859584,0.1176564,0.08426151,inf,inf,inf,inf,1,1,1,1,2,2,2,2,2,0,1,1,0,0,0
175428262,175426544,43973845,36.4533956,127.4065695,26.904533,28.466932,-0.79647166,-0.00019583842,0.0002981637,-4.5001507e-05,0.011435491,-0.008009377,-0.0033426916,-0.018834947,0.040229075,0.0045862254,0.07276097,0.013415896,-0.019100253,0.056064945,-1.3084453,-0.012437099,33.46734,0.102694154,0.22610833,0.19779897,0.117017575,0.083994,inf,inf,inf,inf,1,1,1,1,2,2,2,2,2,0,1,1,0,0,0
175517634,175516022,43973845,36.4533956,127.4065695,26.908537,28.46579,-0.79723525,-0.00019583842,0.0002981637,-4.5001507e-05,0.018768867,-0.007959902,-0.007646503,-0.022056267,0.040229075,0.0045862254,0.07276097,0.04902881,0.013928059,-0.07646052,-1.3083183,-0.012437099,33.46734,0.102221966,0.22359502,0.19585976,0.11547942,0.08330056,inf,inf,inf,inf,1,1,1,1,2,2,2,2,2,0,1,1,0,0,0
175626870,175625385,43973845,36.4533956,127.4065695,26.912016,28.463654,-0.7996438,-0.00019583842,0.0002981637,-4.5001507e-05,0.021071555,-0.0052273665,-0.017146137,-0.031130573,0.040229075,0.0045862254,0.07276097,-0.014459478,0.05626481,-0.026152235,-1.3100564,-0.012437099,33.46734,0.09878546,0.22248505,0.19504698,0.11482262,0.08300918,inf,inf,inf,inf,1,1,1,1,2,2,2,2,2,0,1,1,0,0,0
175726414,175724805,43973845,36.4533956,127.4065695,26.9154,28.46203,-0.8033059,-0.00019583842,0.0002981637,-4.5001507e-05,0.021584867,-0.006893697,-0.015022858,-0.029741915,0.040229075,0.0045862254,0.07276097,0.009656404,-0.048731808,-0.05711464,-1.3113614,-0.012437099,33.46734,0.10007346,0.22958381,0.20015779,0.11930227,0.084957846,inf,inf,inf,inf,1,1,1,1,2,2,2,2,2,0,1,1,0,0,0
175825741,175824225,43973845,36.4533956,127.4065695,26.91802,28.459713,-0.80699885,-0.00019583842,0.0002981637,-4.5001507e-05,0.022629697,-0.0047827708,-0.018108169,-0.03348886,0.040229075,0.0045862254,0.07276097,0.028350048,0.080490366,-0.041268475,-1.3092752,-0.012437099,33.46734,0.10005659,0.22771683,0.19876981,0.11819499,0.08447312,inf,inf,inf,inf,1,1,1,1,2,2,2,2,2,0,1,1,0,0,0
175925313,175923645,43973845,36.4533956,127.4065695,26.92172,28.4593,-0.81156355,-0.00019583842,0.0002981637,-4.5001507e-05,0.018040223,-0.00052060914,-0.026334142,-0.042538367,0.040229075,0.0045862254,0.07276097,-0.026174348,0.020949839,-0.018615363,-1.3057085,-0.012437099,33.46734,0.0997138,0.22590761,0.19740672,0.11713588,0.08399706,inf,inf,inf,inf,1,1,1,1,2,2,2,2,2,0,1,1,0,0,0
176024659,176023066,43973845,36.4533956,127.4065695,26.925545,28.459324,-0.8171257,-0.00019583842,0.0002981637,-4.5001507e-05,0.018153802,-0.0020428002,-0.029659474,-0.047038604,0.040229075,0.0045862254,0.07276097,-0.007127182,0.02398922,-0.022907134,-1.3043319,-0.012437099,33.46734,0.0981732,0.22409226,0.19604348,0.11605965,0.083508916,inf,inf,inf,inf,1,1,1,1,2,2,2,2,2,0,1,1,0,0,0
176124049,176122486,43973845,36.4533956,127.4065695,26.92916,28.45933,-0.8232319,-0.00019583842,0.0002981637,-4.5001507e-05,0.015521835,-0.0025876253,-0.030506698,-0.049090333,0.040229075,0.0045862254,0.07276097,0.025077887,-0.015604749,0.017644472,-1.3039469,-0.012437099,33.46734,0.09987402,0.23133169,0.20120262,0.12054166,0.08545524,inf,inf,inf,inf,1,1,1,1,2,2,2,2,2,0,1,1,0,0,0
176223445,176221906,43973845,36.4533956,127.4065695,26.930351,28.460337,-0.8277938,-0.00019583842,0.0002981637,-4.5001507e-05,0.014186694,-0.009408642,-0.02983539,-0.048004806,0.040229075,0.0045862254,0.07276097,-0.046337567,-0.11996769,0.014290886,-1.3037574,-0.012437099,33.46734,0.10383505,0.22915931,0.19962327,0.1191012,0.08485031,inf,inf,inf,inf,1,1,1,1,2,2,2,2,2,0,1,1,0,0,0
176323090,176321326,43973845,36.4533956,127.4065695,26.93292,28.46148,-0.8316976,-0.00019583842,0.0002981637,-4.5001507e-05,0.014917032,-0.006376764,-0.025877248,-0.04335256,0.040229075,0.0045862254,0.07276097,0.05022346,0.013692285,-0.04868983,-1.3042228,-0.012437099,33.46734,0.103208125,0.22731283,0.19824325,0.11802211,0.08437033,inf,inf,inf,inf,1,1,1,1,2,2,2,2,2,0,1,1,0,0,0
176422167,176420747,43973845,36.4533956,127.4065695,26.934456,28.462994,-0.837917,-0.00019583842,0.0002981637,-4.5001507e-05,0.013175691,0.00027979322,-0.031549476,-0.050622,0.040229075,0.0045862254,0.07276097,0.06476159,0.17422602,-0.3054043,-1.3038172,-0.012437099,33.46734,0.097818136,0.22552203,0.19689819,0.116963126,0.08390065,inf,inf,inf,inf,1,1,1,1,2,2,2,2,2,0,1,1,0,0,0
176521856,176520167,43973845,36.4533956,127.4065695,26.935736,28.464802,-0.84453464,-0.00019583842,0.0002981637,-4.5001507e-05,0.011434224,-3.889251e-05,-0.033429127,-0.053779814,0.040229075,0.0045862254,0.07276097,-0.026766542,-0.042819846,0.046428356,-1.3028178,-0.012437099,33.46734,0.100213766,0.22367917,0.19551206,0.11584003,0.08339594,inf,inf,inf,inf,1,1,1,1,2,2,2,2,2,0,1,1,0,0,0
176621182,176619587,43973845,36.4533956,127.4065695,26.937468,28.466688,-0.85027313,-0.00019583842,0.0002981637,-4.5001507e-05,0.014778601,0.008650658,-0.029334242,-0.050049473,0.040229075,0.0045862254,0.07276097,0.16734062,0.111388296,0.061012518,-1.3038125,-0.012437099,33.46734,0.100931466,0.22189589,0.19415034,0.11473937,0.08290072,inf,inf,inf,inf,1,1,1,1,2,2,2,2,2,0,1,1,0,0,0
176720830,176719007,43973845,36.4533956,127.4065695,26.94073,28.47016,-0.85529804,-0.00019583842,0.0002981637,-4.5001507e-05,0.019586759,0.04208393,-0.029432604,-0.05015934,0.040229075,0.0045862254,0.07276097,-0.061095465,0.72640836,0.018770078,-1.3064041,-0.012437099,33.46734,0.10239583,0.22899969,0.1992549,0.11917758,0.08484723,inf,inf,inf,inf,1,1,1,1,2,2,2,2,2,0,1,1,0,0,0
176820124,176818428,43973845,36.4533956,127.4065695,26.94392,28.479197,-0.86066306,-0.00019583842,0.0002981637,-4.5001507e-05,0.016138827,0.1406048,-0.038211174,-0.058955148,0.040229075,0.0045862254,0.07276097,-0.0020387995,1.0644395,-0.04564624,-1.3093953,-0.012437099,33.46734,0.10231787,0.22710629,0.19785196,0.11803516,0.08434465,inf,inf,inf,inf,1,1,1,1,2,2,2,2,2,0,1,1,0,0,0
176919571,176917848,43973845,36.4533956,127.4065695,26.945127,28.500446,-0.8652152,-0.00019583842,0.0002981637,-4.5001507e-05,0.013501923,0.2166891,-0.024967598,-0.04529634,0.040229075,0.0045862254,0.07276097,0.2883602,-0.19895542,-0.16075954,-1.3149476,-0.012437099,33.46734,0.10326272,0.22530448,0.19650654,0.117038734,0.08387571,inf,inf,inf,inf,1,1,1,1,2,2,2,2,2,0,1,1,0,0,0
177028887,177027210,43973845,36.4533956,127.4065695,26.947119,28.523632,-0.86940855,-0.00019583842,0.0002981637,-4.5001507e-05,0.02510794,0.14352602,-0.023254206,-0.043312795,0.040229075,0.0045862254,0.07276097,-0.07935429,-1.193672,0.013665883,-1.3059846,-0.012437099,33.46734,0.10094619,0.22421287,0.19571964,0.11638005,0.08359976,inf,inf,inf,inf,1,1,1,1,2,2,2,2,2,0,1,1,0,0,0
177128415,177126630,43973845,36.4533956,127.4065695,26.94835,28.532158,-0.8727083,-0.00019583842,0.0002981637,-4.5001507e-05,0.016629923,-0.029503396,-0.014174839,-0.034071524,0.040229075,0.0045862254,0.07276097,0.20366406,-2.0962126,-0.038375143,-1.2818981,-0.012437099,33.46734,0.10136086,0.23150705,0.20089577,0.12080411,0.08553966,inf,inf,inf,inf,1,1,1,1,2,2,2,2,2,0,1,1,0,0,0
177227751,177226051,43973845,36.4533956,127.4065695,26.952215,28.52335,-0.8747558,-0.00019583842,0.0002981637,-4.5001507e-05,0.033323903,-0.20120412,-0.017913306,-0.036340483,0.040229075,0.0045862254,0.07276097,0.046549886,-1.348502,-0.0786915,-1.2647524,-0.012437099,33.46734,0.10556209,0.22923918,0.19925901,0.11920631,0.08488782,inf,inf,inf,inf,1,1,1,1,2,2,2,2,2,0,1,1,0,0,0
177327255,177325471,43973845,36.4533956,127.4065695,26.953382,28.501053,-0.87580293,-0.00019583842,0.0002981637,-4.5001507e-05,0.0469058,-0.26111475,-0.033104956,-0.048255175,0.040229075,0.0045862254,0.07276097,-0.23446138,0.071049035,-0.0021862742,-1.2662141,-0.012437099,33.46734,0.10902721,0.22735853,0.19785947,0.118190356,0.08439272,inf,inf,inf,inf,1,1,1,1,2,2,2,2,2,0,1,1,0,0,0
177426534,177424891,43973845,36.4533956,127.4065695,26.953892,28.474468,-0.8761792,-0.00019583842,0.0002981637,-4.5001507e-05,0.020794122,-0.22274241,-0.0027500377,-0.014972285,0.040229075,0.0045862254,0.07276097,-0.26152632,0.5898272,0.41786924,-1.279479,-0.012437099,33.46734,0.10949111,0.2255218,0.1964961,0.117209755,0.08390904,inf,inf,inf,inf,1,1,1,1,2,2,2,2,2,0,1,1,0,0,0
177525947,177524311,43973845,36.4533956,127.4065695,26.953186,28.453398,-0.87441397,-0.00019583842,0.0002981637,-4.5001507e-05,0.008394171,-0.14746009,0.018772747,0.008342481,0.040229075,0.0045862254,0.07276097,-0.09735709,0.81079394,0.2214166,-1.3014748,-0.012437099,33.46734,0.10236806,0.22369596,0.19542484,0.11597274,0.083469525,inf,inf,inf,inf,1,1,1,1,2,2,2,2,2,0,1,1,0,0,0
177625377,177623732,43973845,36.4533956,127.4065695,26.952421,28.441044,-0.869754,-0.00019583842,0.0002981637,-4.5001507e-05,-0.008706252,-0.071480826,0.060723808,0.051915843,0.040229075,0.0045862254,0.07276097,-0.40078035,0.46589985,0.45912698,-1.3232596,-0.012437099,33.46734,0.10594547,0.22188362,0.19404916,0.114738375,0.082957864,inf,inf,inf,inf,1,1,1,1,2,2,2,2,2,0,1,1,0,0,0
177724792,177723152,43973845,36.4533956,127.4065695,26.949846,28.419415,-0.86301434,-0.00019583842,0.0002981637,-4.5001507e-05,0.03480882,-0.6790711,-0.13872565,-0.14450975,0.040229075,0.0045862254,0.07276097,6.626636,-21.300049,-9.20293,-1.3418118,-0.012437099,33.46734,0.103307426,0.22901775,0.19918635,0.11902604,0.08490695,inf,inf,inf,inf,1,1,1,1,2,2,2,2,2,0,1,1,0,0,0
177824051,177822572,43973845,36.4533956,127.4065695,26.995325,28.243109,-0.914789,-0.00019583842,0.0002981637,-4.5001507e-05,0.39271638,-2.2522116,-0.48111013,-0.48475447,0.040229075,0.0045862254,0.07276097,-13.872102,10.158678,13.4887085,-1.384955,-0.012437099,33.46734,0.16011924,0.22714342,0.1977897,0.119248815,0.08445107,inf,inf,inf,inf,1,1,1,1,2,2,2,2,2,0,1,1,0,0,0
177923518,177921993,43973845,36.4533956,127.4065695,26.999691,28.153187,-0.93277603,-0.00019583842,0.0002981637,-4.5001507e-05,-0.13162722,0.32103497,-0.107857965,-0.11031643,0.040229075,0.0045862254,0.07276097,2.3153696,10.2703085,2.0003655,-1.3961604,-0.012437099,33.46734,0.1567244,0.22531871,0.19640478,0.12520784,0.083118975,inf,inf,inf,inf,1,1,1,1,2,2,2,2,2,0,1,1,0,0,0
178022929,178021413,43973845,36.4533956,127.4065695,27.00832,28.184063,-0.9409402,-0.00019583842,0.0002981637,-4.5001507e-05,0.06853557,0.38475323,-0.043891463,-0.049493622,0.040229075,0.0045862254,0.07276097,1.7031959,-2.0551407,-0.80347985,-1.3675841,-0.012437099,33.46734,0.16488856,0.22352315,0.19500816,0.1165417,0.080939144,inf,inf,inf,inf,1,1,1,1,2,2,2,2,2,0,1,1,0,0,0
178122400,178120834,43973845,36.4533956,127.4065695,27.027206,28.201088,-0.9536085,-0.00019583842,0.0002981637,-4.5001507e-05,0.062971815,0.44608364,-0.05334257,-0.06379713,0.040229075,0.0045862254,0.07276097,0.3988013,0.09151991,2.4113457,-1.3307273,-0.012437099,33.46734,0.17755687,0.2307686,0.2000224,0.120947175,0.081566386,inf,inf,inf,inf,1,1,1,1,2,2,2,2,2,0,1,1,0,0,0
178221852,178220254,43973845,36.4533956,127.4065695,27.034456,28.259745,-0.9575254,-0.00019583842,0.0002981637,-4.5001507e-05,0.15161668,0.45687744,-0.03613359,-0.04428128,0.040229075,0.0045862254,0.07276097,-0.40631962,-0.06910443,0.91550916,-1.3163079,-0.012437099,33.46734,0.18147373,0.22891839,0.19851398,0.12019572,0.08001882,inf,inf,inf,inf,1,1,1,1,2,2,2,2,2,0,1,1,0,0,0
178321281,178319674,43973845,36.4533956,127.4065695,27.045927,28.317415,-0.95728123,-0.00019583842,0.0002981637,-4.5001507e-05,0.134391,0.47299966,0.01917689,0.012342708,0.040229075,0.0045862254,0.07276097,-0.15833603,0.58369577,1.5075283,-1.3219837,-0.012437099,33.46734,0.18122959,0.22704771,0.19701675,0.11922315,0.0785709,inf,inf,inf,inf,1,1,1,1,2,2,2,2,2,0,1,1,0,0,0
178420746,178419094,43973845,36.4533956,127.4065695,27.053204,28.37837,-0.9511352,-0.00019583842,0.0002981637,-4.5001507e-05,0.11957643,0.5047014,0.070517614,0.064937115,0.040229075,0.0045862254,0.07276097,-0.46245766,-0.8719282,0.73296684,-1.3434368,-0.012437099,33.46734,0.17508358,0.22525136,0.19555548,0.118236884,0.07727596,inf,inf,inf,inf,1,1,1,1,2,2,2,2,2,0,1,1,0,0,0
178530016,178528456,43973845,36.4533956,127.4065695,27.061907,28.43766,-0.93948567,-0.00019583842,0.0002981637,-4.5001507e-05,0.11958405,0.39614156,0.099077776,0.09570186,0.040229075,0.0045862254,0.07276097,-0.62321275,-2.299748,-0.020004869,-1.3386995,-0.012437099,33.46734,0.16343403,0.22417942,0.19462907,0.11782029,0.07621281,inf,inf,inf,inf,1,1,1,1,2,2,2,2,2,0,1,1,0,0,0
178620534,178617934,43973845,36.4533956,127.4065695,27.072186,28.468094,-0.92742133,-0.00019583842,0.0002981637,-4.5001507e-05,0.13322897,0.15290229,0.116226874,0.115644984,0.040229075,0.0045862254,0.07276097,0.18415058,-4.372953,-0.07451271,-1.298252,-0.012437099,33.46734,0.15136969,0.2217339,0.19265413,0.116400994,0.07504892,inf,inf,inf,inf,1,1,1,1,2,2,2,2,2,0,1,1,0,0,0
178728807,178727297,43973845,36.4533956,127.4065695,27.085495,28.464857,-0.9099993,-0.00019583842,0.0002981637,-4.5001507e-05,0.13527149,-0.31263962,0.08578707,0.09123207,0.040229075,0.0045862254,0.07276097,-0.36882225,-4.249399,-0.47739288,-1.2762165,-0.012437099,33.46734,0.13394767,0.2295712,0.19778042,0.12181725,0.07615511,inf,inf,inf,inf,1,1,1,1,2,2,2,2,2,0,1,1,0,0,0
178818313,178816779,43973845,36.4533956,127.4065695,27.090162,28.419664,-0.89928615,-0.00019583842,0.0002981637,-4.5001507e-05,0.07838498,-0.7494067,-0.0076425346,0.002806243,0.040229075,0.0045862254,0.07276097,-0.8488612,-5.1344557,-2.1277359,-1.2791843,-0.012437099,33.46734,0.12323451,0.22701675,0.19574949,0.12094507,0.07520053,inf,inf,inf,inf,1,1,1,1,2,2,2,2,2,0,1,1,0,0,0
178927656,178926137,43973845,36.4533956,127.4065695,27.08972,28.301867,-0.9132696,-0.00019583842,0.0002981637,-4.5001507e-05,0.064548776,-1.4607521,-0.48466378,-0.46934223,0.040229075,0.0045862254,0.07276097,1.3976641,-9.698513,-7.1529684,-1.2933782,-0.012437099,33.46734,0.13721794,0.22598656,0.19478644,0.1221839,0.074668005,inf,inf,inf,inf,1,1,1,1,2,2,2,2,2,0,1,1,0,0,0
179017220,179015615,43973845,36.4533956,127.4065695,27.107235,28.096899,-0.99069244,-0.00019583842,0.0002981637,-4.5001507e-05,0.49455187,-3.46399,-1.6045164,-1.584058,0.040229075,0.0045862254,0.07276097,6.547446,-35.967987,-17.91818,-1.325197,-0.012437099,33.46734,0.21816653,0.2235213,0.19281416,0.12388091,0.074044965,inf,inf,inf,inf,1,1,1,1,2,2,2,2,2,0,1,1,0,0,0
179126445,179124977,43973845,36.4533956,127.4065695,27.194345,27.486876,-1.1979046,-0.00019583842,0.0002981637,-4.5001507e-05,1.0358098,-6.9977655,-1.9139135,-1.8861045,0.040229075,0.0045862254,0.07276097,-0.19214804,-4.631903,-3.8435318,-1.3380889,-0.012437099,33.46734,0.42537868,0.23173383,0.19777001,0.15069649,0.07691165,inf,inf,inf,inf,1,1,1,1,2,2,2,2,2,0,1,1,0,0,0
179225988,179224397,43973845,36.4533956,127.4065695,27.307205,26.754091,-1.3415557,-0.00019583842,0.0002981637,-4.5001507e-05,1.1958199,-7.6882677,-1.3222418,-1.2884343,0.040229075,0.0045862254,0.07276097,1.3293375,-7.4284487,4.9014707,-1.3458353,-0.012437099,33.46734,0.5690298,0.23413669,0.1974341,0.18952192,0.08117715,inf,inf,inf,inf,1,1,1,1,2,2,2,2,2,0,1,1,0,0,0
179325590,179323817,43973845,36.4533956,127.4065695,27.497217,25.923666,-1.4281394,-0.00019583842,0.0002981637,-4.5001507e-05,1.4522632,-8.4533615,-0.5113973,-0.48211056,0.040229075,0.0045862254,0.07276097,1.5564158,-8.282716,9.7398,-1.3609576,-0.012437099,33.46734,0.65561354,0.23185188,0.19592512,0.17929973,0.08074717,inf,inf,inf,inf,1,1,1,1,2,2,2,2,2,0,1,1,0,0,0
179424883,179423237,43973845,36.4533956,127.4065695,27.712067,25.03023,-1.4281142,-0.00019583842,0.0002981637,-4.5001507e-05,1.6157924,-9.206823,0.40924698,0.43796048,0.040229075,0.0045862254,0.07276097,0.43839008,-7.710198,10.63131,-1.3813698,-0.012437099,33.46734,0.65558827,0.23014627,0.1945875,0.17229503,0.08057577,inf,inf,inf,inf,1,1,1,1,2,2,2,2,2,0,1,1,0,0,0
179524450,179522657,43973845,36.4533956,127.4065695,27.93216,24.072409,-1.353145,-0.00019583842,0.0002981637,-4.5001507e-05,1.7458645,-9.901676,0.9291167,0.95673054,0.040229075,0.0045862254,0.07276097,0.586506,-6.7177286,1.608483,-1.4057173,-0.012437099,33.46734,0.5806191,0.22803344,0.19312966,0.16408007,0.08025709,inf,inf,inf,inf,1,1,1,1,2,2,2,2,2,0,1,1,0,0,0
179623796,179622076,43973845,36.4533956,127.4065695,28.142193,23.056616,-1.2674943,-0.00019583842,0.0002981637,-4.5001507e-05,1.7317864,-10.509721,0.795785,0.818818,0.040229075,0.0045862254,0.07276097,-1.5363339,-6.2077427,-2.222643,-1.4505881,-0.012437099,33.46734,0.4949684,0.22610085,0.19174942,0.16238132,0.08002091,inf,inf,inf,inf,1,1,1,1,2,2,2,2,2,0,1,1,0,0,0
179723083,179721496,43973845,36.4533956,127.4065695,28.323866,21.979855,-1.1889634,-0.00019583842,0.0002981637,-4.5001507e-05,1.5504769,-11.143655,0.8612008,0.8813333,0.040229075,0.0045862254,0.07276097,-2.0082655,-6.6250625,1.0169096,-1.4966701,-0.012437099,33.46734,0.4164375,0.23424381,0.1961876,0.17081264,0.081974484,inf,inf,inf,inf,1,1,1,1,2,2,2,2,2,0,1,1,0,0,0
179822414,179820916,43973845,36.4533956,127.4065695,28.479218,20.834526,-1.0945165,-0.00019583842,0.0002981637,-4.5001507e-05,1.4157183,-11.805765,1.1100141,1.1258498,0.040229075,0.0045862254,0.07276097,-1.5115864,-6.4437594,1.5893395,-1.5430295,-0.012437099,33.46734,0.3219906,0.23207702,0.19510026,0.16332935,0.081763394,inf,inf,inf,inf,1,1,1,1,2,2,2,2,2,0,1,1,0,0,0
179921921,179920336,43973845,36.4533956,127.4065695,28.610844,19.625889,-0.9891003,-0.00019583842,0.0002981637,-4.5001507e-05,1.1926854,-12.429128,1.095336,1.1031612,0.040229075,0.0045862254,0.07276097,-4.0204763,-5.776264,-1.0791025,-1.6062254,-0.012437099,33.46734,0.21657437,0.23016027,0.19380063,0.15740636,0.081665665,inf,inf,inf,inf,1,1,1,1,2,2,2,2,2,0,1,1,0,0,0
180021558,180019756,43973845,36.4533956,127.4065695,28.699802,18.359737,-0.8941204,-0.00019583842,0.0002981637,-4.5001507e-05,0.69652677,-12.993269,0.900026,0.90324354,0.040229075,0.0045862254,0.07276097,-5.526688,-5.56834,-1.2553265,-1.6573598,-0.012437099,33.46734,0.12159449,0.22825842,0.192519,0.15223451,0.08153009,inf,inf,inf,inf,1,1,1,1,2,2,2,2,2,0,1,1,0,0,0
180120646,180119175,43973845,36.4533956,127.4065695,28.737766,17.039585,-0.8049396,-0.00019583842,0.0002981637,-4.5001507e-05,0.27837086,-13.559653,1.0339458,1.0369623,0.040229075,0.0045862254,0.07276097,-3.0234363,-5.7079616,4.833163,-1.689591,-0.012437099,33.46734,0.03241372,0.2366058,0.19703594,0.15991819,0.08372259,inf,inf,inf,inf,1,1,1,1,2,2,2,2,2,0,1,1,0,0,0
180220172,180218595,43973845,36.4533956,127.4065695,28.7539,15.678561,-0.6955826,-0.00019583842,0.0002981637,-4.5001507e-05,-0.10040317,-14.086798,1.0645528,1.0661486,0.040229075,0.0045862254,0.07276097,-4.597766,-5.0007744,-2.9128041,-1.7205294,-0.012437099,33.46734,0.0,0.23442653,0.19571899,0.15471378,0.08359802,inf,inf,inf,inf,1,1,1,1,2,2,2,2,2,0,1,1,0,0,0
180319622,180318015,43973845,36.4533956,127.4065695,28.737339,14.27122,-0.6191276,-0.00019583842,0.0002981637,-4.5001507e-05,-0.628279,-14.504987,0.5844987,0.5829529,0.040229075,0.0045862254,0.07276097,-5.6927834,-4.8227673,-1.5358114,-1.7385521,-0.012437099,33.46734,0.013191462,0.23294419,0.1946525,0.15139285,0.08372499,inf,inf,inf,inf,1,1,1,1,2,2,2,2,2,0,1,1,0,0,0
180418865,180417434,43973845,36.4533956,127.4065695,28.668934,12.813947,-0.5564104,-0.00019583842,0.0002981637,-4.5001507e-05,-1.0627012,-14.971343,0.7615199,0.7615137,0.040229075,0.0045862254,0.07276097,-4.303261,-4.960704,3.5988843,-1.7468605,-0.012437099,33.46734,0.043771088,0.23118208,0.1935285,0.14830963,0.08362065,inf,inf,inf,inf,1,1,1,1,2,2,2,2,2,0,1,1,0,0,0
180528380,180526795,43973845,36.4533956,127.4065695,28.549011,11.1513195,-0.46412662,-0.00019583842,0.0002981637,-4.5001507e-05,-1.4710203,-15.4634285,0.7315793,0.7314697,0.040229075,0.0045862254,0.07276097,-4.4709516,-3.4513652,-6.1929,-1.7536315,-0.012437099,33.46734,0.005019903,0.2301655,0.19290836,0.14490831,0.083784014,inf,inf,inf,inf,1,1,1,1,2,2,2,2,2,0,1,1,0,0,0
180627745,180626215,43973845,36.4533956,127.4065695,28.400692,9.595781,-0.41486385,-0.00019583842,0.0002981637,-4.5001507e-05,-1.8309687,-15.829828,0.3396188,0.33745554,0.040229075,0.0045862254,0.07276097,-3.9884815,-3.1465826,-4.7381606,-1.7536144,-0.012437099,33.46734,0.047463477,0.22838496,0.1918047,0.14147443,0.08368782,inf,inf,inf,inf,1,1,1,1,2,2,2,2,2,0,1,1,0,0,0
180727363,180725635,43973845,36.4533956,127.4065695,28.208544,8.006355,-0.40390363,-0.00019583842,0.0002981637,-4.5001507e-05,-2.2306228,-16.130024,-0.14012672,-0.14058849,0.040229075,0.0045862254,0.07276097,-3.8346224,-2.6735454,-4.4130588,-1.7501514,-0.012437099,33.46734,0.09405255,0.23653607,0.19640763,0.14819938,0.08599014,inf,inf,inf,inf,1,1,1,1,2,2,2,2,2,0,1,1,0,0,0
180826523,180825054,43973845,36.4533956,127.4065695,28.001183,6.3929577,-0.4497702,-0.00019583842,0.0002981637,-4.5001507e-05,-2.5446749,-16.36468,-0.8161986,-0.81759423,0.040229075,0.0045862254,0.07276097,-2.7429044,-2.6406012,-5.5397286,-1.7453344,-0.012437099,33.46734,0.14594302,0.23484349,0.19538137,0.14559859,0.08582705,inf,inf,inf,inf,1,1,1,1,2,2,2,2,2,0,1,1,0,0,0
180926185,180924473,43973845,36.4533956,127.4065695,27.773674,4.756285,-0.5487008,-0.00019583842,0.0002981637,-4.5001507e-05,-2.7664716,-16.647558,-1.032825,-1.0374163,0.040229075,0.0045862254,0.07276097,-2.5894532,-3.277658,0.46077493,-1.7507836,-0.012437099,33.46734,0.24487361,0.23300874,0.19430044,0.14293464,0.085439615,inf,inf,inf,inf,1,1,1,1,2,2,2,2,2,0,1,1,0,0,0
181025482,181023893,43973845,36.4533956,127.4065695,27.536325,3.0976071,-0.6631495,-0.00019583842,0.0002981637,-4.5001507e-05,-2.9833941,-16.884247,-1.2303629,-1.2414246,0.040229075,0.0045862254,0.07276097,-2.8817694,-1.542625,-5.7817173,-1.7539788,-0.012437099,33.46734,0.35932228,0.23126584,0.19324598,0.13958369,0.08507643,inf,inf,inf,inf,1,1,1,1,2,2,2,2,2,0,1,1,0,0,0
181124898,181123312,43973845,36.4533956,127.4065695,27.28129,1.4272535,-0.83424556,-0.00019583842,0.0002981637,-4.5001507e-05,-3.157762,-16.985758,-1.9480455,-1.9651523,0.040229075,0.0045862254,0.07276097,-2.198398,-1.8185463,-3.251988,-1.7519794,-0.012437099,33.46734,0.5304184,0.23957917,0.19797523,0.14528953,0.08722535,inf,inf,inf,inf,1,1,1,1,2,2,2,2,2,0,1,1,0,0,0
181225471,181222731,43973845,36.4533956,127.4065695,27.027693,-0.24920388,-1.0346828,-0.00019583842,0.0002981637,-4.5001507e-05,-3.3277495,-17.231537,-1.9008664,-1.9250197,0.040229075,0.0045862254,0.07276097,-2.6736312,-1.9121475,-1.2550912,-1.7553488,-0.012437099,33.46734,0.7308556,0.22784309,0.1911267,0.13402279,0.08402104,inf,inf,inf,inf,1,1,1,1,2,2,2,2,2,0,1,1,0,0,0
181323789,181322151,43973845,36.4533956,127.4065695,26.734211,-1.9471343,-1.2558872,-0.00019583842,0.0002981637,-4.5001507e-05,-3.4996815,-17.391146,-2.180378,-2.2189286,0.040229075,0.0045862254,0.07276097,-1.1204178,-2.2258232,-0.7326977,-1.7579784,-0.012437099,33.46734,0.95206,0.2357147,0.19578631,0.13901477,0.086197525,inf,inf,inf,inf,1,1,1,1,2,2,2,2,2,0,1,1,0,0,0
181423332,181421570,43973845,36.4533956,127.4065695,26.423225,-3.6545238,-1.5017457,-0.00019583842,0.0002981637,-4.5001507e-05,-3.5496726,-17.515707,-2.4478126,-2.4994247,0.040229075,0.0045862254,0.07276097,-0.89626426,-1.2499216,-4.039516,-1.7650979,-0.012437099,33.46734,1.1979185,0.23396672,0.19474913,0.13624007,0.08571883,inf,inf,inf,inf,1,1,1,1,2,2,2,2,2,0,1,1,0,0,0
181522476,181520990,43973845,36.4533956,127.4065695,26.103672,-5.3665495,-1.7853861,-0.00019583842,0.0002981637,-4.5001507e-05,-3.6118734,-17.55279,-2.8139522,-2.8780653,0.040229075,0.0045862254,0.07276097,-0.94835305,-0.8085426,-3.3444335,-1.7791343,-0.012437099,33.46734,1.4815589,0.23242731,0.19376573,0.13355951,0.08511842,inf,inf,inf,inf,1,1,1,1,2,2,2,2,2,0,1,1,0,0,0
181622003,181620409,43973845,36.4533956,127.4065695,25.779194,-7.082287,-2.103197,-0.00019583842,0.0002981637,-4.5001507e-05,-3.6517541,-17.601173,-3.0713496,-3.1499152,0.040229075,0.0045862254,0.07276097,-0.7959709,-1.0995325,-1.66634,-1.7999213,-0.012437099,33.46734,1.7993699,0.23085892,0.19276303,0.13111521,0.08439364,inf,inf,inf,inf,1,1,1,1,2,2,2,2,2,0,1,1,0,0,0
181721538,181719828,43973845,36.4533956,127.4065695,25.447983,-8.810486,-2.4343066,-0.00019583842,0.0002981637,-4.5001507e-05,-3.7203033,-17.738197,-3.0009766,-3.096741,0.040229075,0.0045862254,0.07276097,-1.6753238,-1.6004237,1.7641051,-1.8227102,-0.012437099,33.46734,2.1304793,0.23874962,0.19751568,0.13633847,0.08617454,inf,inf,inf,inf,1,1,1,1,2,2,2,2,2,0,1,1,0,0,0
181820760,181819247,43973845,36.4533956,127.4065695,25.1148,-10.556081,-2.7583888,-0.00019583842,0.0002981637,-4.5001507e-05,-3.7735038,-17.90383,-2.8492773,-2.9665475,0.040229075,0.0045862254,0.07276097,-0.84877896,-1.6227665,1.5505913,-1.8282319,-0.012437099,33.46734,2.4545615,0.23707071,0.19649467,0.13309284,0.08567848,inf,inf,inf,inf,1,1,1,1,2,2,2,2,2,0,1,1,0,0,0
181920595,181918666,43973845,36.4533956,127.4065695,24.770277,-12.321753,-3.0659897,-0.00019583842,0.0002981637,-4.5001507e-05,-3.7513852,-18.068464,-2.7696567,-2.9026637,0.040229075,0.0045862254,0.07276097,0.837133,-1.178985,-1.1131656,-1.6625125,0.14188026,33.46734,2.7621624,0.23540229,0.19545726,0.1280859,0.0848928,inf,inf,inf,inf,1,1,1,1,2,2,2,2,3,0,1,1,0,0,0
182029591,182028026,43973845,36.4533956,127.4065695,24.394573,-14.281713,-3.4071348,-0.00019583842,0.0002981637,-4.5001507e-05,-3.5158637,-18.164497,-2.9515595,-3.0972252,0.040229075,0.0045862254,0.07276097,3.7161515,-0.04135184,-3.5264513,-1.6073382,0.14188026,33.46734,3.1033075,0.23512642,0.19519673,0.12492962,0.084466204,inf,inf,inf,inf,1,1,1,1,2,2,2,2,3,0,1,1,0,0,0
182120258,182117504,43973845,36.4533956,127.4065695,24.110115,-15.891749,-3.7105296,-0.00019583842,0.0002981637,-4.5001507e-05,-3.15045,-18.17602,-3.326964,-3.4766395,0.040229075,0.0045862254,0.07276097,3.0829828,-1.3577367,-0.48031095,-1.5657578,0.14188026,33.46734,3.4067023,0.24203393,0.19948721,0.12773126,0.08587528,inf,inf,inf,inf,1,1,1,1,2,2,2,2,3,0,1,1,0,0,0
182230346,182226864,43973845,36.4533956,127.4065695,23.7906,-17.860264,-4.0945735,-0.00019583842,0.0002981637,-4.5001507e-05,-2.670528,-18.3176,-3.3308997,-3.483473,0.040229075,0.0045862254,0.07276097,6.749449,-1.0683129,-1.3505108,-1.5117627,0.14188026,33.46734,3.7907462,0.23206884,0.1931207,0.12062124,0.082930975,inf,inf,inf,inf,1,1,1,1,2,2,2,2,3,0,1,1,0,0,0
182318445,182316342,43973845,36.4533956,127.4065695,23.579798,-19.484604,-4.4238095,-0.00019583842,0.0002981637,-4.5001507e-05,-2.0249352,-18.33529,-3.5319214,-3.6924934,0.040229075,0.0045862254,0.07276097,7.8708057,0.7487266,-4.5247617,-1.4670151,0.14188026,33.46734,4.1199822,0.23847598,0.19732052,0.12829201,0.08441644,inf,inf,inf,inf,1,1,1,1,2,2,2,2,3,0,1,1,0,0,0
182427239,182425702,43973845,36.4533956,127.4065695,23.397438,-21.475792,-4.8664465,-0.00019583842,0.0002981637,-4.5001507e-05,-1.1181601,-18.209154,-4.1311436,-4.2954044,0.040229075,0.0045862254,0.07276097,7.289116,1.5553313,-5.235252,-1.4273173,0.14188026,33.46734,4.562619,0.23759471,0.19685519,0.139956,0.084152505,inf,inf,inf,inf,1,1,1,1,2,2,2,2,3,0,1,1,0,0,0
182526836,182525122,43973845,36.4533956,127.4065695,23.308517,-23.285141,-5.3079157,-0.00019583842,0.0002981637,-4.5001507e-05,-0.4775957,-18.165733,-4.3561716,-4.5192046,0.040229075,0.0045862254,0.07276097,7.3272314,1.6094637,-3.839443,-1.410832,0.14188026,33.46734,5.0040884,0.23602124,0.19584468,0.15391959,0.08397473,inf,inf,inf,inf,1,1,1,1,2,2,2,2,3,0,1,1,0,0,0
182626259,182624540,43973845,36.4533956,127.4065695,23.295156,-25.09456,-5.776804,-0.00019583842,0.0002981637,-4.5001507e-05,0.2541635,-18.035952,-4.747621,-4.9082494,0.040229075,0.0045862254,0.07276097,7.1469464,1.8643739,-3.8878353,-1.406331,0.14188026,33.46734,5.4729767,0.23450679,0.194868,0.16035293,0.0838348,inf,inf,inf,inf,1,1,1,1,2,2,2,2,3,0,1,1,0,0,0
182725898,182723959,43973845,36.4533956,127.4065695,23.354801,-26.905172,-6.273707,-0.00019583842,0.0002981637,-4.5001507e-05,0.7758131,-18.017014,-4.9068103,-5.0644784,0.040229075,0.0045862254,0.07276097,5.158181,0.6538392,-1.6613823,-1.4118841,0.14188026,33.46734,5.9698796,0.24179932,0.1996575,0.1850637,0.08619243,inf,inf,inf,inf,1,1,1,1,2,2,2,2,3,0,1,1,0,0,0
182826175,182823378,43973845,36.4533956,127.4065695,23.478405,-28.724092,-6.7893877,-0.00019583842,0.0002981637,-4.5001507e-05,1.3468037,-17.960232,-5.2149076,-5.3683295,0.040229075,0.0045862254,0.07276097,4.932643,0.6726518,-2.953338,-1.4172764,0.14188026,33.46734,6.4855604,0.24011433,0.19864649,0.18226485,0.086099274,inf,inf,inf,inf,1,1,1,1,2,2,2,2,3,0,1,1,0,0,0
182924574,182922797,43973845,36.4533956,127.4065695,23.64185,-30.550697,-7.3181186,-0.00019583842,0.0002981637,-4.5001507e-05,1.5840268,-18.102224,-5.0940228,-5.241427,0.040229075,0.0045862254,0.07276097,1.0909449,-1.1849023,2.1013272,-1.4363837,0.14188026,33.46734,7.0142913,0.23843959,0.19763534,0.17922094,0.08609599,inf,inf,inf,inf,1,1,1,1,2,2,2,2,3,1,1,1,0,0,0
183024922,183022215,43973845,36.4533956,127.4065695,23.82898,-32.39698,-7.830982,-0.00019583842,0.0002981637,-4.5001507e-05,1.7552143,-18.267975,-4.893373,-5.0339932,0.040229075,0.0045862254,0.07276097,-1.4167428,-2.2971756,6.101624,-1.4424249,0.14188026,33.46734,7.527155,0.23684543,0.19695547,0.1678471,0.08570356,inf,inf,inf,inf,1,1,1,1,2,2,2,2,3,1,1,1,0,0,0
183123356,183121634,43973845,36.4533956,127.4065695,24.026974,-34.26106,-8.310842,-0.00019583842,0.0002981637,-4.5001507e-05,1.8557155,-18.423958,-4.6819634,-4.813112,0.040229075,0.0045862254,0.07276097,1.0133241,-1.1337391,1.9470317,-1.4199116,0.14188026,33.46734,8.007014,0.24457897,0.20186444,0.17367823,0.08759296,inf,inf,inf,inf,1,1,1,1,2,2,2,2,3,1,1,1,0,0,0
183222548,183221053,43973845,36.4533956,127.4065695,24.234495,-36.115997,-8.792891,-0.00019583842,0.0002981637,-4.5001507e-05,2.0352094,-18.448618,-4.8089542,-4.9317794,0.040229075,0.0045862254,0.07276097,0.01089002,-1.8503798,5.275041,-1.3831375,0.14188026,33.46734,8.489063,0.24256422,0.20072602,0.16195734,0.08691202,inf,inf,inf,inf,1,1,1,1,2,2,2,2,3,1,1,1,0,0,0
183322026,183320471,43973845,36.4533956,127.4065695,24.452005,-37.981094,-9.265487,-0.00019583842,0.0002981637,-4.5001507e-05,2.3200629,-18.506866,-4.709801,-4.8245444,0.040229075,0.0045862254,0.07276097,4.4819818,1.0572276,-1.721597,-1.3284851,0.14188026,33.46734,8.961659,0.24086194,0.1997234,0.15548176,0.08644958,inf,inf,inf,inf,1,1,1,1,2,2,2,2,3,1,1,1,0,0,0
183421551,183419890,43973845,36.4533956,127.4065695,24.709131,-39.8387,-9.746098,-0.00019583842,0.0002981637,-4.5001507e-05,2.83661,-18.38677,-4.8853354,-4.993297,0.040229075,0.0045862254,0.07276097,6.3559914,3.2175996,-5.0601516,-1.2853799,0.14188026,33.46734,9.44227,0.23916548,0.1986879,0.1512764,0.0860871,inf,inf,inf,inf,1,1,1,1,2,2,2,2,3,1,1,1,0,0,0
183520881,183519308,43973845,36.4533956,127.4065695,25.02129,-41.676884,-10.258376,-0.00019583842,0.0002981637,-4.5001507e-05,3.4502742,-18.10854,-5.2923717,-5.3928585,0.040229075,0.0045862254,0.07276097,4.9342484,1.7174426,-0.9352452,-1.2699409,0.14188026,33.46734,9.954549,0.23752177,0.19768085,0.15093026,0.08598946,inf,inf,inf,inf,1,1,1,1,2,2,2,2,3,1,1,1,0,0,0
183621482,183618727,43973845,36.4533956,127.4065695,25.384106,-43.49764,-10.787,-0.00019583842,0.0002981637,-4.5001507e-05,3.9470623,-17.929228,-5.359855,-5.4510236,0.040229075,0.0045862254,0.07276097,4.284665,2.2600076,-0.51760584,-1.2742642,0.14188026,33.46734,10.483172,0.23588869,0.19667849,0.1517406,0.086018085,inf,inf,inf,inf,1,1,1,1,2,2,2,2,3,1,1,1,0,0,0
183720038,183718146,43973845,36.4533956,127.4065695,25.798117,-45.28937,-11.33654,-0.00019583842,0.0002981637,-4.5001507e-05,4.4014378,-17.574013,-5.7458215,-5.829483,0.040229075,0.0045862254,0.07276097,3.0840027,3.6966422,-5.06704,-1.3105816,0.14188026,33.46734,11.032713,0.24341226,0.20163079,0.16256055,0.08847309,inf,inf,inf,inf,1,1,1,1,2,2,2,2,3,1,1,1,0,0,0
183829413,183827506,43973845,36.4533956,127.4065695,26.293806,-47.236805,-11.962858,-0.00019583842,0.0002981637,-4.5001507e-05,4.440433,-17.617064,-5.3213835,-5.3986845,0.040229075,0.0045862254,0.07276097,-1.7312436,-1.7805784,8.2201185,-1.372484,0.14188026,33.46734,11.659031,0.24251646,0.20123325,0.16190541,0.08861425,inf,inf,inf,inf,1,1,1,1,2,2,2,2,3,1,1,1,0,0,0
183918531,183916983,43973845,36.4533956,127.4065695,26.69103,-48.839092,-12.40786,-0.00019583842,0.0002981637,-4.5001507e-05,4.335632,-17.768188,-4.652043,-4.7241445,0.040229075,0.0045862254,0.07276097,-0.51898926,-0.58449847,4.849211,-1.387808,0.14188026,33.46734,12.1040325,0.23999411,0.19966488,0.151486,0.087547444,inf,inf,inf,inf,1,1,1,1,2,2,2,2,3,1,1,1,0,0,0
184027904,184026343,43973845,36.4533956,127.4065695,27.163176,-50.80387,-12.888408,-0.00019583842,0.0002981637,-4.5001507e-05,4.3137293,-17.761726,-4.2927213,-4.358148,0.040229075,0.0045862254,0.07276097,1.2577428,2.3709426,-1.7091529,-1.3759408,0.14188026,33.46734,12.58458,0.2391246,0.19925028,0.14146094,0.08673735,inf,inf,inf,inf,1,1,1,1,2,2,2,2,3,1,1,1,0,0,0
184127372,184125762,43973845,36.4533956,127.4065695,27.5895,-52.578037,-13.316617,-0.00019583842,0.0002981637,-4.5001507e-05,4.3476367,-17.624119,-4.3476276,-4.406532,0.040229075,0.0045862254,0.07276097,0.28971803,1.1802279,0.68733716,-1.3617773,0.14188026,33.46734,13.01279,0.2467116,0.2043249,0.1440657,0.08850268,inf,inf,inf,inf,1,1,1,1,2,2,2,2,3,1,1,1,0,0,0
184226638,184225180,43973845,36.4533956,127.4065695,28.00951,-54.327072,-13.732727,-0.00019583842,0.0002981637,-4.5001507e-05,4.406709,-17.572304,-4.174137,-4.2203217,0.040229075,0.0045862254,0.07276097,0.3037739,0.4321825,1.3406179,-1.3492947,0.14188026,33.46734,13.4289,0.2447328,0.20317383,0.1394916,0.087740175,inf,inf,inf,inf,1,1,1,1,2,2,2,2,3,1,1,1,0,0,0
184326166,184324599,43973845,36.4533956,127.4065695,28.4262,-56.061066,-14.137091,-0.00019583842,0.0002981637,-4.5001507e-05,4.4883766,-17.538427,-3.9420877,-3.9867222,0.040229075,0.0045862254,0.07276097,0.496061,0.7300632,0.8965889,-1.3378323,0.14188026,33.46734,13.833263,0.2430348,0.20216791,0.13546155,0.08711966,inf,inf,inf,inf,1,1,1,1,2,2,2,2,3,1,1,1,0,0,0
184426812,184424024,43973845,36.4533956,127.4065695,28.840332,-57.784756,-14.540082,-0.00019583842,0.0002981637,-4.5001507e-05,4.5469375,-17.435797,-3.9825652,-4.0344543,0.040229075,0.0045862254,0.07276097,0.659766,0.5204387,-0.89178145,-1.3286642,0.14188026,33.46734,14.236255,0.24138436,0.20115773,0.13191922,0.086533345,inf,inf,inf,inf,1,1,1,1,2,2,2,2,3,1,1,1,0,0,0
184525181,184523438,43973845,36.4533956,127.4065695,29.255342,-59.499077,-14.95315,-0.00019583842,0.0002981637,-4.5001507e-05,4.569917,-17.337566,-4.102574,-4.1634336,0.040229075,0.0045862254,0.07276097,-0.12798105,2.0855494,-3.363825,-1.3227274,0.14188026,33.46734,14.6493225,0.23977213,0.20014042,0.12940176,0.08594571,inf,inf,inf,inf,1,1,1,1,2,2,2,2,3,1,1,1,0,0,0
184624577,184622855,43973845,36.4533956,127.4065695,29.67472,-61.20448,-15.385487,-0.00019583842,0.0002981637,-4.5001507e-05,4.5899262,-17.239912,-4.251315,-4.3213267,0.040229075,0.0045862254,0.07276097,0.2523142,0.94077885,-1.8709837,-1.3236818,0.14188026,33.46734,15.081659,0.23824614,0.19913866,0.12717518,0.08534653,inf,inf,inf,inf,1,1,1,1,2,2,2,2,3,1,1,1,0,0,0
184723976,184722272,43973845,36.4533956,127.4065695,30.10322,-62.903465,-15.822708,-0.00019583842,0.0002981637,-4.5001507e-05,4.592573,-17.189947,-4.2334704,-4.312159,0.040229075,0.0045862254,0.07276097,1.2516425,1.1895146,-1.1356856,-1.3270547,0.14188026,33.46734,15.518881,0.24541084,0.2041874,0.13209555,0.08723261,inf,inf,inf,inf,1,1,1,1,2,2,2,2,3,1,1,1,0,0,0
184823290,184821691,43973845,36.4533956,127.4065695,30.547392,-64.60127,-16.260172,-0.00019583842,0.0002981637,-4.5001507e-05,4.617796,-17.120378,-4.2643247,-4.3476863,0.040229075,0.0045862254,0.07276097,1.5429078,0.94005734,-0.14399761,-1.3327465,0.14188026,33.46734,15.956345,0.24378507,0.20316616,0.12953012,0.08662272,inf,inf,inf,inf,1,1,1,1,2,2,2,2,3,1,1,1,0,0,0
184923766,184921109,43973845,36.4533956,127.4065695,30.995373,-66.29314,-16.711237,-0.00019583842,0.0002981637,-4.5001507e-05,4.619908,-17.01596,-4.5105743,-4.597413,0.040229075,0.0045862254,0.07276097,0.53240865,0.049775463,0.4699169,-1.3428603,0.14188026,33.46734,16.40741,0.2421849,0.20212764,0.12746085,0.086031355,inf,inf,inf,inf,1,1,1,1,2,2,2,2,3,1,1,1,0,0,0
185022278,185020527,43973845,36.4533956,127.4065695,31.438522,-67.9865,-17.172585,-0.00019583842,0.0002981637,-4.5001507e-05,4.450683,-17.02785,-4.553438,-4.6415873,0.040229075,0.0045862254,0.07276097,-1.0542153,-0.100720465,0.06661806,-1.3483192,0.14188026,33.46734,16.868757,0.24065103,0.20111378,0.12627046,0.0854595,inf,inf,inf,inf,1,1,1,1,2,2,2,2,3,1,1,1,0,0,0
185121846,185119946,43973845,36.4533956,127.4065695,31.866474,-69.68374,-17.640482,-0.00019583842,0.0002981637,-4.5001507e-05,4.304525,-17.004827,-4.7744937,-4.861114,0.040229075,0.0045862254,0.07276097,0.3276781,1.3149588,-4.396987,-1.3340566,0.14188026,33.46734,17.336655,0.2478548,0.20621088,0.1307271,0.0872076,inf,inf,inf,inf,1,1,1,1,2,2,2,2,3,1,1,1,0,0,0
185220985,185219364,43973845,36.4533956,127.4065695,32.295586,-71.36445,-18.140179,-0.00019583842,0.0002981637,-4.5001507e-05,4.2580028,-16.893862,-5.1913786,-5.2729664,0.040229075,0.0045862254,0.07276097,0.44373253,1.3735418,-3.2168887,-1.3196433,0.14188026,33.46734,17.836351,0.24603033,0.20501766,0.1293433,0.08646771,inf,inf,inf,inf,1,1,1,1,2,2,2,2,3,1,1,1,0,0,0
185320877,185318784,43973845,36.4533956,127.4065695,32.722275,-73.04289,-18.664454,-0.00019583842,0.0002981637,-4.5001507e-05,4.199418,-16.847359,-5.2779217,-5.353828,0.040229075,0.0045862254,0.07276097,-1.3988154,1.2087821,-0.041621223,-1.3127654,0.14188026,33.46734,18.360626,0.24441469,0.20393255,0.12927341,0.08589355,inf,inf,inf,inf,1,1,1,1,2,2,2,2,3,1,1,1,0,0,0
185420433,185418200,43973845,36.4533956,127.4065695,33.141376,-74.722084,-19.18674,-0.00019583842,0.0002981637,-4.5001507e-05,4.1222496,-16.835691,-5.1520724,-5.2248588,0.040229075,0.0045862254,0.07276097,-1.5408628,0.31558803,0.0491412,-1.3040609,0.14188026,33.46734,18.882914,0.24284945,0.20286575,0.12803389,0.08532517,inf,inf,inf,inf,1,1,1,1,2,2,2,2,3,1,1,1,0,0,0
185529175,185527560,43973845,36.4533956,127.4065695,33.59404,-76.568184,-19.743177,-0.00019583842,0.0002981637,-4.5001507e-05,4.121697,-16.766518,-5.0684457,-5.1372447,0.040229075,0.0045862254,0.07276097,0.57162553,1.3120693,-0.41891673,-1.2927319,0.14188026,33.46734,19.43935,0.24199794,0.20236596,0.12668152,0.08495432,inf,inf,inf,inf,1,1,1,1,2,2,2,2,3,1,1,1,0,0,0
185620967,185617047,43973845,36.4533956,127.4065695,33.962227,-78.07526,-20.182907,-0.00019583842,0.0002981637,-4.5001507e-05,4.1445813,-16.792936,-4.723559,-4.787765,0.040229075,0.0045862254,0.07276097,-0.2989694,-0.8562134,5.521057,-1.2870651,0.14188026,33.46734,19.87908,0.23979044,0.20104413,0.12440117,0.084287085,inf,inf,inf,inf,1,1,1,1,2,2,2,2,3,1,1,1,0,0,0
185728437,185726396,43973845,36.4533956,127.4065695,34.41612,-79.91924,-20.666327,-0.00019583842,0.0002981637,-4.5001507e-05,4.2256823,-16.80204,-4.308505,-4.363861,0.040229075,0.0045862254,0.07276097,2.2645993,1.3369713,0.68686956,-1.2845068,0.14188026,33.46734,20.3625,0.2474206,0.20632175,0.128393,0.08630731,inf,inf,inf,inf,1,1,1,1,2,2,2,2,3,1,1,1,0,0,0
185828527,185825815,43973845,36.4533956,127.4065695,34.837925,-81.582855,-21.09537,-0.00019583842,0.0002981637,-4.5001507e-05,4.2807837,-16.638742,-4.4428496,-4.487525,0.040229075,0.0045862254,0.07276097,-0.09055276,0.6987046,0.5892093,-1.2958741,0.14188026,33.46734,20.791542,0.24578933,0.20520899,0.12559013,0.08581613,inf,inf,inf,inf,1,1,1,1,2,2,2,2,3,1,1,1,0,0,0
185926897,185925232,43973845,36.4533956,127.4065695,35.263653,-83.23613,-21.519247,-0.00019583842,0.0002981637,-4.5001507e-05,4.293838,-16.634163,-4.206528,-4.2363153,0.040229075,0.0045862254,0.07276097,1.1022588,-0.57453185,4.7744627,-1.3208282,0.14188026,33.46734,21.21542,0.24417387,0.20409103,0.124860846,0.085338295,inf,inf,inf,inf,1,1,1,1,2,2,2,2,3,1,1,1,0,0,0
186026237,186024650,43973845,36.4533956,127.4065695,35.693954,-84.894966,-21.903086,-0.00019583842,0.0002981637,-4.5001507e-05,4.2784414,-16.72595,-3.767028,-3.7830238,0.040229075,0.0045862254,0.07276097,-1.189126,-0.5762859,3.836259,-1.3467369,0.14188026,33.46734,21.599258,0.24260621,0.20332663,0.12276993,0.08488804,inf,inf,inf,inf,1,1,1,1,2,2,2,2,3,1,1,1,0,0,0
186126052,186124069,43973845,36.4533956,127.4065695,36.12128,-86.5621,-22.253677,-0.00019583842,0.0002981637,-4.5001507e-05,4.1830306,-16.799982,-3.554298,-3.5599701,0.040229075,0.0045862254,0.07276097,-1.7681712,-0.48814932,-0.6105305,-1.3646876,0.14188026,33.46734,21.94985,0.24965277,0.20844282,0.12615883,0.08674989,inf,inf,inf,inf,1,1,1,1,2,2,2,2,3,1,1,1,0,0,0
186225061,186223494,43973845,36.4533956,127.4065695,36.533566,-88.223114,-22.60216,-0.00019583842,0.0002981637,-4.5001507e-05,4.0061336,-16.764343,-3.7576606,-3.7509255,0.040229075,0.0045862254,0.07276097,-1.3541602,0.48964408,-1.8332189,-1.3717749,0.14188026,33.46734,22.298332,0.24784184,0.2071908,0.124518186,0.08613415,inf,inf,inf,inf,1,1,1,1,2,2,2,2,3,1,1,1,0,0,0
186325484,186322904,43973845,36.4533956,127.4065695,36.93142,-89.88219,-22.95747,-0.00019583842,0.0002981637,-4.5001507e-05,3.8941083,-16.809063,-3.7136264,-3.6883006,0.040229075,0.0045862254,0.07276097,0.089460135,-0.6804195,2.228245,-1.3703506,0.14188026,33.46734,22.653643,0.24621257,0.20604664,0.12505455,0.08560034,inf,inf,inf,inf,1,1,1,1,2,2,2,2,3,1,1,1,0,0,0
186424031,186422326,43973845,36.4533956,127.4065695,37.325794,-91.55302,-23.297869,-0.00019583842,0.0002981637,-4.5001507e-05,3.8250299,-16.892984,-3.5710855,-3.5301352,0.040229075,0.0045862254,0.07276097,0.16351092,-0.68641007,0.7735729,-1.3688809,0.14188026,33.46734,22.994041,0.24458008,0.20489702,0.12432347,0.085061185,inf,inf,inf,inf,1,1,1,1,2,2,2,2,3,1,1,1,0,0,0
186523311,186521741,43973845,36.4533956,127.4065695,37.7134,-93.23007,-23.641052,-0.00019583842,0.0002981637,-4.5001507e-05,3.7408483,-16.896053,-3.7441807,-3.6908345,0.040229075,0.0045862254,0.07276097,-0.7300506,-0.127308,-0.811792,-1.3691185,0.14188026,33.46734,23.337225,0.24301778,0.2037613,0.12316112,0.084544085,inf,inf,inf,inf,1,1,1,1,2,2,2,2,3,1,1,1,0,0,0
186622630,186621159,43973845,36.4533956,127.4065695,38.08981,-94.90991,-24.002525,-0.00019583842,0.0002981637,-4.5001507e-05,3.6866493,-16.922314,-3.8172662,-3.7549915,0.040229075,0.0045862254,0.07276097,-0.9682582,-0.47746474,0.18291065,-1.3728422,0.14188026,33.46734,23.698698,0.24144848,0.20261201,0.12303448,0.084032856,inf,inf,inf,inf,1,1,1,1,2,2,2,2,3,1,1,1,0,0,0
186722269,186720576,43973845,36.4533956,127.4065695,38.452198,-96.5995,-24.369057,-0.00019583842,0.0002981637,-4.5001507e-05,3.6296635,-16.969408,-3.8379335,-3.770748,0.040229075,0.0045862254,0.07276097,-0.42944807,-0.64922094,-0.029808385,-1.3812125,0.14188026,33.46734,24.06523,0.24834123,0.2076627,0.12870356,0.08591105,inf,inf,inf,inf,1,1,1,1,2,2,2,2,3,1,1,1,0,0,0
186821868,186819994,43973845,36.4533956,127.4065695,38.806343,-98.29142,-24.739916,-0.00019583842,0.0002981637,-4.5001507e-05,3.533162,-17.064705,-3.743507,-3.6761746,0.040229075,0.0045862254,0.07276097,-0.8588654,-1.413878,2.3363588,-1.3936611,0.14188026,33.46734,24.436089,0.24671617,0.20649514,0.12777467,0.08541435,inf,inf,inf,inf,1,1,1,1,2,2,2,2,3,1,1,1,0,0,0
186920886,186919412,43973845,36.4533956,127.4065695,39.148422,-99.99446,-25.105549,-0.00019583842,0.0002981637,-4.5001507e-05,3.3866699,-17.140917,-3.8120553,-3.747631,0.040229075,0.0045862254,0.07276097,-1.8999841,-0.77092755,-1.3169898,-1.4092079,0.14188026,33.46734,24.801722,0.24509981,0.20531602,0.12664177,0.084905244,inf,inf,inf,inf,1,1,1,1,2,2,2,2,3,1,1,1,0,0,0
187021605,187018830,43973845,36.4533956,127.4065695,39.47195,-101.70697,-25.472427,-0.00019583842,0.0002981637,-4.5001507e-05,3.1997128,-17.30586,-3.6444566,-3.5818033,0.040229075,0.0045862254,0.07276097,-1.5793784,-1.9850643,2.952066,-1.425766,0.14188026,33.46734,25.1686,0.24348687,0.20412745,0.12631066,0.08439369,inf,inf,inf,inf,1,1,1,1,2,2,2,2,3,1,1,1,0,0,0
187129775,187128190,43973845,36.4533956,127.4065695,39.80814,-103.609795,-25.847576,-0.00019583842,0.0002981637,-4.5001507e-05,3.0076022,-17.501043,-3.4050715,-3.3430324,0.040229075,0.0045862254,0.07276097,-2.04188,-1.4240805,0.47510055,-1.4383439,0.14188026,33.46734,25.543749,0.25130364,0.2098046,0.13284598,0.08647778,inf,inf,inf,inf,1,1,1,1,2,2,2,2,3,1,1,1,0,0,0
187219127,187217665,43973845,36.4533956,127.4065695,40.06839,-105.17051,-26.154371,-0.00019583842,0.0002981637,-4.5001507e-05,2.809719,-17.59426,-3.4752147,-3.4180083,0.040229075,0.0045862254,0.07276097,-2.0028706,-1.3836256,0.38430664,-1.4411913,0.14188026,33.46734,25.850544,0.24875356,0.20790541,0.13100818,0.085731275,inf,inf,inf,inf,1,1,1,1,2,2,2,2,3,1,1,1,0,0,0
187328622,187327025,43973845,36.4533956,127.4065695,40.369385,-107.08809,-26.533909,-0.00019583842,0.0002981637,-4.5001507e-05,2.6069593,-17.718723,-3.5383573,-3.4859123,0.040229075,0.0045862254,0.07276097,-2.3354223,-1.0935091,-1.2722772,-1.4398487,0.14188026,33.46734,26.230082,0.24779877,0.20728163,0.13181596,0.08546497,inf,inf,inf,inf,1,1,1,1,2,2,2,2,3,1,1,1,0,0,0
187418202,187416501,43973845,36.4533956,127.4065695,40.599712,-108.66655,-26.848394,-0.00019583842,0.0002981637,-4.5001507e-05,2.455302,-17.845308,-3.4879096,-3.4385574,0.040229075,0.0045862254,0.07276097,-1.1987166,-1.7108362,1.6063037,-1.4354297,0.14188026,33.46734,26.544567,0.24543276,0.20549779,0.13075036,0.084786825,inf,inf,inf,inf,1,1,1,1,2,2,2,2,3,1,1,1,0,0,0
187527567,187525861,43973845,36.4533956,127.4065695,40.873596,-110.6096,-27.219933,-0.00019583842,0.0002981637,-4.5001507e-05,2.3453393,-17.989853,-3.3891864,-3.343047,0.040229075,0.0045862254,0.07276097,-0.8559509,-0.8004241,-0.64253384,-1.4249159,0.14188026,33.46734,26.916105,0.24447015,0.20485398,0.13042146,0.08451736,inf,inf,inf,inf,1,1,1,1,2,2,2,2,3,1,1,1,0,0,0
187626799,187625278,43973845,36.4533956,127.4065695,41.12451,-112.38241,-27.565252,-0.00019583842,0.0002981637,-4.5001507e-05,2.2616708,-18.005283,-3.6546767,-3.6104891,0.040229075,0.0045862254,0.07276097,-1.198602,0.22700374,-3.9376092,-1.41483,0.14188026,33.46734,27.261425,0.24289182,0.20368361,0.1288667,0.08406417,inf,inf,inf,inf,1,1,1,1,2,2,2,2,3,1,1,1,0,0,0
187726172,187724696,43973845,36.4533956,127.4065695,41.36837,-114.15925,-27.938221,-0.00019583842,0.0002981637,-4.5001507e-05,2.18521,-18.031355,-3.829767,-3.7863414,0.040229075,0.0045862254,0.07276097,-0.263262,-0.8632244,0.59596753,-1.4103942,0.14188026,33.46734,27.634394,0.2499728,0.20873003,0.135316,0.085975364,inf,inf,inf,inf,1,1,1,1,2,2,2,2,3,1,1,1,0,0,0
187825778,187824114,43973845,36.4533956,127.4065695,41.620293,-115.94597,-28.302544,-0.00019583842,0.0002981637,-4.5001507e-05,2.2196152,-18.177942,-3.5522428,-3.5096197,0.040229075,0.0045862254,0.07276097,0.33567333,-1.3207783,2.2206206,-1.4123546,0.14188026,33.46734,27.998716,0.24826711,0.20750889,0.13395287,0.08549878,inf,inf,inf,inf,1,1,1,1,2,2,2,2,3,1,1,1,0,0,0
187925077,187923531,43973845,36.4533956,127.4065695,41.879696,-117.74094,-28.653479,-0.00019583842,0.0002981637,-4.5001507e-05,2.24897,-18.227226,-3.549073,-3.5119507,0.040229075,0.0045862254,0.07276097,-0.48707816,-0.36514443,-1.1873233,-1.4182582,0.14188026,33.46734,28.349651,0.24658902,0.20630732,0.13076966,0.08502083,inf,inf,inf,inf,1,1,1,1,2,2,2,2,3,1,1,1,0,0,0
188025482,188022954,43973845,36.4533956,127.4065695,42.140453,-119.537445,-29.011885,-0.00019583842,0.0002981637,-4.5001507e-05,2.1957188,-18.23602,-3.704803,-3.6695075,0.040229075,0.0045862254,0.07276097,-1.3364475,-0.18921882,-1.4005951,-1.4270744,0.14188026,33.46734,28.708057,0.24490847,0.20509653,0.12841247,0.084519915,inf,inf,inf,inf,1,1,1,1,2,2,2,2,3,1,1,1,0,0,0
188124263,188122367,43973845,36.4533956,127.4065695,42.39022,-121.33707,-29.376991,-0.00019583842,0.0002981637,-4.5001507e-05,2.089913,-18.28383,-3.685057,-3.6483567,0.040229075,0.0045862254,0.07276097,-0.8673577,-0.8421943,2.1229854,-1.433069,0.14188026,33.46734,29.073164,0.25220913,0.2101854,0.13404599,0.086417064,inf,inf,inf,inf,1,1,1,1,2,2,2,2,3,1,1,1,0,0,0
188223572,188221784,43973845,36.4533956,127.4065695,42.640144,-123.12988,-29.731785,-0.00019583842,0.0002981637,-4.5001507e-05,2.0274131,-18.347162,-3.5897765,-3.5526953,0.040229075,0.0045862254,0.07276097,-1.1007354,-0.1661095,-1.4918302,-1.4330835,0.14188026,33.46734,29.427958,0.2502612,0.20883504,0.13218848,0.08587542,inf,inf,inf,inf,1,1,1,1,2,2,2,2,3,1,1,1,0,0,0
188322781,188321202,43973845,36.4533956,127.4065695,42.887543,-124.920235,-30.105284,-0.00019583842,0.0002981637,-4.5001507e-05,1.899331,-18.28415,-3.9207563,-3.8873625,0.040229075,0.0045862254,0.07276097,-1.5136461,0.58310527,-3.1495817,-1.4287703,0.14188026,33.46734,29.801456,0.24845155,0.20756194,0.13014786,0.08538172,inf,inf,inf,inf,1,1,1,1,2,2,2,2,3,1,1,1,0,0,0
188422409,188420619,43973845,36.4533956,127.4065695,43.121883,-126.7014,-30.512726,-0.00019583842,0.0002981637,-4.5001507e-05,1.7720025,-18.236895,-4.193152,-4.16094,0.040229075,0.0045862254,0.07276097,-1.1466558,-0.7268651,0.4144058,-1.4251956,0.14188026,33.46734,30.208899,0.24668865,0.2063121,0.12956816,0.084900394,inf,inf,inf,inf,1,1,1,1,2,2,2,2,3,1,1,1,0,0,0
188522051,188520037,43973845,36.4533956,127.4065695,43.349,-128.48766,-30.921698,-0.00019583842,0.0002981637,-4.5001507e-05,1.7353666,-18.330809,-3.9517643,-3.9233122,0.040229075,0.0045862254,0.07276097,0.111873664,-1.4273762,3.687171,-1.4217077,0.14188026,33.46734,30.61787,0.2449122,0.20504908,0.12867676,0.08440918,inf,inf,inf,inf,1,1,1,1,2,2,2,2,3,1,1,1,0,0,0
188621179,188619454,43973845,36.4533956,127.4065695,43.582455,-130.28307,-31.312788,-0.00019583842,0.0002981637,-4.5001507e-05,1.7358053,-18.35427,-3.899886,-3.880006,0.040229075,0.0045862254,0.07276097,-0.29113886,0.7464227,-2.2449796,-1.4121816,0.14188026,33.46734,31.00896,0.24323596,0.20383064,0.12611443,0.08393391,inf,inf,inf,inf,1,1,1,1,2,2,2,2,3,1,1,1,0,0,0
188721604,188718872,43973845,36.4533956,127.4065695,43.815636,-132.07141,-31.727825,-0.00019583842,0.0002981637,-4.5001507e-05,1.7597576,-18.180765,-4.3579803,-4.3463526,0.040229075,0.0045862254,0.07276097,-0.6857477,1.549198,-2.9301379,-1.4075338,0.14188026,33.46734,31.423998,0.25043106,0.2092337,0.13065782,0.08589202,inf,inf,inf,inf,1,1,1,1,2,2,2,2,3,1,1,1,0,0,0
188819949,188818289,43973845,36.4533956,127.4065695,44.05379,-133.84132,-32.168922,-0.00019583842,0.0002981637,-4.5001507e-05,1.7639209,-18.133453,-4.394576,-4.386639,0.040229075,0.0045862254,0.07276097,-0.116898246,-0.5267073,2.6410434,-1.4139173,0.14188026,33.46734,31.865095,0.24857157,0.20792723,0.12944955,0.08533981,inf,inf,inf,inf,1,1,1,1,2,2,2,2,3,1,1,1,0,0,0
188919302,188917707,43973845,36.4533956,127.4065695,44.29334,-135.60973,-32.599075,-0.00019583842,0.0002981637,-4.5001507e-05,1.7783611,-18.192583,-4.0704923,-4.070709,0.040229075,0.0045862254,0.07276097,0.30860916,-0.96710753,3.5986483,-1.4179707,0.14188026,33.46734,32.29525,0.24670397,0.20661893,0.1272669,0.08479921,inf,inf,inf,inf,1,1,1,1,2,2,2,2,3,1,1,1,0,0,0
189028736,189027066,43973845,36.4533956,127.4065695,44.554424,-137.5543,-33.04402,-0.00019583842,0.0002981637,-4.5001507e-05,1.8004622,-18.21819,-3.8347414,-3.846121,0.040229075,0.0045862254,0.07276097,0.012058863,-0.020227587,2.0854497,-1.4127321,0.14188026,33.46734,32.740196,0.24557547,0.2055195,0.124562725,0.08438289,inf,inf,inf,inf,1,1,1,1,2,2,2,2,3,1,1,1,0,0,0
189128003,189126483,43973845,36.4533956,127.4065695,44.788494,-139.31807,-33.437485,-0.00019583842,0.0002981637,-4.5001507e-05,1.8530798,-18.141903,-3.9441123,-3.9650877,0.040229075,0.0045862254,0.07276097,0.95386887,1.4792879,-3.7992692,-1.4048244,0.14188026,33.46734,33.13366,0.25291675,0.21098375,0.12837207,0.08632192,inf,inf,inf,inf,1,1,1,1,2,2,2,2,3,1,1,1,0,0,0
189227566,189225900,43973845,36.4533956,127.4065695,45.034813,-141.07132,-33.848083,-0.00019583842,0.0002981637,-4.5001507e-05,1.9585818,-18.033104,-4.1232963,-4.1493597,0.040229075,0.0045862254,0.07276097,1.4497514,0.43682882,0.10429439,-1.4014604,0.14188026,33.46734,33.54426,0.25077885,0.20951691,0.12628151,0.08568716,inf,inf,inf,inf,1,1,1,1,2,2,2,2,3,1,1,1,0,0,0
189326954,189325318,43973845,36.4533956,127.4065695,45.30392,-142.82056,-34.264584,-0.00019583842,0.0002981637,-4.5001507e-05,2.076184,-18.026615,-4.0057106,-4.036475,0.040229075,0.0045862254,0.07276097,-0.025613647,-1.1947587,3.3238866,-1.4065124,0.14188026,33.46734,33.96076,0.24884407,0.20817703,0.12455361,0.08512156,inf,inf,inf,inf,1,1,1,1,2,2,2,2,3,1,1,1,0,0,0
189426272,189424737,43973845,36.4533956,127.4065695,45.577087,-144.58154,-34.653347,-0.00019583842,0.0002981637,-4.5001507e-05,2.1717832,-18.086687,-3.69468,-3.7283816,0.040229075,0.0045862254,0.07276097,0.43797138,-0.9973138,2.1041765,-1.4124193,0.14188026,33.46734,34.34952,0.24691904,0.20683739,0.12207487,0.084552765,inf,inf,inf,inf,1,1,1,1,2,2,2,2,3,1,1,1,0,0,0
189525843,189524152,43973845,36.4533956,127.4065695,45.85203,-146.34863,-35.025436,-0.00019583842,0.0002981637,-4.5001507e-05,2.2435517,-18.068274,-3.6807907,-3.7159486,0.040229075,0.0045862254,0.07276097,-0.15727559,0.12302523,-0.29587966,-1.4209307,0.14188026,33.46734,34.72161,0.24503368,0.20548812,0.11934029,0.08398335,inf,inf,inf,inf,1,1,1,1,2,2,2,2,3,1,1,1,0,0,0
189626214,189623569,43973845,36.4533956,127.4065695,46.128,-148.1128,-35.39785,-0.00019583842,0.0002981637,-4.5001507e-05,2.2359703,-18.0383,-3.7200277,-3.7553856,0.040229075,0.0045862254,0.07276097,-0.11888302,-0.12750925,0.359246,-1.4301157,0.14188026,33.46734,35.094025,0.24322997,0.20419654,0.11773467,0.08345283,inf,inf,inf,inf,1,1,1,1,2,2,2,2,3,1,1,1,0,0,0
189724431,189722987,43973845,36.4533956,127.4065695,46.402077,-149.88017,-35.764835,-0.00019583842,0.0002981637,-4.5001507e-05,2.2412229,-18.064604,-3.6334007,-3.6659496,0.040229075,0.0045862254,0.07276097,-0.7239193,-0.19220798,0.30213273,-1.4375182,0.14188026,33.46734,35.46101,0.25026962,0.20922598,0.1222777,0.0853129,inf,inf,inf,inf,1,1,1,1,2,2,2,2,3,1,1,1,0,0,0
189824030,189822404,43973845,36.4533956,127.4065695,46.67147,-151.64627,-36.128483,-0.00019583842,0.0002981637,-4.5001507e-05,2.2246742,-18.083212,-3.6172047,-3.6509106,0.040229075,0.0045862254,0.07276097,-1.1147517,-0.15283996,0.69499385,-1.4440768,0.14188026,33.46734,35.824657,0.24833411,0.20787896,0.120675504,0.08478568,inf,inf,inf,inf,1,1,1,1,2,2,2,2,3,1,1,1,0,0,0
