timestamp,timestamp_sample,windspeed_north,windspeed_east,variance_north,variance_east,tas_innov,tas_innov_var,beta_innov,beta_innov_var
178261752,178160601,0.0,0.0,1.0,1.0,-0.7866396,2.9278495,-0.5065465,6.925842
178272282,178170543,0.0,0.0,1.0,1.0,-0.7866396,2.9278495,-0.56070536,7.281755
179256253,179154803,-0.09882698,-0.017720671,0.8319926,0.9945982,0.749012,2.8569577,-0.07963929,0.10910184
180260131,180158943,0.089932375,0.34178498,1.9241077,0.2591407,-0.34118462,2.2285144,0.13895251,0.103111625
181264310,181163081,-0.21169044,-0.14008588,1.0529087,0.104943186,-0.19869423,2.0842478,0.020347485,0.093966216
182268985,182167213,-0.009116553,0.009968006,0.7660695,0.0718769,-0.9666729,2.0200772,-0.110625304,0.0935193
183262528,183161401,-0.17851156,0.13478892,0.66655344,0.053326588,0.055797577,2.0135176,-0.0026946778,0.09221034
184267032,184165529,-0.6215382,0.30169645,0.52187586,0.04238318,-1.3394108,2.013444,0.08681832,0.09179977
185260926,185159713,-0.7680406,0.38125923,0.411622,0.03690281,-0.831192,1.9911903,0.040595632,0.09152552
186265179,186163836,-0.7347774,0.38615614,0.35277805,0.03357703,0.039754868,1.9795692,0.075417645,0.091467
187259048,187158016,-0.51018655,0.31310537,0.318259,0.030846536,0.3659439,1.9669825,0.06397156,0.09130154
188263474,188162134,-0.47974995,0.30943498,0.29916778,0.028137384,0.60033226,1.9612845,0.011477713,0.09110021
189257584,189156308,-0.47772208,0.2633861,0.28127456,0.025786443,1.353754,1.957308,-0.019949472,0.0910288
190263493,190160422,-0.43555528,0.20108454,0.26708853,0.024007227,0.01893425,1.9544553,-0.000534888,0.09100216
191266185,191164534,-0.41511518,0.14970486,0.25459656,0.02242108,-0.63729286,1.95248,0.007382864,0.09096014
192260118,192158702,-0.40368384,0.11542029,0.24152929,0.021057064,0.37774658,1.9512036,0.014140079,0.09092736
193264032,193162811,-0.3674695,0.081405155,0.2310901,0.020052325,0.5438118,1.9500066,0.03516214,0.0909534
194258181,194156976,-0.32305038,0.07916498,0.22111964,0.019191248,0.048355103,1.949673,0.069057934,0.09079959
195262234,195161082,-0.3580235,0.09794485,0.19699271,0.019177262,-0.09120369,1.9978179,0.10121872,0.09046939
196267039,196165189,-0.23559584,0.1160738,0.13261463,0.019281084,0.44481087,2.035882,0.14024916,0.090204075
197260531,197159356,0.11874261,0.17081735,0.08339215,0.018723845,0.70757866,2.0228736,0.10090328,0.09012028
198264682,198163461,0.33814478,0.22844164,0.05875732,0.017726315,0.85425663,1.9911695,0.07172537,0.09013795
199258960,199157625,0.5135157,0.295408,0.048237626,0.016712023,0.9955673,1.9688443,0.06831469,0.0901793
200263212,200161726,0.6137639,0.34126732,0.042172745,0.015916754,0.5447197,1.9637719,0.05985849,0.090153016
201256979,201155882,0.7178496,0.3779064,0.036676824,0.015539331,0.64855576,1.9644444,0.052241955,0.09014011
202261209,202159978,0.7874718,0.39647794,0.031765003,0.015487117,0.46694374,1.9612639,0.06940351,0.09013455
203267674,203164072,0.88001627,0.41341418,0.027687185,0.015584436,0.7259121,1.9569238,0.10470534,0.090130106
204259419,204158223,0.9248454,0.42539254,0.024577012,0.015708957,0.7522602,1.9507953,0.085921146,0.09008169
205263641,205162318,0.99074024,0.46148086,0.02305393,0.015520755,0.50733376,1.9474859,0.0746226,0.090076976
206268389,206166412,1.0115328,0.50547826,0.022912795,0.014842588,0.6343956,1.944649,0.0843438,0.09009316
207261803,207160565,0.9999843,0.5788217,0.023036271,0.014013068,1.1248798,1.9432759,0.12978567,0.09011221
208266642,208164656,0.9452783,0.67598754,0.022950156,0.013246676,1.5945435,1.9430798,0.12500381,0.090125196
209259923,209158804,0.8645731,0.78170055,0.022662004,0.012591882,1.2047749,1.9415581,0.10592568,0.09013255
210264008,210162891,0.81414276,0.84448254,0.022384347,0.012013469,1.1155052,1.9413016,0.087365024,0.09013979
211258339,211157037,0.768476,0.91426903,0.022228692,0.0114966305,1.7089748,1.9409009,0.064552754,0.090150975
212262478,212161125,0.73796624,0.96249145,0.022157803,0.011034407,0.30583572,1.9395505,0.06381908,0.0901617
213267035,213165214,0.71534127,1.0050527,0.022097806,0.010609947,0.9713154,1.939141,0.039535735,0.09016107
214261613,214159353,0.69142103,1.0652478,0.022074748,0.0102067245,1.1071644,1.9377904,0.05297551,0.09015838
215264607,215163434,0.6652051,1.1358788,0.022065362,0.00982868,1.5347538,1.93657,0.08786686,0.09015501
216258755,216157572,0.6424894,1.1941793,0.02205786,0.009475851,0.71985435,1.9362706,0.12248476,0.09016515
217263917,217161650,0.62027955,1.2480438,0.022040153,0.009155886,1.3051491,1.9358859,0.10986007,0.09017666
218256990,218155786,0.5948478,1.3059971,0.022034077,0.008869818,1.5077267,1.9360627,0.107758634,0.09016908
219261079,219159861,0.5411662,1.3681992,0.021853887,0.008672217,0.94231415,1.942628,0.09459075,0.09010638
220265187,220163938,0.40004367,1.4092495,0.020824933,0.00868141,2.2427979,1.9474498,0.11931651,0.09009309
221259252,221158071,0.32482043,1.4157156,0.019265292,0.008797633,-0.42376518,1.9484631,0.1275954,0.090093516
222263220,222162154,0.24577771,1.4051621,0.017656617,0.008907593,0.8474102,1.9465358,0.12928283,0.09010545
223258546,223156276,0.13789108,1.3804985,0.016308572,0.00895523,1.4067173,1.9437046,0.07496547,0.09011139
224261417,224160347,0.014459178,1.3462907,0.01520065,0.008966073,1.4486599,1.9425213,0.06885458,0.090113066
225266219,225164415,-0.07161916,1.3219509,0.014248034,0.008989365,1.000143,1.9422742,0.09865075,0.09011768
226261178,226158540,-0.14988072,1.2995489,0.013446309,0.009022896,1.4519501,1.940466,0.005947369,0.09009712
227263878,227162607,-0.17323695,1.2862524,0.013089114,0.008922757,0.0826416,1.9407139,-0.012643224,0.0901024
228257902,228156733,-0.17608206,1.2800092,0.013148494,0.00869981,0.06398773,1.9395221,0.039048467,0.0900981
229261990,229160799,-0.1717823,1.2709703,0.013250623,0.008489157,0.25933647,1.9380827,0.032145318,0.09009942
230266807,230164862,-0.1598169,1.2596769,0.01319654,0.008350827,0.165102,1.9370327,0.056291245,0.09010215
231260404,231158992,-0.14384237,1.2496896,0.013018285,0.008257173,0.64507866,1.9367667,0.04811217,0.090105124
232264462,232163044,-0.12727268,1.2396252,0.01284184,0.008171916,0.20485878,1.9364761,0.08985204,0.090112634
233258466,233157162,-0.12694797,1.2434206,0.012723769,0.008067127,0.030471802,1.9363014,0.032530162,0.09012286
234264077,234161220,-0.12310891,1.2435201,0.012654767,0.007944828,-0.050123215,1.9355401,0.07477535,0.09011983
235256608,235155337,-0.11655316,1.2392795,0.012630816,0.00781677,0.5047188,1.9344928,0.0765812,0.09011914
236260551,236159393,-0.09874493,1.2146001,0.0126323635,0.007698932,0.8913975,1.9332339,0.067916915,0.09011611
237264775,237163448,-0.07575422,1.1796054,0.012647917,0.0075930306,1.3123741,1.9332283,0.06539198,0.09011485
238258940,238157561,-0.053016126,1.1481869,0.01266059,0.0074960957,1.243639,1.933704,0.07299085,0.09011914
239262944,239161614,-0.029378101,1.1157366,0.012672478,0.007410093,1.0822926,1.9328111,0.06288636,0.090130664
240267604,240165667,-0.008976864,1.089331,0.012681603,0.0073298384,0.29389,1.9329333,0.06689755,0.09013991
241260990,241159779,-0.0013989437,1.0797688,0.012683225,0.0072508785,0.6830044,1.933738,-0.015793234,0.09014689
242264966,242163829,0.020032093,1.0473492,0.012696052,0.007189154,1.8209915,1.9333512,0.037862815,0.090162374
243260149,243157940,0.037551787,1.0046688,0.012754027,0.0071039004,1.0281239,1.933946,0.07631494,0.09015354
244263183,244161991,0.04001026,0.95617867,0.012834275,0.006984118,1.3820953,1.9336439,0.09060342,0.0901465
245257298,245156099,0.046345674,0.9089013,0.012903584,0.0068711927,1.4255352,1.93346,0.08175912,0.090124786
246261275,246160148,0.06752726,0.8672333,0.012947848,0.0068011833,1.4351673,1.9344226,0.05093648,0.0901418
247265245,247164202,0.093691446,0.8403716,0.012927069,0.0067782127,1.1560688,1.934014,0.046682864,0.09016397
248259334,248158309,0.122234136,0.8215805,0.012858555,0.006790787,0.77676773,1.9328623,0.054984022,0.090164974
249263718,249162362,0.1504532,0.8042249,0.01280517,0.0068276157,0.7300453,1.9315937,0.06956291,0.09016835
250257567,250156471,0.17856959,0.78215826,0.01280637,0.006873176,0.802021,1.9312081,0.051624496,0.09016304
251261688,251160522,0.19950014,0.7501133,0.012898673,0.0069059543,1.3350315,1.9314802,0.0257635,0.09015489
252266187,252164571,0.20502259,0.71009,0.013045083,0.0069052987,1.1539707,1.9317502,0.017763583,0.09015086
253259910,253158680,0.19607966,0.6758232,0.01318928,0.006869507,1.1463585,1.9322813,0.012010636,0.090154596
254264076,254162730,0.16747847,0.63143647,0.013256832,0.0068178135,1.5127115,1.9329355,0.014494709,0.090162106
255268284,255166781,0.119742036,0.58170784,0.013193733,0.006777791,1.0984917,1.9330404,0.03658833,0.09016299
256261992,256160890,0.07181775,0.5455495,0.012961156,0.006782317,0.971817,1.9352974,0.04208299,0.09014333
257267852,257164939,-0.010259312,0.5047371,0.012543141,0.0068530636,1.3876572,1.9354956,0.020833142,0.09015515
258260431,258159043,-0.09964896,0.47269294,0.012037726,0.0069721946,1.072155,1.9360203,0.028078733,0.090170704
259264116,259163095,-0.19784448,0.45117176,0.01151789,0.007132032,1.3375111,1.9350576,0.0585608,0.0901711
260258221,260157193,-0.2779509,0.4442106,0.011058658,0.0073076915,1.0052719,1.9342247,0.10046048,0.0901608
261262392,261161237,-0.33753067,0.45126542,0.010736447,0.007465042,1.3079433,1.9329212,0.106140316,0.090152554
262267292,262165280,-0.389702,0.47115538,0.01058459,0.007555387,1.0236645,1.931564,0.0945075,0.09014804
263260733,263159381,-0.41694683,0.49240044,0.010572185,0.00756677,0.7699909,1.9305168,0.095393024,0.09014801
264264668,264163423,-0.42203522,0.49748766,0.010657392,0.007507542,0.701458,1.9303366,0.070974685,0.0901529
265258645,265157523,-0.4253212,0.510559,0.010780733,0.007397268,-0.11096573,1.930054,0.034252692,0.09015335
266262930,266161565,-0.426006,0.52049166,0.010915831,0.007308781,0.3597126,1.9293015,0.012384618,0.09016377
267256968,267155668,-0.42739448,0.5399428,0.011074371,0.007245794,0.88643646,1.9293647,0.026915504,0.09016049
268260800,268159713,-0.4296379,0.57354885,0.011247801,0.007201475,1.059474,1.9292915,0.0739931,0.09015974
269264939,269163757,-0.4335621,0.6108063,0.011422231,0.007166795,1.4022913,1.928958,0.07902639,0.09015846
270259901,270157860,-0.4368208,0.64779586,0.011597067,0.007133743,0.5593376,1.9284079,0.06735773,0.09017803
271264692,271161906,-0.44166747,0.67212516,0.011767911,0.0071089803,0.77877617,1.9275918,0.07208606,0.09020575
272267569,272165952,-0.4483023,0.6945442,0.011925624,0.0070915385,0.66817665,1.9273527,0.0814228,0.09022422
273261164,273160059,-0.45505315,0.70476925,0.012088222,0.0070784464,0.026269913,1.9272195,0.10357362,0.09024665
274267537,274164106,-0.4611771,0.71677583,0.012253947,0.0070690014,0.53552055,1.927086,0.08693074,0.09024177
275259414,275158213,-0.46706134,0.72458154,0.012418558,0.007057664,0.03959465,1.926772,0.097414136,0.09024048
276263479,276162261,-0.47377285,0.7242605,0.0125700915,0.00704722,0.37118816,1.9276311,0.065664604,0.09025266
277258000,277156368,-0.4803507,0.7351284,0.0127221765,0.0070358473,0.12318134,1.9264573,0.092585,0.09027692
278261717,278160416,-0.48786816,0.7416666,0.012871564,0.0070301057,0.33154106,1.9261568,0.09677722,0.09029141
279266252,279164464,-0.49798906,0.7525235,0.013007157,0.0070265373,0.35110188,1.9260209,0.08974443,0.090288594
280259884,280158570,-0.5036785,0.75894755,0.0131604085,0.007020159,0.25462246,1.9256879,0.07607832,0.090287395
281263638,281162617,-0.5094832,0.76704913,0.013310942,0.0070150737,-0.2787075,1.9261333,0.05432661,0.09031426
282257823,282156723,-0.5116823,0.77551883,0.0134533765,0.007008558,0.37670898,1.9259585,0.035952654,0.090326756
283261775,283160770,-0.51892245,0.7894718,0.013574557,0.0070029264,0.36302948,1.9257332,0.05309071,0.090330474
284257095,284154875,-0.5240188,0.8046882,0.0137079675,0.0069946423,0.8214302,1.9259598,0.03822703,0.090342075
285259944,285158921,-0.52707475,0.8402261,0.013844237,0.006991275,1.2052794,1.925606,0.0444588,0.09032819
286264355,286162967,-0.5318216,0.8738119,0.013973809,0.006986871,1.1057558,1.9257404,0.045116797,0.090314336
287268426,287167012,-0.5361816,0.91661716,0.014116951,0.006979349,1.1664639,1.925341,0.051027834,0.09034042
288262539,288161120,-0.54413724,0.96168214,0.01425003,0.0069702687,1.5752344,1.9255011,0.06756863,0.090352155
289266832,289165160,-0.5503707,1.0235611,0.014385463,0.0069652135,1.4090567,1.9261677,0.04774609,0.090361975
290261425,290159263,-0.5590427,1.0580927,0.0144985,0.006954653,1.8574514,1.9273465,0.07913305,0.09036793
291264501,291163306,-0.57492125,1.1015352,0.014617945,0.006950166,0.8615179,1.9275746,0.090469696,0.09038707
292258691,292157408,-0.58962893,1.1453991,0.014717499,0.0069455463,1.4590626,1.9279453,0.011132312,0.090434246
293262674,293161451,-0.5865545,1.160826,0.014803948,0.0070159524,1.0852976,1.9299164,-0.20758909,0.09166554
294268299,294165492,-0.5865545,1.160826,0.015039585,0.0072515896,0.26046497,1.9281539,2.4922528,4.9159236
295260676,295159593,-0.5865545,1.160826,0.015268312,0.0074803135,-0.7225226,1.9340129,0.050339438,0.10410773
296264657,296163633,-0.5865545,1.160826,0.015491307,0.0077033206,-0.13265014,1.9341482,-0.0074573774,0.10531049
297263896,297162704,-0.5865545,1.160826,0.015702646,0.007914664,-0.045996666,1.9350079,-0.024100466,0.10575313
