timestamp,x,y,z,vx,vy,vz,acceleration[0],acceleration[1],acceleration[2],thrust[0],thrust[1],thrust[2],yaw,yawspeed
176293214,0.0,0.0,33.46734,nan,nan,nan,nan,nan,nan,0.0,0.0,0.0,nan,nan
176313290,0.0,0.0,-50.776283,nan,nan,nan,nan,nan,nan,0.0,0.0,0.0,nan,nan
176393066,0.0,0.0,-50.776283,nan,nan,nan,nan,nan,nan,0.0,0.0,0.0,nan,nan
176493069,0.0,0.0,-50.776283,nan,nan,nan,nan,nan,nan,0.0,0.0,0.0,nan,nan
176591812,0.0,0.0,-50.776283,nan,nan,nan,nan,nan,nan,0.0,0.0,0.0,nan,nan
176691001,0.0,0.0,-50.776283,nan,nan,nan,nan,nan,nan,0.0,0.0,0.0,nan,nan
176790461,0.0,0.0,-50.776283,nan,nan,nan,nan,nan,nan,0.0,0.0,0.0,nan,nan
176890243,0.0,0.0,-50.776283,nan,nan,nan,nan,nan,nan,0.0,0.0,0.0,nan,nan
176989158,0.0,0.0,-50.776283,nan,nan,nan,nan,nan,nan,0.0,0.0,0.0,nan,nan
177088655,0.0,0.0,-50.776283,nan,nan,nan,nan,nan,nan,0.0,0.0,0.0,nan,nan
177188175,0.0,0.0,-50.776283,nan,nan,nan,nan,nan,nan,0.0,0.0,0.0,nan,nan
177287426,0.0,0.0,-50.776283,nan,nan,nan,nan,nan,nan,0.0,0.0,0.0,nan,nan
177387086,0.0,0.0,-50.776283,nan,nan,nan,nan,nan,nan,0.0,0.0,0.0,nan,nan
177487703,0.0,0.0,-50.776283,nan,nan,nan,nan,nan,nan,0.0,0.0,0.0,nan,nan
177586072,0.0,0.0,-50.776283,nan,nan,nan,nan,nan,nan,0.0,0.0,0.0,nan,nan
177695144,0.0,0.0,-50.776283,nan,nan,nan,nan,nan,nan,0.0,0.0,0.0,nan,nan
177794776,26.968225,28.310675,-50.776283,nan,nan,nan,nan,nan,nan,1.0,0.0,0.0,nan,nan
177894257,26.988117,28.1491,-50.776283,nan,nan,nan,nan,nan,nan,1.0,0.0,0.0,nan,nan
177993734,26.984644,28.177324,-50.776283,nan,nan,nan,nan,nan,nan,1.0,0.0,0.0,nan,nan
178093076,26.983139,28.189537,-50.776283,nan,nan,nan,nan,nan,nan,1.0,0.0,0.0,nan,nan
178192410,26.977768,28.233164,-50.776283,nan,nan,nan,nan,nan,nan,1.0,0.0,0.0,nan,nan
178291992,26.970566,28.29166,-50.776283,nan,nan,nan,nan,nan,nan,1.0,0.0,0.0,nan,nan
178391129,26.963469,28.349306,-50.776283,nan,nan,nan,nan,nan,nan,1.0,0.0,0.0,nan,nan
178492009,26.956528,28.405676,-50.776283,nan,nan,nan,nan,nan,nan,1.0,0.0,0.0,nan,nan
178589997,26.951584,28.445827,-50.776283,nan,nan,nan,nan,nan,nan,1.0,0.0,0.0,nan,nan
178689383,26.95033,28.456017,-50.776283,nan,nan,nan,nan,nan,nan,1.0,0.0,0.0,nan,nan
178788866,26.954447,28.422573,-50.776283,nan,nan,nan,nan,nan,nan,1.0,0.0,0.0,nan,nan
178888254,26.964792,28.338558,-50.776283,nan,nan,nan,nan,nan,nan,1.0,0.0,0.0,nan,nan
178988828,26.985155,28.173159,-50.776283,nan,nan,nan,nan,nan,nan,1.0,0.0,0.0,nan,nan
179087174,27.038145,27.74277,-50.776283,nan,nan,nan,nan,nan,nan,1.0,0.0,0.0,nan,nan
179186775,27.12485,27.038555,-50.776283,nan,nan,nan,nan,nan,nan,1.0,0.0,0.0,nan,nan
179286156,27.223232,26.239481,-50.776283,nan,nan,nan,nan,nan,nan,1.0,0.0,0.0,nan,nan
179375715,27.32043,25.45002,-50.776283,nan,nan,nan,nan,nan,nan,1.0,0.0,0.0,nan,nan
179495037,27.460169,24.315056,-50.776283,nan,nan,nan,nan,nan,nan,1.0,0.0,0.0,nan,nan
179594360,27.584372,23.306261,-50.776283,nan,nan,nan,nan,nan,nan,1.0,0.0,0.0,nan,nan
179694228,27.715527,22.241016,-50.776283,nan,nan,nan,nan,nan,nan,1.0,0.0,0.0,nan,nan
179793083,27.85433,21.113642,-50.776283,nan,nan,nan,nan,nan,nan,1.0,0.0,0.0,nan,nan
179892416,28.000782,19.924145,-50.776283,nan,nan,nan,nan,nan,nan,1.0,0.0,0.0,nan,nan
179994004,28.153912,18.680405,-50.776283,nan,nan,nan,nan,nan,nan,1.0,0.0,0.0,nan,nan
180091421,28.312765,17.390175,-50.776283,nan,nan,nan,nan,nan,nan,1.0,0.0,0.0,nan,nan
180190712,28.476908,16.056992,-50.776283,nan,nan,nan,nan,nan,nan,1.0,0.0,0.0,nan,nan
180290309,28.64576,14.685563,-50.776283,nan,nan,nan,nan,nan,nan,1.0,0.0,0.0,nan,nan
180389700,28.819784,13.272121,-50.776283,nan,nan,nan,nan,nan,nan,1.0,0.0,0.0,nan,nan
180490729,28.99951,11.812372,-50.776283,nan,nan,nan,nan,nan,nan,1.0,0.0,0.0,nan,nan
180588396,29.184343,10.311127,-50.776283,nan,nan,nan,nan,nan,nan,1.0,0.0,0.0,nan,nan
180687741,29.372969,8.7790985,-50.776283,nan,nan,nan,nan,nan,nan,1.0,0.0,0.0,nan,nan
180787404,29.564587,7.222765,-50.776283,nan,nan,nan,nan,nan,nan,1.0,0.0,0.0,nan,nan
180886703,29.758617,5.646826,-50.776283,nan,nan,nan,nan,nan,nan,1.0,0.0,0.0,nan,nan
180987456,29.955446,4.0481567,-50.776283,nan,nan,nan,nan,nan,nan,1.0,0.0,0.0,nan,nan
181095740,30.173628,2.2760658,-50.776283,nan,nan,nan,nan,nan,nan,1.0,0.0,0.0,nan,nan
181194942,30.372787,0.65847206,-50.776283,nan,nan,nan,nan,nan,nan,1.0,0.0,0.0,nan,nan
181294523,30.573778,-0.97400665,-50.776283,nan,nan,nan,nan,nan,nan,1.0,0.0,0.0,nan,nan
181394127,30.776136,-2.6175785,-50.776283,nan,nan,nan,nan,nan,nan,0.9989754,0.0,0.0,nan,nan
181494350,30.979023,-4.2654495,-50.776283,nan,nan,nan,nan,nan,nan,0.9922866,0.0,0.0,nan,nan
181592400,31.181984,-5.9139137,-50.776283,nan,nan,nan,nan,nan,nan,0.98514146,0.0,0.0,nan,nan
181691846,31.386015,-7.5710754,-50.776283,nan,nan,nan,nan,nan,nan,0.9780881,0.0,0.0,nan,nan
181791142,31.592096,-9.2448845,-50.776283,nan,nan,nan,nan,nan,nan,0.9723468,0.0,0.0,nan,nan
181890653,31.800499,-10.937546,-50.776283,nan,nan,nan,nan,nan,nan,0.9678054,0.0,0.0,nan,nan
181991545,32.01092,-12.646614,-50.776283,nan,nan,nan,nan,nan,nan,0.9636043,0.0,0.0,nan,nan
182089523,32.222725,-14.366913,-50.776283,nan,nan,nan,nan,nan,nan,0.9591256,0.0,0.0,nan,nan
182190213,32.4352,-16.092667,-50.776283,nan,nan,nan,nan,nan,nan,0.9544635,0.0,0.0,nan,nan
182288418,32.649548,-17.833626,-50.776283,nan,nan,nan,nan,nan,nan,0.9503057,0.0,0.0,nan,nan
182388086,32.866196,-19.593239,-50.776283,nan,nan,nan,nan,nan,nan,0.9453655,0.0,0.0,nan,nan
182488268,33.08368,-21.359657,-50.776283,nan,nan,nan,nan,nan,nan,0.93833995,0.0,0.0,nan,nan
182586604,33.30247,-23.136723,-50.776283,nan,nan,nan,nan,nan,nan,0.92777336,0.0,0.0,nan,nan
182686386,33.52272,-24.925625,-50.776283,nan,nan,nan,nan,nan,nan,0.9071572,0.0,0.0,nan,nan
182795926,33.76673,-26.907494,-50.776283,nan,nan,nan,nan,nan,nan,0.87870014,0.0,0.0,nan,nan
182896185,33.98987,-28.719849,-50.776283,nan,nan,nan,nan,nan,nan,0.85747105,0.0,0.0,nan,nan
182986249,34.192963,-30.369392,-50.776283,nan,nan,nan,nan,nan,nan,0.8453594,0.0,0.0,nan,nan
183094176,34.444336,-32.411053,-50.776283,nan,nan,nan,nan,nan,nan,0.8244886,0.0,0.0,nan,nan
183193431,34.672913,-34.267582,-50.776283,nan,nan,nan,nan,nan,nan,0.8136745,0.0,0.0,nan,nan
183292447,34.901806,-36.126694,-50.776283,nan,nan,nan,nan,nan,nan,0.8050096,0.0,0.0,nan,nan
183391883,35.131123,-37.989227,-50.776283,nan,nan,nan,nan,nan,nan,0.79677796,0.0,0.0,nan,nan
183492896,35.359165,-39.841393,-50.776283,nan,nan,nan,nan,nan,nan,0.7849366,0.0,0.0,nan,nan
183592088,35.586,-41.68376,-50.776283,nan,nan,nan,nan,nan,nan,0.77136844,0.0,0.0,nan,nan
183690617,35.8106,-43.50801,-50.776283,nan,nan,nan,nan,nan,nan,0.75462466,0.0,0.0,nan,nan
183789643,36.032085,-45.30693,-50.776283,nan,nan,nan,nan,nan,nan,0.73838,0.0,0.0,nan,nan
183889060,36.254158,-47.11061,-50.776283,nan,nan,nan,nan,nan,nan,0.7294774,0.0,0.0,nan,nan
183990562,36.47707,-48.92115,-50.776283,nan,nan,nan,nan,nan,nan,0.7279781,0.0,0.0,nan,nan
184088162,36.699524,-50.72795,-50.776283,nan,nan,nan,nan,nan,nan,0.72729725,0.0,0.0,nan,nan
184187151,36.919136,-52.511627,-50.776283,nan,nan,nan,nan,nan,nan,0.7276949,0.0,0.0,nan,nan
184287981,37.13618,-54.274506,-50.776283,nan,nan,nan,nan,nan,nan,0.7287271,0.0,0.0,nan,nan
184386098,37.35219,-56.028954,-50.776283,nan,nan,nan,nan,nan,nan,0.7285718,0.0,0.0,nan,nan
184498562,37.58799,-57.944168,-50.776283,nan,nan,nan,nan,nan,nan,0.72749317,0.0,0.0,nan,nan
184594987,37.80143,-59.677734,-50.776283,nan,nan,nan,nan,nan,nan,0.7264399,0.0,0.0,nan,nan
184694584,38.013977,-61.404068,-50.776283,nan,nan,nan,nan,nan,nan,0.72604436,0.0,0.0,nan,nan
184794029,38.22654,-63.130516,-50.776283,nan,nan,nan,nan,nan,nan,0.7255083,0.0,0.0,nan,nan
184893083,38.438656,-64.85335,-50.776283,nan,nan,nan,nan,nan,nan,0.7232167,0.0,0.0,nan,nan
184993967,38.650375,-66.57295,-50.776283,nan,nan,nan,nan,nan,nan,0.7199628,0.0,0.0,nan,nan
185092101,38.862762,-68.29799,-50.776283,nan,nan,nan,nan,nan,nan,0.71708196,0.0,0.0,nan,nan
185191254,39.07374,-70.011536,-50.776283,nan,nan,nan,nan,nan,nan,0.7128833,0.0,0.0,nan,nan
185290760,39.283607,-71.716125,-50.776283,nan,nan,nan,nan,nan,nan,0.7070356,0.0,0.0,nan,nan
185390522,39.493477,-73.4207,-50.776283,nan,nan,nan,nan,nan,nan,0.7018138,0.0,0.0,nan,nan
185491277,39.703297,-75.124886,-50.776283,nan,nan,nan,nan,nan,nan,0.69941777,0.0,0.0,nan,nan
185589157,39.912636,-76.82515,-50.776283,nan,nan,nan,nan,nan,nan,0.6981855,0.0,0.0,nan,nan
185689732,40.122044,-78.526,-50.776283,nan,nan,nan,nan,nan,nan,0.70055044,0.0,0.0,nan,nan
185788069,40.330948,-80.22273,-50.776283,nan,nan,nan,nan,nan,nan,0.7043381,0.0,0.0,nan,nan
185887219,40.53799,-81.904366,-50.776283,nan,nan,nan,nan,nan,nan,0.70865077,0.0,0.0,nan,nan
185988157,40.74518,-83.587166,-50.776283,nan,nan,nan,nan,nan,nan,0.7102371,0.0,0.0,nan,nan
186086314,40.953445,-85.278725,-50.776283,nan,nan,nan,nan,nan,nan,0.7164618,0.0,0.0,nan,nan
186187030,41.161594,-86.96932,-50.776283,nan,nan,nan,nan,nan,nan,0.7244441,0.0,0.0,nan,nan
186295147,41.38946,-88.8201,-50.776283,nan,nan,nan,nan,nan,nan,0.72995186,0.0,0.0,nan,nan
186395739,41.59754,-90.51013,-50.776283,nan,nan,nan,nan,nan,nan,0.73247087,0.0,0.0,nan,nan
186494375,41.80666,-92.20862,-50.776283,nan,nan,nan,nan,nan,nan,0.73596364,0.0,0.0,nan,nan
186593318,42.015823,-93.907455,-50.776283,nan,nan,nan,nan,nan,nan,0.7421558,0.0,0.0,nan,nan
186693129,42.225994,-95.614494,-50.776283,nan,nan,nan,nan,nan,nan,0.7564691,0.0,0.0,nan,nan
186792359,42.436348,-97.323006,-50.776283,nan,nan,nan,nan,nan,nan,0.763429,0.0,0.0,nan,nan
186891598,42.647697,-99.03961,-50.776283,nan,nan,nan,nan,nan,nan,0.77053714,0.0,0.0,nan,nan
186992276,42.859882,-100.763,-50.776283,nan,nan,nan,nan,nan,nan,0.7831448,0.0,0.0,nan,nan
187091789,43.07357,-102.4986,-50.776283,nan,nan,nan,nan,nan,nan,0.78630966,0.0,0.0,nan,nan
187189965,43.28826,-104.24234,-50.776283,nan,nan,nan,nan,nan,nan,0.79079354,0.0,0.0,nan,nan
187289038,43.503433,-105.98999,-50.776283,nan,nan,nan,nan,nan,nan,0.79353815,0.0,0.0,nan,nan
187388651,43.71962,-107.745895,-50.776283,nan,nan,nan,nan,nan,nan,0.79249793,0.0,0.0,nan,nan
187488126,43.93723,-109.51332,-50.776283,nan,nan,nan,nan,nan,nan,0.8000954,0.0,0.0,nan,nan
187588427,44.155605,-111.287,-50.776283,nan,nan,nan,nan,nan,nan,0.79315513,0.0,0.0,nan,nan
187686941,44.374615,-113.06581,-50.776283,nan,nan,nan,nan,nan,nan,0.79948175,0.0,0.0,nan,nan
187786241,44.594345,-114.85048,-50.776283,nan,nan,nan,nan,nan,nan,0.79033273,0.0,0.0,nan,nan
187886727,44.81569,-116.648254,-50.776283,nan,nan,nan,nan,nan,nan,0.7827843,0.0,0.0,nan,nan
187986543,45.037495,-118.44978,-50.776283,nan,nan,nan,nan,nan,nan,0.77556795,0.0,0.0,nan,nan
188095930,45.28146,-120.43129,-50.776283,nan,nan,nan,nan,nan,nan,0.77469236,0.0,0.0,nan,nan
188194234,45.50286,-122.22957,-50.776283,nan,nan,nan,nan,nan,nan,0.77354264,0.0,0.0,nan,nan
188293392,45.723938,-124.02515,-50.776283,nan,nan,nan,nan,nan,nan,0.77272844,0.0,0.0,nan,nan
188392697,45.943886,-125.811615,-50.776283,nan,nan,nan,nan,nan,nan,0.77258456,0.0,0.0,nan,nan
188494264,46.163586,-127.59602,-50.776283,nan,nan,nan,nan,nan,nan,0.76781064,0.0,0.0,nan,nan
188591707,46.384686,-129.39182,-50.776283,nan,nan,nan,nan,nan,nan,0.7676286,0.0,0.0,nan,nan
188690896,46.605366,-131.18419,-50.776283,nan,nan,nan,nan,nan,nan,0.75778365,0.0,0.0,nan,nan
188791649,46.824066,-132.96048,-50.776283,nan,nan,nan,nan,nan,nan,0.7492651,0.0,0.0,nan,nan
188890000,47.04219,-134.73215,-50.776283,nan,nan,nan,nan,nan,nan,0.7451283,0.0,0.0,nan,nan
188989086,47.260696,-136.50685,-50.776283,nan,nan,nan,nan,nan,nan,0.7430512,0.0,0.0,nan,nan
189088676,47.47771,-138.26947,-50.776283,nan,nan,nan,nan,nan,nan,0.7417018,0.0,0.0,nan,nan
189188389,47.694595,-140.03102,-50.776283,nan,nan,nan,nan,nan,nan,0.74476147,0.0,0.0,nan,nan
189287530,47.910606,-141.78549,-50.776283,nan,nan,nan,nan,nan,nan,0.74716586,0.0,0.0,nan,nan
189387047,48.127663,-143.54845,-50.776283,nan,nan,nan,nan,nan,nan,0.74340963,0.0,0.0,nan,nan
189487704,48.346077,-145.32243,-50.776283,nan,nan,nan,nan,nan,nan,0.7504286,0.0,0.0,nan,nan
189585761,48.564156,-147.0937,-50.776283,nan,nan,nan,nan,nan,nan,0.7549121,0.0,0.0,nan,nan
189696576,48.804157,-149.04301,-50.776283,nan,nan,nan,nan,nan,nan,0.75118804,0.0,0.0,nan,nan
189794811,49.022507,-150.81647,-50.776283,nan,nan,nan,nan,nan,nan,0.7555811,0.0,0.0,nan,nan
189894331,49.241318,-152.59367,-50.776283,nan,nan,nan,nan,nan,nan,0.7622911,0.0,0.0,nan,nan
189994868,49.461067,-154.37852,-50.776283,nan,nan,nan,nan,nan,nan,0.7655797,0.0,0.0,nan,nan
190092687,49.68062,-156.16171,-50.776283,nan,nan,nan,nan,nan,nan,0.7627523,0.0,0.0,nan,nan
190194058,49.89997,-157.94331,-50.776283,nan,nan,nan,nan,nan,nan,0.76366657,0.0,0.0,nan,nan
190291711,50.119347,-159.72511,-50.776283,nan,nan,nan,nan,nan,nan,0.7625437,0.0,0.0,nan,nan
190390985,50.338318,-161.50362,-50.776283,nan,nan,nan,nan,nan,nan,0.76275957,0.0,0.0,nan,nan
190491659,50.556362,-163.2746,-50.776283,nan,nan,nan,nan,nan,nan,0.7591423,0.0,0.0,nan,nan
190589923,50.774765,-165.04848,-50.776283,nan,nan,nan,nan,nan,nan,0.7635071,0.0,0.0,nan,nan
190689101,50.993523,-166.82524,-50.776283,nan,nan,nan,nan,nan,nan,0.76598746,0.0,0.0,nan,nan
190788740,51.211388,-168.59477,-50.776283,nan,nan,nan,nan,nan,nan,0.7640785,0.0,0.0,nan,nan
190889086,51.42833,-170.35681,-50.776283,nan,nan,nan,nan,nan,nan,0.7651918,0.0,0.0,nan,nan
190988983,51.64598,-172.12457,-50.776283,nan,nan,nan,nan,nan,nan,0.76861787,0.0,0.0,nan,nan
191086900,51.86329,-173.88957,-50.776283,nan,nan,nan,nan,nan,nan,0.7666567,0.0,0.0,nan,nan
191186474,52.078873,-175.64056,-50.776283,nan,nan,nan,nan,nan,nan,0.7642111,0.0,0.0,nan,nan
191285723,52.293102,-177.38058,-50.776283,nan,nan,nan,nan,nan,nan,0.7569094,0.0,0.0,nan,nan
191395128,52.528984,-179.29645,-50.776283,nan,nan,nan,nan,nan,nan,0.7543241,0.0,0.0,nan,nan
191495711,52.743492,-181.03868,-50.776283,nan,nan,nan,nan,nan,nan,0.7522634,0.0,0.0,nan,nan
191594373,52.95668,-182.77022,-50.776283,nan,nan,nan,nan,nan,nan,0.74447,0.0,0.0,nan,nan
191693702,53.168797,-184.49306,-50.776283,nan,nan,nan,nan,nan,nan,0.7416405,0.0,0.0,nan,nan
191792664,53.381332,-186.21928,-50.776283,nan,nan,nan,nan,nan,nan,0.7389808,0.0,0.0,nan,nan
191892299,53.594658,-187.95197,-50.776283,nan,nan,nan,nan,nan,nan,0.73614156,0.0,0.0,nan,nan
191994650,53.808365,-189.68771,-50.776283,nan,nan,nan,nan,nan,nan,0.7322397,0.0,0.0,nan,nan
192091005,54.022957,-191.43062,-50.776283,nan,nan,nan,nan,nan,nan,0.73256594,0.0,0.0,nan,nan
192190597,54.23905,-193.18578,-50.776283,nan,nan,nan,nan,nan,nan,0.73351467,0.0,0.0,nan,nan
192289743,54.456062,-194.94835,-50.776283,nan,nan,nan,nan,nan,nan,0.7325096,0.0,0.0,nan,nan
192389175,54.672623,-196.70728,-50.776283,nan,nan,nan,nan,nan,nan,0.7317766,0.0,0.0,nan,nan
192491389,54.89009,-198.47359,-50.776283,nan,nan,nan,nan,nan,nan,0.72884643,0.0,0.0,nan,nan
192588070,55.109207,-200.25327,-50.776283,nan,nan,nan,nan,nan,nan,0.72925735,0.0,0.0,nan,nan
192687344,55.328373,-202.03336,-50.776283,nan,nan,nan,nan,nan,nan,0.72785056,0.0,0.0,nan,nan
192786929,55.54726,-203.81119,-50.776283,nan,nan,nan,nan,nan,nan,0.7054502,0.0,0.0,nan,nan
192886312,55.76674,-205.5938,-50.776283,nan,nan,nan,nan,nan,nan,0.6834573,0.0,0.0,nan,nan
192987010,55.98655,-207.37915,-50.776283,nan,nan,nan,nan,nan,nan,0.65509415,0.0,0.0,nan,nan
193095180,56.22693,-209.33154,-50.776283,nan,nan,nan,nan,nan,nan,0.6239145,0.0,0.0,nan,nan
193194686,56.443924,-211.094,-50.776283,nan,nan,nan,nan,nan,nan,0.5940331,0.0,0.0,nan,nan
193294219,56.659195,-212.84242,-50.776283,nan,nan,nan,nan,nan,nan,0.5639677,0.0,0.0,nan,nan
193394812,56.87372,-214.58481,-50.776283,nan,nan,nan,nan,nan,nan,0.56534195,0.0,0.0,nan,nan
193494007,57.087906,-216.32448,-50.776283,nan,nan,nan,nan,nan,nan,0.5613371,0.0,0.0,nan,nan
193592291,62.59434,-216.44873,-50.876335,nan,nan,nan,nan,nan,nan,0.55421937,0.0,0.0,nan,nan
193692067,53.84916,-217.4208,-50.876335,nan,nan,nan,nan,nan,nan,0.52844954,0.0,0.0,nan,nan
193791175,53.835182,-217.42236,-50.876335,nan,nan,nan,nan,nan,nan,0.5037917,0.0,0.0,nan,nan
193890876,53.82648,-217.42332,-50.876335,nan,nan,nan,nan,nan,nan,0.49507633,0.0,0.0,nan,nan
193991177,53.828644,-217.4231,-50.876335,nan,nan,nan,nan,nan,nan,0.5037252,0.0,0.0,nan,nan
194090573,53.85111,-217.4206,-50.876335,nan,nan,nan,nan,nan,nan,0.51777565,0.0,0.0,nan,nan
194188938,53.89727,-217.41547,-50.876335,nan,nan,nan,nan,nan,nan,0.53157,0.0,0.0,nan,nan
194288297,53.977715,-217.40652,-50.876335,nan,nan,nan,nan,nan,nan,0.5420017,0.0,0.0,nan,nan
194387861,54.111046,-217.3917,-50.876335,nan,nan,nan,nan,nan,nan,0.5512467,0.0,0.0,nan,nan
194487339,54.308647,-217.36974,-50.876335,nan,nan,nan,nan,nan,nan,0.56411123,0.0,0.0,nan,nan
194586635,54.579052,-217.33968,-50.876335,nan,nan,nan,nan,nan,nan,0.5726746,0.0,0.0,nan,nan
194686158,54.93531,-217.30008,-50.876335,nan,nan,nan,nan,nan,nan,0.5757917,0.0,0.0,nan,nan
194775455,55.33745,-217.25537,-50.876335,nan,nan,nan,nan,nan,nan,0.5730809,0.0,0.0,nan,nan
194894908,55.99213,-217.1826,-50.876335,nan,nan,nan,nan,nan,nan,0.56227267,0.0,0.0,nan,nan
194995618,56.632973,-217.11137,-50.876335,nan,nan,nan,nan,nan,nan,0.5574917,0.0,0.0,nan,nan
195094138,57.344856,-217.03224,-50.876335,nan,nan,nan,nan,nan,nan,0.55470544,0.0,0.0,nan,nan
195193208,58.126896,-216.94531,-50.876335,nan,nan,nan,nan,nan,nan,0.5483613,0.0,0.0,nan,nan
195292854,58.953636,-216.85341,-50.876335,nan,nan,nan,nan,nan,nan,0.5374327,0.0,0.0,nan,nan
195391973,59.834507,-216.75551,-50.876335,nan,nan,nan,nan,nan,nan,0.53270924,0.0,0.0,nan,nan
195491364,60.76705,-216.65184,-50.876335,nan,nan,nan,nan,nan,nan,0.53677183,0.0,0.0,nan,nan
195590769,61.74968,-216.54262,-50.876335,nan,nan,nan,nan,nan,nan,0.5473466,0.0,0.0,nan,nan
195691221,62.77167,-216.42902,-50.876335,nan,nan,nan,nan,nan,nan,0.5383592,0.0,0.0,nan,nan
195789412,63.859093,-216.30815,-50.876335,nan,nan,nan,nan,nan,nan,0.5354431,0.0,0.0,nan,nan
195889047,65.007515,-216.1805,-50.876335,nan,nan,nan,nan,nan,nan,0.5430591,0.0,0.0,nan,nan
195988383,66.207184,-216.04715,-50.876335,nan,nan,nan,nan,nan,nan,0.53424764,0.0,0.0,nan,nan
196087797,67.45392,-215.90855,-50.876335,nan,nan,nan,nan,nan,nan,0.5285567,0.0,0.0,nan,nan
196188459,68.73895,-215.76572,-50.876335,nan,nan,nan,nan,nan,nan,0.5369884,0.0,0.0,nan,nan
196286611,70.03652,-215.62149,-50.876335,nan,nan,nan,nan,nan,nan,0.54125315,0.0,0.0,nan,nan
196386264,71.36926,-215.47334,-50.876335,nan,nan,nan,nan,nan,nan,0.5328528,0.0,0.0,nan,nan
196495694,72.878845,-215.30554,-50.876335,nan,nan,nan,nan,nan,nan,0.5285546,0.0,0.0,nan,nan
196595197,74.28083,-215.1497,-50.876335,nan,nan,nan,nan,nan,nan,0.5404738,0.0,0.0,nan,nan
196694405,75.70823,-214.99104,-50.876335,nan,nan,nan,nan,nan,nan,0.550082,0.0,0.0,nan,nan
196793818,77.16563,-214.82904,-50.876335,nan,nan,nan,nan,nan,nan,0.5482709,0.0,0.0,nan,nan
196893071,78.65097,-214.66394,-50.876335,nan,nan,nan,nan,nan,nan,0.5425647,0.0,0.0,nan,nan
196992759,80.15634,-214.49661,-50.876335,nan,nan,nan,nan,nan,nan,0.54136086,0.0,0.0,nan,nan
197091873,81.67512,-214.32779,-50.876335,nan,nan,nan,nan,nan,nan,0.54950094,0.0,0.0,nan,nan
197191404,83.20074,-214.1582,-50.876335,nan,nan,nan,nan,nan,nan,0.55139124,0.0,0.0,nan,nan
197290646,84.73004,-213.98822,-50.876335,nan,nan,nan,nan,nan,nan,0.5456269,0.0,0.0,nan,nan
197391380,86.26761,-213.8173,-50.876335,nan,nan,nan,nan,nan,nan,0.5472614,0.0,0.0,nan,nan
197489506,87.80529,-213.6464,-50.876335,nan,nan,nan,nan,nan,nan,0.55167943,0.0,0.0,nan,nan
197588895,89.34496,-213.47523,-50.876335,nan,nan,nan,nan,nan,nan,0.5538158,0.0,0.0,nan,nan
197688308,90.8849,-213.30406,-50.876335,nan,nan,nan,nan,nan,nan,0.5497839,0.0,0.0,nan,nan
197787755,92.41383,-213.13412,-50.876335,nan,nan,nan,nan,nan,nan,0.5526335,0.0,0.0,nan,nan
197887439,93.93227,-212.96533,-50.876335,nan,nan,nan,nan,nan,nan,0.5512199,0.0,0.0,nan,nan
197988616,95.44438,-212.79726,-50.876335,nan,nan,nan,nan,nan,nan,0.54010314,0.0,0.0,nan,nan
198088053,96.95009,-212.62988,-50.876335,nan,nan,nan,nan,nan,nan,0.5379347,0.0,0.0,nan,nan
198195808,98.586876,-212.44795,-50.876335,nan,nan,nan,nan,nan,nan,0.54091215,0.0,0.0,nan,nan
198296588,100.05173,-212.28513,-50.876335,nan,nan,nan,nan,nan,nan,0.53441644,0.0,0.0,nan,nan
198394502,101.501526,-212.12396,-50.876335,nan,nan,nan,nan,nan,nan,0.52728957,0.0,0.0,nan,nan
198495779,102.93924,-211.96416,-50.876335,nan,nan,nan,nan,nan,nan,0.5229698,0.0,0.0,nan,nan
198593373,104.36305,-211.8059,-50.876335,nan,nan,nan,nan,nan,nan,0.5432501,0.0,0.0,nan,nan
198692707,105.77561,-211.64888,-50.876335,nan,nan,nan,nan,nan,nan,0.5672722,0.0,0.0,nan,nan
198791852,107.18056,-211.4927,-50.876335,nan,nan,nan,nan,nan,nan,0.5937155,0.0,0.0,nan,nan
198891261,108.58354,-211.33676,-50.876335,nan,nan,nan,nan,nan,nan,0.60658646,0.0,0.0,nan,nan
198992201,109.98166,-211.18135,-50.876335,nan,nan,nan,nan,nan,nan,0.6071595,0.0,0.0,nan,nan
199090161,111.377014,-211.02625,-50.876335,nan,nan,nan,nan,nan,nan,0.6065412,0.0,0.0,nan,nan
199189536,112.76746,-210.87169,-50.876335,nan,nan,nan,nan,nan,nan,0.6083784,0.0,0.0,nan,nan
199288965,114.15789,-210.71713,-50.876335,nan,nan,nan,nan,nan,nan,0.6114217,0.0,0.0,nan,nan
199388368,115.560135,-210.56126,-50.876335,nan,nan,nan,nan,nan,nan,0.6122437,0.0,0.0,nan,nan
199490804,116.97833,-210.40363,-50.876335,nan,nan,nan,nan,nan,nan,0.6132924,0.0,0.0,nan,nan
199587267,118.41246,-210.24422,-50.876335,nan,nan,nan,nan,nan,nan,0.61501276,0.0,0.0,nan,nan
199686766,119.861465,-210.08315,-50.876335,nan,nan,nan,nan,nan,nan,0.61505973,0.0,0.0,nan,nan
199786566,121.32645,-209.92032,-50.876335,nan,nan,nan,nan,nan,nan,0.6159955,0.0,0.0,nan,nan
199895986,122.96243,-209.73846,-50.876335,nan,nan,nan,nan,nan,nan,0.6142408,0.0,0.0,nan,nan
199986419,124.32123,-209.58742,-50.876335,nan,nan,nan,nan,nan,nan,0.612439,0.0,0.0,nan,nan
200094526,126.00288,-209.4005,-50.876335,nan,nan,nan,nan,nan,nan,0.61251813,0.0,0.0,nan,nan
200193982,127.54739,-209.22882,-50.876335,nan,nan,nan,nan,nan,nan,0.61261195,0.0,0.0,nan,nan
200293221,129.1055,-209.05562,-50.876335,nan,nan,nan,nan,nan,nan,0.6108665,0.0,0.0,nan,nan
200393834,130.68845,-208.87967,-50.876335,nan,nan,nan,nan,nan,nan,0.6081651,0.0,0.0,nan,nan
200493605,132.29753,-208.7008,-50.876335,nan,nan,nan,nan,nan,nan,0.6055483,0.0,0.0,nan,nan
200591396,133.9275,-208.51962,-50.876335,nan,nan,nan,nan,nan,nan,0.60473675,0.0,0.0,nan,nan
200690927,135.58199,-208.33572,-50.876335,nan,nan,nan,nan,nan,nan,0.60405433,0.0,0.0,nan,nan
200790197,137.255,-208.14977,-50.876335,nan,nan,nan,nan,nan,nan,0.6003789,0.0,0.0,nan,nan
200890743,138.94469,-207.96194,-50.876335,nan,nan,nan,nan,nan,nan,0.5938851,0.0,0.0,nan,nan
200990280,140.64977,-207.77242,-50.876335,nan,nan,nan,nan,nan,nan,0.5878626,0.0,0.0,nan,nan
201088390,142.36642,-207.58159,-50.876335,nan,nan,nan,nan,nan,nan,0.58440346,0.0,0.0,nan,nan
201188284,144.09006,-207.39,-50.876335,nan,nan,nan,nan,nan,nan,0.586058,0.0,0.0,nan,nan
201287711,145.81393,-207.19838,-50.876335,nan,nan,nan,nan,nan,nan,0.5849361,0.0,0.0,nan,nan
201386827,147.5511,-207.00528,-50.876335,nan,nan,nan,nan,nan,nan,0.58264196,0.0,0.0,nan,nan
201488123,149.2999,-206.8109,-50.876335,nan,nan,nan,nan,nan,nan,0.5827436,0.0,0.0,nan,nan
201586733,151.05565,-206.61574,-50.876335,nan,nan,nan,nan,nan,nan,0.5833712,0.0,0.0,nan,nan
201695378,152.9949,-206.40018,-50.876335,nan,nan,nan,nan,nan,nan,0.58397,0.0,0.0,nan,nan
201796237,154.76562,-206.20335,-50.876335,nan,nan,nan,nan,nan,nan,0.5823082,0.0,0.0,nan,nan
201894093,156.5434,-206.00574,-50.876335,nan,nan,nan,nan,nan,nan,0.57979,0.0,0.0,nan,nan
201994555,158.32796,-205.80737,-50.876335,nan,nan,nan,nan,nan,nan,0.57902616,0.0,0.0,nan,nan
202092574,160.11655,-205.60857,-50.876335,nan,nan,nan,nan,nan,nan,0.57722193,0.0,0.0,nan,nan
202192101,161.90688,-205.40956,-50.876335,nan,nan,nan,nan,nan,nan,0.57599616,0.0,0.0,nan,nan
202291329,163.6916,-205.21118,-50.876335,nan,nan,nan,nan,nan,nan,0.57479143,0.0,0.0,nan,nan
202390792,165.48917,-205.01137,-50.876335,nan,nan,nan,nan,nan,nan,0.5737921,0.0,0.0,nan,nan
202492903,167.29759,-204.81035,-50.876335,nan,nan,nan,nan,nan,nan,0.5708362,0.0,0.0,nan,nan
202589852,169.1084,-204.60907,-50.876335,nan,nan,nan,nan,nan,nan,0.5675107,0.0,0.0,nan,nan
202689181,170.92456,-204.4072,-50.876335,nan,nan,nan,nan,nan,nan,0.5667009,0.0,0.0,nan,nan
202788514,172.74055,-204.20532,-50.876335,nan,nan,nan,nan,nan,nan,0.5656807,0.0,0.0,nan,nan
202888147,174.5565,-204.00348,-50.876335,nan,nan,nan,nan,nan,nan,0.56492394,0.0,0.0,nan,nan
202988564,176.374,-203.80145,-50.876335,nan,nan,nan,nan,nan,nan,0.56411076,0.0,0.0,nan,nan
203086776,217.24092,-201.01796,-50.876335,nan,nan,nan,nan,nan,nan,0.5644214,0.0,0.0,nan,nan
203186071,217.22629,-200.89604,-50.876335,nan,nan,nan,nan,nan,nan,0.56475323,0.0,0.0,nan,nan
203295682,217.21083,-200.7673,-50.876335,nan,nan,nan,nan,nan,nan,0.5657166,0.0,0.0,nan,nan
203395060,217.19704,-200.6523,-50.876335,nan,nan,nan,nan,nan,nan,0.5665944,0.0,0.0,nan,nan
203494454,217.18344,-200.53903,-50.876335,nan,nan,nan,nan,nan,nan,0.56992793,0.0,0.0,nan,nan
203594159,217.16833,-200.41322,-50.876335,nan,nan,nan,nan,nan,nan,0.57837826,0.0,0.0,nan,nan
203693247,217.15144,-200.2725,-50.876335,nan,nan,nan,nan,nan,nan,0.5926627,0.0,0.0,nan,nan
203792551,217.13098,-200.10204,-50.876335,nan,nan,nan,nan,nan,nan,0.61033225,0.0,0.0,nan,nan
203893297,217.10458,-199.88208,-50.876335,nan,nan,nan,nan,nan,nan,0.6186181,0.0,0.0,nan,nan
203992757,217.06906,-199.58604,-50.876335,nan,nan,nan,nan,nan,nan,0.6213048,0.0,0.0,nan,nan
204090660,217.02393,-199.21,-50.876335,nan,nan,nan,nan,nan,nan,0.6222664,0.0,0.0,nan,nan
204190351,216.97014,-198.762,-50.876335,nan,nan,nan,nan,nan,nan,0.6268759,0.0,0.0,nan,nan
204290022,216.90602,-198.2277,-50.876335,nan,nan,nan,nan,nan,nan,0.63154787,0.0,0.0,nan,nan
204389222,216.82774,-197.57559,-50.876335,nan,nan,nan,nan,nan,nan,0.6328528,0.0,0.0,nan,nan
204488566,216.73608,-196.81192,-50.876335,nan,nan,nan,nan,nan,nan,0.6344502,0.0,0.0,nan,nan
204589249,216.63264,-195.95015,-50.876335,nan,nan,nan,nan,nan,nan,0.6293894,0.0,0.0,nan,nan
204687075,216.51747,-194.9906,-50.876335,nan,nan,nan,nan,nan,nan,0.61260843,0.0,0.0,nan,nan
204786621,216.39148,-193.94089,-50.876335,nan,nan,nan,nan,nan,nan,0.6010237,0.0,0.0,nan,nan
204886335,216.25793,-192.82817,-50.876335,nan,nan,nan,nan,nan,nan,0.60367996,0.0,0.0,nan,nan
204987508,216.11783,-191.6609,-50.876335,nan,nan,nan,nan,nan,nan,0.6028839,0.0,0.0,nan,nan
205095159,215.95235,-190.2822,-50.876335,nan,nan,nan,nan,nan,nan,0.59193176,0.0,0.0,nan,nan
205194406,215.79337,-188.9577,-50.876335,nan,nan,nan,nan,nan,nan,0.58386755,0.0,0.0,nan,nan
205294017,215.62666,-187.56882,-50.876335,nan,nan,nan,nan,nan,nan,0.5798385,0.0,0.0,nan,nan
205393191,215.45135,-186.10818,-50.876335,nan,nan,nan,nan,nan,nan,0.57329535,0.0,0.0,nan,nan
205492498,215.26926,-184.59108,-50.876335,nan,nan,nan,nan,nan,nan,0.55131054,0.0,0.0,nan,nan
205592019,215.08244,-183.03467,-50.876335,nan,nan,nan,nan,nan,nan,0.5274119,0.0,0.0,nan,nan
205691654,214.8921,-181.44893,-50.876335,nan,nan,nan,nan,nan,nan,0.5127577,0.0,0.0,nan,nan
205791904,214.69987,-179.84729,-50.876335,nan,nan,nan,nan,nan,nan,0.5150752,0.0,0.0,nan,nan
205890247,214.50633,-178.23485,-50.876335,nan,nan,nan,nan,nan,nan,0.5052416,0.0,0.0,nan,nan
205991103,214.30927,-176.59293,-50.876335,nan,nan,nan,nan,nan,nan,0.49008304,0.0,0.0,nan,nan
206088896,214.1095,-174.92859,-50.876335,nan,nan,nan,nan,nan,nan,0.49601296,0.0,0.0,nan,nan
206188553,213.90756,-173.24615,-50.876335,nan,nan,nan,nan,nan,nan,0.5004374,0.0,0.0,nan,nan
206287841,213.70235,-171.53645,-50.876335,nan,nan,nan,nan,nan,nan,0.49123618,0.0,0.0,nan,nan
206387096,213.4935,-169.79643,-50.876335,nan,nan,nan,nan,nan,nan,0.49167266,0.0,0.0,nan,nan
206489203,213.28154,-168.03052,-50.876335,nan,nan,nan,nan,nan,nan,0.4972,0.0,0.0,nan,nan
206586158,213.06711,-166.24396,-50.876335,nan,nan,nan,nan,nan,nan,0.4987949,0.0,0.0,nan,nan
206675967,212.87209,-164.61911,-50.876335,nan,nan,nan,nan,nan,nan,0.4961952,0.0,0.0,nan,nan
206794975,212.60997,-162.43533,-50.876335,nan,nan,nan,nan,nan,nan,0.50014186,0.0,0.0,nan,nan
206894529,212.39017,-160.60414,-50.876335,nan,nan,nan,nan,nan,nan,0.5052532,0.0,0.0,nan,nan
206994010,212.16927,-158.7636,-50.876335,nan,nan,nan,nan,nan,nan,0.50117546,0.0,0.0,nan,nan
207093239,211.94739,-156.91507,-50.876335,nan,nan,nan,nan,nan,nan,0.5000266,0.0,0.0,nan,nan
207192597,211.72597,-155.07033,-50.876335,nan,nan,nan,nan,nan,nan,0.50682545,0.0,0.0,nan,nan
207291953,211.50404,-153.22137,-50.876335,nan,nan,nan,nan,nan,nan,0.5119634,0.0,0.0,nan,nan
207392876,211.2809,-151.36224,-50.876335,nan,nan,nan,nan,nan,nan,0.5108506,0.0,0.0,nan,nan
207490859,211.05666,-149.49394,-50.876335,nan,nan,nan,nan,nan,nan,0.51737463,0.0,0.0,nan,nan
207987992,209.92734,-140.08505,-50.876335,nan,nan,nan,nan,nan,nan,0.5440448,0.0,0.0,nan,nan
208088427,209.70117,-138.20079,-50.876335,nan,nan,nan,nan,nan,nan,0.5476982,0.0,0.0,nan,nan
208186668,209.47466,-136.31363,-50.876335,nan,nan,nan,nan,nan,nan,0.5496039,0.0,0.0,nan,nan
208286065,209.25056,-134.44666,-50.876335,nan,nan,nan,nan,nan,nan,0.55407256,0.0,0.0,nan,nan
208496619,208.77602,-130.49298,-50.876335,nan,nan,nan,nan,nan,nan,0.5604337,0.0,0.0,nan,nan
208594373,208.54767,-128.59053,-50.876335,nan,nan,nan,nan,nan,nan,0.56315553,0.0,0.0,nan,nan
208693945,208.31876,-126.68323,-50.876335,nan,nan,nan,nan,nan,nan,0.5671987,0.0,0.0,nan,nan
208793741,208.08882,-124.76754,-50.876335,nan,nan,nan,nan,nan,nan,0.5727124,0.0,0.0,nan,nan
208892540,207.85799,-122.844376,-50.876335,nan,nan,nan,nan,nan,nan,0.5748443,0.0,0.0,nan,nan
208993361,207.6265,-120.91568,-50.876335,nan,nan,nan,nan,nan,nan,0.5761764,0.0,0.0,nan,nan
209091637,207.39395,-118.97836,-50.876335,nan,nan,nan,nan,nan,nan,0.5779927,0.0,0.0,nan,nan
209190632,207.16139,-117.040794,-50.876335,nan,nan,nan,nan,nan,nan,0.57841086,0.0,0.0,nan,nan
209290078,206.92892,-115.10402,-50.876335,nan,nan,nan,nan,nan,nan,0.57641953,0.0,0.0,nan,nan
209389707,206.69539,-113.1583,-50.876335,nan,nan,nan,nan,nan,nan,0.5748908,0.0,0.0,nan,nan
209489061,206.46088,-111.204475,-50.876335,nan,nan,nan,nan,nan,nan,0.5734221,0.0,0.0,nan,nan
209588423,206.22581,-109.245995,-50.876335,nan,nan,nan,nan,nan,nan,0.56998134,0.0,0.0,nan,nan
209689291,205.9906,-107.286285,-50.876335,nan,nan,nan,nan,nan,nan,0.5653924,0.0,0.0,nan,nan
209787258,205.75514,-105.324684,-50.876335,nan,nan,nan,nan,nan,nan,0.56070304,0.0,0.0,nan,nan
209886789,205.51952,-103.361565,-50.876335,nan,nan,nan,nan,nan,nan,0.5561238,0.0,0.0,nan,nan
209986429,205.28394,-101.398865,-50.876335,nan,nan,nan,nan,nan,nan,0.54813397,0.0,0.0,nan,nan
210095770,205.02493,-99.24097,-50.876335,nan,nan,nan,nan,nan,nan,0.5392089,0.0,0.0,nan,nan
210195188,204.79033,-97.286316,-50.876335,nan,nan,nan,nan,nan,nan,0.53119695,0.0,0.0,nan,nan
210294763,204.55717,-95.343864,-50.876335,nan,nan,nan,nan,nan,nan,0.5232016,0.0,0.0,nan,nan
210395925,204.32404,-93.40149,-50.876335,nan,nan,nan,nan,nan,nan,0.5138681,0.0,0.0,nan,nan
210493572,204.09106,-91.46041,-50.876335,nan,nan,nan,nan,nan,nan,0.5059905,0.0,0.0,nan,nan
210592638,203.85828,-89.52091,-50.876335,nan,nan,nan,nan,nan,nan,0.50334686,0.0,0.0,nan,nan
210692016,203.62599,-87.58571,-50.876335,nan,nan,nan,nan,nan,nan,0.49723694,0.0,0.0,nan,nan
210791282,203.3938,-85.65127,-50.876335,nan,nan,nan,nan,nan,nan,0.49956748,0.0,0.0,nan,nan
210892009,203.1618,-83.7183,-50.876335,nan,nan,nan,nan,nan,nan,0.50122267,0.0,0.0,nan,nan
210990076,202.9309,-81.79448,-50.876335,nan,nan,nan,nan,nan,nan,0.49889743,0.0,0.0,nan,nan
211089638,202.70044,-79.87452,-50.876335,nan,nan,nan,nan,nan,nan,0.4917964,0.0,0.0,nan,nan
211189058,202.471,-77.96292,-50.876335,nan,nan,nan,nan,nan,nan,0.49608436,0.0,0.0,nan,nan
211288443,202.2428,-76.06163,-50.876335,nan,nan,nan,nan,nan,nan,0.4979747,0.0,0.0,nan,nan
211388996,202.01466,-74.16101,-50.876335,nan,nan,nan,nan,nan,nan,0.49422222,0.0,0.0,nan,nan
211487303,201.7865,-72.26006,-50.876335,nan,nan,nan,nan,nan,nan,0.49193752,0.0,0.0,nan,nan
211586568,201.55869,-70.362,-50.876335,nan,nan,nan,nan,nan,nan,0.4884734,0.0,0.0,nan,nan
211686149,201.33102,-68.46527,-50.876335,nan,nan,nan,nan,nan,nan,0.48877823,0.0,0.0,nan,nan
211795505,201.08136,-66.38524,-50.876335,nan,nan,nan,nan,nan,nan,0.4851196,0.0,0.0,nan,nan
211895187,200.85487,-64.498215,-50.876335,nan,nan,nan,nan,nan,nan,0.48947924,0.0,0.0,nan,nan
211986265,200.65173,-62.805786,-50.876335,nan,nan,nan,nan,nan,nan,0.49425513,0.0,0.0,nan,nan
212093936,200.40384,-60.740463,-50.876335,nan,nan,nan,nan,nan,nan,0.49639142,0.0,0.0,nan,nan
212193522,200.1799,-58.874786,-50.876335,nan,nan,nan,nan,nan,nan,0.5045677,0.0,0.0,nan,nan
212293694,199.95685,-57.016342,-50.876335,nan,nan,nan,nan,nan,nan,0.5096672,0.0,0.0,nan,nan
212391861,199.73401,-55.15979,-50.876335,nan,nan,nan,nan,nan,nan,0.51467896,0.0,0.0,nan,nan
212491188,199.51117,-53.303177,-50.876335,nan,nan,nan,nan,nan,nan,0.5218501,0.0,0.0,nan,nan
212590818,199.28836,-51.446976,-50.876335,nan,nan,nan,nan,nan,nan,0.53069144,0.0,0.0,nan,nan
212690153,199.06499,-49.58589,-50.876335,nan,nan,nan,nan,nan,nan,0.53865266,0.0,0.0,nan,nan
212791080,198.84143,-47.72328,-50.876335,nan,nan,nan,nan,nan,nan,0.5456083,0.0,0.0,nan,nan
212888909,198.61746,-45.857315,-50.876335,nan,nan,nan,nan,nan,nan,0.55172664,0.0,0.0,nan,nan
212988600,198.39291,-43.986496,-50.876335,nan,nan,nan,nan,nan,nan,0.5583223,0.0,0.0,nan,nan
213088071,198.16803,-42.112885,-50.876335,nan,nan,nan,nan,nan,nan,0.5640623,0.0,0.0,nan,nan
213187450,197.94324,-40.240005,-50.876335,nan,nan,nan,nan,nan,nan,0.56750995,0.0,0.0,nan,nan
213286847,197.718,-38.36348,-50.876335,nan,nan,nan,nan,nan,nan,0.5732681,0.0,0.0,nan,nan
213386142,197.49171,-36.47824,-50.876335,nan,nan,nan,nan,nan,nan,0.5805685,0.0,0.0,nan,nan
213486607,197.26457,-34.585846,-50.876335,nan,nan,nan,nan,nan,nan,0.5854093,0.0,0.0,nan,nan
213595886,197.0148,-32.504868,-50.876335,nan,nan,nan,nan,nan,nan,0.5886203,0.0,0.0,nan,nan
213696002,196.78662,-30.603714,-50.876335,nan,nan,nan,nan,nan,nan,0.59363174,0.0,0.0,nan,nan
213794213,196.55801,-28.699097,-50.876335,nan,nan,nan,nan,nan,nan,0.5976015,0.0,0.0,nan,nan
213893376,196.32855,-26.78743,-50.876335,nan,nan,nan,nan,nan,nan,0.6004376,0.0,0.0,nan,nan
213993867,196.09767,-24.863846,-50.876335,nan,nan,nan,nan,nan,nan,0.6061916,0.0,0.0,nan,nan
214091890,195.8656,-22.930328,-50.876335,nan,nan,nan,nan,nan,nan,0.6116476,0.0,0.0,nan,nan
214192630,195.63364,-20.997726,-50.876335,nan,nan,nan,nan,nan,nan,0.6157743,0.0,0.0,nan,nan
214290678,195.40134,-19.062271,-50.876335,nan,nan,nan,nan,nan,nan,0.6172678,0.0,0.0,nan,nan
214390153,195.16748,-17.113968,-50.876335,nan,nan,nan,nan,nan,nan,0.6205078,0.0,0.0,nan,nan
214490990,194.93217,-15.153503,-50.876335,nan,nan,nan,nan,nan,nan,0.6246844,0.0,0.0,nan,nan
214589041,194.69601,-13.185989,-50.876335,nan,nan,nan,nan,nan,nan,0.62539905,0.0,0.0,nan,nan
214688723,194.45827,-11.205231,-50.876335,nan,nan,nan,nan,nan,nan,0.626709,0.0,0.0,nan,nan
214787817,194.21954,-9.216263,-50.876335,nan,nan,nan,nan,nan,nan,0.6293365,0.0,0.0,nan,nan
214889058,193.97998,-7.220352,-50.876335,nan,nan,nan,nan,nan,nan,0.6320604,0.0,0.0,nan,nan
214987930,193.73985,-5.219742,-50.876335,nan,nan,nan,nan,nan,nan,0.6321671,0.0,0.0,nan,nan
215085995,193.49902,-3.2132874,-50.876335,nan,nan,nan,nan,nan,nan,0.6305301,0.0,0.0,nan,nan
215195633,193.23413,-1.0063629,-50.876335,nan,nan,nan,nan,nan,nan,0.62998104,0.0,0.0,nan,nan
215295267,192.99312,1.0016327,-50.876335,nan,nan,nan,nan,nan,nan,0.63133824,0.0,0.0,nan,nan
215394550,192.7512,3.0171814,-50.876335,nan,nan,nan,nan,nan,nan,0.6318839,0.0,0.0,nan,nan
215495070,192.50858,5.03862,-50.876335,nan,nan,nan,nan,nan,nan,0.6321382,0.0,0.0,nan,nan
215593164,192.26562,7.0627136,-50.876335,nan,nan,nan,nan,nan,nan,0.6304486,0.0,0.0,nan,nan
215692577,192.02213,9.091431,-50.876335,nan,nan,nan,nan,nan,nan,0.628283,0.0,0.0,nan,nan
215793194,191.77808,11.124725,-50.876335,nan,nan,nan,nan,nan,nan,0.6280994,0.0,0.0,nan,nan
215891276,191.53378,13.159988,-50.876335,nan,nan,nan,nan,nan,nan,0.6293155,0.0,0.0,nan,nan
215991927,191.28986,15.192337,-50.876335,nan,nan,nan,nan,nan,nan,0.6281198,0.0,0.0,nan,nan
216090275,191.04686,17.216782,-50.876335,nan,nan,nan,nan,nan,nan,0.6225362,0.0,0.0,nan,nan
216190082,190.80443,19.236649,-50.876335,nan,nan,nan,nan,nan,nan,0.6189887,0.0,0.0,nan,nan
216290987,190.56247,21.252563,-50.876335,nan,nan,nan,nan,nan,nan,0.6152366,0.0,0.0,nan,nan
216388465,190.32071,23.26677,-50.876335,nan,nan,nan,nan,nan,nan,0.60909164,0.0,0.0,nan,nan
216489071,190.07912,25.27948,-50.876335,nan,nan,nan,nan,nan,nan,0.6038342,0.0,0.0,nan,nan
216587255,189.83688,27.29773,-50.876335,nan,nan,nan,nan,nan,nan,0.5987775,0.0,0.0,nan,nan
216686652,189.59512,29.31192,-50.876335,nan,nan,nan,nan,nan,nan,0.5926494,0.0,0.0,nan,nan
216786097,189.35397,31.320969,-50.876335,nan,nan,nan,nan,nan,nan,0.5867934,0.0,0.0,nan,nan
216895646,189.08858,33.532166,-50.876335,nan,nan,nan,nan,nan,nan,0.58446604,0.0,0.0,nan,nan
216986062,188.87164,35.33957,-50.876335,nan,nan,nan,nan,nan,nan,0.5821716,0.0,0.0,nan,nan
217094527,188.6071,37.54355,-50.876335,nan,nan,nan,nan,nan,nan,0.58118004,0.0,0.0,nan,nan
217195382,188.36731,39.54138,-50.876335,nan,nan,nan,nan,nan,nan,0.5824379,0.0,0.0,nan,nan
217293210,188.12885,41.528214,-50.876335,nan,nan,nan,nan,nan,nan,0.58353704,0.0,0.0,nan,nan
217392486,187.89017,43.516663,-50.876335,nan,nan,nan,nan,nan,nan,0.5844865,0.0,0.0,nan,nan
217493270,187.65102,45.509094,-50.876335,nan,nan,nan,nan,nan,nan,0.5857493,0.0,0.0,nan,nan
217591368,187.41208,47.499863,-50.876335,nan,nan,nan,nan,nan,nan,0.58672357,0.0,0.0,nan,nan
217692038,187.1734,49.488464,-50.876335,nan,nan,nan,nan,nan,nan,0.5860744,0.0,0.0,nan,nan
217790139,186.05878,94.605606,-50.876335,nan,nan,nan,nan,nan,nan,0.58598113,0.0,0.0,nan,nan
217889486,186.04283,94.604164,-50.876335,nan,nan,nan,nan,nan,nan,0.5875021,0.0,0.0,nan,nan
217990382,186.02557,94.60261,-50.876335,nan,nan,nan,nan,nan,nan,0.5902222,0.0,0.0,nan,nan
218088367,186.00398,94.600655,-50.876335,nan,nan,nan,nan,nan,nan,0.5942576,0.0,0.0,nan,nan
218187928,185.962,94.59687,-50.876335,nan,nan,nan,nan,nan,nan,0.6046336,0.0,0.0,nan,nan
218287182,185.90215,94.59146,-50.876335,nan,nan,nan,nan,nan,nan,0.6229055,0.0,0.0,nan,nan
218387884,185.79117,94.58144,-50.876335,nan,nan,nan,nan,nan,nan,0.637743,0.0,0.0,nan,nan
218487097,185.60501,94.564644,-50.876335,nan,nan,nan,nan,nan,nan,0.6388473,0.0,0.0,nan,nan
218596683,185.31508,94.53847,-50.876335,nan,nan,nan,nan,nan,nan,0.65030277,0.0,0.0,nan,nan
218694896,184.96385,94.50677,-50.876335,nan,nan,nan,nan,nan,nan,0.6625566,0.0,0.0,nan,nan
218794302,184.51653,94.466385,-50.876335,nan,nan,nan,nan,nan,nan,0.6656421,0.0,0.0,nan,nan
218893908,183.95609,94.415794,-50.876335,nan,nan,nan,nan,nan,nan,0.66886485,0.0,0.0,nan,nan
218993002,183.28622,94.35533,-50.876335,nan,nan,nan,nan,nan,nan,0.6596772,0.0,0.0,nan,nan
219092433,182.51439,94.28566,-50.876335,nan,nan,nan,nan,nan,nan,0.64337254,0.0,0.0,nan,nan
219191979,181.65338,94.20793,-50.876335,nan,nan,nan,nan,nan,nan,0.63584995,0.0,0.0,nan,nan
219291372,180.73341,94.12489,-50.876335,nan,nan,nan,nan,nan,nan,0.63544416,0.0,0.0,nan,nan
219390653,179.74713,94.03586,-50.876335,nan,nan,nan,nan,nan,nan,0.6421287,0.0,0.0,nan,nan
219491926,178.6804,93.93957,-50.876335,nan,nan,nan,nan,nan,nan,0.6335635,0.0,0.0,nan,nan
219589643,177.53056,93.83578,-50.876335,nan,nan,nan,nan,nan,nan,0.6198015,0.0,0.0,nan,nan
219688881,176.31038,93.72563,-50.876335,nan,nan,nan,nan,nan,nan,0.60897917,0.0,0.0,nan,nan
219788263,175.03462,93.61047,-50.876335,nan,nan,nan,nan,nan,nan,0.6143643,0.0,0.0,nan,nan
219887801,173.70378,93.49034,-50.876335,nan,nan,nan,nan,nan,nan,0.61751837,0.0,0.0,nan,nan
219987077,172.32007,93.36543,-50.876335,nan,nan,nan,nan,nan,nan,0.60415673,0.0,0.0,nan,nan
220086477,170.8888,93.23624,-50.876335,nan,nan,nan,nan,nan,nan,0.58761364,0.0,0.0,nan,nan
220187277,169.43259,93.10478,-50.876335,nan,nan,nan,nan,nan,nan,0.5887093,0.0,0.0,nan,nan
220295530,167.83626,92.960686,-50.876335,nan,nan,nan,nan,nan,nan,0.5993216,0.0,0.0,nan,nan
220396178,166.35822,92.82726,-50.876335,nan,nan,nan,nan,nan,nan,0.6028418,0.0,0.0,nan,nan
220494378,164.84055,92.69027,-50.876335,nan,nan,nan,nan,nan,nan,0.59763193,0.0,0.0,nan,nan
220593878,163.29257,92.55053,-50.876335,nan,nan,nan,nan,nan,nan,0.6002151,0.0,0.0,nan,nan
220692949,161.72092,92.40866,-50.876335,nan,nan,nan,nan,nan,nan,0.6048494,0.0,0.0,nan,nan
220792364,160.1199,92.264145,-50.876335,nan,nan,nan,nan,nan,nan,0.60536486,0.0,0.0,nan,nan
220893245,158.48775,92.11681,-50.876335,nan,nan,nan,nan,nan,nan,0.6022626,0.0,0.0,nan,nan
220992480,156.83022,91.967186,-50.876335,nan,nan,nan,nan,nan,nan,0.6089597,0.0,0.0,nan,nan
221090705,155.14442,91.81501,-50.876335,nan,nan,nan,nan,nan,nan,0.6075102,0.0,0.0,nan,nan
221189934,153.44678,91.661766,-50.876335,nan,nan,nan,nan,nan,nan,0.5960386,0.0,0.0,nan,nan
221289402,151.74802,91.50842,-50.876335,nan,nan,nan,nan,nan,nan,0.58932304,0.0,0.0,nan,nan
221388897,150.03497,91.35379,-50.876335,nan,nan,nan,nan,nan,nan,0.5911761,0.0,0.0,nan,nan
221489770,148.3089,91.19798,-50.876335,nan,nan,nan,nan,nan,nan,0.59150356,0.0,0.0,nan,nan
221588956,146.56332,91.04041,-50.876335,nan,nan,nan,nan,nan,nan,0.5845554,0.0,0.0,nan,nan
221687368,144.79509,90.8808,-50.876335,nan,nan,nan,nan,nan,nan,0.58613294,0.0,0.0,nan,nan
221786378,143.01657,90.72025,-50.876335,nan,nan,nan,nan,nan,nan,0.6001204,0.0,0.0,nan,nan
221886136,141.22632,90.55865,-50.876335,nan,nan,nan,nan,nan,nan,0.6105568,0.0,0.0,nan,nan
221986497,139.42635,90.39617,-50.876335,nan,nan,nan,nan,nan,nan,0.61096996,0.0,0.0,nan,nan
222094994,137.43552,90.21646,-50.876335,nan,nan,nan,nan,nan,nan,0.61285585,0.0,0.0,nan,nan
222194313,135.63208,90.053665,-50.876335,nan,nan,nan,nan,nan,nan,0.6131933,0.0,0.0,nan,nan
222293859,133.84146,89.89203,-50.876335,nan,nan,nan,nan,nan,nan,0.61165977,0.0,0.0,nan,nan
222393133,132.04517,89.72988,-50.876335,nan,nan,nan,nan,nan,nan,0.61197305,0.0,0.0,nan,nan
222493578,130.24266,89.56717,-50.876335,nan,nan,nan,nan,nan,nan,0.61898005,0.0,0.0,nan,nan
222591757,128.43597,89.40408,-50.876335,nan,nan,nan,nan,nan,nan,0.6248322,0.0,0.0,nan,nan
222691113,126.624825,89.24059,-50.876335,nan,nan,nan,nan,nan,nan,0.6291971,0.0,0.0,nan,nan
222790597,124.81419,89.07715,-50.876335,nan,nan,nan,nan,nan,nan,0.6304154,0.0,0.0,nan,nan
222889897,123.001045,88.91348,-50.876335,nan,nan,nan,nan,nan,nan,0.6340843,0.0,0.0,nan,nan
222990578,121.18077,88.74917,-50.876335,nan,nan,nan,nan,nan,nan,0.63805896,0.0,0.0,nan,nan
223088852,119.351906,88.58408,-50.876335,nan,nan,nan,nan,nan,nan,0.64018816,0.0,0.0,nan,nan
223189349,117.52043,88.418755,-50.876335,nan,nan,nan,nan,nan,nan,0.64470583,0.0,0.0,nan,nan
223287676,115.68646,88.253204,-50.876335,nan,nan,nan,nan,nan,nan,0.6468226,0.0,0.0,nan,nan
223386985,113.84562,88.087036,-50.876335,nan,nan,nan,nan,nan,nan,0.6482449,0.0,0.0,nan,nan
223487864,111.99808,87.920265,-50.876335,nan,nan,nan,nan,nan,nan,0.6506749,0.0,0.0,nan,nan
223596141,109.95293,87.73565,-50.876335,nan,nan,nan,nan,nan,nan,0.6512549,0.0,0.0,nan,nan
223695498,108.088776,87.567375,-50.876335,nan,nan,nan,nan,nan,nan,0.64845264,0.0,0.0,nan,nan
223794816,106.21891,87.39859,-50.876335,nan,nan,nan,nan,nan,nan,0.6452041,0.0,0.0,nan,nan
223894317,104.34196,87.22916,-50.876335,nan,nan,nan,nan,nan,nan,0.6436917,0.0,0.0,nan,nan
223995459,102.460335,87.0593,-50.876335,nan,nan,nan,nan,nan,nan,0.641854,0.0,0.0,nan,nan
224094145,100.574936,86.889114,-50.876335,nan,nan,nan,nan,nan,nan,0.63877416,0.0,0.0,nan,nan
224192318,98.691666,86.71912,-50.876335,nan,nan,nan,nan,nan,nan,0.6365725,0.0,0.0,nan,nan
224291688,96.81279,86.549515,-50.876335,nan,nan,nan,nan,nan,nan,0.63426274,0.0,0.0,nan,nan
224391203,94.92633,86.37923,-50.876335,nan,nan,nan,nan,nan,nan,0.63295275,0.0,0.0,nan,nan
224490653,93.03349,86.20836,-50.876335,nan,nan,nan,nan,nan,nan,0.6288842,0.0,0.0,nan,nan
224590282,91.137794,86.03724,-50.876335,nan,nan,nan,nan,nan,nan,0.62390476,0.0,0.0,nan,nan
224689651,89.23873,85.865814,-50.876335,nan,nan,nan,nan,nan,nan,0.6189489,0.0,0.0,nan,nan
224790182,87.33516,85.69398,-50.876335,nan,nan,nan,nan,nan,nan,0.614942,0.0,0.0,nan,nan
224888204,85.42841,85.521866,-50.876335,nan,nan,nan,nan,nan,nan,0.6116716,0.0,0.0,nan,nan
224988942,46.841183,71.50799,-50.876335,nan,nan,nan,nan,nan,nan,0.6057385,0.0,0.0,nan,nan
225087059,46.636658,71.91853,-50.876335,nan,nan,nan,nan,nan,nan,0.59939826,0.0,0.0,nan,nan
225186579,46.428646,72.336075,-50.876335,nan,nan,nan,nan,nan,nan,0.59379786,0.0,0.0,nan,nan
225287048,46.21317,72.76861,-50.876335,nan,nan,nan,nan,nan,nan,0.58754766,0.0,0.0,nan,nan
225395681,45.97074,73.25523,-50.876335,nan,nan,nan,nan,nan,nan,0.5842848,0.0,0.0,nan,nan
225497582,45.751884,73.69455,-50.876335,nan,nan,nan,nan,nan,nan,0.58646756,0.0,0.0,nan,nan
225594337,45.53924,74.1214,-50.876335,nan,nan,nan,nan,nan,nan,0.5938168,0.0,0.0,nan,nan
225693458,45.341084,74.51916,-50.876335,nan,nan,nan,nan,nan,nan,0.60126746,0.0,0.0,nan,nan
225792873,45.160595,74.881454,-50.876335,nan,nan,nan,nan,nan,nan,0.6105726,0.0,0.0,nan,nan
225892275,45.006958,75.18986,-50.876335,nan,nan,nan,nan,nan,nan,0.6179385,0.0,0.0,nan,nan
225992855,44.884872,75.43491,-50.876335,nan,nan,nan,nan,nan,nan,0.6220181,0.0,0.0,nan,nan
226091189,44.802067,75.60113,-50.876335,nan,nan,nan,nan,nan,nan,0.6221303,0.0,0.0,nan,nan
226191586,44.75554,75.694534,-50.876335,nan,nan,nan,nan,nan,nan,0.6219744,0.0,0.0,nan,nan
226289777,44.744076,75.71754,-50.876335,nan,nan,nan,nan,nan,nan,0.6342295,0.0,0.0,nan,nan
226389371,44.781002,75.64342,-50.876335,nan,nan,nan,nan,nan,nan,0.6330251,0.0,0.0,nan,nan
226490271,44.87287,75.45901,-50.876335,nan,nan,nan,nan,nan,nan,0.62175083,0.0,0.0,nan,nan
226588084,45.012794,75.17813,-50.876335,nan,nan,nan,nan,nan,nan,0.62970775,0.0,0.0,nan,nan
226687560,45.212307,74.77766,-50.876335,nan,nan,nan,nan,nan,nan,0.62991637,0.0,0.0,nan,nan
226786978,45.459923,74.28061,-50.876335,nan,nan,nan,nan,nan,nan,0.6182981,0.0,0.0,nan,nan
226887719,45.753883,73.69054,-50.876335,nan,nan,nan,nan,nan,nan,0.61298364,0.0,0.0,nan,nan
226965998,46.02742,73.14147,-50.876335,nan,nan,nan,nan,nan,nan,0.6094942,0.0,0.0,nan,nan
227096951,46.51687,72.15899,-50.876335,nan,nan,nan,nan,nan,nan,0.58521813,0.0,0.0,nan,nan
227186724,46.878845,71.43239,-50.876335,nan,nan,nan,nan,nan,nan,0.5798696,0.0,0.0,nan,nan
227294471,47.341183,70.50433,-50.876335,nan,nan,nan,nan,nan,nan,0.5922455,0.0,0.0,nan,nan
227393604,47.787193,69.609055,-50.876335,nan,nan,nan,nan,nan,nan,0.59040666,0.0,0.0,nan,nan
227492806,48.260513,68.65894,-50.876335,nan,nan,nan,nan,nan,nan,0.57612884,0.0,0.0,nan,nan
227592491,48.757355,67.66164,-50.876335,nan,nan,nan,nan,nan,nan,0.5772087,0.0,0.0,nan,nan
227691778,49.27917,66.61418,-50.876335,nan,nan,nan,nan,nan,nan,0.58767927,0.0,0.0,nan,nan
227792343,49.821697,65.52516,-50.876335,nan,nan,nan,nan,nan,nan,0.5750408,0.0,0.0,nan,nan
227890660,50.383095,64.39827,-50.876335,nan,nan,nan,nan,nan,nan,0.56147724,0.0,0.0,nan,nan
227989873,50.95961,63.24102,-50.876335,nan,nan,nan,nan,nan,nan,0.56851673,0.0,0.0,nan,nan
228089291,51.54642,62.063107,-50.876335,nan,nan,nan,nan,nan,nan,0.5743679,0.0,0.0,nan,nan
228188675,52.143085,60.865414,-50.876335,nan,nan,nan,nan,nan,nan,0.566675,0.0,0.0,nan,nan
228288038,52.745922,59.655334,-50.876335,nan,nan,nan,nan,nan,nan,0.5645636,0.0,0.0,nan,nan
228387536,53.36087,58.420944,-50.876335,nan,nan,nan,nan,nan,nan,0.569705,0.0,0.0,nan,nan
228488431,53.98665,57.164803,-50.876335,nan,nan,nan,nan,nan,nan,0.5721496,0.0,0.0,nan,nan
228586702,54.62385,55.885742,-50.876335,nan,nan,nan,nan,nan,nan,0.5706714,0.0,0.0,nan,nan
228686016,55.26995,54.588825,-50.876335,nan,nan,nan,nan,nan,nan,0.5675468,0.0,0.0,nan,nan
228795329,55.990715,53.142025,-50.876335,nan,nan,nan,nan,nan,nan,0.5721721,0.0,0.0,nan,nan
228894707,56.654747,51.809105,-50.876335,nan,nan,nan,nan,nan,nan,0.5814866,0.0,0.0,nan,nan
228996021,57.327713,50.458252,-50.876335,nan,nan,nan,nan,nan,nan,0.58452815,0.0,0.0,nan,nan
229093432,58.009193,49.090305,-50.876335,nan,nan,nan,nan,nan,nan,0.58320487,0.0,0.0,nan,nan
229192877,58.694817,47.714043,-50.876335,nan,nan,nan,nan,nan,nan,0.58477515,0.0,0.0,nan,nan
229292199,59.38571,46.3272,-50.876335,nan,nan,nan,nan,nan,nan,0.59094095,0.0,0.0,nan,nan
229392859,60.083534,44.926453,-50.876335,nan,nan,nan,nan,nan,nan,0.58929205,0.0,0.0,nan,nan
229492280,60.78761,43.513157,-50.876335,nan,nan,nan,nan,nan,nan,0.585219,0.0,0.0,nan,nan
229590536,61.49727,42.08865,-50.876335,nan,nan,nan,nan,nan,nan,0.5863695,0.0,0.0,nan,nan
229689923,62.212208,40.65354,-50.876335,nan,nan,nan,nan,nan,nan,0.5925441,0.0,0.0,nan,nan
229789203,62.931835,39.209023,-50.876335,nan,nan,nan,nan,nan,nan,0.59611964,0.0,0.0,nan,nan
229888767,63.655758,37.755886,-50.876335,nan,nan,nan,nan,nan,nan,0.5942164,0.0,0.0,nan,nan
229988548,64.38362,36.294846,-50.876335,nan,nan,nan,nan,nan,nan,0.59349537,0.0,0.0,nan,nan
230088841,65.11569,34.825333,-50.876335,nan,nan,nan,nan,nan,nan,0.59639555,0.0,0.0,nan,nan
230187043,65.84968,33.35201,-50.876335,nan,nan,nan,nan,nan,nan,0.59774023,0.0,0.0,nan,nan
230286625,66.580154,31.8857,-50.876335,nan,nan,nan,nan,nan,nan,0.59434706,0.0,0.0,nan,nan
230396276,67.38817,30.263767,-50.876335,nan,nan,nan,nan,nan,nan,0.5901228,0.0,0.0,nan,nan
230496976,68.12652,28.78167,-50.876335,nan,nan,nan,nan,nan,nan,0.5894241,0.0,0.0,nan,nan
230594971,68.86918,27.29092,-50.876335,nan,nan,nan,nan,nan,nan,0.5864482,0.0,0.0,nan,nan
230694192,69.61565,25.792538,-50.876335,nan,nan,nan,nan,nan,nan,0.579416,0.0,0.0,nan,nan
230793880,70.3665,24.285332,-50.876335,nan,nan,nan,nan,nan,nan,0.5770223,0.0,0.0,nan,nan
230892788,71.120476,22.77187,-50.876335,nan,nan,nan,nan,nan,nan,0.57776546,0.0,0.0,nan,nan
230993508,71.87644,21.25441,-50.876335,nan,nan,nan,nan,nan,nan,0.570338,0.0,0.0,nan,nan
231091410,72.63379,19.734165,-50.876335,nan,nan,nan,nan,nan,nan,0.56376344,0.0,0.0,nan,nan
231190941,73.39116,18.213902,-50.876335,nan,nan,nan,nan,nan,nan,0.56118655,0.0,0.0,nan,nan
231290354,74.15003,16.690605,-50.876335,nan,nan,nan,nan,nan,nan,0.5601559,0.0,0.0,nan,nan
231390053,74.91116,15.1627655,-50.876335,nan,nan,nan,nan,nan,nan,0.5579517,0.0,0.0,nan,nan
231489156,75.6729,13.633728,-50.876335,nan,nan,nan,nan,nan,nan,0.5512382,0.0,0.0,nan,nan
231588584,76.43465,12.10466,-50.876335,nan,nan,nan,nan,nan,nan,0.54340523,0.0,0.0,nan,nan
231689657,77.19784,10.5727005,-50.876335,nan,nan,nan,nan,nan,nan,0.5388781,0.0,0.0,nan,nan
231787444,77.962845,9.037102,-50.876335,nan,nan,nan,nan,nan,nan,0.5383691,0.0,0.0,nan,nan
231886803,78.72747,7.5022507,-50.876335,nan,nan,nan,nan,nan,nan,0.53666365,0.0,0.0,nan,nan
231986782,79.489914,5.971794,-50.876335,nan,nan,nan,nan,nan,nan,0.53576934,0.0,0.0,nan,nan
232096043,80.32823,4.289032,-50.876335,nan,nan,nan,nan,nan,nan,0.53375345,0.0,0.0,nan,nan
232195311,81.08644,2.7670593,-50.876335,nan,nan,nan,nan,nan,nan,0.5339807,0.0,0.0,nan,nan
232294645,81.841644,1.2511215,-50.876335,nan,nan,nan,nan,nan,nan,0.5340107,0.0,0.0,nan,nan
232394020,82.597,-0.2651062,-50.876335,nan,nan,nan,nan,nan,nan,0.53506124,0.0,0.0,nan,nan
232493376,83.351685,-1.7799835,-50.876335,nan,nan,nan,nan,nan,nan,0.5383491,0.0,0.0,nan,nan
232592562,84.10463,-3.2913818,-50.876335,nan,nan,nan,nan,nan,nan,0.5393199,0.0,0.0,nan,nan
232692046,84.857,-4.801628,-50.876335,nan,nan,nan,nan,nan,nan,0.54016745,0.0,0.0,nan,nan
232792789,85.6091,-6.3113174,-50.876335,nan,nan,nan,nan,nan,nan,0.5399746,0.0,0.0,nan,nan
232890833,86.35978,-7.8181763,-50.876335,nan,nan,nan,nan,nan,nan,0.5389734,0.0,0.0,nan,nan
232990552,87.108,-9.320091,-50.876335,nan,nan,nan,nan,nan,nan,0.5342837,0.0,0.0,nan,nan
233089876,87.85398,-10.817505,-50.876335,nan,nan,nan,nan,nan,nan,0.53679097,0.0,0.0,nan,nan
233189271,88.59636,-12.307686,-50.876335,nan,nan,nan,nan,nan,nan,0.5430044,0.0,0.0,nan,nan
233288632,89.33658,-13.793541,-50.876335,nan,nan,nan,nan,nan,nan,0.5504866,0.0,0.0,nan,nan
233388113,90.07689,-15.279572,-50.876335,nan,nan,nan,nan,nan,nan,0.554998,0.0,0.0,nan,nan
233488640,90.81781,-16.76683,-50.876335,nan,nan,nan,nan,nan,nan,0.55902344,0.0,0.0,nan,nan
233586718,91.560394,-18.257423,-50.876335,nan,nan,nan,nan,nan,nan,0.5703404,0.0,0.0,nan,nan
233686163,92.30683,-19.755768,-50.876335,nan,nan,nan,nan,nan,nan,0.5815193,0.0,0.0,nan,nan
233777043,92.97893,-21.104866,-50.876335,nan,nan,nan,nan,nan,nan,0.5842005,0.0,0.0,nan,nan
233895103,93.87483,-22.903236,-50.876335,nan,nan,nan,nan,nan,nan,0.5861913,0.0,0.0,nan,nan
233996254,94.62194,-24.402908,-50.876335,nan,nan,nan,nan,nan,nan,0.5898151,0.0,0.0,nan,nan
234094161,95.36893,-25.902344,-50.876335,nan,nan,nan,nan,nan,nan,0.5926355,0.0,0.0,nan,nan
234194352,96.113464,-27.396873,-50.876335,nan,nan,nan,nan,nan,nan,0.59623843,0.0,0.0,nan,nan
234292616,96.85808,-28.89154,-50.876335,nan,nan,nan,nan,nan,nan,0.5995701,0.0,0.0,nan,nan
234391962,97.60613,-30.39312,-50.876335,nan,nan,nan,nan,nan,nan,0.6032178,0.0,0.0,nan,nan
234491291,98.356346,-31.899025,-50.876335,nan,nan,nan,nan,nan,nan,0.6056608,0.0,0.0,nan,nan
234590932,99.10715,-33.406136,-50.876335,nan,nan,nan,nan,nan,nan,0.60581183,0.0,0.0,nan,nan
234690183,99.85904,-34.915405,-50.876335,nan,nan,nan,nan,nan,nan,0.6050203,0.0,0.0,nan,nan
234789797,100.6131,-36.429047,-50.876335,nan,nan,nan,nan,nan,nan,0.6043847,0.0,0.0,nan,nan
234890366,101.36833,-37.945038,-50.876335,nan,nan,nan,nan,nan,nan,0.6059778,0.0,0.0,nan,nan
234989887,102.12491,-39.463715,-50.876335,nan,nan,nan,nan,nan,nan,0.6080942,0.0,0.0,nan,nan
235088060,102.88369,-40.986824,-50.876335,nan,nan,nan,nan,nan,nan,0.6117606,0.0,0.0,nan,nan
235187255,103.64169,-42.508385,-50.876335,nan,nan,nan,nan,nan,nan,0.6160561,0.0,0.0,nan,nan
235286617,104.40019,-44.030914,-50.876335,nan,nan,nan,nan,nan,nan,0.6201548,0.0,0.0,nan,nan
235386028,105.16076,-45.55761,-50.876335,nan,nan,nan,nan,nan,nan,0.6224398,0.0,0.0,nan,nan
235495575,106.000015,-47.24224,-50.876335,nan,nan,nan,nan,nan,nan,0.62646043,0.0,0.0,nan,nan
235586210,106.68823,-48.62374,-50.876335,nan,nan,nan,nan,nan,nan,0.6302151,0.0,0.0,nan,nan
235694469,107.5356,-50.32467,-50.876335,nan,nan,nan,nan,nan,nan,0.6353425,0.0,0.0,nan,nan
235795228,108.30829,-51.87568,-50.876335,nan,nan,nan,nan,nan,nan,0.6382066,0.0,0.0,nan,nan
235892996,109.08331,-53.43139,-50.876335,nan,nan,nan,nan,nan,nan,0.6415665,0.0,0.0,nan,nan
235993887,109.861435,-54.993324,-50.876335,nan,nan,nan,nan,nan,nan,0.6450209,0.0,0.0,nan,nan
236091840,110.64215,-56.560463,-50.876335,nan,nan,nan,nan,nan,nan,0.6503419,0.0,0.0,nan,nan
236191457,111.42308,-58.12806,-50.876335,nan,nan,nan,nan,nan,nan,0.6531385,0.0,0.0,nan,nan
236291097,112.20538,-59.698357,-50.876335,nan,nan,nan,nan,nan,nan,0.6551961,0.0,0.0,nan,nan
236390584,112.99045,-61.274254,-50.876335,nan,nan,nan,nan,nan,nan,0.6558521,0.0,0.0,nan,nan
236491703,113.77911,-62.857353,-50.876335,nan,nan,nan,nan,nan,nan,0.6564516,0.0,0.0,nan,nan
236589118,114.57149,-64.44788,-50.876335,nan,nan,nan,nan,nan,nan,0.6583655,0.0,0.0,nan,nan
236688309,115.367874,-66.04647,-50.876335,nan,nan,nan,nan,nan,nan,0.65824467,0.0,0.0,nan,nan
236787798,116.16675,-67.65008,-50.876335,nan,nan,nan,nan,nan,nan,0.65713227,0.0,0.0,nan,nan
236887261,116.967865,-69.258156,-50.876335,nan,nan,nan,nan,nan,nan,0.6579739,0.0,0.0,nan,nan
236986615,117.77191,-70.87214,-50.876335,nan,nan,nan,nan,nan,nan,0.6584601,0.0,0.0,nan,nan
237086028,118.57854,-72.491264,-50.876335,nan,nan,nan,nan,nan,nan,0.6560959,0.0,0.0,nan,nan
237186624,119.38431,-74.10871,-50.876335,nan,nan,nan,nan,nan,nan,0.6539492,0.0,0.0,nan,nan
237294927,120.269714,-75.885994,-50.876335,nan,nan,nan,nan,nan,nan,0.6545655,0.0,0.0,nan,nan
237396005,121.07909,-77.51066,-50.876335,nan,nan,nan,nan,nan,nan,0.6545927,0.0,0.0,nan,nan
237493911,121.8914,-79.14123,-50.876335,nan,nan,nan,nan,nan,nan,0.6529047,0.0,0.0,nan,nan
237593125,122.70369,-80.771736,-50.876335,nan,nan,nan,nan,nan,nan,0.6494381,0.0,0.0,nan,nan
237692366,123.5188,-82.407936,-50.876335,nan,nan,nan,nan,nan,nan,0.6467102,0.0,0.0,nan,nan
237791868,124.33586,-84.04801,-50.876335,nan,nan,nan,nan,nan,nan,0.6466169,0.0,0.0,nan,nan
237892713,125.153854,-85.689995,-50.876335,nan,nan,nan,nan,nan,nan,0.6431963,0.0,0.0,nan,nan
237990799,125.97067,-87.32961,-50.876335,nan,nan,nan,nan,nan,nan,0.6390105,0.0,0.0,nan,nan
238090244,126.787384,-88.969,-50.876335,nan,nan,nan,nan,nan,nan,0.63504446,0.0,0.0,nan,nan
238189747,127.604324,-90.608864,-50.876335,nan,nan,nan,nan,nan,nan,0.6332381,0.0,0.0,nan,nan
238288800,128.42094,-92.24807,-50.876335,nan,nan,nan,nan,nan,nan,0.6313692,0.0,0.0,nan,nan
238388498,129.2369,-93.88592,-50.876335,nan,nan,nan,nan,nan,nan,0.6271359,0.0,0.0,nan,nan
238487824,130.05205,-95.52221,-50.876335,nan,nan,nan,nan,nan,nan,0.624391,0.0,0.0,nan,nan
238587115,130.86723,-97.15855,-50.876335,nan,nan,nan,nan,nan,nan,0.6215181,0.0,0.0,nan,nan
238686637,131.68234,-98.7947,-50.876335,nan,nan,nan,nan,nan,nan,0.61939186,0.0,0.0,nan,nan
238787504,132.49687,-100.42971,-50.876335,nan,nan,nan,nan,nan,nan,0.6163306,0.0,0.0,nan,nan
238895658,133.39275,-102.228004,-50.876335,nan,nan,nan,nan,nan,nan,0.61640334,0.0,0.0,nan,nan
238996150,134.20699,-103.862465,-50.876335,nan,nan,nan,nan,nan,nan,0.61668205,0.0,0.0,nan,nan
239094377,135.02164,-105.497734,-50.876335,nan,nan,nan,nan,nan,nan,0.61751693,0.0,0.0,nan,nan
239194108,135.83232,-107.12502,-50.876335,nan,nan,nan,nan,nan,nan,0.6181418,0.0,0.0,nan,nan
239293275,136.63904,-108.74435,-50.876335,nan,nan,nan,nan,nan,nan,0.6184679,0.0,0.0,nan,nan
239392461,137.44662,-110.365425,-50.876335,nan,nan,nan,nan,nan,nan,0.6180572,0.0,0.0,nan,nan
239493287,138.25366,-111.985405,-50.876335,nan,nan,nan,nan,nan,nan,0.6174756,0.0,0.0,nan,nan
239591397,139.06082,-113.605644,-50.876335,nan,nan,nan,nan,nan,nan,0.6148302,0.0,0.0,nan,nan
239690474,139.86864,-115.22718,-50.876335,nan,nan,nan,nan,nan,nan,0.61454463,0.0,0.0,nan,nan
239790073,140.67584,-116.847466,-50.876335,nan,nan,nan,nan,nan,nan,0.61386496,0.0,0.0,nan,nan
239889565,141.48334,-118.46836,-50.876335,nan,nan,nan,nan,nan,nan,0.6145057,0.0,0.0,nan,nan
239988856,142.29163,-120.09084,-50.876335,nan,nan,nan,nan,nan,nan,0.6157784,0.0,0.0,nan,nan
240088305,143.09639,-121.706276,-50.876335,nan,nan,nan,nan,nan,nan,0.6146505,0.0,0.0,nan,nan
240188967,143.89719,-123.31371,-50.876335,nan,nan,nan,nan,nan,nan,0.61155576,0.0,0.0,nan,nan
240286902,144.69408,-124.91334,-50.876335,nan,nan,nan,nan,nan,nan,0.60900795,0.0,0.0,nan,nan
240386432,145.4897,-126.5104,-50.876335,nan,nan,nan,nan,nan,nan,0.60413337,0.0,0.0,nan,nan
240486027,146.28612,-128.10904,-50.876335,nan,nan,nan,nan,nan,nan,0.60178685,0.0,0.0,nan,nan
240595464,147.15782,-129.85886,-50.876335,nan,nan,nan,nan,nan,nan,0.5965123,0.0,0.0,nan,nan
240694804,147.9492,-131.44736,-50.876335,nan,nan,nan,nan,nan,nan,0.591836,0.0,0.0,nan,nan
240794339,148.74028,-133.03531,-50.876335,nan,nan,nan,nan,nan,nan,0.5878606,0.0,0.0,nan,nan
240893662,149.52838,-134.61728,-50.876335,nan,nan,nan,nan,nan,nan,0.5803475,0.0,0.0,nan,nan
240994573,150.31358,-136.19342,-50.876335,nan,nan,nan,nan,nan,nan,0.56765133,0.0,0.0,nan,nan
241093814,151.09589,-137.76376,-50.876335,nan,nan,nan,nan,nan,nan,0.56016076,0.0,0.0,nan,nan
241191840,151.87358,-139.32483,-50.876335,nan,nan,nan,nan,nan,nan,0.5454437,0.0,0.0,nan,nan
241291456,152.64848,-140.88028,-50.876335,nan,nan,nan,nan,nan,nan,0.5430151,0.0,0.0,nan,nan
241390531,153.42128,-142.43155,-50.876335,nan,nan,nan,nan,nan,nan,0.5369081,0.0,0.0,nan,nan
241491310,154.19118,-143.97699,-50.876335,nan,nan,nan,nan,nan,nan,0.53201026,0.0,0.0,nan,nan
241589487,154.95824,-145.5167,-50.876335,nan,nan,nan,nan,nan,nan,0.52928424,0.0,0.0,nan,nan
241688374,153.67184,-248.1005,-50.627037,nan,nan,nan,nan,nan,nan,0.51186454,0.0,0.0,nan,nan
241788930,154.01244,-248.10007,-50.627037,nan,nan,nan,nan,nan,nan,0.4403886,0.0,0.0,nan,nan
241887844,154.35817,-248.10123,-50.627037,nan,nan,nan,nan,nan,nan,0.42874524,0.0,0.0,nan,nan
241988496,154.70393,-248.104,-50.627037,nan,nan,nan,nan,nan,nan,0.5038906,0.0,0.0,nan,nan
242086400,155.04689,-248.1083,-50.627037,nan,nan,nan,nan,nan,nan,0.57733136,0.0,0.0,nan,nan
242185822,155.38701,-248.11414,-50.627037,nan,nan,nan,nan,nan,nan,0.5821134,0.0,0.0,nan,nan
242295349,155.75584,-248.1222,-50.627037,nan,nan,nan,nan,nan,nan,0.592334,0.0,0.0,nan,nan
242394849,156.08952,-248.13104,-50.627037,nan,nan,nan,nan,nan,nan,0.5994966,0.0,0.0,nan,nan
242495873,156.41307,-248.14105,-50.627037,nan,nan,nan,nan,nan,nan,0.6108687,0.0,0.0,nan,nan
242593580,156.73215,-248.15228,-50.627037,nan,nan,nan,nan,nan,nan,0.6157463,0.0,0.0,nan,nan
242694786,157.04546,-248.16464,-50.627037,nan,nan,nan,nan,nan,nan,0.62017554,0.0,0.0,nan,nan
