timestamp,timestamp_sample,device_id,bias,bias_var,innov,innov_var,innov_test_ratio
1743177449461379,1743177449309105,6620172,-0.06092479,0.0005728926,0.3957652,12.813074,0.0013582489
1743177450557379,1743177450401309,6620172,-0.05978946,0.019439135,0.21826668,12.297216,0.0004304528
1743177450765379,1743177450609326,6620172,-0.058716338,0.02284801,0.05098608,12.297617,2.3487662e-05
1743177450973379,1743177450817338,6620172,-0.060291935,0.026195237,-0.37952772,12.298844,0.0013013083
1743177451125379,1743177450973346,6620172,-0.05855588,0.028594956,0.3245304,12.299986,0.0009514011
1743177451229379,1743177451077350,6620172,-0.05990644,0.030218823,-0.63478816,12.300945,0.0036397926
1743177451805379,1743177451649365,6620172,-0.058450922,0.03889027,0.17917868,12.3072815,0.0002898465
1743177452269379,1743177452117371,6620172,-0.057353884,0.04541455,0.07459445,12.312765,5.021286e-05
1743177452373379,1743177452221372,6620172,-0.05559063,0.046821002,0.64339083,12.314025,0.0037351425
1743177452429379,1743177452273373,6620172,-0.053799666,0.047583472,0.46170998,12.3147745,0.0019233997
1743177452477379,1743177452325373,6620172,-0.055334084,0.048205584,-0.39046326,12.315284,0.0013755406
1743177452637379,1743177452481374,6620172,-0.052988183,0.050308343,0.5035634,12.317285,0.0022874458
1743177452741379,1743177452585375,6620172,-0.050426465,0.05163727,0.42020762,12.318531,0.0015926723
1743177452789379,1743177452637375,6620172,-0.049406473,0.052225903,0.23957145,12.31903,0.00051766774
1743177452949379,1743177452793376,6620172,-0.052381314,0.05422724,-0.45970312,12.320995,0.0019057528
1743177452997379,1743177452845376,6620172,-0.05364661,0.054793157,-0.2832591,12.321484,0.0007235394
1743177453053379,1743177452897376,6620172,-0.054707557,0.05548804,-0.23453878,12.32221,0.00049601885
1743177453101379,1743177452949377,6620172,-0.05225468,0.05604252,0.53687704,12.322691,0.0025989718
1743177453205379,1743177453053377,6620172,-0.04938854,0.05726893,0.41531765,12.323885,0.0015551441
1743177453261379,1743177453105377,6620172,-0.051185872,0.05794082,-0.38050514,12.324598,0.0013052863
1743177453309379,1743177453157377,6620172,-0.052473716,0.058472335,-0.27016386,12.325062,0.00065799546
1743177453365379,1743177453209377,6620172,-0.05141385,0.05913271,0.2198565,12.3257675,0.0004357347
1743177453413379,1743177453261378,6620172,-0.049186427,0.059652727,0.45802045,12.326223,0.0018910246
1743177453517379,1743177453365378,6620172,-0.047478154,0.06081011,0.15844765,12.327368,0.00022628656
1743177453573379,1743177453417378,6620172,-0.04553615,0.061447468,0.3876683,12.328056,0.0013545139
1743177453621379,1743177453469378,6620172,-0.042784255,0.06194452,0.5449295,12.328493,0.002676259
1743177453677379,1743177453521378,6620172,-0.041530356,0.06257039,0.24581417,12.329172,0.00054454955
1743177453781379,1743177453625378,6620172,-0.043610767,0.06367041,-0.25221062,12.33027,0.0005732072
1743177454037379,1743177453885379,6620172,-0.04062033,0.066253744,0.6897042,12.332799,0.004285698
1743177454093379,1743177453937379,6620172,-0.03918923,0.066834144,0.26265314,12.333439,0.0006214963
1743177454141379,1743177453989379,6620172,-0.038041294,0.067274466,0.20930354,12.333824,0.0003946507
1743177454245379,1743177454093379,6620172,-0.036448114,0.068272874,0.41079897,12.334827,0.0015201382
1743177454301379,1743177454145379,6620172,-0.034156162,0.068831,0.40844348,12.335445,0.0015026804
1743177454349379,1743177454197379,6620172,-0.03263451,0.06924914,0.26953122,12.335809,0.0006543469
1743177454453379,1743177454301379,6620172,-0.030885037,0.07020338,0.31954432,12.336769,0.0009196408
1743177454509379,1743177454353379,6620172,-0.034307465,0.070739545,-0.5934478,12.337365,0.0031717587
1743177454613379,1743177454457379,6620172,-0.031057395,0.07166125,0.6983973,12.338292,0.0043924567
1743177454661379,1743177454509379,6620172,-0.028583467,0.07204685,0.42119235,12.338625,0.0015975398
1743177454717379,1743177454561379,6620172,-0.026247822,0.07256155,0.39483032,12.339198,0.0014037557
1743177454765379,1743177454613379,6620172,-0.025061123,0.07293654,0.1995737,12.3395195,0.00035864586
1743177454821379,1743177454665379,6620172,-0.026235443,0.07344064,-0.19613719,12.340082,0.00034638523
1743177454869379,1743177454717379,6620172,-0.023536187,0.0738051,0.4486067,12.340393,0.0018120076
1743177454925379,1743177454769379,6620172,-0.024847817,0.074298754,-0.21654063,12.340944,0.00042217053
1743177454973379,1743177454821379,6620172,-0.022697855,0.074652866,0.35325813,12.341245,0.0011235253
1743177455029379,1743177454873379,6620172,-0.02037667,0.07513622,0.3789397,12.341785,0.0012927654
1743177455133379,1743177454977379,6620172,-0.018598443,0.07595331,0.24924119,12.342605,0.0005592298
1743177455341379,1743177455185379,6620172,-0.019658405,0.07752749,-0.2129906,12.34418,0.00040833454
1743177455445379,1743177455289379,6620172,-0.0211927,0.07828519,-0.31976813,12.344936,0.0009203202
1743177455549379,1743177455393379,6620172,-0.025906911,0.07902368,-0.6450598,12.345674,0.0037449212
1743177455597379,1743177455445379,6620172,-0.027707545,0.079318665,-0.2784554,12.345912,0.00069782353
1743177455701379,1743177455549379,6620172,-0.024727127,0.08002896,0.42792073,12.34662,0.0016479199
1743177455909379,1743177455757379,6620172,-0.021930845,0.08139465,0.33072114,12.347975,0.0009842053
1743177456013379,1743177455861379,6620172,-0.01976134,0.08205061,0.42772314,12.348623,0.0016461312
1743177456069379,1743177455913379,6620172,-0.021641962,0.08243918,-0.2798163,12.349062,0.00070448144
1743177456117379,1743177455965379,6620172,-0.019904425,0.08268915,0.25774395,12.349254,0.00059771445
1743177456277379,1743177456121379,6620172,-0.020935835,0.08368217,-0.11029954,12.350286,0.00010945306
1743177456325379,1743177456173379,6620172,-0.023803942,0.083915316,-0.41923353,12.350461,0.0015811983
1743177456381379,1743177456225379,6620172,-0.024983326,0.08427863,-0.17164883,12.350871,0.00026505842
1743177456429379,1743177456277379,6620172,-0.022792,0.084503606,0.31807747,12.351038,0.0009101645
1743177456533379,1743177456381379,6620172,-0.019857861,0.08507582,0.29566067,12.351599,0.00078636
1743177456637379,1743177456485379,6620172,-0.018739006,0.08563229,0.27522513,12.352141,0.0006813832
1743177456797379,1743177456641379,6620172,-0.015626984,0.08650532,0.34241205,12.3530445,0.001054585
1743177456845379,1743177456693379,6620172,-0.014355751,0.08669933,0.17984885,12.35318,0.0002909337
1743177456949379,1743177456797379,6620172,-0.016237738,0.08721057,-0.39571336,12.353676,0.0014083893
1743177457053379,1743177456901379,6620172,-0.020326812,0.0877074,-0.6525777,12.354156,0.0038300892
1743177457109379,1743177456953379,6620172,-0.018709863,0.08801763,0.22533296,12.354507,0.00045664795
1743177457157379,1743177457005379,6620172,-0.02041164,0.088190146,-0.23668927,12.354621,0.00050383137
1743177457213379,1743177457057379,6620172,-0.017872866,0.088493444,0.35189247,12.354965,0.0011136172
1743177457317379,1743177457161379,6620172,-0.019246284,0.08895566,-0.17681223,12.355409,0.00028114152
1743177457365379,1743177457213379,6620172,-0.017144542,0.089114666,0.28928378,12.355509,0.0007525668
1743177457421379,1743177457265379,6620172,-0.020939754,0.089404605,-0.5206804,12.355839,0.0024379669
1743177457469379,1743177457317379,6620172,-0.017823149,0.08955709,0.42684966,12.355932,0.001638445
1743177457525379,1743177457369379,6620172,-0.01668329,0.08984058,0.15562266,12.356256,0.00021777915
1743177457629379,1743177457473379,6620172,-0.012242479,0.09026392,0.51043516,12.356658,0.0023428132
1743177457677379,1743177457525379,6620172,-0.009135421,0.09040384,0.42155427,12.356739,0.0015979406
1743177457781379,1743177457629379,6620172,-0.008013074,0.09080879,0.27806932,12.357123,0.0006952584
1743177457837379,1743177457681379,6620172,-0.004608458,0.091073886,0.45852774,12.357426,0.0018904306
1743177457885379,1743177457733379,6620172,-0.0003555133,0.09120186,0.5719725,12.357494,0.0029415574
1743177457989379,1743177457837379,6620172,0.0026881413,0.09158334,0.53524363,12.357855,0.0025758313
1743177458045379,1743177457889379,6620172,0.00064812787,0.09183693,-0.2724614,12.358145,0.0006674431
1743177458149379,1743177457993379,6620172,0.005166748,0.0922016,0.6608939,12.358487,0.003926953
1743177458253379,1743177458097379,6620172,0.008154262,0.09255541,0.30901256,12.358818,0.00085848523
1743177458461379,1743177458305379,6620172,0.0068934713,0.09323162,-0.06244372,12.3594475,3.505387e-05
1743177458509379,1743177458357379,6620172,0.010477349,0.09332724,0.4710077,12.359485,0.0019944042
1743177458565379,1743177458409379,6620172,0.0072523034,0.09355456,-0.42281973,12.359747,0.0016071574
1743177458669379,1743177458513379,6620172,0.0032539524,0.09386775,-0.4446918,12.360037,0.0017776898
1743177458925379,1743177458773379,6620172,0.001886837,0.09454272,-0.08266605,12.360605,6.142881e-05
1743177459029379,1743177458877379,6620172,0.0036631639,0.09482383,0.28895965,12.360863,0.000750556
1743177459133379,1743177458981379,6620172,0.0026299658,0.095096335,-0.08000298,12.361111,5.7532376e-05
1743177459189379,1743177459033379,6620172,0.0005619519,0.09529651,-0.26616728,12.361343,0.0006367972
1743177459293379,1743177459137379,6620172,0.002907204,0.09555655,0.3061849,12.361579,0.0008426574
1743177459397379,1743177459241379,6620172,0.0070042172,0.09580858,0.40109885,12.361807,0.0014460335
1743177459501379,1743177459345379,6620172,0.009052459,0.096052825,0.349708,12.362027,0.0010992055
1743177459605379,1743177459449379,6620172,0.005612098,0.09628949,-0.5614973,12.362239,0.0028337117
1743177459653379,1743177459501379,6620172,0.002208664,0.096338,-0.4333032,12.362231,0.0016875026
1743177459709379,1743177459553379,6620172,-0.0013406067,0.09651882,-0.4510247,12.362444,0.0018283268
1743177459757379,1743177459605379,6620172,-0.0029119514,0.09656373,-0.19958533,12.362433,0.00035802287
1743177459813379,1743177459657379,6620172,-0.0045131287,0.096741006,-0.2030023,12.362641,0.00037038056
1743177459861379,1743177459709379,6620172,-0.0032314076,0.09678242,0.16243039,12.362628,0.00023712714
1743177459917379,1743177459761379,6620172,-0.0053870315,0.09695626,-0.27268946,12.362832,0.00066830736
1743177460021379,1743177459865379,6620172,-0.009082406,0.09716478,-0.3720457,12.363017,0.001244015
1743177460125379,1743177459969379,6620172,-0.011084445,0.097366765,-0.2995115,12.363194,0.0008062204
1743177460173379,1743177460021379,6620172,-0.012171978,0.09739831,-0.13694894,12.363172,0.00016855629
1743177460229379,1743177460073379,6620172,-0.017711872,0.09756241,-0.6964457,12.363367,0.004359084
1743177460277379,1743177460125379,6620172,-0.016440492,0.097590856,0.15978384,12.36334,0.00022944962
1743177460381379,1743177460229379,6620172,-0.019044146,0.09777734,-0.29447472,12.363503,0.0007793131
1743177460485379,1743177460333379,6620172,-0.02112779,0.09795793,-0.36855218,12.363661,0.0012206985
1743177460541379,1743177460385379,6620172,-0.02574837,0.098113135,-0.57761014,12.363847,0.0029982892
1743177460645379,1743177460489379,6620172,-0.030825263,0.098285235,-0.5095458,12.363996,0.0023332706
1743177460693379,1743177460541379,6620172,-0.032265205,0.09830217,-0.17965734,12.363959,0.00029006135
1743177460749379,1743177460593379,6620172,-0.040044025,0.098451875,-0.96906614,12.36414,0.008439184
1743177460853379,1743177460697379,6620172,-0.036876403,0.09861323,0.47544634,12.364278,0.0020313826
1743177460957379,1743177460801379,6620172,-0.04179678,0.098769456,-0.4920366,12.364411,0.002175599
1743177461109379,1743177460957379,6620172,-0.04037686,0.09892745,0.08670669,12.364494,6.7559486e-05
1743177461269379,1743177461113379,6620172,-0.044039287,0.09920887,-0.5657829,12.364784,0.002876541
1743177461317379,1743177461165379,6620172,-0.045347784,0.099210985,-0.16175982,12.364736,0.00023513321
1743177461373379,1743177461217379,6620172,-0.049156174,0.09934609,-0.47016373,12.3649,0.001986393
1743177461421379,1743177461269379,6620172,-0.054606974,0.09934598,-0.672925,12.364849,0.0040691337
1743177461477379,1743177461321379,6620172,-0.057850175,0.0994789,-0.39985317,12.365011,0.0014366932
1743177461525379,1743177461373379,6620172,-0.062709324,0.09947665,-0.5990936,12.364959,0.0032251817
1743177461581379,1743177461425379,6620172,-0.06136368,0.09960745,0.16568995,12.365118,0.00024669
1743177461629379,1743177461477379,6620172,-0.0638108,0.099603124,-0.30132726,12.365065,0.0008159019
1743177461685379,1743177461529379,6620172,-0.06708535,0.09973188,-0.40269187,12.365222,0.0014571401
1743177461733379,1743177461581379,6620172,-0.070646375,0.09972554,-0.43794814,12.365166,0.0017234668
1743177461789379,1743177461633379,6620172,-0.075219736,0.09985231,-0.561736,12.365322,0.0028354144
1743177461837379,1743177461685379,6620172,-0.07781652,0.099844016,-0.31898296,12.365264,0.00091430073
1743177461893379,1743177461737379,6620172,-0.080405034,0.099968866,-0.3175697,12.365418,0.00090620574
1743177461941379,1743177461789379,6620172,-0.081798576,0.09995868,-0.17098257,12.365359,0.0002626966
1743177461997379,1743177461841379,6620172,-0.085953176,0.10008166,-0.5091295,12.365512,0.0023291742
1743177462045379,1743177461893379,6620172,-0.091389015,0.10006964,-0.6662174,12.365451,0.003988223
1743177462149379,1743177461997379,6620172,-0.09819806,0.10017702,-0.7484235,12.365539,0.0050331433
1743177462205379,1743177462049379,6620172,-0.1013665,0.100296445,-0.38744628,12.365688,0.0013488454
1743177462253379,1743177462101379,6620172,-0.10264524,0.100280926,-0.1563926,12.365623,0.00021977277
1743177462309379,1743177462153379,6620172,-0.1006647,0.10039866,0.24193987,12.365771,0.00052595814
1743177462357379,1743177462205379,6620172,-0.09941315,0.10038147,0.1529127,12.3657055,0.00021009984
1743177462413379,1743177462257379,6620172,-0.10219246,0.10049756,-0.33918166,12.365852,0.0010337087
1743177462517379,1743177462361379,6620172,-0.10795403,0.10059326,-0.6551317,12.36593,0.0038564522
1743177462565379,1743177462413379,6620172,-0.112263985,0.1005729,-0.52558136,12.365862,0.002482064
1743177462621379,1743177462465379,6620172,-0.115718074,0.10068586,-0.42074078,12.366005,0.0015905865
1743177462669379,1743177462517379,6620172,-0.11446535,0.10066398,0.15262622,12.365935,0.00020930942
1743177462725379,1743177462569379,6620172,-0.116757035,0.10077545,-0.2789005,12.366077,0.00069891463
1743177462773379,1743177462621379,6620172,-0.11913036,0.10075211,-0.2889017,12.366007,0.00074994285
1743177462829379,1743177462673379,6620172,-0.11780619,0.10086213,0.16101383,12.366148,0.00023294285
1743177462877379,1743177462725379,6620172,-0.12045681,0.100837365,-0.32238317,12.366076,0.0009338353
1743177462933379,1743177462777379,6620172,-0.12245849,0.100945994,-0.24319446,12.366216,0.00053140795
1743177463085379,1743177462933379,6620172,-0.12604025,0.10099966,-0.50092685,12.366207,0.0022546004
1743177463141379,1743177462985379,6620172,-0.12803936,0.10110562,-0.2424986,12.366344,0.0005283657
1743177463293379,1743177463141379,6620172,-0.12964375,0.10115155,-0.24262424,12.36633,0.0005289139
1743177463349379,1743177463193379,6620172,-0.13247928,0.101255015,-0.34344834,12.366465,0.0010598266
1743177463501379,1743177463349379,6620172,-0.13476759,0.10129368,-0.26836595,12.366446,0.0006470941
1743177463557379,1743177463401379,6620172,-0.13929515,0.1013948,-0.5476369,12.366578,0.0026945942
1743177463709379,1743177463557379,6620172,-0.14226179,0.101426676,-0.31153804,12.366553,0.0008720291
1743177463765379,1743177463609379,6620172,-0.14349672,0.101525605,-0.14918013,12.366685,0.00019995219
1743177463813379,1743177463661379,6620172,-0.14728253,0.10148993,-0.457485,12.366605,0.0018804453
1743177463917379,1743177463765379,6620172,-0.14919236,0.101551116,-0.13355163,12.366654,0.00016025208
1743177463973379,1743177463817379,6620172,-0.154222,0.10164799,-0.6068473,12.366784,0.0033087165
1743177464021379,1743177463869379,6620172,-0.15306184,0.101610295,0.14003037,12.366703,0.00017617653
1743177464077379,1743177463921379,6620172,-0.15857355,0.10170619,-0.6646328,12.366831,0.003968831
1743177464229379,1743177464077379,6620172,-0.15673082,0.1017229,0.11387497,12.366795,0.000116508316
1743177464285379,1743177464129379,6620172,-0.15985097,0.10181694,-0.37583524,12.366922,0.0012690854
1743177464333379,1743177464181379,6620172,-0.16099817,0.10177645,-0.13823806,12.366838,0.00017169358
1743177464389379,1743177464233379,6620172,-0.16440342,0.1018696,-0.4099638,12.366965,0.0015100291
1743177464437379,1743177464285379,6620172,-0.16774273,0.10182824,-0.40218687,12.366882,0.0014532926
1743177464493379,1743177464337379,6620172,-0.1649,0.10192053,0.34206963,12.367007,0.0010512884
1743177464597379,1743177464441379,6620172,-0.16739807,0.10196979,-0.25865117,12.367048,0.0006010634
1743177464645379,1743177464493379,6620172,-0.16145608,0.101926774,0.71495974,12.366963,0.0045925886
1743177464749379,1743177464597379,6620172,-0.16496941,0.10197363,-0.50062543,12.367002,0.0022517433
1743177464805379,1743177464649379,6620172,-0.17055748,0.102063514,-0.6714754,12.367125,0.004050876
1743177464853379,1743177464701379,6620172,-0.17321031,0.102018945,-0.3189082,12.367039,0.0009137412
1743177464957379,1743177464805379,6620172,-0.17178386,0.10206277,0.15565753,12.367075,0.00021768613
1743177465013379,1743177464857379,6620172,-0.16871284,0.10215117,0.36870426,12.367197,0.0012213567
1743177465061379,1743177464909379,6620172,-0.16642374,0.10210515,0.27495027,12.36711,0.0006791998
1743177465117379,1743177464961379,6620172,-0.16917603,0.10219285,-0.33030325,12.367231,0.0009801909
1743177465165379,1743177465013379,6620172,-0.17081575,0.102146134,-0.19687279,12.367144,0.0003482246
1743177465221379,1743177465065379,6620172,-0.16896589,0.10223315,0.22191362,12.367264,0.00044243736
1743177465269379,1743177465117379,6620172,-0.17134842,0.10218576,-0.2859463,12.367176,0.0007346085
1743177465373379,1743177465221379,6620172,-0.17383118,0.10222409,-0.24252558,12.3672085,0.00052844634
1743177465429379,1743177465273379,6620172,-0.17573401,0.10230981,-0.22809868,12.367328,0.0004674414
1743177465477379,1743177465325379,6620172,-0.17825215,0.10226115,-0.3019977,12.367238,0.00081939256
1743177465637379,1743177465481379,6620172,-0.18298006,0.1023815,-0.4582662,12.367387,0.0018867536
1743177465685379,1743177465533379,6620172,-0.18492156,0.102331646,-0.2326827,12.367296,0.00048641948
1743177465789379,1743177465637379,6620172,-0.1828685,0.10236516,0.16988793,12.367324,0.00025930256
1743177465845379,1743177465689379,6620172,-0.1847377,0.10244853,-0.22376297,12.367441,0.00044983588
1743177465893379,1743177465741379,6620172,-0.17916128,0.10239757,0.66788435,12.367351,0.004007591
1743177465949379,1743177465793379,6620172,-0.17774163,0.102480404,0.16989347,12.367468,0.00025931644
1743177466053379,1743177465897379,6620172,-0.18008152,0.10251122,-0.22503778,12.367493,0.00045497413
1743177466101379,1743177465949379,6620172,-0.17834762,0.10245921,0.20754352,12.3674,0.00038698796
1743177466157379,1743177466001379,6620172,-0.1835285,0.102541015,-0.6196432,12.367517,0.0034495175
1743177466205379,1743177466053379,6620172,-0.18838356,0.10248851,-0.5809712,12.367425,0.0030324063
1743177466261379,1743177466105379,6620172,-0.1901921,0.102569826,-0.21624328,12.367539,0.00042010655
1743177466309379,1743177466157379,6620172,-0.18619932,0.10251684,0.47765625,12.367448,0.002049785
1743177466469379,1743177466313379,6620172,-0.1934526,0.102624625,-0.864217,12.367585,0.006709933
1743177466517379,1743177466365379,6620172,-0.19592413,0.10257073,-0.2955134,12.367491,0.0007845673
1743177466573379,1743177466417379,6620172,-0.19756235,0.10265067,-0.19572511,12.367606,0.0003441636
1743177466725379,1743177466573379,6620172,-0.19918914,0.10262111,-0.1783119,12.367532,0.00028565057
1743177466781379,1743177466625379,6620172,-0.20436592,0.10270021,-0.6181918,12.367644,0.0034333412
1743177466829379,1743177466677379,6620172,-0.20809987,0.102645054,-0.44613153,12.367551,0.0017881321
1743177466885379,1743177466729379,6620172,-0.21042699,0.10272376,-0.27783152,12.367664,0.0006934783
1743177466933379,1743177466781379,6620172,-0.21208714,0.10266821,-0.1983102,12.367569,0.00035331593
1743177467037379,1743177466885379,6620172,-0.21026772,0.1026906,0.12759781,12.367586,0.00014627125
1743177467093379,1743177466937379,6620172,-0.21369603,0.10276855,-0.40912277,12.367699,0.0015037508
1743177467197379,1743177467041379,6620172,-0.21518251,0.102789834,-0.067453,12.367715,4.08762e-05
1743177467245379,1743177467093379,6620172,-0.21028738,0.10273318,0.58436894,12.3676195,0.0030679312
1743177467349379,1743177467197379,6620172,-0.21192686,0.102753416,-0.1435237,12.367635,0.00018506234
1743177467613379,1743177467457379,6620172,-0.21326698,0.10286815,-0.15542254,12.367774,0.0002170171
1743177467661379,1743177467509379,6620172,-0.20730543,0.10281018,0.7111403,12.367678,0.0045433887
1743177467717379,1743177467561379,6620172,-0.21043418,0.102886125,-0.37294817,12.367787,0.0012495754
1743177467765379,1743177467613379,6620172,-0.21354116,0.10282786,-0.37056136,12.36769,0.001233642
1743177467821379,1743177467665379,6620172,-0.21480319,0.102903515,-0.15040766,12.3678,0.000203238
1743177467869379,1743177467717379,6620172,-0.21686593,0.10284496,-0.245976,12.3677025,0.00054356805
1743177467925379,1743177467769379,6620172,-0.21324301,0.10292032,0.43170777,12.367811,0.0016743427
1743177467973379,1743177467821379,6620172,-0.21111755,0.10286149,0.25341368,12.367713,0.00057693676
1743177468133379,1743177467977379,6620172,-0.20927657,0.10295229,0.33112824,12.367833,0.0009850456
1743177468181379,1743177468029379,6620172,-0.20645037,0.10289291,0.3368591,12.367735,0.0010194452
1743177468237379,1743177468081379,6620172,-0.20914361,0.10296748,-0.32077894,12.367843,0.00092443253
1743177468285379,1743177468133379,6620172,-0.21038131,0.10290785,-0.14750198,12.367745,0.00019546214
1743177468341379,1743177468185379,6620172,-0.2062839,0.10298216,0.48795587,12.367853,0.0021390663
1743177468389379,1743177468237379,6620172,-0.20266896,0.10292229,0.4307464,12.367754,0.0016669016
1743177468493379,1743177468341379,6620172,-0.19883494,0.10293625,0.51556504,12.367763,0.0023879942
1743177468549379,1743177468393379,6620172,-0.19083495,0.10301009,0.9524475,12.36787,0.008149756
1743177468597379,1743177468445379,6620172,-0.1877807,0.10294975,0.363841,12.367771,0.0011892944
1743177468653379,1743177468497379,6620172,-0.18615356,0.103023365,0.19369538,12.367878,0.00033705507
1743177468757379,1743177468601379,6620172,-0.18411888,0.103036195,0.2477505,12.367886,0.0005514309
1743177468805379,1743177468653379,6620172,-0.18141663,0.10297542,0.32182753,12.367785,0.0009304905
1743177468861379,1743177468705379,6620172,-0.1836165,0.1030486,-0.26181114,12.367892,0.0006157977
1743177468909379,1743177468757379,6620172,-0.18564789,0.10298762,-0.24190153,12.367793,0.0005257055
1743177469013379,1743177468861379,6620172,-0.18822621,0.10299941,-0.24000177,12.367799,0.0005174805
1743177469069379,1743177468913379,6620172,-0.18635236,0.10307219,0.22295903,12.367905,0.00044659257
1743177469117379,1743177468965379,6620172,-0.18089865,0.10301081,0.6492888,12.367805,0.0037873955
1743177469173379,1743177469017379,6620172,-0.17890778,0.103083394,0.23685645,12.36791,0.0005040012
1743177469277379,1743177469121379,6620172,-0.17661212,0.103094235,0.35017577,12.367916,0.0011016234
1743177469325379,1743177469173379,6620172,-0.18313146,0.103032485,-0.77599406,12.367815,0.0054098014
1743177469429379,1743177469277379,6620172,-0.1793059,0.10304279,0.43441886,12.36782,0.0016954371
1743177469533379,1743177469381379,6620172,-0.18169352,0.10305274,-0.34107953,12.367824,0.0010451426
1743177469637379,1743177469485379,6620172,-0.17999482,0.10306237,0.13738717,12.367828,0.00016957289
1743177469693379,1743177469537379,6620172,-0.1819284,0.10313409,-0.22992682,12.367932,0.00047494099
1743177469741379,1743177469589379,6620172,-0.17903575,0.10307167,0.34417892,12.367831,0.0010642227
1743177469797379,1743177469641379,6620172,-0.17288303,0.10314323,0.7315699,12.367935,0.0048080827
1743177469845379,1743177469693379,6620172,-0.16746211,0.10308066,0.6449461,12.367834,0.0037368932
1743177469949379,1743177469797379,6620172,-0.16495621,0.103089355,0.3283744,12.367836,0.00096872903
1743177470005379,1743177469849379,6620172,-0.16234663,0.10316062,0.31023133,12.36794,0.00086463225
1743177470053379,1743177469901379,6620172,-0.15741467,0.10309776,0.58667445,12.367839,0.003092132
1743177470109379,1743177469953379,6620172,-0.15947576,0.10316888,-0.24500537,12.367943,0.00053927617
1743177470261379,1743177470109379,6620172,-0.15811904,0.10311373,0.1037969,12.367843,9.6790405e-05
1743177470317379,1743177470161379,6620172,-0.15542069,0.10318459,0.32070905,12.367947,0.000924022
1743177470469379,1743177470317379,6620172,-0.15345879,0.103128664,0.1408031,12.367846,0.00017810983
1743177470525379,1743177470369379,6620172,-0.15174703,0.10319927,0.20341988,12.3679495,0.00037174622
1743177470629379,1743177470473379,6620172,-0.14856291,0.103206255,0.31725216,12.3679495,0.0009042093
1743177470781379,1743177470629379,6620172,-0.15286249,0.10314926,-0.49668363,12.367847,0.002216272
1743177470837379,1743177470681379,6620172,-0.15032849,0.10321952,0.301073,12.3679495,0.00081433565
1743177470885379,1743177470733379,6620172,-0.1476895,0.103155665,0.31373867,12.367847,0.0008842997
1743177470941379,1743177470785379,6620172,-0.15325874,0.10322582,-0.66165763,12.3679495,0.0039330223
1743177471045379,1743177470889379,6620172,-0.15160927,0.103231914,0.20149837,12.367949,0.00036475642
1743177471149379,1743177470993379,6620172,-0.15497164,0.1032378,-0.28267828,12.367948,0.0007178682
1743177471197379,1743177471045379,6620172,-0.15116635,0.10317364,0.45231777,12.367845,0.0018380223
1743177471301379,1743177471149379,6620172,-0.1466365,0.10317924,0.5845301,12.367844,0.0030695682
1743177471357379,1743177471201379,6620172,-0.14808209,0.10324899,-0.17170571,12.367946,0.00026486794
1743177471405379,1743177471253379,6620172,-0.14424233,0.10318464,0.45636684,12.367843,0.0018710771
1743177471509379,1743177471357379,6620172,-0.14160307,0.10318986,0.32974327,12.367843,0.000976822
1743177471613379,1743177471461379,6620172,-0.14006597,0.103194915,0.16352718,12.367842,0.00024023897
1743177471669379,1743177471513379,6620172,-0.14203651,0.10326441,-0.23402423,12.367944,0.00049201876
1743177471821379,1743177471669379,6620172,-0.13524216,0.10320452,0.7991827,12.367842,0.0057379366
1743177471925379,1743177471773379,6620172,-0.13809204,0.10320908,-0.40182105,12.367843,0.0014505374
1743177471981379,1743177471825379,6620172,-0.13515721,0.10327833,0.34849548,12.367945,0.0010910742
1743177472293379,1743177472137379,6620172,-0.13201658,0.10329091,0.2688732,12.367948,0.00064946373
1743177472341379,1743177472189379,6620172,-0.13011885,0.10322586,0.22546141,12.3678465,0.00045667563
1743177472397379,1743177472241379,6620172,-0.128231,0.10329483,0.22413588,12.367949,0.00045131793
1743177472445379,1743177472293379,6620172,-0.12611328,0.10322971,0.25158685,12.3678465,0.0005686425
1743177472501379,1743177472345379,6620172,-0.12464048,0.10329861,0.17485367,12.3679495,0.00027466877
1743177472605379,1743177472449379,6620172,-0.12696059,0.10330227,-0.3372218,12.3679495,0.001021624
1743177472709379,1743177472553379,6620172,-0.12191987,0.10330581,0.6825477,12.36795,0.004185292
1743177472757379,1743177472605379,6620172,-0.11626107,0.103240505,0.6721976,12.36785,0.004059356
1743177472917379,1743177472761379,6620172,-0.11499478,0.10331253,0.12654167,12.367952,0.00014385562
1743177473021379,1743177472865379,6620172,-0.11189977,0.103315726,0.26528248,12.367952,0.0006322325
1743177473069379,1743177472917379,6620172,-0.1077069,0.10325026,0.4980158,12.367851,0.0022281758
1743177473125379,1743177472969379,6620172,-0.10386336,0.10331882,0.45622146,12.367952,0.0018698687
1743177473173379,1743177473021379,6620172,-0.102344066,0.1032533,0.18045104,12.36785,0.00029253782
1743177473229379,1743177473073379,6620172,-0.105657205,0.103321806,-0.39325187,12.367952,0.0013893169
1743177473277379,1743177473125379,6620172,-0.10240278,0.10325623,0.38652766,12.36785,0.0013422222
1743177473381379,1743177473229379,6620172,-0.09967553,0.103259064,0.30124378,12.36785,0.0008152662
1743177473437379,1743177473281379,6620172,-0.09687063,0.103327475,0.33290803,12.367952,0.0009956536
1743177473485379,1743177473333379,6620172,-0.09312807,0.103261806,0.4444792,12.36785,0.0017748683
1743177473541379,1743177473385379,6620172,-0.09509567,0.10333017,-0.23352446,12.367952,0.00048991916
1743177473589379,1743177473437379,6620172,-0.09330514,0.10326446,0.21264365,12.36785,0.00040622638
1743177473645379,1743177473489379,6620172,-0.09063645,0.10333278,0.31672624,12.367951,0.0009012138
1743177473749379,1743177473593379,6620172,-0.08630456,0.1033353,0.41340396,12.367951,0.0015353556
1743177473797379,1743177473645379,6620172,-0.085194014,0.103269495,0.13188256,12.367849,0.00015625649
1743177473853379,1743177473697379,6620172,-0.08398068,0.10333773,0.14399377,12.3679495,0.00018627182
1743177473901379,1743177473749379,6620172,-0.0859497,0.10327189,-0.23382366,12.367847,0.0004911796
1743177473957379,1743177473801379,6620172,-0.080234386,0.10334008,0.67825586,12.3679495,0.0041328236
1743177474005379,1743177473853379,6620172,-0.08296988,0.1032742,-0.32483688,12.367847,0.0009479688
1743177474061379,1743177473905379,6620172,-0.084902495,0.103342354,-0.22934511,12.367948,0.00047254027
1743177474109379,1743177473957379,6620172,-0.082639635,0.10327643,0.26870605,12.367846,0.0006486618
1743177474165379,1743177474009379,6620172,-0.078117624,0.10334455,0.5366191,12.367947,0.0025869745
1743177474213379,1743177474061379,6620172,-0.079191096,0.10327859,-0.12746786,12.367844,0.00014597042
1743177474269379,1743177474113379,6620172,-0.075597994,0.103346676,0.42637813,12.367945,0.0016332392
1743177474317379,1743177474165379,6620172,-0.076874375,0.10328068,-0.15155959,12.367842,0.00020636233
1743177474373379,1743177474217379,6620172,-0.07850271,0.103348725,-0.19322336,12.367943,0.0003354125
1743177474477379,1743177474321379,6620172,-0.0744677,0.10335071,0.38437623,12.367942,0.0013273122
1743177474525379,1743177474373379,6620172,-0.07201562,0.10328464,0.29115206,12.36784,0.00076155865
1743177474581379,1743177474425379,6620172,-0.065475665,0.10335262,0.77602375,12.36794,0.0054101604
1743177474733379,1743177474581379,6620172,-0.06294808,0.10328835,0.18934634,12.367838,0.00032209023
1743177474789379,1743177474633379,6620172,-0.060134556,0.10335627,0.33383736,12.36794,0.0010012211
1743177474837379,1743177474685379,6620172,-0.056951705,0.10329012,0.37790075,12.367838,0.001282978
1743177474893379,1743177474737379,6620172,-0.05571119,0.10335801,0.14719027,12.36794,0.00019463383
1743177474941379,1743177474789379,6620172,-0.05806085,0.103291824,-0.27897128,12.367838,0.00069916993
1743177475045379,1743177474893379,6620172,-0.05643959,0.10329347,0.26163283,12.367838,0.0006149619
1743177475101379,1743177474945379,6620172,-0.057896025,0.1033613,-0.17280464,12.36794,0.00026826924
1743177475149379,1743177474997379,6620172,-0.056159105,0.10329506,0.20621526,12.367839,0.00038203687
1743177475205379,1743177475049379,6620172,-0.054146193,0.10336286,0.23882589,12.367941,0.00051241624
1743177475253379,1743177475101379,6620172,-0.050222706,0.10329659,0.46580735,12.367839,0.0019492895
1743177475357379,1743177475205379,6620172,-0.04836981,0.103298075,0.110563226,12.367841,0.0001098209
1743177475413379,1743177475257379,6620172,-0.044088732,0.10336583,0.5079226,12.367944,0.0023176884
1743177475461379,1743177475309379,6620172,-0.042811416,0.10329951,0.15164222,12.367844,0.00020658737
1743177475517379,1743177475361379,6620172,-0.04171986,0.10336724,0.12950423,12.367948,0.00015067034
1743177475565379,1743177475413379,6620172,-0.040298015,0.1033009,0.16879886,12.3678465,0.00025597788
1743177475621379,1743177475465379,6620172,-0.036755357,0.1033686,0.4203029,12.367951,0.0015870277
1743177475669379,1743177475517379,6620172,-0.032787215,0.10330224,0.47108343,12.36785,0.001993696
1743177475725379,1743177475569379,6620172,-0.029377947,0.10336992,0.40447223,12.367956,0.0014697281
1743177475773379,1743177475621379,6620172,-0.02685355,0.10330354,0.29968357,12.367856,0.0008068428
1743177475829379,1743177475673379,6620172,-0.029713828,0.103371195,-0.3393364,12.367961,0.0010344757
1743177475877379,1743177475725379,6620172,-0.025694046,0.10330479,0.47720262,12.367861,0.0020458254
1743177475933379,1743177475777379,6620172,-0.026805002,0.10337243,-0.13179955,12.367965,0.00015605839
1743177475981379,1743177475829379,6620172,-0.030078372,0.103306,-0.38858882,12.367865,0.0013565737
1743177476037379,1743177475881379,6620172,-0.026154429,0.103373624,0.46551654,12.3679695,0.0019468359
1743177476085379,1743177475933379,6620172,-0.021994196,0.10330718,0.49386492,12.367868,0.0021911848
1743177476141379,1743177475985379,6620172,-0.019843018,0.10337478,0.2552019,12.367971,0.0005850956
1743177476189379,1743177476037379,6620172,-0.021308288,0.10330831,-0.1739417,12.36787,0.00027181287
1743177476245379,1743177476089379,6620172,-0.018318526,0.1033759,0.35468233,12.367973,0.001130155
1743177476293379,1743177476141379,6620172,-0.019544717,0.103309415,-0.14555895,12.367871,0.00019034452
1743177476501379,1743177476349379,6620172,-0.016447265,0.1033115,0.41534722,12.367871,0.0015498338
1743177476557379,1743177476401379,6620172,-0.010630999,0.10337903,0.6899759,12.367973,0.0042768777
1743177476605379,1743177476453379,6620172,-0.008783729,0.1033125,0.21927968,12.36787,0.0004319757
1743177476661379,1743177476505379,6620172,-0.010109347,0.10338001,-0.15725479,12.367971,0.00022216045
1743177476765379,1743177476609379,6620172,-0.011177095,0.10338095,-0.15928261,12.3679695,0.00022792703
1743177476813379,1743177476661379,6620172,-0.0071211155,0.10331438,0.48145488,12.3678665,0.0020824466
1743177476869379,1743177476713379,6620172,-0.0051508956,0.10338186,0.23371795,12.367967,0.0004907308
1743177476973379,1743177476817379,6620172,-0.0061753485,0.10338274,-0.15181412,12.367964,0.00020705399
1743177477021379,1743177476869379,6620172,-0.002410948,0.103316136,0.44683582,12.367861,0.0017937374
1743177477077379,1743177476921379,6620172,-0.0057156733,0.103383586,-0.3920173,12.36796,0.0013806064
1743177477125379,1743177476973379,6620172,-0.004546116,0.10331697,0.13882571,12.367857,0.00017314217
1743177477181379,1743177477025379,6620172,-0.00016885763,0.103384405,0.5192403,12.367956,0.0024221241
1743177477229379,1743177477077379,6620172,0.0044126087,0.103317775,0.5438128,12.367852,0.0026568198
1743177477285379,1743177477129379,6620172,0.0023973167,0.103385195,-0.23905654,12.36795,0.0005134061
1743177477333379,1743177477181379,6620172,0.004369498,0.10331855,0.23409294,12.3678465,0.00049231155
1743177477389379,1743177477233379,6620172,0.009231086,0.103385955,0.5766833,12.367945,0.0029876842
1743177477437379,1743177477285379,6620172,0.0113698095,0.1033193,0.25385904,12.367841,0.0005789604
1743177477493379,1743177477337379,6620172,0.012955655,0.1033867,0.18811215,12.367939,0.00031790245
1743177477541379,1743177477389379,6620172,0.010072038,0.10332003,-0.34227276,12.367833,0.0010524672
1743177477701379,1743177477545379,6620172,0.011158244,0.1033881,0.14285909,12.367925,0.00018334808
1743177477853379,1743177477701379,6620172,0.0070166737,0.10332207,-0.5368598,12.367814,0.0025893238
1743177477909379,1743177477753379,6620172,0.004058516,0.10338941,-0.3508849,12.36791,0.0011060903
1743177478117379,1743177477961379,6620172,0.00703374,0.103390634,0.37569216,12.367897,0.0012680194
1743177478165379,1743177478013379,6620172,0.003775476,0.1033239,-0.3867258,12.367793,0.0013436051
1743177478221379,1743177478065379,6620172,0.0056705363,0.103391215,0.2247802,12.36789,0.0004539186
1743177478269379,1743177478117379,6620172,0.0029324335,0.103324465,-0.3249855,12.367786,0.00094884116
1743177478325379,1743177478169379,6620172,0.0015031659,0.10339177,-0.1695298,12.367884,0.0002581988
1743177478373379,1743177478221379,6620172,0.0049676034,0.10332501,0.41119176,12.36778,0.0015189887
1743177478429379,1743177478273379,6620172,0.00813771,0.1033923,0.37601385,12.367877,0.0012701938
1743177478477379,1743177478325379,6620172,0.00654203,0.10332554,-0.18938923,12.367773,0.0003222378
1743177478533379,1743177478377379,6620172,0.008577531,0.103392825,0.24143428,12.36787,0.0005236733
1743177478581379,1743177478429379,6620172,0.012899293,0.103326045,0.5129412,12.367766,0.002363749
1743177478637379,1743177478481379,6620172,0.0102673825,0.10339332,-0.31217372,12.367865,0.0008754986
1743177478685379,1743177478533379,6620172,0.012656755,0.10332654,0.2835883,12.36776,0.00072250864
1743177478741379,1743177478585379,6620172,0.0045836587,0.1033938,-0.95755345,12.367857,0.00823738
1743177478789379,1743177478637379,6620172,0.0034440532,0.103327006,-0.13525611,12.367754,0.00016435406
1743177478845379,1743177478689379,6620172,-0.00056710374,0.10339426,-0.4757627,12.367851,0.0020334993
1743177478893379,1743177478741379,6620172,0.0031454968,0.10332746,0.4406344,12.367747,0.0017443101
1743177478949379,1743177478793379,6620172,0.0005004371,0.10339471,-0.3137286,12.367845,0.0008842431
1743177478997379,1743177478845379,6620172,-0.0027843504,0.1033279,-0.38985705,12.367742,0.0013654565
1743177479101379,1743177478949379,6620172,-0.0045702783,0.103328325,-0.18310109,12.367735,0.00030119598
1743177479261379,1743177479105379,6620172,0.0006730056,0.10339596,0.51853806,12.3678255,0.002415602
1743177479309379,1743177479157379,6620172,-0.002434782,0.10332913,-0.3688447,12.3677225,0.0012222354
1743177479365379,1743177479209379,6620172,-0.00056545914,0.10339635,0.22171502,12.36782,0.00044162592
1743177479517379,1743177479365379,6620172,-0.0052627674,0.103329875,-0.630674,12.36771,0.0035733706
1743177479573379,1743177479417379,6620172,-0.004037911,0.10339708,0.1452755,12.367807,0.0001896049
1743177479621379,1743177479469379,6620172,0.0020008362,0.103330225,0.71669394,12.367703,0.004614619
1743177479677379,1743177479521379,6620172,0.00046248687,0.10339743,-0.182457,12.367801,0.0002990791
1743177479725379,1743177479573379,6620172,0.0050320313,0.10333057,0.5423232,12.367698,0.002642317
1743177479781379,1743177479625379,6620172,0.007222872,0.103397764,0.2598453,12.367795,0.00060658954
1743177479829379,1743177479677379,6620172,0.008955648,0.1033309,0.20564868,12.367692,0.00037994492
1743177479885379,1743177479729379,6620172,0.0059967674,0.10339809,-0.35093755,12.367789,0.0011064329
1743177479989379,1743177479833379,6620172,0.008160826,0.103398405,0.22902061,12.367783,0.0004712103
1743177480093379,1743177479937379,6620172,0.005962856,0.1033987,-0.14899614,12.367776,0.00019944168
1743177480141379,1743177479989379,6620172,0.008116021,0.10333182,0.25553846,12.367673,0.000586654
1743177480245379,1743177480093379,6620172,0.00944614,0.10333211,0.16805634,12.367667,0.00025373447
1743177480301379,1743177480145379,6620172,0.006371621,0.10339928,-0.36464787,12.367764,0.0011945756
1743177480349379,1743177480197379,6620172,0.0015442446,0.103332385,-0.5729114,12.367661,0.0029487966
1743177480405379,1743177480249379,6620172,-0.0028513111,0.103399545,-0.52132535,12.367758,0.0024416544
1743177480613379,1743177480457379,6620172,0.0028946549,0.10340006,0.5975434,12.367745,0.0032077897
1743177480717379,1743177480561379,6620172,7.254421e-05,0.1034003,-0.22605193,12.36774,0.00045907492
1743177480765379,1743177480613379,6620172,-0.003007963,0.103333384,-0.3655892,12.367637,0.0012007635
1743177480925379,1743177480769379,6620172,-0.0053530806,0.10340075,-0.16152473,12.367728,0.00023439352
1743177480973379,1743177480821379,6620172,-0.007579257,0.10333383,-0.26419723,12.367624,0.0006270869
1743177481029379,1743177480873379,6620172,-0.005597257,0.10340097,0.23506682,12.367722,0.00049642136
1743177481077379,1743177480925379,6620172,-0.0072039375,0.10333405,-0.19067654,12.367619,0.00032663744
1743177481237379,1743177481081379,6620172,-0.009655409,0.10340138,-0.19574758,12.36771,0.00034423976
1743177481285379,1743177481133379,6620172,-0.007658018,0.10333445,0.2370438,12.367608,0.0005048112
1743177481389379,1743177481237379,6620172,-0.010534239,0.103334635,-0.26960582,12.367602,0.00065302604
1743177481445379,1743177481289379,6620172,-0.008643724,0.10340176,0.22421451,12.3677,0.00045164372
1743177481493379,1743177481341379,6620172,-0.010186097,0.10333482,-0.18304291,12.367597,0.000301008
1743177481597379,1743177481445379,6620172,-0.0066697528,0.10333499,0.47352374,12.367592,0.002014447
1743177481757379,1743177481601379,6620172,-0.0084595615,0.10340227,-0.3089745,12.367684,0.00085765845
1743177481861379,1743177481705379,6620172,-0.004407678,0.10340243,0.47996458,12.36768,0.002069606
1743177481909379,1743177481757379,6620172,-0.0066466536,0.10333548,-0.26571104,12.367578,0.0006342961
1743177481965379,1743177481809379,6620172,-0.0042714644,0.10340258,0.28169397,12.367675,0.00071289326
1743177482013379,1743177481861379,6620172,-0.0057095657,0.10333563,-0.17066674,12.367574,0.00026168014
1743177482069379,1743177481913379,6620172,-0.0034850535,0.10340273,0.26382342,12.367672,0.00062531116
1743177482173379,1743177482017379,6620172,-0.004968691,0.10340287,-0.22791196,12.367667,0.00046666362
1743177482221379,1743177482069379,6620172,-0.0025733558,0.10333591,0.28426558,12.367566,0.0007259752
1743177482277379,1743177482121379,6620172,0.0007382063,0.103403,0.3927444,12.367664,0.0013857657
1743177482325379,1743177482173379,6620172,-0.0021251848,0.103336036,-0.33981138,12.367563,0.0010374071
1743177482429379,1743177482277379,6620172,-0.0006258697,0.10333616,0.18705274,12.367559,0.00031434142
1743177482637379,1743177482485379,6620172,0.0020028907,0.10333641,0.3142456,12.367551,0.0008871809
1743177482693379,1743177482537379,6620172,-0.0014876572,0.103403494,-0.41396922,12.367647,0.0015395951
1743177482741379,1743177482589379,6620172,0.0012941835,0.10333652,0.33013144,12.367546,0.0009791466
1743177482797379,1743177482641379,6620172,0.0049055386,0.103403606,0.42829603,12.367643,0.0016480053
1743177483005379,1743177482849379,6620172,0.0072465856,0.103403814,0.28237152,12.367632,0.0007163293
1743177483109379,1743177482953379,6620172,0.0053634173,0.10340391,-0.21543573,12.367626,0.0004169717
1743177483157379,1743177483005379,6620172,0.0026495138,0.10333693,-0.3220672,12.367523,0.0009318967
1743177483261379,1743177483109379,6620172,0.004769968,0.10333703,0.3134767,12.367519,0.000882847
1743177483317379,1743177483161379,6620172,0.0027451247,0.1034041,-0.2401387,12.367616,0.0005180788
1743177483421379,1743177483265379,6620172,0.0015492664,0.10340419,-0.12799858,12.367612,0.00014719121
1743177483469379,1743177483317379,6620172,0.0039896728,0.1033372,0.2896094,12.367512,0.0007535299
1743177483525379,1743177483369379,6620172,0.007228984,0.10340427,0.38416913,12.367609,0.0013259181
1743177483573379,1743177483421379,6620172,0.0028308267,0.10333728,-0.52194035,12.367509,0.0024474678
1743177483629379,1743177483473379,6620172,0.001553772,0.10340435,-0.15145335,12.367607,0.000206077
1743177483677379,1743177483525379,6620172,0.0060625807,0.10333736,0.53507113,12.367508,0.002572162
1743177483733379,1743177483577379,6620172,0.00974326,0.103404425,0.4365129,12.367606,0.0017118511
1743177483781379,1743177483629379,6620172,0.013629208,0.10333744,0.4611544,12.367508,0.0019105922
1743177483837379,1743177483681379,6620172,0.01808659,0.1034045,0.5286262,12.367608,0.0025105514
1743177483989379,1743177483837379,6620172,0.020952659,0.10333758,0.38504964,12.36751,0.0013320138
1743177484045379,1743177483889379,6620172,0.022571824,0.10340464,0.1920257,12.367611,0.00033127633
1743177484149379,1743177483993379,6620172,0.01673953,0.10340471,-0.7295408,12.367613,0.0047815735
1743177484253379,1743177484097379,6620172,0.019327834,0.103404775,0.22471249,12.367616,0.00045365523
1743177484461379,1743177484305379,6620172,0.022131462,0.10340491,0.41690984,12.3676195,0.0015615491
1743177484509379,1743177484357379,6620172,0.019844122,0.103337914,-0.27144292,12.367521,0.00066196016
1743177484565379,1743177484409379,6620172,0.021307677,0.10340497,0.17357057,12.367621,0.00027065963
1743177484669379,1743177484513379,6620172,0.017732298,0.10340503,-0.507512,12.367622,0.0023140025
1743177484773379,1743177484617379,6620172,0.019489588,0.10340509,0.11397304,12.367623,0.00011670124
1743177484821379,1743177484669379,6620172,0.022231389,0.103338085,0.3253743,12.367524,0.00095113297
1743177484877379,1743177484721379,6620172,0.024011994,0.10340514,0.21117087,12.367624,0.0004006261
1743177485133379,1743177484981379,6620172,0.02830689,0.10333824,0.40394527,12.367525,0.001465952
1743177485237379,1743177485085379,6620172,0.029631864,0.103338294,0.14037426,12.367525,0.00017703114
1743177485397379,1743177485241379,6620172,0.031399645,0.10340539,0.22334848,12.367622,0.00044816436
1743177485445379,1743177485293379,6620172,0.033315726,0.10333839,0.2273837,12.367522,0.00046450828
1743177485501379,1743177485345379,6620172,0.032260783,0.10340544,-0.12511069,12.367621,0.00014062422
1743177485549379,1743177485397379,6620172,0.03395941,0.103338435,0.20157826,12.36752,0.00036505828
1743177485605379,1743177485449379,6620172,0.032568518,0.10340548,-0.16495231,12.367619,0.00024444898
1743177485653379,1743177485501379,6620172,0.033813797,0.10333847,0.14777893,12.367517,0.00019620045
1743177485709379,1743177485553379,6620172,0.031616915,0.10340552,-0.26053843,12.367617,0.0006098388
1743177485757379,1743177485605379,6620172,0.033607543,0.10333851,0.23623015,12.367516,0.0005013554
1743177485813379,1743177485657379,6620172,0.029338147,0.10340556,-0.50632674,12.367614,0.0023032087
1743177485861379,1743177485709379,6620172,0.031214722,0.10333855,0.22269508,12.367513,0.0004455499
1743177485917379,1743177485761379,6620172,0.034748655,0.103405595,0.41910458,12.367611,0.0015780344
1743177485965379,1743177485813379,6620172,0.031135246,0.103338584,-0.42880687,12.367509,0.001651957
1743177486229379,1743177486073379,6620172,0.02928297,0.10340571,-0.10458001,12.367601,9.825833e-05
1743177486277379,1743177486125379,6620172,0.033795666,0.103338696,0.5355249,12.3675,0.0025765281
1743177486333379,1743177486177379,6620172,0.032691784,0.10340574,-0.13091405,12.367599,0.00015397301
1743177486381379,1743177486229379,6620172,0.038248684,0.103338726,0.6594412,12.367498,0.003906859
1743177486437379,1743177486281379,6620172,0.03501085,0.103405766,-0.38398805,12.367597,0.0013246697
1743177486645379,1743177486489379,6620172,0.03289881,0.10340582,-0.1432971,12.367592,0.00018447911
1743177486693379,1743177486541379,6620172,0.031468563,0.1033388,-0.16972819,12.367491,0.00025881166
1743177486749379,1743177486593379,6620172,0.034169294,0.10340584,0.3202904,12.367589,0.00092163775
1743177486797379,1743177486645379,6620172,0.035340063,0.10333882,0.13893595,12.367489,0.00017342242
1743177486901379,1743177486749379,6620172,0.037856996,0.103338845,0.2736685,12.367487,0.0006728614
1743177486957379,1743177486801379,6620172,0.039032746,0.103405885,0.13943678,12.367586,0.0001746736
1743177487109379,1743177486957379,6620172,0.03627155,0.10333889,-0.2934171,12.367485,0.00077347615
1743177487165379,1743177487009379,6620172,0.03298862,0.10340593,-0.38933513,12.367582,0.0013618204
1743177487213379,1743177487061379,6620172,0.029461754,0.10333891,-0.41853434,12.367483,0.0015737594
1743177487269379,1743177487113379,6620172,0.028102972,0.10340595,-0.1611432,12.367581,0.0002332903
1743177487317379,1743177487165379,6620172,0.03047491,0.103338934,0.2814788,12.367482,0.00071181566
1743177487421379,1743177487269379,6620172,0.027847262,0.10333896,-0.29447746,12.367481,0.000779077
1743177487525379,1743177487373379,6620172,0.026410438,0.10333898,-0.09905876,12.36748,8.815806e-05
1743177487581379,1743177487425379,6620172,0.024392903,0.10340602,-0.23926672,12.3675785,0.00051432475
1743177487629379,1743177487477379,6620172,0.030383883,0.103339,0.71095103,12.367479,0.0045410437
1743177487685379,1743177487529379,6620172,0.027922597,0.10340604,-0.29189283,12.3675785,0.00076545496
1743177487733379,1743177487581379,6620172,0.024216067,0.103339024,-0.4398546,12.367479,0.0017381792
1743177487789379,1743177487633379,6620172,0.020576706,0.10340606,-0.43160474,12.367578,0.0016735753
1743177487837379,1743177487685379,6620172,0.021836208,0.10333904,0.14946534,12.367478,0.0002007046
1743177487893379,1743177487737379,6620172,0.020070393,0.10340607,-0.20941441,12.367577,0.00039399072
1743177487997379,1743177487841379,6620172,0.022063512,0.10340609,0.22815709,12.367577,0.0004676714
1743177488101379,1743177487945379,6620172,0.024939533,0.1034061,0.23794831,12.367577,0.0005086723
1743177488149379,1743177487997379,6620172,0.02264841,0.10333908,-0.27188778,12.367477,0.00066413404
1743177488205379,1743177488049379,6620172,0.018709466,0.10340612,-0.46713313,12.367576,0.001960443
1743177488309379,1743177488153379,6620172,0.016715266,0.10340613,-0.23823129,12.367576,0.000509883
1743177488413379,1743177488257379,6620172,0.020403815,0.103406146,0.48148367,12.367576,0.0020827446
1743177488461379,1743177488309379,6620172,0.015238652,0.10333913,-0.61295027,12.367476,0.0033754124
1743177488565379,1743177488413379,6620172,0.013028141,0.103339136,-0.17090139,12.367476,0.00026240226
1743177488773379,1743177488621379,6620172,0.010637296,0.10333915,-0.19456598,12.3674755,0.00034010282
1743177488877379,1743177488725379,6620172,0.013893265,0.10333916,0.2933559,12.3674755,0.0007731542
1743177488933379,1743177488777379,6620172,0.016296256,0.10340619,0.28497872,12.367574,0.00072962185
1743177489037379,1743177488881379,6620172,0.01390115,0.1034062,-0.37288415,12.367574,0.0012491678
1743177489085379,1743177488933379,6620172,0.01984249,0.10333917,0.70505863,12.367475,0.0044660843
1743177489141379,1743177488985379,6620172,0.023269717,0.103406206,0.4064461,12.367573,0.0014841539
1743177489189379,1743177489037379,6620172,0.025625816,0.10333918,0.27959818,12.367475,0.0007023363
1743177489245379,1743177489089379,6620172,0.030565735,0.10340621,0.58584154,12.367573,0.0030834249
1743177489349379,1743177489193379,6620172,0.028574264,0.10340622,-0.1958888,12.367572,0.0003447405
1743177489397379,1743177489245379,6620172,0.023684088,0.103339195,-0.58031684,12.367474,0.0030255674
1743177489453379,1743177489297379,6620172,0.02206424,0.10340623,-0.19210297,12.367572,0.00033154403
1743177489501379,1743177489349379,6620172,0.019252542,0.1033392,-0.33366397,12.367473,0.0010002191
1743177489557379,1743177489401379,6620172,0.021304347,0.103406236,0.24333024,12.367571,0.0005319432
1743177489661379,1743177489505379,6620172,0.015061551,0.10340624,-0.65846944,12.36757,0.003895331
1743177489709379,1743177489557379,6620172,0.017642789,0.10333922,0.30631524,12.367472,0.00084297324
1743177489765379,1743177489609379,6620172,0.023214286,0.10340625,0.660742,12.36757,0.003922265
1743177489917379,1743177489765379,6620172,0.025111968,0.10333923,0.21057208,12.36747,0.00039836226
1743177490021379,1743177489869379,6620172,0.02335214,0.10333924,-0.19136372,12.367468,0.000329
1743177490077379,1743177489921379,6620172,0.026019875,0.10340627,0.31637526,12.367566,0.0008992455
1743177490181379,1743177490025379,6620172,0.02277935,0.10340628,-0.34380698,12.367564,0.0010619466
1743177490285379,1743177490129379,6620172,0.024615908,0.10340629,0.2616095,12.367561,0.0006148659
1743177490389379,1743177490233379,6620172,0.025933491,0.103406295,0.06590796,12.3675585,3.902557e-05
1743177490437379,1743177490285379,6620172,0.02194273,0.10333927,-0.4735825,12.367458,0.0020149688
1743177490541379,1743177490389379,6620172,0.026133861,0.10333928,0.5654401,12.3674555,0.002872436
1743177490597379,1743177490441379,6620172,0.020568728,0.10340631,-0.65998584,12.367553,0.0039132982
1743177490645379,1743177490493379,6620172,0.025088742,0.103339285,0.5363885,12.367453,0.0025848548
1743177490701379,1743177490545379,6620172,0.024060905,0.10340632,-0.121894315,12.36755,0.00013348754
1743177490805379,1743177490649379,6620172,0.02653431,0.103406325,0.21248196,12.367547,0.0004056188
1743177490853379,1743177490701379,6620172,0.028624162,0.1033393,0.24800183,12.367448,0.00055256987
1743177490909379,1743177490753379,6620172,0.031252805,0.10340633,0.31173837,12.367545,0.000873081
1743177490957379,1743177490805379,6620172,0.030206926,0.10333931,-0.12411398,12.367446,0.0001383945
1743177491117379,1743177490961379,6620172,0.028627316,0.10340633,-0.17571598,12.367541,0.00027739376
1743177491165379,1743177491013379,6620172,0.026024973,0.10333931,-0.30881873,12.367442,0.00085681066
1743177491373379,1743177491221379,6620172,0.029795343,0.10333931,0.38363183,12.367439,0.0013222299
1743177491429379,1743177491273379,6620172,0.027236538,0.10340633,-0.303456,12.3675375,0.00082730514
1743177491477379,1743177491325379,6620172,0.031760775,0.10333931,0.53688854,12.367438,0.0025896796
1743177491533379,1743177491377379,6620172,0.029891046,0.10340633,-0.22173652,12.367536,0.00044172173
1743177491637379,1743177491481379,6620172,0.031903118,0.10340633,0.17919691,12.367535,0.00028849306
1743177491741379,1743177491585379,6620172,0.029930348,0.10340633,-0.19310151,12.367534,0.00033500072
1743177491893379,1743177491741379,6620172,0.032848287,0.10333931,0.4054938,12.367434,0.001477224
1743177491949379,1743177491793379,6620172,0.029750556,0.10340633,-0.36736864,12.367532,0.0012124912
1743177491997379,1743177491845379,6620172,0.025263662,0.10333931,-0.5324571,12.367433,0.002547107
1743177492053379,1743177491897379,6620172,0.02370968,0.10340633,-0.18429077,12.36753,0.00030512773
1743177492101379,1743177491949379,6620172,0.021896193,0.10333931,-0.21520558,12.367432,0.00041608786
1743177492205379,1743177492053379,6620172,0.025463575,0.10333931,0.35922974,12.367431,0.0011593713
1743177492309379,1743177492157379,6620172,0.02313515,0.10333931,-0.25130993,12.367429,0.0005674105
1743177492413379,1743177492261379,6620172,0.024185102,0.10333931,0.13631687,12.367428,0.00016694648
1743177492517379,1743177492365379,6620172,0.02558983,0.10333931,0.10975353,12.367427,0.000108221895
1743177492573379,1743177492417379,6620172,0.022439465,0.10340633,-0.37361038,12.367525,0.0012540434
1743177492621379,1743177492469379,6620172,0.023650555,0.10333931,0.14371921,12.367426,0.00018557002
1743177492677379,1743177492521379,6620172,0.021107793,0.10340633,-0.30155316,12.367524,0.0008169632
1743177492725379,1743177492573379,6620172,0.018617159,0.10333931,-0.2955619,12.367425,0.0007848292
1743177492781379,1743177492625379,6620172,0.017482461,0.10340633,-0.13456678,12.367522,0.00016268613
1743177492829379,1743177492677379,6620172,0.013622693,0.10333931,-0.45803612,12.367424,0.0018848539
1743177492885379,1743177492729379,6620172,0.009396719,0.10340633,-0.5011696,12.367521,0.0022565466
1743177492989379,1743177492833379,6620172,0.0067882696,0.10340633,-0.32880136,12.36752,0.0009712747
1743177493037379,1743177492885379,6620172,0.005459627,0.10333931,-0.15766908,12.367421,0.00022334252
1743177493093379,1743177492937379,6620172,0.008880323,0.10340633,0.40566936,12.367519,0.0014784931
1743177493141379,1743177492989379,6620172,0.006160694,0.10333931,-0.32273644,12.36742,0.0009357814
1743177493197379,1743177493041379,6620172,0.007685799,0.10340633,0.18086629,12.367518,0.00029389362
1743177493245379,1743177493093379,6620172,0.0034014555,0.10333931,-0.5084201,12.36742,0.0023223294
1743177493301379,1743177493145379,6620172,0.0066554174,0.10340633,0.38589603,12.367518,0.001337875
1743177493349379,1743177493197379,6620172,0.005580527,0.10333931,-0.12755653,12.367419,0.00014617862
1743177493453379,1743177493301379,6620172,0.009914754,0.10333931,0.4662355,12.36742,0.0019529406
1743177493509379,1743177493353379,6620172,0.0122629935,0.10340633,0.278484,12.367518,0.00069674745
1743177493661379,1743177493509379,6620172,0.008064315,0.10333931,-0.563441,12.367422,0.0028521682
1743177493717379,1743177493561379,6620172,0.01022353,0.10340633,0.25606722,12.367522,0.0005890915
1743177493765379,1743177493613379,6620172,0.008908003,0.10333931,-0.15611282,12.367424,0.00021895526
1743177493821379,1743177493665379,6620172,0.01017577,0.10340633,0.15034798,12.367524,0.00020308129
1743177493869379,1743177493717379,6620172,0.01321708,0.10333931,0.36091036,12.367427,0.0011702451
1743177494077379,1743177493925379,6620172,0.009977378,0.10333931,-0.3229154,12.367433,0.00093681854
1743177494133379,1743177493977379,6620172,0.008652912,0.10340633,-0.1570721,12.367533,0.00022165244
1743177494181379,1743177494029379,6620172,0.010803329,0.10333931,0.2551887,12.367435,0.0005850604
1743177494285379,1743177494133379,6620172,0.0066810152,0.10333931,-0.5658757,12.367439,0.002876867
1743177494341379,1743177494185379,6620172,0.009883065,0.10340633,0.37974018,12.367539,0.0012955294
1743177494389379,1743177494237379,6620172,0.012664996,0.10333931,0.33013043,12.367442,0.0009791489
1743177494445379,1743177494289379,6620172,0.018004669,0.10340633,0.6332472,12.367542,0.0036026384
1743177494493379,1743177494341379,6620172,0.019934388,0.10333931,0.22899888,12.367445,0.00047113377
1743177494597379,1743177494445379,6620172,0.021999514,0.10333931,0.22393277,12.367447,0.00045051862
1743177494653379,1743177494497379,6620172,0.02376644,0.10340634,0.20954499,12.367547,0.00039448318
1743177494861379,1743177494705379,6620172,0.019529216,0.103406355,-0.44925123,12.36755,0.0018132278
1743177494909379,1743177494757379,6620172,0.022008378,0.10333933,0.29420102,12.367452,0.0007776167
1743177494965379,1743177494809379,6620172,0.017359773,0.10340636,-0.5512919,12.367552,0.0027304671
1743177495069379,1743177494913379,6620172,0.01501501,0.10340636,-0.20347352,12.367552,0.0003719543
1743177495117379,1743177494965379,6620172,0.017522616,0.10333934,0.29757655,12.367453,0.0007955631
1743177495173379,1743177495017379,6620172,0.013962113,0.10340636,-0.42225054,12.367552,0.0016018217
1743177495277379,1743177495121379,6620172,0.010385396,0.10340636,-0.32621017,12.367552,0.00095602387
1743177495589379,1743177495433379,6620172,0.015006787,0.10340636,0.58690214,12.36755,0.0030946047
1743177495693379,1743177495537379,6620172,0.016239278,0.10340636,0.21216758,12.367549,0.00040441932
1743177495741379,1743177495589379,6620172,0.014336742,0.10333934,-0.22577298,12.367449,0.0004579534
1743177495845379,1743177495693379,6620172,0.015722588,0.10333934,0.14810595,12.367448,0.00019707085
1743177495949379,1743177495797379,6620172,0.012824404,0.10333934,-0.3831452,12.367447,0.0013188769
1743177496053379,1743177495901379,6620172,0.009215385,0.10333934,-0.35916197,12.367446,0.0011589326
1743177496109379,1743177495953379,6620172,0.014451476,0.10340636,0.6209631,12.367544,0.003464221
1743177496157379,1743177496005379,6620172,0.013425442,0.10333934,-0.12175891,12.367444,0.00013319227
1743177496213379,1743177496057379,6620172,0.01842903,0.10340636,0.59338987,12.367543,0.0031634015
1743177496317379,1743177496161379,6620172,0.016077511,0.10340636,-0.2659877,12.367542,0.00063561945
1743177496365379,1743177496213379,6620172,0.014730608,0.10333934,-0.15983629,12.367442,0.00022952416
1743177496421379,1743177496265379,6620172,0.01660325,0.10340636,0.22208199,12.367541,0.00044309904
1743177496469379,1743177496317379,6620172,0.021229064,0.10333934,0.5489428,12.367441,0.0027072716
1743177496525379,1743177496369379,6620172,0.02411398,0.10340636,0.3421304,12.36754,0.0010516166
1743177496573379,1743177496421379,6620172,0.027882425,0.10333934,0.4471995,12.36744,0.0017967195
1743177496629379,1743177496473379,6620172,0.025800694,0.10340636,-0.24687847,12.367539,0.0005475713
1743177496677379,1743177496525379,6620172,0.01950868,0.10333934,-0.74666977,12.367439,0.005008813
1743177496781379,1743177496629379,6620172,0.018300802,0.10333934,-0.05221285,12.367439,2.4492465e-05
1743177496837379,1743177496681379,6620172,0.01703509,0.10340636,-0.15010431,12.3675375,0.00020242334
1743177496941379,1743177496785379,6620172,0.01908435,0.10340636,0.18945862,12.3675375,0.00032248016
1743177497093379,1743177496941379,6620172,0.02102267,0.10333934,0.20212568,12.367437,0.00036704625
1743177497149379,1743177496993379,6620172,0.018395774,0.10340636,-0.31153095,12.367537,0.0008719201
1743177497197379,1743177497045379,6620172,0.016589358,0.10333934,-0.21436632,12.367437,0.00041284863
1743177497301379,1743177497149379,6620172,0.009410543,0.10333934,-0.8790811,12.367437,0.006942815
