timestamp,position[0],position[1],position[2],velocity[0],velocity[1],velocity[2],acceleration[0],acceleration[1],acceleration[2],jerk[0],jerk[1],jerk[2],yaw,yawspeed
1743177449813379,nan,nan,nan,nan,nan,0.7,0.0,0.0,nan,nan,nan,nan,-0.0003785669,nan
1743177449837379,nan,nan,nan,nan,nan,0.7,0.0,0.0,nan,nan,nan,nan,-0.00022205089,nan
1743177449997379,nan,nan,nan,nan,nan,0.7,0.0,0.0,nan,nan,nan,nan,-0.00015348585,nan
1743177450213379,0.0010794022,-0.0024440608,0.021455001,0.00051197933,-0.00051197933,0.699488,0.06399871,-0.06399871,-0.06399871,4.0,-4.0,-4.0,-1.5671289,-0.001096464
1743177450413379,0.00020932837,-0.0024993871,0.0197319,0.00051194866,-0.00051194866,0.69948804,0.06399679,-0.06399679,-0.06399679,4.0,-4.0,-4.0,-1.569264,-0.0072435527
1743177450613379,-0.0011108546,-0.0025820853,0.01857208,0.00051193783,-0.00051193783,0.69948804,0.063996114,-0.063996114,-0.063996114,4.0,-4.0,-4.0,-1.5692638,-0.002232415
1743177450813379,-0.002344607,-0.0024985776,0.016974837,0.00051196915,-0.00051196915,0.69948804,0.06399807,-0.06399807,-0.06399807,4.0,-4.0,-4.0,-1.5678596,0.0037194262
1743177451013379,-0.0024799174,-0.0017435726,0.01659311,0.0005119588,-0.0005119588,0.69948804,0.063997425,-0.063997425,-0.063997425,4.0,-4.0,-4.0,-1.5667335,0.0049741105
1743177451197379,-0.00214801,-0.0007880735,0.022011345,-0.0010337225,0.0010343365,0.6988481,-0.06525123,0.06533122,-0.09599438,0.0,0.0,-4.0,-1.5657724,0.0050022374
1743177451413379,-0.0016777094,2.7395809e-06,0.016190715,0.0005119682,-0.0005119682,0.69948804,0.063998014,-0.063998014,-0.063998014,4.0,-4.0,-4.0,-1.565043,0.0036575408
1743177451597379,-0.0010481606,0.00023884876,0.022120586,-0.0010335352,0.0010339813,0.69884807,-0.06522393,0.06528199,-0.09599577,0.0,0.0,-4.0,-1.5651717,0.00072848034
1743177451813379,-4.4064716e-05,0.0006020575,0.01696524,0.00051196216,-0.00051196216,0.69948804,0.063997634,-0.063997634,-0.063997634,4.0,-4.0,-4.0,-1.5657474,-0.0012499338
1743177452013379,0.00043621112,0.000778931,0.016981924,0.000511996,-0.000511996,0.699488,0.06399975,-0.06399975,-0.06399975,4.0,-4.0,-4.0,-1.5658746,-0.0009611668
1743177452197379,0.0004622482,0.0007790191,0.022738444,-0.0010339636,0.0010339334,0.698848,-0.06527305,0.06526911,-0.09599888,0.0,0.0,-4.0,-1.565239,0.0019471631
1743177452413379,0.00033641202,0.00060066435,0.016801357,0.0005119874,-0.0005119874,0.699488,0.06399921,-0.06399921,-0.06399921,4.0,-4.0,-4.0,-1.5649964,0.0013493032
1743177452613379,1.9769242e-05,0.0008560451,0.016602088,0.0005119837,-0.0005119837,0.699488,0.06399898,-0.06399898,-0.06399898,4.0,-4.0,-4.0,-1.5646139,0.002110373
1743177452797379,-0.0002749098,0.00062495907,0.021884764,-0.0010340402,0.001033803,0.69884807,-0.06528628,0.0652554,-0.09599735,0.0,0.0,-4.0,-1.5649562,-0.00014076987
1743177452997379,-0.0008282903,-1.9319787e-05,0.021621836,-0.0010341404,0.0010335422,0.6988481,-0.06530368,0.06522584,-0.0959953,0.0,0.0,-4.0,-1.5653287,-0.0010217846
1743177453213379,-0.001414543,-0.0005136086,0.01638602,0.00051197835,-0.00051197835,0.699488,0.06399865,-0.06399865,-0.06399865,4.0,-4.0,-4.0,-1.5646579,0.0019458717
1743177453397379,-0.0017457603,-0.0008165209,0.022143267,-0.0010340759,0.0010338002,0.698848,-0.06528795,0.065252066,-0.09599875,0.0,0.0,-4.0,-1.5646969,0.0005683417
1743177453613379,-0.001909939,-0.0006668186,0.016409487,0.0005119782,-0.0005119782,0.699488,0.06399864,-0.06399864,-0.06399864,4.0,-4.0,-4.0,-1.5649025,-0.00072264846
1743177453813379,-0.0022004962,-3.8731934e-05,0.015347874,0.0005119723,-0.0005119723,0.69948804,0.06399827,-0.06399827,-0.06399827,4.0,-4.0,-4.0,-1.5644308,0.0011754514
1743177454013379,-0.0028049394,0.00015458629,0.015121395,0.0005119729,-0.0005119729,0.69948804,0.063998304,-0.063998304,-0.063998304,4.0,-4.0,-4.0,-1.5641378,0.0015852125
1743177454213379,-0.0032853645,0.00019736648,0.014416009,0.00051198003,-0.00051198003,0.699488,0.06399875,-0.06399875,-0.06399875,4.0,-4.0,-4.0,-1.5637921,0.0016593025
1743177454413379,-0.0038238515,0.0001781689,0.013419261,0.00051197165,-0.00051197165,0.69948804,0.06399823,-0.06399823,-0.06399823,4.0,-4.0,-4.0,-1.5638236,0.0006489787
1743177454613379,-0.003885659,0.000100652964,0.013216656,0.000511988,-0.000511988,0.699488,0.06399925,-0.06399925,-0.06399925,4.0,-4.0,-4.0,nan,0.0
1743177454813379,-0.0034547925,0.00015254086,0.01246116,0.00051198003,-0.00051198003,0.699488,0.06399875,-0.06399875,-0.06399875,4.0,-4.0,-4.0,nan,0.0
1743177455013379,-0.002796183,0.00063551386,0.011716064,0.0005119576,-0.0005119576,0.69948804,0.06399735,-0.06399735,-0.06399735,4.0,-4.0,-4.0,nan,0.0
1743177455213379,-0.0017179544,0.0007170447,0.010977754,0.0005119514,-0.0005119514,0.69948804,0.06399696,-0.06399696,-0.06399696,4.0,-4.0,-4.0,nan,0.0
1743177455397379,-0.000792963,-7.1661576e-05,0.01624087,-9.5465075e-06,0.0010257806,0.6988482,-0.00039863586,0.06424141,-0.095991075,0.0,0.0,-4.0,nan,0.0
1743177455597379,0.00034348608,-0.0008332232,0.017060589,-3.4422992e-05,0.001539053,0.69181186,-0.0005683899,-0.0002168566,-0.2559399,0.0,0.0,-4.0,nan,0.0
1743177455797379,0.00032526266,-0.0005303628,0.016151262,-0.00014798967,0.0014911136,0.5993554,-0.0005683899,-0.00025881827,-0.5,0.0,0.0,0.0,nan,0.0
1743177455997379,0.0002843984,-0.00023818933,0.014455695,-0.00026144725,0.0014348822,0.4995494,-0.0005683899,-0.00030077994,-0.5,0.0,0.0,0.0,nan,0.0
1743177456213379,0.00021491153,6.34514e-05,0.00876757,-0.00038385665,0.0013647288,0.39186853,-0.0005683899,-0.0003465563,-0.5,0.0,0.0,0.0,nan,0.0
1743177456413379,0.0001271981,0.00032802668,0.00717232,-0.000497048,0.0012910317,0.29229653,-0.0005683899,-0.00038851798,-0.5,0.0,0.0,0.0,nan,0.0
1743177456613379,1.715104e-05,0.0005766749,0.0049612653,-0.0006100458,0.001209039,0.1928948,-0.0005683899,-0.00043095648,-0.5,0.0,0.0,0.0,nan,0.0
1743177456797379,-0.0001037703,0.0007900814,0.0033784697,-0.00071387447,0.0011263055,0.10155901,-0.0005683899,-0.00047005713,-0.5,0.0,0.0,0.0,nan,0.0
1743177457013379,-0.00026975895,0.0010202078,-0.00021176387,-0.000835649,0.001020389,-0.005563358,-0.0005683899,-0.000514403,-0.5,0.0,0.0,0.0,nan,0.0
1743177457197379,-0.00043165818,0.001197549,-0.002866045,-0.0009393365,0.0009227908,-0.09677495,-0.0005683899,-0.00055111945,-0.5,0.0,0.0,0.0,nan,0.0
1743177457413379,-0.0006458573,0.0013821666,-0.0042904806,-0.0010610609,0.0007998895,-0.20385322,-0.0005683899,-0.00059212744,-0.5,0.0,0.0,0.0,nan,0.0
1743177457613379,-0.0008675233,0.0015289087,-0.006251935,-0.0011738124,0.0006784184,-0.30303827,-0.0005683899,-0.00062836707,-0.5,0.0,0.0,0.0,nan,0.0
1743177457813379,-0.0011116713,0.0016509237,-0.008887752,-0.0012866149,0.0005501316,-0.4022681,-0.0005683899,-0.000660792,-0.5,0.0,0.0,0.0,nan,0.0
1743177458013379,-0.0013787915,0.0017470394,-0.013319657,-0.0013996552,0.00041551344,-0.5017072,-0.0005683899,-0.0006894022,-0.5,0.0,0.0,0.0,nan,0.0
1743177458213379,-0.0016674021,0.0018161149,-0.045033265,-0.0014566364,0.0002741731,-0.6017074,3.9577484e-05,-0.00072206557,-0.5,0.0,0.0,0.0,nan,0.0
1743177458413379,-0.0019572035,0.0018562132,-0.10974494,-0.0014381736,0.00012545323,-0.7017076,0.00013685226,-0.000763312,-0.5,0.0,0.0,0.0,nan,0.0
1743177458613379,-0.002249104,0.0018706474,-0.22527358,-0.0016827188,0.00014640838,-0.8079797,-0.004895687,0.0024107546,-0.72400004,0.0,0.0,-4.0,nan,0.0
1743177458813379,-0.002683633,0.0019482519,-0.40668285,-0.0026627893,0.00063006225,-1.0327796,-0.0049028397,0.002424106,-1.5239999,0.0,0.0,-4.0,nan,0.0
1743177458997379,-0.0032566038,0.0021052884,-0.62666565,-0.0035652386,0.0010771829,-1.3809078,-0.004905939,0.0024348348,-2.2599995,0.0,0.0,-4.0,nan,0.0
1743177459213379,-0.0041412003,0.002394885,-0.98434645,-0.0046258713,0.0016048526,-1.958841,-0.0049165487,0.0024508089,-2.8860478,0.0,0.0,4.0,nan,0.0
1743177459413379,-0.005164856,0.0027650124,-1.4285023,-0.005611576,0.0020971373,-2.4560513,-0.004943371,0.0024723858,-2.0860486,0.0,0.0,4.0,nan,0.0
1743177459597379,-0.00628141,0.0031929489,-1.9115756,-0.0065267417,0.0025554423,-2.7721725,-0.0050022006,0.0025073737,-1.3500488,0.0,0.0,4.0,nan,0.0
1743177459797379,-0.0076875063,0.0037545718,-2.4876776,-0.007537561,0.0030625802,-2.9621828,-0.005100757,0.0025606304,-0.55004877,0.0,0.0,4.0,nan,0.0
1743177460013379,-0.009420383,0.0044687605,-3.1339447,-0.008252678,0.0034225301,-3.0,0.0,0.0,0.0,0.0,0.0,0.0,nan,0.0
1743177460213379,-0.011070916,0.0051532662,-3.7339454,-0.008252678,0.0034225304,-3.0,0.0,0.0,0.0,0.0,0.0,0.0,nan,0.0
1743177460413379,-0.01272145,0.005837772,-4.3339453,-0.008252678,0.0034225304,-3.0,0.0,0.0,0.0,0.0,0.0,0.0,nan,0.0
1743177460597379,-0.014239941,0.0064675175,-4.885945,-0.008252678,0.0034225304,-3.0,0.0,0.0,0.0,0.0,0.0,0.0,-1.5664586,-6.0831444e-05
1743177460797379,-0.015890475,0.0071520237,-5.4859443,-0.008252678,0.00342253,-3.0,0.0,0.0,0.0,0.0,0.0,0.0,-1.5664586,-2.349196e-05
1743177461013379,-0.017673073,0.007891291,-6.1339436,-0.008252677,0.0034225301,-3.0,0.0,0.0,0.0,0.0,0.0,0.0,-1.5664586,-8.400143e-06
1743177461213379,-0.019323621,0.008575798,-6.733943,-0.008252675,0.0034225292,-3.0,0.0,0.0,0.0,0.0,0.0,0.0,-1.5664586,-3.2439773e-06
1743177461413379,-0.020974172,0.009260307,-7.3339424,-0.00825267,0.003422529,-3.0,0.0,0.0,0.0,0.0,0.0,0.0,-1.5664586,-1.2527629e-06
1743177461613379,-0.022624718,0.009944815,-7.933942,-0.008252669,0.0034225287,-3.0,0.0,0.0,0.0,0.0,0.0,0.0,-1.5664586,-4.8379343e-07
1743177461813379,-0.024275266,0.010629321,-8.533941,-0.008252665,0.0034225285,-3.0,0.0,0.0,0.0,0.0,0.0,0.0,-1.5664586,-1.8683194e-07
1743177462013379,-0.025925815,0.011313827,-9.133941,-0.008252664,0.0034225278,-3.0,0.0,0.0,0.0,0.0,0.0,0.0,-1.5664586,-7.215098e-08
1743177462213379,-0.02757636,0.011998336,-9.73394,-0.00825266,0.0034225273,-3.0,0.0,0.0,0.0,0.0,0.0,0.0,-1.5664586,-2.7863347e-08
1743177462413379,-0.029226905,0.012682844,-10.33394,-0.008252656,0.0034225269,-3.0,0.0,0.0,0.0,0.0,0.0,0.0,-1.5664586,-1.0760299e-08
1743177462613379,-0.030877449,0.013367348,-10.933939,-0.008252654,0.0034225266,-3.0,0.0,0.0,0.0,0.0,0.0,0.0,-1.5664586,-4.1554253e-09
1743177462813379,-0.032527987,0.014051854,-11.533938,-0.0082526505,0.0034225266,-3.0,0.0,0.0,0.0,0.0,0.0,0.0,-1.5664586,-1.604747e-09
1743177463013379,-0.03417853,0.014736358,-12.133938,-0.008252649,0.0034225269,-3.0,0.0,0.0,0.0,0.0,0.0,0.0,-1.5664586,-6.197231e-10
1743177463197379,-0.035697028,0.015366106,-12.685937,-0.008252645,0.003422526,-3.0,0.0,0.0,0.0,0.0,0.0,0.0,-1.5664586,-2.5847144e-10
1743177463413379,-0.037479613,0.01610538,-13.333937,-0.008252641,0.0034225238,-3.0,0.0,0.0,0.0,0.0,0.0,0.0,-1.5664586,-9.242297e-11
1743177463613379,-0.03913016,0.016789887,-13.933936,-0.008252637,0.0034225225,-3.0,0.0,0.0,0.0,0.0,0.0,0.0,-1.5664586,-3.569201e-11
1743177463813379,-0.04078071,0.017474404,-14.533936,-0.00825263,0.0034225201,-3.0,0.0,0.0,0.0,0.0,0.0,0.0,-1.5664586,-1.3783581e-11
1743177464013379,-0.042431246,0.018158913,-15.133935,-0.008252626,0.0034225178,-3.0,0.0,0.0,0.0,0.0,0.0,0.0,-1.5664586,-5.3229587e-12
1743177464213379,-0.04408178,0.018843418,-15.733934,-0.008252621,0.003422517,-3.0,0.0,0.0,0.0,0.0,0.0,0.0,-1.5664586,-2.055627e-12
1743177464397379,-0.04560027,0.019473167,-16.285936,-0.008252623,0.0034225155,-3.0,0.0,0.0,0.0,0.0,0.0,0.0,-1.5664586,-8.5735206e-13
1743177464597379,-0.047250804,0.020157672,-16.88594,-0.008252623,0.003422515,-3.0,0.0,0.0,0.0,0.0,0.0,0.0,-1.5664586,-3.3109323e-13
1743177464797379,-0.048901334,0.020842183,-17.485945,-0.008252621,0.003422514,-3.0,0.0,0.0,0.0,0.0,0.0,0.0,-1.5664586,-1.2786197e-13
1743177464997379,-0.05055159,0.021526575,-18.085905,-0.008235974,0.003415608,-2.9968002,0.0005327016,-0.00022086501,0.16,0.0,0.0,4.0,-1.5664586,-4.9377887e-14
1743177465197379,-0.052177966,0.022201063,-18.676735,-0.007992838,0.0033148024,-2.8848004,0.0016591996,-0.0006878674,0.9600001,0.0,0.0,4.0,-1.5664586,-1.906881e-14
1743177465413379,-0.05385812,0.022897871,-19.275105,-0.0075390628,0.0031266753,-2.6545548,0.0023885816,-0.0009903014,1.0437635,0.0,0.0,-4.0,-1.5664586,-6.8185335e-15
1743177465613379,-0.055315252,0.0235022,-19.784958,-0.0070226756,0.0029125747,-2.4453692,0.0026984066,-0.0011188686,1.0038371,0.0,0.0,-4.0,-1.5664586,-2.6331897e-15
1743177465813379,-0.056664746,0.024061894,-20.253883,-0.0064694635,0.002683181,-2.2457008,0.0027947277,-0.0011589229,0.9501822,0.0,0.0,-4.0,-1.5664586,-1.0168884e-15
1743177466013379,-0.057902705,0.024575334,-20.684002,-0.0059100995,0.0024512294,-2.057531,0.0027968138,-0.0011597574,0.8897973,0.0,0.0,-4.0,-1.5664586,-3.9270314e-16
1743177466213379,-0.059028793,0.025042385,-21.077715,-0.0053507355,0.0022192777,-1.8817418,0.0027968138,-0.0011597574,0.82697344,0.0,0.0,-4.0,-1.5664586,-1.5165455e-16
1743177466413379,-0.060043007,0.025463043,-21.43753,-0.0047913715,0.001987326,-1.7185293,0.0027968138,-0.0011597574,0.7644017,0.0,0.0,-4.0,-1.5664586,-5.856614e-17
1743177466613379,-0.06094535,0.025837313,-21.765944,-0.0042320075,0.0017553743,-1.5676646,0.0027968138,-0.0011597574,0.7037135,0.0,0.0,-4.0,-1.5664586,-2.261714e-17
1743177466813379,-0.061735827,0.026165191,-22.065378,-0.003672644,0.0015234225,-1.428666,0.0027968138,-0.0011597574,0.64586616,0.0,0.0,-4.0,-1.5664586,-8.734314e-18
1743177467013379,-0.062451787,0.026462173,-22.338154,-0.0035073515,0.0014546547,-1.3009108,0.0009781271,-0.00040721893,0.5913476,0.0,0.0,-4.0,-1.5664586,-3.3730273e-18
1743177467213379,-0.06312922,0.026743112,-22.586437,-0.0032540213,0.0013494396,-1.1837146,0.0014098734,-0.0005850196,0.54032665,0.0,0.0,-4.0,-1.5664586,-1.3025997e-18
1743177467413379,-0.06375106,0.027000979,-22.812286,-0.00296318,0.0012287922,-1.0763683,0.0014627725,-0.0006067157,0.4928609,0.0,0.0,-4.0,-1.5664586,-5.0303945e-19
1743177467597379,-0.06427151,0.027216801,-23.001879,-0.0026940303,0.0011171565,-0.98563224,0.0014627725,-0.0006067157,0.45155036,0.0,0.0,-4.0,-1.5664586,-2.0980555e-19
1743177467797379,-0.06478105,0.027428092,-23.189838,-0.0024014763,0.0009958133,-0.8952608,0.0014627725,-0.0006067157,0.41051888,0.0,0.0,-4.0,-1.5664586,-8.1022955e-20
1743177468013379,-0.065265626,0.02762903,-23.373474,-0.0020855179,0.0008647627,-0.8065656,0.0014627725,-0.0006067157,0.3705722,0.0,0.0,-4.0,-1.5664586,-2.89718e-20
1743177468213379,-0.06567072,0.027797006,-23.527195,-0.001965806,0.0008151484,-0.7318924,0.0007672757,-0.0003181845,0.3360036,0.0,0.0,-4.0,-1.5664586,-1.1188364e-20
1743177468413379,-0.06604686,0.027952965,-23.666656,-0.0017922986,0.00074321066,-0.66385406,0.0008918792,-0.00036980212,0.30425423,0.0,0.0,-4.0,-1.5664586,-4.3207355e-21
1743177468613379,-0.06638751,0.028094219,-23.793125,-0.001613923,0.00066925026,-0.6019136,0.0008918792,-0.00036980212,0.27509415,0.0,0.0,-4.0,-1.5664586,-1.6685867e-21
1743177468813379,-0.06669249,0.028220678,-23.907774,-0.0014355474,0.00059528986,-0.54556286,0.0008918792,-0.00036980212,0.24840948,0.0,0.0,-4.0,-1.5664586,-6.443768e-22
1743177468997379,-0.066942245,0.028324246,-24.003729,-0.0013050262,0.00054117135,-0.498177,0.00013239682,-5.5477023e-05,0.224523,0.0,0.0,-4.0,-1.5664586,-2.6875388e-22
1743177469197379,-0.06719453,0.02842886,-24.098598,-0.0012066021,0.00050033344,-0.45126802,0.00059199333,-0.00024548173,0.20191626,0.0,0.0,-4.0,-1.5664586,-1.0378769e-22
1743177469413379,-0.06744133,0.028531197,-24.191042,-0.0010785798,0.00044724977,-0.4055087,0.0005927533,-0.00024577975,0.18137135,0.0,0.0,-4.0,-1.5664586,-3.7111904e-23
1743177469613379,-0.066379294,0.02808562,-24.263996,0.027382495,-0.008788198,-0.3712071,0.29857373,-0.08082055,0.1735308,-4.0,0.0,0.0,-1.5664586,-1.4331918e-23
1743177469797379,-0.0605205,0.0260197,-24.3214,0.036551032,-0.013232083,-0.3400603,-0.023555804,0.010846678,0.15581107,0.0,0.0,-4.0,-1.5664586,-5.977494e-24
1743177470013379,-0.053973857,0.02364004,-24.38307,0.032957125,-0.012051091,-0.30920872,-0.008527499,0.005444836,0.13654602,0.0,0.0,-4.0,-1.5538923,0.058177643
1743177470213379,-0.04810635,0.017911695,-24.4356,0.033440966,-0.07359069,-0.28507012,0.0028281398,-0.70167404,0.13654602,0.0,-4.0,0.0,-1.5119517,0.108151846
1743177470397379,-0.042677347,-0.0062102075,-24.480165,0.033233173,-0.24064131,-0.26285958,-0.0025930218,-1.3523133,0.13654602,0.0,-4.0,0.0,-1.5147488,0.03621485
1743177470613379,-0.036428448,-0.08105337,-24.527704,0.03233152,-0.57029754,-0.23688246,-0.0066573434,-2.1132915,0.13654602,0.0,-4.0,0.0,-1.5180712,0.0031427545
1743177470813379,-0.030882943,-0.2167795,-24.567524,0.030803854,-0.9828707,-0.21921834,-0.009416681,-2.2525306,0.080466315,0.0,4.0,0.0,-1.5204915,-0.0060069533
1743177470997379,-0.026029125,-0.40221894,-24.601904,0.029241692,-1.2946615,-0.20621443,-0.010165315,-1.6061027,0.080466315,0.0,4.0,0.0,-1.5217562,-0.006232476
1743177471197379,-0.021012321,-0.65334344,-24.637203,0.027296139,-1.5165842,-0.19194496,-0.011606436,-0.8967639,0.080466315,0.0,4.0,0.0,-1.521265,-0.00038951257
1743177471397379,-0.01630321,-0.9364778,-24.670393,0.025076216,-1.6131479,-0.1774855,-0.012944203,-0.17797989,0.080466315,0.0,4.0,0.0,-1.5186533,0.008324084
1743177471597379,-0.011971655,-1.2283219,-24.701294,0.022597274,-1.5795274,-0.16287512,-0.014222365,0.5483052,0.080466315,0.0,4.0,0.0,-1.5134168,0.020085033
1743177471813379,-0.007804204,-1.5238997,-24.731842,0.019643152,-1.3937523,-0.14701475,-0.015636187,1.3367271,0.080466315,0.0,4.0,0.0,-1.5040722,0.03578952
1743177472013379,-0.004485882,-1.7525567,-24.757364,0.016641103,-1.0997758,-0.13231479,-0.017086904,1.590078,0.080466315,0.0,-4.0,0.0,-1.4930474,0.048181932
1743177472213379,-0.0017494585,-1.9284141,-24.780102,0.013427852,-0.847223,-0.11768162,-0.017988067,1.1657058,0.080466315,0.0,-4.0,0.0,-1.4814119,0.053909343
1743177472397379,0.0002231717,-2.053963,-24.798447,0.010451195,-0.68238777,-0.104387105,-0.018016618,0.8099537,0.080466315,0.0,-4.0,0.0,-1.4732093,0.04775279
1743177472613379,0.0018859707,-2.1710348,-24.816908,0.0070222095,-0.5580753,-0.09142191,-0.018016618,0.48845792,0.024460118,0.0,-4.0,0.0,-1.4673052,0.03369539
1743177472813379,0.0028914064,-2.2609453,-24.832338,0.0053674453,-0.48636073,-0.08660419,-0.0010842793,0.32934448,0.037536617,0.0,-4.0,0.0,-1.4646102,0.02093917
1743177473013379,0.0037750849,-2.339275,-24.8465,0.0049397005,-0.43327448,-0.07920763,-0.0030640475,0.26735806,0.04445475,0.0,-4.0,0.0,-1.4642413,0.008831982
1743177473213379,0.004567926,-2.4088287,-24.859295,0.0044095786,-0.38793048,-0.07166831,-0.0031295829,0.23492467,0.04445475,0.0,-4.0,0.0,-1.4642413,0.003410745
1743177473413379,0.0052694743,-2.4711537,-24.870815,0.0035089708,-0.34759492,-0.063755035,-0.057501227,0.20982552,0.09882639,-4.0,0.0,4.0,-1.4956572,-0.13477696
1743177473613379,0.0017073029,-2.527467,-24.879946,-0.06466875,-0.31175354,-0.04298892,-0.7407619,0.20982552,0.12251167,-4.0,0.0,0.0,-1.6527369,-0.53414047
1743177473797379,-0.019178964,-2.574376,-24.885227,-0.19105858,-0.27839717,-0.02339563,-0.5590062,0.20982552,0.12387486,4.0,0.0,0.0,-1.7972503,-0.68060476
1743177474013379,-0.0681317,-2.6269927,-24.889076,-0.348637,-0.30032325,-0.020373598,-1.2063057,-0.49274954,-0.004347086,-4.0,-4.0,0.0,-1.9668963,-0.74792665
1743177474213379,-0.15311801,-2.692059,-24.892775,-0.62690747,-0.45151368,-0.021147784,-1.9186811,-1.2051247,-0.004347086,-4.0,-4.0,0.0,-2.123976,-0.7709273
1743177474413379,-0.3065121,-2.8012507,-24.89679,-1.0307602,-0.7450519,-0.021956772,-2.23902,-1.9495211,-0.004347086,0.0,-4.0,0.0,-2.2810557,-0.77980983
1743177474613379,-0.5574445,-2.9945843,-24.901268,-1.4785639,-1.214956,-0.02282619,-2.23902,-2.7495203,-0.004347086,0.0,-4.0,0.0,-2.3238654,-0.3878464
1743177474797379,-0.86740243,-3.267641,-24.905542,-1.8905433,-1.7591136,-0.023626054,-2.23902,-3.0,-0.004347086,0.0,0.0,0.0,-2.3193965,-0.14761364
1743177475013379,-1.3163736,-3.7058234,-24.910593,-2.3631895,-2.3923993,-0.024025287,-2.23902,-3.0,0.000315547,0.0,0.0,0.0,-2.3150976,-0.04040189
1743177475213379,-1.8035297,-4.209635,-24.915127,-2.7867846,-2.9118469,-0.02390795,-2.23902,-2.38001,0.0008546114,0.0,4.0,0.0,-2.3122458,-0.006992401
1743177475413379,-2.3834012,-4.815689,-24.91975,-3.1635406,-3.3088794,-0.023729807,-1.5585443,-1.667615,0.00092864037,4.0,4.0,0.0,-2.3095198,0.00572893
1743177475613379,-3.020536,-5.48302,-24.924328,-3.390383,-3.5568478,-0.023524048,-0.78378665,-0.8928575,0.001155436,4.0,4.0,0.0,-2.3065057,0.01148952
1743177475813379,-3.7089553,-6.206914,-24.92901,-3.4671407,-3.6554198,-0.023279577,0.016213425,-0.09285738,0.0012609959,4.0,4.0,0.0,-2.3037302,0.012821155
1743177476013379,-4.388882,-6.922927,-24.933563,-3.4490674,-3.6206465,-0.023028852,0.070985,0.070985,0.0012906268,-4.0,-4.0,0.0,-2.3016458,0.011183725
1743177476213379,-5.055467,-7.6225166,-24.93801,-3.4489813,-3.620018,-0.023005763,0.0,0.0,0.0,0.0,0.0,0.0,-2.300048,0.009164584
1743177476397379,-5.656055,-8.252888,-24.942015,-3.4489808,-3.620018,-0.02300624,0.0,0.0,0.0,0.0,0.0,0.0,-2.2987003,0.008088639
1743177476597379,-6.3015842,-8.930438,-24.946323,-3.4381208,-3.6091588,-0.022903182,0.2947483,0.2947483,0.0019160509,4.0,4.0,0.0,-2.2971616,0.007874479
1743177476813379,-6.9905524,-9.653909,-24.950932,-3.3046756,-3.4661188,-0.022228211,0.9162862,1.1095927,0.0042952,0.0,4.0,0.0,-2.2953775,0.008141714
1743177476997379,-7.5627556,-10.253245,-24.954813,-3.1147661,-3.2617133,-0.021306165,1.0987679,1.1315799,0.00575611,0.0,-4.0,0.0,-2.2940006,0.0076772785
1743177477213379,-8.194315,-10.914874,-24.959167,-2.8833816,-3.022561,-0.019979706,1.0987679,1.0991004,0.006660193,0.0,-4.0,0.0,-2.2933142,0.0043925038
1743177477397379,-8.693324,-11.4384775,-24.962639,-2.6883495,-2.8235998,-0.018745707,1.0779057,1.0802009,0.0070290864,0.0,-4.0,0.0,-2.2943645,-0.0019283105
1743177477613379,-9.234162,-12.007271,-24.966421,-2.466788,-2.5978973,-0.017252684,1.0340093,1.0386795,0.0071447194,0.0,-4.0,0.0,-2.2983797,-0.013445875
1743177477797379,-9.667718,-12.463875,-24.969452,-2.2879257,-2.4089887,-0.015948948,0.96906924,0.9925076,0.0071463287,0.0,-4.0,0.0,-2.3043833,-0.025171153
1743177478013379,-10.136977,-12.958216,-24.97272,-2.0857782,-2.1966195,-0.014412996,0.90162235,0.9444603,0.007201284,0.0,-4.0,0.0,-2.3144865,-0.03986115
1743177478213379,-10.536104,-13.3785515,-24.975462,-1.9060038,-2.0086832,-0.012949334,0.8352824,0.8992824,0.0073399246,-4.0,0.0,0.0,-2.3267992,-0.05386551
1743177478413379,-10.900601,-13.762271,-24.977911,-1.7389469,-1.8303668,-0.011481351,0.8352824,0.8450441,0.0073399246,0.0,-4.0,0.0,-2.3420086,-0.06817593
1743177478613379,-11.232281,-14.11139,-24.980064,-1.5811024,-1.6626022,-0.010013368,0.76394284,0.7930364,0.0073399246,0.0,-4.0,0.0,-2.3602488,-0.08308456
1743177478797379,-11.510287,-14.403803,-24.981789,-1.4411116,-1.5173651,-0.008662824,0.7433742,0.7433742,0.0073399246,-4.0,-4.0,0.0,-2.3801136,-0.09831792
1743177479013379,-11.805613,-14.714178,-24.983496,-1.2938548,-1.3585914,-0.007188375,0.6793742,0.68608934,-1.9103289e-05,0.0,-4.0,0.0,-2.407767,-0.1185899
1743177479197379,-12.032332,-14.952463,-24.9848,-1.1718066,-1.2329949,-0.0069122063,0.6369478,0.6369478,0.0023759305,-4.0,-4.0,0.0,-2.4351847,-0.1370978
1743177479413379,-12.27167,-15.203907,-24.986233,-1.0469189,-1.0971081,-0.006274992,0.5624699,0.58189356,0.0032264888,0.0,-4.0,0.0,-2.4723058,-0.160883
1743177479613379,-12.469872,-15.411614,-24.98743,-0.93612075,-0.98176134,-0.0056194314,0.53107333,0.53107333,0.0032821596,-4.0,-4.0,0.0,-2.5117426,-0.18425895
1743177479813379,-12.646759,-15.597253,-24.988493,-0.8343785,-0.8763605,-0.0049630003,0.48248243,0.4824824,0.0032821596,-4.0,-4.0,0.0,-2.556458,-0.20979479
1743177480013379,-12.8042555,-15.762768,-24.989428,-0.7421466,-0.78044796,-0.004306569,0.43625933,0.43625933,0.0032821596,-4.0,-4.0,0.0,-2.6066272,-0.23617919
1743177480213379,-12.944938,-15.910009,-24.99023,-0.66568017,-0.69353503,-0.0038147704,0.39254364,0.39254364,0.00058425963,-4.0,-4.0,0.0,-2.6616254,-0.2611242
1743177480413379,-13.070394,-16.040728,-24.990969,-0.5902619,-0.6151054,-0.0035355128,0.35160398,0.35160398,0.0017320812,-4.0,-4.0,0.0,-2.7210603,-0.2843618
1743177480613379,-13.181535,-16.15656,-24.991644,-0.52244776,-0.54456997,-0.0031759867,0.31368765,0.31368765,0.0018070787,-4.0,-4.0,0.0,-2.785794,-0.30983156
1743177480813379,-13.279829,-16.259024,-24.992245,-0.46167392,-0.4813368,-0.0028145707,0.27867764,0.27867764,0.0018070787,-4.0,-4.0,0.0,-2.8567882,-0.33929282
1743177481013379,-13.366624,-16.349524,-24.992777,-0.40737864,-0.42481866,-0.0024531547,0.24661507,0.24661505,0.0018070787,-4.0,-4.0,0.0,-2.8567882,-0.13102849
1743177481197379,-13.4373865,-16.423319,-24.99321,-0.36258852,-0.37818357,-0.002285942,0.21825053,0.21825053,0.0008754134,-4.0,-4.0,0.0,-2.8567882,-0.0546488
1743177481413379,-13.510466,-16.4998,-24.993677,-0.3101686,-0.33684477,-0.0019136892,0.4205743,-0.027425714,0.003585875,4.0,-4.0,0.0,-2.7939563,0.22906476
1743177481613379,-13.558813,-16.572031,-24.993984,-0.15101577,-0.39579675,-0.0011919823,0.9394584,-0.36670223,0.0036286414,-4.0,0.0,0.0,-2.6368766,0.57055265
1743177481813379,-13.575468,-16.65911,-24.994162,-0.042000216,-0.48756924,-0.00081196637,0.14649281,-0.75070226,7.748604e-07,-4.0,-4.0,0.0,-2.479797,0.7024289
1743177482013379,-13.583723,-16.776972,-24.994324,-0.043787643,-0.71770966,-0.0008100472,-0.027957745,-1.5507022,1.7464161e-05,0.0,-4.0,0.0,-2.3227172,0.753357
1743177482213379,-13.593039,-16.95686,-24.994486,-0.049379192,-1.1078502,-0.0008046243,-0.027957745,-2.3507018,3.5345554e-05,0.0,-4.0,0.0,-2.1656375,0.7730245
1743177482413379,-13.603473,-17.230736,-24.994648,-0.05497074,-1.6551518,-0.0007954953,-0.027957745,-3.0,5.4180622e-05,0.0,0.0,0.0,-2.0085578,0.78061974
1743177482613379,-13.615026,-17.621763,-24.99481,-0.06056229,-2.2551522,-0.0007826126,-0.027957745,-3.0,7.325411e-05,0.0,0.0,0.0,-1.8514781,0.7835528
1743177482813379,-13.627697,-18.132788,-24.994967,-0.06615384,-2.8551528,-0.0007658464,-0.027957745,-3.0,9.2089176e-05,0.0,0.0,0.0,-1.6943984,0.78468555
1743177482997379,-13.640341,-18.708918,-24.995104,-0.07129806,-3.4071534,-0.0007471472,-0.027957745,-3.0,0.000108897686,0.0,0.0,0.0,-1.5998406,0.58052355
1743177483213379,-13.656393,-19.514698,-24.995258,-0.07733694,-4.0478764,-0.0007215537,-0.027957745,-2.7587197,0.00012654066,0.0,4.0,0.0,-1.600484,0.2056373
1743177483413379,-13.67242,-20.374113,-24.995401,-0.082928486,-4.5196195,-0.00069438305,-0.027957745,-1.9587286,0.0001437068,0.0,4.0,0.0,-1.6008828,0.0783133
1743177483597379,-13.68815,-21.234724,-24.995531,-0.08807271,-4.8123136,-0.000666108,-0.027957745,-1.2227341,0.00016248226,0.0,4.0,0.0,-1.6006631,0.03349366
1743177483797379,-13.706038,-22.216314,-24.995659,-0.08955366,-4.976861,-0.0006319702,0.0015062019,-0.42275232,0.00017508864,0.0,4.0,0.0,-1.5999442,0.015201811
1743177484013379,-13.725124,-23.282621,-24.995789,-0.08937758,-4.999201,-0.00061342167,0.0,0.0,0.0,0.0,0.0,0.0,-1.5991726,0.00764826
1743177484213379,-13.742688,-24.265028,-24.99591,-0.08937845,-4.999201,-0.0006135366,0.0,0.0,0.0,0.0,0.0,0.0,-1.5989972,0.0033264798
1743177484413379,-13.760063,-25.236774,-24.996025,-0.08937727,-4.999201,-0.00061465614,0.0,0.0,0.0,0.0,0.0,0.0,-1.5996145,-0.00082577765
1743177484613379,-13.777421,-26.207777,-24.99615,-0.08937864,-4.999201,-0.0006135506,0.0,0.0,0.0,0.0,0.0,0.0,-1.6010833,-0.005018486
1743177484813379,-13.7947,-27.17498,-24.99627,-0.08855351,-4.9648943,-0.00060801493,0.008923024,0.5238839,6.3210726e-05,0.0,4.0,0.0,-1.6034882,-0.009550817
1743177484997379,-13.8104515,-28.056046,-24.996382,-0.08632795,-4.805857,-0.00059192436,0.014844924,1.2436827,0.000108510256,0.0,4.0,0.0,-1.6064577,-0.013532045
1743177485213379,-13.82858,-29.053154,-24.996506,-0.08243252,-4.4762735,-0.0005643548,0.020631105,1.5921192,0.00014415383,0.0,-4.0,0.0,-1.6105087,-0.016997896
1743177485413379,-13.844622,-29.916307,-24.996618,-0.07788353,-4.1562657,-0.000532547,0.024217695,1.564121,0.00017085671,0.0,-4.0,0.0,-1.6146891,-0.01950142
1743177485597379,-13.858528,-30.654417,-24.996712,-0.073199764,-3.8678954,-0.00049980043,0.026286095,1.5264014,0.00018182397,0.0,-4.0,0.0,-1.6190189,-0.021988608
1743177485813379,-13.873713,-31.45421,-24.996815,-0.06735076,-3.5395315,-0.000459899,0.027570575,1.471563,0.00018778443,0.0,-4.0,0.0,-1.6249015,-0.025584739
1743177486013379,-13.886628,-32.132656,-24.996906,-0.06178648,-3.2469153,-0.0004214614,0.027916104,1.4122707,0.00019469857,0.0,-4.0,0.0,-1.6313418,-0.029930199
1743177486197379,-13.897527,-32.706154,-24.996977,-0.056649916,-2.988667,-0.00038475043,0.027916104,1.3518302,0.00020161271,0.0,-4.0,0.0,-1.638335,-0.034865346
1743177486413379,-13.909111,-33.32028,-24.997055,-0.050620034,-2.7004023,-0.00034082538,0.027916104,1.2758607,0.00020423532,0.0,-4.0,0.0,-1.6477654,-0.040859707
1743177486613379,-13.918678,-33.83491,-24.997122,-0.04503681,-2.4485452,-0.0002999783,0.027916104,1.2011545,0.00020423532,0.0,-4.0,0.0,-1.6577635,-0.04675792
1743177486813379,-13.927127,-34.30069,-24.997175,-0.03945359,-2.2119408,-0.00025913122,0.027916104,1.1235466,0.00020423532,0.0,-4.0,0.0,-1.6690518,-0.053033736
1743177487013379,-13.934461,-34.72071,-24.997223,-0.033870365,-1.9910635,-0.00021828416,0.027916104,1.0441072,0.00020423532,0.0,-4.0,0.0,-1.682006,-0.06068196
1743177487197379,-13.940221,-35.069447,-24.997263,-0.028733801,-1.8018967,-0.00018070484,0.027916104,0.97001755,0.00020423532,0.0,-4.0,0.0,-1.6955119,-0.06841017
1743177487413379,-13.945902,-35.436214,-24.997295,-0.02526418,-1.5973052,-0.00015593728,0.0023952425,0.8840745,1.513958e-05,0.0,-4.0,0.0,-1.7134142,-0.07828273
1743177487613379,-13.950849,-35.738087,-24.997324,-0.02399178,-1.4242759,-0.0001484696,0.008879334,0.8056971,5.057454e-05,0.0,-4.0,0.0,-1.7318459,-0.0872284
1743177487813379,-13.955446,-36.006905,-24.997353,-0.021868736,-1.2666866,-0.00013620319,0.011586398,0.7298568,6.711483e-05,0.0,-4.0,0.0,-1.7521007,-0.09635213
1743177488013379,-13.959577,-36.245712,-24.997381,-0.019471634,-1.123933,-0.00012177648,0.012084693,0.65748936,7.4505806e-05,0.0,-4.0,0.0,-1.7747333,-0.10728843
1743177488197379,-13.962953,-36.44139,-24.9974,-0.01724805,-1.0049685,-0.00010783591,0.012084693,0.59409,7.5906515e-05,0.0,-4.0,0.0,-1.7980939,-0.119357534
1743177488413379,-13.9663925,-36.64467,-24.997421,-0.014637756,-0.8797327,-9.1440124e-05,0.012084693,0.52583647,7.5906515e-05,0.0,-4.0,0.0,-1.8295276,-0.13746864
1743177488613379,-13.969074,-36.810074,-24.99744,-0.01222082,-0.7764243,-8.0334285e-05,0.012084693,0.46730465,1.0102987e-05,0.0,-4.0,0.0,-1.8332851,-0.060343135
1743177488813379,-13.971374,-36.95598,-24.99746,-0.01113554,-0.6843184,-7.408833e-05,0.0041291863,0.41389343,4.3198466e-05,0.0,-4.0,0.0,-1.8332851,-0.02330338
1743177489013379,-13.973536,-37.084484,-24.997478,-0.013210772,-0.603043,-6.312137e-05,-0.15390018,0.37460035,8.715689e-05,-4.0,0.0,0.0,-1.8772674,-0.19319005
1743177489213379,-13.98459,-37.197598,-24.99749,-0.12399082,-0.52812296,-4.5370034e-05,-0.9539003,0.37460035,8.960068e-05,-4.0,0.0,0.0,-2.034347,-0.5566985
1743177489413379,-14.03077,-37.296074,-24.997494,-0.33341962,-0.46600294,-3.567633e-05,-0.9852582,0.05460032,-1.44690275e-05,0.0,-4.0,0.0,-2.1914268,-0.69707865
1743177489613379,-14.117161,-37.39351,-24.997494,-0.5304713,-0.53508294,-3.8589205e-05,-0.9852582,-0.7453998,-1.4707446e-05,0.0,-4.0,0.0,-2.3156824,-0.60906154
1743177489813379,-14.242962,-37.52076,-24.9975,-0.7275228,-0.7641629,-4.1586958e-05,-0.9852582,-1.5453997,-1.5065074e-05,0.0,-4.0,0.0,-2.3027833,-0.19389993
1743177490013379,-14.407582,-37.707943,-24.997509,-0.9061424,-1.1028289,-4.3989647e-05,-0.60125816,-1.4472781,1.937151e-07,4.0,4.0,0.0,-2.2866604,-0.025689375
1743177490197379,-14.580336,-37.931206,-24.997519,-0.949062,-1.3014159,-4.318916e-05,0.1347419,-0.7112782,7.227063e-06,4.0,4.0,0.0,-2.2768357,0.018467477
1743177490413379,-14.779281,-38.222195,-24.997528,-0.8874471,-1.3617398,-4.0903324e-05,0.34724784,0.15272187,1.3187528e-05,0.0,4.0,0.0,-2.2808096,-0.0104555115
1743177490597379,-14.936015,-38.46601,-24.997532,-0.8129586,-1.2659267,-3.796184e-05,0.45341915,0.88872194,1.6763806e-05,0.0,4.0,0.0,-2.3012812,-0.07252816
1743177490797379,-15.088556,-38.696316,-24.997532,-0.70771676,-1.0193534,-3.460908e-05,0.5930722,1.3001578,1.6763806e-05,0.0,-4.0,0.0,-2.3351288,-0.13311382
1743177491013379,-15.226393,-38.88947,-24.997532,-0.56534165,-0.78548735,-3.1271302e-05,0.68519354,0.8474767,-9.3877316e-07,0.0,-4.0,0.0,-2.3666575,-0.1374272
1743177491197379,-15.319089,-39.021194,-24.997532,-0.44766963,-0.65539443,-3.1444037e-05,0.5360482,0.5462538,-9.3877316e-07,0.0,-4.0,0.0,-2.3818593,-0.10398239
1743177491413379,-15.40714,-39.15135,-24.997532,-0.37706724,-0.55661124,-3.1469895e-05,0.24804813,0.35731184,-1.4901161e-08,0.0,-4.0,0.0,-2.3931608,-0.06616412
1743177491613379,-15.478116,-39.25565,-24.997532,-0.3356496,-0.4885296,-3.1471205e-05,0.18404812,0.29201964,-1.4901161e-08,0.0,-4.0,0.0,-2.3931608,-0.025551338
1743177491813379,-15.54152,-39.347363,-24.997532,-0.2978003,-0.4300258,-3.147132e-05,0.19608329,0.25440773,1.4901161e-08,0.0,-4.0,0.0,-2.3931608,-0.009867446
1743177492013379,-15.596006,-39.42934,-24.997532,-0.22978368,-0.40840724,-2.4654983e-05,0.6760833,-0.23852414,5.6803226e-05,4.0,-4.0,0.0,-2.2863467,0.37068313
1743177492197379,-15.624144,-39.508892,-24.997532,-0.07990088,-0.45619836,-1.420319e-05,0.59288585,-0.26004946,5.6803226e-05,-4.0,0.0,0.0,-2.1418333,0.61243063
1743177492413379,-15.634104,-39.620213,-24.997532,-0.036536504,-0.60568106,-8.79974e-06,-0.008617915,-1.1240495,-4.172325e-07,0.0,-4.0,0.0,-1.9721873,0.7235493
1743177492613379,-15.641583,-39.769157,-24.997532,-0.038260084,-0.91049093,-8.883186e-06,-0.008617915,-1.9240494,-4.172325e-07,0.0,-4.0,0.0,-1.8151076,0.76151335
1743177492797379,-15.64867,-39.970078,-24.997532,-0.03982417,-1.3255712,-8.95891e-06,-0.008617915,-2.6500196,-4.172325e-07,0.0,-4.0,0.0,-1.6705942,0.7754364
1743177493013379,-15.656891,-40.296566,-24.997532,-0.04156573,-1.916519,-9.043227e-06,-0.008617915,-3.0,-4.172325e-07,0.0,0.0,0.0,-1.5849049,0.46926826
1743177493213379,-15.664788,-40.705963,-24.997532,-0.043172274,-2.4757757,-9.121008e-06,-0.008617915,-3.0,-4.172325e-07,0.0,0.0,0.0,-1.5850369,0.1807982
1743177493413379,-15.673124,-41.22897,-24.997532,-0.04480532,-3.0442595,-9.222167e-06,-0.008617915,-3.0,-8.940697e-07,0.0,0.0,0.0,-1.5850846,0.06972991
1743177493613379,-15.682008,-41.87819,-24.997532,-0.04648239,-3.6280723,-9.396157e-06,-0.008617915,-3.0,-8.940697e-07,0.0,0.0,0.0,-1.5849026,0.027534967
1743177493813379,-15.691239,-42.641808,-24.997532,-0.048163023,-4.1876802,-9.588057e-06,-0.008617915,-2.5488477,-1.1324883e-06,0.0,4.0,0.0,-1.5845261,0.011834883
1743177494013379,-15.700791,-43.50484,-24.997532,-0.049038608,-4.6097755,-9.864029e-06,0.00022044033,-1.7663186,-1.66893e-06,0.0,4.0,0.0,-1.58398,0.006271761
1743177494213379,-15.710355,-44.433228,-24.997532,-0.048963252,-4.8783264,-1.028502e-05,0.0005049929,-0.98563504,-2.6226044e-06,0.0,4.0,0.0,-1.5834348,0.004063489
1743177494397379,-15.718989,-45.30626,-24.997532,-0.048857346,-4.990006,-1.0940171e-05,0.0006630793,-0.27937514,-4.917383e-06,0.0,4.0,0.0,-1.5831181,0.0026492632
1743177494597379,-15.72834,-46.26386,-24.997532,-0.04880866,-4.9997616,-1.1689594e-05,0.0,0.0,0.0,0.0,0.0,0.0,-1.5829898,0.0013762426
1743177494813379,-15.738307,-47.284874,-24.997532,-0.048808746,-4.9997616,-1.21519215e-05,0.0,0.0,0.0,0.0,0.0,0.0,-1.5829431,0.0006327898
1743177495013379,-15.747371,-48.213432,-24.997532,-0.048809033,-4.999761,-1.260554e-05,0.0,0.0,0.0,0.0,0.0,0.0,-1.5828716,0.00047425745
1743177495213379,-15.756294,-49.127678,-24.997532,-0.048809007,-4.9997616,-1.3086056e-05,0.0,0.0,0.0,0.0,0.0,0.0,-1.582754,0.00055232586
1743177495397379,-15.764434,-49.961445,-24.997532,-0.04880956,-4.9997616,-1.3556841e-05,0.0,0.0,0.0,0.0,0.0,0.0,-1.5826412,0.00058294466
1743177495613379,-15.773918,-50.932983,-24.997532,-0.048809417,-4.9997616,-1.414952e-05,0.0,0.0,0.0,0.0,0.0,0.0,-1.5825429,0.00049011945
1743177495813379,-15.78269,-51.831264,-24.997532,-0.048809066,-4.9997616,-1.4745199e-05,0.0,0.0,0.0,0.0,0.0,0.0,-1.5825075,0.00027875567
1743177495997379,-15.790764,-52.65811,-24.997532,-0.048808284,-4.9997616,-1.5339527e-05,0.0,0.0,0.0,0.0,0.0,0.0,-1.5825688,-9.3767405e-05
1743177496213379,-15.800222,-53.62688,-24.997532,-0.048807792,-4.9997616,-1.609973e-05,0.0,0.0,0.0,0.0,0.0,0.0,-1.58273,-0.0005417648
1743177496397379,-15.808301,-54.454353,-24.997532,-0.048807662,-4.9997616,-1.6811257e-05,0.0,0.0,0.0,0.0,0.0,0.0,-1.5829213,-0.0008352593
1743177496597379,-15.817085,-55.35426,-24.997532,-0.04880815,-4.9997616,-1.7659877e-05,0.0,0.0,0.0,0.0,0.0,0.0,-1.5831198,-0.0009275366
1743177496797379,-15.8258915,-56.256325,-24.997532,-0.04880793,-4.9997616,-1.8601013e-05,0.0,0.0,0.0,0.0,0.0,0.0,-1.5833212,-0.0009771043
1743177497013379,-15.835417,-57.232243,-24.997532,-0.048808116,-4.9997616,-1.9739062e-05,0.0,0.0,0.0,0.0,0.0,0.0,-1.5834916,-0.0008389743
1743177497197379,-15.84357,-58.067417,-24.997532,-0.04880826,-4.9997616,-2.0829637e-05,0.0,0.0,0.0,0.0,0.0,0.0,-1.5835769,-0.0006100041
1743177497413379,-15.8531475,-59.048542,-24.997532,-0.048808213,-4.9997616,-2.2275453e-05,0.0,0.0,0.0,0.0,0.0,0.0,-1.5836494,-0.0004162736
1743177497613379,-15.862046,-59.96005,-24.997532,-0.048808023,-4.9997616,-2.3811079e-05,0.0,0.0,0.0,0.0,0.0,0.0,-1.5836687,-0.00021091092
1743177497797379,-15.870252,-60.8009,-24.997532,-0.048809428,-4.999761,-2.54284e-05,0.0,0.0,0.0,0.0,0.0,0.0,-1.5837166,-0.0002537637
1743177498013379,-15.879879,-61.78714,-24.997532,-0.04866011,-4.9890523,-2.6964666e-05,0.0031773448,0.292707,-2.6524067e-06,0.0,4.0,0.0,-1.5838839,-0.00063039974
1743177498213379,-15.888716,-62.692635,-24.997532,-0.047648896,-4.868194,-2.7450873e-05,0.007114291,1.025933,-2.6524067e-06,0.0,4.0,0.0,-1.5841545,-0.0010921645
1743177498413379,-15.897362,-63.56879,-24.997532,-0.046026915,-4.6167436,-2.7939963e-05,0.010085702,1.5350038,-2.6524067e-06,0.0,-4.0,0.0,-1.58444,-0.0012926061
1743177498613379,-15.905716,-64.39875,-24.997532,-0.04392077,-4.327639,-2.8432198e-05,0.01224184,1.5382439,-2.6524067e-06,0.0,-4.0,0.0,-1.5846319,-0.0010678567
1743177498813379,-15.913665,-65.17703,-24.997532,-0.041487925,-4.039151,-2.8925702e-05,0.013656378,1.5213437,-2.6524067e-06,0.0,-4.0,0.0,-1.5846854,-0.00054984126
1743177499013379,-15.9211445,-65.90266,-24.997532,-0.038848378,-3.755017,-2.941964e-05,0.014522612,1.4894984,-2.6524067e-06,0.0,-4.0,0.0,-1.5846881,-0.0002008218
1743177499213379,-15.928134,-66.577354,-24.997532,-0.036085863,-3.4773388,-2.9918621e-05,0.0149694085,1.446128,-2.771616e-06,0.0,-4.0,0.0,-1.5846251,0.00015564202
1743177499413379,-15.934632,-67.20382,-24.997532,-0.03326337,-3.2073896,-3.047222e-05,0.015080214,1.3936633,-3.0696392e-06,0.0,-4.0,0.0,-1.5844707,0.00052361836
1743177499613379,-15.940645,-67.78483,-24.997532,-0.030414663,-2.9460082,-3.1052085e-05,0.015080214,1.3337595,-3.0696392e-06,0.0,-4.0,0.0,-1.5843438,0.0005539268
1743177499813379,-15.946175,-68.32271,-24.997532,-0.027537081,-2.6939778,-3.147187e-05,0.015080214,1.267775,2.9802322e-08,0.0,-4.0,0.0,-1.584285,0.00038732152
1743177500013379,-15.951213,-68.81944,-24.997532,-0.024624366,-2.4520779,-3.1473497e-05,0.015080214,1.1967894,2.9802322e-08,0.0,-4.0,0.0,-1.584366,-0.00013663038
1743177500213379,-15.955744,-69.276474,-24.997532,-0.021673087,-2.2212272,-3.1470012e-05,0.015080214,1.1218603,-2.9802322e-08,0.0,-4.0,0.0,-1.5845314,-0.0005324702
1743177500413379,-15.959744,-69.69499,-24.997532,-0.018682618,-2.0024285,-3.1471678e-05,0.015080214,1.0440408,2.9802322e-08,0.0,-4.0,0.0,-1.5845369,-0.00023000214
1743177500597379,-15.962924,-70.04582,-24.997532,-0.01590786,-1.8131231,-3.147096e-05,0.015080214,0.97174156,2.9802322e-08,0.0,-4.0,0.0,-1.5846242,-0.00034529233
1743177500813379,-15.966074,-70.41498,-24.997532,-0.013982998,-1.6079634,-3.1471915e-05,0.0018557906,0.88738084,0.0,0.0,-4.0,0.0,-1.5846157,-6.847035e-05
1743177501013379,-15.968805,-70.71891,-24.997532,-0.013211817,-1.434201,-3.1471915e-05,0.0051191747,0.8096714,0.0,0.0,-4.0,0.0,-1.5842047,0.0013939728
1743177501197379,-15.971137,-70.969124,-24.997532,-0.012119531,-1.2878305,-3.1471915e-05,0.0063938797,0.7396091,0.0,0.0,-4.0,0.0,-1.5830532,0.0044822334
1743177501413379,-15.973599,-71.230194,-24.997532,-0.010690398,-1.1321943,-3.1471915e-05,0.006672293,0.6617183,0.0,0.0,-4.0,0.0,-1.5807369,0.008645182
1743177501613379,-15.975604,-71.44346,-24.997532,-0.009355938,-1.0026771,-3.1471915e-05,0.006672293,0.5933669,0.0,0.0,-4.0,0.0,-1.5773365,0.014105045
1743177501813379,-15.977341,-71.63214,-24.997532,-0.008021479,-0.8863854,-3.1471915e-05,0.006672293,0.52955574,0.0,0.0,-4.0,0.0,-1.5728669,0.019485371
1743177502013379,-15.97881,-71.79879,-24.997532,-0.006687021,-0.7823625,-3.1471915e-05,0.006672293,0.4706866,0.0,0.0,-4.0,0.0,-1.571192,0.011109373
1743177502213379,-15.980071,-71.945786,-24.997532,-0.0061018826,-0.68961567,-3.1471078e-05,0.0022188872,0.41688156,1.4901161e-08,0.0,-4.0,0.0,-1.571192,0.0042902306
1743177502413379,-15.981233,-72.07527,-24.997532,-0.0054884814,-0.60713184,-3.1471558e-05,0.0033987463,0.36808246,0.0,0.0,-4.0,0.0,-1.571192,0.0016568063
1743177502613379,-15.985899,-72.18933,-24.997532,-0.06675585,-0.5341496,-2.4296323e-05,-0.7005769,0.36165875,4.0769577e-05,-4.0,0.0,0.0,-1.7282717,-0.48145235
1743177502813379,-16.018026,-72.28892,-24.997532,-0.26421702,-0.46232986,-1.6142412e-05,-0.90051854,0.29765874,4.0769577e-05,4.0,-4.0,0.0,-1.8853514,-0.66802
1743177502997379,-16.081755,-72.3731,-24.997532,-0.44560948,-0.47527277,-1.49176585e-05,-1.319185,-0.43834126,-2.861023e-06,-4.0,-4.0,0.0,-2.0298648,-0.7364426
1743177503197379,-16.202593,-72.48222,-24.997532,-0.78944623,-0.642941,-1.550512e-05,-2.1181755,-1.2383413,-3.0994415e-06,0.0,-4.0,0.0,-2.1869445,-0.7664925
1743177503413379,-16.422523,-72.65666,-24.997532,-1.2469722,-1.0037346,-1.6184133e-05,-2.1181755,-2.1023412,-3.33786e-06,0.0,-4.0,0.0,-2.3395755,-0.70191765
1743177503613379,-16.714285,-72.90476,-24.997532,-1.6706074,-1.504203,-1.6865053e-05,-2.1181755,-2.9023404,-3.5762787e-06,0.0,-4.0,0.0,-2.3351111,-0.25719714
1743177503813379,-17.090769,-73.26537,-24.997532,-2.0942426,-2.103011,-1.7647064e-05,-2.1181755,-3.0,-4.172325e-06,0.0,0.0,0.0,-2.3311057,-0.08744374
1743177504013379,-17.551981,-73.74588,-24.997532,-2.5178778,-2.698051,-1.8600736e-05,-2.1181755,-2.8010323,-5.2452087e-06,0.0,4.0,0.0,-2.329592,-0.02984132
1743177504197379,-18.031616,-74.2645,-24.997532,-2.8922293,-3.1330426,-1.9708194e-05,-2.0221756,-2.18894,-6.914139e-06,4.0,0.0,0.0,-2.3307958,-0.016776089
1743177504413379,-18.660612,-74.94633,-24.997532,-3.2224784,-3.4974444,-2.1127513e-05,-1.2029952,-1.3697597,-7.1525574e-06,4.0,4.0,0.0,-2.334413,-0.017110366
1743177504597379,-19.241356,-75.57795,-24.997532,-3.3720443,-3.6762917,-2.271441e-05,-0.5006667,-0.6674313,-1.0311604e-05,4.0,4.0,0.0,-2.3379457,-0.018290425
1743177504813379,-19.929247,-76.33091,-24.997532,-3.391387,-3.7294202,-2.480351e-05,0.30972147,0.14295693,-1.0311604e-05,4.0,4.0,0.0,-2.341459,-0.016732914
1743177505013379,-20.560328,-77.028465,-24.997532,-3.2733703,-3.6310227,-2.6751673e-05,0.8062676,0.8986728,-1.0311604e-05,0.0,4.0,0.0,-2.3438814,-0.013767637
1743177505213379,-21.16429,-77.695816,-24.997532,-3.0926995,-3.388942,-2.8705486e-05,1.0929217,1.65658,-1.0311604e-05,0.0,4.0,0.0,-2.346208,-0.012547056
1743177505413379,-21.72943,-78.307724,-24.997532,-2.8496351,-3.0612977,-2.9380766e-05,1.4332199,1.6094388,-7.1525574e-07,0.0,-4.0,0.0,-2.3484159,-0.011440065
1743177505597379,-22.19359,-78.80651,-24.997532,-2.600249,-2.800426,-2.9620174e-05,1.4260366,1.4260366,-1.9073486e-06,-4.0,-4.0,0.0,-2.3496063,-0.0084267445
1743177505813379,-22.68479,-79.33732,-24.997532,-2.3360708,-2.5325162,-3.0106197e-05,1.2299309,1.234174,-2.8014183e-06,0.0,-4.0,0.0,-2.3513772,-0.008593939
1743177506013379,-23.08704,-79.77435,-24.997532,-2.1290653,-2.3179007,-3.067387e-05,1.0472821,1.1215804,-3.2782555e-06,-4.0,0.0,0.0,-2.3542206,-0.012265376
1743177506213379,-23.460384,-80.181145,-24.997532,-1.9460571,-2.120958,-3.1275184e-05,0.93328357,1.0092582,-3.2782555e-06,0.0,-4.0,0.0,-2.3576307,-0.015285585
1743177506413379,-23.807302,-80.55917,-24.997532,-1.7789353,-1.9382925,-3.1497664e-05,0.87613654,0.9163145,1.7881393e-07,0.0,-4.0,0.0,-2.3610702,-0.016393246
1743177506613379,-24.1292,-80.90986,-24.997532,-1.622502,-1.7676579,-3.1470663e-05,0.7612078,0.8517661,0.0,-4.0,0.0,0.0,-2.3643012,-0.016228288
1743177506813379,-24.427097,-81.234055,-24.997532,-1.4765617,-1.6069176,-3.1470663e-05,0.7032267,0.79039896,0.0,-4.0,0.0,0.0,-2.3672278,-0.015180774
1743177507013379,-24.70637,-81.53752,-24.997532,-1.3369601,-1.4530424,-3.1470663e-05,0.7032267,0.72515327,0.0,0.0,-4.0,0.0,-2.3700452,-0.01450201
1743177507213379,-24.960596,-81.81359,-24.997532,-1.2070668,-1.309404,-3.1470663e-05,0.6392267,0.6715405,0.0,0.0,-4.0,0.0,-2.3731341,-0.015221943
1743177507413379,-25.189741,-82.06201,-24.997532,-1.0874134,-1.1763902,-3.1470663e-05,0.57522666,0.617873,0.0,0.0,-4.0,0.0,-2.3769963,-0.017894488
1743177507613379,-25.395718,-82.28485,-24.997532,-0.97298306,-1.054216,-3.1470663e-05,0.5050895,0.56908953,0.0,-4.0,0.0,0.0,-2.3818462,-0.022055462
1743177507797379,-25.566198,-82.46914,-24.997532,-0.88004655,-0.950454,-3.1470663e-05,0.5050895,0.5188487,0.0,0.0,-4.0,0.0,-2.387567,-0.027665937
1743177508013379,-25.74487,-82.662254,-24.997532,-0.7784438,-0.83966386,-3.1470663e-05,0.42516917,0.4668302,0.0,0.0,-4.0,0.0,-2.3960717,-0.03563516
1743177508213379,-25.892052,-82.82073,-24.997532,-0.6934339,-0.7468597,-3.147126e-05,0.42090404,0.42090404,0.0,-4.0,-4.0,0.0,-2.4060693,-0.04516979
1743177508413379,-26.022575,-82.961555,-24.997532,-0.613246,-0.66296154,-3.147126e-05,0.37785786,0.37785786,0.0,-4.0,-4.0,0.0,-2.4191952,-0.05848348
1743177508597379,-26.129564,-83.07702,-24.997532,-0.5528561,-0.59304994,-3.147126e-05,0.29994893,0.34005308,0.0,0.0,-4.0,0.0,-2.434517,-0.07381887
1743177508797379,-26.23365,-83.18865,-24.997532,-0.48869073,-0.52460235,-3.147126e-05,0.30243248,0.30243248,0.0,-4.0,-4.0,0.0,-2.4359798,-0.031332247
1743177508997379,-26.325527,-83.28737,-24.997532,-0.43122423,-0.46334395,-3.147126e-05,0.26817912,0.26817912,0.0,-4.0,-4.0,0.0,-2.4359798,-0.012099923
1743177509213379,-26.412596,-83.38104,-24.997532,-0.37326527,-0.4084879,-2.9559427e-05,0.40149426,0.081494235,4.7802925e-05,4.0,-4.0,0.0,-2.3919976,0.1798641
1743177509413379,-26.473885,-83.46614,-24.997532,-0.21343735,-0.46055242,-1.9998837e-05,1.1146833,-0.41339362,4.7802925e-05,-4.0,0.0,0.0,-2.2349179,0.5515523
1743177509613379,-26.49948,-83.56711,-24.997532,-0.06894307,-0.5616632,-1.601301e-05,0.3244413,-0.7973937,-1.0371208e-05,-4.0,-4.0,0.0,-2.0778382,0.6950913
1743177509813379,-26.51171,-83.70069,-24.997532,-0.06976092,-0.8011419,-1.81006e-05,-0.13740015,-1.5973936,-1.0609627e-05,0.0,-4.0,0.0,-1.9207585,0.7505233
1743177510013379,-26.528408,-83.898155,-24.997532,-0.09724097,-1.2006209,-2.026067e-05,-0.13740015,-2.3973932,-1.0848045e-05,0.0,-4.0,0.0,-1.7636788,0.77193016
1743177510213379,-26.550606,-84.19147,-24.997532,-0.12472102,-1.7552291,-2.2529459e-05,-0.13740015,-3.0,-1.1563301e-05,0.0,0.0,0.0,-1.6172878,0.73071235
1743177510413379,-26.578299,-84.598495,-24.997532,-0.152201,-2.2885153,-2.4865958e-05,-0.13740015,-2.2694433,-1.168251e-05,0.0,4.0,0.0,-1.6182579,0.27909338
1743177510613379,-26.611488,-85.09629,-24.997532,-0.17968097,-2.6624043,-2.7202459e-05,-0.13740015,-1.4694436,-1.168251e-05,0.0,4.0,0.0,-1.618745,0.10671643
1743177510813379,-26.64941,-85.65283,-24.997532,-0.19229677,-2.8762937,-2.953896e-05,0.0112385005,-0.6694436,-1.168251e-05,0.0,4.0,0.0,-1.6156777,0.051779892
1743177510997379,-26.684515,-86.18926,-24.997532,-0.18880816,-2.9317594,-3.1688538e-05,0.024957582,0.066556476,-1.168251e-05,0.0,4.0,0.0,-1.6086553,0.044699743
1743177511213379,-26.72458,-86.81428,-24.997532,-0.18161263,-2.8240714,-3.163705e-05,0.040167972,0.9305566,2.3841858e-07,0.0,4.0,0.0,-1.5956751,0.055862736
1743177511397379,-26.75723,-87.314026,-24.997532,-0.17290707,-2.5851376,-3.1593172e-05,0.053048655,1.6665565,2.3841858e-07,0.0,4.0,0.0,-1.5809643,0.07058814
1743177511597379,-26.790638,-87.792435,-24.997532,-0.16068508,-2.1718264,-3.1545478e-05,0.06788759,2.466556,2.3841858e-07,0.0,4.0,0.0,-1.5612143,0.08879413
1743177511813379,-26.823612,-88.20479,-24.997532,-0.14397937,-1.6622173,-3.1493968e-05,0.0851938,2.1104026,2.3841858e-07,0.0,-4.0,0.0,-1.5349499,0.111385204
1743177512013379,-26.850584,-88.497765,-24.997532,-0.12524751,-1.2824056,-3.1469168e-05,0.100241885,1.6599066,0.0,0.0,-4.0,0.0,-1.5050155,0.13607065
1743177512213379,-26.873533,-88.72374,-24.997532,-0.10388857,-0.99174845,-3.1469168e-05,0.11108719,1.2216313,0.0,0.0,-4.0,0.0,-1.4713079,0.15659899
1743177512413379,-26.892061,-88.900085,-24.997532,-0.081364475,-0.784937,-3.1469644e-05,0.11281867,0.8260952,-2.9802322e-08,0.0,-4.0,0.0,-1.4459984,0.1271229
1743177512613379,-26.906073,-89.042404,-24.997532,-0.058800757,-0.64824367,-3.1471078e-05,0.11281867,0.52673787,0.0,0.0,-4.0,0.0,-1.4459984,0.049092464
1743177512813379,-26.915976,-89.16241,-24.997532,-0.045729183,-0.557233,-3.1471078e-05,0.004771851,0.3663655,0.0,0.0,-4.0,0.0,-1.4459984,0.018958585
1743177512997379,-26.924467,-89.25886,-24.997532,-0.05523619,-0.49333227,-2.7694805e-05,-0.29910445,0.32412976,4.720688e-05,-4.0,0.0,0.0,-1.5276799,-0.2982121
1743177513213379,-26.95007,-89.35789,-24.997532,-0.21066673,-0.42332017,-1.7498121e-05,-0.963928,0.32412976,4.720688e-05,4.0,0.0,0.0,-1.697326,-0.6111925
1743177513413379,-27.011427,-89.4388,-24.997532,-0.4165601,-0.40969422,-1.7583512e-05,-1.1672562,-0.31587026,-1.2397766e-05,0.0,-4.0,0.0,-1.8544056,-0.71812326
1743177513613379,-27.11808,-89.53239,-24.997532,-0.6500113,-0.55286825,-2.0063067e-05,-1.1672562,-1.1158704,-1.2397766e-05,0.0,-4.0,0.0,-2.0114853,-0.75941795
1743177513813379,-27.271423,-89.67057,-24.997532,-0.8834624,-0.85604227,-2.2580767e-05,-1.1672562,-1.9158702,-1.2755394e-05,0.0,-4.0,0.0,-2.168565,-0.7753652
1743177514013379,-27.471458,-89.88414,-24.997532,-1.1169136,-1.2801032,-2.5169038e-05,-1.1672562,-1.9247929,-1.2993813e-05,0.0,4.0,0.0,-2.258164,-0.5162026
1743177514213379,-27.71651,-90.17336,-24.997532,-1.3133727,-1.5850617,-2.7767801e-05,-0.6232562,-1.124793,-1.2993813e-05,4.0,4.0,0.0,-2.2546253,-0.18973877
1743177514413379,-27.986317,-90.507545,-24.997532,-1.3580238,-1.7300202,-3.0366564e-05,0.17674385,-0.32479298,-1.2993813e-05,4.0,4.0,0.0,-2.257092,-0.08244665
1743177514613379,-28.250574,-90.85473,-24.997532,-1.2752455,-1.7149785,-3.1672163e-05,0.50668645,0.47520703,4.7683716e-07,0.0,4.0,0.0,-2.2678092,-0.067132436
1743177514797379,-28.4758,-91.15811,-24.997532,-1.1687472,-1.559828,-3.1584423e-05,0.6408912,1.211207,4.7683716e-07,0.0,4.0,0.0,-2.2875547,-0.09275818
1743177515013379,-28.7117,-91.46072,-24.997532,-1.0083394,-1.2269578,-3.1481424e-05,0.8394847,1.5353336,4.7683716e-07,0.0,-4.0,0.0,-2.3187332,-0.12649846
1743177515197379,-28.881908,-91.662575,-24.997532,-0.83727926,-0.97938985,-3.146998e-05,0.98480034,1.1310652,0.0,0.0,-4.0,0.0,-2.3405972,-0.11962421
1743177515413379,-29.040688,-91.85075,-24.997532,-0.64419854,-0.7774444,-3.146998e-05,0.68416715,0.74816716,0.0,-4.0,0.0,0.0,-2.3535185,-0.07890361
1743177515613379,-29.15761,-91.99333,-24.997532,-0.5357115,-0.6571148,-3.1471172e-05,0.36310834,0.4807123,-2.9802322e-08,-4.0,0.0,0.0,-2.3618953,-0.05604633
1743177515797379,-29.250439,-92.10675,-24.997532,-0.47606754,-0.57914484,-3.1471052e-05,0.29910833,0.35467574,0.0,0.0,-4.0,0.0,-2.366763,-0.03727682
1743177516013379,-29.346539,-92.223625,-24.997532,-0.41709208,-0.5051676,-3.1471052e-05,0.23510832,0.2980863,0.0,0.0,-4.0,0.0,-2.366763,-0.013329267
1743177516213379,-29.42525,-92.31858,-24.997532,-0.37007043,-0.4453588,-3.1471052e-05,0.23510832,0.2611744,0.0,0.0,-4.0,0.0,-2.366763,-0.0051475116
1743177516413379,-29.494217,-92.40263,-24.997532,-0.31024876,-0.40621418,-2.7356276e-05,0.55510837,-0.07807733,5.143881e-05,4.0,-4.0,0.0,-2.291365,0.28638035
1743177516613379,-29.540195,-92.48923,-24.997532,-0.13597009,-0.46713018,-1.7068509e-05,0.83953553,-0.35120428,5.143881e-05,-4.0,0.0,0.0,-2.1342852,0.5926869
1743177516797379,-29.555077,-92.581856,-24.997532,-0.048222538,-0.5533837,-8.839397e-06,0.10990979,-0.76720434,-5.9604645e-08,-4.0,-4.0,0.0,-1.9897718,0.705023
1743177516997379,-29.564552,-92.71318,-24.997532,-0.048070956,-0.7868246,-8.946686e-06,-0.007919408,-1.5672042,-5.364418e-07,0.0,-4.0,0.0,-1.8326921,0.7543588
1743177517213379,-29.574835,-92.919586,-24.997532,-0.049737033,-1.2050496,-9.059541e-06,-0.007919408,-2.408719,-5.364418e-07,0.0,-4.0,0.0,-1.6630461,0.77429926
1743177517413379,-29.584503,-93.199234,-24.997532,-0.051254027,-1.7360085,-9.162299e-06,-0.007919408,-3.0,-5.364418e-07,0.0,0.0,0.0,-1.5814922,0.49227113
1743177517613379,-29.594288,-93.57918,-24.997532,-0.05274481,-2.3007421,-9.263282e-06,-0.007919408,-3.0,-5.364418e-07,0.0,0.0,0.0,-1.5817245,0.18941657
1743177517813379,-29.604263,-94.06076,-24.997532,-0.054222707,-2.8605926,-9.363391e-06,-0.007919408,-3.0,-5.364418e-07,0.0,0.0,0.0,-1.5816665,0.07344711
1743177517997379,-29.613705,-94.59724,-24.997532,-0.055585045,-3.3766704,-9.455672e-06,-0.007919408,-3.0,-5.364418e-07,0.0,0.0,0.0,-1.5811528,0.03235008
1743177518213379,-29.625076,-95.33944,-24.997532,-0.05718267,-3.9793224,-9.563891e-06,-0.007919408,-2.85706,-5.364418e-07,0.0,4.0,0.0,-1.5801617,0.014586479
1743177518413379,-29.635725,-96.12365,-24.997532,-0.057309054,-4.441032,-9.69008e-06,0.00054147094,-2.1140366,-7.748604e-07,0.0,4.0,0.0,-1.5791417,0.0087392675
1743177518613379,-29.646301,-96.97629,-24.997532,-0.057169754,-4.763414,-9.906376e-06,0.00090869516,-1.3748097,-1.4901161e-06,0.0,4.0,0.0,-1.5784484,0.0053699818
1743177518797379,-29.656021,-97.80409,-24.997532,-0.056990705,-4.9395328,-1.0254632e-05,0.0011489615,-0.6936604,-2.592802e-06,0.0,4.0,0.0,-1.5783622,0.0023952175
1743177519013379,-29.66744,-98.80466,-24.997532,-0.056774057,-4.9996777,-1.10875035e-05,0.0,0.0,0.0,0.0,0.0,0.0,-1.578813,-0.0005906786
1743177519197379,-29.677229,-99.66654,-24.997532,-0.056774057,-4.9996777,-1.14343675e-05,0.0,0.0,0.0,0.0,0.0,0.0,-1.5793809,-0.0020536599
1743177519413379,-29.688723,-100.678604,-24.997532,-0.05677387,-4.9996777,-1.1870907e-05,0.0,0.0,0.0,0.0,0.0,0.0,-1.579937,-0.0023295833
1743177519613379,-29.69936,-101.61534,-24.997532,-0.05677358,-4.9996777,-1.2305846e-05,0.0,0.0,0.0,0.0,0.0,0.0,-1.5801893,-0.0016086621
1743177519797379,-29.709143,-102.477585,-24.997532,-0.05677454,-4.9996777,-1.2735255e-05,0.0,0.0,0.0,0.0,0.0,0.0,-1.5802116,-0.0006981078
1743177520013379,-29.720608,-103.48703,-24.997532,-0.056774646,-4.9996777,-1.32778905e-05,0.0,0.0,0.0,0.0,0.0,0.0,-1.5800086,0.000406214
1743177520197379,-29.730341,-104.343636,-24.997532,-0.05677425,-4.9996777,-1.3776713e-05,0.0,0.0,0.0,0.0,0.0,0.0,-1.5796967,0.0011773399
1743177520413379,-29.741552,-105.3307,-24.997532,-0.05677314,-4.9996777,-1.4401894e-05,0.0,0.0,0.0,0.0,0.0,0.0,-1.5789636,0.0027822729
1743177520613379,-29.751558,-106.21216,-24.997532,-0.056773096,-4.9996777,-1.501308e-05,0.0,0.0,0.0,0.0,0.0,0.0,-1.5771381,0.0071081594
1743177520813379,-29.760986,-107.041855,-24.997532,-0.05677294,-4.9996777,-1.5640844e-05,0.0,0.0,0.0,0.0,0.0,0.0,-1.5732015,0.015309759
1743177521013379,-29.769714,-107.81027,-24.997532,-0.056771148,-4.9996777,-1.6272174e-05,0.0,0.0,0.0,0.0,0.0,0.0,-1.5676738,0.02312419
1743177521197379,-29.777205,-108.47013,-24.997532,-0.056771755,-4.9996777,-1.6854858e-05,0.0,0.0,0.0,0.0,0.0,0.0,-1.5621167,0.027247364
1743177521413379,-29.785582,-109.207726,-24.997532,-0.056771122,-4.9996777,-1.7553142e-05,0.0,0.0,0.0,0.0,0.0,0.0,-1.556143,0.027235145
1743177521597379,-29.79262,-109.82798,-24.997532,-0.056772567,-4.9996777,-1.8182209e-05,0.0,0.0,0.0,0.0,0.0,0.0,-1.5521998,0.023563262
1743177521797379,-29.800392,-110.51267,-24.997532,-0.056773692,-4.9996777,-1.892705e-05,0.0,0.0,0.0,0.0,0.0,0.0,-1.5495245,0.016896935
1743177521997379,-29.808458,-111.2225,-24.997532,-0.056771636,-4.9996777,-1.9763947e-05,0.0,0.0,0.0,0.0,0.0,0.0,-1.5486761,0.0086849285
1743177522213379,-29.817883,-112.0531,-24.997532,-0.05677357,-4.999677,-2.0801952e-05,0.0,0.0,0.0,0.0,0.0,0.0,-1.5497806,-0.0006686519
1743177522413379,-29.828215,-112.963234,-24.997532,-0.056775928,-4.9996777,-2.2129374e-05,0.0,0.0,0.0,0.0,0.0,0.0,-1.5524237,-0.008698745
1743177522613379,-29.838718,-113.88847,-24.997532,-0.056777105,-4.9996777,-2.3663699e-05,0.0,0.0,0.0,0.0,0.0,0.0,-1.5563091,-0.015544883
1743177522813379,-29.849546,-114.841866,-24.997532,-0.05677752,-4.9996777,-2.5484318e-05,0.0,0.0,0.0,0.0,0.0,0.0,-1.5610839,-0.020833416
1743177523013379,-29.86063,-115.81778,-24.997532,-0.05658996,-4.987804,-2.6990974e-05,0.003807947,0.30820227,-3.233552e-06,0.0,4.0,0.0,-1.5664802,-0.024710046
1743177523197379,-29.870886,-116.72048,-24.997532,-0.055401623,-4.8645983,-2.7582177e-05,0.00831978,1.0395334,-3.233552e-06,0.0,4.0,0.0,-1.5716642,-0.026747322
1743177523413379,-29.882612,-117.74077,-24.997532,-0.05311968,-4.5627127,-2.8280629e-05,0.012265667,1.5306139,-3.233552e-06,0.0,-4.0,0.0,-1.5777658,-0.027711129
1743177523613379,-29.89297,-118.62224,-24.997532,-0.050376583,-4.2518754,-2.8927343e-05,0.014726564,1.5318152,-3.233552e-06,0.0,-4.0,0.0,-1.5833117,-0.027684279
1743177523813379,-29.902742,-119.441666,-24.997532,-0.047246914,-3.9432445,-2.9574057e-05,0.016278192,1.5099989,-3.233552e-06,0.0,-4.0,0.0,-1.5886356,-0.026947143
1743177524013379,-29.911856,-120.19992,-24.997532,-0.043883767,-3.6406908,-3.0220772e-05,0.01715897,1.4719731,-3.233552e-06,0.0,-4.0,0.0,-1.5935242,-0.025293814
1743177524213379,-29.92028,-120.89852,-24.997532,-0.04040496,-3.347,-3.086748e-05,0.017518088,1.42201,-3.233552e-06,0.0,-4.0,0.0,-1.5977871,-0.022685034
1743177524413379,-29.92801,-121.53943,-24.997532,-0.03689645,-3.0642552,-3.1514184e-05,0.017544255,1.3629701,-3.233552e-06,0.0,-4.0,0.0,-1.601418,-0.019759571
1743177524613379,-29.935036,-122.125,-24.997532,-0.033387598,-2.7940588,-3.148284e-05,0.017544255,1.2969092,1.6391277e-07,0.0,-4.0,0.0,-1.6044368,-0.01676568
1743177524813379,-29.941362,-122.657936,-24.997532,-0.029878747,-2.5376356,-3.1471518e-05,0.017544255,1.2255436,-1.4901161e-08,0.0,-4.0,0.0,-1.607083,-0.014569267
1743177525013379,-29.946983,-123.141045,-24.997532,-0.026369896,-2.2959058,-3.14745e-05,0.017544255,1.1502105,-1.4901161e-08,0.0,-4.0,0.0,-1.6094855,-0.012953202
1743177525197379,-29.951536,-123.54406,-24.997532,-0.023141753,-2.0870023,-3.147104e-05,0.017544255,1.0781624,4.4703484e-08,0.0,-4.0,0.0,-1.6116084,-0.012120779
1743177525413379,-29.956123,-123.969894,-24.997532,-0.019352194,-1.8589734,-3.1473308e-05,0.017544255,0.99258834,-1.4901161e-08,0.0,-4.0,0.0,-1.6144955,-0.013090666
1743177525613379,-29.959644,-124.32195,-24.997532,-0.016094157,-1.6643516,-3.1471518e-05,-0.00074480474,0.91282237,4.4703484e-08,0.0,-4.0,0.0,-1.6177758,-0.015237528
1743177525813379,-29.962835,-124.63667,-24.997532,-0.015603727,-1.4856156,-3.1472115e-05,0.004517272,0.8339408,-1.4901161e-08,0.0,-4.0,0.0,-1.6219269,-0.018821148
1743177526013379,-29.965841,-124.91722,-24.997532,-0.014395835,-1.322459,-3.1471518e-05,0.0069428235,0.7571931,1.4901161e-08,0.0,-4.0,0.0,-1.6268966,-0.02280772
1743177526213379,-29.96857,-125.166626,-24.997532,-0.012907878,-1.174373,-3.147021e-05,0.0076501817,0.6834438,-1.4901161e-08,0.0,-4.0,0.0,-1.632868,-0.02726551
1743177526397379,-29.970816,-125.371185,-24.997532,-0.011497364,-1.0507574,-3.1471758e-05,0.007665828,0.6186912,1.4901161e-08,0.0,-4.0,0.0,-1.6394361,-0.032618336
1743177526613379,-29.973116,-125.583786,-24.997532,-0.009841545,-0.9204177,-3.1472115e-05,0.007665828,0.54846716,1.4901161e-08,0.0,-4.0,0.0,-1.6501113,-0.044242047
1743177526813379,-29.974926,-125.75689,-24.997532,-0.008308378,-0.8127712,-3.1470805e-05,0.007665828,0.48806036,-1.4901161e-08,0.0,-4.0,0.0,-1.6630163,-0.057454687
1743177527013379,-29.976448,-125.90962,-24.997532,-0.007183557,-0.7166996,-3.147045e-05,0.00082564354,0.4327529,0.0,0.0,-4.0,0.0,-1.6630163,-0.02218792
1743177527213379,-29.977839,-126.04425,-24.997532,-0.006624271,-0.63119715,-3.147093e-05,0.0036948025,0.38248166,0.0,0.0,-4.0,0.0,-1.6630163,-0.008568557
1743177527413379,-29.979122,-126.16275,-24.997532,-0.0090429885,-0.5559032,-2.9783148e-05,-0.156061,0.3456901,4.220009e-05,-4.0,0.0,0.0,-1.7069986,-0.18749975
1743177527597379,-29.98758,-126.25917,-24.997532,-0.10547022,-0.4922964,-2.201833e-05,-0.8920611,0.3456901,4.220009e-05,-4.0,0.0,0.0,-1.851512,-0.5360293
