timestamp,timestamp_sample,device_id,magnetometer_ga[0],magnetometer_ga[1],magnetometer_ga[2],calibration_count
1743177449769379,1743177449767379,197388,-0.017705493,0.18043289,0.45893693,0
1743177449897379,1743177449835379,197388,-0.01611636,0.18321607,0.45612773,0
1743177449905379,1743177449903379,197388,-0.013920728,0.18106657,0.45713514,0
1743177450033379,1743177449971379,197388,-0.016210482,0.18340248,0.45656714,0
1743177450041379,1743177450039379,197388,-0.018421177,0.17678367,0.44916397,0
1743177450169379,1743177450107379,197388,-0.016566489,0.18323049,0.4552287,0
1743177450177379,1743177450175379,197388,-0.018342836,0.17773041,0.4561328,0
1743177450305379,1743177450243379,197388,-0.014304978,0.18497787,0.45749372,0
1743177450313379,1743177450311379,197388,-0.011611624,0.18624508,0.45463437,0
1743177450441379,1743177450379379,197388,-0.016395178,0.18402854,0.4564904,0
1743177450449379,1743177450447379,197388,-0.011611616,0.18204015,0.4558462,0
1743177450577379,1743177450515379,197388,-0.015488866,0.1837068,0.45558128,0
1743177450585379,1743177450583379,197388,-0.016843732,0.18709663,0.46123433,0
1743177450713379,1743177450651379,197388,-0.015689198,0.18266347,0.45570993,0
1743177450721379,1743177450719379,197388,-0.012458338,0.19101322,0.4625736,0
1743177450849379,1743177450787379,197388,-0.015104533,0.18245523,0.45666194,0
1743177450857379,1743177450855379,197388,-0.015782971,0.18626985,0.45691806,0
1743177450985379,1743177450923379,197388,-0.014590565,0.1827182,0.4565869,0
1743177450993379,1743177450991379,197388,-0.011583192,0.18500662,0.45371276,0
1743177451121379,1743177451059379,197388,-0.014560862,0.18374081,0.45573708,0
1743177451129379,1743177451127379,197388,-0.01773097,0.18556613,0.45524764,0
1743177451257379,1743177451195379,197388,-0.014437272,0.18401778,0.455232,0
1743177451265379,1743177451263379,197388,-0.01399429,0.1785118,0.4611153,0
1743177451393379,1743177451331379,197388,-0.014862027,0.18193285,0.4548678,0
1743177451401379,1743177451399379,197388,-0.018269643,0.18202847,0.45516297,0
1743177451529379,1743177451467379,197388,-0.01571858,0.18451956,0.4541619,0
1743177451537379,1743177451535379,197388,-0.012653207,0.18658683,0.45617086,0
1743177451665379,1743177451603379,197388,-0.015738174,0.18421207,0.45577422,0
1743177451673379,1743177451671379,197388,-0.015831172,0.17815804,0.44917467,0
1743177451801379,1743177451739379,197388,-0.0140811615,0.18542281,0.45624053,0
1743177451809379,1743177451807379,197388,-0.017348694,0.18609251,0.45509773,0
1743177451937379,1743177451875379,197388,-0.015133589,0.18442424,0.45526093,0
1743177451945379,1743177451943379,197388,-0.0118358135,0.1860025,0.45912105,0
1743177452073379,1743177452011379,197388,-0.015685676,0.18232387,0.45741364,0
1743177452081379,1743177452079379,197388,-0.013841262,0.18205518,0.46194443,0
1743177452209379,1743177452147379,197388,-0.014682865,0.18531354,0.4565542,0
1743177452217379,1743177452215379,197388,-0.00816404,0.17978108,0.4577179,0
1743177452345379,1743177452283379,197388,-0.016353976,0.18199535,0.45783216,0
1743177452353379,1743177452351379,197388,-0.009326325,0.18241894,0.44484758,0
1743177452481379,1743177452419379,197388,-0.017137323,0.18460599,0.45767355,0
1743177452489379,1743177452487379,197388,-0.019469917,0.1809757,0.45493162,0
1743177452617379,1743177452555379,197388,-0.014704556,0.1835331,0.4548506,0
1743177452625379,1743177452623379,197388,-0.013187896,0.17898756,0.45186555,0
1743177452753379,1743177452691379,197388,-0.015604379,0.1828913,0.45604816,0
1743177452761379,1743177452759379,197388,-0.013795572,0.17828572,0.46323615,0
1743177452889379,1743177452827379,197388,-0.014024561,0.18423893,0.45385495,0
1743177452897379,1743177452895379,197388,-0.010477893,0.18371162,0.45997214,0
1743177453025379,1743177452963379,197388,-0.016336847,0.18350075,0.45539778,0
1743177453033379,1743177453031379,197388,-0.016589867,0.18515977,0.4641255,0
1743177453161379,1743177453099379,197388,-0.01571608,0.1829073,0.4548892,0
1743177453169379,1743177453167379,197388,-0.019541375,0.18496893,0.46066836,0
1743177453297379,1743177453235379,197388,-0.015352947,0.1834994,0.45656067,0
1743177453305379,1743177453303379,197388,-0.012644558,0.18166341,0.45753598,0
1743177453433379,1743177453371379,197388,-0.015043308,0.18444641,0.4551933,0
1743177453441379,1743177453439379,197388,-0.015711818,0.18465754,0.45154065,0
1743177453569379,1743177453507379,197388,-0.015854908,0.18312606,0.45697305,0
1743177453577379,1743177453575379,197388,-0.017334338,0.1846238,0.45942214,0
1743177453705379,1743177453643379,197388,-0.0149856545,0.18352199,0.45533508,0
1743177453713379,1743177453711379,197388,-0.014051922,0.18641204,0.44904256,0
1743177453841379,1743177453779379,197388,-0.014859734,0.18348473,0.45718068,0
1743177453849379,1743177453847379,197388,-0.016427794,0.18176973,0.4582457,0
1743177453977379,1743177453915379,197388,-0.017051293,0.18367797,0.455256,0
1743177453985379,1743177453983379,197388,-0.012513248,0.18268888,0.46061373,0
1743177454113379,1743177454051379,197388,-0.015050388,0.18419133,0.4569914,0
1743177454121379,1743177454119379,197388,-0.016751241,0.17597584,0.45247424,0
1743177454249379,1743177454187379,197388,-0.015134304,0.18390587,0.4578306,0
1743177454257379,1743177454255379,197388,-0.012756611,0.17635202,0.4593529,0
1743177454385379,1743177454323379,197388,-0.015374799,0.18413447,0.45554373,0
1743177454393379,1743177454391379,197388,-0.018482536,0.17844248,0.4598594,0
1743177454521379,1743177454459379,197388,-0.0138824135,0.18218096,0.4544618,0
1743177454529379,1743177454527379,197388,-0.019241633,0.17849392,0.45874912,0
1743177454657379,1743177454595379,197388,-0.015178692,0.1819421,0.4576199,0
1743177454665379,1743177454663379,197388,-0.013082219,0.18276072,0.46401584,0
1743177454793379,1743177454731379,197388,-0.016306179,0.18560708,0.45608038,0
1743177454801379,1743177454799379,197388,-0.013936947,0.18102747,0.4638347,0
1743177454929379,1743177454867379,197388,-0.016474515,0.18363297,0.45483288,0
1743177454937379,1743177454935379,197388,-0.010868136,0.18164039,0.45774946,0
1743177455065379,1743177455003379,197388,-0.014792573,0.18290934,0.45623904,0
1743177455073379,1743177455071379,197388,-0.0138471555,0.18843898,0.45752662,0
1743177455201379,1743177455139379,197388,-0.016337434,0.18293035,0.45649126,0
1743177455209379,1743177455207379,197388,-0.009166462,0.18305573,0.4571349,0
1743177455337379,1743177455275379,197388,-0.014547575,0.18366571,0.4561958,0
1743177455345379,1743177455343379,197388,-0.014072555,0.17949617,0.45756567,0
1743177455473379,1743177455411379,197388,-0.015007998,0.18439415,0.45647192,0
1743177455481379,1743177455479379,197388,-0.0112875365,0.18480854,0.4569198,0
1743177455609379,1743177455547379,197388,-0.015953839,0.18366098,0.4568752,0
1743177455617379,1743177455615379,197388,-0.018795405,0.18843836,0.45518512,0
1743177455745379,1743177455683379,197388,-0.016843555,0.1821914,0.4572163,0
1743177455753379,1743177455751379,197388,-0.013236911,0.18205488,0.45949602,0
1743177455881379,1743177455819379,197388,-0.0140032265,0.1843943,0.45692497,0
1743177455889379,1743177455887379,197388,-0.020320566,0.17585851,0.45372728,0
1743177456017379,1743177455955379,197388,-0.018716082,0.18243666,0.4558685,0
1743177456025379,1743177456023379,197388,-0.018409343,0.17280638,0.45483306,0
1743177456153379,1743177456091379,197388,-0.016814368,0.18169412,0.45688003,0
1743177456161379,1743177456159379,197388,-0.014393069,0.18196143,0.45465055,0
1743177456289379,1743177456227379,197388,-0.016014839,0.1801638,0.4563896,0
1743177456297379,1743177456295379,197388,-0.013021674,0.18020472,0.45896217,0
1743177456425379,1743177456363379,197388,-0.017726136,0.18091592,0.45596462,0
1743177456433379,1743177456431379,197388,-0.021308219,0.17980406,0.45117438,0
1743177456561379,1743177456499379,197388,-0.018025912,0.17981592,0.4599001,0
1743177456569379,1743177456567379,197388,-0.021778338,0.17694628,0.4507473,0
1743177456697379,1743177456635379,197388,-0.01718162,0.17786764,0.45625198,0
1743177456705379,1743177456703379,197388,-0.021997154,0.17405143,0.45915577,0
1743177456833379,1743177456771379,197388,-0.016684512,0.17846453,0.4582561,0
1743177456841379,1743177456839379,197388,-0.0154903885,0.17718199,0.45607603,0
1743177456969379,1743177456907379,197388,-0.01712477,0.1769373,0.45783937,0
1743177456977379,1743177456975379,197388,-0.015352643,0.17633791,0.4573053,0
1743177457105379,1743177457043379,197388,-0.016778963,0.1773773,0.4569087,0
1743177457113379,1743177457111379,197388,-0.01588696,0.17444703,0.4595421,0
1743177457241379,1743177457179379,197388,-0.017502237,0.17671627,0.45797497,0
1743177457249379,1743177457247379,197388,-0.018683527,0.18195958,0.4604331,0
1743177457377379,1743177457315379,197388,-0.016656624,0.17806178,0.45723873,0
1743177457385379,1743177457383379,197388,-0.02270241,0.17941403,0.4580319,0
1743177457513379,1743177457451379,197388,-0.017358802,0.17828043,0.45908162,0
1743177457521379,1743177457519379,197388,-0.019244265,0.17788973,0.4580281,0
1743177457649379,1743177457587379,197388,-0.017297855,0.17805289,0.45686516,0
1743177457657379,1743177457655379,197388,-0.018361028,0.17280307,0.45699754,0
1743177457785379,1743177457723379,197388,-0.018321184,0.17967685,0.45883957,0
1743177457793379,1743177457791379,197388,-0.015956858,0.18278773,0.4593526,0
1743177457921379,1743177457859379,197388,-0.016599212,0.17957439,0.45634004,0
1743177457929379,1743177457927379,197388,-0.01816851,0.17814396,0.45743853,0
1743177458057379,1743177457995379,197388,-0.016125368,0.1835609,0.45514947,0
1743177458065379,1743177458063379,197388,-0.009157168,0.19156267,0.44308272,0
1743177458193379,1743177458131379,197388,-0.007473213,0.19888698,0.44716525,0
1743177458201379,1743177458199379,197388,-0.0085480865,0.19913253,0.45238596,0
1743177458329379,1743177458267379,197388,-0.01037915,0.19769923,0.4497471,0
1743177458337379,1743177458335379,197388,-0.0063942224,0.1900121,0.44316995,0
1743177458465379,1743177458403379,197388,-0.012092664,0.1934865,0.45342672,0
1743177458473379,1743177458471379,197388,-0.004143062,0.19263408,0.44415653,0
1743177458601379,1743177458539379,197388,-0.012057183,0.19223438,0.4523991,0
1743177458609379,1743177458607379,197388,-0.013297148,0.19711414,0.45671892,0
1743177458737379,1743177458675379,197388,-0.013352998,0.19215514,0.45493627,0
1743177458745379,1743177458743379,197388,-0.016451772,0.19301897,0.45857885,0
1743177458873379,1743177458811379,197388,-0.01366255,0.18934885,0.45301253,0
1743177458881379,1743177458879379,197388,-0.015796993,0.18943788,0.46025428,0
1743177459009379,1743177458947379,197388,-0.014395597,0.18662965,0.4541933,0
1743177459017379,1743177459015379,197388,-0.012628183,0.18542564,0.45807678,0
1743177459145379,1743177459083379,197388,-0.0150318425,0.18438427,0.45530117,0
1743177459153379,1743177459151379,197388,-0.012867244,0.18738453,0.45740092,0
1743177459281379,1743177459219379,197388,-0.01308878,0.18332121,0.4564121,0
1743177459289379,1743177459287379,197388,-0.017490642,0.17894381,0.45470756,0
1743177459417379,1743177459355379,197388,-0.01711022,0.1844461,0.45580608,0
1743177459425379,1743177459423379,197388,-0.018236391,0.17851077,0.45400685,0
1743177459553379,1743177459491379,197388,-0.014560342,0.18340544,0.45620206,0
1743177459561379,1743177459559379,197388,-0.018772872,0.18220091,0.4585868,0
1743177459689379,1743177459627379,197388,-0.016856432,0.18269534,0.45519686,0
1743177459697379,1743177459695379,197388,-0.014188383,0.18586656,0.45701614,0
1743177459825379,1743177459763379,197388,-0.015091449,0.18408127,0.4558195,0
1743177459833379,1743177459831379,197388,-0.012759886,0.1811742,0.45744565,0
1743177459961379,1743177459899379,197388,-0.015464627,0.1816658,0.45471194,0
1743177459969379,1743177459967379,197388,-0.015602324,0.18159297,0.45380276,0
1743177460097379,1743177460035379,197388,-0.014691078,0.1825522,0.45673177,0
1743177460105379,1743177460103379,197388,-0.0095436815,0.17885318,0.45662767,0
1743177460233379,1743177460171379,197388,-0.015913846,0.1819877,0.45523852,0
1743177460241379,1743177460239379,197388,-0.012123426,0.18269512,0.45697945,0
1743177460369379,1743177460307379,197388,-0.0138817355,0.18244031,0.45555502,0
1743177460377379,1743177460375379,197388,-0.014019387,0.18366055,0.45165342,0
1743177460505379,1743177460443379,197388,-0.012729052,0.18309231,0.4571542,0
1743177460513379,1743177460511379,197388,-0.008449629,0.18421453,0.45707494,0
1743177460641379,1743177460579379,197388,-0.0136251515,0.18354186,0.4552866,0
1743177460649379,1743177460647379,197388,-0.011611475,0.18300976,0.46309787,0
1743177460777379,1743177460715379,197388,-0.010779977,0.18497913,0.4532709,0
1743177460785379,1743177460783379,197388,-0.0139848925,0.18937054,0.45725864,0
1743177460913379,1743177460851379,197388,-0.00943186,0.1860583,0.45379773,0
1743177460921379,1743177460919379,197388,-0.004777386,0.19543597,0.45628244,0
1743177461049379,1743177460987379,197388,-0.00828613,0.19029711,0.45342016,0
1743177461057379,1743177461055379,197388,-0.0068233944,0.19588822,0.45324028,0
1743177461185379,1743177461123379,197388,-0.002157572,0.196017,0.4518565,0
1743177461193379,1743177461191379,197388,-0.004673644,0.1947494,0.44630718,0
1743177461321379,1743177461259379,197388,0.0031830212,0.20114426,0.44825813,0
1743177461329379,1743177461327379,197388,0.0029043318,0.20244011,0.4476303,0
1743177461457379,1743177461395379,197388,0.0064417967,0.2056545,0.4455885,0
1743177461465379,1743177461463379,197388,0.013808794,0.21238813,0.44243202,0
1743177461593379,1743177461531379,197388,0.012025447,0.21048293,0.44343847,0
1743177461601379,1743177461599379,197388,0.02050586,0.21900377,0.4446394,0
1743177461729379,1743177461667379,197388,0.01820639,0.21737981,0.44172207,0
1743177461737379,1743177461735379,197388,0.024127852,0.22334275,0.44126686,0
1743177461865379,1743177461803379,197388,0.0221346,0.22234541,0.43723986,0
1743177461873379,1743177461871379,197388,0.022922609,0.22718948,0.43751505,0
1743177462001379,1743177461939379,197388,0.025285963,0.22672321,0.43647456,0
1743177462009379,1743177462007379,197388,0.021697655,0.22329348,0.43507445,0
1743177462137379,1743177462075379,197388,0.027496573,0.22806424,0.43321756,0
1743177462145379,1743177462143379,197388,0.036734525,0.22820991,0.433846,0
1743177462273379,1743177462211379,197388,0.029788043,0.23122665,0.43405914,0
1743177462281379,1743177462279379,197388,0.03270117,0.22891507,0.4395908,0
1743177462409379,1743177462347379,197388,0.031813424,0.2310942,0.43216574,0
1743177462417379,1743177462415379,197388,0.030359402,0.23330095,0.4305128,0
1743177462545379,1743177462483379,197388,0.032375675,0.2326471,0.4311867,0
1743177462553379,1743177462551379,197388,0.031945605,0.2429715,0.42713434,0
1743177462681379,1743177462619379,197388,0.031134818,0.2340014,0.42975092,0
1743177462689379,1743177462687379,197388,0.034279827,0.23126478,0.43860888,0
1743177462817379,1743177462755379,197388,0.028798012,0.23425266,0.433175,0
1743177462825379,1743177462823379,197388,0.027489336,0.23799154,0.43222296,0
1743177462953379,1743177462891379,197388,0.02861316,0.23601334,0.42961648,0
1743177462961379,1743177462959379,197388,0.025011001,0.23209548,0.43665797,0
1743177463089379,1743177463027379,197388,0.029830346,0.23665112,0.42987046,0
1743177463097379,1743177463095379,197388,0.030983793,0.23777488,0.42859972,0
1743177463225379,1743177463163379,197388,0.026500553,0.23699072,0.43138552,0
1743177463233379,1743177463231379,197388,0.026772927,0.23550864,0.4275065,0
1743177463361379,1743177463299379,197388,0.02548201,0.23557208,0.43204784,0
1743177463369379,1743177463367379,197388,0.028157994,0.24032891,0.43325818,0
1743177463497379,1743177463435379,197388,0.02730501,0.23495024,0.4314924,0
1743177463505379,1743177463503379,197388,0.027193947,0.2377522,0.43211782,0
1743177463633379,1743177463571379,197388,0.02683823,0.2344359,0.43212885,0
1743177463641379,1743177463639379,197388,0.02774616,0.23533356,0.4312508,0
1743177463769379,1743177463707379,197388,0.028661987,0.23316601,0.43186873,0
1743177463777379,1743177463775379,197388,0.025439892,0.23344165,0.4356271,0
1743177463905379,1743177463843379,197388,0.029569928,0.23226511,0.43167508,0
1743177463913379,1743177463911379,197388,0.02695461,0.22945315,0.43715143,0
1743177464041379,1743177463979379,197388,0.029547796,0.2326321,0.43410137,0
1743177464049379,1743177464047379,197388,0.031343535,0.23264922,0.4333381,0
1743177464177379,1743177464115379,197388,0.03018321,0.2297632,0.43340656,0
1743177464185379,1743177464183379,197388,0.031104166,0.22598037,0.4249667,0
1743177464313379,1743177464251379,197388,0.03035161,0.22920385,0.4319723,0
1743177464321379,1743177464319379,197388,0.030868396,0.22403684,0.43912357,0
1743177464449379,1743177464387379,197388,0.03134965,0.22916289,0.43311116,0
1743177464457379,1743177464455379,197388,0.033352345,0.22661924,0.43731982,0
1743177464585379,1743177464523379,197388,0.030340068,0.22817744,0.43319666,0
1743177464593379,1743177464591379,197388,0.033952836,0.23461747,0.42914274,0
1743177464721379,1743177464659379,197388,0.031724215,0.22946705,0.43423086,0
1743177464729379,1743177464727379,197388,0.038079333,0.22894645,0.42751473,0
1743177464857379,1743177464795379,197388,0.0304539,0.22939812,0.4353181,0
1743177464865379,1743177464863379,197388,0.02513211,0.22599751,0.43601444,0
1743177464993379,1743177464931379,197388,0.031451166,0.22948384,0.4336805,0
1743177465001379,1743177464999379,197388,0.030634988,0.22834975,0.42998126,0
1743177465129379,1743177465067379,197388,0.03279446,0.22716801,0.43283534,0
1743177465137379,1743177465135379,197388,0.036998637,0.23331276,0.43437994,0
1743177465265379,1743177465203379,197388,0.03305367,0.22965571,0.43262237,0
1743177465273379,1743177465271379,197388,0.03194567,0.23056263,0.43723515,0
1743177465401379,1743177465339379,197388,0.033853915,0.2288314,0.43385333,0
1743177465409379,1743177465407379,197388,0.031057475,0.23015308,0.43600452,0
1743177465537379,1743177465475379,197388,0.033489242,0.22957751,0.43373147,0
1743177465545379,1743177465543379,197388,0.038560912,0.229367,0.43249628,0
1743177465673379,1743177465611379,197388,0.03302177,0.2299567,0.43449068,0
1743177465681379,1743177465679379,197388,0.032042924,0.22948402,0.43428412,0
1743177465809379,1743177465747379,197388,0.03347068,0.2285815,0.4351087,0
1743177465817379,1743177465815379,197388,0.031567078,0.22960131,0.43092084,0
1743177465945379,1743177465883379,197388,0.034989815,0.22974569,0.43472704,0
1743177465953379,1743177465951379,197388,0.040765103,0.23121291,0.43509912,0
1743177466081379,1743177466019379,197388,0.038016535,0.22846438,0.4334153,0
1743177466089379,1743177466087379,197388,0.036287643,0.23023853,0.4318031,0
1743177466217379,1743177466155379,197388,0.037900813,0.23072161,0.43348423,0
1743177466225379,1743177466223379,197388,0.039034173,0.23034903,0.43690002,0
1743177466353379,1743177466291379,197388,0.038164645,0.23107168,0.43229797,0
1743177466361379,1743177466359379,197388,0.034615837,0.23147586,0.43394572,0
1743177466489379,1743177466427379,197388,0.038503613,0.23102218,0.43139067,0
1743177466497379,1743177466495379,197388,0.029089421,0.23719904,0.43612492,0
1743177466625379,1743177466563379,197388,0.039811414,0.22954093,0.43237793,0
1743177466633379,1743177466631379,197388,0.0330307,0.23199925,0.42956764,0
1743177466761379,1743177466699379,197388,0.04017977,0.23370025,0.4323442,0
1743177466769379,1743177466767379,197388,0.0404248,0.23851165,0.4336182,0
1743177466897379,1743177466835379,197388,0.039526727,0.23406875,0.43325996,0
1743177466905379,1743177466903379,197388,0.03004108,0.23281035,0.42987436,0
1743177467033379,1743177466971379,197388,0.038847305,0.23481943,0.43176952,0
1743177467041379,1743177467039379,197388,0.030469608,0.22985381,0.43306398,0
1743177467169379,1743177467107379,197388,0.03871156,0.23375691,0.4321991,0
1743177467177379,1743177467175379,197388,0.04006856,0.23770231,0.432913,0
1743177467305379,1743177467243379,197388,0.039336823,0.23386447,0.4314474,0
1743177467313379,1743177467311379,197388,0.038525037,0.22725055,0.43418023,0
1743177467441379,1743177467379379,197388,0.039659563,0.23338531,0.43220082,0
1743177467449379,1743177467447379,197388,0.038797937,0.23461446,0.4311598,0
1743177467577379,1743177467515379,197388,0.038736947,0.23301338,0.43217707,0
1743177467585379,1743177467583379,197388,0.036199056,0.238911,0.42984527,0
1743177467713379,1743177467651379,197388,0.039110556,0.23232394,0.43169382,0
1743177467721379,1743177467719379,197388,0.0388754,0.23505846,0.43230262,0
1743177467849379,1743177467787379,197388,0.038528867,0.23276344,0.4308791,0
1743177467857379,1743177467855379,197388,0.037226737,0.23614281,0.43512994,0
1743177467985379,1743177467923379,197388,0.03821146,0.23338127,0.43177062,0
1743177467993379,1743177467991379,197388,0.035959475,0.23549312,0.42695254,0
1743177468121379,1743177468059379,197388,0.037275076,0.23340103,0.4316857,0
1743177468129379,1743177468127379,197388,0.038659245,0.228006,0.43353015,0
1743177468257379,1743177468195379,197388,0.03649776,0.23155202,0.43112868,0
1743177468265379,1743177468263379,197388,0.041347086,0.23454356,0.4358242,0
1743177468393379,1743177468331379,197388,0.037730444,0.2326521,0.43218368,0
1743177468401379,1743177468399379,197388,0.04021387,0.23323163,0.43140057,0
1743177468529379,1743177468467379,197388,0.037146993,0.23244539,0.43189186,0
1743177468537379,1743177468535379,197388,0.03952369,0.2323051,0.43305302,0
1743177468665379,1743177468603379,197388,0.037324056,0.23177971,0.43071058,0
1743177468673379,1743177468671379,197388,0.036208615,0.22993973,0.43894637,0
1743177468801379,1743177468739379,197388,0.03786828,0.23163292,0.43338853,0
1743177468809379,1743177468807379,197388,0.035206005,0.2312402,0.4321873,0
1743177468937379,1743177468875379,197388,0.037866782,0.23118515,0.43155843,0
1743177468945379,1743177468943379,197388,0.038646035,0.23509443,0.43256435,0
1743177469073379,1743177469011379,197388,0.038833685,0.23140992,0.43329415,0
1743177469081379,1743177469079379,197388,0.038386904,0.22605759,0.42826065,0
1743177469209379,1743177469147379,197388,0.038231745,0.2323176,0.43231094,0
1743177469217379,1743177469215379,197388,0.045438934,0.23262371,0.43593198,0
1743177469345379,1743177469283379,197388,0.03714728,0.2308026,0.43203405,0
1743177469353379,1743177469351379,197388,0.04131209,0.2271252,0.4321442,0
1743177469481379,1743177469419379,197388,0.039617866,0.22922158,0.43106306,0
1743177469489379,1743177469487379,197388,0.03334096,0.23161727,0.4282762,0
1743177469617379,1743177469555379,197388,0.039193623,0.23293361,0.43013477,0
1743177469625379,1743177469623379,197388,0.04350379,0.23451686,0.4373865,0
1743177469753379,1743177469691379,197388,0.041701265,0.24070027,0.4278387,0
1743177469761379,1743177469759379,197388,0.043018512,0.23320413,0.42561853,0
1743177469889379,1743177469827379,197388,0.04236546,0.23785223,0.42698985,0
1743177469897379,1743177469895379,197388,0.04074022,0.23535696,0.43035653,0
1743177470025379,1743177469963379,197388,0.04032675,0.23036578,0.43112433,0
1743177470033379,1743177470031379,197388,0.037095763,0.2223929,0.43364775,0
1743177470161379,1743177470099379,197388,0.03971725,0.22899121,0.4322744,0
1743177470169379,1743177470167379,197388,0.038038746,0.23460142,0.43523028,0
1743177470297379,1743177470235379,197388,0.05344638,0.23210834,0.43138495,0
1743177470305379,1743177470303379,197388,0.06473939,0.2338695,0.42870423,0
1743177470433379,1743177470371379,197388,0.07613666,0.23128685,0.4271032,0
1743177470441379,1743177470439379,197388,0.08841331,0.23330906,0.43075776,0
1743177470569379,1743177470507379,197388,0.1059922,0.2240512,0.42582196,0
1743177470577379,1743177470575379,197388,0.11766021,0.22259083,0.42829755,0
1743177470705379,1743177470643379,197388,0.12970717,0.21865115,0.4202173,0
1743177470713379,1743177470711379,197388,0.13857667,0.21409792,0.4161152,0
1743177470841379,1743177470779379,197388,0.15303773,0.21410026,0.41683277,0
1743177470849379,1743177470847379,197388,0.16101569,0.21135369,0.4084189,0
1743177470977379,1743177470915379,197388,0.16104275,0.20897038,0.41402274,0
1743177470985379,1743177470983379,197388,0.15687688,0.20668921,0.4178832,0
1743177471113379,1743177471051379,197388,0.14634061,0.2121176,0.41791037,0
1743177471121379,1743177471119379,197388,0.13860306,0.2133266,0.41993332,0
1743177471249379,1743177471187379,197388,0.1267734,0.21473807,0.42323196,0
1743177471257379,1743177471255379,197388,0.11627217,0.21994027,0.4255424,0
1743177471385379,1743177471323379,197388,0.10668047,0.21964113,0.42690894,0
1743177471393379,1743177471391379,197388,0.09606075,0.22503483,0.4300055,0
1743177471521379,1743177471459379,197388,0.085717574,0.22297817,0.42850393,0
1743177471529379,1743177471527379,197388,0.073398575,0.22215569,0.43013823,0
1743177471657379,1743177471595379,197388,0.06460948,0.22605322,0.43092284,0
1743177471665379,1743177471663379,197388,0.050698206,0.22476757,0.43445244,0
1743177471793379,1743177471731379,197388,0.04411333,0.22804368,0.43284598,0
1743177471801379,1743177471799379,197388,0.038726784,0.22353745,0.43410084,0
1743177471929379,1743177471867379,197388,0.022628104,0.23068427,0.4322209,0
1743177471937379,1743177471935379,197388,0.014245652,0.22669405,0.42895907,0
1743177472065379,1743177472003379,197388,0.0037883928,0.23334256,0.43271166,0
1743177472073379,1743177472071379,197388,-0.002037338,0.2349115,0.43514913,0
1743177472201379,1743177472139379,197388,0.0026223678,0.23443447,0.4319567,0
1743177472209379,1743177472207379,197388,0.010141737,0.23293465,0.4299479,0
1743177472337379,1743177472275379,197388,0.019130165,0.231634,0.43188047,0
1743177472345379,1743177472343379,197388,0.02314019,0.22296952,0.43277904,0
1743177472473379,1743177472411379,197388,0.039459944,0.23066656,0.43311685,0
1743177472481379,1743177472479379,197388,0.041298635,0.21881944,0.42835975,0
1743177472609379,1743177472547379,197388,0.052535877,0.22715718,0.4317172,0
1743177472617379,1743177472615379,197388,0.06022282,0.22847882,0.4325828,0
1743177472745379,1743177472683379,197388,0.06934675,0.22435232,0.4302257,0
1743177472753379,1743177472751379,197388,0.075334325,0.22152865,0.43103236,0
1743177472881379,1743177472819379,197388,0.07905154,0.22278996,0.43151227,0
1743177472889379,1743177472887379,197388,0.07553068,0.22569036,0.4274614,0
1743177473017379,1743177472955379,197388,0.0849768,0.22299711,0.431729,0
1743177473025379,1743177473023379,197388,0.08884829,0.22060129,0.4307589,0
1743177473153379,1743177473091379,197388,0.08557646,0.2214758,0.42956835,0
1743177473161379,1743177473159379,197388,0.083943054,0.21517749,0.43192047,0
1743177473289379,1743177473227379,197388,0.08548079,0.22176345,0.43042898,0
1743177473297379,1743177473295379,197388,0.0878281,0.21562928,0.43447673,0
1743177473425379,1743177473363379,197388,0.08316288,0.22276154,0.43162724,0
1743177473433379,1743177473431379,197388,0.08316336,0.22212088,0.43411696,0
1743177473561379,1743177473499379,197388,0.07905591,0.22153407,0.43238604,0
1743177473569379,1743177473567379,197388,0.07867313,0.21173611,0.43495667,0
1743177473697379,1743177473635379,197388,0.07442144,0.20944163,0.43848917,0
1743177473705379,1743177473703379,197388,0.06547293,0.20276362,0.4355053,0
1743177473833379,1743177473771379,197388,0.05932006,0.19011815,0.44947386,0
1743177473841379,1743177473839379,197388,0.047758386,0.18976846,0.45555893,0
1743177473969379,1743177473907379,197388,0.03848399,0.1937051,0.45221514,0
1743177473977379,1743177473975379,197388,0.03008033,0.19793618,0.44782507,0
1743177474105379,1743177474043379,197388,0.018655483,0.20127627,0.448186,0
1743177474113379,1743177474111379,197388,0.012166261,0.19595724,0.4458502,0
1743177474241379,1743177474179379,197388,0.0052404576,0.19049832,0.4535343,0
1743177474249379,1743177474247379,197388,-0.005267404,0.18439057,0.45672762,0
1743177474377379,1743177474315379,197388,-0.005568408,0.17765649,0.45650676,0
1743177474385379,1743177474383379,197388,-0.01660322,0.17732283,0.46673438,0
1743177474513379,1743177474451379,197388,-0.016962789,0.1781482,0.4572486,0
1743177474521379,1743177474519379,197388,-0.020723097,0.1796206,0.45701164,0
1743177474649379,1743177474587379,197388,-0.026895784,0.1919425,0.45185906,0
1743177474657379,1743177474655379,197388,-0.033760913,0.19921426,0.4479729,0
1743177474785379,1743177474723379,197388,-0.03860875,0.21421075,0.4410693,0
1743177474793379,1743177474791379,197388,-0.040904917,0.22611994,0.43420658,0
1743177474921379,1743177474859379,197388,-0.04672722,0.23196006,0.4308409,0
1743177474929379,1743177474927379,197388,-0.049543075,0.23698431,0.4268954,0
1743177475057379,1743177474995379,197388,-0.04627508,0.23547904,0.42870033,0
1743177475065379,1743177475063379,197388,-0.04084366,0.23583518,0.43011427,0
1743177475193379,1743177475131379,197388,-0.030327491,0.23588915,0.43004265,0
1743177475201379,1743177475199379,197388,-0.01906534,0.23510844,0.43193638,0
1743177475329379,1743177475267379,197388,-0.008806959,0.23168957,0.4333317,0
1743177475337379,1743177475335379,197388,0.0013258166,0.22740902,0.4345012,0
1743177475465379,1743177475403379,197388,0.0038677785,0.22544543,0.43754503,0
1743177475473379,1743177475471379,197388,0.0007354715,0.22166258,0.44081306,0
1743177475601379,1743177475539379,197388,-0.0030230584,0.22687402,0.43533766,0
1743177475609379,1743177475607379,197388,-0.007812689,0.23337702,0.43173158,0
1743177475737379,1743177475675379,197388,-0.017490476,0.2324639,0.4335857,0
1743177475745379,1743177475743379,197388,-0.02386581,0.23581664,0.43011427,0
1743177475873379,1743177475811379,197388,-0.038824704,0.23910773,0.4271175,0
1743177475881379,1743177475879379,197388,-0.050309457,0.24096708,0.41985202,0
1743177476009379,1743177475947379,197388,-0.0680318,0.24270976,0.42233154,0
1743177476017379,1743177476015379,197388,-0.074897625,0.2358514,0.42035937,0
1743177476145379,1743177476083379,197388,-0.08889529,0.23489493,0.4224204,0
1743177476153379,1743177476151379,197388,-0.088307425,0.2335363,0.42615855,0
1743177476281379,1743177476219379,197388,-0.09202385,0.22913316,0.42450893,0
1743177476289379,1743177476287379,197388,-0.100776345,0.2242715,0.4241206,0
1743177476417379,1743177476355379,197388,-0.10088225,0.22242637,0.4267563,0
1743177476425379,1743177476423379,197388,-0.10562018,0.2169131,0.424895,0
1743177476553379,1743177476491379,197388,-0.10906438,0.21852563,0.4269685,0
1743177476561379,1743177476559379,197388,-0.11695083,0.21559538,0.4323468,0
1743177476689379,1743177476627379,197388,-0.11833573,0.2136054,0.4268568,0
1743177476697379,1743177476695379,197388,-0.1262221,0.2159452,0.42662024,0
1743177476825379,1743177476763379,197388,-0.14001074,0.21196166,0.4209991,0
1743177476833379,1743177476831379,197388,-0.15234518,0.21408583,0.419895,0
1743177476961379,1743177476899379,197388,-0.1646337,0.21208356,0.4127633,0
1743177476969379,1743177476967379,197388,-0.1750834,0.20515949,0.4074747,0
1743177477097379,1743177477035379,197388,-0.17574571,0.21271469,0.40656915,0
1743177477105379,1743177477103379,197388,-0.17660475,0.2162191,0.404984,0
1743177477233379,1743177477171379,197388,-0.17442818,0.21579707,0.40601796,0
1743177477241379,1743177477239379,197388,-0.17201081,0.22001106,0.4071901,0
1743177477369379,1743177477307379,197388,-0.1733375,0.21366102,0.4077289,0
1743177477377379,1743177477375379,197388,-0.16905308,0.20786469,0.40928453,0
1743177477505379,1743177477443379,197388,-0.1694481,0.21193671,0.40801513,0
1743177477513379,1743177477511379,197388,-0.17002949,0.20172702,0.4081137,0
1743177477641379,1743177477579379,197388,-0.16979857,0.20942113,0.41206783,0
1743177477649379,1743177477647379,197388,-0.16936699,0.20954525,0.4195218,0
1743177477777379,1743177477715379,197388,-0.17034164,0.2022506,0.41482264,0
1743177477785379,1743177477783379,197388,-0.17068878,0.19332439,0.41446102,0
1743177477913379,1743177477851379,197388,-0.17409611,0.19566825,0.41638547,0
1743177477921379,1743177477919379,197388,-0.16874248,0.18900752,0.425832,0
1743177478049379,1743177477987379,197388,-0.17766008,0.18789156,0.41869816,0
1743177478057379,1743177478055379,197388,-0.17865634,0.18810463,0.42033336,0
1743177478185379,1743177478123379,197388,-0.17823215,0.18113722,0.4200195,0
1743177478193379,1743177478191379,197388,-0.17754409,0.17311716,0.42230615,0
1743177478321379,1743177478259379,197388,-0.18243124,0.17485332,0.4209108,0
1743177478329379,1743177478327379,197388,-0.18012744,0.17498869,0.4240806,0
1743177478457379,1743177478395379,197388,-0.1838014,0.16802828,0.42244738,0
1743177478465379,1743177478463379,197388,-0.1922195,0.16620214,0.4270481,0
1743177478593379,1743177478531379,197388,-0.18746246,0.16418621,0.42326894,0
1743177478601379,1743177478599379,197388,-0.18349914,0.15499425,0.4141103,0
1743177478729379,1743177478667379,197388,-0.18814,0.15747496,0.42668748,0
1743177478737379,1743177478735379,197388,-0.19573873,0.1539828,0.4278874,0
1743177478865379,1743177478803379,197388,-0.18970776,0.15215278,0.42381787,0
1743177478873379,1743177478871379,197388,-0.19115669,0.1480464,0.42085296,0
1743177479001379,1743177478939379,197388,-0.19095255,0.14826904,0.42836782,0
1743177479009379,1743177479007379,197388,-0.20003784,0.1496942,0.4251243,0
1743177479137379,1743177479075379,197388,-0.19268255,0.14148411,0.42809194,0
1743177479145379,1743177479143379,197388,-0.18721439,0.13845778,0.42763066,0
1743177479273379,1743177479211379,197388,-0.19518651,0.13560382,0.43105754,0
1743177479281379,1743177479279379,197388,-0.19305044,0.1342679,0.43198985,0
1743177479409379,1743177479347379,197388,-0.19660085,0.12988077,0.43268788,0
1743177479417379,1743177479415379,197388,-0.19677445,0.1255454,0.43555844,0
1743177479545379,1743177479483379,197388,-0.19471695,0.12263833,0.4351485,0
1743177479553379,1743177479551379,197388,-0.19972634,0.117660776,0.43178576,0
1743177479681379,1743177479619379,197388,-0.19871214,0.117383175,0.4349437,0
1743177479689379,1743177479687379,197388,-0.19996706,0.11196563,0.4294181,0
1743177479817379,1743177479755379,197388,-0.20000665,0.10996073,0.43612027,0
1743177479825379,1743177479823379,197388,-0.19592851,0.10221988,0.43578804,0
1743177479953379,1743177479891379,197388,-0.1995174,0.102109015,0.4382337,0
1743177479961379,1743177479959379,197388,-0.19970596,0.09807122,0.44056386,0
1743177480089379,1743177480027379,197388,-0.20081644,0.09497277,0.4393258,0
1743177480097379,1743177480095379,197388,-0.1968961,0.09203563,0.4386746,0
1743177480225379,1743177480163379,197388,-0.20083578,0.08504777,0.4412124,0
1743177480233379,1743177480231379,197388,-0.20237327,0.08634251,0.44253033,0
1743177480361379,1743177480299379,197388,-0.19951305,0.07517356,0.44284308,0
1743177480369379,1743177480367379,197388,-0.20642221,0.06944537,0.44522262,0
1743177480497379,1743177480435379,197388,-0.200641,0.0694862,0.44389725,0
1743177480505379,1743177480503379,197388,-0.20323676,0.06669185,0.4450339,0
1743177480633379,1743177480571379,197388,-0.20259708,0.059483256,0.44360268,0
1743177480641379,1743177480639379,197388,-0.20366988,0.056194868,0.44569623,0
1743177480769379,1743177480707379,197388,-0.20285088,0.047112122,0.4445224,0
1743177480777379,1743177480775379,197388,-0.20215033,0.0463159,0.45113802,0
1743177480905379,1743177480843379,197388,-0.20297876,0.041394766,0.44408908,0
1743177480913379,1743177480911379,197388,-0.20209242,0.035417385,0.44993865,0
1743177481041379,1743177480979379,197388,-0.20257124,0.029446974,0.44780537,0
1743177481049379,1743177481047379,197388,-0.20249471,0.017284602,0.44879764,0
1743177481177379,1743177481115379,197388,-0.20114276,0.01851104,0.44825453,0
1743177481185379,1743177481183379,197388,-0.20060796,0.010101752,0.45058188,0
1743177481313379,1743177481251379,197388,-0.20148389,0.011950552,0.44833916,0
1743177481321379,1743177481319379,197388,-0.20611297,0.006607511,0.45136982,0
1743177481449379,1743177481387379,197388,-0.20342436,0.010166602,0.4480975,0
1743177481457379,1743177481455379,197388,-0.20580116,0.013447217,0.4498223,0
1743177481585379,1743177481523379,197388,-0.20671384,0.023101207,0.44585618,0
1743177481593379,1743177481591379,197388,-0.21561754,0.029956182,0.4396628,0
1743177481721379,1743177481659379,197388,-0.2228224,0.053883642,0.43485755,0
1743177481729379,1743177481727379,197388,-0.2290762,0.068329275,0.4268272,0
1743177481857379,1743177481795379,197388,-0.21678324,0.08588983,0.433048,0
1743177481865379,1743177481863379,197388,-0.19903024,0.10040064,0.43738097,0
1743177481993379,1743177481931379,197388,-0.17580448,0.11562902,0.4460359,0
1743177482001379,1743177481999379,197388,-0.14775905,0.13390023,0.45110035,0
1743177482129379,1743177482067379,197388,-0.12491531,0.15685567,0.4483674,0
1743177482137379,1743177482135379,197388,-0.101236045,0.17641038,0.4524277,0
1743177482265379,1743177482203379,197388,-0.07076567,0.20001067,0.4440093,0
1743177482273379,1743177482271379,197388,-0.041861653,0.22040416,0.44047162,0
1743177482401379,1743177482339379,197388,-0.008344958,0.2304426,0.43403628,0
1743177482409379,1743177482407379,197388,0.01863239,0.2399897,0.42896804,0
1743177482537379,1743177482475379,197388,0.05157059,0.23400831,0.42827192,0
1743177482545379,1743177482543379,197388,0.07466736,0.22774388,0.42559522,0
1743177482673379,1743177482611379,197388,0.09580028,0.22729045,0.42461148,0
1743177482681379,1743177482679379,197388,0.10694747,0.22501034,0.4233554,0
1743177482809379,1743177482747379,197388,0.123173654,0.21338141,0.42584386,0
1743177482817379,1743177482815379,197388,0.13476717,0.20451638,0.43171674,0
1743177482945379,1743177482883379,197388,0.14502582,0.19826669,0.42524585,0
1743177482953379,1743177482951379,197388,0.1557921,0.19593498,0.42594874,0
1743177483081379,1743177483019379,197388,0.16278811,0.1836196,0.42665786,0
1743177483089379,1743177483087379,197388,0.16357416,0.17067485,0.4273871,0
1743177483217379,1743177483155379,197388,0.17550494,0.1678802,0.42904717,0
1743177483225379,1743177483223379,197388,0.18528949,0.1582635,0.4217286,0
1743177483353379,1743177483291379,197388,0.18110678,0.15274628,0.43130732,0
1743177483361379,1743177483359379,197388,0.17816862,0.15283099,0.42719945,0
1743177483489379,1743177483427379,197388,0.1672911,0.15349483,0.43463802,0
1743177483497379,1743177483495379,197388,0.16025487,0.1612064,0.43964636,0
1743177483625379,1743177483563379,197388,0.14380328,0.1663379,0.440815,0
1743177483633379,1743177483631379,197388,0.12974578,0.1706019,0.44288576,0
1743177483761379,1743177483699379,197388,0.111942,0.18022928,0.44249913,0
1743177483769379,1743177483767379,197388,0.0911544,0.18816441,0.45063266,0
1743177483897379,1743177483835379,197388,0.078058764,0.19190004,0.44619057,0
1743177483905379,1743177483903379,197388,0.061471827,0.19845627,0.44629434,0
1743177484033379,1743177483971379,197388,0.04303018,0.19735412,0.44920865,0
1743177484041379,1743177484039379,197388,0.024472067,0.19639844,0.4531634,0
1743177484169379,1743177484107379,197388,0.019052831,0.19850737,0.44878507,0
1743177484177379,1743177484175379,197388,0.011006864,0.19595292,0.452159,0
1743177484305379,1743177484243379,197388,0.013297409,0.19626324,0.4500143,0
1743177484313379,1743177484311379,197388,0.017027609,0.19126517,0.4544311,0
1743177484441379,1743177484379379,197388,0.013222707,0.19493991,0.45026076,0
1743177484449379,1743177484447379,197388,0.012999031,0.19635135,0.4525017,0
1743177484577379,1743177484515379,197388,0.012953671,0.19296853,0.4515164,0
1743177484585379,1743177484583379,197388,0.0115926955,0.19423679,0.4572807,0
1743177484713379,1743177484651379,197388,0.020587591,0.18947913,0.4519753,0
1743177484721379,1743177484719379,197388,0.02172314,0.19068684,0.45091802,0
1743177484849379,1743177484787379,197388,0.024080485,0.1872563,0.45172673,0
1743177484857379,1743177484855379,197388,0.020566916,0.18048964,0.4515195,0
1743177484985379,1743177484923379,197388,0.011493367,0.18439166,0.4555527,0
1743177484993379,1743177484991379,197388,0.0026194134,0.18445793,0.4548413,0
1743177485121379,1743177485059379,197388,-0.009761124,0.18384646,0.45669848,0
1743177485129379,1743177485127379,197388,-0.022959355,0.18285277,0.45739356,0
1743177485257379,1743177485195379,197388,-0.0328851,0.1837407,0.45665103,0
1743177485265379,1743177485263379,197388,-0.041752636,0.18774234,0.4619156,0
1743177485393379,1743177485331379,197388,-0.043963727,0.18297686,0.45448452,0
1743177485401379,1743177485399379,197388,-0.04554497,0.17868647,0.44372457,0
1743177485529379,1743177485467379,197388,-0.048282474,0.18162444,0.45508423,0
1743177485537379,1743177485535379,197388,-0.04957761,0.17753714,0.45047945,0
1743177485665379,1743177485603379,197388,-0.05231157,0.18064013,0.45567968,0
1743177485673379,1743177485671379,197388,-0.055053465,0.18400958,0.456989,0
1743177485801379,1743177485739379,197388,-0.05799222,0.17787768,0.4547961,0
1743177485809379,1743177485807379,197388,-0.06024521,0.17931384,0.45330286,0
1743177485937379,1743177485875379,197388,-0.06293771,0.17524797,0.4557489,0
1743177485945379,1743177485943379,197388,-0.06418091,0.17798388,0.45586967,0
1743177486073379,1743177486011379,197388,-0.06428795,0.17517467,0.4549205,0
1743177486081379,1743177486079379,197388,-0.05748999,0.16978863,0.4525292,0
1743177486209379,1743177486147379,197388,-0.066340655,0.17480183,0.45487326,0
1743177486217379,1743177486215379,197388,-0.06874773,0.17042276,0.45416462,0
1743177486345379,1743177486283379,197388,-0.067575775,0.17465822,0.45366076,0
1743177486353379,1743177486351379,197388,-0.06421082,0.16940263,0.4517483,0
1743177486481379,1743177486419379,197388,-0.06945398,0.17217533,0.45646167,0
1743177486489379,1743177486487379,197388,-0.069646806,0.17182523,0.45674118,0
1743177486617379,1743177486555379,197388,-0.06946155,0.17193732,0.45440513,0
1743177486625379,1743177486623379,197388,-0.06471394,0.17115495,0.45636177,0
1743177486753379,1743177486691379,197388,-0.06945467,0.17142396,0.45662168,0
1743177486761379,1743177486759379,197388,-0.06890032,0.17608152,0.46007884,0
1743177486889379,1743177486827379,197388,-0.070311084,0.17290808,0.45649037,0
1743177486897379,1743177486895379,197388,-0.07758806,0.17675596,0.46187344,0
1743177487025379,1743177486963379,197388,-0.06994758,0.17096993,0.4556979,0
1743177487033379,1743177487031379,197388,-0.06929535,0.17101163,0.46000403,0
1743177487161379,1743177487099379,197388,-0.0715351,0.17092028,0.45615077,0
1743177487169379,1743177487167379,197388,-0.073266394,0.17272365,0.45927757,0
1743177487297379,1743177487235379,197388,-0.07213639,0.1700091,0.45671502,0
1743177487305379,1743177487303379,197388,-0.0757229,0.16272879,0.4620887,0
1743177487433379,1743177487371379,197388,-0.07713267,0.16841602,0.45579907,0
1743177487441379,1743177487439379,197388,-0.0756698,0.16800258,0.45614517,0
1743177487569379,1743177487507379,197388,-0.077797875,0.16682963,0.4554013,0
1743177487577379,1743177487575379,197388,-0.077503875,0.16669473,0.4545576,0
1743177487705379,1743177487643379,197388,-0.07858809,0.16739304,0.4563087,0
1743177487713379,1743177487711379,197388,-0.082805514,0.16541423,0.45176265,0
1743177487841379,1743177487779379,197388,-0.08170588,0.16516735,0.4558165,0
1743177487849379,1743177487847379,197388,-0.08257361,0.16402242,0.45353037,0
1743177487977379,1743177487915379,197388,-0.080821045,0.1642628,0.45650592,0
1743177487985379,1743177487983379,197388,-0.08223148,0.16584185,0.45216012,0
1743177488113379,1743177488051379,197388,-0.08276897,0.16274905,0.45639825,0
1743177488121379,1743177488119379,197388,-0.088342704,0.16336648,0.45587432,0
1743177488249379,1743177488187379,197388,-0.083911166,0.1627318,0.45639935,0
1743177488257379,1743177488255379,197388,-0.083428204,0.16185668,0.45753223,0
1743177488385379,1743177488323379,197388,-0.08269154,0.16360737,0.45773032,0
1743177488393379,1743177488391379,197388,-0.086780295,0.16202775,0.4568112,0
1743177488521379,1743177488459379,197388,-0.08647721,0.1628266,0.45577508,0
1743177488529379,1743177488527379,197388,-0.08769454,0.15634367,0.4564855,0
1743177488657379,1743177488595379,197388,-0.08777072,0.16220951,0.45567364,0
1743177488665379,1743177488663379,197388,-0.08702955,0.16824807,0.44913578,0
1743177488793379,1743177488731379,197388,-0.08786973,0.16092508,0.45569068,0
1743177488801379,1743177488799379,197388,-0.083560005,0.16306448,0.4569311,0
1743177488929379,1743177488867379,197388,-0.08892984,0.1591939,0.45661786,0
1743177488937379,1743177488935379,197388,-0.088963255,0.16476789,0.46143234,0
1743177489065379,1743177489003379,197388,-0.089191,0.16133282,0.4570772,0
1743177489073379,1743177489071379,197388,-0.09446716,0.1616033,0.45791727,0
1743177489201379,1743177489139379,197388,-0.08485189,0.15690023,0.45930725,0
1743177489209379,1743177489207379,197388,-0.07819712,0.14593628,0.46582207,0
1743177489337379,1743177489275379,197388,-0.07926392,0.13218118,0.46764892,0
1743177489345379,1743177489343379,197388,-0.069764495,0.11584894,0.46825606,0
1743177489473379,1743177489411379,197388,-0.07969927,0.10627902,0.47373816,0
1743177489481379,1743177489479379,197388,-0.08237831,0.103220075,0.47443843,0
1743177489609379,1743177489547379,197388,-0.079559065,0.09968178,0.4743542,0
1743177489617379,1743177489615379,197388,-0.06384367,0.10550699,0.48293108,0
1743177489745379,1743177489683379,197388,-0.06812349,0.10681094,0.47556645,0
1743177489753379,1743177489751379,197388,-0.06422989,0.1092623,0.47117028,0
1743177489881379,1743177489819379,197388,-0.059479643,0.11568628,0.4738861,0
1743177489889379,1743177489887379,197388,-0.05913168,0.1277369,0.4688924,0
1743177490017379,1743177489955379,197388,-0.058372773,0.13114202,0.4714496,0
1743177490025379,1743177490023379,197388,-0.05704362,0.13331941,0.46303844,0
1743177490153379,1743177490091379,197388,-0.07448214,0.13654122,0.46805948,0
1743177490161379,1743177490159379,197388,-0.09346171,0.1333653,0.4565956,0
1743177490289379,1743177490227379,197388,-0.10948178,0.1320109,0.4619748,0
1743177490297379,1743177490295379,197388,-0.1273542,0.12401375,0.46143442,0
1743177490425379,1743177490363379,197388,-0.1381162,0.12614699,0.45171374,0
1743177490433379,1743177490431379,197388,-0.14477873,0.11993095,0.45124474,0
1743177490561379,1743177490499379,197388,-0.14780837,0.117567174,0.4545905,0
1743177490569379,1743177490567379,197388,-0.15569338,0.11335747,0.44576377,0
1743177490697379,1743177490635379,197388,-0.1556168,0.11280589,0.45197818,0
1743177490705379,1743177490703379,197388,-0.1596606,0.112615705,0.45069987,0
1743177490833379,1743177490771379,197388,-0.16735893,0.10893802,0.45001283,0
1743177490841379,1743177490839379,197388,-0.17326713,0.11463368,0.44436306,0
1743177490969379,1743177490907379,197388,-0.17152327,0.115486674,0.44376123,0
1743177490977379,1743177490975379,197388,-0.17162502,0.11837745,0.4420634,0
1743177491105379,1743177491043379,197388,-0.16962992,0.12901036,0.44275934,0
1743177491113379,1743177491111379,197388,-0.16480324,0.14302078,0.45072767,0
1743177491241379,1743177491179379,197388,-0.16087262,0.13757311,0.4447407,0
1743177491249379,1743177491247379,197388,-0.15735307,0.13505453,0.44768918,0
1743177491377379,1743177491315379,197388,-0.15538332,0.13055402,0.4479904,0
1743177491385379,1743177491383379,197388,-0.15036732,0.124050885,0.45201722,0
1743177491513379,1743177491451379,197388,-0.15080109,0.113298506,0.45429286,0
1743177491521379,1743177491519379,197388,-0.15014176,0.105131164,0.45412916,0
1743177491649379,1743177491587379,197388,-0.14912784,0.103378855,0.45532146,0
1743177491657379,1743177491655379,197388,-0.14687267,0.10239505,0.45760727,0
1743177491785379,1743177491723379,197388,-0.15081306,0.0957307,0.45798454,0
1743177491793379,1743177491791379,197388,-0.15513898,0.09632643,0.46334308,0
1743177491921379,1743177491859379,197388,-0.15142196,0.09519922,0.4586795,0
1743177491929379,1743177491927379,197388,-0.15416738,0.089934334,0.45875108,0
1743177492057379,1743177491995379,197388,-0.15128018,0.09600876,0.45779455,0
1743177492065379,1743177492063379,197388,-0.14973448,0.10677406,0.4534085,0
1743177492193379,1743177492131379,197388,-0.15261008,0.12072878,0.45182133,0
1743177492201379,1743177492199379,197388,-0.15569612,0.1362341,0.44324657,0
1743177492329379,1743177492267379,197388,-0.1471345,0.15130137,0.44300526,0
1743177492337379,1743177492335379,197388,-0.13271141,0.16157751,0.444915,0
1743177492465379,1743177492403379,197388,-0.10861339,0.16392402,0.45085287,0
1743177492473379,1743177492471379,197388,-0.07598503,0.16179404,0.4546877,0
1743177492601379,1743177492539379,197388,-0.04877195,0.1715843,0.45730764,0
1743177492609379,1743177492607379,197388,-0.019521853,0.1757783,0.45698574,0
1743177492737379,1743177492675379,197388,0.013005534,0.18994635,0.45178413,0
1743177492745379,1743177492743379,197388,0.03563697,0.19418384,0.45161098,0
1743177492873379,1743177492811379,197388,0.0732158,0.192438,0.44712767,0
1743177492881379,1743177492879379,197388,0.104607314,0.19630268,0.43774456,0
1743177493009379,1743177492947379,197388,0.12917557,0.17783706,0.43823513,0
1743177493017379,1743177493015379,197388,0.1521107,0.16447988,0.43793914,0
1743177493145379,1743177493083379,197388,0.16508107,0.15000218,0.43870476,0
1743177493153379,1743177493151379,197388,0.16989724,0.13946892,0.44523746,0
1743177493281379,1743177493219379,197388,0.17857556,0.12414,0.44008684,0
1743177493289379,1743177493287379,197388,0.18285662,0.122139856,0.43934917,0
1743177493417379,1743177493355379,197388,0.1770373,0.11393947,0.4443962,0
1743177493425379,1743177493423379,197388,0.17959553,0.111037396,0.4406399,0
1743177493553379,1743177493491379,197388,0.17379166,0.11794756,0.44438472,0
1743177493561379,1743177493559379,197388,0.1703475,0.12640794,0.4453805,0
1743177493689379,1743177493627379,197388,0.16529858,0.13240819,0.44384584,0
1743177493697379,1743177493695379,197388,0.15658009,0.13760641,0.44077352,0
1743177493825379,1743177493763379,197388,0.15411356,0.15102077,0.44240344,0
1743177493833379,1743177493831379,197388,0.15006009,0.15771756,0.44188118,0
1743177493961379,1743177493899379,197388,0.13338673,0.16730785,0.44218147,0
1743177493969379,1743177493967379,197388,0.12078609,0.17811105,0.4416622,0
1743177494097379,1743177494035379,197388,0.101527505,0.18112342,0.44487667,0
1743177494105379,1743177494103379,197388,0.08242153,0.18627356,0.44823956,0
1743177494233379,1743177494171379,197388,0.07419888,0.18788728,0.44922006,0
1743177494241379,1743177494239379,197388,0.062478174,0.19000277,0.4472196,0
1743177494369379,1743177494307379,197388,0.05368735,0.1848433,0.45233178,0
1743177494377379,1743177494375379,197388,0.044924267,0.18400493,0.4503638,0
1743177494505379,1743177494443379,197388,0.04336586,0.18069372,0.45592698,0
1743177494513379,1743177494511379,197388,0.03352844,0.17515597,0.4576379,0
1743177494641379,1743177494579379,197388,0.034577373,0.17730473,0.45666692,0
1743177494649379,1743177494647379,197388,0.035589173,0.17624904,0.45888728,0
1743177494777379,1743177494715379,197388,0.043271527,0.17307907,0.4570091,0
1743177494785379,1743177494783379,197388,0.051391356,0.18066058,0.4567132,0
1743177494913379,1743177494851379,197388,0.056121614,0.17391537,0.4563476,0
1743177494921379,1743177494919379,197388,0.056598704,0.1789437,0.4581074,0
1743177495049379,1743177494987379,197388,0.06868457,0.17169797,0.45600146,0
1743177495057379,1743177495055379,197388,0.069768324,0.17291754,0.45395964,0
1743177495185379,1743177495123379,197388,0.07340024,0.17083584,0.45526177,0
1743177495193379,1743177495191379,197388,0.078741275,0.17329946,0.45773977,0
1743177495321379,1743177495259379,197388,0.07731607,0.17076288,0.45446718,0
1743177495329379,1743177495327379,197388,0.07669746,0.16641015,0.45360324,0
1743177495457379,1743177495395379,197388,0.07905616,0.17098266,0.45493895,0
1743177495465379,1743177495463379,197388,0.08309046,0.17190288,0.45696884,0
1743177495593379,1743177495531379,197388,0.0802086,0.17375644,0.4541702,0
1743177495601379,1743177495599379,197388,0.07775688,0.17661916,0.45048374,0
1743177495729379,1743177495667379,197388,0.0765646,0.1752448,0.45398322,0
1743177495737379,1743177495735379,197388,0.07695624,0.1746031,0.44786406,0
1743177495865379,1743177495803379,197388,0.07332853,0.17512186,0.45412543,0
1743177495873379,1743177495871379,197388,0.07066004,0.17260131,0.45189387,0
1743177496001379,1743177495939379,197388,0.072633125,0.1758106,0.45474154,0
1743177496009379,1743177496007379,197388,0.0633298,0.17334226,0.45230785,0
1743177496137379,1743177496075379,197388,0.075884804,0.17379414,0.4533902,0
1743177496145379,1743177496143379,197388,0.07323186,0.17244907,0.44444832,0
1743177496273379,1743177496211379,197388,0.075852856,0.17639409,0.45247972,0
1743177496281379,1743177496279379,197388,0.07510592,0.17436633,0.45382893,0
1743177496409379,1743177496347379,197388,0.079629555,0.17350066,0.45212922,0
1743177496417379,1743177496415379,197388,0.07648839,0.17550175,0.4537835,0
1743177496545379,1743177496483379,197388,0.08152768,0.17325762,0.4541639,0
1743177496553379,1743177496551379,197388,0.082793355,0.16982505,0.45139593,0
1743177496681379,1743177496619379,197388,0.08345026,0.17352802,0.45250496,0
1743177496689379,1743177496687379,197388,0.08694779,0.17352432,0.4555335,0
1743177496817379,1743177496755379,197388,0.08627027,0.17238744,0.45116478,0
1743177496825379,1743177496823379,197388,0.091735154,0.17037392,0.4533424,0
1743177496953379,1743177496891379,197388,0.09004137,0.17074047,0.45110363,0
1743177496961379,1743177496959379,197388,0.090964794,0.17140618,0.4570816,0
1743177497089379,1743177497027379,197388,0.090933144,0.17249998,0.45290112,0
1743177497097379,1743177497095379,197388,0.09539645,0.17783546,0.44407076,0
1743177497225379,1743177497163379,197388,0.09040027,0.17298228,0.45023984,0
1743177497233379,1743177497231379,197388,0.102287464,0.16946699,0.45084792,0
1743177497361379,1743177497299379,197388,0.09017048,0.17323203,0.45199502,0
1743177497369379,1743177497367379,197388,0.0976965,0.17338017,0.45494395,0
1743177497497379,1743177497435379,197388,0.09259677,0.17573045,0.45077237,0
1743177497505379,1743177497503379,197388,0.09816028,0.17199345,0.45329726,0
1743177497633379,1743177497571379,197388,0.0926771,0.17527927,0.44924366,0
1743177497641379,1743177497639379,197388,0.09142819,0.17491055,0.45535737,0
1743177497769379,1743177497707379,197388,0.09286849,0.17502818,0.44942614,0
1743177497777379,1743177497775379,197388,0.094244495,0.17653078,0.44769895,0
1743177497905379,1743177497843379,197388,0.09350923,0.1744769,0.44927284,0
1743177497913379,1743177497911379,197388,0.09713954,0.17487508,0.44946185,0
1743177498041379,1743177497979379,197388,0.09424183,0.17522104,0.44973642,0
1743177498049379,1743177498047379,197388,0.09809591,0.17724796,0.4439378,0
1743177498177379,1743177498115379,197388,0.08958892,0.17453282,0.45134842,0
1743177498185379,1743177498183379,197388,0.07880926,0.1736286,0.45077235,0
1743177498313379,1743177498251379,197388,0.06868239,0.17257741,0.45519334,0
1743177498321379,1743177498319379,197388,0.06271212,0.1747037,0.4518305,0
1743177498449379,1743177498387379,197388,0.048007045,0.17306143,0.4579401,0
1743177498457379,1743177498455379,197388,0.03840424,0.18037361,0.46251342,0
1743177498585379,1743177498523379,197388,0.03514478,0.17371434,0.45887947,0
1743177498593379,1743177498591379,197388,0.022815503,0.1790332,0.45095342,0
1743177498721379,1743177498659379,197388,0.030634187,0.1731098,0.459263,0
1743177498729379,1743177498727379,197388,0.033208273,0.17399096,0.46117812,0
1743177498857379,1743177498795379,197388,0.031194765,0.17207089,0.45739806,0
1743177498865379,1743177498863379,197388,0.021944039,0.17566311,0.455532,0
1743177498993379,1743177498931379,197388,0.030305002,0.17567854,0.4587485,0
1743177499001379,1743177498999379,197388,0.027828928,0.17159498,0.46172738,0
1743177499129379,1743177499067379,197388,0.029348535,0.17403567,0.45883432,0
1743177499137379,1743177499135379,197388,0.028055698,0.1812862,0.45748115,0
1743177499265379,1743177499203379,197388,0.026726019,0.17598532,0.4569754,0
1743177499273379,1743177499271379,197388,0.027678184,0.17835459,0.45708108,0
1743177499401379,1743177499339379,197388,0.026015704,0.17737545,0.45890838,0
1743177499409379,1743177499407379,197388,0.022048049,0.17289194,0.45714453,0
1743177499537379,1743177499475379,197388,0.024212401,0.17549078,0.45936584,0
1743177499545379,1743177499543379,197388,0.027140548,0.1759238,0.46023124,0
1743177499673379,1743177499611379,197388,0.021122625,0.17484057,0.4600654,0
1743177499681379,1743177499679379,197388,0.023168985,0.18233025,0.45473298,0
1743177499809379,1743177499747379,197388,0.019507479,0.17587495,0.45892593,0
1743177499817379,1743177499815379,197388,0.021656433,0.17928016,0.45904297,0
1743177499945379,1743177499883379,197388,0.016578639,0.17672217,0.45763114,0
1743177499953379,1743177499951379,197388,0.01661091,0.179051,0.46174097,0
1743177500081379,1743177500019379,197388,0.012667996,0.17621593,0.45896888,0
1743177500089379,1743177500087379,197388,0.018922677,0.17489082,0.46174216,0
1743177500217379,1743177500155379,197388,0.013600218,0.17647974,0.45835552,0
1743177500225379,1743177500223379,197388,0.011489735,0.17680924,0.4631064,0
1743177500353379,1743177500291379,197388,0.009746196,0.17613629,0.4590775,0
1743177500361379,1743177500359379,197388,0.009429767,0.17628735,0.4566862,0
1743177500489379,1743177500427379,197388,0.008979382,0.1755905,0.45852798,0
1743177500497379,1743177500495379,197388,0.009793019,0.17690483,0.453035,0
1743177500625379,1743177500563379,197388,0.0065237675,0.1756982,0.45934758,0
1743177500633379,1743177500631379,197388,0.0070474567,0.17383859,0.4565637,0
1743177500761379,1743177500699379,197388,0.005155564,0.17434835,0.45834804,0
1743177500769379,1743177500767379,197388,0.0031566008,0.17893593,0.45987508,0
1743177500897379,1743177500835379,197388,0.0019064072,0.17420775,0.45924562,0
1743177500905379,1743177500903379,197388,0.0040698685,0.18007697,0.4584484,0
1743177501033379,1743177500971379,197388,0.00023618453,0.17674623,0.45883572,0
1743177501041379,1743177501039379,197388,0.00021028728,0.17635679,0.45488882,0
1743177501169379,1743177501107379,197388,-0.0023199245,0.17376038,0.45963934,0
1743177501177379,1743177501175379,197388,-0.0022542318,0.17679334,0.46378684,0
1743177501305379,1743177501243379,197388,-0.0031955957,0.17408754,0.45903474,0
1743177501313379,1743177501311379,197388,-0.005445388,0.17690155,0.45423505,0
1743177501441379,1743177501379379,197388,-0.003059318,0.17575027,0.45899254,0
1743177501449379,1743177501447379,197388,-0.002858826,0.18329197,0.4617799,0
1743177501577379,1743177501515379,197388,-0.0067408043,0.17606527,0.45789975,0
1743177501585379,1743177501583379,197388,-0.007878577,0.17540625,0.457343,0
1743177501713379,1743177501651379,197388,-0.007914728,0.17645197,0.45776078,0
1743177501721379,1743177501719379,197388,-0.008515322,0.17475843,0.4578634,0
1743177501849379,1743177501787379,197388,-0.0070144525,0.17689125,0.45940912,0
1743177501857379,1743177501855379,197388,-0.0018347914,0.17406827,0.4563834,0
1743177501985379,1743177501923379,197388,-0.006763915,0.17656928,0.45886552,0
1743177501993379,1743177501991379,197388,-0.009087546,0.18182991,0.45415545,0
1743177502121379,1743177502059379,197388,-0.005971201,0.1779276,0.45958826,0
1743177502129379,1743177502127379,197388,-0.009254003,0.17732826,0.45400202,0
1743177502257379,1743177502195379,197388,-0.0057938574,0.1777161,0.45977858,0
1743177502265379,1743177502263379,197388,-0.0058949506,0.17003503,0.4556321,0
1743177502393379,1743177502331379,197388,-0.0042738747,0.1771796,0.4574198,0
1743177502401379,1743177502399379,197388,-0.013298065,0.17799738,0.4619819,0
1743177502529379,1743177502467379,197388,-0.003611679,0.17506473,0.45918185,0
1743177502537379,1743177502535379,197388,-0.005903692,0.18131797,0.45562023,0
1743177502665379,1743177502603379,197388,-0.0034870505,0.17061731,0.46195096,0
1743177502673379,1743177502671379,197388,-0.0031538738,0.16217019,0.4613165,0
1743177502801379,1743177502739379,197388,-0.012142362,0.14792901,0.4675076,0
1743177502809379,1743177502807379,197388,-0.017260935,0.13098863,0.47287285,0
