timestamp,unallocated_torque[0],unallocated_torque[1],unallocated_torque[2],unallocated_thrust[0],unallocated_thrust[1],unallocated_thrust[2],handled_motor_failure_mask,torque_setpoint_achieved,thrust_setpoint_achieved,actuator_saturation[0],actuator_saturation[1],actuator_saturation[2],actuator_saturation[3],actuator_saturation[4],actuator_saturation[5],actuator_saturation[6],actuator_saturation[7],actuator_saturation[8],actuator_saturation[9],actuator_saturation[10],actuator_saturation[11],actuator_saturation[12],actuator_saturation[13],actuator_saturation[14],actuator_saturation[15]
1743177449809379,0.003219232,-0.00090652716,0.00038567005,0.0,0.0,0.0,0,0,1,-2,0,-2,0,2,2,2,2,2,2,2,2,2,2,2,2
1743177449817379,-0.0032135698,-0.0030347393,0.00042611227,0.0,0.0,-1.1641532e-10,0,0,1,-2,0,-2,0,2,2,2,2,2,2,2,2,2,2,2,2
1743177450009379,0.001866531,0.0005364147,0.00014984897,0.0,0.0,-1.1641532e-10,0,0,1,0,-2,0,-2,2,2,2,2,2,2,2,2,2,2,2,2
1743177450209379,-0.00063673645,0.0022108913,-0.011360435,0.0,0.0,-2.3283064e-10,0,0,1,0,-2,0,-2,2,2,2,2,2,2,2,2,2,2,2,2
1743177450409379,-0.00027671966,0.0,-0.0012680853,0.0,0.0,-1.1641532e-10,0,0,1,0,-2,0,0,2,2,2,2,2,2,2,2,2,2,2,2
1743177450609379,0.00025867263,-5.820766e-11,-3.274181e-11,0.0,0.0,-1.1641532e-10,0,1,1,0,0,0,0,2,2,2,2,2,2,2,2,2,2,2,2
1743177450809379,0.0029649746,-9.5427735e-05,-0.00025036032,0.0,0.0,-1.1641532e-10,0,0,1,-2,0,-2,0,2,2,2,2,2,2,2,2,2,2,2,2
1743177451009379,0.0012249558,0.00023581169,-0.00035941962,0.0,0.0,-1.1641532e-10,0,0,1,0,-2,0,-2,2,2,2,2,2,2,2,2,2,2,2,2
1743177451209379,0.0012050838,0.0012913469,-0.0003878797,0.0,0.0,-1.1641532e-10,0,0,1,0,-2,0,-2,2,2,2,2,2,2,2,2,2,2,2,2
1743177451409379,-0.0006610943,-0.0028112666,-0.0003587893,0.0,0.0,0.0,0,0,1,-2,0,-2,0,2,2,2,2,2,2,2,2,2,2,2,2
1743177451609379,-0.0012116211,-0.00012052222,0.0002906975,0.0,0.0,-1.1641532e-10,0,0,1,-2,0,-2,0,2,2,2,2,2,2,2,2,2,2,2,2
1743177451809379,1.1641532e-10,-4.3655746e-11,2.910383e-11,0.0,0.0,-1.1641532e-10,0,1,1,0,0,0,0,2,2,2,2,2,2,2,2,2,2,2,2
1743177452009379,0.00070247665,4.522456e-05,0.000193728,0.0,0.0,-1.1641532e-10,0,1,1,0,-2,0,-2,2,2,2,2,2,2,2,2,2,2,2,2
1743177452209379,0.0026569883,-0.001741949,-0.0006007591,0.0,0.0,-1.1641532e-10,0,0,1,-2,0,-2,0,2,2,2,2,2,2,2,2,2,2,2,2
1743177452409379,-2.3283064e-10,2.910383e-11,1.67693e-05,0.0,0.0,-1.1641532e-10,0,1,1,0,0,-2,0,2,2,2,2,2,2,2,2,2,2,2,2
1743177452609379,0.0020169737,-0.00050950376,-0.0004140877,0.0,0.0,-1.1641532e-10,0,0,1,-2,0,-2,0,2,2,2,2,2,2,2,2,2,2,2,2
1743177452809379,0.0009567421,-0.00034156383,0.00024205772,0.0,0.0,-1.1641532e-10,0,0,1,-2,0,-2,0,2,2,2,2,2,2,2,2,2,2,2,2
1743177453009379,-0.00026500574,-0.0014539947,0.00020586832,0.0,0.0,-1.1641532e-10,0,0,1,-2,0,-2,0,2,2,2,2,2,2,2,2,2,2,2,2
1743177453209379,0.0012470705,0.0,-0.00020044463,0.0,0.0,0.0,0,0,1,0,-2,0,0,2,2,2,2,2,2,2,2,2,2,2,2
1743177453409379,-0.006882502,-1.1641532e-10,4.0110917e-05,0.0,0.0,-1.1641532e-10,0,0,1,0,0,-2,0,2,2,2,2,2,2,2,2,2,2,2,2
1743177453609379,7.2759576e-11,1.4551915e-11,-2.910383e-11,0.0,0.0,-1.1641532e-10,0,1,1,0,0,0,0,2,2,2,2,2,2,2,2,2,2,2,2
1743177453809379,-0.0024051294,0.00029988226,-0.00041453695,0.0,0.0,-1.1641532e-10,0,0,1,0,-2,0,-2,2,2,2,2,2,2,2,2,2,2,2,2
1743177454009379,-1.1641532e-10,-2.1827873e-11,-0.000100343575,0.0,0.0,-1.1641532e-10,0,1,1,0,-2,0,0,2,2,2,2,2,2,2,2,2,2,2,2
1743177454209379,-0.001560301,0.00026165228,-0.0005599839,0.0,0.0,-1.1641532e-10,0,0,1,0,-2,0,-2,2,2,2,2,2,2,2,2,2,2,2,2
1743177454409379,0.0017963976,-1.1641532e-10,-0.00042551075,0.0,0.0,-1.1641532e-10,0,0,1,-2,0,0,0,2,2,2,2,2,2,2,2,2,2,2,2
1743177454609379,0.00084122893,0.0038004885,0.0006576864,0.0,0.0,0.0,0,0,1,0,-2,0,-2,2,2,2,2,2,2,2,2,2,2,2,2
1743177454809379,-0.0012738686,-0.0011298636,3.918641e-05,0.0,0.0,-2.3283064e-10,0,0,1,-2,0,-2,0,2,2,2,2,2,2,2,2,2,2,2,2
1743177455009379,-2.0784926e-05,-0.0005657226,-0.00014531941,0.0,0.0,-1.1641532e-10,0,1,1,-2,0,-2,0,2,2,2,2,2,2,2,2,2,2,2,2
1743177455209379,9.108661e-05,2.1827873e-11,-0.00034908453,0.0,0.0,-1.1641532e-10,0,1,1,-2,0,0,0,2,2,2,2,2,2,2,2,2,2,2,2
1743177455409379,0.00064018334,0.0023124842,-0.0001446413,0.0,0.0,-1.1641532e-10,0,0,1,0,-2,0,-2,2,2,2,2,2,2,2,2,2,2,2,2
1743177455609379,-1.1641532e-09,2.4738256e-10,4.802132e-10,0.0,0.0,0.0,0,1,1,0,0,0,0,2,2,2,2,2,2,2,2,2,2,2,2
1743177455809379,-1.7462298e-09,0.0,2.0372681e-10,0.0,0.0,0.0,0,1,1,0,0,0,0,2,2,2,2,2,2,2,2,2,2,2,2
1743177456009379,-6.4028427e-09,-4.2491592e-09,2.4926976e-09,0.0,0.0,-7.450581e-09,0,1,1,0,0,0,0,2,2,2,2,2,2,2,2,2,2,2,2
1743177456209379,-1.5163096e-08,-2.3283064e-10,3.4706318e-09,0.0,0.0,-1.4901161e-08,0,1,1,0,0,0,0,2,2,2,2,2,2,2,2,2,2,2,2
1743177456409379,-3.7252903e-09,-3.259629e-09,-1.51922e-08,0.0,0.0,0.0,0,1,1,0,0,0,0,2,2,2,2,2,2,2,2,2,2,2,2
1743177456609379,5.5879354e-09,-1.3737008e-08,1.094304e-08,0.0,0.0,0.0,0,1,1,0,0,0,0,2,2,2,2,2,2,2,2,2,2,2,2
1743177456809379,-1.6298145e-09,-6.4028427e-09,2.6775524e-09,0.0,0.0,-2.9802322e-08,0,1,1,0,0,0,0,2,2,2,2,2,2,2,2,2,2,2,2
1743177457009379,3.3760443e-08,1.207809e-08,-8.905772e-09,0.0,0.0,0.0,0,1,1,0,0,0,0,2,2,2,2,2,2,2,2,2,2,2,2
1743177457209379,8.032657e-09,6.9849193e-09,2.0809239e-09,0.0,0.0,0.0,0,1,1,0,0,0,0,2,2,2,2,2,2,2,2,2,2,2,2
1743177457409379,3.4226105e-08,-8.1490725e-09,-1.9208528e-09,0.0,0.0,0.0,0,1,1,0,0,0,0,2,2,2,2,2,2,2,2,2,2,2,2
1743177457609379,1.2369128e-08,1.3415047e-09,-4.0745363e-10,0.0,0.0,-2.9802322e-08,0,1,1,0,0,0,0,2,2,2,2,2,2,2,2,2,2,2,2
1743177457809379,-3.7485734e-08,1.4901161e-08,-5.529728e-09,0.0,0.0,-5.9604645e-08,0,1,1,0,0,0,0,2,2,2,2,2,2,2,2,2,2,2,2
1743177458009379,-1.1641532e-08,2.7939677e-09,-1.8560968e-08,0.0,0.0,-5.9604645e-08,0,1,1,0,0,0,0,2,2,2,2,2,2,2,2,2,2,2,2
1743177458209379,-2.6309863e-08,-1.2572855e-08,3.463356e-08,0.0,0.0,-5.9604645e-08,0,1,1,0,0,0,0,2,2,2,2,2,2,2,2,2,2,2,2
1743177458409379,-1.1466909e-08,-1.17579475e-08,1.2223609e-08,0.0,0.0,-5.9604645e-08,0,1,1,0,0,0,0,2,2,2,2,2,2,2,2,2,2,2,2
1743177458609379,2.9685907e-09,-1.33004505e-08,1.7345883e-08,0.0,0.0,-5.9604645e-08,0,1,1,0,0,0,0,2,2,2,2,2,2,2,2,2,2,2,2
1743177458809379,-2.4680048e-08,-1.7553248e-08,1.1204975e-08,0.0,0.0,-5.9604645e-08,0,1,1,0,0,0,0,2,2,2,2,2,2,2,2,2,2,2,2
1743177459009379,-2.9744115e-08,6.0535967e-09,6.6429493e-09,0.0,0.0,0.0,0,1,1,0,0,0,0,2,2,2,2,2,2,2,2,2,2,2,2
1743177459209379,7.450581e-09,3.480818e-08,-7.392373e-09,0.0,0.0,0.0,0,1,1,0,0,0,0,2,2,2,2,2,2,2,2,2,2,2,2
1743177459409379,1.5832484e-08,3.7252903e-09,3.3003744e-08,0.0,0.0,-5.9604645e-08,0,1,1,0,0,0,0,2,2,2,2,2,2,2,2,2,2,2,2
1743177459609379,5.7858415e-08,1.5366822e-08,2.9394869e-08,0.0,0.0,-5.9604645e-08,0,1,1,0,0,0,0,2,2,2,2,2,2,2,2,2,2,2,2
1743177459809379,3.8184226e-08,9.778887e-09,-1.9470463e-08,0.0,0.0,-5.9604645e-08,0,1,1,0,0,0,0,2,2,2,2,2,2,2,2,2,2,2,2
1743177460009379,3.8242433e-08,-1.6298145e-08,-2.7182978e-08,0.0,0.0,0.0,0,1,1,0,0,0,0,2,2,2,2,2,2,2,2,2,2,2,2
1743177460209379,3.4924597e-09,-5.355105e-09,9.88075e-09,0.0,0.0,0.0,0,1,1,0,0,0,0,2,2,2,2,2,2,2,2,2,2,2,2
1743177460409379,-2.7939677e-09,2.689194e-08,2.629531e-08,0.0,0.0,-5.9604645e-08,0,1,1,0,0,0,0,2,2,2,2,2,2,2,2,2,2,2,2
1743177460609379,-5.5879354e-08,-1.2572855e-08,-7.858034e-10,0.0,0.0,-5.9604645e-08,0,1,1,0,0,0,0,2,2,2,2,2,2,2,2,2,2,2,2
1743177460809379,7.1013346e-09,4.1909516e-09,-9.778887e-09,0.0,0.0,-5.9604645e-08,0,1,1,0,0,0,0,2,2,2,2,2,2,2,2,2,2,2,2
1743177461009379,-1.3154931e-08,1.0972144e-08,-1.479566e-08,0.0,0.0,0.0,0,1,1,0,0,0,0,2,2,2,2,2,2,2,2,2,2,2,2
1743177461209379,5.7101715e-08,3.562309e-08,-1.7462298e-09,0.0,0.0,0.0,0,1,1,0,0,0,0,2,2,2,2,2,2,2,2,2,2,2,2
1743177461409379,-2.4097972e-08,-2.1624146e-08,-4.3248292e-08,0.0,0.0,-5.9604645e-08,0,1,1,0,0,0,0,2,2,2,2,2,2,2,2,2,2,2,2
1743177461609379,2.7008355e-08,-2.0256266e-08,-2.0838343e-08,0.0,0.0,-5.9604645e-08,0,1,1,0,0,0,0,2,2,2,2,2,2,2,2,2,2,2,2
1743177461809379,7.916242e-09,2.6193447e-08,-3.8417056e-09,0.0,0.0,-5.9604645e-08,0,1,1,0,0,0,0,2,2,2,2,2,2,2,2,2,2,2,2
1743177462009379,2.3283064e-10,-1.0244548e-08,-3.259629e-09,0.0,0.0,-5.9604645e-08,0,1,1,0,0,0,0,2,2,2,2,2,2,2,2,2,2,2,2
1743177462209379,-6.5436325e-08,8.1490725e-09,7.450581e-09,0.0,0.0,-5.9604645e-08,0,1,1,0,0,0,0,2,2,2,2,2,2,2,2,2,2,2,2
1743177462409379,6.088521e-08,1.8626451e-09,-3.076275e-08,0.0,0.0,0.0,0,1,1,0,0,0,0,2,2,2,2,2,2,2,2,2,2,2,2
1743177462609379,-5.075708e-08,-8.381903e-09,-1.6647391e-08,0.0,0.0,-5.9604645e-08,0,1,1,0,0,0,0,2,2,2,2,2,2,2,2,2,2,2,2
1743177462809379,3.7252903e-09,-3.457535e-08,-4.1909516e-09,0.0,0.0,-5.9604645e-08,0,1,1,0,0,0,0,2,2,2,2,2,2,2,2,2,2,2,2
1743177463009379,1.8859282e-08,-3.8999133e-09,1.2572855e-08,0.0,0.0,-5.9604645e-08,0,1,1,0,0,0,0,2,2,2,2,2,2,2,2,2,2,2,2
1743177463209379,5.8364094e-08,-1.5599653e-08,4.656613e-09,0.0,0.0,-5.9604645e-08,0,1,1,0,0,0,0,2,2,2,2,2,2,2,2,2,2,2,2
1743177463409379,-1.5774276e-08,-1.6996637e-08,3.0035153e-08,0.0,0.0,-5.9604645e-08,0,1,1,0,0,0,0,2,2,2,2,2,2,2,2,2,2,2,2
1743177463609379,2.1071173e-08,1.7608158e-08,4.551839e-08,0.0,0.0,0.0,0,1,1,0,0,0,0,2,2,2,2,2,2,2,2,2,2,2,2
1743177463809379,1.6123522e-08,-6.0535967e-09,-2.2351742e-08,0.0,0.0,0.0,0,1,1,0,0,0,0,2,2,2,2,2,2,2,2,2,2,2,2
1743177464009379,1.5686965e-08,1.6298145e-09,-4.656613e-09,0.0,0.0,-5.9604645e-08,0,1,1,0,0,0,0,2,2,2,2,2,2,2,2,2,2,2,2
1743177464209379,2.2118911e-08,2.9090188e-09,7.450581e-09,0.0,0.0,-5.9604645e-08,0,1,1,0,0,0,0,2,2,2,2,2,2,2,2,2,2,2,2
1743177464409379,1.839362e-08,3.585592e-08,-1.094304e-08,0.0,0.0,0.0,0,1,1,0,0,0,0,2,2,2,2,2,2,2,2,2,2,2,2
1743177464609379,-1.1117663e-08,-1.880835e-08,2.2118911e-08,0.0,0.0,-5.9604645e-08,0,1,1,0,0,0,0,2,2,2,2,2,2,2,2,2,2,2,2
1743177464809379,8.731149e-09,1.3853423e-08,-1.580338e-08,0.0,0.0,0.0,0,1,1,0,0,0,0,2,2,2,2,2,2,2,2,2,2,2,2
1743177465009379,3.3527613e-08,6.9849193e-10,3.853347e-08,0.0,0.0,-5.9604645e-08,0,1,1,0,0,0,0,2,2,2,2,2,2,2,2,2,2,2,2
1743177465209379,3.405148e-08,1.0477379e-08,-9.313226e-09,0.0,0.0,0.0,0,1,1,0,0,0,0,2,2,2,2,2,2,2,2,2,2,2,2
1743177465409379,4.1443855e-08,8.381903e-09,1.97615e-08,0.0,0.0,0.0,0,1,1,0,0,0,0,2,2,2,2,2,2,2,2,2,2,2,2
1743177465609379,-2.3050234e-08,1.888111e-08,1.4551915e-08,0.0,0.0,-5.9604645e-08,0,1,1,0,0,0,0,2,2,2,2,2,2,2,2,2,2,2,2
1743177465809379,-2.561137e-08,-1.9253775e-08,1.0011718e-08,0.0,0.0,0.0,0,1,1,0,0,0,0,2,2,2,2,2,2,2,2,2,2,2,2
1743177466009379,1.0477379e-09,-4.656613e-10,1.2863893e-08,0.0,0.0,-2.9802322e-08,0,1,1,0,0,0,0,2,2,2,2,2,2,2,2,2,2,2,2
1743177466209379,-3.5011908e-08,4.831236e-09,-1.4202669e-08,0.0,0.0,0.0,0,1,1,0,0,0,0,2,2,2,2,2,2,2,2,2,2,2,2
1743177466409379,1.8626451e-08,3.608875e-09,-7.3050614e-09,0.0,0.0,0.0,0,1,1,0,0,0,0,2,2,2,2,2,2,2,2,2,2,2,2
1743177466609379,-5.820766e-11,1.3038516e-08,-1.2718374e-08,0.0,0.0,-2.9802322e-08,0,1,1,0,0,0,0,2,2,2,2,2,2,2,2,2,2,2,2
1743177466809379,-2.8696377e-08,-1.3969839e-09,-1.70985e-08,0.0,0.0,-5.9604645e-08,0,1,1,0,0,0,0,2,2,2,2,2,2,2,2,2,2,2,2
1743177467009379,-1.2914825e-08,-3.0297088e-08,1.853914e-08,0.0,0.0,2.9802322e-08,0,1,1,0,0,0,0,2,2,2,2,2,2,2,2,2,2,2,2
1743177467209379,3.608875e-08,2.0023435e-08,5.3842086e-10,0.0,0.0,-5.9604645e-08,0,1,1,0,0,0,0,2,2,2,2,2,2,2,2,2,2,2,2
1743177467409379,5.820766e-09,2.0954758e-08,3.434252e-09,0.0,0.0,0.0,0,1,1,0,0,0,0,2,2,2,2,2,2,2,2,2,2,2,2
1743177467609379,-1.6647391e-08,-7.683411e-09,-1.0542863e-08,0.0,0.0,-5.9604645e-08,0,1,1,0,0,0,0,2,2,2,2,2,2,2,2,2,2,2,2
1743177467809379,-4.5401976e-08,1.2340024e-08,2.6659109e-08,0.0,0.0,-5.9604645e-08,0,1,1,0,0,0,0,2,2,2,2,2,2,2,2,2,2,2,2
1743177468009379,-2.0256266e-08,9.080395e-09,-3.4633558e-09,0.0,0.0,-5.9604645e-08,0,1,1,0,0,0,0,2,2,2,2,2,2,2,2,2,2,2,2
1743177468209379,4.6609784e-08,1.5308615e-08,-1.5133992e-08,0.0,0.0,-5.9604645e-08,0,1,1,0,0,0,0,2,2,2,2,2,2,2,2,2,2,2,2
1743177468409379,-4.7089998e-08,-9.546056e-09,-4.420872e-08,0.0,0.0,-5.9604645e-08,0,1,1,0,0,0,0,2,2,2,2,2,2,2,2,2,2,2,2
1743177468609379,-2.6659109e-08,1.8975697e-08,-2.9162038e-08,0.0,0.0,-5.9604645e-08,0,1,1,0,0,0,0,2,2,2,2,2,2,2,2,2,2,2,2
1743177468809379,-1.6356353e-08,-2.0954758e-08,-1.5832484e-08,0.0,0.0,0.0,0,1,1,0,0,0,0,2,2,2,2,2,2,2,2,2,2,2,2
1743177469009379,-4.278263e-08,-6.0535967e-09,1.2572855e-08,0.0,0.0,0.0,0,1,1,0,0,0,0,2,2,2,2,2,2,2,2,2,2,2,2
1743177469209379,-4.33065e-08,-1.499484e-08,5.806214e-09,0.0,0.0,-5.9604645e-08,0,1,1,0,0,0,0,2,2,2,2,2,2,2,2,2,2,2,2
1743177469409379,-5.8906153e-08,-1.1175871e-08,3.8853614e-09,0.0,0.0,-5.9604645e-08,0,1,1,0,0,0,0,2,2,2,2,2,2,2,2,2,2,2,2
1743177469609379,1.990702e-08,1.26237865e-08,-6.1118044e-09,0.0,0.0,-5.9604645e-08,0,1,1,0,0,0,0,2,2,2,2,2,2,2,2,2,2,2,2
1743177469809379,1.816079e-08,3.8184226e-08,1.8975697e-08,0.0,0.0,-5.9604645e-08,0,1,1,0,0,0,0,2,2,2,2,2,2,2,2,2,2,2,2
1743177470009379,1.9557774e-08,-9.313226e-10,4.1443855e-08,0.0,0.0,-5.9604645e-08,0,1,1,0,0,0,0,2,2,2,2,2,2,2,2,2,2,2,2
1743177470209379,5.6345016e-08,-6.519258e-09,-3.7252903e-09,0.0,0.0,-5.9604645e-08,0,1,1,0,0,0,0,2,2,2,2,2,2,2,2,2,2,2,2
1743177470409379,-3.5506673e-08,-2.3661414e-08,-2.4214387e-08,0.0,0.0,-5.9604645e-08,0,1,1,0,0,0,0,2,2,2,2,2,2,2,2,2,2,2,2
1743177470609379,-1.6530976e-08,-3.9115548e-08,2.6077032e-08,0.0,0.0,0.0,0,1,1,0,0,0,0,2,2,2,2,2,2,2,2,2,2,2,2
1743177470809379,2.537854e-08,-1.6763806e-08,1.8626451e-08,0.0,0.0,0.0,0,1,1,0,0,0,0,2,2,2,2,2,2,2,2,2,2,2,2
1743177471009379,4.2069587e-08,-7.450581e-09,-3.7252903e-09,0.0,0.0,-5.9604645e-08,0,1,1,0,0,0,0,2,2,2,2,2,2,2,2,2,2,2,2
1743177471209379,-3.0267984e-08,-1.1204975e-08,-9.313226e-09,0.0,0.0,-5.9604645e-08,0,1,1,0,0,0,0,2,2,2,2,2,2,2,2,2,2,2,2
1743177471409379,5.2677933e-08,-2.066372e-09,1.3969839e-08,0.0,0.0,0.0,0,1,1,0,0,0,0,2,2,2,2,2,2,2,2,2,2,2,2
1743177471609379,-1.6763806e-08,6.9849193e-09,5.5879354e-09,0.0,0.0,-5.9604645e-08,0,1,1,0,0,0,0,2,2,2,2,2,2,2,2,2,2,2,2
1743177471809379,4.2142347e-08,6.0535967e-09,-5.5879354e-09,0.0,0.0,0.0,0,1,1,0,0,0,0,2,2,2,2,2,2,2,2,2,2,2,2
1743177472009379,-3.259629e-08,-9.313226e-09,-2.4214387e-08,0.0,0.0,-5.9604645e-08,0,1,1,0,0,0,0,2,2,2,2,2,2,2,2,2,2,2,2
1743177472209379,-2.561137e-08,2.142042e-08,6.519258e-09,0.0,0.0,0.0,0,1,1,0,0,0,0,2,2,2,2,2,2,2,2,2,2,2,2
1743177472409379,2.7939677e-08,-2.7241185e-08,-3.282912e-08,0.0,0.0,0.0,0,1,1,0,0,0,0,2,2,2,2,2,2,2,2,2,2,2,2
1743177472609379,5.1921234e-08,6.0535967e-09,6.519258e-09,0.0,0.0,-5.9604645e-08,0,1,1,0,0,0,0,2,2,2,2,2,2,2,2,2,2,2,2
1743177472809379,-3.7485734e-08,-1.618173e-08,-1.8626451e-08,0.0,0.0,-5.9604645e-08,0,1,1,0,0,0,0,2,2,2,2,2,2,2,2,2,2,2,2
1743177473009379,2.0954758e-09,2.7474016e-08,7.450581e-09,0.0,0.0,0.0,0,1,1,0,0,0,0,2,2,2,2,2,2,2,2,2,2,2,2
1743177473209379,6.2864274e-09,-1.8742867e-08,-9.313226e-10,0.0,0.0,-5.9604645e-08,0,1,1,0,0,0,0,2,2,2,2,2,2,2,2,2,2,2,2
1743177473409379,3.8649887e-08,-1.44355e-08,-2.3283064e-08,0.0,0.0,0.0,0,1,1,0,0,0,0,2,2,2,2,2,2,2,2,2,2,2,2
1743177473609379,-4.0512532e-08,1.816079e-08,2.2351742e-08,0.0,0.0,-5.9604645e-08,0,1,1,0,0,0,0,2,2,2,2,2,2,2,2,2,2,2,2
1743177473809379,-1.8626451e-08,-8.381903e-09,1.4901161e-08,0.0,0.0,0.0,0,1,1,0,0,0,0,2,2,2,2,2,2,2,2,2,2,2,2
1743177474009379,-1.8626451e-09,9.313226e-09,1.4901161e-08,0.0,0.0,0.0,0,1,1,0,0,0,0,2,2,2,2,2,2,2,2,2,2,2,2
1743177474209379,-5.6810677e-08,-2.6659109e-08,-3.7252903e-09,0.0,0.0,-5.9604645e-08,0,1,1,0,0,0,0,2,2,2,2,2,2,2,2,2,2,2,2
1743177474409379,-5.5879354e-09,4.4237822e-09,-1.4901161e-08,0.0,0.0,0.0,0,1,1,0,0,0,0,2,2,2,2,2,2,2,2,2,2,2,2
1743177474609379,-6.519258e-08,4.2491592e-09,0.0,0.0,0.0,0.0,0,1,1,0,0,0,0,2,2,2,2,2,2,2,2,2,2,2,2
1743177474809379,-1.6763806e-08,3.0267984e-08,-1.4901161e-08,0.0,0.0,0.0,0,1,1,0,0,0,0,2,2,2,2,2,2,2,2,2,2,2,2
1743177475009379,2.6542693e-08,-1.0244548e-08,0.0,0.0,0.0,-5.9604645e-08,0,1,1,0,0,0,0,2,2,2,2,2,2,2,2,2,2,2,2
1743177475209379,-3.4924597e-08,1.7229468e-08,-7.450581e-09,0.0,0.0,-5.9604645e-08,0,1,1,0,0,0,0,2,2,2,2,2,2,2,2,2,2,2,2
1743177475409379,1.8626451e-08,1.952867e-08,-1.4901161e-08,0.0,0.0,0.0,0,1,1,0,0,0,0,2,2,2,2,2,2,2,2,2,2,2,2
1743177475609379,-3.934838e-08,2.6542693e-08,-1.4901161e-08,0.0,0.0,-5.9604645e-08,0,1,1,0,0,0,0,2,2,2,2,2,2,2,2,2,2,2,2
1743177475809379,3.259629e-08,2.9802322e-08,1.4901161e-08,0.0,0.0,-5.9604645e-08,0,1,1,0,0,0,0,2,2,2,2,2,2,2,2,2,2,2,2
1743177476009379,-2.142042e-08,-1.4901161e-08,-1.4901161e-08,0.0,0.0,0.0,0,1,1,0,0,0,0,2,2,2,2,2,2,2,2,2,2,2,2
1743177476209379,-1.3504177e-08,4.004687e-08,-1.7695129e-08,0.0,0.0,0.0,0,1,1,0,0,0,0,2,2,2,2,2,2,2,2,2,2,2,2
1743177476409379,-1.1641532e-10,-1.1874363e-08,-7.450581e-09,0.0,0.0,0.0,0,1,1,0,0,0,0,2,2,2,2,2,2,2,2,2,2,2,2
1743177476609379,2.3283064e-09,-5.5879354e-09,-7.450581e-09,0.0,0.0,-5.9604645e-08,0,1,1,0,0,0,0,2,2,2,2,2,2,2,2,2,2,2,2
1743177476809379,-1.071021e-08,1.816079e-08,2.9802322e-08,0.0,0.0,-5.9604645e-08,0,1,1,0,0,0,0,2,2,2,2,2,2,2,2,2,2,2,2
1743177477009379,6.6589564e-08,1.3038516e-08,2.5029294e-09,0.0,0.0,-5.9604645e-08,0,1,1,0,0,0,0,2,2,2,2,2,2,2,2,2,2,2,2
1743177477209379,6.263144e-08,-2.1012966e-08,1.4901161e-08,0.0,0.0,-5.9604645e-08,0,1,1,0,0,0,0,2,2,2,2,2,2,2,2,2,2,2,2
1743177477409379,-5.6810677e-08,4.5401976e-09,1.4901161e-08,0.0,0.0,0.0,0,1,1,0,0,0,0,2,2,2,2,2,2,2,2,2,2,2,2
1743177477609379,2.3865141e-08,9.313226e-09,-5.5879354e-09,0.0,0.0,-5.9604645e-08,0,1,1,0,0,0,0,2,2,2,2,2,2,2,2,2,2,2,2
1743177477809379,-1.3271347e-08,6.4028427e-10,1.3038516e-08,0.0,0.0,-5.9604645e-08,0,1,1,0,0,0,0,2,2,2,2,2,2,2,2,2,2,2,2
1743177478009379,-3.0733645e-08,-2.5625923e-08,-1.8626451e-08,0.0,0.0,-5.9604645e-08,0,1,1,0,0,0,0,2,2,2,2,2,2,2,2,2,2,2,2
1743177478209379,4.656613e-09,4.656613e-09,-6.519258e-09,0.0,0.0,0.0,0,1,1,0,0,0,0,2,2,2,2,2,2,2,2,2,2,2,2
1743177478409379,-3.655441e-08,5.0931703e-09,-1.8626451e-08,0.0,0.0,-5.9604645e-08,0,1,1,0,0,0,0,2,2,2,2,2,2,2,2,2,2,2,2
1743177478609379,-4.8894435e-08,2.0489097e-08,1.0128133e-08,0.0,0.0,0.0,0,1,1,0,0,0,0,2,2,2,2,2,2,2,2,2,2,2,2
1743177478809379,-3.4924597e-09,-1.5599653e-08,-2.8871e-08,0.0,0.0,-5.9604645e-08,0,1,1,0,0,0,0,2,2,2,2,2,2,2,2,2,2,2,2
1743177479009379,2.3283064e-08,-1.6065314e-08,9.313226e-09,0.0,0.0,-5.9604645e-08,0,1,1,0,0,0,0,2,2,2,2,2,2,2,2,2,2,2,2
1743177479209379,3.8795406e-08,6.344635e-09,-1.5832484e-08,0.0,0.0,0.0,0,1,1,0,0,0,0,2,2,2,2,2,2,2,2,2,2,2,2
1743177479409379,3.958121e-09,-6.2864274e-09,4.656613e-09,0.0,0.0,0.0,0,1,1,0,0,0,0,2,2,2,2,2,2,2,2,2,2,2,2
1743177479609379,1.6880222e-08,7.683411e-09,2.4214387e-08,0.0,0.0,-5.9604645e-08,0,1,1,0,0,0,0,2,2,2,2,2,2,2,2,2,2,2,2
1743177479809379,-3.1664968e-08,-3.929017e-09,1.8626451e-09,0.0,0.0,-5.9604645e-08,0,1,1,0,0,0,0,2,2,2,2,2,2,2,2,2,2,2,2
1743177480009379,-6.402843e-08,-5.1122697e-09,2.4214387e-08,0.0,0.0,-5.9604645e-08,0,1,1,0,0,0,0,2,2,2,2,2,2,2,2,2,2,2,2
1743177480209379,1.7811544e-08,8.381903e-09,-6.519258e-09,0.0,0.0,-5.9604645e-08,0,1,1,0,0,0,0,2,2,2,2,2,2,2,2,2,2,2,2
1743177480409379,-7.566996e-09,-3.4924597e-09,1.8626451e-08,0.0,0.0,0.0,0,1,1,0,0,0,0,2,2,2,2,2,2,2,2,2,2,2,2
1743177480609379,-1.2572855e-08,-2.2351742e-08,-4.656613e-09,0.0,0.0,-5.9604645e-08,0,1,1,0,0,0,0,2,2,2,2,2,2,2,2,2,2,2,2
1743177480809379,3.0966476e-08,3.0675437e-08,1.0244548e-08,0.0,0.0,-5.9604645e-08,0,1,1,0,0,0,0,2,2,2,2,2,2,2,2,2,2,2,2
1743177481009379,-9.8661985e-09,6.7520887e-09,-2.2351742e-08,0.0,0.0,0.0,0,1,1,0,0,0,0,2,2,2,2,2,2,2,2,2,2,2,2
1743177481209379,1.9790605e-09,1.8626451e-09,-2.2351742e-08,0.0,0.0,0.0,0,1,1,0,0,0,0,2,2,2,2,2,2,2,2,2,2,2,2
1743177481409379,2.4214387e-08,-6.519258e-09,-7.450581e-09,0.0,0.0,-5.9604645e-08,0,1,1,0,0,0,0,2,2,2,2,2,2,2,2,2,2,2,2
1743177481609379,-5.2154064e-08,2.7939677e-09,-2.9802322e-08,0.0,0.0,-5.9604645e-08,0,1,1,0,0,0,0,2,2,2,2,2,2,2,2,2,2,2,2
1743177481809379,4.656613e-09,-3.5390258e-08,-1.4901161e-08,0.0,0.0,0.0,0,1,1,0,0,0,0,2,2,2,2,2,2,2,2,2,2,2,2
1743177482009379,-1.21071935e-08,8.381903e-09,-2.2351742e-08,0.0,0.0,0.0,0,1,1,0,0,0,0,2,2,2,2,2,2,2,2,2,2,2,2
1743177482209379,1.9557774e-08,1.0244548e-08,1.0244548e-08,0.0,0.0,-5.9604645e-08,0,1,1,0,0,0,0,2,2,2,2,2,2,2,2,2,2,2,2
1743177482409379,-6.239861e-08,2.8056093e-08,2.2351742e-08,0.0,0.0,0.0,0,1,1,0,0,0,0,2,2,2,2,2,2,2,2,2,2,2,2
1743177482609379,1.3504177e-08,2.9453076e-08,-7.450581e-09,0.0,0.0,-5.9604645e-08,0,1,1,0,0,0,0,2,2,2,2,2,2,2,2,2,2,2,2
1743177482809379,-4.7206413e-08,5.5879354e-09,1.1175871e-08,0.0,0.0,-5.9604645e-08,0,1,1,0,0,0,0,2,2,2,2,2,2,2,2,2,2,2,2
1743177483009379,9.313226e-10,-1.8626451e-08,3.7252903e-09,0.0,0.0,-5.9604645e-08,0,1,1,0,0,0,0,2,2,2,2,2,2,2,2,2,2,2,2
1743177483209379,6.0535967e-09,-3.632158e-08,2.9802322e-08,0.0,0.0,-5.9604645e-08,0,1,1,0,0,0,0,2,2,2,2,2,2,2,2,2,2,2,2
1743177483409379,-3.3993274e-08,-3.1199306e-08,0.0,0.0,0.0,0.0,0,1,1,0,0,0,0,2,2,2,2,2,2,2,2,2,2,2,2
1743177483609379,-5.5879354e-09,2.4214387e-08,-7.450581e-09,0.0,0.0,-5.9604645e-08,0,1,1,0,0,0,0,2,2,2,2,2,2,2,2,2,2,2,2
1743177483809379,-2.2817403e-08,-7.21775e-09,-1.1175871e-08,0.0,0.0,0.0,0,1,1,0,0,0,0,2,2,2,2,2,2,2,2,2,2,2,2
1743177484009379,4.6100467e-08,-5.5879354e-09,-1.4901161e-08,0.0,0.0,-5.9604645e-08,0,1,1,0,0,0,0,2,2,2,2,2,2,2,2,2,2,2,2
1743177484209379,-8.6729415e-09,4.377216e-08,-2.2351742e-08,0.0,0.0,-5.9604645e-08,0,1,1,0,0,0,0,2,2,2,2,2,2,2,2,2,2,2,2
1743177484409379,-1.8626451e-08,5.9371814e-09,-3.3527613e-08,0.0,0.0,-5.9604645e-08,0,1,1,0,0,0,0,2,2,2,2,2,2,2,2,2,2,2,2
1743177484609379,-1.7025741e-09,-4.1909516e-08,1.8626451e-09,0.0,0.0,0.0,0,1,1,0,0,0,0,2,2,2,2,2,2,2,2,2,2,2,2
1743177484809379,-4.9360096e-08,-9.080395e-09,1.1175871e-08,0.0,0.0,0.0,0,1,1,0,0,0,0,2,2,2,2,2,2,2,2,2,2,2,2
1743177485009379,-6.129267e-08,-1.094304e-08,0.0,0.0,0.0,-5.9604645e-08,0,1,1,0,0,0,0,2,2,2,2,2,2,2,2,2,2,2,2
1743177485209379,5.6112185e-08,5.5879354e-09,-2.9802322e-08,0.0,0.0,-5.9604645e-08,0,1,1,0,0,0,0,2,2,2,2,2,2,2,2,2,2,2,2
1743177485409379,1.0477379e-09,-2.537854e-08,3.7252903e-09,0.0,0.0,-5.9604645e-08,0,1,1,0,0,0,0,2,2,2,2,2,2,2,2,2,2,2,2
1743177485609379,-3.562309e-08,-2.188608e-08,-2.0489097e-08,0.0,0.0,-5.9604645e-08,0,1,1,0,0,0,0,2,2,2,2,2,2,2,2,2,2,2,2
1743177485809379,-8.8475645e-09,3.8649887e-08,3.1664968e-08,0.0,0.0,-5.9604645e-08,0,1,1,0,0,0,0,2,2,2,2,2,2,2,2,2,2,2,2
1743177486009379,1.877197e-09,-1.0011718e-08,9.313226e-09,0.0,0.0,-5.9604645e-08,0,1,1,0,0,0,0,2,2,2,2,2,2,2,2,2,2,2,2
1743177486209379,9.080395e-09,5.355105e-09,-4.656613e-09,0.0,0.0,-5.9604645e-08,0,1,1,0,0,0,0,2,2,2,2,2,2,2,2,2,2,2,2
1743177486409379,8.381903e-09,2.2584572e-08,-3.259629e-09,0.0,0.0,-5.9604645e-08,0,1,1,0,0,0,0,2,2,2,2,2,2,2,2,2,2,2,2
1743177486609379,-1.816079e-08,-1.0477379e-08,-1.1175871e-08,0.0,0.0,-5.9604645e-08,0,1,1,0,0,0,0,2,2,2,2,2,2,2,2,2,2,2,2
1743177486809379,3.585592e-08,7.566996e-09,2.7939677e-09,0.0,0.0,-1.1920929e-07,0,1,1,0,0,0,0,2,2,2,2,2,2,2,2,2,2,2,2
1743177487009379,-1.9645086e-08,8.032657e-09,-1.3038516e-08,0.0,0.0,-5.9604645e-08,0,1,1,0,0,0,0,2,2,2,2,2,2,2,2,2,2,2,2
1743177487209379,4.1443855e-08,-9.546056e-09,-2.2817403e-08,0.0,0.0,-5.9604645e-08,0,1,1,0,0,0,0,2,2,2,2,2,2,2,2,2,2,2,2
1743177487409379,2.9336661e-08,1.816079e-08,-9.313226e-09,0.0,0.0,-5.9604645e-08,0,1,1,0,0,0,0,2,2,2,2,2,2,2,2,2,2,2,2
1743177487609379,-1.3271347e-08,-3.655441e-08,1.9208528e-08,0.0,0.0,-5.9604645e-08,0,1,1,0,0,0,0,2,2,2,2,2,2,2,2,2,2,2,2
1743177487809379,8.381903e-09,-1.6298145e-08,-7.21775e-09,0.0,0.0,-5.9604645e-08,0,1,1,0,0,0,0,2,2,2,2,2,2,2,2,2,2,2,2
1743177488009379,5.2154064e-08,2.3283064e-09,-2.5058398e-08,0.0,0.0,-5.9604645e-08,0,1,1,0,0,0,0,2,2,2,2,2,2,2,2,2,2,2,2
1743177488209379,-3.9464794e-08,-1.5075784e-08,2.3283064e-09,0.0,0.0,-5.9604645e-08,0,1,1,0,0,0,0,2,2,2,2,2,2,2,2,2,2,2,2
1743177488409379,4.5291017e-08,-1.8626451e-09,-4.5169145e-08,0.0,0.0,-5.9604645e-08,0,1,1,0,0,0,0,2,2,2,2,2,2,2,2,2,2,2,2
1743177488609379,6.891787e-08,4.656613e-09,1.8626451e-09,0.0,0.0,0.0,0,1,1,0,0,0,0,2,2,2,2,2,2,2,2,2,2,2,2
1743177488809379,3.3178367e-09,2.3515895e-08,3.7252903e-09,0.0,0.0,0.0,0,1,1,0,0,0,0,2,2,2,2,2,2,2,2,2,2,2,2
1743177489009379,-2.2351742e-08,3.4691766e-08,-1.8626451e-08,0.0,0.0,0.0,0,1,1,0,0,0,0,2,2,2,2,2,2,2,2,2,2,2,2
1743177489209379,-1.8626451e-09,-1.21071935e-08,1.4901161e-08,0.0,0.0,-5.9604645e-08,0,1,1,0,0,0,0,2,2,2,2,2,2,2,2,2,2,2,2
1743177489409379,1.4901161e-08,9.313226e-09,1.4901161e-08,0.0,0.0,-5.9604645e-08,0,1,1,0,0,0,0,2,2,2,2,2,2,2,2,2,2,2,2
1743177489609379,-1.5599653e-08,1.7229468e-08,-1.4901161e-08,0.0,0.0,0.0,0,1,1,0,0,0,0,2,2,2,2,2,2,2,2,2,2,2,2
1743177489809379,3.655441e-08,2.7939677e-09,2.9802322e-08,0.0,0.0,-5.9604645e-08,0,1,1,0,0,0,0,2,2,2,2,2,2,2,2,2,2,2,2
1743177490009379,-1.3038516e-08,-9.313226e-09,-2.9802322e-08,0.0,0.0,-5.9604645e-08,0,1,1,0,0,0,0,2,2,2,2,2,2,2,2,2,2,2,2
1743177490209379,-3.562309e-08,-1.071021e-08,-1.4901161e-08,0.0,0.0,-2.9802322e-08,0,1,1,0,0,0,0,2,2,2,2,2,2,2,2,2,2,2,2
1743177490409379,6.2864274e-09,6.519258e-09,-2.2351742e-08,0.0,0.0,0.0,0,1,1,0,0,0,0,2,2,2,2,2,2,2,2,2,2,2,2
1743177490609379,2.0489097e-08,2.4301698e-09,1.4901161e-08,0.0,0.0,-5.9604645e-08,0,1,1,0,0,0,0,2,2,2,2,2,2,2,2,2,2,2,2
1743177490809379,1.8626451e-08,2.7939677e-08,-1.4901161e-08,0.0,0.0,-5.9604645e-08,0,1,1,0,0,0,0,2,2,2,2,2,2,2,2,2,2,2,2
1743177491009379,3.108289e-08,3.306195e-08,1.4901161e-08,0.0,0.0,0.0,0,1,1,0,0,0,0,2,2,2,2,2,2,2,2,2,2,2,2
1743177491209379,5.7742e-08,2.3283064e-09,1.4901161e-08,0.0,0.0,-5.9604645e-08,0,1,1,0,0,0,0,2,2,2,2,2,2,2,2,2,2,2,2
1743177491409379,8.381903e-09,4.1909516e-09,-2.9802322e-08,0.0,0.0,0.0,0,1,1,0,0,0,0,2,2,2,2,2,2,2,2,2,2,2,2
1743177491609379,-4.505273e-08,-2.0954758e-09,-2.2351742e-08,0.0,0.0,-5.9604645e-08,0,1,1,0,0,0,0,2,2,2,2,2,2,2,2,2,2,2,2
1743177491809379,2.9802322e-08,8.1490725e-10,0.0,0.0,0.0,-5.9604645e-08,0,1,1,0,0,0,0,2,2,2,2,2,2,2,2,2,2,2,2
1743177492009379,1.8626451e-08,2.6542693e-08,-2.2351742e-08,0.0,0.0,-5.9604645e-08,0,1,1,0,0,0,0,2,2,2,2,2,2,2,2,2,2,2,2
1743177492209379,3.7252903e-09,-7.450581e-09,-2.9802322e-08,0.0,0.0,-5.9604645e-08,0,1,1,0,0,0,0,2,2,2,2,2,2,2,2,2,2,2,2
1743177492409379,1.3038516e-08,-4.656613e-09,1.4901161e-08,0.0,0.0,-5.9604645e-08,0,1,1,0,0,0,0,2,2,2,2,2,2,2,2,2,2,2,2
1743177492609379,-8.079223e-08,-1.1175871e-08,1.8626451e-08,0.0,0.0,-5.9604645e-08,0,1,1,0,0,0,0,2,2,2,2,2,2,2,2,2,2,2,2
1743177492809379,3.8184226e-08,-1.5366822e-08,2.6077032e-08,0.0,0.0,-5.9604645e-08,0,1,1,0,0,0,0,2,2,2,2,2,2,2,2,2,2,2,2
1743177493009379,-1.4901161e-08,-4.656613e-10,2.9802322e-08,0.0,0.0,0.0,0,1,1,0,0,0,0,2,2,2,2,2,2,2,2,2,2,2,2
1743177493209379,2.0721927e-08,8.3236955e-09,0.0,0.0,0.0,0.0,0,1,1,0,0,0,0,2,2,2,2,2,2,2,2,2,2,2,2
1743177493409379,-1.21071935e-08,-5.5879354e-09,2.9802322e-08,0.0,0.0,0.0,0,1,1,0,0,0,0,2,2,2,2,2,2,2,2,2,2,2,2
1743177493609379,7.174094e-09,-2.7939677e-08,0.0,0.0,0.0,-5.9604645e-08,0,1,1,0,0,0,0,2,2,2,2,2,2,2,2,2,2,2,2
1743177493809379,5.5879354e-09,3.608875e-08,-1.1175871e-08,0.0,0.0,0.0,0,1,1,0,0,0,0,2,2,2,2,2,2,2,2,2,2,2,2
1743177494009379,-1.8044375e-08,1.3969839e-08,-7.450581e-09,0.0,0.0,-5.9604645e-08,0,1,1,0,0,0,0,2,2,2,2,2,2,2,2,2,2,2,2
1743177494209379,4.202593e-08,2.4447218e-09,-2.9802322e-08,0.0,0.0,0.0,0,1,1,0,0,0,0,2,2,2,2,2,2,2,2,2,2,2,2
1743177494409379,3.830064e-08,-7.916242e-09,-7.450581e-09,0.0,0.0,-5.9604645e-08,0,1,1,0,0,0,0,2,2,2,2,2,2,2,2,2,2,2,2
1743177494609379,2.1769665e-08,1.3969839e-08,-1.6763806e-08,0.0,0.0,-5.9604645e-08,0,1,1,0,0,0,0,2,2,2,2,2,2,2,2,2,2,2,2
1743177494809379,1.6647391e-08,6.519258e-09,1.8626451e-08,0.0,0.0,-5.9604645e-08,0,1,1,0,0,0,0,2,2,2,2,2,2,2,2,2,2,2,2
1743177495009379,-4.9592927e-08,1.0244548e-08,7.450581e-09,0.0,0.0,-5.9604645e-08,0,1,1,0,0,0,0,2,2,2,2,2,2,2,2,2,2,2,2
1743177495209379,-5.6112185e-08,0.0,-1.4901161e-08,0.0,0.0,0.0,0,1,1,0,0,0,0,2,2,2,2,2,2,2,2,2,2,2,2
1743177495409379,-5.7305442e-08,0.0,1.8626451e-09,0.0,0.0,-5.9604645e-08,0,1,1,0,0,0,0,2,2,2,2,2,2,2,2,2,2,2,2
1743177495609379,-7.1449904e-09,8.381903e-09,3.5390258e-08,0.0,0.0,0.0,0,1,1,0,0,0,0,2,2,2,2,2,2,2,2,2,2,2,2
1743177495809379,1.5017577e-08,-5.5879354e-09,-1.8626451e-09,0.0,0.0,-5.9604645e-08,0,1,1,0,0,0,0,2,2,2,2,2,2,2,2,2,2,2,2
1743177496009379,6.123446e-08,1.9092113e-08,-5.5879354e-09,0.0,0.0,-5.9604645e-08,0,1,1,0,0,0,0,2,2,2,2,2,2,2,2,2,2,2,2
1743177496209379,-7.241033e-08,-3.7252903e-09,5.5879354e-09,0.0,0.0,-5.9604645e-08,0,1,1,0,0,0,0,2,2,2,2,2,2,2,2,2,2,2,2
1743177496409379,2.9918738e-08,1.6763806e-08,-1.21071935e-08,0.0,0.0,0.0,0,1,1,0,0,0,0,2,2,2,2,2,2,2,2,2,2,2,2
1743177496609379,4.5634806e-08,-1.7229468e-08,-3.7252903e-09,0.0,0.0,0.0,0,1,1,0,0,0,0,2,2,2,2,2,2,2,2,2,2,2,2
1743177496809379,2.7706847e-08,-1.542503e-09,1.8626451e-09,0.0,0.0,-5.9604645e-08,0,1,1,0,0,0,0,2,2,2,2,2,2,2,2,2,2,2,2
1743177497009379,-3.8882717e-08,4.5984052e-08,3.632158e-08,0.0,0.0,0.0,0,1,1,0,0,0,0,2,2,2,2,2,2,2,2,2,2,2,2
1743177497209379,-2.3981556e-08,-1.5366822e-08,-1.6763806e-08,0.0,0.0,0.0,0,1,1,0,0,0,0,2,2,2,2,2,2,2,2,2,2,2,2
1743177497409379,-6.100163e-08,4.656613e-10,-5.355105e-09,0.0,0.0,-5.9604645e-08,0,1,1,0,0,0,0,2,2,2,2,2,2,2,2,2,2,2,2
1743177497609379,-9.022187e-09,-1.4202669e-08,5.5879354e-09,0.0,0.0,0.0,0,1,1,0,0,0,0,2,2,2,2,2,2,2,2,2,2,2,2
1743177497809379,-2.910383e-10,-2.7939677e-09,-3.0267984e-08,0.0,0.0,-5.9604645e-08,0,1,1,0,0,0,0,2,2,2,2,2,2,2,2,2,2,2,2
1743177498009379,-1.21071935e-08,-1.4901161e-08,-4.656613e-09,0.0,0.0,-5.9604645e-08,0,1,1,0,0,0,0,2,2,2,2,2,2,2,2,2,2,2,2
1743177498209379,-1.4202669e-08,-9.924406e-09,1.8044375e-08,0.0,0.0,0.0,0,1,1,0,0,0,0,2,2,2,2,2,2,2,2,2,2,2,2
1743177498409379,-5.820766e-09,-1.3969839e-09,3.972673e-08,0.0,0.0,-5.9604645e-08,0,1,1,0,0,0,0,2,2,2,2,2,2,2,2,2,2,2,2
1743177498609379,2.4097972e-08,9.546056e-09,-7.21775e-09,0.0,0.0,-5.9604645e-08,0,1,1,0,0,0,0,2,2,2,2,2,2,2,2,2,2,2,2
1743177498809379,-7.450581e-09,-3.5390258e-08,-2.3515895e-08,0.0,0.0,-5.9604645e-08,0,1,1,0,0,0,0,2,2,2,2,2,2,2,2,2,2,2,2
1743177499009379,1.5366822e-08,2.1595042e-08,1.3737008e-08,0.0,0.0,-5.9604645e-08,0,1,1,0,0,0,0,2,2,2,2,2,2,2,2,2,2,2,2
1743177499209379,6.4028427e-10,-2.066372e-08,2.7008355e-08,0.0,0.0,-5.9604645e-08,0,1,1,0,0,0,0,2,2,2,2,2,2,2,2,2,2,2,2
1743177499409379,6.4610504e-08,6.4028427e-09,-3.7252903e-09,0.0,0.0,-5.9604645e-08,0,1,1,0,0,0,0,2,2,2,2,2,2,2,2,2,2,2,2
1743177499609379,2.2817403e-08,-1.717126e-08,-5.7043508e-09,0.0,0.0,-5.9604645e-08,0,1,1,0,0,0,0,2,2,2,2,2,2,2,2,2,2,2,2
1743177499809379,-5.4278644e-08,-2.0954758e-09,9.546056e-09,0.0,0.0,0.0,0,1,1,0,0,0,0,2,2,2,2,2,2,2,2,2,2,2,2
1743177500009379,-3.7718564e-08,-1.4901161e-08,-3.9930455e-08,0.0,0.0,-5.9604645e-08,0,1,1,0,0,0,0,2,2,2,2,2,2,2,2,2,2,2,2
1743177500209379,-1.4202669e-08,-1.1292286e-08,-2.6309863e-08,0.0,0.0,0.0,0,1,1,0,0,0,0,2,2,2,2,2,2,2,2,2,2,2,2
1743177500409379,2.6077032e-08,-1.4202669e-08,-6.2864274e-09,0.0,0.0,-5.9604645e-08,0,1,1,0,0,0,0,2,2,2,2,2,2,2,2,2,2,2,2
1743177500609379,3.632158e-08,-1.618173e-08,2.1071173e-08,0.0,0.0,0.0,0,1,1,0,0,0,0,2,2,2,2,2,2,2,2,2,2,2,2
1743177500809379,1.21071935e-08,1.268927e-08,1.5716068e-09,0.0,0.0,-5.9604645e-08,0,1,1,0,0,0,0,2,2,2,2,2,2,2,2,2,2,2,2
1743177501009379,1.839362e-08,-2.7939677e-09,2.1249036e-08,0.0,0.0,-5.9604645e-08,0,1,1,0,0,0,0,2,2,2,2,2,2,2,2,2,2,2,2
1743177501209379,-4.5169145e-08,-4.656613e-10,2.0838343e-08,0.0,0.0,-5.9604645e-08,0,1,1,0,0,0,0,2,2,2,2,2,2,2,2,2,2,2,2
1743177501409379,5.7858415e-08,2.9336661e-08,2.514571e-08,0.0,0.0,-5.9604645e-08,0,1,1,0,0,0,0,2,2,2,2,2,2,2,2,2,2,2,2
1743177501609379,5.5879354e-09,2.6542693e-08,-1.14087015e-08,0.0,0.0,-5.9604645e-08,0,1,1,0,0,0,0,2,2,2,2,2,2,2,2,2,2,2,2
1743177501809379,2.165325e-08,2.7939677e-08,-1.46683306e-08,0.0,0.0,-5.9604645e-08,0,1,1,0,0,0,0,2,2,2,2,2,2,2,2,2,2,2,2
1743177502009379,4.202593e-08,-3.3527613e-08,1.2805685e-09,0.0,0.0,-5.9604645e-08,0,1,1,0,0,0,0,2,2,2,2,2,2,2,2,2,2,2,2
1743177502209379,-2.561137e-09,-2.9431249e-08,-2.4214387e-08,0.0,0.0,-5.9604645e-08,0,1,1,0,0,0,0,2,2,2,2,2,2,2,2,2,2,2,2
1743177502409379,-4.400499e-08,-2.6426278e-08,9.778887e-09,0.0,0.0,-5.9604645e-08,0,1,1,0,0,0,0,2,2,2,2,2,2,2,2,2,2,2,2
1743177502609379,-4.8428774e-08,4.1211024e-08,1.4901161e-08,0.0,0.0,-5.9604645e-08,0,1,1,0,0,0,0,2,2,2,2,2,2,2,2,2,2,2,2
1743177502809379,2.2351742e-08,-1.4086254e-08,1.4901161e-08,0.0,0.0,-5.9604645e-08,0,1,1,0,0,0,0,2,2,2,2,2,2,2,2,2,2,2,2
1743177503009379,-5.9604645e-08,-2.7939677e-09,-1.4901161e-08,0.0,0.0,-5.9604645e-08,0,1,1,0,0,0,0,2,2,2,2,2,2,2,2,2,2,2,2
1743177503209379,-9.778887e-09,2.3748726e-08,1.1175871e-08,0.0,0.0,-5.9604645e-08,0,1,1,0,0,0,0,2,2,2,2,2,2,2,2,2,2,2,2
1743177503409379,-4.284084e-08,-6.9849193e-09,1.8626451e-08,0.0,0.0,-5.9604645e-08,0,1,1,0,0,0,0,2,2,2,2,2,2,2,2,2,2,2,2
1743177503609379,-3.0733645e-08,1.8248102e-08,-1.4901161e-08,0.0,0.0,-5.9604645e-08,0,1,1,0,0,0,0,2,2,2,2,2,2,2,2,2,2,2,2
1743177503809379,-2.2351742e-08,-4.1909516e-09,-2.9802322e-08,0.0,0.0,0.0,0,1,1,0,0,0,0,2,2,2,2,2,2,2,2,2,2,2,2
1743177504009379,-6.0535967e-09,-8.381903e-09,-2.9802322e-08,0.0,0.0,0.0,0,1,1,0,0,0,0,2,2,2,2,2,2,2,2,2,2,2,2
1743177504209379,-1.21071935e-08,1.4930265e-08,0.0,0.0,0.0,0.0,0,1,1,0,0,0,0,2,2,2,2,2,2,2,2,2,2,2,2
1743177504409379,3.259629e-08,5.005859e-09,7.450581e-09,0.0,0.0,0.0,0,1,1,0,0,0,0,2,2,2,2,2,2,2,2,2,2,2,2
1743177504609379,3.0733645e-08,4.004687e-08,-1.4901161e-08,0.0,0.0,-5.9604645e-08,0,1,1,0,0,0,0,2,2,2,2,2,2,2,2,2,2,2,2
1743177504809379,2.7939677e-09,3.5390258e-08,2.9802322e-08,0.0,0.0,2.9802322e-08,0,1,1,0,0,0,0,2,2,2,2,2,2,2,2,2,2,2,2
1743177505009379,3.8184226e-08,-1.0244548e-08,0.0,0.0,0.0,-5.9604645e-08,0,1,1,0,0,0,0,2,2,2,2,2,2,2,2,2,2,2,2
1743177505209379,-2.8405339e-08,2.4912879e-08,1.1175871e-08,0.0,0.0,-5.9604645e-08,0,1,1,0,0,0,0,2,2,2,2,2,2,2,2,2,2,2,2
1743177505409379,1.4901161e-08,-2.7939677e-09,-4.0978193e-08,0.0,0.0,0.0,0,1,1,0,0,0,0,2,2,2,2,2,2,2,2,2,2,2,2
1743177505609379,1.5832484e-08,-1.7695129e-08,-1.8626451e-08,0.0,0.0,0.0,0,1,1,0,0,0,0,2,2,2,2,2,2,2,2,2,2,2,2
1743177505809379,9.778887e-09,-1.0571057e-08,-3.7252903e-09,0.0,0.0,0.0,0,1,1,0,0,0,0,2,2,2,2,2,2,2,2,2,2,2,2
1743177506009379,-4.9825758e-08,8.614734e-09,-4.656613e-09,0.0,0.0,-5.9604645e-08,0,1,1,0,0,0,0,2,2,2,2,2,2,2,2,2,2,2,2
1743177506209379,-2.1187589e-08,-1.5599653e-08,-1.4901161e-08,0.0,0.0,-5.9604645e-08,0,1,1,0,0,0,0,2,2,2,2,2,2,2,2,2,2,2,2
1743177506409379,1.2805685e-08,2.8172508e-08,-2.2351742e-08,0.0,0.0,-5.9604645e-08,0,1,1,0,0,0,0,2,2,2,2,2,2,2,2,2,2,2,2
1743177506609379,-1.5133992e-09,9.022187e-09,-5.5879354e-09,0.0,0.0,-5.9604645e-08,0,1,1,0,0,0,0,2,2,2,2,2,2,2,2,2,2,2,2
1743177506809379,-9.662472e-09,-3.4458935e-08,1.6763806e-08,0.0,0.0,-5.9604645e-08,0,1,1,0,0,0,0,2,2,2,2,2,2,2,2,2,2,2,2
1743177507009379,-2.8405339e-08,-1.094304e-08,-1.792796e-08,0.0,0.0,-5.9604645e-08,0,1,1,0,0,0,0,2,2,2,2,2,2,2,2,2,2,2,2
1743177507209379,-6.0535967e-09,2.7241185e-08,2.7939677e-09,0.0,0.0,-5.9604645e-08,0,1,1,0,0,0,0,2,2,2,2,2,2,2,2,2,2,2,2
1743177507409379,-7.9817255e-09,3.4458935e-08,-6.519258e-09,0.0,0.0,-5.9604645e-08,0,1,1,0,0,0,0,2,2,2,2,2,2,2,2,2,2,2,2
1743177507609379,3.0267984e-08,1.7462298e-08,8.381903e-09,0.0,0.0,-5.9604645e-08,0,1,1,0,0,0,0,2,2,2,2,2,2,2,2,2,2,2,2
1743177507809379,-9.778887e-09,1.1001248e-08,2.4680048e-08,0.0,0.0,0.0,0,1,1,0,0,0,0,2,2,2,2,2,2,2,2,2,2,2,2
1743177508009379,-6.519258e-09,1.3009412e-08,3.259629e-08,0.0,0.0,-5.9604645e-08,0,1,1,0,0,0,0,2,2,2,2,2,2,2,2,2,2,2,2
1743177508209379,-1.6298145e-09,1.0593794e-08,2.7939677e-08,0.0,0.0,-5.9604645e-08,0,1,1,0,0,0,0,2,2,2,2,2,2,2,2,2,2,2,2
1743177508409379,-1.2805685e-08,-2.142042e-08,3.7252903e-08,0.0,0.0,-5.9604645e-08,0,1,1,0,0,0,0,2,2,2,2,2,2,2,2,2,2,2,2
1743177508609379,6.6356733e-09,-2.6426278e-08,1.1175871e-08,0.0,0.0,-5.9604645e-08,0,1,1,0,0,0,0,2,2,2,2,2,2,2,2,2,2,2,2
1743177508809379,-2.2933818e-08,7.21775e-09,-1.816079e-08,0.0,0.0,0.0,0,1,1,0,0,0,0,2,2,2,2,2,2,2,2,2,2,2,2
1743177509009379,-4.514004e-08,-1.2805685e-08,2.2351742e-08,0.0,0.0,-5.9604645e-08,0,1,1,0,0,0,0,2,2,2,2,2,2,2,2,2,2,2,2
1743177509209379,2.2351742e-08,5.820766e-09,-1.8626451e-08,0.0,0.0,0.0,0,1,1,0,0,0,0,2,2,2,2,2,2,2,2,2,2,2,2
1743177509409379,0.0,-1.8626451e-09,0.0,0.0,0.0,-5.9604645e-08,0,1,1,0,0,0,0,2,2,2,2,2,2,2,2,2,2,2,2
1743177509609379,-2.7939677e-08,3.7252903e-09,-2.9802322e-08,0.0,0.0,0.0,0,1,1,0,0,0,0,2,2,2,2,2,2,2,2,2,2,2,2
1743177509809379,1.0244548e-08,3.085006e-08,-2.2351742e-08,0.0,0.0,0.0,0,1,1,0,0,0,0,2,2,2,2,2,2,2,2,2,2,2,2
1743177510009379,-8.381903e-09,2.8405339e-08,2.0489097e-08,0.0,0.0,0.0,0,1,1,0,0,0,0,2,2,2,2,2,2,2,2,2,2,2,2
1743177510209379,2.8405339e-08,-9.313226e-10,1.4901161e-08,0.0,0.0,0.0,0,1,1,0,0,0,0,2,2,2,2,2,2,2,2,2,2,2,2
1743177510409379,1.3038516e-08,3.585592e-08,1.4901161e-08,0.0,0.0,0.0,0,1,1,0,0,0,0,2,2,2,2,2,2,2,2,2,2,2,2
1743177510609379,-6.519258e-09,1.9557774e-08,0.0,0.0,0.0,0.0,0,1,1,0,0,0,0,2,2,2,2,2,2,2,2,2,2,2,2
1743177510809379,6.216578e-08,-2.0256266e-08,2.9802322e-08,0.0,0.0,2.9802322e-08,0,1,1,0,0,0,0,2,2,2,2,2,2,2,2,2,2,2,2
1743177511009379,4.1909516e-09,-1.891749e-08,-1.8626451e-09,0.0,0.0,-5.9604645e-08,0,1,1,0,0,0,0,2,2,2,2,2,2,2,2,2,2,2,2
1743177511209379,1.1059456e-08,6.868504e-09,7.450581e-09,0.0,0.0,0.0,0,1,1,0,0,0,0,2,2,2,2,2,2,2,2,2,2,2,2
1743177511409379,3.3527613e-08,-5.820766e-09,0.0,0.0,0.0,-5.9604645e-08,0,1,1,0,0,0,0,2,2,2,2,2,2,2,2,2,2,2,2
1743177511609379,3.981404e-08,-4.656613e-09,-3.7252903e-08,0.0,0.0,0.0,0,1,1,0,0,0,0,2,2,2,2,2,2,2,2,2,2,2,2
1743177511809379,6.193295e-08,4.656613e-09,0.0,0.0,0.0,-5.9604645e-08,0,1,1,0,0,0,0,2,2,2,2,2,2,2,2,2,2,2,2
1743177512009379,2.4447218e-08,-1.6298145e-08,3.6263373e-08,0.0,0.0,-5.9604645e-08,0,1,1,0,0,0,0,2,2,2,2,2,2,2,2,2,2,2,2
1743177512209379,-3.8649887e-08,1.7651473e-08,-3.7252903e-09,0.0,0.0,-5.9604645e-08,0,1,1,0,0,0,0,2,2,2,2,2,2,2,2,2,2,2,2
1743177512409379,3.8417056e-09,4.7381036e-08,0.0,0.0,0.0,-5.9604645e-08,0,1,1,0,0,0,0,2,2,2,2,2,2,2,2,2,2,2,2
1743177512609379,6.891787e-08,-1.3504177e-08,-7.450581e-09,0.0,0.0,0.0,0,1,1,0,0,0,0,2,2,2,2,2,2,2,2,2,2,2,2
1743177512809379,-5.5879354e-09,4.02797e-08,7.450581e-09,0.0,0.0,-5.9604645e-08,0,1,1,0,0,0,0,2,2,2,2,2,2,2,2,2,2,2,2
1743177513009379,3.7252903e-09,3.585592e-08,7.450581e-09,0.0,0.0,-5.9604645e-08,0,1,1,0,0,0,0,2,2,2,2,2,2,2,2,2,2,2,2
1743177513209379,-4.02797e-08,1.1874363e-08,0.0,0.0,0.0,-5.9604645e-08,0,1,1,0,0,0,0,2,2,2,2,2,2,2,2,2,2,2,2
1743177513409379,9.546056e-09,-2.3283064e-08,1.4901161e-08,0.0,0.0,-5.9604645e-08,0,1,1,0,0,0,0,2,2,2,2,2,2,2,2,2,2,2,2
1743177513609379,8.940697e-08,1.21071935e-08,-1.4901161e-08,0.0,0.0,-5.9604645e-08,0,1,1,0,0,0,0,2,2,2,2,2,2,2,2,2,2,2,2
1743177513809379,2.910383e-08,-6.519258e-09,-1.3038516e-08,0.0,0.0,-5.9604645e-08,0,1,1,0,0,0,0,2,2,2,2,2,2,2,2,2,2,2,2
1743177514009379,-3.5390258e-08,-2.6077032e-08,-7.450581e-09,0.0,0.0,-5.9604645e-08,0,1,1,0,0,0,0,2,2,2,2,2,2,2,2,2,2,2,2
1743177514209379,3.4924597e-09,5.5879354e-09,-1.4901161e-08,0.0,0.0,-5.9604645e-08,0,1,1,0,0,0,0,2,2,2,2,2,2,2,2,2,2,2,2
1743177514409379,1.21071935e-08,-2.3166649e-08,-1.4901161e-08,0.0,0.0,-2.9802322e-08,0,1,1,0,0,0,0,2,2,2,2,2,2,2,2,2,2,2,2
1743177514609379,4.284084e-08,1.5832484e-08,-1.4901161e-08,0.0,0.0,0.0,0,1,1,0,0,0,0,2,2,2,2,2,2,2,2,2,2,2,2
1743177514809379,-1.6996637e-08,3.3527613e-08,0.0,0.0,0.0,0.0,0,1,1,0,0,0,0,2,2,2,2,2,2,2,2,2,2,2,2
1743177515009379,0.0,-1.1175871e-08,-1.4901161e-08,0.0,0.0,0.0,0,1,1,0,0,0,0,2,2,2,2,2,2,2,2,2,2,2,2
1743177515209379,-1.6065314e-08,-2.1187589e-08,0.0,0.0,0.0,0.0,0,1,1,0,0,0,0,2,2,2,2,2,2,2,2,2,2,2,2
1743177515409379,-9.313226e-10,1.9033905e-08,-2.2351742e-08,0.0,0.0,-5.9604645e-08,0,1,1,0,0,0,0,2,2,2,2,2,2,2,2,2,2,2,2
1743177515609379,-1.3969839e-09,1.967419e-08,-1.4028046e-08,0.0,0.0,0.0,0,1,1,0,0,0,0,2,2,2,2,2,2,2,2,2,2,2,2
1743177515809379,-9.313226e-10,3.0267984e-09,2.6077032e-08,0.0,0.0,-5.9604645e-08,0,1,1,0,0,0,0,2,2,2,2,2,2,2,2,2,2,2,2
1743177516009379,-3.410969e-08,-9.240466e-09,7.450581e-09,0.0,0.0,-5.9604645e-08,0,1,1,0,0,0,0,2,2,2,2,2,2,2,2,2,2,2,2
1743177516209379,-5.151378e-08,-3.768946e-09,-1.4901161e-08,0.0,0.0,-5.9604645e-08,0,1,1,0,0,0,0,2,2,2,2,2,2,2,2,2,2,2,2
1743177516409379,5.5879354e-09,-1.1874363e-08,-1.4901161e-08,0.0,0.0,-5.9604645e-08,0,1,1,0,0,0,0,2,2,2,2,2,2,2,2,2,2,2,2
1743177516609379,-4.4703484e-08,3.7252903e-09,-2.9802322e-08,0.0,0.0,-5.9604645e-08,0,1,1,0,0,0,0,2,2,2,2,2,2,2,2,2,2,2,2
1743177516809379,-4.8894435e-09,3.7252903e-09,1.4901161e-08,0.0,0.0,-5.9604645e-08,0,1,1,0,0,0,0,2,2,2,2,2,2,2,2,2,2,2,2
1743177517009379,4.5634806e-08,-1.8626451e-09,-2.9802322e-08,0.0,0.0,0.0,0,1,1,0,0,0,0,2,2,2,2,2,2,2,2,2,2,2,2
1743177517209379,-1.7695129e-08,1.4901161e-08,1.3969839e-08,0.0,0.0,0.0,0,1,1,0,0,0,0,2,2,2,2,2,2,2,2,2,2,2,2
1743177517409379,-3.4458935e-08,-1.3038516e-08,7.450581e-09,0.0,0.0,0.0,0,1,1,0,0,0,0,2,2,2,2,2,2,2,2,2,2,2,2
1743177517609379,-7.7299774e-08,3.632158e-08,2.9802322e-08,0.0,0.0,0.0,0,1,1,0,0,0,0,2,2,2,2,2,2,2,2,2,2,2,2
1743177517809379,1.3504177e-08,-2.3283064e-09,1.4901161e-08,0.0,0.0,-5.9604645e-08,0,1,1,0,0,0,0,2,2,2,2,2,2,2,2,2,2,2,2
1743177518009379,-3.7252903e-09,2.6542693e-08,2.2351742e-08,0.0,0.0,0.0,0,1,1,0,0,0,0,2,2,2,2,2,2,2,2,2,2,2,2
1743177518209379,-2.4680048e-08,-1.792796e-08,-1.8626451e-08,0.0,0.0,-5.9604645e-08,0,1,1,0,0,0,0,2,2,2,2,2,2,2,2,2,2,2,2
1743177518409379,1.0477379e-08,-3.981404e-08,-2.9802322e-08,0.0,0.0,0.0,0,1,1,0,0,0,0,2,2,2,2,2,2,2,2,2,2,2,2
1743177518609379,1.8218998e-08,-1.3038516e-08,-1.4901161e-08,0.0,0.0,0.0,0,1,1,0,0,0,0,2,2,2,2,2,2,2,2,2,2,2,2
1743177518809379,3.585592e-08,4.656613e-09,-1.4901161e-08,0.0,0.0,0.0,0,1,1,0,0,0,0,2,2,2,2,2,2,2,2,2,2,2,2
1743177519009379,4.9418304e-08,9.313226e-10,7.450581e-09,0.0,0.0,-5.9604645e-08,0,1,1,0,0,0,0,2,2,2,2,2,2,2,2,2,2,2,2
1743177519209379,1.4901161e-08,7.450581e-09,1.4901161e-08,0.0,0.0,-5.9604645e-08,0,1,1,0,0,0,0,2,2,2,2,2,2,2,2,2,2,2,2
1743177519409379,5.005859e-09,-2.7939677e-09,0.0,0.0,0.0,-5.9604645e-08,0,1,1,0,0,0,0,2,2,2,2,2,2,2,2,2,2,2,2
1743177519609379,-1.8480932e-08,2.2817403e-08,-1.8626451e-08,0.0,0.0,-5.9604645e-08,0,1,1,0,0,0,0,2,2,2,2,2,2,2,2,2,2,2,2
1743177519809379,3.306195e-08,-9.778887e-09,1.8626451e-09,0.0,0.0,-5.9604645e-08,0,1,1,0,0,0,0,2,2,2,2,2,2,2,2,2,2,2,2
1743177520009379,8.731149e-09,2.3748726e-08,-2.9336661e-08,0.0,0.0,0.0,0,1,1,0,0,0,0,2,2,2,2,2,2,2,2,2,2,2,2
1743177520209379,3.934838e-08,1.1175871e-08,1.6763806e-08,0.0,0.0,0.0,0,1,1,0,0,0,0,2,2,2,2,2,2,2,2,2,2,2,2
1743177520409379,-7.112976e-08,-7.450581e-09,-1.8626451e-08,0.0,0.0,-5.9604645e-08,0,1,1,0,0,0,0,2,2,2,2,2,2,2,2,2,2,2,2
1743177520609379,-5.5879354e-09,-3.783498e-09,3.7252903e-09,0.0,0.0,-5.9604645e-08,0,1,1,0,0,0,0,2,2,2,2,2,2,2,2,2,2,2,2
1743177520809379,-4.5634806e-08,1.1990778e-08,-1.5832484e-08,0.0,0.0,0.0,0,1,1,0,0,0,0,2,2,2,2,2,2,2,2,2,2,2,2
1743177521009379,-1.5890691e-08,2.2700988e-08,3.5390258e-08,0.0,0.0,-5.9604645e-08,0,1,1,0,0,0,0,2,2,2,2,2,2,2,2,2,2,2,2
1743177521209379,-6.251503e-08,3.4924597e-09,-8.381903e-09,0.0,0.0,-5.9604645e-08,0,1,1,0,0,0,0,2,2,2,2,2,2,2,2,2,2,2,2
1743177521409379,-2.7241185e-08,6.213668e-09,-1.0244548e-08,0.0,0.0,0.0,0,1,1,0,0,0,0,2,2,2,2,2,2,2,2,2,2,2,2
1743177521609379,-2.165325e-08,2.4447218e-09,-1.5832484e-08,0.0,0.0,-5.9604645e-08,0,1,1,0,0,0,0,2,2,2,2,2,2,2,2,2,2,2,2
1743177521809379,-3.1897798e-08,3.585592e-08,-2.0489097e-08,0.0,0.0,0.0,0,1,1,0,0,0,0,2,2,2,2,2,2,2,2,2,2,2,2
1743177522009379,3.5288394e-08,3.9115548e-08,4.656613e-09,0.0,0.0,-5.9604645e-08,0,1,1,0,0,0,0,2,2,2,2,2,2,2,2,2,2,2,2
1743177522209379,-7.916242e-09,1.44355e-08,2.9278453e-08,0.0,0.0,0.0,0,1,1,0,0,0,0,2,2,2,2,2,2,2,2,2,2,2,2
1743177522409379,-1.1175871e-08,1.4901161e-08,1.5832484e-08,0.0,0.0,-5.9604645e-08,0,1,1,0,0,0,0,2,2,2,2,2,2,2,2,2,2,2,2
1743177522609379,-1.8742867e-08,2.3981556e-08,2.0489097e-08,0.0,0.0,-5.9604645e-08,0,1,1,0,0,0,0,2,2,2,2,2,2,2,2,2,2,2,2
1743177522809379,-1.5599653e-08,2.7939677e-08,3.4924597e-08,0.0,0.0,-5.9604645e-08,0,1,1,0,0,0,0,2,2,2,2,2,2,2,2,2,2,2,2
1743177523009379,-7.2759576e-09,1.5832484e-08,1.5832484e-08,0.0,0.0,0.0,0,1,1,0,0,0,0,2,2,2,2,2,2,2,2,2,2,2,2
1743177523209379,-2.2817403e-08,3.213063e-08,-8.1490725e-10,0.0,0.0,-5.9604645e-08,0,1,1,0,0,0,0,2,2,2,2,2,2,2,2,2,2,2,2
1743177523409379,2.6935595e-08,-9.313226e-09,1.8742867e-08,0.0,0.0,-5.9604645e-08,0,1,1,0,0,0,0,2,2,2,2,2,2,2,2,2,2,2,2
1743177523609379,-9.080395e-09,2.6077032e-08,4.278263e-08,0.0,0.0,-5.9604645e-08,0,1,1,0,0,0,0,2,2,2,2,2,2,2,2,2,2,2,2
1743177523809379,-6.4552296e-08,1.4595571e-08,-1.0360964e-08,0.0,0.0,-5.9604645e-08,0,1,1,0,0,0,0,2,2,2,2,2,2,2,2,2,2,2,2
1743177524009379,1.193257e-09,-4.1909516e-08,2.1536835e-08,0.0,0.0,-5.9604645e-08,0,1,1,0,0,0,0,2,2,2,2,2,2,2,2,2,2,2,2
1743177524209379,-5.1688403e-08,-1.8044375e-09,2.4796464e-08,0.0,0.0,0.0,0,1,1,0,0,0,0,2,2,2,2,2,2,2,2,2,2,2,2
1743177524409379,-3.1781383e-08,3.0035153e-08,-1.5832484e-08,0.0,0.0,-5.9604645e-08,0,1,1,0,0,0,0,2,2,2,2,2,2,2,2,2,2,2,2
1743177524609379,3.282912e-08,1.4551915e-08,1.967419e-08,0.0,0.0,0.0,0,1,1,0,0,0,0,2,2,2,2,2,2,2,2,2,2,2,2
1743177524809379,2.7939677e-08,-2.188608e-08,4.8894435e-09,0.0,0.0,-5.9604645e-08,0,1,1,0,0,0,0,2,2,2,2,2,2,2,2,2,2,2,2
1743177525009379,-3.381865e-08,-1.9557774e-08,1.5978003e-08,0.0,0.0,-5.9604645e-08,0,1,1,0,0,0,0,2,2,2,2,2,2,2,2,2,2,2,2
1743177525209379,8.838833e-08,2.0954758e-09,-2.2700988e-09,0.0,0.0,-5.9604645e-08,0,1,1,0,0,0,0,2,2,2,2,2,2,2,2,2,2,2,2
1743177525409379,-2.7939677e-08,-8.614734e-09,-1.8510036e-08,0.0,0.0,-5.9604645e-08,0,1,1,0,0,0,0,2,2,2,2,2,2,2,2,2,2,2,2
1743177525609379,-2.0256266e-08,5.697075e-09,-3.282912e-08,0.0,0.0,-5.9604645e-08,0,1,1,0,0,0,0,2,2,2,2,2,2,2,2,2,2,2,2
1743177525809379,-1.1641532e-08,-3.9115548e-08,-6.2864274e-09,0.0,0.0,-5.9604645e-08,0,1,1,0,0,0,0,2,2,2,2,2,2,2,2,2,2,2,2
1743177526009379,3.4924597e-09,3.562309e-08,1.4202669e-08,0.0,0.0,-5.9604645e-08,0,1,1,0,0,0,0,2,2,2,2,2,2,2,2,2,2,2,2
1743177526209379,9.313226e-10,2.2817403e-08,-1.792796e-08,0.0,0.0,0.0,0,1,1,0,0,0,0,2,2,2,2,2,2,2,2,2,2,2,2
1743177526409379,2.386514e-09,-2.986053e-08,3.0500814e-08,0.0,0.0,0.0,0,1,1,0,0,0,0,2,2,2,2,2,2,2,2,2,2,2,2
1743177526609379,-1.8975697e-08,3.061723e-08,4.1909516e-09,0.0,0.0,-5.9604645e-08,0,1,1,0,0,0,0,2,2,2,2,2,2,2,2,2,2,2,2
1743177526809379,4.1443855e-08,2.3283064e-10,-5.5879354e-09,0.0,0.0,-5.9604645e-08,0,1,1,0,0,0,0,2,2,2,2,2,2,2,2,2,2,2,2
1743177527009379,3.8649887e-08,2.3748726e-08,-9.313226e-10,0.0,0.0,0.0,0,1,1,0,0,0,0,2,2,2,2,2,2,2,2,2,2,2,2
1743177527209379,6.9849193e-10,3.8417056e-08,8.381903e-09,0.0,0.0,-5.9604645e-08,0,1,1,0,0,0,0,2,2,2,2,2,2,2,2,2,2,2,2
1743177527409379,3.9115548e-08,-6.9849193e-09,-3.259629e-09,0.0,0.0,0.0,0,1,1,0,0,0,0,2,2,2,2,2,2,2,2,2,2,2,2
1743177527609379,4.749745e-08,-3.6961865e-08,-1.4901161e-08,0.0,0.0,-5.9604645e-08,0,1,1,0,0,0,0,2,2,2,2,2,2,2,2,2,2,2,2
1743177527809379,3.5390258e-08,1.4901161e-08,2.9802322e-08,0.0,0.0,-5.9604645e-08,0,1,1,0,0,0,0,2,2,2,2,2,2,2,2,2,2,2,2
1743177528009379,4.9942173e-08,-5.122274e-09,0.0,0.0,0.0,-5.9604645e-08,0,1,1,0,0,0,0,2,2,2,2,2,2,2,2,2,2,2,2
1743177528209379,1.5832484e-08,-3.6437996e-08,7.450581e-09,0.0,0.0,-5.9604645e-08,0,1,1,0,0,0,0,2,2,2,2,2,2,2,2,2,2,2,2
1743177528409379,-1.4901161e-08,3.3527613e-08,1.4901161e-08,0.0,0.0,0.0,0,1,1,0,0,0,0,2,2,2,2,2,2,2,2,2,2,2,2
1743177528609379,3.7252903e-09,-7.014023e-09,0.0,0.0,0.0,-2.9802322e-08,0,1,1,0,0,0,0,2,2,2,2,2,2,2,2,2,2,2,2
1743177528809379,-1.0244548e-08,-4.656613e-09,-2.9802322e-08,0.0,0.0,-2.9802322e-08,0,1,1,0,0,0,0,2,2,2,2,2,2,2,2,2,2,2,2
1743177529009379,2.3283064e-09,-9.546056e-09,1.1175871e-08,0.0,0.0,0.0,0,1,1,0,0,0,0,2,2,2,2,2,2,2,2,2,2,2,2
1743177529209379,2.7939677e-08,-7.450581e-09,0.0,0.0,0.0,-5.9604645e-08,0,1,1,0,0,0,0,2,2,2,2,2,2,2,2,2,2,2,2
1743177529409379,7.21775e-09,-3.7020072e-08,-1.4901161e-08,0.0,0.0,-5.9604645e-08,0,1,1,0,0,0,0,2,2,2,2,2,2,2,2,2,2,2,2
1743177529609379,-2.8871e-08,3.608875e-08,0.0,0.0,0.0,-5.9604645e-08,0,1,1,0,0,0,0,2,2,2,2,2,2,2,2,2,2,2,2
1743177529809379,-1.5366822e-08,5.2677933e-09,-2.142042e-08,0.0,0.0,-5.9604645e-08,0,1,1,0,0,0,0,2,2,2,2,2,2,2,2,2,2,2,2
1743177530009379,2.6659109e-08,8.978532e-09,-4.4703484e-08,0.0,0.0,-5.9604645e-08,0,1,1,0,0,0,0,2,2,2,2,2,2,2,2,2,2,2,2
1743177530209379,-1.8626451e-08,1.9557774e-08,-2.9802322e-08,0.0,0.0,-5.9604645e-08,0,1,1,0,0,0,0,2,2,2,2,2,2,2,2,2,2,2,2
1743177530409379,1.1175871e-08,0.0,0.0,0.0,0.0,0.0,0,1,1,0,0,0,0,2,2,2,2,2,2,2,2,2,2,2,2
1743177530609379,-4.656613e-10,1.3969839e-08,0.0,0.0,0.0,0.0,0,1,1,0,0,0,0,2,2,2,2,2,2,2,2,2,2,2,2
1743177530809379,1.5832484e-08,3.806781e-08,0.0,0.0,0.0,-5.9604645e-08,0,1,1,0,0,0,0,2,2,2,2,2,2,2,2,2,2,2,2
1743177531009379,-1.8626451e-08,1.1175871e-08,-7.450581e-09,0.0,0.0,-5.9604645e-08,0,1,1,0,0,0,0,2,2,2,2,2,2,2,2,2,2,2,2
1743177531209379,-2.165325e-08,-1.7695129e-08,0.0,0.0,0.0,-5.9604645e-08,0,1,1,0,0,0,0,2,2,2,2,2,2,2,2,2,2,2,2
1743177531409379,3.3527613e-08,8.381903e-09,0.0,0.0,0.0,-5.9604645e-08,0,1,1,0,0,0,0,2,2,2,2,2,2,2,2,2,2,2,2
1743177531609379,-3.306195e-08,4.307367e-09,2.9802322e-08,0.0,0.0,0.0,0,1,1,0,0,0,0,2,2,2,2,2,2,2,2,2,2,2,2
1743177531809379,4.1909516e-08,-4.1909516e-09,0.0,0.0,0.0,2.9802322e-08,0,1,1,0,0,0,0,2,2,2,2,2,2,2,2,2,2,2,2
1743177532009379,-3.958121e-08,-5.529728e-10,-2.0489097e-08,0.0,0.0,-5.9604645e-08,0,1,1,0,0,0,0,2,2,2,2,2,2,2,2,2,2,2,2
1743177532209379,4.156027e-08,4.0978193e-08,1.4901161e-08,0.0,0.0,0.0,0,1,1,0,0,0,0,2,2,2,2,2,2,2,2,2,2,2,2
1743177532409379,-3.1199306e-08,-2.165325e-08,0.0,0.0,0.0,0.0,0,1,1,0,0,0,0,2,2,2,2,2,2,2,2,2,2,2,2
1743177532609379,5.2386895e-08,1.17579475e-08,-2.2351742e-08,0.0,0.0,0.0,0,1,1,0,0,0,0,2,2,2,2,2,2,2,2,2,2,2,2
1743177532809379,4.656613e-09,-9.19681e-09,3.7252903e-09,0.0,0.0,0.0,0,1,1,0,0,0,0,2,2,2,2,2,2,2,2,2,2,2,2
1743177533009379,-1.5832484e-08,4.7002686e-08,7.450581e-09,0.0,0.0,0.0,0,1,1,0,0,0,0,2,2,2,2,2,2,2,2,2,2,2,2
1743177533209379,-7.450581e-09,-2.7939677e-08,2.2351742e-08,0.0,0.0,-5.9604645e-08,0,1,1,0,0,0,0,2,2,2,2,2,2,2,2,2,2,2,2
1743177533409379,5.6345016e-08,-1.4901161e-08,4.4703484e-08,0.0,0.0,-5.9604645e-08,0,1,1,0,0,0,0,2,2,2,2,2,2,2,2,2,2,2,2
1743177533609379,-5.5879354e-09,-9.313226e-10,2.9802322e-08,0.0,0.0,0.0,0,1,1,0,0,0,0,2,2,2,2,2,2,2,2,2,2,2,2
1743177533809379,1.8626451e-08,2.5727786e-08,1.4901161e-08,0.0,0.0,-2.9802322e-08,0,1,1,0,0,0,0,2,2,2,2,2,2,2,2,2,2,2,2
1743177534009379,1.8626451e-09,5.5879354e-09,1.4901161e-08,0.0,0.0,-5.9604645e-08,0,1,1,0,0,0,0,2,2,2,2,2,2,2,2,2,2,2,2
1743177534209379,-1.8626451e-08,1.8626451e-09,-2.9802322e-08,0.0,0.0,-2.9802322e-08,0,1,1,0,0,0,0,2,2,2,2,2,2,2,2,2,2,2,2
1743177534409379,1.21071935e-08,-1.8626451e-08,-2.9802322e-08,0.0,0.0,-2.9802322e-08,0,1,1,0,0,0,0,2,2,2,2,2,2,2,2,2,2,2,2
1743177534609379,-4.5401976e-09,1.9557774e-08,-1.4901161e-08,0.0,0.0,0.0,0,1,1,0,0,0,0,2,2,2,2,2,2,2,2,2,2,2,2
1743177534809379,3.3993274e-08,3.0267984e-08,0.0,0.0,0.0,-5.9604645e-08,0,1,1,0,0,0,0,2,2,2,2,2,2,2,2,2,2,2,2
1743177535009379,-1.6763806e-08,-2.3283064e-08,-7.450581e-09,0.0,0.0,0.0,0,1,1,0,0,0,0,2,2,2,2,2,2,2,2,2,2,2,2
1743177535209379,3.7252903e-09,-2.6077032e-08,7.450581e-09,0.0,0.0,-5.9604645e-08,0,1,1,0,0,0,0,2,2,2,2,2,2,2,2,2,2,2,2
1743177535409379,-3.213063e-08,1.8626451e-08,1.4901161e-08,0.0,0.0,-5.9604645e-08,0,1,1,0,0,0,0,2,2,2,2,2,2,2,2,2,2,2,2
1743177535609379,3.0267984e-08,4.4703484e-08,-1.4901161e-08,0.0,0.0,0.0,0,1,1,0,0,0,0,2,2,2,2,2,2,2,2,2,2,2,2
1743177535809379,2.4447218e-08,1.6298145e-08,0.0,0.0,0.0,-5.9604645e-08,0,1,1,0,0,0,0,2,2,2,2,2,2,2,2,2,2,2,2
1743177536009379,-3.9115548e-08,6.9849193e-09,2.9802322e-08,0.0,0.0,0.0,0,1,1,0,0,0,0,2,2,2,2,2,2,2,2,2,2,2,2
1743177536209379,1.0244548e-08,-3.306195e-08,0.0,0.0,0.0,0.0,0,1,1,0,0,0,0,2,2,2,2,2,2,2,2,2,2,2,2
1743177536409379,2.7241185e-08,-2.3981556e-08,3.213063e-08,0.0,0.0,-5.9604645e-08,0,1,1,0,0,0,0,2,2,2,2,2,2,2,2,2,2,2,2
1743177536609379,-4.656613e-10,-2.5844201e-08,7.450581e-09,0.0,0.0,0.0,0,1,1,0,0,0,0,2,2,2,2,2,2,2,2,2,2,2,2
1743177536809379,1.7695129e-08,-3.9988663e-08,0.0,0.0,0.0,-5.9604645e-08,0,1,1,0,0,0,0,2,2,2,2,2,2,2,2,2,2,2,2
1743177537009379,-3.0675437e-08,-1.5483238e-08,1.4901161e-08,0.0,0.0,-5.9604645e-08,0,1,1,0,0,0,0,2,2,2,2,2,2,2,2,2,2,2,2
1743177537209379,1.1175871e-08,1.5483238e-08,1.4901161e-08,0.0,0.0,0.0,0,1,1,0,0,0,0,2,2,2,2,2,2,2,2,2,2,2,2
1743177537409379,-5.122274e-08,0.0,1.4901161e-08,0.0,0.0,-5.9604645e-08,0,1,1,0,0,0,0,2,2,2,2,2,2,2,2,2,2,2,2
1743177537609379,-2.4214387e-08,3.0267984e-08,0.0,0.0,0.0,-2.9802322e-08,0,1,1,0,0,0,0,2,2,2,2,2,2,2,2,2,2,2,2
1743177537809379,4.4703484e-08,2.561137e-08,5.5879354e-09,0.0,0.0,-5.9604645e-08,0,1,1,0,0,0,0,2,2,2,2,2,2,2,2,2,2,2,2
1743177538009379,5.122274e-09,4.656613e-09,-1.4901161e-08,0.0,0.0,-5.9604645e-08,0,1,1,0,0,0,0,2,2,2,2,2,2,2,2,2,2,2,2
1743177538209379,-1.9557774e-08,1.2223609e-08,-2.9802322e-08,0.0,0.0,-2.9802322e-08,0,1,1,0,0,0,0,2,2,2,2,2,2,2,2,2,2,2,2
1743177538409379,2.0489097e-08,-1.2340024e-08,-2.9802322e-08,0.0,0.0,2.9802322e-08,0,1,1,0,0,0,0,2,2,2,2,2,2,2,2,2,2,2,2
1743177538609379,1.6763806e-08,-6.0535967e-09,1.4901161e-08,0.0,0.0,2.9802322e-08,0,1,1,0,0,0,0,2,2,2,2,2,2,2,2,2,2,2,2
1743177538809379,-3.8417056e-09,2.4214387e-08,7.450581e-09,0.0,0.0,-5.9604645e-08,0,1,1,0,0,0,0,2,2,2,2,2,2,2,2,2,2,2,2
1743177539009379,-3.3527613e-08,2.0489097e-08,0.0,0.0,0.0,-5.9604645e-08,0,1,1,0,0,0,0,2,2,2,2,2,2,2,2,2,2,2,2
1743177539209379,-3.9115548e-08,2.8172508e-08,0.0,0.0,0.0,-5.9604645e-08,0,1,1,0,0,0,0,2,2,2,2,2,2,2,2,2,2,2,2
1743177539409379,1.7695129e-08,-1.9557774e-08,-3.7252903e-09,0.0,0.0,-5.9604645e-08,0,1,1,0,0,0,0,2,2,2,2,2,2,2,2,2,2,2,2
1743177539609379,3.7252903e-09,1.1175871e-08,0.0,0.0,0.0,-5.9604645e-08,0,1,1,0,0,0,0,2,2,2,2,2,2,2,2,2,2,2,2
1743177539809379,-3.4924597e-09,3.213063e-08,-3.7252903e-08,0.0,0.0,-5.9604645e-08,0,1,1,0,0,0,0,2,2,2,2,2,2,2,2,2,2,2,2
1743177540009379,-1.0826625e-08,-9.778887e-09,-3.7252903e-08,0.0,0.0,-5.9604645e-08,0,1,1,0,0,0,0,2,2,2,2,2,2,2,2,2,2,2,2
1743177540209379,4.6100467e-08,4.1909516e-09,3.7252903e-09,0.0,0.0,-5.9604645e-08,0,1,1,0,0,0,0,2,2,2,2,2,2,2,2,2,2,2,2
1743177540409379,2.8390787e-08,-2.3283064e-10,-2.7939677e-08,0.0,0.0,0.0,0,1,1,0,0,0,0,2,2,2,2,2,2,2,2,2,2,2,2
1743177540609379,7.4505806e-08,6.9849193e-09,-1.4901161e-08,0.0,0.0,-5.9604645e-08,0,1,1,0,0,0,0,2,2,2,2,2,2,2,2,2,2,2,2
1743177540809379,3.3527613e-08,2.7939677e-09,-1.4901161e-08,0.0,0.0,-5.9604645e-08,0,1,1,0,0,0,0,2,2,2,2,2,2,2,2,2,2,2,2
1743177541009379,2.7008355e-08,-1.4901161e-08,0.0,0.0,0.0,0.0,0,1,1,0,0,0,0,2,2,2,2,2,2,2,2,2,2,2,2
1743177541209379,-2.3050234e-08,1.8626451e-09,-2.6077032e-08,0.0,0.0,-5.9604645e-08,0,1,1,0,0,0,0,2,2,2,2,2,2,2,2,2,2,2,2
1743177541409379,-1.8626451e-09,1.21071935e-08,2.4214387e-08,0.0,0.0,-5.9604645e-08,0,1,1,0,0,0,0,2,2,2,2,2,2,2,2,2,2,2,2
1743177541609379,-2.4214387e-08,2.6542693e-08,1.4901161e-08,0.0,0.0,-5.9604645e-08,0,1,1,0,0,0,0,2,2,2,2,2,2,2,2,2,2,2,2
1743177541809379,-4.284084e-08,1.5832484e-08,2.9802322e-08,0.0,0.0,-5.9604645e-08,0,1,1,0,0,0,0,2,2,2,2,2,2,2,2,2,2,2,2
1743177542009379,3.306195e-08,-5.864422e-09,0.0,0.0,0.0,-5.9604645e-08,0,1,1,0,0,0,0,2,2,2,2,2,2,2,2,2,2,2,2
1743177542209379,9.19681e-09,2.4680048e-08,7.450581e-09,0.0,0.0,0.0,0,1,1,0,0,0,0,2,2,2,2,2,2,2,2,2,2,2,2
1743177542409379,-1.1175871e-08,-2.0605512e-08,0.0,0.0,0.0,-5.9604645e-08,0,1,1,0,0,0,0,2,2,2,2,2,2,2,2,2,2,2,2
1743177542609379,2.0096195e-08,-2.2817403e-08,0.0,0.0,0.0,-5.9604645e-08,0,1,1,0,0,0,0,2,2,2,2,2,2,2,2,2,2,2,2
1743177542809379,3.3411197e-08,-2.2700988e-08,-7.450581e-09,0.0,0.0,0.0,0,1,1,0,0,0,0,2,2,2,2,2,2,2,2,2,2,2,2
1743177543009379,-4.8428774e-08,4.1909516e-09,3.7252903e-09,0.0,0.0,-5.9604645e-08,0,1,1,0,0,0,0,2,2,2,2,2,2,2,2,2,2,2,2
1743177543209379,1.1641532e-08,3.806781e-08,2.7008355e-08,0.0,0.0,-5.9604645e-08,0,1,1,0,0,0,0,2,2,2,2,2,2,2,2,2,2,2,2
1743177543409379,4.004687e-08,7.21775e-09,2.9802322e-08,0.0,0.0,0.0,0,1,1,0,0,0,0,2,2,2,2,2,2,2,2,2,2,2,2
1743177543609379,-3.1897798e-08,-1.9557774e-08,3.7252903e-09,0.0,0.0,0.0,0,1,1,0,0,0,0,2,2,2,2,2,2,2,2,2,2,2,2
1743177543809379,-6.868504e-09,3.405148e-08,-1.6763806e-08,0.0,0.0,-5.9604645e-08,0,1,1,0,0,0,0,2,2,2,2,2,2,2,2,2,2,2,2
1743177544009379,4.726462e-08,-4.8894435e-09,1.3038516e-08,0.0,0.0,0.0,0,1,1,0,0,0,0,2,2,2,2,2,2,2,2,2,2,2,2
1743177544209379,3.0733645e-08,3.958121e-09,7.450581e-09,0.0,0.0,0.0,0,1,1,0,0,0,0,2,2,2,2,2,2,2,2,2,2,2,2
1743177544409379,1.1666998e-08,-2.0780135e-08,-3.7252903e-09,0.0,0.0,-5.9604645e-08,0,1,1,0,0,0,0,2,2,2,2,2,2,2,2,2,2,2,2
1743177544609379,-2.3865141e-08,-1.44355e-08,-1.4901161e-08,0.0,0.0,-5.9604645e-08,0,1,1,0,0,0,0,2,2,2,2,2,2,2,2,2,2,2,2
1743177544809379,-6.4028427e-09,5.122274e-09,1.4901161e-08,0.0,0.0,-5.9604645e-08,0,1,1,0,0,0,0,2,2,2,2,2,2,2,2,2,2,2,2
1743177545009379,-3.7252903e-09,0.0,0.0,0.0,0.0,-5.9604645e-08,0,1,1,0,0,0,0,2,2,2,2,2,2,2,2,2,2,2,2
1743177545209379,4.0978193e-08,-3.7252903e-09,2.9802322e-08,0.0,0.0,-2.9802322e-08,0,1,1,0,0,0,0,2,2,2,2,2,2,2,2,2,2,2,2
1743177545409379,-1.7695129e-08,5.122274e-09,-1.4901161e-08,0.0,0.0,-5.9604645e-08,0,1,1,0,0,0,0,2,2,2,2,2,2,2,2,2,2,2,2
1743177545609379,-6.6589564e-08,1.6763806e-08,7.450581e-09,0.0,0.0,-5.9604645e-08,0,1,1,0,0,0,0,2,2,2,2,2,2,2,2,2,2,2,2
1743177545809379,-9.313226e-09,2.514571e-08,-5.9604645e-08,0.0,0.0,0.0,0,1,1,0,0,0,0,2,2,2,2,2,2,2,2,2,2,2,2
1743177546009379,8.754432e-08,-1.4901161e-08,0.010510981,0.0,0.0,-5.9604645e-08,0,0,1,0,0,-2,0,2,2,2,2,2,2,2,2,2,2,2,2
1743177546209379,0.0,-2.2351742e-08,-2.9802322e-08,0.0,0.0,0.0,0,1,1,0,0,0,0,2,2,2,2,2,2,2,2,2,2,2,2
1743177546409379,1.1175871e-08,7.21775e-09,3.7252903e-09,0.0,0.0,2.9802322e-08,0,1,1,0,0,0,0,2,2,2,2,2,2,2,2,2,2,2,2
1743177546609379,-5.4948032e-08,-2.4214387e-08,1.4901161e-08,0.0,0.0,-5.9604645e-08,0,1,1,0,0,0,0,2,2,2,2,2,2,2,2,2,2,2,2
1743177546809379,-1.4901161e-08,-1.641456e-08,0.0,0.0,0.0,-5.9604645e-08,0,1,1,0,0,0,0,2,2,2,2,2,2,2,2,2,2,2,2
1743177547009379,-5.5879354e-08,-7.916242e-09,0.0,0.0,0.0,-5.9604645e-08,0,1,1,0,0,0,0,2,2,2,2,2,2,2,2,2,2,2,2
1743177547209379,-9.778887e-09,-3.3993274e-08,1.4901161e-08,0.0,0.0,0.0,0,1,1,0,0,0,0,2,2,2,2,2,2,2,2,2,2,2,2
1743177547409379,-4.4237822e-08,3.0267984e-09,7.450581e-09,0.0,0.0,0.0,0,1,1,0,0,0,0,2,2,2,2,2,2,2,2,2,2,2,2
1743177547609379,-2.3341272e-08,-1.1175871e-08,1.4901161e-08,0.0,0.0,-5.9604645e-08,0,1,1,0,0,0,0,2,2,2,2,2,2,2,2,2,2,2,2
1743177547809379,-2.910383e-08,-9.313226e-09,0.0,0.0,0.0,-5.9604645e-08,0,1,1,0,0,0,0,2,2,2,2,2,2,2,2,2,2,2,2
1743177548009379,8.568168e-08,1.2572855e-08,-3.7252903e-09,0.0,0.0,-5.9604645e-08,0,1,1,0,0,0,0,2,2,2,2,2,2,2,2,2,2,2,2
1743177548209379,2.7474016e-08,-4.656613e-09,1.816079e-08,0.0,0.0,0.0,0,1,1,0,0,0,0,2,2,2,2,2,2,2,2,2,2,2,2
1743177548409379,-1.6065314e-08,1.9557774e-08,-1.4901161e-08,0.0,0.0,-5.9604645e-08,0,1,1,0,0,0,0,2,2,2,2,2,2,2,2,2,2,2,2
1743177548609379,2.537854e-08,-6.2864274e-09,2.9802322e-08,0.0,0.0,-5.9604645e-08,0,1,1,0,0,0,0,2,2,2,2,2,2,2,2,2,2,2,2
1743177548809379,3.3993274e-08,-2.7706847e-08,-2.6077032e-08,0.0,0.0,-5.9604645e-08,0,1,1,0,0,0,0,2,2,2,2,2,2,2,2,2,2,2,2
1743177549009379,1.1175871e-08,2.7706847e-08,-4.1909516e-08,0.0,0.0,-5.9604645e-08,0,1,1,0,0,0,0,2,2,2,2,2,2,2,2,2,2,2,2
1743177549209379,-5.948823e-08,2.4447218e-08,-2.9729563e-08,0.0,0.0,0.0,0,1,1,0,0,0,0,2,2,2,2,2,2,2,2,2,2,2,2
1743177549409379,-5.871698e-09,-2.3748726e-08,1.1175871e-08,0.0,0.0,-5.9604645e-08,0,1,1,0,0,0,0,2,2,2,2,2,2,2,2,2,2,2,2
1743177549609379,-5.2619725e-08,-2.0023435e-08,-1.1175871e-08,0.0,0.0,0.0,0,1,1,0,0,0,0,2,2,2,2,2,2,2,2,2,2,2,2
1743177549809379,8.1490725e-09,-2.7706847e-08,1.7695129e-08,0.0,0.0,-5.9604645e-08,0,1,1,0,0,0,0,2,2,2,2,2,2,2,2,2,2,2,2
1743177550009379,-5.7742e-08,-3.0267984e-09,-9.313226e-09,0.0,0.0,0.0,0,1,1,0,0,0,0,2,2,2,2,2,2,2,2,2,2,2,2
1743177550209379,1.44355e-08,-1.0477379e-08,-2.7474016e-08,0.0,0.0,0.0,0,1,1,0,0,0,0,2,2,2,2,2,2,2,2,2,2,2,2
1743177550409379,-5.355105e-09,2.0023435e-08,-9.313226e-10,0.0,0.0,-5.9604645e-08,0,1,1,0,0,0,0,2,2,2,2,2,2,2,2,2,2,2,2
1743177550609379,-4.420872e-08,2.7474016e-08,-2.4680048e-08,0.0,0.0,-5.9604645e-08,0,1,1,0,0,0,0,2,2,2,2,2,2,2,2,2,2,2,2
1743177550809379,-3.981404e-08,3.4546247e-08,-3.0966476e-08,0.0,0.0,-5.9604645e-08,0,1,1,0,0,0,0,2,2,2,2,2,2,2,2,2,2,2,2
1743177551009379,2.8871e-08,-1.7462298e-09,1.7695129e-08,0.0,0.0,-5.9604645e-08,0,1,1,0,0,0,0,2,2,2,2,2,2,2,2,2,2,2,2
1743177551209379,2.0489097e-08,-2.2351742e-08,2.3748726e-08,0.0,0.0,0.0,0,1,1,0,0,0,0,2,2,2,2,2,2,2,2,2,2,2,2
1743177551409379,-4.2142347e-08,1.3969839e-08,1.6763806e-08,0.0,0.0,-5.9604645e-08,0,1,1,0,0,0,0,2,2,2,2,2,2,2,2,2,2,2,2
1743177551609379,1.816079e-08,-1.7753337e-08,-2.7008355e-08,0.0,0.0,-5.9604645e-08,0,1,1,0,0,0,0,2,2,2,2,2,2,2,2,2,2,2,2
1743177551809379,3.0267984e-09,-5.820766e-11,-3.7718564e-08,0.0,0.0,-5.9604645e-08,0,1,1,0,0,0,0,2,2,2,2,2,2,2,2,2,2,2,2
