timestamp,x,y,z,vx,vy,vz,acceleration[0],acceleration[1],acceleration[2],thrust[0],thrust[1],thrust[2],yaw,yawspeed
1743177449813379,nan,nan,nan,nan,nan,nan,0.0,0.0,100.0,-0.0,-0.0,-0.001,-0.0003785669,0.0
1743177449821379,nan,nan,nan,nan,nan,nan,0.0,0.0,100.0,-0.0,-0.0,-0.001,-0.00034804211,0.0
1743177449909379,nan,nan,nan,nan,nan,nan,0.0,0.0,100.0,-0.0,-0.0,-0.001,-0.0002274622,0.0
1743177450005379,nan,nan,nan,nan,nan,nan,0.0,0.0,100.0,-0.0,-0.0,-0.001,-0.00011482614,0.0
1743177450109379,nan,nan,nan,nan,nan,nan,0.0,0.0,100.0,-0.0,-0.0,-0.001,-1.5666834,0.0
1743177450213379,nan,nan,nan,nan,nan,nan,0.0,0.0,100.0,-0.0,-0.0,-0.001,-1.5671289,0.0
1743177450309379,nan,nan,nan,nan,nan,nan,0.0,0.0,100.0,-0.0,-0.0,-0.001,-1.568033,0.0
1743177450413379,nan,nan,nan,nan,nan,nan,0.0,0.0,100.0,-0.0,-0.0,-0.001,-1.569264,0.0
1743177450509379,nan,nan,nan,nan,nan,nan,0.0,0.0,100.0,-0.0,-0.0,-0.001,-1.5696956,0.0
1743177450613379,nan,nan,nan,nan,nan,nan,0.0,0.0,100.0,-0.0,-0.0,-0.001,-1.5692638,0.0
1743177450709379,nan,nan,nan,nan,nan,nan,0.0,0.0,100.0,-0.0,-0.0,-0.001,-1.5687393,0.0
1743177450813379,nan,nan,nan,nan,nan,nan,0.0,0.0,100.0,-0.0,-0.0,-0.001,-1.5678596,0.0
1743177450909379,nan,nan,nan,nan,nan,nan,0.0,0.0,100.0,-0.0,-0.0,-0.001,-1.5674517,0.0
1743177451013379,nan,nan,nan,nan,nan,nan,0.0,0.0,100.0,-0.0,-0.0,-0.001,-1.5667335,0.0
1743177451109379,nan,nan,nan,nan,nan,nan,0.0,0.0,100.0,-0.0,-0.0,-0.001,-1.566239,0.0
1743177451205379,nan,nan,nan,nan,nan,nan,0.0,0.0,100.0,-0.0,-0.0,-0.001,-1.5657551,0.0
1743177451309379,nan,nan,nan,nan,nan,nan,0.0,0.0,100.0,-0.0,-0.0,-0.001,-1.565322,0.0
1743177451413379,nan,nan,nan,nan,nan,nan,0.0,0.0,100.0,-0.0,-0.0,-0.001,-1.565043,0.0
1743177451509379,nan,nan,nan,nan,nan,nan,0.0,0.0,100.0,-0.0,-0.0,-0.001,-1.5648973,0.0
1743177451605379,nan,nan,nan,nan,nan,nan,0.0,0.0,100.0,-0.0,-0.0,-0.001,-1.5652624,0.0
1743177451709379,nan,nan,nan,nan,nan,nan,0.0,0.0,100.0,-0.0,-0.0,-0.001,-1.5656271,0.0
1743177451813379,nan,nan,nan,nan,nan,nan,0.0,0.0,100.0,-0.0,-0.0,-0.001,-1.5657474,0.0
1743177451909379,nan,nan,nan,nan,nan,nan,0.0,0.0,100.0,-0.0,-0.0,-0.001,-1.5657425,0.0
1743177452013379,nan,nan,nan,nan,nan,nan,0.0,0.0,100.0,-0.0,-0.0,-0.001,-1.5658746,0.0
1743177452109379,nan,nan,nan,nan,nan,nan,0.0,0.0,100.0,-0.0,-0.0,-0.001,-1.5658998,0.0
1743177452205379,nan,nan,nan,nan,nan,nan,0.0,0.0,100.0,-0.0,-0.0,-0.001,-1.5652031,0.0
1743177452309379,nan,nan,nan,nan,nan,nan,0.0,0.0,100.0,-0.0,-0.0,-0.001,-1.565104,0.0
1743177452413379,nan,nan,nan,nan,nan,nan,0.0,0.0,100.0,-0.0,-0.0,-0.001,-1.5649964,0.0
1743177452509379,nan,nan,nan,nan,nan,nan,0.0,0.0,100.0,-0.0,-0.0,-0.001,-1.5650281,0.0
1743177452613379,nan,nan,nan,nan,nan,nan,0.0,0.0,100.0,-0.0,-0.0,-0.001,-1.5646139,0.0
1743177452709379,nan,nan,nan,nan,nan,nan,0.0,0.0,100.0,-0.0,-0.0,-0.001,-1.5647191,0.0
1743177452805379,nan,nan,nan,nan,nan,nan,0.0,0.0,100.0,-0.0,-0.0,-0.001,-1.5650164,0.0
1743177452909379,nan,nan,nan,nan,nan,nan,0.0,0.0,100.0,-0.0,-0.0,-0.001,-1.5652937,0.0
1743177453005379,nan,nan,nan,nan,nan,nan,0.0,0.0,100.0,-0.0,-0.0,-0.001,-1.5653249,0.0
1743177453109379,nan,nan,nan,nan,nan,nan,0.0,0.0,100.0,-0.0,-0.0,-0.001,-1.5650644,0.0
1743177453213379,nan,nan,nan,nan,nan,nan,0.0,0.0,100.0,-0.0,-0.0,-0.001,-1.5646579,0.0
1743177453309379,nan,nan,nan,nan,nan,nan,0.0,0.0,100.0,-0.0,-0.0,-0.001,-1.5646356,0.0
1743177453405379,nan,nan,nan,nan,nan,nan,0.0,0.0,100.0,-0.0,-0.0,-0.001,-1.5647013,0.0
1743177453509379,nan,nan,nan,nan,nan,nan,0.0,0.0,100.0,-0.0,-0.0,-0.001,-1.5645849,0.0
1743177453613379,nan,nan,nan,nan,nan,nan,0.0,0.0,100.0,-0.0,-0.0,-0.001,-1.5649025,0.0
1743177453709379,nan,nan,nan,nan,nan,nan,0.0,0.0,100.0,-0.0,-0.0,-0.001,-1.5646814,0.0
1743177453813379,nan,nan,nan,nan,nan,nan,0.0,0.0,100.0,-0.0,-0.0,-0.001,-1.5644308,0.0
1743177453909379,nan,nan,nan,nan,nan,nan,0.0,0.0,100.0,-0.0,-0.0,-0.001,-1.5643551,0.0
1743177454013379,nan,nan,nan,nan,nan,nan,0.0,0.0,100.0,-0.0,-0.0,-0.001,-1.5641378,0.0
1743177454109379,nan,nan,nan,nan,nan,nan,0.0,0.0,100.0,-0.0,-0.0,-0.001,-1.5639057,0.0
1743177454213379,nan,nan,nan,nan,nan,nan,0.0,0.0,100.0,-0.0,-0.0,-0.001,-1.5637921,0.0
1743177454309379,nan,nan,nan,nan,nan,nan,0.0,0.0,100.0,-0.0,-0.0,-0.001,-1.5639117,0.0
1743177454413379,nan,nan,nan,nan,nan,nan,0.0,0.0,100.0,-0.0,-0.0,-0.001,-1.5638236,0.0
1743177454509379,nan,nan,nan,nan,nan,nan,0.0,0.0,100.0,-0.0,-0.0,-0.001,-1.5640491,0.0
1743177454613379,nan,nan,nan,nan,nan,nan,0.0,0.0,100.0,-0.0,-0.0,-0.001,-1.5646509,0.0
1743177454709379,nan,nan,nan,nan,nan,nan,0.0,0.0,100.0,-0.0,-0.0,-0.001,-1.5649666,0.0
1743177454813379,nan,nan,nan,nan,nan,nan,0.0,0.0,100.0,-0.0,-0.0,-0.001,-1.5649639,0.0
1743177454909379,nan,nan,nan,nan,nan,nan,0.0,0.0,100.0,-0.0,-0.0,-0.001,-1.5650977,0.0
1743177455013379,nan,nan,nan,nan,nan,nan,0.0,0.0,100.0,-0.0,-0.0,-0.001,-1.5649768,0.0
1743177455109379,nan,nan,nan,nan,nan,nan,0.0,0.0,100.0,-0.0,-0.0,-0.001,-1.5650082,0.0
1743177455213379,nan,nan,nan,nan,nan,nan,0.0,0.0,100.0,-0.0,-0.0,-0.001,-1.5646789,0.0
1743177455309379,nan,nan,nan,nan,nan,nan,0.0,0.0,100.0,-0.0,-0.0,-0.001,-1.5648285,0.0
1743177455405379,nan,nan,nan,nan,nan,nan,0.0,0.0,100.0,-0.0,-0.0,-0.001,-1.5646876,0.0
1743177455509379,nan,nan,nan,nan,nan,nan,0.0,0.0,100.0,-0.0,-0.0,-0.001,-1.564922,0.0
1743177455605379,0.00034348608,-0.0008332232,0.017060589,-0.00067025947,0.0019943332,2.306285,-0.023592662,0.01784926,9.55013,-3.767355e-05,2.8502294e-05,-0.015694678,-1.5650032,0.0
1743177455709379,0.00033756826,-0.0006866143,0.011609045,-0.0016222702,0.0026724865,2.1172938,-0.027948963,0.016476067,9.253911,-9.595364e-05,5.65652e-05,-0.033818245,-1.5653185,0.0
1743177455805379,0.00032526266,-0.0005303628,0.016151262,-0.002455756,0.0031245425,1.9428406,-0.028427506,0.013210934,8.9480915,-0.00015252667,7.088275e-05,-0.052529216,-1.5649414,0.0
1743177455909379,0.00030846972,-0.00038868716,0.010933892,-0.00334406,0.0034134341,1.7538497,-0.033522792,0.017554792,8.574436,-0.00025781355,0.00013500854,-0.07539052,-1.5645958,0.0
1743177456005379,0.0002843984,-0.00023818933,0.014455695,-0.004179808,0.003774388,1.5793965,-0.03763921,0.026201155,8.202171,-0.00037733873,0.00026267057,-0.09816682,-1.5646249,0.0
1743177456109379,0.0002567609,-0.00010222593,0.009665581,-0.005037077,0.004305053,1.3904054,-0.03956197,0.020746587,7.754506,-0.0005064258,0.0002655734,-0.12555629,-1.5650191,0.0
1743177456213379,0.00021491153,6.34514e-05,0.00876757,-0.006104065,0.0047769644,1.2014145,-0.055273194,0.023045614,7.271565,-0.0008744846,0.00036460775,-0.15510407,-1.5649961,0.0
1743177456309379,0.00018251584,0.00017108409,0.008069658,-0.0072670206,0.0052548596,1.0269617,-0.055959124,0.03244874,6.790112,-0.0010531862,0.0006107058,-0.18456078,-1.5651093,0.0
1743177456413379,0.0001271981,0.00032802668,0.00717232,-0.008772038,0.006044995,0.8379717,-0.07356313,0.03980026,6.2367067,-0.00163956,0.0008870602,-0.21841976,-1.5648552,0.0
1743177456509379,8.58536e-05,0.00042948508,0.006365393,-0.010299964,0.0067675933,0.6635195,-0.07207821,0.029979244,5.6893587,-0.0018523172,0.0007704279,-0.25190815,-1.5646464,0.0
1743177456613379,1.715104e-05,0.0005766749,0.0049612653,-0.011761832,0.0072435224,0.4745295,-0.07560411,0.026208729,5.054338,-0.0022406615,0.00077674206,-0.2907606,-1.5648252,0.0
1743177456709379,-3.3106913e-05,0.0006713389,0.003936999,-0.012834538,0.0074057085,0.3000772,-0.07732333,0.032950625,4.4394665,-0.0025909091,0.0011040919,-0.32838026,-1.5645788,0.0
1743177456805379,-0.0001037703,0.0007900814,0.0033784697,-0.013781604,0.007670834,0.1256249,-0.08441511,0.036800012,3.7844913,-0.003174532,0.0013839089,-0.3684536,-1.564612,0.0
1743177456909379,-0.0001743383,0.0008951797,0.0011405984,-0.014649669,0.007921719,0.05493886,-0.082370356,0.0341303,3.5117035,-0.0032364214,0.0013410168,-0.38514358,-1.5648335,0.0
1743177457013379,-0.00026975895,0.0010202078,-0.00021176387,-0.015328049,0.007955791,-0.0055886963,-0.082886025,0.02980893,3.2687826,-0.0033815594,0.0012161358,-0.40000618,-1.565281,0.0
1743177457109379,-0.00033782955,0.0010995013,-0.001088734,-0.01571281,0.00775245,-0.045834325,-0.090773605,0.02809373,3.0998867,-0.0037993935,0.001175883,-0.41033974,-1.5656115,0.0
1743177457205379,-0.00043165818,0.001197549,-0.002866045,-0.015978413,0.0074569057,-0.09891648,-0.083178796,0.026905373,2.875266,-0.0035981,0.0011638569,-0.4240827,-1.5656613,0.0
1743177457309379,-0.00052363303,0.0012828415,-0.0031887698,-0.016000465,0.0071112635,-0.14655796,-0.08599696,0.021163544,2.6543422,-0.0038371154,0.00094430044,-0.43759948,-1.5658406,0.0
1743177457413379,-0.0006458573,0.0013821666,-0.0042904806,-0.015905239,0.0067073833,-0.20702454,-0.08002896,0.026132654,2.3693109,-0.00371286,0.0012123972,-0.45503855,-1.5658511,0.0
1743177457509379,-0.0007318269,0.001443741,-0.004984252,-0.0156215215,0.0063253297,-0.2472961,-0.07969937,0.015291639,2.164525,-0.00379854,0.00072881265,-0.46756795,-1.5656528,0.0
1743177457613379,-0.0008675233,0.0015289087,-0.006251935,-0.015321804,0.0059630815,-0.3077854,-0.078629956,0.0256803,1.8703628,-0.0038939798,0.0012717616,-0.48556566,-1.5654836,0.0
1743177457709379,-0.0009624825,0.0015807581,-0.007305567,-0.0149879465,0.0057881568,-0.3480089,-0.071097195,0.022281824,1.643538,-0.0036201696,0.0011345592,-0.49944347,-1.5656241,0.0
1743177457813379,-0.0011116713,0.0016509237,-0.008887752,-0.014554074,0.005658034,-0.40859327,-0.06668401,0.019220866,1.3223253,-0.0035252317,0.0010161056,-0.51909626,-1.5657085,0.0
1743177457909379,-0.0012156408,0.001692511,-0.010054026,-0.013946685,0.005535324,-0.44880858,-0.06635793,0.025575463,1.0778222,-0.0036091271,0.0013910183,-0.53405565,-1.5660396,0.0
1743177458013379,-0.0013787915,0.0017470394,-0.013319657,-0.0012135748,0.0005330519,-0.5096705,0.45944983,-0.18576257,0.9335822,0.02543439,-0.010283512,-0.5428807,-1.5657551,0.0
1743177458109379,-0.0014925828,0.0017780557,-0.021470493,0.01851142,-0.0072898967,-0.5480643,0.28361133,-0.11207939,1.0380001,0.01551653,-0.0061319238,-0.5364921,-1.565745,0.0
1743177458213379,-0.0016674021,0.0018161149,-0.045033265,0.03684239,-0.014460653,-0.6112707,0.21119407,-0.09167781,1.0246654,0.0115728965,-0.0050237104,-0.537308,-1.5653632,0.0
1743177458309379,-0.0017837489,0.0018357158,-0.067338765,0.04904966,-0.019420383,-0.6470237,0.19286665,-0.090370856,1.0823946,0.010498285,-0.0049191453,-0.5337759,-1.5650885,0.0
1743177458413379,-0.0019572035,0.0018562132,-0.10974494,0.05816676,-0.023700062,-0.71287096,0.18835057,-0.08908654,1.0383464,0.010303101,-0.004873187,-0.5364709,-1.5649947,0.0
1743177458509379,-0.002071753,0.0018637812,-0.1438056,0.063935004,-0.026775545,-0.7462857,0.17012696,-0.0799274,1.1026573,0.0092400005,-0.0043410473,-0.53253615,-1.5651731,0.0
1743177458613379,-0.002249104,0.0018706474,-0.22527358,0.06731284,-0.028918454,-0.842191,0.13924651,-0.06288951,0.27155656,0.008283796,-0.0037413063,-0.5833854,-1.5654587,0.0
1743177458709379,-0.0023993943,0.0018900834,-0.29257008,0.06807964,-0.029752007,-0.9193941,0.10755874,-0.048451528,0.31414902,0.0063706087,-0.002869741,-0.58077943,-1.5651875,0.0
1743177458813379,-0.002683633,0.0019482519,-0.40668285,0.066529855,-0.029583234,-1.098212,0.07660274,-0.032745264,0.046532393,0.0046670893,-0.001995034,-0.597153,-1.5648286,0.0
1743177458909379,-0.002912348,0.002006421,-0.49452335,0.06389749,-0.028881203,-1.2133197,0.06130603,-0.038021524,0.19682407,0.0036759514,-0.0022797964,-0.58795774,-1.5646874,0.0
1743177459005379,-0.0032566038,0.0021052884,-0.62666565,0.060124658,-0.027798727,-1.4261703,0.0382509,-0.034368683,-0.05837989,0.0023611079,-0.0021214704,-0.6035719,-1.5647631,0.0
1743177459109379,-0.0036214776,0.0022199296,-0.7702368,0.055456772,-0.026394835,-1.6305377,0.014305064,-0.020080674,-0.047423363,0.0008875327,-0.0012458705,-0.6029015,-1.5651469,0.0
1743177459213379,-0.0041412003,0.002394885,-0.98434645,0.050108936,-0.024793578,-1.9778893,0.0090985615,-0.022077398,-0.3268602,0.0005767564,-0.0013994828,-0.6199983,-1.5655547,0.0
1743177459309379,-0.0045270147,0.0025311268,-1.1499478,0.045181993,-0.023419518,-2.1360786,-0.0053531905,-0.01699434,0.5407679,-0.000311184,-0.0009878906,-0.56691426,-1.5653902,0.0
1743177459413379,-0.005164856,0.0027650124,-1.4285023,0.039382268,-0.021835677,-2.4221456,-0.015409688,-0.015661048,0.7075405,-0.0008736814,-0.00088793266,-0.5567106,-1.5649574,0.0
1743177459509379,-0.005629632,0.0029407146,-1.6313205,0.034641184,-0.020533731,-2.5140862,-0.019068148,-0.0075045284,1.0971789,-0.0010272086,-0.00040427188,-0.53287137,-1.5648099,0.0
1743177459605379,-0.00628141,0.0031929489,-1.9115756,0.03008955,-0.019334782,-2.6845703,-0.017247818,-0.00899018,1.0916021,-0.00093782746,-0.0004888292,-0.53321254,-1.5662402,0.0
1743177459709379,-0.006931112,0.0034498733,-2.1833353,0.025714835,-0.01829336,-2.7698433,-0.019591587,-0.008066586,1.2968484,-0.0010380849,-0.0004274182,-0.520655,-1.5660499,0.0
1743177459805379,-0.0076875063,0.0037545718,-2.4876776,0.02190081,-0.017187217,-2.8775449,-0.022290789,-0.0031539146,1.324708,-0.0011768034,-0.00016650546,-0.51895046,-1.5675782,0.0
1743177459909379,-0.008434764,0.0040604547,-2.7739918,0.018061884,-0.01629463,-2.9016173,-0.024139456,-0.012382628,1.5383186,-0.0012432849,-0.0006377582,-0.50588113,-1.5688952,0.0
1743177460013379,-0.009420383,0.0044687605,-3.1339447,0.014546905,-0.015759513,-2.9729462,-0.009528804,-0.01730233,1.2315147,-0.0005095408,-0.0009252203,-0.5246523,-1.5695412,0.0
1743177460109379,-0.010080596,0.004742563,-3.373945,0.012180015,-0.015487811,-2.947941,-0.007773162,-0.012407744,1.2295427,-0.00041929056,-0.0006692837,-0.52477294,-1.5692766,0.0
1743177460213379,-0.011070916,0.0051532662,-3.7339454,0.01011304,-0.014925873,-3.0,-0.0048213145,-0.018871719,1.0497885,-0.00026303655,-0.0010295847,-0.53577083,-1.5687903,0.0
1743177460309379,-0.011731131,0.0054270686,-3.9739456,0.008784452,-0.014660422,-2.996134,0.00010098424,-0.03121123,1.1356156,5.4639668e-06,-0.00168875,-0.53051966,-1.5679747,0.0
1743177460413379,-0.01272145,0.005837772,-4.3339453,0.0073427884,-0.014551101,-3.0,0.009200078,-0.030944297,1.1646371,0.0004962961,-0.0016692828,-0.52874404,-1.5673417,0.0
1743177460509379,-0.013381665,0.0061115744,-4.573945,0.006713561,-0.014819112,-3.0,0.027815524,-0.05523977,1.1741822,0.0014943761,-0.002967731,-0.5281601,-1.5665277,0.0
1743177460605379,-0.014239941,0.0064675175,-4.885945,0.006751433,-0.015581898,-3.0,0.061805975,-0.07611765,1.181384,0.003326876,-0.0040972414,-0.52771944,-1.5664586,-6.0831444e-05
1743177460709379,-0.015032197,0.00679608,-5.1739445,0.00835456,-0.017480714,-3.0,0.097483814,-0.116305575,1.1903384,0.0052397754,-0.006251449,-0.5271716,-1.5664586,-3.8496462e-05
1743177460805379,-0.015890475,0.0071520237,-5.4859443,0.011328198,-0.020419437,-3.0,0.14592549,-0.15345307,1.1878289,0.007845679,-0.008250399,-0.52732515,-1.5664586,-2.349196e-05
1743177460909379,-0.01668274,0.0074805864,-5.773944,0.017175144,-0.02539866,-3.0,0.21454658,-0.21839485,1.180535,0.0115467785,-0.011753891,-0.52777135,-1.5664586,-1.486661e-05
1743177461013379,-0.017673073,0.007891291,-6.1339436,0.025973078,-0.032907836,-3.0,0.2969597,-0.29921526,1.1851234,0.01597319,-0.016094515,-0.5274906,-1.5664586,-8.400143e-06
1743177461109379,-0.018333295,0.008165094,-6.3739433,0.037315123,-0.042616274,-3.0,0.3803019,-0.37461394,1.1814852,0.020464962,-0.020158881,-0.52771324,-1.5664586,-5.7412058e-06
1743177461213379,-0.019323621,0.008575798,-6.733943,0.052947454,-0.0560322,-3.0,0.47424096,-0.46437156,1.1881131,0.025500232,-0.02496955,-0.52730775,-1.5664586,-3.2439773e-06
1743177461309379,-0.019983843,0.008849601,-6.9739428,0.07045094,-0.07135086,-3.0,0.56268215,-0.55097216,1.1898519,0.030249543,-0.029620023,-0.52720135,-1.5664586,-2.2171457e-06
1743177461413379,-0.020974172,0.009260307,-7.3339424,0.09201601,-0.09086839,-3.0,0.6525317,-0.6403165,1.1994798,0.035040535,-0.034384586,-0.5266123,-1.5664586,-1.2527629e-06
1743177461509379,-0.021634389,0.00953411,-7.573942,0.11451335,-0.11127337,-3.0,0.73585624,-0.7161717,-0.15798643,0.039529167,-0.03847174,-0.52679676,-1.5664586,-8.562199e-07
1743177461613379,-0.022624718,0.009944815,-7.933942,0.14070536,-0.1350806,-3.0,0.81872714,-0.8015593,-0.15605506,0.04400434,-0.043081615,-0.52707994,-1.5664586,-4.8379343e-07
1743177461709379,-0.023284938,0.010218618,-8.173942,0.16635227,-0.15809102,-3.0,0.8880523,-0.8474328,-0.14826432,0.047718227,-0.045535594,-0.52694756,-1.5664586,-3.30656e-07
1743177461813379,-0.024275266,0.010629321,-8.533941,0.19438912,-0.18312156,-3.0,0.95150864,-0.90661407,-0.1482481,0.051162966,-0.04874897,-0.5273057,-1.5664586,-1.8683194e-07
1743177461909379,-0.024935486,0.010903125,-8.773941,0.2202041,-0.20623669,-3.0,1.000867,-0.95900446,-0.13903275,0.053791452,-0.05154156,-0.52705836,-1.5664586,-1.2769314e-07
1743177462013379,-0.025925815,0.011313827,-9.133941,0.24727757,-0.23062669,-3.0,1.0462452,-1.0020791,-0.13513276,0.056238666,-0.05386461,-0.52713585,-1.5664586,-7.215098e-08
1743177462109379,-0.026586037,0.01158763,-9.37394,0.27114034,-0.25195783,-3.0,1.0737805,-1.027428,-0.1379856,0.057770472,-0.05527666,-0.5276071,-1.5664586,-4.931269e-08
1743177462213379,-0.02757636,0.011998336,-9.73394,0.2950366,-0.2731135,-3.0,1.1054639,-1.0479424,-0.12665068,0.059429564,-0.05633722,-0.5272038,-1.5664586,-2.7863347e-08
1743177462309379,-0.028236581,0.012272139,-9.97394,0.31543708,-0.29071563,-3.0,1.1265953,-1.0626909,-0.12453072,0.060579248,-0.057142984,-0.52732223,-1.5664586,-1.9043629e-08
1743177462413379,-0.029226905,0.012682844,-10.33394,0.33485144,-0.30714673,-3.0,1.1368953,-1.0725574,-0.127482,0.06118418,-0.05772171,-0.52776355,-1.5664586,-1.0760299e-08
1743177462509379,-0.029887123,0.012956648,-10.573939,0.35077518,-0.3202487,-3.0,1.1481049,-1.0669303,-0.12197624,0.061775237,-0.057407536,-0.5276583,-1.5664586,-7.354291e-09
1743177462613379,-0.030877449,0.013367348,-10.933939,0.36569625,-0.33172622,-3.0,1.1593117,-1.0696598,-0.1195444,0.062388547,-0.05756392,-0.5277468,-1.5664586,-4.1554253e-09
1743177462709379,-0.031537667,0.01364115,-11.173939,0.37759402,-0.34004524,-3.0,1.1662576,-1.0628916,-0.11347929,0.06274357,-0.05718258,-0.52758694,-1.5664586,-2.8400888e-09
1743177462813379,-0.032527987,0.014051854,-11.533938,0.3880409,-0.34653443,-3.0,1.1685946,-1.0515172,-0.10720351,0.062847316,-0.056550864,-0.52740484,-1.5664586,-1.604747e-09
1743177462909379,-0.0331882,0.014325656,-11.773938,0.3959613,-0.35045534,-3.0,1.1606085,-1.0413811,-0.10567951,0.062425748,-0.056012854,-0.52747154,-1.5664586,-1.0967888e-09
1743177463013379,-0.03417853,0.014736358,-12.133938,0.4023673,-0.35261962,-3.0,1.1613706,-1.0348418,-0.10122034,0.062455013,-0.055650674,-0.52737355,-1.5664586,-6.197231e-10
1743177463109379,-0.034838747,0.015010162,-12.373938,0.40647075,-0.35312182,-3.0,1.1526507,-1.0285743,-0.10411643,0.062022902,-0.055346485,-0.52768534,-1.5664586,-4.2355922e-10
1743177463205379,-0.035697028,0.015366106,-12.685937,0.40850088,-0.3522343,-3.0,1.1426487,-1.0165623,-0.10532913,0.061509836,-0.05472249,-0.5279009,-1.5664586,-2.5847144e-10
1743177463309379,-0.036489286,0.015694672,-12.973937,0.40902176,-0.34999102,-3.0,1.1305132,-1.0043731,-0.09804471,0.060823727,-0.05403715,-0.52761537,-1.5664586,-1.635706e-10
1743177463413379,-0.037479613,0.01610538,-13.333937,0.40760013,-0.34662026,-3.0,1.1156123,-0.9915488,-0.085228555,0.05994996,-0.05328313,-0.526982,-1.5664586,-9.242297e-11
1743177463509379,-0.03813983,0.016379185,-13.573936,0.40514234,-0.3429125,-3.0,1.0994639,-0.9907873,-0.09010644,0.05912468,-0.053280495,-0.5273612,-1.5664586,-6.316789e-11
1743177463613379,-0.03913016,0.016789887,-13.933936,0.40102547,-0.33818185,-3.0,1.0897226,-0.98792464,-0.09122306,0.0586201,-0.05314402,-0.5275368,-1.5664586,-3.569201e-11
1743177463709379,-0.039790377,0.017063694,-14.173936,0.39643878,-0.33366185,-3.0,1.0835682,-0.9860932,-0.084741645,0.05825815,-0.053017393,-0.5272564,-1.5664586,-2.4394247e-11
1743177463813379,-0.04078071,0.017474404,-14.533936,0.39070436,-0.32853314,-3.0,1.0716423,-0.98252875,-0.08691487,0.05764154,-0.0528483,-0.5274789,-1.5664586,-1.3783581e-11
1743177463909379,-0.041440926,0.017748209,-14.773935,0.38501948,-0.3238967,-3.0,1.0568582,-0.9828091,-0.0848402,0.05684281,-0.052860104,-0.5274464,-1.5664586,-9.420598e-12
1743177464013379,-0.042431246,0.018158913,-15.133935,0.37788856,-0.31890997,-3.0,1.0486165,-0.9886912,-0.07891531,0.056372207,-0.053150706,-0.527192,-1.5664586,-5.3229587e-12
1743177464109379,-0.043091465,0.018432716,-15.373935,0.37100288,-0.31454137,-3.0,1.0215573,-0.977101,-0.08279546,0.054949116,-0.052557833,-0.5274955,-1.5664586,-3.6380577e-12
1743177464205379,-0.04394974,0.018788656,-15.685934,0.36323047,-0.31007618,-3.0,1.0237249,-0.98983806,-0.087261185,0.055101015,-0.053277086,-0.5278341,-1.5664586,-2.220077e-12
1743177464309379,-0.044741992,0.01911722,-15.973934,0.3546383,-0.30544922,-3.0,1.0128008,-0.99429667,-0.08222864,0.054492522,-0.053496934,-0.52763706,-1.5664586,-1.4049496e-12
1743177464405379,-0.04560027,0.019473167,-16.285936,0.34630808,-0.3012642,-3.0,1.0099773,-0.9978084,-0.0804372,0.05433827,-0.05368356,-0.5276137,-1.5664586,-8.5735206e-13
1743177464509379,-0.046392526,0.019801732,-16.573938,0.33753076,-0.29691592,-3.0,1.0035334,-1.0004646,-0.07842131,0.0539884,-0.05382331,-0.5275807,-1.5664586,-5.425651e-13
1743177464605379,-0.047250804,0.020157672,-16.88594,0.32945344,-0.29277447,-3.0,1.0009662,-0.99464893,-0.07488063,0.053836904,-0.053497132,-0.5274502,-1.5664586,-3.3109323e-13
1743177464709379,-0.04804306,0.020486237,-17.173943,0.32111827,-0.28793496,-3.0,0.99276525,-0.9971651,-0.075638294,0.053407807,-0.053644508,-0.52756995,-1.5664586,-2.0952845e-13
1743177464805379,-0.048901334,0.020842183,-17.485945,0.31330422,-0.2830692,-3.0,0.9926297,-0.9968775,-0.06826579,0.053364795,-0.05359316,-0.52721506,-1.5664586,-1.2786197e-13
1743177464909379,-0.049693592,0.021170747,-17.773947,0.3050081,-0.27777958,-3.0,0.98624235,-0.9916135,-0.06330575,0.05299887,-0.053287514,-0.5269906,-1.5664586,-8.091594e-14
1743177465005379,-0.05055159,0.021526575,-18.085905,0.2975062,-0.27287257,-3.0,0.9799719,-0.99837077,0.089427434,0.051851377,-0.052824873,-0.5188789,-1.5664586,-4.9377887e-14
1743177465109379,-0.051338345,0.021852855,-18.372272,0.2896073,-0.26761383,-3.0,0.9890757,-1.001972,0.3524347,0.050918475,-0.051582385,-0.5048553,-1.5664586,-3.1248214e-14
1743177465205379,-0.052177966,0.022201063,-18.676735,0.2827981,-0.2630082,-3.0,1.0117211,-1.0229702,0.4970247,0.051312547,-0.051883075,-0.4973736,-1.5664586,-1.906881e-14
1743177465309379,-0.052936796,0.022515768,-18.94886,0.27644017,-0.2589671,-3.0,1.0215309,-1.0370089,0.22786313,0.053362664,-0.054171205,-0.5122795,-1.5664586,-1.20674726e-14
1743177465413379,-0.05385812,0.022897871,-19.275105,0.27058995,-0.25558835,-3.0,1.0020622,-1.0291739,-0.0043457747,0.053659983,-0.0551118,-0.52514124,-1.5664586,-6.8185335e-15
1743177465509379,-0.05445334,0.023144735,-19.484074,0.26518834,-0.252606,-3.0,0.991171,-1.0213213,-0.09065485,0.053557053,-0.055186193,-0.52989376,-1.5664586,-4.660231e-15
1743177465613379,-0.055315252,0.0235022,-19.784958,0.2586324,-0.2488699,-2.958795,0.98460907,-1.0137229,0.051830053,0.05242503,-0.053975184,-0.52214897,-1.5664586,-2.6331897e-15
1743177465709379,-0.055868328,0.023731584,-19.977327,0.2524015,-0.24519198,-2.8085878,0.98202854,-1.0306652,0.5489352,0.04960393,-0.052060653,-0.49535185,-1.5664586,-1.7996939e-15
1743177465813379,-0.056664746,0.024061894,-20.253883,0.24595633,-0.24174243,-2.6879559,1.0116175,-1.0586638,0.6748956,0.050421573,-0.05276648,-0.48878744,-1.5664586,-1.0168884e-15
1743177465909379,-0.057173353,0.024272837,-20.430456,0.2409005,-0.2397238,-2.53996,1.020732,-1.0815042,0.82394785,0.050090395,-0.053072665,-0.4812416,-1.5664586,-6.9500784e-16
1743177466013379,-0.057902705,0.024575334,-20.684002,0.23639828,-0.23838457,-2.4262578,1.0338554,-1.0931524,0.7593586,0.05116068,-0.054095004,-0.4852848,-1.5664586,-3.9270314e-16
1743177466109379,-0.058366567,0.024767721,-20.845716,0.23329449,-0.23803805,-2.2923837,1.0442803,-1.1092191,0.82685536,0.051355757,-0.054549325,-0.48227277,-1.5664586,-2.6839896e-16
1743177466213379,-0.059028793,0.025042385,-21.077715,0.23042016,-0.2383363,-2.1909306,1.0480529,-1.1225322,0.7462643,0.052069426,-0.05576971,-0.48721462,-1.5664586,-1.5165455e-16
1743177466309379,-0.059447903,0.025216214,-21.225565,0.22830838,-0.2389961,-2.071228,1.0543569,-1.137431,0.80486,0.052104414,-0.056209784,-0.4846288,-1.5664586,-1.0365062e-16
1743177466413379,-0.060043007,0.025463043,-21.43753,0.22630623,-0.23965602,-1.980538,1.0577791,-1.1336639,0.7220143,0.052821077,-0.056610446,-0.48970318,-1.5664586,-5.856614e-17
1743177466509379,-0.060417365,0.025618318,-21.572527,0.22464263,-0.24007352,-1.8731416,1.0654746,-1.1388806,0.77496016,0.05294418,-0.05659177,-0.48729855,-1.5664586,-4.0027922e-17
1743177466613379,-0.06094535,0.025837313,-21.765944,0.22289957,-0.24018738,-1.791616,1.0740606,-1.1405926,0.7047849,0.053822733,-0.057156757,-0.49142596,-1.5664586,-2.261714e-17
1743177466709379,-0.061274968,0.025974032,-21.889061,0.22159617,-0.24006894,-1.6946148,1.0730016,-1.1414913,0.75695646,0.053482533,-0.056896318,-0.48880082,-1.5664586,-1.545803e-17
1743177466813379,-0.061735827,0.026165191,-22.065378,0.22035456,-0.2395917,-1.6207627,1.0796839,-1.1462212,0.6966506,0.054185934,-0.057525225,-0.49216402,-1.5664586,-8.734314e-18
1743177466909379,-0.062024884,0.0262851,-22.177565,0.2191005,-0.23884209,-1.5327487,1.0772421,-1.1435647,0.7323091,0.053863157,-0.05717935,-0.49034122,-1.5664586,-5.9696e-18
1743177467013379,-0.062451787,0.026462173,-22.338154,0.21770784,-0.23752749,-1.4657649,1.0817407,-1.1365665,0.67102563,0.054455128,-0.057215072,-0.4936706,-1.5664586,-3.3730273e-18
1743177467109379,-0.06272883,0.026577068,-22.440285,0.21655935,-0.23621124,-1.3858458,1.0864165,-1.1369796,0.7087314,0.054461602,-0.05699631,-0.49160337,-1.5664586,-2.305347e-18
1743177467205379,-0.063076966,0.026721446,-22.567427,0.21521538,-0.23491263,-1.3251077,1.0837412,-1.1468339,0.6700433,0.054555092,-0.05773115,-0.49366292,-1.5664586,-1.4068077e-18
1743177467309379,-0.063384935,0.02684916,-22.679363,0.21340919,-0.23362693,-1.2521142,1.0783223,-1.1411557,0.67814285,0.054225806,-0.057385523,-0.49314854,-1.5664586,-8.902816e-19
1743177467413379,-0.06375106,0.027000979,-22.812286,0.21095681,-0.23201303,-1.196352,1.0781823,-1.1326585,0.6245432,0.05452473,-0.057279643,-0.49593243,-1.5664586,-5.0303945e-19
1743177467509379,-0.063983425,0.027097339,-22.896772,0.20853962,-0.23011968,-1.129954,1.0780467,-1.1278641,0.6695939,0.054226983,-0.056732856,-0.49328512,-1.5664586,-3.4381002e-19
1743177467605379,-0.06427151,0.027216801,-23.001879,0.20583056,-0.22761734,-1.0788653,1.0729288,-1.1275826,0.6407164,0.05412135,-0.056878228,-0.49467462,-1.5664586,-2.0980555e-19
1743177467709379,-0.06452339,0.02732125,-23.094353,0.20272745,-0.22460209,-1.0177186,1.0755187,-1.1229689,0.646104,0.054200135,-0.056591354,-0.4942006,-1.5664586,-1.3277297e-19
1743177467805379,-0.06478105,0.027428092,-23.189838,0.19971764,-0.2219155,-0.9710798,1.0617857,-1.119448,0.61629796,0.05366252,-0.056576766,-0.49562842,-1.5664586,-8.1022955e-20
1743177467909379,-0.06500484,0.027520893,-23.273827,0.19599274,-0.21898523,-0.9156853,1.0693774,-1.1153305,0.61806834,0.054014027,-0.056335106,-0.49533036,-1.5664586,-5.1274422e-20
1743177468013379,-0.065265626,0.02762903,-23.373474,0.19219895,-0.2158738,-0.87287647,1.0658146,-1.1127877,0.5836722,0.054007478,-0.056387726,-0.4969271,-1.5664586,-2.89718e-20
1743177468109379,-0.065429896,0.027697144,-23.43676,0.18857197,-0.21311022,-0.8225936,1.0599377,-1.1136993,0.6002275,0.05359108,-0.056309294,-0.4958298,-1.5664586,-1.9801219e-20
1743177468213379,-0.06567072,0.027797006,-23.527195,0.18430379,-0.21037078,-0.7837513,1.0542209,-1.1125088,0.55576146,0.05353655,-0.056496587,-0.49801064,-1.5664586,-1.1188364e-20
1743177468309379,-0.06582536,0.027861118,-23.58462,0.18045668,-0.2081863,-0.7382538,1.0580298,-1.110048,0.5682378,0.05363502,-0.056272,-0.49713013,-1.5664586,-7.646858e-21
1743177468413379,-0.06604686,0.027952965,-23.666656,0.17623183,-0.20596981,-0.7028975,1.0552961,-1.1161313,0.5359978,0.05365544,-0.056748543,-0.4986092,-1.5664586,-4.3207355e-21
1743177468509379,-0.06618739,0.028011242,-23.718737,0.17254984,-0.20417935,-0.6613895,1.0589488,-1.1148887,0.5553875,0.053701848,-0.056538694,-0.4973171,-1.5664586,-2.9530723e-21
1743177468613379,-0.06638751,0.028094219,-23.793125,0.16857187,-0.20266218,-0.6287595,1.0483065,-1.1232024,0.5230577,0.053320777,-0.057130262,-0.4988032,-1.5664586,-1.6685867e-21
1743177468709379,-0.066513784,0.02814658,-23.840343,0.16474342,-0.2014477,-0.5908055,1.0463609,-1.125096,0.5343472,0.05313273,-0.05713079,-0.4979686,-1.5664586,-1.140421e-21
1743177468813379,-0.06669249,0.028220678,-23.907774,0.16066779,-0.20004973,-0.5614644,1.0426761,-1.1194311,0.5006422,0.053112548,-0.057022348,-0.4995384,-1.5664586,-6.443768e-22
1743177468909379,-0.06680448,0.02826712,-23.950563,0.15689933,-0.1987612,-0.5273006,1.0419433,-1.1301585,0.5169787,0.052954484,-0.057437826,-0.49840146,-1.5664586,-4.4040915e-22
1743177469005379,-0.066942245,0.028324246,-24.003729,0.15326805,-0.19745708,-0.5011944,1.040734,-1.1278645,0.4975909,0.052977003,-0.057412244,-0.49919337,-1.5664586,-2.6875388e-22
1743177469109379,-0.06706589,0.028375521,-24.050436,0.14955892,-0.19602269,-0.4705068,1.0386302,-1.1314437,0.4960176,0.0528513,-0.05757417,-0.49901664,-1.5664586,-1.7007772e-22
1743177469205379,-0.06719453,0.02842886,-24.098598,0.14633183,-0.1947128,-0.44678384,1.0445262,-1.1319824,0.47193742,0.053265356,-0.057725165,-0.5000867,-1.5664586,-1.0378769e-22
1743177469309379,-0.06730763,0.028475758,-24.140911,0.14311904,-0.19345833,-0.41903365,1.0365771,-1.1332117,0.46899134,0.052850507,-0.05777748,-0.49999806,-1.5664586,-6.568082e-23
1743177469413379,-0.06744133,0.028531197,-24.191042,0.14013106,-0.19215669,-0.3979079,1.0429713,-1.1379629,0.4426583,0.053299632,-0.05815405,-0.50115657,-1.5664586,-3.7111904e-23
1743177469509379,-0.06752299,0.02856346,-24.222849,0.1382562,-0.1915586,-0.37338316,1.1093025,-1.1974218,0.445543,0.056647062,-0.06114692,-0.50078094,-1.5664586,-2.5364697e-23
1743177469613379,-0.066379294,0.02808562,-24.263996,0.16471277,-0.19922888,-0.35374913,1.3750219,-1.2241964,0.44672233,0.07017358,-0.062476277,-0.5004765,-1.5664586,-1.4331918e-23
1743177469709379,-0.06395382,0.027272075,-24.289589,0.17525433,-0.20338956,-0.3284546,1.0680116,-1.1606542,0.5068704,0.0541232,-0.05881801,-0.49696767,-1.5664586,-9.795368e-24
1743177469805379,-0.0605205,0.0260197,-24.3214,0.17208591,-0.20130856,-0.30742556,0.9846054,-1.1211349,0.43762636,0.05024691,-0.057214357,-0.5004573,-1.5664586,-5.977494e-24
1743177469909379,-0.057519853,0.024940731,-24.349499,0.16634583,-0.19836916,-0.28553233,0.99745923,-1.1362203,0.41874316,0.050983217,-0.05807573,-0.5012499,-1.5664586,-3.782787e-24
1743177470013379,-0.053973857,0.02364004,-24.38307,0.1613107,-0.19594777,-0.26870045,1.0360445,-1.1333743,0.39671844,0.053056777,-0.05804113,-0.50220776,-1.5538923,0.058177643
1743177470109379,-0.051639426,0.022567077,-24.404577,0.15824026,-0.20350981,-0.25084013,1.0555679,-1.4290417,0.41234374,0.053942963,-0.0730287,-0.5011522,-1.5100582,0.2034676
1743177470213379,-0.04810635,0.017911695,-24.4356,0.15671693,-0.25634235,-0.2364766,1.0540249,-1.9169421,0.43445998,0.053707678,-0.09767749,-0.4996958,-1.5119517,0.108151846
1743177470309379,-0.045740675,0.010711483,-24.455431,0.15421551,-0.3177593,-0.2187941,1.0326786,-2.205855,0.48272055,0.0523195,-0.11175715,-0.4968428,-1.5131544,0.06915107
1743177470405379,-0.042677347,-0.0062102075,-24.480165,0.1519143,-0.43166322,-0.20351243,1.0167129,-2.5991871,0.5222453,0.05126164,-0.1310484,-0.49444148,-1.5147488,0.03621485
1743177470509379,-0.039875805,-0.03183319,-24.50193,0.14825252,-0.56556296,-0.18467608,0.998958,-2.9303765,0.56421757,0.050107237,-0.14698623,-0.4918967,-1.5162553,0.017149644
1743177470613379,-0.036428448,-0.08105337,-24.527704,0.14450456,-0.7809527,-0.16792609,0.9903162,-3.432073,0.6049447,0.049420536,-0.17127346,-0.48938918,-1.5180712,0.0031427545
1743177470709379,-0.034175944,-0.1265558,-24.54401,0.1400066,-0.9378959,-0.14967774,0.9718412,-3.6507516,0.5996539,0.048493534,-0.18216749,-0.48933852,-1.5191365,-0.0020558506
1743177470813379,-0.030882943,-0.2167795,-24.567524,0.13533974,-1.209846,-0.13786992,0.9649123,-3.5779452,0.6517314,0.047830597,-0.17735834,-0.48611447,-1.5204915,-0.0060069533
1743177470909379,-0.028745478,-0.29103068,-24.582705,0.1302379,-1.3455014,-0.1232747,0.9637773,-3.1837606,0.65008193,0.047740526,-0.15770698,-0.48577031,-1.5211971,-0.0068796803
1743177471005379,-0.026029125,-0.40221894,-24.601904,0.12562338,-1.5129957,-0.11327124,0.9642855,-2.871292,0.5869672,0.048059646,-0.14310417,-0.48875976,-1.5217562,-0.006232476
1743177471109379,-0.023587521,-0.5173542,-24.619097,0.12086962,-1.6167283,-0.10319491,0.9741772,-2.5315695,0.5203718,0.04886925,-0.12699528,-0.49194685,-1.52179,-0.00400653
1743177471205379,-0.021012321,-0.65334344,-24.637203,0.11724698,-1.7166166,-0.09747207,0.9755426,-2.2319918,0.4687559,0.049177714,-0.1125161,-0.49435905,-1.521265,-0.00038951257
1743177471309379,-0.018710924,-0.78653777,-24.653397,0.113694556,-1.7569059,-0.09084441,0.97570866,-1.906528,0.4219888,0.04940101,-0.09652924,-0.49652004,-1.5202475,0.0037189252
1743177471405379,-0.01630321,-0.9364778,-24.670393,0.110898055,-1.7925404,-0.0872412,0.98273015,-1.6065636,0.37663043,0.049970634,-0.08169181,-0.49865606,-1.5186533,0.008324084
1743177471509379,-0.014173453,-1.0769317,-24.685516,0.108442694,-1.7729278,-0.08273783,1.0079945,-1.2878231,0.33728886,0.05144284,-0.06572385,-0.500482,-1.5165647,0.013358138
1743177471605379,-0.011971655,-1.2283219,-24.701294,0.10716856,-1.7437086,-0.08047193,1.0132985,-0.97388417,0.29864436,0.051903576,-0.04988468,-0.50231946,-1.5134168,0.020085033
1743177471709379,-0.010049841,-1.3639878,-24.715242,0.1064499,-1.6646055,-0.07728,1.0270122,-0.6585162,0.26753104,0.052757427,-0.033827856,-0.5037657,-1.5096722,0.027133413
1743177471813379,-0.007804204,-1.5238997,-24.731842,0.10624305,-1.5586324,-0.075822964,1.0358882,-0.26494634,0.23464441,0.05337909,-0.013652626,-0.5053326,-1.5040722,0.03578952
1743177471909379,-0.006410808,-1.6219496,-24.742378,0.106088564,-1.429535,-0.072296545,1.0508443,-0.0053696632,0.2143536,0.054250825,-0.00027721396,-0.5062796,-1.4999366,0.0408564
1743177472013379,-0.004485882,-1.7525567,-24.757364,0.106422044,-1.2596169,-0.07047282,1.0647199,-0.0743624,0.18977238,0.05509588,-0.0038480184,-0.5074622,-1.4930474,0.048181932
1743177472109379,-0.0033183522,-1.828651,-24.766802,0.10705012,-1.1372594,-0.06716415,1.0674453,-0.34124696,0.17327674,0.055322498,-0.01768581,-0.5082504,-1.4881891,0.05215829
1743177472213379,-0.0017494585,-1.9284141,-24.780102,0.107426554,-1.0166367,-0.0646497,1.0766126,-0.62737095,0.16784787,0.055817176,-0.03252616,-0.5084284,-1.4814119,0.053909343
1743177472309379,-0.0008276361,-1.9866047,-24.788383,0.107522115,-0.93886703,-0.060692966,1.0640142,-0.82688665,0.1743205,0.0551159,-0.0428327,-0.507985,-1.4774445,0.05247029
1743177472405379,0.0002231717,-2.053963,-24.798447,0.10693133,-0.87375665,-0.056512654,1.061448,-1.0344247,0.19723244,0.05483749,-0.05344139,-0.5066397,-1.4732093,0.04775279
1743177472509379,0.0010470927,-2.1092324,-24.807035,0.10582021,-0.82449937,-0.050391905,1.0581275,-1.2022192,0.22553267,0.054487996,-0.06190797,-0.5049918,-1.4701419,0.04185215
1743177472613379,0.0018859707,-2.1710348,-24.816908,0.103801854,-0.7890105,-0.04588587,1.0382001,-1.3697529,0.1937529,0.053621765,-0.07074606,-0.50650144,-1.4673052,0.03369539
1743177472709379,0.0023305896,-2.2086763,-24.823204,0.10157658,-0.7648775,-0.042631023,1.0265806,-1.4335318,0.22859782,0.052811217,-0.07374634,-0.5044918,-1.4660411,0.027995072
1743177472813379,0.0028914064,-2.2609453,-24.832338,0.09983127,-0.74604297,-0.039179876,1.03963,-1.4968444,0.26974973,0.05323207,-0.076642774,-0.5021283,-1.4646102,0.02093917
1743177472909379,0.0032547629,-2.2934623,-24.838173,0.09801095,-0.7274482,-0.033219784,1.0391058,-1.5080702,0.29832378,0.053026497,-0.076958165,-0.5004427,-1.4642413,0.015630884
1743177473013379,0.0037750849,-2.339275,-24.8465,0.09601006,-0.71067905,-0.027608126,1.0320868,-1.5222636,0.29825675,0.052651163,-0.07765718,-0.50027853,-1.4642413,0.008831982
1743177473109379,0.0041033146,-2.3680487,-24.851776,0.09406266,-0.69087756,-0.021865897,1.0290543,-1.5094354,0.29268163,0.052512415,-0.077026166,-0.50043154,-1.4642413,0.0060363524
1743177473213379,0.004567926,-2.4088287,-24.859295,0.092085354,-0.67113614,-0.017142937,1.0252689,-1.4986541,0.27904436,0.052379236,-0.07656368,-0.5010051,-1.4642413,0.003410745
1743177473309379,0.004859715,-2.434558,-24.864054,0.09017414,-0.64828277,-0.012961477,1.0228693,-1.4642955,0.26381305,0.052327517,-0.074909806,-0.5016848,-1.4642413,0.0023311255
1743177473413379,0.0052694743,-2.4711537,-24.870815,0.08776153,-0.62526,-0.009143829,0.97123075,-1.4475077,0.31412834,0.04940887,-0.07363824,-0.49888813,-1.4956572,-0.13477696
1743177473509379,0.005164147,-2.4943523,-24.874884,0.0727205,-0.6007649,-0.00030954555,0.68456894,-1.4252566,0.32665622,0.034769487,-0.07238927,-0.49808306,-1.5584891,-0.3407212
1743177473613379,0.0017073029,-2.527467,-24.879946,0.013296537,-0.57533044,0.010269977,0.21640086,-1.3685818,0.29936785,0.011020087,-0.06969422,-0.49939656,-1.6527369,-0.53414047
1743177473709379,-0.004715833,-2.548434,-24.882614,-0.051061668,-0.54736257,0.017797835,0.07904434,-1.3092587,0.3174166,0.004016072,-0.0665206,-0.49825495,-1.7155688,-0.6136723
1743177473805379,-0.019178964,-2.574376,-24.885227,-0.12375742,-0.5186278,0.028386978,0.5245625,-1.2447004,0.38843387,0.026437553,-0.06273196,-0.49424925,-1.7972503,-0.68060476
1743177473909379,-0.03722891,-2.5972104,-24.886946,-0.17473775,-0.4940272,0.033190347,0.42678213,-1.4782002,0.3180322,0.021658402,-0.07501592,-0.49766916,-1.8726485,-0.7190809
1743177474013379,-0.0681317,-2.6269927,-24.889076,-0.27918065,-0.5124075,0.034659132,-0.012807131,-1.8684721,0.35886344,-0.00064682495,-0.0943673,-0.49528438,-1.9668963,-0.74792665
1743177474109379,-0.096150786,-2.6497862,-24.890533,-0.36372155,-0.5393041,0.036509737,-0.21555984,-2.0690565,0.3374778,-0.010908897,-0.10470932,-0.49628788,-2.0297282,-0.75978774
1743177474213379,-0.15311801,-2.692059,-24.892775,-0.5459216,-0.6360309,0.036547605,-0.57666385,-2.4890532,0.29298717,-0.029316531,-0.1265389,-0.49855226,-2.123976,-0.7709273
1743177474309379,-0.20329915,-2.7278144,-24.894306,-0.67370695,-0.7129098,0.03607349,-0.6540555,-2.7349505,0.2668082,-0.033339344,-0.13940935,-0.49987686,-2.1868079,-0.77550787
1743177474413379,-0.3065121,-2.8012507,-24.89679,-0.93066585,-0.91044754,0.03418222,-0.6418468,-3.3039474,0.27979738,-0.032665547,-0.16814801,-0.49909037,-2.2810557,-0.77980983
1743177474509379,-0.3961378,-2.8674343,-24.89856,-1.0815681,-1.0666505,0.03416061,-0.45379055,-3.6392114,0.35676527,-0.022899352,-0.1836433,-0.49486706,-2.3264313,-0.70304245
1743177474613379,-0.5574445,-2.9945843,-24.901268,-1.3546444,-1.39137,0.03616429,-0.5082979,-4.327052,0.49865973,-0.025248246,-0.21493393,-0.48711756,-2.3238654,-0.3878464
1743177474709379,-0.6828945,-3.100917,-24.903107,-1.4932307,-1.6166465,0.042480797,-0.41921794,-4.5262465,0.6967408,-0.02036174,-0.21984331,-0.47631657,-2.3219237,-0.2573859
1743177474805379,-0.86740243,-3.267641,-24.905542,-1.7231395,-1.95742,0.052543916,-0.53897166,-4.6175094,0.92892194,-0.025478186,-0.2182782,-0.46357843,-2.3193965,-0.14761364
1743177474909379,-1.059212,-3.4503403,-24.90783,-1.9090549,-2.2503645,0.067642875,-0.5690361,-4.5932198,1.0974706,-0.026351906,-0.21271074,-0.45414317,-2.3172817,-0.085368074
1743177475013379,-1.3163736,-3.7058234,-24.910593,-2.1829271,-2.639612,0.082999855,-0.7402334,-4.8130584,1.143649,-0.034058943,-0.22145402,-0.45121455,-2.3150976,-0.04040189
1743177475109379,-1.4992709,-3.8929849,-24.912388,-2.2985067,-2.830147,0.094970375,-0.61725307,-4.571336,1.0630623,-0.028643873,-0.21213463,-0.45508143,-2.3138793,-0.022810608
1743177475213379,-1.8035297,-4.209635,-24.915127,-2.5818288,-3.179249,0.10129041,-0.7448453,-4.3118186,0.8526522,-0.03537945,-0.20480734,-0.46580663,-2.3122458,-0.006992401
1743177475309379,-2.024957,-4.4409842,-24.916967,-2.6998591,-3.3214693,0.100764096,-0.37982965,-3.9462535,0.6028338,-0.01854118,-0.19263425,-0.47870648,-2.3111844,-0.0005779774
1743177475413379,-2.3834012,-4.815689,-24.91975,-2.9496868,-3.6055691,0.09266996,-0.0037248135,-3.6129208,0.37634635,-0.00018625807,-0.18066292,-0.49037856,-2.3095198,0.00572893
1743177475509379,-2.631072,-5.0748634,-24.921574,-2.9987519,-3.678361,0.0827845,0.43615186,-3.1443405,0.27516782,0.02203507,-0.15885697,-0.4954473,-2.3083298,0.008629844
1743177475613379,-3.020536,-5.48302,-24.924328,-3.154712,-3.8668752,0.07140851,0.7442509,-2.7842395,0.260824,0.037633844,-0.14078806,-0.4958844,-2.3065057,0.01148952
1743177475709379,-3.2939334,-5.770084,-24.926207,-3.1496184,-3.8813314,0.06378855,1.0897429,-2.3786106,0.29453957,0.054874167,-0.11977529,-0.49381515,-2.3053298,0.012499339
1743177475813379,-3.7089553,-6.206914,-24.92901,-3.2274222,-3.9851089,0.05758056,1.3745592,-2.0465953,0.3208536,0.068981685,-0.10270754,-0.49214292,-2.3037302,0.012821155
1743177475909379,-3.9743094,-6.4868894,-24.93079,-3.158186,-3.9192939,0.054072972,1.4869331,-1.6513519,0.31704664,0.074618265,-0.08286924,-0.49212337,-2.302811,0.012385704
1743177476013379,-4.388882,-6.922927,-24.933563,-3.2053404,-3.9499931,0.049890995,1.2531397,-1.9444495,0.27468535,0.06314544,-0.09798039,-0.49415508,-2.3016458,0.011183725
1743177476109379,-4.653138,-7.2002373,-24.935326,-3.1536558,-3.8905094,0.046563372,1.1938883,-2.0173059,0.23628044,0.060391348,-0.1020429,-0.49605742,-2.3009763,0.010283255
1743177476213379,-5.055467,-7.6225166,-24.93801,-3.2142463,-3.9472396,0.042267524,1.0841068,-2.1166,0.21425623,0.05495283,-0.107289396,-0.49709347,-2.300048,0.009164584
1743177476309379,-5.3085885,-7.8881903,-24.939697,-3.1613545,-3.8840096,0.03915858,1.1715007,-2.0013976,0.201349,0.05945054,-0.1015656,-0.49766144,-2.299458,0.008597879
1743177476405379,-5.656055,-8.252888,-24.942015,-3.200012,-3.915963,0.035709582,1.1025975,-2.0712206,0.21245778,0.055873334,-0.104957625,-0.49694484,-2.2987003,0.008088639
1743177476509379,-5.96493,-8.577077,-24.944077,-3.1787546,-3.8838775,0.033108007,1.1429867,-2.0174727,0.23268095,0.05777861,-0.101984374,-0.49573177,-2.2979755,0.007893956
1743177476605379,-6.3015842,-8.930438,-24.946323,-3.1977308,-3.8948565,0.031290315,1.4039693,-1.7518797,0.24450286,0.070862405,-0.08842246,-0.4949707,-2.2971616,0.007874479
1743177476709379,-6.6085978,-9.252805,-24.948374,-3.1331697,-3.8184357,0.029900271,1.8412043,-1.3068635,0.24110088,0.092937276,-0.06596571,-0.495005,-2.2963812,0.007971406
1743177476813379,-6.9905524,-9.653909,-24.950932,-3.093563,-3.760382,0.027555496,2.0498583,-0.8561566,0.21931502,0.103682905,-0.043304842,-0.4960253,-2.2953775,0.008141714
1743177476909379,-7.2421575,-9.917516,-24.952631,-2.9707909,-3.6138349,0.02553359,2.259531,-0.7516533,0.19457418,0.11456629,-0.038111508,-0.49723274,-2.294738,0.008090015
1743177477005379,-7.5627556,-10.253245,-24.954813,-2.8897789,-3.514703,0.022564761,2.1994238,-0.7626749,0.17646155,0.11171205,-0.038737413,-0.49809498,-2.2940006,0.0076772785
1743177477109379,-7.8484173,-10.552429,-24.956776,-2.7724864,-3.374931,0.019504517,2.1813488,-0.7054899,0.15697894,0.11099948,-0.035899356,-0.49901837,-2.2935047,0.0067244335
1743177477213379,-8.194315,-10.914874,-24.959167,-2.698979,-3.2780857,0.015809784,2.0834398,-0.72254634,0.1321646,0.10627404,-0.03685632,-0.5002268,-2.2933142,0.0043925038
1743177477309379,-8.414502,-11.145785,-24.960695,-2.5828025,-3.1346521,0.012940686,2.0787272,-0.61052656,0.11905037,0.10616127,-0.031179786,-0.5008297,-2.2935343,0.0020939223
1743177477405379,-8.693324,-11.4384775,-24.962639,-2.5083346,-3.0310898,0.009534551,2.0032573,-0.5814874,0.09199542,0.10258244,-0.029776702,-0.5021767,-2.2943645,-0.0019283105
1743177477509379,-8.940757,-11.698513,-24.964367,-2.407131,-2.8923702,0.0056289285,1.9604237,-0.50103164,0.06614925,0.10064607,-0.02572243,-0.5034629,-2.295742,-0.0065723476
1743177477613379,-9.234162,-12.007271,-24.966421,-2.3400788,-2.7854755,0.0009434223,1.8600156,-0.47908998,0.042582422,0.09571326,-0.024653161,-0.50463444,-2.2983797,-0.013445875
1743177477709379,-9.428272,-12.211741,-24.96778,-2.2473342,-2.647516,-0.0033180937,1.7990525,-0.38781106,0.028000116,0.09270623,-0.019984132,-0.5053421,-2.300696,-0.018408565
1743177477805379,-9.667718,-12.463875,-24.969452,-2.1865427,-2.5395157,-0.0077378117,1.7455091,-0.3554132,0.014920697,0.09005989,-0.018337613,-0.5059771,-2.3043833,-0.025171153
1743177477909379,-9.8801565,-12.687618,-24.970934,-2.1006544,-2.4016159,-0.012630127,1.7448072,-0.2753294,-0.008804396,0.09023891,-0.01423964,-0.507185,-2.308475,-0.031671654
1743177478013379,-10.136977,-12.958216,-24.97272,-2.0469213,-2.2936983,-0.017670747,1.614131,-0.2542944,-0.017265871,0.0835467,-0.013162163,-0.5075878,-2.3144865,-0.03986115
1743177478109379,-10.300955,-13.130872,-24.97385,-1.9647386,-2.1594229,-0.02171497,1.6173661,-0.16781801,-0.025957778,0.08378463,-0.008693499,-0.5080151,-2.3190706,-0.045436807
1743177478213379,-10.536104,-13.3785515,-24.975462,-1.9082688,-2.0505853,-0.025825845,1.5113075,-0.14582235,-0.036590114,0.078373425,-0.00756206,-0.5085537,-2.3267992,-0.05386551
1743177478309379,-10.685912,-13.536328,-24.976477,-1.8314185,-1.9205086,-0.029287953,1.50806,-0.07730359,-0.05323127,0.07833791,-0.0040156236,-0.5094181,-2.3325315,-0.05955922
1743177478413379,-10.900601,-13.762271,-24.977911,-1.7768327,-1.8128233,-0.032988615,1.4802547,-0.061742544,-0.059956178,0.07694591,-0.0032094722,-0.5097661,-2.3420086,-0.06817593
1743177478509379,-11.037049,-13.90595,-24.978807,-1.7000794,-1.6886101,-0.03565345,1.420417,0.012869418,-0.06741506,0.0738932,0.00066949526,-0.5101624,-2.3489196,-0.0740047
1743177478613379,-11.232281,-14.11139,-24.980064,-1.6482888,-1.5837239,-0.0382612,1.3779927,0.019245684,-0.07325153,0.071729764,0.001001811,-0.5104744,-2.3602488,-0.08308456
1743177478709379,-11.356323,-14.241814,-24.980844,-1.5765325,-1.4659235,-0.040273726,1.389263,0.073428154,-0.080344625,0.07237137,0.0038251188,-0.510861,-2.3684847,-0.08943959
1743177478805379,-11.510287,-14.403803,-24.981789,-1.5212437,-1.3686775,-0.042243604,1.343246,0.08380294,-0.08215296,0.06998955,0.0043665343,-0.51097155,-2.3801136,-0.09831792
1743177478909379,-11.645456,-14.545989,-24.982592,-1.4574996,-1.2557652,-0.044104356,1.2643194,0.12215555,-0.086656176,0.06590933,0.006368004,-0.5112236,-2.3918228,-0.10713162
1743177479013379,-11.805613,-14.714178,-24.983496,-1.4079535,-1.1615357,-0.04588085,1.2322834,0.11622882,-0.10554295,0.06436603,0.0060709957,-0.51223606,-2.407767,-0.1185899
1743177479109379,-11.906953,-14.820623,-24.984068,-1.3446896,-1.0601226,-0.047694944,1.2223487,0.14693171,-0.10553343,0.06385126,0.007675203,-0.5122651,-2.4192688,-0.12664098
1743177479205379,-12.032332,-14.952463,-24.9848,-1.2952586,-0.97598624,-0.049175236,1.1603857,0.13904196,-0.10711974,0.060628023,0.0072646867,-0.51237994,-2.4351847,-0.1370978
1743177479309379,-12.14199,-15.067848,-24.985453,-1.2388338,-0.88100004,-0.049939755,1.0674549,0.16410029,-0.10184465,0.055745915,0.008569842,-0.51213425,-2.450955,-0.14723574
1743177479413379,-12.27167,-15.203907,-24.986233,-1.1971321,-0.801352,-0.05054646,1.0326608,0.15032932,-0.11028321,0.053979706,0.007858081,-0.5126186,-2.4723058,-0.160883
1743177479509379,-12.353624,-15.289766,-24.986727,-1.1447854,-0.7182489,-0.050824538,1.0311129,0.15714729,-0.11217171,0.053913895,0.008216776,-0.51275903,-2.4875338,-0.1702993
1743177479613379,-12.469872,-15.411614,-24.98743,-1.1021209,-0.6467967,-0.05135384,0.9612766,0.12711942,-0.120802596,0.050311424,0.0066531934,-0.51326156,-2.5117426,-0.18425895
1743177479709379,-12.543076,-15.488406,-24.987871,-1.053928,-0.5731768,-0.051220965,0.92110443,0.1376605,-0.11733219,0.048196167,0.0072029927,-0.51312256,-2.5289176,-0.19400506
1743177479813379,-12.646759,-15.597253,-24.988493,-1.0153809,-0.5096291,-0.050821383,0.85772204,0.11203447,-0.119576946,0.04489397,0.005863988,-0.5132927,-2.556458,-0.20979479
1743177479909379,-12.711978,-15.665768,-24.988882,-0.97241765,-0.44474527,-0.050204046,0.8315293,0.11519095,-0.11826214,0.04352176,0.006029027,-0.51327276,-2.5759113,-0.22045606
1743177480013379,-12.8042555,-15.762768,-24.989428,-0.93759143,-0.38907453,-0.049495474,0.7732841,0.07847893,-0.11902711,0.040480938,0.0041083232,-0.51336676,-2.6066272,-0.23617919
1743177480109379,-12.862314,-15.823757,-24.989763,-0.9020473,-0.33278924,-0.048645437,0.6852361,0.08706248,-0.12216839,0.035886437,0.0045595407,-0.51358336,-2.6280549,-0.2462877
1743177480213379,-12.944938,-15.910009,-24.99023,-0.87516785,-0.2846687,-0.047941282,0.6781733,0.055547744,-0.1289916,0.035545737,0.0029114764,-0.51399904,-2.6616254,-0.2611242
1743177480309379,-12.996936,-15.964185,-24.990532,-0.8406149,-0.23609489,-0.047269106,0.6654048,0.057454705,-0.12220202,0.0348551,0.003009581,-0.51369554,-2.6848419,-0.2704124
1743177480413379,-13.070394,-16.040728,-24.990969,-0.81168777,-0.19438148,-0.046723608,0.617455,0.038882315,-0.12570915,0.03235929,0.0020377259,-0.51394004,-2.7210603,-0.2843618
1743177480509379,-13.116483,-16.088757,-24.991247,-0.7801411,-0.15209481,-0.046126984,0.5863216,0.039343983,-0.124357685,0.030726321,0.0020618306,-0.5139221,-2.7462852,-0.294258
1743177480613379,-13.181535,-16.15656,-24.991644,-0.7541168,-0.11579725,-0.04524065,0.54129875,0.02250415,-0.12826912,0.028382046,0.0011799654,-0.51418906,-2.785794,-0.30983156
1743177480709379,-13.222317,-16.199068,-24.991894,-0.72603697,-0.078855336,-0.044054676,0.52053297,0.029877841,-0.12766987,0.027295496,0.0015667222,-0.51421684,-2.813344,-0.3209071
1743177480813379,-13.279829,-16.259024,-24.992245,-0.7024753,-0.046539247,-0.042825025,0.48726338,0.035646528,-0.1161644,0.025522746,0.0018671572,-0.5136698,-2.8567882,-0.33929282
1743177480909379,-13.315853,-16.296587,-24.992466,-0.6768805,-0.013233155,-0.041436866,0.47132504,0.040636525,-0.11595251,0.024689881,0.0021287028,-0.51371366,-2.8567882,-0.23189485
1743177481005379,-13.360072,-16.342693,-24.992737,-0.6552551,0.014881521,-0.04027618,0.45464462,0.046053126,-0.12045507,0.023829695,0.0024138235,-0.5140084,-2.8567882,-0.14151077
1743177481109379,-13.398404,-16.382664,-24.99297,-0.63008064,0.04576394,-0.038890574,0.44475365,0.056727454,-0.11417921,0.023298891,0.0029717279,-0.5137342,-2.8567882,-0.08955342
1743177481205379,-13.4373865,-16.423319,-24.99321,-0.60903066,0.07094315,-0.037217125,0.4289475,0.057273284,-0.0865026,0.022409398,0.002992114,-0.5123206,-2.8567882,-0.0546488
1743177481309379,-13.47116,-16.458546,-24.993425,-0.58474165,0.09828314,-0.03467164,0.4268837,0.061220333,-0.0576856,0.022236425,0.0031889747,-0.51084054,-2.8567882,-0.034583848
1743177481413379,-13.510466,-16.4998,-24.993677,-0.5570628,0.11368078,-0.031553887,0.6623409,-0.1822029,-0.04151556,0.03444771,-0.009476198,-0.5100267,-2.7939563,0.22906476
1743177481509379,-13.533592,-16.527174,-24.993816,-0.50196373,0.10286513,-0.028414715,1.0410283,-0.5437295,-0.0113635175,0.053976923,-0.028192168,-0.50847465,-2.7311244,0.40516362
1743177481613379,-13.558813,-16.572031,-24.993984,-0.38202617,0.046882927,-0.02382649,1.3201098,-0.6214696,0.08871824,0.067740805,-0.03189042,-0.50322425,-2.6368766,0.57055265
1743177481709379,-13.56822,-16.604868,-24.994066,-0.30459386,0.014999092,-0.017136127,0.93246394,-0.5895061,0.20728177,0.047250796,-0.029872073,-0.49693584,-2.5740447,0.63855875
1743177481813379,-13.575468,-16.65911,-24.994162,-0.24848725,-0.06483403,-0.008572968,0.37346062,-1.0153015,0.25331482,0.01882912,-0.051189426,-0.49442807,-2.479797,0.7024289
1743177481909379,-13.57867,-16.70086,-24.994226,-0.24245411,-0.14199182,-0.0013723711,0.1695224,-1.3915606,0.24085136,0.008557397,-0.07024521,-0.4950336,-2.416965,0.7286915
1743177482013379,-13.583723,-16.776972,-24.994324,-0.24693519,-0.32821164,0.0045591393,0.19792473,-2.0424676,0.19394426,0.010040744,-0.1036146,-0.49749228,-2.3227172,0.753357
1743177482109379,-13.587316,-16.839691,-24.994389,-0.24934395,-0.47722617,0.008106635,0.23023322,-2.3834238,0.14692993,0.011738417,-0.12151861,-0.4999908,-2.2598853,0.76349914
1743177482213379,-13.593039,-16.95686,-24.994486,-0.25308666,-0.7777072,0.01034955,0.22208104,-3.0067565,0.1314234,0.01134207,-0.15356036,-0.5008428,-2.1656375,0.7730245
1743177482309379,-13.597078,-17.053349,-24.99455,-0.25308728,-0.9935088,0.0123192305,0.21229473,-3.2545166,0.15949655,0.01081082,-0.16573183,-0.49939027,-2.1028056,0.7769412
1743177482413379,-13.603473,-17.230736,-24.994648,-0.25509953,-1.4002876,0.01509844,0.19294208,-3.7229939,0.217273,0.009765643,-0.188437,-0.49635768,-2.0085578,0.78061974
1743177482509379,-13.60796,-17.372747,-24.994713,-0.25435725,-1.647454,0.018746166,0.17355457,-3.5755465,0.26155287,0.008742416,-0.18011001,-0.49398804,-1.9457259,0.78213227
1743177482613379,-13.615026,-17.621763,-24.99481,-0.25673825,-2.0719845,0.022763606,0.1268005,-3.707712,0.26833338,0.006381687,-0.18660378,-0.4935545,-1.8514781,0.7835528
1743177482709379,-13.61996,-17.811773,-24.994875,-0.257287,-2.302122,0.0258979,0.09041769,-3.575521,0.25926405,0.004554293,-0.18009718,-0.49395606,-1.7886462,0.78413695
1743177482813379,-13.627697,-18.132788,-24.994967,-0.26206344,-2.7274299,0.02855773,0.055496044,-3.7629306,0.25909647,0.0027948723,-0.18950738,-0.49387932,-1.6943984,0.78468555
1743177482909379,-13.633079,-18.370798,-24.995028,-0.26475033,-2.9429033,0.030654024,0.026194394,-3.636879,0.25079522,0.001320158,-0.18329324,-0.49424067,-1.6315665,0.78491116
1743177483005379,-13.640341,-18.708918,-24.995104,-0.2703913,-3.2980213,0.03235298,-0.0017495677,-3.7826412,0.2576176,-8.809764e-05,-0.19047092,-0.4938034,-1.5998406,0.58052355
1743177483109379,-13.647315,-19.049828,-24.995173,-0.27540183,-3.5791743,0.034412373,-0.01920943,-3.7444909,0.28252116,-0.0009645254,-0.18801478,-0.49240202,-1.6001073,0.366352
1743177483213379,-13.656393,-19.514698,-24.995258,-0.28248584,-4.0127783,0.036721606,-0.0006748773,-3.7482467,0.33096468,-3.370303e-05,-0.18718548,-0.48973888,-1.600484,0.2056373
1743177483309379,-13.662669,-19.847013,-24.995316,-0.28437275,-4.1770377,0.039562568,0.049839497,-3.252694,0.36195388,0.0024798913,-0.16184609,-0.4879548,-1.6007004,0.13969736
1743177483413379,-13.67242,-20.374113,-24.995401,-0.28697208,-4.5260177,0.042230498,0.11378037,-3.000986,0.34632477,0.0056688054,-0.14951618,-0.4885898,-1.6008828,0.0783133
1743177483509379,-13.679143,-20.741608,-24.995459,-0.2827272,-4.614801,0.04359086,0.17361137,-2.5510821,0.3007666,0.0086892145,-0.12768118,-0.49082103,-1.6008589,0.053637203
1743177483605379,-13.68815,-21.234724,-24.995531,-0.27838328,-4.811971,0.04319528,0.20910105,-2.2672982,0.22374393,0.010548727,-0.11438062,-0.49472567,-1.6006631,0.03349366
1743177483709379,-13.696716,-21.701756,-24.995594,-0.26875424,-4.886291,0.04031791,0.25608394,-1.8557589,0.11686665,0.013062365,-0.094658814,-0.50021935,-1.6003535,0.022394473
1743177483805379,-13.706038,-22.216314,-24.995659,-0.25875556,-4.999998,0.03581365,0.26830834,-1.5425835,0.022507548,0.0138194235,-0.079451926,-0.50509894,-1.5999442,0.015201811
1743177483909379,-13.714628,-22.695452,-24.995718,-0.24675915,-4.994262,0.029868217,0.26431662,-1.0987831,-0.04001219,0.013700895,-0.056955595,-0.50832725,-1.5995648,0.011064243
1743177484005379,-13.723806,-23.208845,-24.995779,-0.23825467,-5.0341434,0.024086837,0.24504024,-1.1392465,-0.07413324,0.01274587,-0.059258375,-0.51009583,-1.5992178,0.008034219
1743177484109379,-13.732168,-23.676601,-24.995836,-0.22981226,-4.9940023,0.018604808,0.21765186,-1.1116589,-0.06578657,0.0113113625,-0.057772893,-0.509653,-1.5990193,0.005821143
1743177484213379,-13.742688,-24.265028,-24.99591,-0.22614859,-5.070946,0.014551792,0.18752842,-1.2554,-0.029554307,0.009709382,-0.064998984,-0.50774515,-1.5989972,0.0033264798
1743177484309379,-13.749638,-24.653696,-24.995956,-0.2225798,-4.997059,0.012344988,0.15920113,-1.1096324,-0.013119154,0.008228722,-0.05735422,-0.5068791,-1.5991352,0.001709916
1743177484413379,-13.760063,-25.236774,-24.996025,-0.22417688,-5.0720444,0.010631071,0.120875485,-1.2473298,-0.01328294,0.006247833,-0.0644722,-0.50688803,-1.5996145,-0.00082577765
1743177484509379,-13.767009,-25.625357,-24.996075,-0.22517933,-4.999901,0.009162372,0.09844702,-1.1167394,-0.025878765,0.0050952164,-0.05779788,-0.5075552,-1.6001046,-0.0025213768
1743177484613379,-13.777421,-26.207777,-24.99615,-0.23075032,-5.075445,0.0073305564,0.06249308,-1.2419522,-0.04371527,0.0032404382,-0.06439865,-0.5085032,-1.6010833,-0.005018486
1743177484709379,-13.784357,-26.595613,-24.996195,-0.23513392,-5.002544,0.0053718304,0.021815443,-1.0516257,-0.05975301,0.0011330963,-0.054621547,-0.50936097,-1.6019253,-0.006782615
1743177484813379,-13.7947,-27.17498,-24.99627,-0.24343804,-5.0412803,0.0029224874,0.0041676387,-0.66351277,-0.08307427,0.00021699502,-0.034546893,-0.51059663,-1.6034882,-0.009550817
1743177484909379,-13.8015175,-27.55703,-24.996319,-0.24927169,-4.9110107,0.0005251505,-0.011861619,-0.18989956,-0.10732846,-0.0006191572,-0.00991245,-0.5118856,-1.6047027,-0.011348396
1743177485005379,-13.8104515,-28.056046,-24.996382,-0.25695044,-4.840334,-0.002197912,-0.022549145,0.206905,-0.13378952,-0.0011804041,0.0108310785,-0.5133058,-1.6064577,-0.013532045
1743177485109379,-13.818543,-28.504374,-24.996437,-0.263486,-4.6627316,-0.0054215603,-0.032320403,0.6485063,-0.14934295,-0.0016946282,0.034002576,-0.5141743,-1.6082066,-0.015266188
1743177485213379,-13.82858,-29.053154,-24.996506,-0.27064028,-4.5333095,-0.008189934,-0.04051046,0.5723655,-0.15637833,-0.0021257761,0.030034736,-0.5146035,-1.6105087,-0.016997896
1743177485309379,-13.835104,-29.406097,-24.996552,-0.27478293,-4.331932,-0.0106287915,-0.051887766,0.6367656,-0.17229663,-0.0027275174,0.03347204,-0.5154986,-1.6121242,-0.018016145
1743177485413379,-13.844622,-29.916307,-24.996618,-0.28052193,-4.199409,-0.013130585,-0.055796504,0.5825776,-0.1817041,-0.0029361912,0.0306571,-0.51606065,-1.6146891,-0.01950142
1743177485509379,-13.850774,-30.243746,-24.99666,-0.2837925,-4.0055876,-0.015146027,-0.07480647,0.6723519,-0.18065038,-0.0039366074,0.03538177,-0.5160678,-1.6164986,-0.020499501
1743177485605379,-13.858528,-30.654417,-24.996712,-0.2880491,-3.868227,-0.017040327,-0.08594822,0.6484837,-0.18627201,-0.0045261392,0.03414995,-0.5164283,-1.6190189,-0.021988608
1743177485709379,-13.865432,-31.018644,-24.996758,-0.29165098,-3.6855874,-0.018849995,-0.09666279,0.70343673,-0.17842828,-0.0050869896,0.03701916,-0.5160836,-1.6215262,-0.023525493
1743177485813379,-13.873713,-31.45421,-24.996815,-0.29581803,-3.5512893,-0.020509947,-0.115055114,0.6701734,-0.1800723,-0.0060567716,0.0352795,-0.51623917,-1.6249015,-0.025584739
1743177485909379,-13.879012,-31.73262,-24.996853,-0.2983666,-3.3708868,-0.021995846,-0.12355834,0.74540067,-0.1769743,-0.0065030577,0.03923153,-0.5161386,-1.6273357,-0.02713893
1743177486013379,-13.886628,-32.132656,-24.996906,-0.30232698,-3.23629,-0.02336305,-0.13533509,0.7084225,-0.1777884,-0.0071244175,0.037293337,-0.5162499,-1.6313418,-0.029930199
1743177486109379,-13.891482,-32.387848,-24.996937,-0.3049978,-3.0628746,-0.024499256,-0.14719102,0.7666764,-0.17295851,-0.007745616,0.040344723,-0.51605695,-1.6342573,-0.032023717
1743177486205379,-13.897527,-32.706154,-24.996977,-0.3080913,-2.9297848,-0.025365295,-0.15361811,0.754906,-0.17098966,-0.008083201,0.03972225,-0.516014,-1.638335,-0.034865346
1743177486309379,-13.902836,-32.986794,-24.997013,-0.310484,-2.7637687,-0.02610498,-0.16701245,0.7978951,-0.1698584,-0.0087881265,0.04198491,-0.51602155,-1.6423542,-0.037474014
1743177486413379,-13.909111,-33.32028,-24.997055,-0.3128327,-2.6325145,-0.026488667,-0.17655966,0.7720072,-0.16593283,-0.009287935,0.0406115,-0.51588243,-1.6477654,-0.040859707
