timestamp,timestamp_sample,xyz[0],xyz[1],xyz[2]
1743177449813379,1743177449813379,0.00057058624,-0.0052114762,0.0004142673
1743177449817379,1743177449817379,-0.0032135695,-0.0044489526,0.0004261124
1743177449833379,1743177449833379,0.0059179845,0.003866279,8.3979015e-05
1743177449853379,1743177449853379,-0.0008570689,0.0017314403,1.7433209e-05
1743177449873379,1743177449873379,-0.0029625609,5.0983857e-05,-0.00019349677
1743177449893379,1743177449893379,0.0016044538,0.0005912644,9.9713114e-05
1743177449913379,1743177449913379,0.001459731,-8.910535e-05,0.00016769955
1743177449933379,1743177449933379,8.714426e-05,0.001153066,0.000104280036
1743177449953379,1743177449953379,0.0028339429,0.0028158166,0.00034799933
1743177449973379,1743177449973379,-0.0001847599,-0.0040231254,0.00017523793
1743177449993379,1743177449993379,-6.58787e-05,-0.0010979217,0.00012927175
1743177450013379,1743177450013379,-0.0021687679,0.0016437432,0.00029944832
1743177450033379,1743177450033379,0.0025456466,-0.0025289848,0.0005767243
1743177450053379,1743177450053379,0.003782466,0.00082704367,0.0003021089
1743177450073379,1743177450073379,-0.00074460893,0.00027026315,-0.05883561
1743177450093379,1743177450093379,-0.003110634,-0.0013602392,-0.04631831
1743177450113379,1743177450113379,-0.0032647003,-0.00032533362,-0.036457326
1743177450133379,1743177450133379,0.0012277083,0.0026004259,-0.028731577
1743177450153379,1743177450153379,-0.0024504561,0.0020316103,-0.022579396
1743177450173379,1743177450173379,-0.0013802964,-0.00045637003,-0.0174038
1743177450193379,1743177450193379,0.0019696143,-0.004906997,-0.013549409
1743177450213379,1743177450213379,-1.3422861e-05,0.0023440858,-0.0108467685
1743177450233379,1743177450233379,-3.58212e-05,-7.983848e-05,-0.008658472
1743177450253379,1743177450253379,0.0006432774,0.00029430044,-0.0069612046
1743177450273379,1743177450273379,0.003598929,-0.0018522621,-0.005611948
1743177450293379,1743177450293379,-0.0018082706,0.0032438221,-0.00478961
1743177450313379,1743177450313379,0.0010108363,0.0025790245,-0.003644102
1743177450333379,1743177450333379,-0.0031511937,-0.0010323459,-0.0031321421
1743177450353379,1743177450353379,0.0033422196,0.00056474237,-0.0025998384
1743177450373379,1743177450373379,-8.316769e-05,0.0016375668,-0.0019200142
1743177450393379,1743177450393379,0.00092544616,0.0010094596,-0.0015700511
1743177450413379,1743177450413379,-0.001396836,0.0012845437,-0.0011983209
1743177450433379,1743177450433379,0.0002107771,0.0033230996,-0.0010549749
1743177450453379,1743177450453379,0.0016892061,-0.0047378056,-0.0008418324
1743177450473379,1743177450473379,0.0019374941,-0.0032605822,-0.0006482765
1743177450493379,1743177450493379,0.0041881665,-0.0012700502,-0.00041542313
1743177450513379,1743177450513379,-0.0027618688,-0.0027208389,-0.00010702484
1743177450533379,1743177450533379,0.003158564,0.0007185251,-0.00019326303
1743177450553379,1743177450553379,0.0019767773,-0.00081698556,-0.0002402907
1743177450573379,1743177450573379,-0.0008328294,0.002407015,-0.00035334865
1743177450593379,1743177450593379,0.00019805365,-0.0022244672,-0.00014431454
1743177450613379,1743177450613379,0.0008588333,0.0037938894,7.008388e-05
1743177450633379,1743177450633379,-0.0002871469,-0.00067597104,0.00024435035
1743177450653379,1743177450653379,-0.002369389,-0.00532066,0.00018934582
1743177450673379,1743177450673379,0.0030965633,0.0048770676,0.00036646923
1743177450693379,1743177450693379,0.00066136173,-0.0014179563,0.0004740008
1743177450713379,1743177450713379,-0.0015590872,-0.0047168117,0.00040245376
1743177450733379,1743177450733379,-0.004070355,0.0013281924,0.0004590294
1743177450753379,1743177450753379,0.0031169858,-0.0028202897,0.00017936504
1743177450773379,1743177450773379,-0.004256309,-0.00072439056,-2.3052553e-05
1743177450793379,1743177450793379,0.003042236,0.00072651356,-0.00015909405
1743177450813379,1743177450813379,0.0018950212,0.0012291246,-0.0002557365
1743177450833379,1743177450833379,3.1958833e-05,-0.00019408937,-0.00025468756
1743177450853379,1743177450853379,0.0010614538,0.0011292993,-0.00024289724
1743177450873379,1743177450873379,0.0047378275,-0.003987781,-1.6488564e-05
1743177450893379,1743177450893379,-0.0021430212,0.0012501229,-3.3037453e-05
1743177450913379,1743177450913379,0.0035541481,0.00055646733,-3.3907912e-05
1743177450933379,1743177450933379,0.0034942152,0.0012080687,-0.00027569747
1743177450953379,1743177450953379,-0.0030110718,-0.0036393348,-0.0001293554
1743177450973379,1743177450973379,-4.89745e-05,0.0009448744,-0.0003740298
1743177450993379,1743177450993379,-0.0018705109,-0.0011645347,-0.00031288085
1743177451013379,1743177451013379,-0.001970456,0.004791821,-0.00035567526
1743177451033379,1743177451033379,0.001730684,-0.0010387705,-0.00039848042
1743177451053379,1743177451053379,0.0016613897,0.001853545,-0.0005555247
1743177451073379,1743177451073379,-0.0011619201,-0.0007782255,-0.0003962931
1743177451093379,1743177451093379,0.0041983197,0.00068045314,-0.00026314805
1743177451113379,1743177451113379,0.0022889292,0.0005800614,-0.0005836019
1743177451133379,1743177451133379,-0.0021436124,-0.00490342,-0.000670238
1743177451153379,1743177451153379,-0.0049693547,0.003487342,-0.00080898026
1743177451173379,1743177451173379,-0.0009246005,0.003808254,-0.0007536866
1743177451193379,1743177451193379,-0.0013844046,-0.00013632583,-0.0005224806
1743177451213379,1743177451213379,8.452378e-06,0.001063078,-0.00036021625
1743177451233379,1743177451233379,0.0004305489,-0.0004345457,-0.0007497448
1743177451253379,1743177451253379,-0.0024797004,-0.0013959074,-0.00062635855
1743177451273379,1743177451273379,0.00024545906,-0.0071379896,-0.0004205006
1743177451293379,1743177451293379,0.0017184175,0.00171941,-0.000345868
1743177451313379,1743177451313379,0.0042296043,0.0014316362,-0.00044758315
1743177451333379,1743177451333379,0.00035951214,-0.0011118428,-0.00056268636
1743177451353379,1743177451353379,-0.0002456569,-0.0012854699,-0.00073215616
1743177451373379,1743177451373379,0.0014391574,0.0008946274,-0.00059935625
1743177451393379,1743177451393379,0.0011714586,-0.0040177917,-0.0005123397
1743177451413379,1743177451413379,-0.0014457144,-0.0056732185,-0.0003725554
1743177451433379,1743177451433379,0.0010539875,-0.0033271122,-0.00078097725
1743177451453379,1743177451453379,-0.0002773081,0.0017351389,-0.00066988484
1743177451473379,1743177451473379,-0.0024245675,-0.0017157407,-0.0006358215
1743177451493379,1743177451493379,0.0020981678,-0.00076624565,-0.00020779595
1743177451513379,1743177451513379,0.0012799306,-0.0009174692,-0.00017039363
1743177451533379,1743177451533379,0.00020005176,-0.0038307495,-9.9751436e-05
1743177451553379,1743177451553379,0.003921363,-0.00032118944,0.00038863946
1743177451573379,1743177451573379,-0.0016266385,-0.004923745,0.00030019094
1743177451593379,1743177451593379,0.004767428,0.0043014814,6.63781e-05
1743177451613379,1743177451613379,0.0030056396,-0.001168109,0.00028053025
1743177451633379,1743177451633379,-0.00028570107,-0.00015745283,0.00012306497
1743177451653379,1743177451653379,0.00091706926,0.00025188038,0.00018059772
1743177451673379,1743177451673379,0.00554197,-0.0022168043,0.00012349388
1743177451693379,1743177451693379,-0.0022212507,-0.0014994668,0.00020543745
1743177451713379,1743177451713379,-0.000813948,0.00025047176,0.00035039592
1743177451733379,1743177451733379,0.0009842728,-5.49244e-05,1.2939396e-05
1743177451753379,1743177451753379,0.0002947522,0.0011917348,0.00020876205
1743177451773379,1743177451773379,0.0015069502,-0.00076268415,0.0005355227
1743177451793379,1743177451793379,-0.0002761301,0.0043635345,0.00020629664
1743177451813379,1743177451813379,0.003586043,-0.0019056696,0.0001235435
1743177451833379,1743177451833379,0.0030986082,0.00013607129,0.00029759711
1743177451853379,1743177451853379,0.0025990815,-0.0002654593,0.00022357889
1743177451873379,1743177451873379,-0.00034441653,-0.002636646,-3.7402042e-05
1743177451893379,1743177451893379,-0.0020045373,0.0043799942,-0.00027040238
1743177451913379,1743177451913379,-0.00026612022,0.005919366,-8.00967e-05
1743177451933379,1743177451933379,6.0135382e-05,0.0030435945,-9.4496565e-05
1743177451953379,1743177451953379,0.0017749408,0.0017358563,-1.5359205e-05
1743177451973379,1743177451973379,0.0019085977,-0.0057279104,1.0213334e-06
1743177451993379,1743177451993379,0.0067555457,0.0018866931,0.00038280265
1743177452013379,1743177452013379,8.1827864e-05,0.0016974224,0.00020457405
1743177452033379,1743177452033379,0.001454216,-0.0016619737,-1.3612431e-05
1743177452053379,1743177452053379,-0.0014072405,0.0025746361,0.00013724383
1743177452073379,1743177452073379,0.0009102054,-0.0013833297,0.00014067507
1743177452093379,1743177452093379,0.0018011008,0.0031005368,0.0001515342
1743177452113379,1743177452113379,0.0018824374,0.0025625997,0.00024531153
1743177452133379,1743177452133379,-6.309466e-05,-0.0040336414,-9.387055e-05
1743177452153379,1743177452153379,0.006598763,-6.633683e-05,-0.00036643207
1743177452173379,1743177452173379,0.00042435958,0.0036267634,-0.00068550406
1743177452193379,1743177452193379,0.00076724857,0.0029656377,-0.00064908655
1743177452213379,1743177452213379,1.7711078e-05,0.0037761475,-0.0006260618
1743177452233379,1743177452233379,0.0007369056,-2.6797497e-06,-0.00064304966
1743177452253379,1743177452253379,-0.00066873967,-0.0012599995,-0.0005910664
1743177452273379,1743177452273379,0.00017111021,0.00053758675,-0.00017073152
1743177452293379,1743177452293379,0.002279552,-0.0001348762,-0.00011421823
1743177452313379,1743177452313379,0.0010563734,0.00012577952,0.00013174211
1743177452333379,1743177452333379,0.00089047255,3.774112e-05,0.00042708789
1743177452353379,1743177452353379,0.00012267655,0.0020003233,0.00012806933
1743177452373379,1743177452373379,0.0013907771,0.002163108,-3.5152818e-05
1743177452393379,1743177452393379,0.0022088005,-0.00035808425,0.00014421655
1743177452413379,1743177452413379,0.0037839098,-0.002018841,6.908149e-05
1743177452433379,1743177452433379,-0.0005858224,-0.0016770907,-0.00011014211
1743177452453379,1743177452453379,0.00011932933,0.001586997,-3.1092553e-05
1743177452473379,1743177452473379,-0.0043328605,0.0008887352,4.7306192e-05
1743177452493379,1743177452493379,-0.00083442323,-6.103935e-05,0.0001972831
1743177452513379,1743177452513379,0.0031539558,0.0025677267,0.00041799183
1743177452533379,1743177452533379,0.0006569573,0.0040901005,0.0006181842
1743177452553379,1743177452553379,0.0014507755,0.0031863851,0.00044929597
1743177452573379,1743177452573379,0.0012073764,0.00095880777,9.76339e-05
1743177452593379,1743177452593379,-0.00057771034,0.0035415762,-0.00039398007
1743177452613379,1743177452613379,-0.0015785878,-0.00034183686,-0.00038896865
1743177452633379,1743177452633379,0.000109776505,0.0001738457,-0.00016508752
1743177452653379,1743177452653379,0.0061224094,-0.00045422834,-0.00016034314
1743177452673379,1743177452673379,0.00041502764,-0.00052032573,-8.617145e-05
1743177452693379,1743177452693379,0.0010474713,-0.003476111,0.00014536794
1743177452713379,1743177452713379,0.0028731292,-0.00047108295,2.3500632e-05
1743177452733379,1743177452733379,0.0009021815,0.0009322659,0.00028601883
1743177452753379,1743177452753379,0.003256559,0.0018435009,0.00042251672
1743177452773379,1743177452773379,-0.001670589,-0.00041060327,0.00054041046
1743177452793379,1743177452793379,0.001303324,0.0028249472,0.00011963403
1743177452813379,1743177452813379,-0.00085923425,0.0016867521,0.00022430289
1743177452833379,1743177452833379,0.0017837223,-0.0038593798,0.000111348454
1743177452853379,1743177452853379,0.0031011817,-0.001339633,0.00041383877
1743177452873379,1743177452873379,0.0035258217,0.00058850244,0.0004529905
1743177452893379,1743177452893379,-0.00080348144,-0.0037978527,0.00048839505
1743177452913379,1743177452913379,0.003730027,0.0038191208,0.00024247028
1743177452933379,1743177452933379,0.00036067487,-0.00360764,5.0562263e-05
1743177452953379,1743177452953379,-0.0005510333,-0.0024908634,2.3462348e-05
1743177452973379,1743177452973379,-0.00085960876,-0.001263638,-3.075959e-05
1743177452993379,1743177452993379,-0.004771151,-0.00225378,0.00018774591
1743177453013379,1743177453013379,0.0031653668,-0.0040542153,0.0002166583
1743177453033379,1743177453033379,-0.0005618767,-0.0004945636,0.00013666949
1743177453053379,1743177453053379,-0.0028832008,0.0049019223,5.1180476e-05
1743177453073379,1743177453073379,0.0016134197,0.00034268637,6.1592655e-06
1743177453093379,1743177453093379,5.1102717e-05,0.00045065262,1.3851022e-05
1743177453113379,1743177453113379,0.0016939983,0.0014636384,-0.00019939171
1743177453133379,1743177453133379,0.0048523126,-7.9696925e-05,-5.3828197e-05
1743177453153379,1743177453153379,0.0030298277,-0.0026885234,-5.3620653e-05
1743177453173379,1743177453173379,0.0046329554,-0.003787391,-0.000102551894
1743177453193379,1743177453193379,0.002298915,-0.00072786736,-0.0004711355
1743177453213379,1743177453213379,0.0040456317,-0.0028342127,-0.00049779256
1743177453233379,1743177453233379,-0.0010779055,0.00399291,-0.0003398947
1743177453253379,1743177453253379,0.0017935113,-0.0015871499,-0.00033925305
1743177453273379,1743177453273379,0.0028446263,0.00427754,-0.00029437142
1743177453293379,1743177453293379,0.0018128761,-0.0026247879,-0.00012137491
1743177453313379,1743177453313379,-0.00046890957,0.0019781932,6.025295e-05
1743177453333379,1743177453333379,0.005534606,0.003613349,0.00013985424
1743177453353379,1743177453353379,0.0031005105,-0.002998947,8.764776e-05
1743177453373379,1743177453373379,0.0019589884,-0.0023899188,9.386647e-06
1743177453393379,1743177453393379,0.0031758645,0.0036843577,4.9843384e-06
1743177453413379,1743177453413379,-0.0050581815,0.0019360705,3.844729e-06
1743177453433379,1743177453433379,0.00011734245,0.0015997387,0.00014792854
1743177453453379,1743177453453379,0.0025377125,-0.002795518,-6.4558815e-05
1743177453473379,1743177453473379,-0.0037035835,0.0025578227,-0.00018522456
1743177453493379,1743177453493379,0.0010807506,0.0023229083,-8.136591e-05
1743177453513379,1743177453513379,0.003916751,-0.0014794618,-0.00028049195
1743177453533379,1743177453533379,-8.634859e-05,-0.00024925062,-0.00029657796
1743177453553379,1743177453553379,-0.0007768249,0.00029733547,-4.145809e-05
1743177453573379,1743177453573379,-0.00038232276,-0.00467251,0.00052766426
1743177453593379,1743177453593379,0.00049892336,0.0021161023,0.00034919853
1743177453613379,1743177453613379,0.0022334014,0.0015738392,0.0003556874
1743177453633379,1743177453633379,0.00384569,-0.0034813967,0.00050036714
1743177453653379,1743177453653379,0.0022984226,-0.00071509974,0.00023439366
1743177453673379,1743177453673379,0.002165205,-0.0005374652,-0.0001906435
1743177453693379,1743177453693379,0.00428444,-3.7482532e-06,-0.00023874256
1743177453713379,1743177453713379,0.0009787536,-0.0014134638,-0.00026533226
1743177453733379,1743177453733379,-0.00021125289,-0.003433573,-0.00018861257
1743177453753379,1743177453753379,0.0039198,0.00081900693,-0.00038729043
1743177453773379,1743177453773379,0.00096259033,-0.0035591307,-0.0005511434
1743177453793379,1743177453793379,-0.0004122642,0.004728564,-0.0004693291
1743177453813379,1743177453813379,-0.003494102,-0.0018833107,-0.00042508641
1743177453833379,1743177453833379,0.0026928235,-0.003183065,-0.00032395293
1743177453853379,1743177453853379,0.002423355,0.0034431461,-0.0005730449
1743177453873379,1743177453873379,0.0034789487,0.0021542795,-0.000102789556
1743177453893379,1743177453893379,0.00061169866,-0.00070507225,-0.0001839224
1743177453913379,1743177453913379,-0.00010607287,-0.0027323172,-0.00030191668
1743177453933379,1743177453933379,0.0017351385,0.0026633986,-0.0003785437
1743177453953379,1743177453953379,5.260855e-05,-0.0037024184,-0.0003472091
1743177453973379,1743177453973379,-0.00026035128,-0.0019135734,-0.0003250743
1743177453993379,1743177453993379,0.003125503,-0.00499916,-0.00014395712
1743177454013379,1743177454013379,-0.0005172105,-0.001903231,-0.00057746907
1743177454033379,1743177454033379,-0.002092692,-0.0019242242,-0.0005006052
1743177454053379,1743177454053379,-0.0012311285,-0.0020885235,-0.00060545333
1743177454073379,1743177454073379,-0.00057727884,0.0038514673,-0.0005339906
1743177454093379,1743177454093379,0.0017280212,0.00041350652,-0.00060653855
1743177454113379,1743177454113379,0.0017332484,-0.0042275265,-0.0006267515
1743177454133379,1743177454133379,-0.0029868544,0.0011016069,-0.00021724575
1743177454153379,1743177454153379,0.0026378552,0.0020861598,-0.0006288858
1743177454173379,1743177454173379,-0.0041937963,-0.0012905126,-0.00053902663
1743177454193379,1743177454193379,0.0021770073,-0.00048631616,-0.00072909385
1743177454213379,1743177454213379,0.0010321027,0.0003389866,-0.00056773575
1743177454233379,1743177454233379,-0.0005068765,0.0012504428,-0.00050861645
1743177454253379,1743177454253379,0.0015342295,-0.00055790227,-0.00024265445
1743177454273379,1743177454273379,0.0014217414,0.0046056136,-3.92101e-05
1743177454293379,1743177454293379,-0.0034970678,-0.0021943655,-0.00034215124
1743177454313379,1743177454313379,-0.0009550631,0.0039378162,-0.00024966625
1743177454333379,1743177454333379,5.4827222e-05,-0.0009540672,-0.00015765076
1743177454353379,1743177454353379,-0.00024050829,-0.0006122397,-0.00037339318
1743177454373379,1743177454373379,0.00011329673,-0.00126568,-0.0006069557
1743177454393379,1743177454393379,-0.0008673576,0.0026507531,-0.0004902296
1743177454413379,1743177454413379,0.00034595493,0.00044031825,-0.00040930492
1743177454433379,1743177454433379,-0.0009076667,2.3503759e-05,-3.3635162e-05
1743177454453379,1743177454453379,0.002145056,-0.0019257491,-0.00012363936
1743177454473379,1743177454473379,0.0035373352,-0.002792202,-8.715662e-05
1743177454493379,1743177454493379,0.0021797707,0.00011016798,-9.28245e-05
1743177454513379,1743177454513379,-0.0014654675,0.0016191318,-0.00014952834
1743177454533379,1743177454533379,0.0028993115,-0.0034666993,-0.000168578
1743177454553379,1743177454553379,-0.0044344505,-0.0022241354,-1.8645487e-05
1743177454573379,1743177454573379,0.0001599553,0.004923625,0.00023059164
1743177454593379,1743177454593379,0.0026041784,-0.0019170768,0.0005988515
1743177454613379,1743177454613379,0.00010034963,0.0071597155,0.00074824295
1743177454633379,1743177454633379,-0.0029881955,0.0017475288,0.0007118371
1743177454653379,1743177454653379,-0.0018377996,-0.0041502058,0.0007285158
1743177454669379,1743177454669379,-0.0011923425,0.0033485761,0.0005981943
1743177454693379,1743177454693379,0.0013422171,0.0013727981,0.0003707457
1743177454713379,1743177454713379,-0.001766975,-0.0026586002,0.00053034874
1743177454733379,1743177454733379,-0.0031761038,-0.0023387852,0.00021715494
1743177454753379,1743177454753379,0.0027726076,0.0034156847,0.00027933693
1743177454773379,1743177454773379,-0.002340504,0.0015349041,0.0002755983
1743177454793379,1743177454793379,-0.00071399333,0.002591473,0.00042633488
1743177454813379,1743177454813379,-0.0021049704,-0.0008370204,-3.363991e-05
1743177454833379,1743177454833379,0.00066290505,-0.0001112723,0.00026269685
1743177454853379,1743177454853379,-0.0017452212,0.0032425232,0.0005527838
1743177454873379,1743177454873379,-0.0022813324,-0.002395623,0.00030342618
1743177454893379,1743177454893379,-0.0031966076,0.0020454302,7.405274e-05
1743177454913379,1743177454913379,-0.005102519,-0.0041312566,9.179814e-05
1743177454933379,1743177454933379,0.0025888109,-0.0007430665,-7.119715e-05
1743177454953379,1743177454953379,0.0008387524,-0.0010996441,-0.0001574859
1743177454973379,1743177454973379,-0.0008845506,0.0008623813,-6.95571e-05
1743177454993379,1743177454993379,-0.0016893388,1.9461499e-05,-4.3140906e-05
1743177455013379,1743177455013379,0.0009325771,0.0006152952,-0.00010573736
1743177455033379,1743177455033379,0.001095802,-0.002880662,-0.00015180184
1743177455053379,1743177455053379,0.0007947227,0.0038414598,-0.00043975827
1743177455073379,1743177455073379,-0.0004844537,0.0011564469,-0.0001663159
1743177455093379,1743177455093379,-0.0031592217,0.00024621323,-2.4874917e-05
1743177455113379,1743177455113379,-0.0013749532,0.00015889379,0.0002026134
1743177455133379,1743177455133379,0.0038923274,0.0047563836,6.842782e-05
1743177455153379,1743177455153379,0.00069168955,-0.002296143,-6.5428496e-05
1743177455173379,1743177455173379,0.0028617796,0.0018636181,-0.0005248642
1743177455193379,1743177455193379,-0.004100941,0.0022037737,-0.0002248389
1743177455213379,1743177455213379,0.001131749,-0.0023346292,-0.0003089796
1743177455233379,1743177455233379,-0.0069482713,0.0037149577,-4.4718436e-05
1743177455253379,1743177455253379,-0.0030135168,0.0027093035,-0.00030349172
1743177455273379,1743177455273379,-0.0015965895,-0.0007153896,-0.00025471277
1743177455293379,1743177455293379,-0.003416692,-0.0020974036,8.744844e-05
1743177455313379,1743177455313379,7.916428e-05,0.00059854396,0.0002581245
1743177455333379,1743177455333379,0.0020303007,-0.0029437584,0.00015461433
1743177455353379,1743177455353379,-0.004844305,0.0017529016,0.00031746406
1743177455373379,1743177455373379,0.000113877235,-0.004813306,-0.00013214338
1743177455393379,1743177455393379,-0.0010218432,-0.003703291,-0.00020133598
1743177455413379,1743177455413379,-0.0005454571,0.0014262511,-3.786457e-05
1743177455433379,1743177455433379,-0.0020652376,-0.0033713717,0.00010289214
1743177455453379,1743177455453379,-0.0023010024,-0.0025519333,0.00017761547
1743177455473379,1743177455473379,0.00033228716,-0.001120768,0.00011466726
1743177455493379,1743177455493379,-0.005311666,0.0012817484,0.00032976407
1743177455513379,1743177455513379,-0.00058696745,0.0033784793,0.00017824513
1743177455533379,1743177455533379,-0.0013463186,0.0024021836,0.00015377627
1743177455553379,1743177455553379,-0.002312529,-0.007282408,0.0003422071
1743177455573379,1743177455573379,-0.00055466685,0.009185439,9.882434e-05
1743177455593379,1743177455593379,-0.0036001173,0.0039064307,0.00013170284
1743177455613379,1743177455613379,-0.0036557214,0.0008542642,0.00013880721
1743177455633379,1743177455633379,-0.008096594,0.0014959377,0.00013416473
1743177455653379,1743177455653379,-0.003907774,0.0010477087,0.00053850404
1743177455673379,1743177455673379,-0.0024245551,0.0022765943,0.00046603783
1743177455693379,1743177455693379,0.0010459018,-0.001778779,0.0004736098
1743177455713379,1743177455713379,-0.0060722064,0.0012766531,0.00053310196
1743177455733379,1743177455733379,-0.0030917176,0.00426279,6.6780936e-05
1743177455753379,1743177455753379,-0.00086453126,-0.0014690484,-0.00018260337
1743177455773379,1743177455773379,0.0015123027,0.006309688,-0.00013097315
1743177455793379,1743177455793379,-0.006524803,-0.0011481908,-0.00016953272
1743177455813379,1743177455813379,-0.0043425406,0.0032069194,-0.000279643
1743177455833379,1743177455833379,-0.00064248405,-0.0015056417,-0.0004198048
1743177455853379,1743177455853379,0.0003828361,0.004403293,-0.00047831432
1743177455873379,1743177455873379,-0.0026848847,-0.001014461,-0.0006096588
1743177455893379,1743177455893379,0.0018251651,-0.00091205875,-0.00037319717
1743177455913379,1743177455913379,-0.0049191527,-0.003018071,-0.0003842035
1743177455933379,1743177455933379,0.00095410063,0.00073962816,-0.00014489215
1743177455953379,1743177455953379,-0.0027973414,0.001915152,-0.0001817132
1743177455973379,1743177455973379,0.0016781596,-0.0033049406,-0.00013151372
1743177455993379,1743177455993379,0.0042816843,0.0013722987,8.82756e-05
1743177456013379,1743177456013379,0.0027810107,-0.00085522677,-1.0128969e-05
1743177456033379,1743177456033379,0.0015452529,0.00211225,-0.00014947729
1743177456053379,1743177456053379,0.002191671,0.0030078944,0.00013336886
1743177456073379,1743177456073379,-0.00084434537,-0.004819548,0.00026596297
1743177456093379,1743177456093379,-0.0007344541,0.0040998994,0.0008132581
1743177456113379,1743177456113379,-0.00045728905,0.0002221323,0.00065494824
1743177456133379,1743177456133379,-0.0027964974,-0.003929834,0.00061798585
1743177456153379,1743177456153379,0.0022833564,0.0045201657,0.000489614
1743177456173379,1743177456173379,-0.0023025789,-0.0002657518,0.00041618774
1743177456193379,1743177456193379,0.0011777696,0.0023759434,0.00016921194
1743177456213379,1743177456213379,-0.0017249663,0.0026421594,4.4670356e-05
1743177456233379,1743177456233379,-0.0004285869,0.002208977,-8.322204e-05
1743177456253379,1743177456253379,-0.0010105126,0.0045362404,1.7905946e-05
1743177456273379,1743177456273379,0.0004964452,-0.0029290393,0.00012519126
1743177456293379,1743177456293379,1.6575505e-05,-0.0011272887,0.00012964991
1743177456313379,1743177456313379,0.001030791,-0.0005691387,4.770758e-05
1743177456333379,1743177456333379,-0.007046321,0.0015899874,2.4770816e-05
1743177456353379,1743177456353379,-0.0023158735,0.00052690465,-8.077894e-05
1743177456373379,1743177456373379,-0.0023990786,-0.0004861263,-0.00019087433
1743177456393379,1743177456393379,-0.0024898327,0.0010897627,-0.0002939548
1743177456413379,1743177456413379,0.0035757944,-0.005638006,-0.00033221857
1743177456433379,1743177456433379,0.0010217191,-0.002817926,-0.0006862304
1743177456453379,1743177456453379,0.0004842273,0.0016738543,-0.00051761925
1743177456473379,1743177456473379,0.0011120233,-6.215315e-05,-0.00048820578
1743177456493379,1743177456493379,-9.010899e-05,-0.0037491866,-0.00027636654
1743177456513379,1743177456513379,-0.0014498053,-0.0025256036,-3.297945e-05
1743177456533379,1743177456533379,0.0007387401,-0.0005018732,0.0004961525
1743177456553379,1743177456553379,0.006016642,0.005548521,0.00040885818
1743177456573379,1743177456573379,0.0018715623,-0.0013135853,0.00054880936
1743177456593379,1743177456593379,-0.00048040316,-0.00011608623,0.00018796694
1743177456613379,1743177456613379,-0.004375139,-0.0002537564,0.00015535728
1743177456633379,1743177456633379,-0.001705105,-0.002795282,0.00020935132
1743177456653379,1743177456653379,-0.0017811279,-0.0012663349,-6.2946834e-05
1743177456673379,1743177456673379,-0.0008474125,0.003078707,-0.00015215842
1743177456693379,1743177456693379,0.0002526904,-0.005379679,-0.0003468268
1743177456713379,1743177456713379,0.001934814,0.002860844,-0.00032621718
1743177456733379,1743177456733379,-0.003841896,-0.00076293113,-0.00017580888
1743177456753379,1743177456753379,0.0018201917,0.0023342485,9.862405e-05
1743177456773379,1743177456773379,0.0009807439,-0.0023059922,-5.009712e-05
1743177456793379,1743177456793379,-0.0034230768,-0.0032631506,-0.00029157088
1743177456813379,1743177456813379,0.00037935862,-0.0010508209,-0.00036434436
1743177456833379,1743177456833379,0.0018234056,0.0033732913,-0.0002799487
1743177456853379,1743177456853379,-0.00021396118,-0.0004557086,-0.00040350144
1743177456873379,1743177456873379,0.0015339386,0.00036233655,-0.00032391955
1743177456893379,1743177456893379,0.0003687981,-0.0015443054,-0.00013847521
1743177456913379,1743177456913379,-0.0013638674,-0.0013317936,-3.4534078e-05
1743177456933379,1743177456933379,0.0005574963,0.0015618398,-0.00019043793
1743177456953379,1743177456953379,0.001361164,0.0016156016,-1.1740987e-05
1743177456973379,1743177456973379,0.0025528693,-0.0025145584,8.0983686e-05
1743177456993379,1743177456993379,-4.2260683e-05,-0.0009850528,0.00022468972
1743177457013379,1743177457013379,-3.193796e-05,0.00024605362,0.0004541649
1743177457033379,1743177457033379,-0.0016092968,0.0011959642,0.000605379
1743177457053379,1743177457053379,-0.0025024712,-0.004365702,0.00071733934
1743177457073379,1743177457073379,-0.004528419,0.0016900299,0.0005863589
1743177457093379,1743177457093379,0.0025160792,0.0009162248,0.00037505128
1743177457113379,1743177457113379,-0.0005889736,0.0004813939,0.000509716
1743177457133379,1743177457133379,0.0010053467,-0.002510359,0.00041067472
1743177457153379,1743177457153379,-0.001175002,-0.0033141656,0.00042257298
1743177457173379,1743177457173379,0.0022475165,0.0021909615,0.00049701595
1743177457193379,1743177457193379,-0.003091811,0.001208104,0.00021275427
1743177457213379,1743177457213379,-0.0008776874,-0.0006646095,8.767289e-05
1743177457233379,1743177457233379,0.0040837736,0.002634319,0.00034170572
1743177457253379,1743177457253379,-0.0017869943,-0.002548704,0.00023983218
1743177457273379,1743177457273379,0.00113375,0.002056849,0.00026696516
1743177457293379,1743177457293379,-0.00092333765,-0.0015730197,0.00038901012
1743177457313379,1743177457313379,0.003562837,-0.0011672676,0.00029504957
1743177457333379,1743177457333379,0.0017964029,0.0007664083,0.00041435988
1743177457353379,1743177457353379,0.0021817042,-0.0020372712,0.00043351232
1743177457373379,1743177457373379,-0.0008311183,-0.00419196,0.00025666304
1743177457393379,1743177457393379,-7.913004e-05,0.00041993975,0.00028780522
1743177457413379,1743177457413379,0.0027483257,-0.0020304408,4.595685e-05
1743177457433379,1743177457433379,-0.0032670363,0.0007425101,-0.00027985798
1743177457453379,1743177457453379,0.00033865822,0.0002814875,-0.00046845485
1743177457473379,1743177457473379,-0.0014799904,-0.0033032168,-0.00039591777
1743177457493379,1743177457493379,-0.0005595818,-0.0006461627,-6.187304e-05
1743177457513379,1743177457513379,0.002612338,0.0048682527,-9.4677634e-05
1743177457533379,1743177457533379,0.0027095177,-0.0029557382,-0.00022302347
1743177457553379,1743177457553379,-0.008061166,0.0035433536,-0.0004078617
1743177457573379,1743177457573379,0.0018830348,2.1774933e-05,-0.0004872661
1743177457593379,1743177457593379,-0.0019204674,0.0017705719,-5.0071074e-05
1743177457613379,1743177457613379,-0.0010435511,-0.00039380213,-0.0002664763
1743177457633379,1743177457633379,-0.001537299,-0.0020616646,-0.0001657632
1743177457653379,1743177457653379,0.003454544,0.0040624365,-0.00018776895
1743177457673379,1743177457673379,-0.0003287671,-0.0029329993,-0.0001524429
1743177457693379,1743177457693379,-0.0026023604,-0.0029943753,-3.5419798e-06
1743177457713379,1743177457713379,-0.00097139104,0.0026243592,4.215315e-06
1743177457733379,1743177457733379,0.000657806,0.0018346563,0.00017371916
1743177457753379,1743177457753379,0.0018446482,-0.0016706227,9.1927024e-05
1743177457773379,1743177457773379,-0.0036001422,-0.00089989125,0.00027536
1743177457793379,1743177457793379,-0.0017072626,0.0017050415,-1.8186598e-05
1743177457813379,1743177457813379,0.0019234146,-0.0013873025,-0.00018117315
1743177457833379,1743177457833379,0.006704743,0.0017642407,3.997354e-05
1743177457853379,1743177457853379,-0.00927223,0.0030031982,0.00010065627
1743177457873379,1743177457873379,0.0028083588,-0.0022605238,0.00043030252
1743177457893379,1743177457893379,-0.003074459,0.001626305,0.00019564497
1743177457913379,1743177457913379,-0.00034729886,-0.0024541868,0.00017861844
1743177457933379,1743177457933379,-0.0007721028,-0.0032614162,-1.8968638e-05
1743177457953379,1743177457953379,0.00097427075,0.004208563,-0.00044977528
1743177457973379,1743177457973379,0.0926372,-0.03617479,6.425707e-05
1743177457993379,1743177457993379,0.028423233,-0.0021370454,0.00012148596
1743177458013379,1743177458013379,-0.01424782,0.01631797,-1.216154e-05
1743177458033379,1743177458033379,-0.034379326,0.021601167,-0.0002895589
1743177458053379,1743177458053379,-0.034645263,0.013590878,-0.0002710533
1743177458073379,1743177458073379,-0.037278585,0.008578722,-0.00039375015
1743177458093379,1743177458093379,-0.03427143,0.0042324862,-0.00027760526
1743177458113379,1743177458113379,-0.022761155,-0.00087921275,-0.0001664729
1743177458133379,1743177458133379,-0.012914099,0.002464956,-9.824373e-05
1743177458153379,1743177458153379,-0.014525082,-0.0001384411,-0.00013300218
1743177458173379,1743177458173379,-0.0095868725,-0.0018224651,-0.00042883973
1743177458193379,1743177458193379,-0.0071829613,-0.0060833707,-0.0004353424
1743177458213379,1743177458213379,-0.002297239,-0.0010914695,-0.00044590427
1743177458233379,1743177458233379,0.0009795886,-0.0041248575,-0.00013360434
1743177458253379,1743177458253379,0.0028370493,0.0007143823,-0.00032958592
1743177458273379,1743177458273379,0.0035177656,0.0012236829,-0.0002643685
1743177458293379,1743177458293379,0.005285431,0.0017343363,2.1588112e-05
1743177458313379,1743177458313379,0.006171744,-0.003615424,0.00010394059
1743177458333379,1743177458333379,0.0040023886,0.00014381116,-8.223679e-05
1743177458353379,1743177458353379,0.008408514,-0.0057922583,-0.00023588401
1743177458373379,1743177458373379,0.0026336585,-0.00082023756,-0.00014196418
1743177458393379,1743177458393379,-0.0012956748,-0.0034876745,-6.227308e-05
1743177458413379,1743177458413379,-0.0016381328,-0.00060897955,0.00018539485
1743177458433379,1743177458433379,0.0033979742,0.003678312,-0.00011805546
1743177458453379,1743177458453379,0.005362199,-0.004195059,-4.3113898e-05
1743177458473379,1743177458473379,-0.0017909786,0.0016871148,-0.00013587002
1743177458493379,1743177458493379,-0.006877627,-0.0007594286,3.8362396e-05
1743177458513379,1743177458513379,-0.0018788745,-0.00053629646,0.00035672894
1743177458533379,1743177458533379,0.002581305,0.005066988,0.00037369825
1743177458553379,1743177458553379,-0.0020840527,-0.0011182434,0.00015369238
1743177458573379,1743177458573379,-0.0018294586,-0.0011632475,2.5838359e-05
1743177458593379,1743177458593379,-0.004525165,-0.0012227776,0.00016464174
1743177458613379,1743177458613379,0.002869612,0.00036386913,0.00043892328
1743177458633379,1743177458633379,0.0010784479,-0.0017611027,0.0003206522
1743177458653379,1743177458653379,0.00094711856,-0.00013235118,2.0061529e-05
1743177458673379,1743177458673379,0.0011161836,0.00080506294,-9.850481e-05
1743177458693379,1743177458693379,0.00075972767,0.00047312636,-0.0001269836
1743177458713379,1743177458713379,0.0014557398,-2.1746091e-05,-0.00018352186
1743177458733379,1743177458733379,-0.00285757,0.00011987379,-0.0003815602
1743177458753379,1743177458753379,8.0118436e-05,-0.0022545443,-0.0003689913
1743177458773379,1743177458773379,0.0016326093,-0.0024409778,-0.0005204891
1743177458793379,1743177458793379,-0.0015672502,-0.0031363815,-0.00044738135
1743177458813379,1743177458813379,-0.0020223656,0.0010616602,-0.00036585628
1743177458833379,1743177458833379,0.0046021175,0.00023301205,-0.00017362367
1743177458853379,1743177458853379,-0.0035636574,-0.000104350765,-0.00044527
1743177458873379,1743177458873379,0.0016231205,0.0010776354,-0.0005166905
1743177458893379,1743177458893379,-0.003929684,-0.0004119451,-0.00029177475
1743177458913379,1743177458913379,0.00280699,-0.002959533,-0.0002393263
1743177458933379,1743177458933379,-0.00012237794,0.0013981898,-0.00013986966
1743177458953379,1743177458953379,0.0038022054,0.0026718248,7.466926e-05
1743177458973379,1743177458973379,0.0047475835,-0.0017573822,-9.851353e-05
1743177458993379,1743177458993379,-0.0012085615,-0.004605649,-0.00018842734
1743177459013379,1743177459013379,-0.0007157953,0.004056893,-8.857835e-05
1743177459033379,1743177459033379,1.950364e-06,-0.0026569478,0.00019088012
1743177459053379,1743177459053379,-0.0007602841,0.0009345053,0.00069087284
1743177459073379,1743177459073379,-0.0045546065,0.0003306672,0.00062967907
1743177459093379,1743177459093379,0.0017289394,-0.0017720233,0.0002422762
1743177459113379,1743177459113379,-0.0004920364,0.0030450618,0.00022081297
1743177459133379,1743177459133379,0.0043767546,-0.0019801175,0.00036467338
1743177459153379,1743177459153379,0.0011869451,0.0015181475,0.0003986948
1743177459173379,1743177459173379,0.0051280307,-0.0015302857,0.0003185015
1743177459193379,1743177459193379,-0.0014348372,-0.001000624,0.0004282142
1743177459213379,1743177459213379,0.0044283024,-0.0013787649,0.0006359288
1743177459233379,1743177459233379,0.00027715013,0.0029185596,0.0003491636
1743177459253379,1743177459253379,-0.0029816853,0.004359374,0.00020345958
1743177459273379,1743177459273379,-0.0017096136,-0.0030014343,0.00010323576
1743177459293379,1743177459293379,-0.0072267186,0.0009074942,3.2592194e-05
1743177459313379,1743177459313379,-0.0013311664,-0.0024822983,1.1073149e-05
1743177459333379,1743177459333379,4.690344e-06,-0.0018047498,-0.00024552594
1743177459353379,1743177459353379,0.0009704489,0.0006781691,-0.00014743865
1743177459373379,1743177459373379,0.0008820875,-0.003159095,-0.00017850011
1743177459393379,1743177459393379,-0.0015550387,0.0055780634,-0.00035171566
1743177459413379,1743177459413379,8.727284e-05,0.0026068045,-0.00028901338
1743177459433379,1743177459433379,-0.0012438219,-0.0027873304,-4.8953403e-05
1743177459453379,1743177459453379,-0.0011252994,0.0032584476,-0.00013378369
1743177459473379,1743177459473379,0.0024572464,-0.0072660204,-0.00025489036
1743177459493379,1743177459493379,0.0023596154,0.0036345278,4.928934e-06
1743177459513379,1743177459513379,0.003944147,-0.001757423,-0.0001358852
1743177459533379,1743177459533379,0.0001143042,0.0031902106,-4.5841534e-05
1743177459553379,1743177459553379,-0.00092568225,0.0013369424,-0.00015813473
1743177459573379,1743177459573379,0.002856606,0.0009175996,-0.0001708957
1743177459593379,1743177459593379,-0.0010615132,0.004029909,-0.000110095694
1743177459613379,1743177459613379,-0.00030589808,-0.0033948375,-0.00025093916
1743177459633379,1743177459633379,-0.00053915207,-0.000522655,-0.0003315425
1743177459653379,1743177459653379,-0.0018593483,0.0007147539,-3.454986e-05
1743177459673379,1743177459673379,0.0021233228,0.0064209243,-0.00013150259
1743177459693379,1743177459693379,-0.0007831197,-0.0031263945,-0.00018137533
1743177459713379,1743177459713379,-0.00095655327,0.0012062131,-0.0002970623
1743177459733379,1743177459733379,-0.0006559036,-0.0017508304,-0.00017830913
1743177459753379,1743177459753379,0.0015725874,0.0019682203,-0.00020969806
1743177459773379,1743177459773379,0.0032786373,-0.0012165512,-0.00011080036
1743177459793379,1743177459793379,-0.0033215918,0.0025559945,-0.00019867072
1743177459813379,1743177459813379,-0.0010292717,-0.0034990348,-0.0001607745
1743177459833379,1743177459833379,0.0016102262,-0.0049286485,-0.0004023502
1743177459853379,1743177459853379,0.0010239335,0.0029169212,1.9334686e-05
1743177459873379,1743177459873379,-0.0006470111,0.0032844183,0.00023882024
1743177459893379,1743177459893379,-0.00026490854,-0.0037459456,-0.00025280088
1743177459913379,1743177459913379,0.0023896673,-0.00011930021,-0.0002534572
1743177459933379,1743177459933379,0.0017033976,0.0015995367,-4.621122e-05
1743177459953379,1743177459953379,0.001537042,-0.0039111446,-9.4633186e-05
1743177459973379,1743177459973379,0.0023699095,-0.0014741949,-0.00016532755
1743177459993379,1743177459993379,2.2175014e-05,0.0025066051,2.0284004e-05
1743177460013379,1743177460013379,-0.0028570215,0.0011094004,0.00041250238
1743177460033379,1743177460033379,0.004410573,0.0016775243,0.0004067001
1743177460053379,1743177460053379,-0.002558327,0.003646545,0.000263078
1743177460073379,1743177460073379,-0.000568522,-0.0013220103,0.0003345667
1743177460093379,1743177460093379,0.001480416,0.0032735718,0.00046393133
1743177460113379,1743177460113379,-0.0022882745,-0.003469235,8.136589e-05
1743177460133379,1743177460133379,0.0019490789,0.0017986877,0.00021062302
1743177460153379,1743177460153379,-0.0025554262,0.0033913455,9.377797e-05
1743177460173379,1743177460173379,-0.0009369304,-0.007075435,-2.6097383e-05
1743177460193379,1743177460193379,-0.000481821,0.00202007,-0.00021398056
1743177460213379,1743177460213379,0.0030337675,-0.003497101,1.7931052e-05
1743177460233379,1743177460233379,-0.00082653377,0.0010598841,0.00031953776
1743177460253379,1743177460253379,-0.0029139845,0.002525736,0.00016158941
1743177460273379,1743177460273379,0.0011284593,0.0025864216,-2.528652e-05
1743177460293379,1743177460293379,0.0065031145,-0.0030565814,-0.00030478954
1743177460313379,1743177460313379,-0.0054822126,0.008884866,-0.00040971392
1743177460333379,1743177460333379,-0.0017029962,-0.00093155185,-0.00039442928
1743177460353379,1743177460353379,-0.0011527346,-0.00014110253,-0.0003004774
1743177460373379,1743177460373379,0.0014622353,0.0020605044,-0.00038724695
1743177460393379,1743177460393379,0.003211216,0.0019419193,-0.00010408068
1743177460413379,1743177460413379,-0.00037850253,-0.00031176163,-4.5655637e-05
1743177460433379,1743177460433379,-0.0009440014,-0.0017153984,-0.00031054957
1743177460453379,1743177460453379,-0.001854352,-0.0014542738,-0.00063313264
1743177460473379,1743177460473379,0.00076483696,0.0022666731,-0.00095711177
1743177460493379,1743177460493379,0.00040136278,0.00017617212,-0.00075712474
1743177460513379,1743177460513379,-0.0013202828,0.0018054463,-0.00011647733
1743177460533379,1743177460533379,0.0017899288,-0.0016180482,0.00021102978
1743177460553379,1743177460553379,-0.003165318,0.0056978785,0.00025491597
1743177460573379,1743177460573379,0.0013015162,0.0018551365,0.00020488528
1743177460593379,1743177460593379,-0.00056218234,-0.004215709,0.00019889479
1743177460613379,1743177460613379,0.0021433288,0.0016098344,0.00029254385
1743177460633379,1743177460633379,0.0018061916,-0.00041065592,0.0004892778
1743177460653379,1743177460653379,-0.0005263615,-0.0031908068,0.0007511501
1743177460673379,1743177460673379,-0.003422561,-0.0017147327,0.00075010693
1743177460693379,1743177460693379,0.003839233,-8.069865e-05,0.0009267921
1743177460713379,1743177460713379,-0.002272702,-0.00048576173,0.00095283
1743177460733379,1743177460733379,-0.0041922666,-0.0045898743,0.00069792586
1743177460753379,1743177460753379,0.004262044,0.0025487358,0.00031859207
1743177460773379,1743177460773379,0.0023343982,-0.0011416485,0.0001612071
1743177460793379,1743177460793379,-0.00479352,-0.0019061344,-0.00016042999
1743177460813379,1743177460813379,0.0009843896,0.0017368714,-0.0004793239
1743177460833379,1743177460833379,0.0025486266,-0.00067730807,-0.00052748
1743177460853379,1743177460853379,0.002755417,0.0001389083,-0.0006158077
1743177460873379,1743177460873379,0.0010284258,-0.0015359188,-0.0003604415
1743177460893379,1743177460893379,0.0053634504,0.001221261,-0.00047862093
1743177460913379,1743177460913379,-0.0020341561,-0.006268697,-0.00020218089
1743177460933379,1743177460933379,0.00080972025,0.0019777045,-0.00033430743
1743177460953379,1743177460953379,0.0052396343,-0.0046711313,-0.0003655156
1743177460973379,1743177460973379,-0.00627857,0.0018364121,-0.00010251418
1743177460993379,1743177460993379,0.0011839892,9.5662836e-05,2.2190223e-05
1743177461013379,1743177461013379,-0.0005486762,-0.0010725632,-5.4143093e-05
1743177461033379,1743177461033379,0.0025804876,0.0022519073,-9.671535e-05
1743177461053379,1743177461053379,0.0015477394,-0.0008753503,-0.0001983998
1743177461073379,1743177461073379,-0.0030824512,-0.00023949065,-0.00047064023
1743177461093379,1743177461093379,0.003823087,0.00024312077,-0.0004201934
1743177461113379,1743177461113379,0.004240323,-0.0019172095,-0.00041238483
1743177461133379,1743177461133379,0.0021011725,-0.0017837123,-0.00033146376
1743177461153379,1743177461153379,0.0021870476,0.0018758259,-0.00013011531
1743177461173379,1743177461173379,0.001210904,0.0017632118,-0.0001433851
1743177461193379,1743177461193379,-0.0015110341,0.00027655246,-0.00023693423
1743177461213379,1743177461213379,0.0026204512,-0.0016130025,-0.00049466215
1743177461233379,1743177461233379,-0.0014967624,0.00037729746,-0.00074982044
1743177461253379,1743177461253379,-0.0028536953,0.0016649337,-0.0008836496
1743177461273379,1743177461273379,0.00045649847,0.0037060753,-0.0005848164
1743177461293379,1743177461293379,-0.004223386,0.00076135,-0.0005309911
1743177461313379,1743177461313379,0.00031923782,0.00013945803,-0.00019031418
1743177461333379,1743177461333379,0.0015246883,5.019689e-05,-0.00024128042
1743177461353379,1743177461353379,0.0015604508,-0.0063568484,-0.00015799142
1743177461373379,1743177461373379,-0.00052119856,0.0047577284,-0.0005882196
1743177461393379,1743177461393379,-0.004234625,-0.0015267291,-0.0007458456
1743177461413379,1743177461413379,0.0016733286,-0.0019599935,-0.0006343524
1743177461433379,1743177461433379,-0.000313889,0.0027716935,-0.00050980836
1743177461453379,1743177461453379,0.003471294,-0.0015136687,-0.00052714464
1743177461473379,1743177461473379,-0.0030957519,-0.0010762564,-0.0006166822
1743177461493379,1743177461493379,0.001459034,-0.0025742296,-0.00074353855
1743177461513379,1743177461513379,-0.0034092022,0.0013109224,-0.0007077781
1743177461533379,1743177461533379,0.002207148,0.00037350098,-0.0006937763
1743177461553379,1743177461553379,-0.0008238398,-0.004696537,-0.00063426467
1743177461573379,1743177461573379,-0.00048801934,0.0018432065,-0.00042142608
1743177461593379,1743177461593379,0.0012999199,0.0011506176,-0.00045304454
1743177461613379,1743177461613379,0.0012791925,0.001184349,-0.00039636635
1743177461633379,1743177461633379,-0.0023080292,-0.0009797887,-0.00040415587
1743177461653379,1743177461653379,0.0009155551,0.0012291293,-0.00040600036
1743177461673379,1743177461673379,0.00074454705,-0.0013210578,-0.00044138718
1743177461693379,1743177461693379,-0.0020057114,-0.002509476,-0.0008041404
1743177461713379,1743177461713379,-6.368884e-05,0.0038054509,-0.000992456
1743177461733379,1743177461733379,-0.004907962,-7.531751e-06,-0.0009241506
1743177461753379,1743177461753379,-0.00050249766,0.00053002505,-0.0010861664
1743177461773379,1743177461773379,0.00078138773,-0.003056819,-0.0012683143
1743177461793379,1743177461793379,-0.000417977,0.0031628322,-0.0013930714
1743177461813379,1743177461813379,0.0004857644,-0.0003291277,-0.0014678389
1743177461833379,1743177461833379,-0.001526306,0.0013053976,-0.0016672821
1743177461853379,1743177461853379,0.00057788,0.002816942,-0.0018388765
1743177461873379,1743177461873379,-0.00090706465,0.00080091925,-0.0019215412
1743177461893379,1743177461893379,0.0005745747,-0.0010622963,-0.0019951744
1743177461913379,1743177461913379,0.00019938243,0.0031323957,-0.0019034396
1743177461933379,1743177461933379,0.0012096015,0.0008943719,-0.001970786
1743177461953379,1743177461953379,-0.0006439097,-0.0010437432,-0.0020788293
1743177461973379,1743177461973379,-0.0038194007,-0.0005073024,-0.0019129609
1743177461993379,1743177461993379,0.003920179,0.0013783535,-0.0020789795
1743177462013379,1743177462013379,-0.0009890147,0.0020698518,-0.0021975962
1743177462033379,1743177462033379,0.00094169576,-0.007866694,-0.0020432512
1743177462053379,1743177462053379,-0.00032667053,-0.00075459585,-0.0018364596
1743177462073379,1743177462073379,-0.0020873847,0.002496465,-0.0018743052
1743177462093379,1743177462093379,-0.0010760637,-0.0017725326,-0.0019564684
1743177462113379,1743177462113379,-0.0014650456,0.0030940715,-0.0016418049
1743177462133379,1743177462133379,-0.0024492787,0.001292458,-0.0017006887
1743177462153379,1743177462153379,-0.0017310369,0.0008597641,-0.0017073161
1743177462173379,1743177462173379,-0.003670401,-0.0021443015,-0.0018706481
1743177462193379,1743177462193379,0.0021432363,0.0016106856,-0.0020628455
1743177462213379,1743177462213379,-0.0009479776,0.0010510009,-0.0016816789
1743177462233379,1743177462233379,0.0004750347,-0.00033529216,-0.0014705582
1743177462253379,1743177462253379,-0.00083684304,0.0013190168,-0.0011750637
1743177462273379,1743177462273379,0.0038036662,-0.0025640368,-0.0010728049
1743177462293379,1743177462293379,0.0001786563,-0.0030500449,-0.0010448382
1743177462313379,1743177462313379,0.0018468169,0.0025513847,-0.00060954934
1743177462333379,1743177462333379,0.0019303655,-0.0012898816,-0.00050849793
1743177462353379,1743177462353379,-0.0054974547,0.0018200255,-0.00045863364
1743177462373379,1743177462373379,-0.0044577094,0.0017874169,-0.00033281272
1743177462393379,1743177462393379,-0.00011863705,-0.0018936673,-0.00031857175
1743177462413379,1743177462413379,-0.0006038554,-0.004503016,-0.00021929093
1743177462433379,1743177462433379,-0.0035289396,0.00042306457,-2.4025103e-06
1743177462453379,1743177462453379,-0.0004881784,0.0005979744,0.00025004672
1743177462473379,1743177462473379,-0.0018145668,0.005293589,0.00030690193
1743177462493379,1743177462493379,0.0012818984,0.0008340879,0.0001232038
1743177462513379,1743177462513379,-0.0004982685,0.0040588137,0.00055720005
1743177462533379,1743177462533379,0.0009571428,0.0022621658,0.0009897042
1743177462553379,1743177462553379,0.002213752,-0.0022119358,0.0011820358
1743177462573379,1743177462573379,-0.004205499,0.006891782,0.0014248613
1743177462593379,1743177462593379,0.001531898,-0.0016962863,0.0017375413
1743177462613379,1743177462613379,0.0021142398,-0.0010858689,0.0018027887
1743177462633379,1743177462633379,0.0018766231,-0.0030780844,0.0020327559
1743177462653379,1743177462653379,0.00044281757,0.0027247423,0.0027000918
1743177462673379,1743177462673379,9.91696e-05,0.00020013493,0.0027137422
1743177462693379,1743177462693379,-0.0028729716,-0.0011629703,0.0028243004
1743177462713379,1743177462713379,-0.00083866966,-0.002238236,0.0030339663
1743177462733379,1743177462733379,-0.0013574484,0.0022194397,0.0032171558
1743177462753379,1743177462753379,0.0005730677,-0.00178071,0.0034462155
1743177462773379,1743177462773379,-0.0030996501,-0.0018615522,0.0035365068
1743177462793379,1743177462793379,0.0031483122,0.0019654273,0.0038248766
1743177462813379,1743177462813379,-0.0020450018,0.0001764435,0.0037334606
1743177462833379,1743177462833379,-0.0010894794,-0.0005121644,0.0036955436
1743177462853379,1743177462853379,0.0009789767,0.00070668315,0.0039958293
1743177462873379,1743177462873379,0.00017273735,0.0021342407,0.0039971303
1743177462893379,1743177462893379,0.0014323831,0.0023433578,0.004132298
1743177462913379,1743177462913379,-0.0037775284,0.00064175297,0.004106576
1743177462933379,1743177462933379,0.00094827585,0.0028768207,0.0040560006
1743177462953379,1743177462953379,-0.004937066,0.00010866298,0.004448459
1743177462973379,1743177462973379,-0.0025437158,-0.0035791951,0.004634677
1743177462993379,1743177462993379,0.0011454074,-0.00080590567,0.0043330886
1743177463013379,1743177463013379,-0.002254601,0.00064696895,0.0043229717
1743177463033379,1743177463033379,0.00011402019,0.00062845455,0.0044121244
1743177463053379,1743177463053379,-0.0014871679,0.00067892147,0.0044394583
1743177463073379,1743177463073379,-0.0024763015,-0.0021907997,0.004422375
1743177463093379,1743177463093379,-0.0025743977,-0.0025330887,0.004383354
1743177463113379,1743177463113379,0.001134253,0.005026956,0.0044372613
1743177463133379,1743177463133379,0.00025759154,-0.0011918544,0.0044203675
1743177463153379,1743177463153379,0.0016997282,0.0018205878,0.004390789
1743177463173379,1743177463173379,-0.0025899785,0.0002218145,0.0042242864
1743177463193379,1743177463193379,0.0034498316,0.000122783,0.0040159067
1743177463213379,1743177463213379,0.00054014253,0.001580668,0.004081164
1743177463233379,1743177463233379,-0.0016867685,0.0023874214,0.003897882
1743177463253379,1743177463253379,-0.0006916493,0.00014499875,0.00374916
1743177463273379,1743177463273379,-0.0002651779,-4.8371265e-05,0.0033382606
1743177463293379,1743177463293379,-0.0020023037,0.00054575806,0.002985734
1743177463313379,1743177463313379,0.00053808873,0.0029137104,0.0029182725
1743177463333379,1743177463333379,-0.0004858243,-0.0055600717,0.00301472
1743177463353379,1743177463353379,-0.0058991783,0.0017702072,0.0031596732
1743177463373379,1743177463373379,0.00017449784,-0.0019197476,0.00311213
1743177463393379,1743177463393379,-0.0008326133,0.0018493631,0.0029032168
1743177463413379,1743177463413379,0.0013874843,0.0020399299,0.003132183
1743177463433379,1743177463433379,-0.0020630867,-0.0016893016,0.0027661873
1743177463453379,1743177463453379,0.00064115715,6.309834e-05,0.0026780292
1743177463473379,1743177463473379,-0.00037335194,-0.0021604039,0.0022473398
1743177463493379,1743177463493379,0.0011225075,0.006212343,0.0018030816
1743177463513379,1743177463513379,-0.0012820337,-0.0004231793,0.0017618713
1743177463533379,1743177463533379,0.0011338146,0.0003199582,0.0014196496
1743177463553379,1743177463553379,0.006631054,0.0007183728,0.0011181507
1743177463573379,1743177463573379,-0.001676613,-0.0012691438,0.00070034043
1743177463593379,1743177463593379,0.0013519216,-0.0009869487,0.00025263417
1743177463613379,1743177463613379,-0.0006016722,-0.0014838872,-0.00026684406
1743177463633379,1743177463633379,0.0003240723,0.0012842489,-0.0005263861
1743177463653379,1743177463653379,0.0029233522,-0.00036925718,-0.00035614875
1743177463673379,1743177463673379,-0.0003114026,0.00030668415,-0.0006577796
1743177463693379,1743177463693379,0.0022695735,0.0015623018,-0.000663521
1743177463713379,1743177463713379,0.0019376529,-0.0018765215,-0.0008742861
1743177463733379,1743177463733379,0.00036081963,-0.0026858153,-0.0012121217
1743177463753379,1743177463753379,-0.0051347916,0.0060312366,-0.0012876751
1743177463773379,1743177463773379,-0.0008866392,-0.0014187326,-0.0015314133
1743177463793379,1743177463793379,0.0038660837,-0.00038388034,-0.0014891962
1743177463813379,1743177463813379,-0.0008501181,-0.0013335855,-0.0016903258
1743177463833379,1743177463833379,-0.0030397833,0.004420284,-0.0016455202
1743177463853379,1743177463853379,-0.0057400516,-0.0005186365,-0.0016674324
1743177463873379,1743177463873379,0.0010406707,5.9675775e-05,-0.0019964057
1743177463893379,1743177463893379,-0.0022052836,-0.0006722948,-0.0022044447
1743177463913379,1743177463913379,-0.0020043757,-0.00029556226,-0.0024383864
1743177463933379,1743177463933379,-0.0020856028,-0.0016884728,-0.0027016348
1743177463953379,1743177463953379,0.0024071585,0.0012260632,-0.0027454593
1743177463973379,1743177463973379,-0.0007688479,0.0010815458,-0.0027059421
1743177463993379,1743177463993379,0.002302179,-0.001642627,-0.0024876005
1743177464013379,1743177464013379,8.6453e-05,-0.0035558396,-0.0026941914
1743177464033379,1743177464033379,-0.00056204386,0.0035877442,-0.0031468428
1743177464053379,1743177464053379,-0.0029010375,-0.0012452821,-0.0030529394
1743177464073379,1743177464073379,0.00022524752,-0.0041611963,-0.0029597785
1743177464093379,1743177464093379,0.0008341826,-0.001053602,-0.0029099172
1743177464113379,1743177464113379,-0.0006502208,0.0014749025,-0.0026818374
1743177464133379,1743177464133379,-0.0024121471,9.506592e-06,-0.0028552033
1743177464153379,1743177464153379,-0.000106718915,-0.0019189912,-0.0026513215
1743177464173379,1743177464173379,-0.002123714,-4.516571e-05,-0.00249361
1743177464193379,1743177464193379,-0.0011281469,0.00152022,-0.0022888812
1743177464213379,1743177464213379,7.060589e-05,-0.00093884266,-0.0020578085
1743177464233379,1743177464233379,0.002453606,0.0013316625,-0.0019341584
1743177464253379,1743177464253379,0.0013749031,0.0009291745,-0.0017689081
1743177464273379,1743177464273379,-0.0034269358,0.0027960232,-0.0016701566
1743177464293379,1743177464293379,0.0051960954,0.0002878032,-0.0018044615
1743177464313379,1743177464313379,-0.0004438531,0.0012251842,-0.0017084581
1743177464333379,1743177464333379,-0.00071686326,-0.0013218482,-0.0013596565
1743177464353379,1743177464353379,0.0037356527,-0.0034575947,-0.001043661
1743177464373379,1743177464373379,-0.0025094245,-0.00035217183,-0.0009864854
1743177464393379,1743177464393379,3.3564924e-05,0.00030352466,-0.0012359339
1743177464413379,1743177464413379,0.0027741012,0.0040464806,-0.0011339434
1743177464433379,1743177464433379,-0.0022461878,0.00013196556,-0.00087268266
1743177464453379,1743177464453379,-0.0005074296,0.0006530334,-0.0008715267
1743177464473379,1743177464473379,-0.0031437255,-8.6810964e-05,-0.00046250786
1743177464493379,1743177464493379,0.0030345079,0.0011035551,-0.00028734343
1743177464513379,1743177464513379,-0.0033928198,0.0016276825,-0.00078511395
1743177464533379,1743177464533379,0.0016875907,0.0016295505,-0.0010805493
1743177464553379,1743177464553379,0.0034106087,-0.0033463035,-0.0008316675
1743177464573379,1743177464573379,0.0034337346,-0.0010979956,-0.00073511695
1743177464593379,1743177464593379,0.002021845,0.002249156,-0.00079473475
1743177464613379,1743177464613379,0.0013554317,0.0024854853,-0.0007175428
1743177464633379,1743177464633379,-0.001189219,-0.0013716146,-0.0007354408
1743177464653379,1743177464653379,0.002099416,0.0019797878,-0.0006964626
1743177464673379,1743177464673379,-0.002519221,0.0027710672,-0.00057766505
1743177464693379,1743177464693379,-0.0034342234,-0.0032466035,-0.00031690672
1743177464713379,1743177464713379,0.00032038215,-0.0009991267,-0.00022078477
1743177464733379,1743177464733379,-0.0007957963,-0.0024892534,-0.00021305092
1743177464753379,1743177464753379,0.0046071876,-0.0004272397,8.499572e-06
1743177464773379,1743177464773379,-0.006718596,-0.00080824294,9.354914e-05
1743177464793379,1743177464793379,0.0014589825,0.0021790178,0.00041723193
1743177464813379,1743177464813379,0.0017053515,-0.00075433694,0.00045210362
1743177464833379,1743177464833379,0.0014407041,-0.0012866629,0.00040053044
1743177464853379,1743177464853379,0.0005881558,0.0035255046,0.00038381718
1743177464873379,1743177464873379,0.0014079758,0.00057728187,0.0008457032
1743177464893379,1743177464893379,-0.00042252353,0.0013873342,0.0010015386
1743177464913379,1743177464913379,0.0007308248,-0.0030033316,0.001038448
1743177464933379,1743177464933379,-0.0019591437,0.00070326566,0.0008844948
1743177464953379,1743177464953379,-0.004558078,0.0014073825,0.0008778861
1743177464973379,1743177464973379,0.0024351468,0.001166587,0.0009870772
1743177464993379,1743177464993379,0.0006774081,0.00069543836,0.0011731397
1743177465013379,1743177465013379,-0.0042695906,0.0036851342,0.001551762
1743177465033379,1743177465033379,0.0018058936,0.0018505787,0.0016350948
1743177465053379,1743177465053379,0.0021653862,0.0012973472,0.001575412
1743177465073379,1743177465073379,-0.00033552977,0.0039577642,0.0014963509
1743177465093379,1743177465093379,0.005584485,0.0013516729,0.0013607237
1743177465113379,1743177465113379,0.0023051556,0.00014814903,0.0015714434
1743177465133379,1743177465133379,0.00092843734,0.0012412603,0.0016857769
1743177465153379,1743177465153379,0.0026349914,-0.0022468367,0.001611338
1743177465173379,1743177465173379,0.0015479196,0.0016188048,0.0011834444
1743177465193379,1743177465193379,0.00033201382,0.0020081953,0.001179804
1743177465213379,1743177465213379,0.0011355274,-0.00031264574,0.0011952411
1743177465233379,1743177465233379,0.002415942,-0.00041780202,0.0009977535
1743177465253379,1743177465253379,-1.1719181e-05,0.003170346,0.0007998391
1743177465273379,1743177465273379,0.00078989315,0.0039427434,0.0004076343
1743177465293379,1743177465293379,-0.002697549,0.003980793,0.0004469468
1743177465313379,1743177465313379,0.0041467417,-0.0003362909,0.00061022985
1743177465333379,1743177465333379,-0.0005345148,-0.0030578782,0.00045988392
1743177465349379,1743177465349379,-6.882782e-05,0.0022773244,0.00038939517
1743177465373379,1743177465373379,-0.002208137,0.004956883,0.00042686492
1743177465393379,1743177465393379,-0.0026760527,0.001421914,3.913058e-05
1743177465413379,1743177465413379,-0.001072443,0.0015587828,-0.00041883468
1743177465433379,1743177465433379,-0.00062718533,0.0010009172,-0.0009073691
1743177465453379,1743177465453379,-0.0014215827,-0.00020985465,-0.0006542298
1743177465473379,1743177465473379,-0.0005450279,0.0010583948,-0.00048379035
1743177465493379,1743177465493379,-0.0007310349,0.0020848261,-0.00061203766
1743177465513379,1743177465513379,-0.0037595024,0.00055082014,-0.00035928897
1743177465533379,1743177465533379,-0.00257969,0.001123027,-0.0004920715
1743177465553379,1743177465553379,-0.0008178638,-0.0015232891,-0.0008483736
1743177465573379,1743177465573379,-0.00090909196,-0.0043706247,-0.0010359404
1743177465593379,1743177465593379,0.0046974183,0.0018585813,-0.0015608062
1743177465613379,1743177465613379,-0.00058911694,-0.0010864477,-0.0016539979
1743177465633379,1743177465633379,-0.0004992463,0.0035776333,-0.0015995648
1743177465653379,1743177465653379,0.002166279,-0.0014796688,-0.0018576843
1743177465673379,1743177465673379,0.0019680082,-0.005471055,-0.0021849622
1743177465693379,1743177465693379,0.0004642226,0.0003351568,-0.0020716065
1743177465713379,1743177465713379,0.002607517,0.00017212675,-0.0019960923
1743177465733379,1743177465733379,-0.000988225,0.002267916,-0.0021009443
1743177465753379,1743177465753379,0.0030793515,-0.0025477484,-0.0021849072
1743177465773379,1743177465773379,0.0027239874,0.001366507,-0.0022102103
