timestamp,timestamp_sample,output_tracking_error[0],output_tracking_error[1],output_tracking_error[2],control_mode_flags,filter_fault_flags,pos_horiz_accuracy,pos_vert_accuracy,mag_test_ratio,vel_test_ratio,pos_test_ratio,hgt_test_ratio,tas_test_ratio,hagl_test_ratio,beta_test_ratio,time_slip,accel_device_id,gyro_device_id,baro_device_id,mag_device_id,gps_check_fail_flags,innovation_check_flags,solution_status_flags,reset_count_vel_ne,reset_count_vel_d,reset_count_pos_ne,reset_count_pod_d,reset_count_quat,pre_flt_fail_innov_heading,pre_flt_fail_innov_vel_horiz,pre_flt_fail_innov_vel_vert,pre_flt_fail_innov_height,pre_flt_fail_mag_field_disturbed,health_flags,timeout_flags
21726356000,21726276000,0.00022321293,0.0050214846,0.0016471057,67109399,0,0.049090184,0.05540937,0.00876554,0.0079788705,0.00040506717,0.00021621175,0.0,0.0,0.0,0.0,1310988,1310988,6620172,197388,0,0,895,2,1,2,0,47,0,0,0,0,0,0,0
21726364000,21726284000,0.00021831435,0.0048064752,0.0016237937,67109399,0,0.04909126,0.05540988,0.017939176,0.0079788705,0.00040506717,0.00021621175,0.0,0.0,0.0,0.0,1310988,1310988,6620172,197388,0,0,895,2,1,2,0,47,0,0,0,0,0,0,0
21726372000,21726292000,0.00020506127,0.0045969947,0.0016036269,67109399,0,0.049092565,0.055403553,0.017939176,0.0079788705,0.00040506717,0.0024995124,0.0,0.0,0.0,0.0,1310988,1310988,6620172,197388,0,0,895,2,1,2,0,47,0,0,0,0,0,0,0
21726380000,21726300000,0.0001919376,0.004392954,0.0015775926,67109399,0,0.04909412,0.055404283,0.017939176,0.0079788705,0.00040506717,0.0024995124,0.0,0.0,0.0,0.0,1310988,1310988,6620172,197388,0,0,895,2,1,2,0,47,0,0,0,0,0,0,0
21726388000,21726308000,0.00017924052,0.0041939877,0.0015499047,67109399,0,0.049095944,0.055405144,0.017939176,0.0079788705,0.00040506717,0.0024995124,0.0,0.0,0.0,0.0,1310988,1310988,6620172,197388,0,0,895,2,1,2,0,47,0,0,0,0,0,0,0
21726396000,21726316000,0.00016703852,0.00399962,0.001520977,67109399,0,0.049098063,0.055406142,0.017939176,0.0079788705,0.00040506717,0.0024995124,0.0,0.0,0.0,0.0,1310988,1310988,6620172,197388,0,0,895,2,1,2,0,47,0,0,0,0,0,0,0
21726404000,21726324000,0.00015524378,0.0038100546,0.0014913182,67109399,0,0.04910051,0.05540729,0.017939176,0.0079788705,0.00040506717,0.0024995124,0.0,0.0,0.0,0.0,1310988,1310988,6620172,197388,0,0,895,2,1,2,0,47,0,0,0,0,0,0,0
21726412000,21726332000,0.000143898,0.0036268092,0.0014604464,67109399,0,0.0491033,0.0554086,0.017939176,0.0079788705,0.00040506717,0.0024995124,0.0,0.0,0.0,0.0,1310988,1310988,6620172,197388,0,0,895,2,1,2,0,47,0,0,0,0,0,0,0
21726420000,21726340000,0.00013285685,0.0034480009,0.001428728,67109399,0,0.049106453,0.055410087,0.017939176,0.0079788705,0.00040506717,0.0024995124,0.0,0.0,0.0,0.0,1310988,1310988,6620172,197388,0,0,895,2,1,2,0,47,0,0,0,0,0,0,0
21726428000,21726348000,0.00012219435,0.003273812,0.0013959379,67109399,0,0.049110003,0.05541176,0.017939176,0.0079788705,0.00040506717,0.0024995124,0.0,0.0,0.0,0.0,1310988,1310988,6620172,197388,0,0,895,2,1,2,0,47,0,0,0,0,0,0,0
21726436000,21726356000,0.00011958352,0.0031038825,0.0013622799,67109399,0,0.049113967,0.055406686,0.005055105,0.0079788705,0.00040506717,6.88739e-05,0.0,0.0,0.0,0.0,1310988,1310988,6620172,197388,0,0,895,2,1,2,0,47,0,0,0,0,0,0,0
21726444000,21726364000,0.000110245724,0.0029379523,0.0013282431,67109399,0,0.049118377,0.05540877,0.005055105,0.0079788705,0.00040506717,6.88739e-05,0.0,0.0,0.0,0.0,1310988,1310988,6620172,197388,0,0,895,2,1,2,0,47,0,0,0,0,0,0,0
21726452000,21726372000,9.997188e-05,0.0027764118,0.0012935466,67109399,0,0.049123257,0.05541107,0.005055105,0.0079788705,0.00040506717,6.88739e-05,0.0,0.0,0.0,0.0,1310988,1310988,6620172,197388,0,0,895,2,1,2,0,47,0,0,0,0,0,0,0
21726460000,21726380000,9.0547575e-05,0.0026189713,0.0012581074,67109399,0,0.04912863,0.055413615,0.005055105,0.0079788705,0.00040506717,6.88739e-05,0.0,0.0,0.0,0.0,1310988,1310988,6620172,197388,0,0,895,2,1,2,0,47,0,0,0,0,0,0,0
21726468000,21726388000,8.168389e-05,0.0024665063,0.001221965,67109399,0,0.049134523,0.0554164,0.005055105,0.0079788705,0.00040506717,6.88739e-05,0.0,0.0,0.0,0.0,1310988,1310988,6620172,197388,0,0,895,2,1,2,0,47,0,0,0,0,0,0,0
21726476000,21726396000,7.362066e-05,0.0023178556,0.0011864876,67109399,0,0.04914096,0.055419452,0.005055105,0.0079788705,0.00040506717,6.88739e-05,0.0,0.0,0.0,0.0,1310988,1310988,6620172,197388,0,0,895,2,1,2,0,47,0,0,0,0,0,0,0
21726484000,21726404000,0.00027763876,0.0068807486,0.0015517952,67109399,0,0.049102772,0.05540095,0.005055105,0.0079788705,0.00040506717,6.88739e-05,0.0,0.0,0.0,0.0,1310988,1310988,6620172,197388,0,0,895,2,1,2,0,47,0,0,0,0,0,0,0
21726492000,21726412000,0.0002706269,0.0066111,0.0015435418,67109399,0,0.049102806,0.055394024,0.005055105,0.0079788705,0.00040506717,0.004461111,0.0,0.0,0.0,0.0,1310988,1310988,6620172,197388,0,0,895,2,1,2,0,47,0,0,0,0,0,0,0
21726500000,21726420000,0.00026421243,0.006348727,0.0015280843,67109399,0,0.049102847,0.055394046,0.005055105,0.0079788705,0.00040506717,0.004461111,0.0,0.0,0.0,0.0,1310988,1310988,6620172,197388,0,0,895,2,1,2,0,47,0,0,0,0,0,0,0
21726508000,21726428000,0.000266785,0.0060932874,0.001512097,67109399,0,0.049102917,0.05539408,0.013981594,0.0079788705,0.00040506717,0.004461111,0.0,0.0,0.0,0.0,1310988,1310988,6620172,197388,0,0,895,2,1,2,0,47,0,0,0,0,0,0,0
21726516000,21726436000,0.00026120114,0.005845616,0.001495954,67109399,0,0.049103037,0.055394143,0.013981594,0.0079788705,0.00040506717,0.004461111,0.0,0.0,0.0,0.0,1310988,1310988,6620172,197388,0,0,895,2,1,2,0,47,0,0,0,0,0,0,0
21726524000,21726444000,0.00025599645,0.0056054885,0.0014788578,67109399,0,0.049103227,0.055394236,0.013981594,0.0079788705,0.00040506717,0.004461111,0.0,0.0,0.0,0.0,1310988,1310988,6620172,197388,0,0,895,2,1,2,0,47,0,0,0,0,0,0,0
21726532000,21726452000,0.00025132112,0.0053726067,0.0014617295,67109399,0,0.04910351,0.055394374,0.013981594,0.0079788705,0.00040506717,0.004461111,0.0,0.0,0.0,0.0,1310988,1310988,6620172,197388,0,0,895,2,1,2,0,47,0,0,0,0,0,0,0
21726540000,21726460000,0.00024718672,0.005146127,0.0014445881,67109399,0,0.04910391,0.055394564,0.013981594,0.0079788705,0.00040506717,0.004461111,0.0,0.0,0.0,0.0,1310988,1310988,6620172,197388,0,0,895,2,1,2,0,47,0,0,0,0,0,0,0
21726548000,21726468000,0.0002435566,0.0049264557,0.0014265248,67109399,0,0.04910444,0.05539482,0.013981594,0.0079788705,0.00040506717,0.004461111,0.0,0.0,0.0,0.0,1310988,1310988,6620172,197388,0,0,895,2,1,2,0,47,0,0,0,0,0,0,0
21726556000,21726476000,0.00024036187,0.004713246,0.0014091041,67109399,0,0.049105134,0.055388212,0.013981594,0.0079788705,0.00040506717,7.759212e-05,0.0,0.0,0.0,0.0,1310988,1310988,6620172,197388,0,0,895,2,1,2,0,47,0,0,0,0,0,0,0
21726564000,21726484000,0.00023761438,0.0045067025,0.0013906743,67109399,0,0.04910601,0.055388626,0.013981594,0.0079788705,0.00040506717,7.759212e-05,0.0,0.0,0.0,0.0,1310988,1310988,6620172,197388,0,0,895,2,1,2,0,47,0,0,0,0,0,0,0
21726572000,21726492000,0.0002236949,0.004305968,0.0013713744,67109399,0,0.049107082,0.055389132,0.013981594,0.0079788705,0.00040506717,7.759212e-05,0.0,0.0,0.0,0.0,1310988,1310988,6620172,197388,0,0,895,2,1,2,0,47,0,0,0,0,0,0,0
21726580000,21726500000,0.00021151878,0.0041106013,0.00135044,67109399,0,0.049108386,0.055389747,0.0020794044,0.0079788705,0.00040506717,7.759212e-05,0.0,0.0,0.0,0.0,1310988,1310988,6620172,197388,0,0,895,2,1,2,0,47,0,0,0,0,0,0,0
21726588000,21726508000,0.00019829503,0.0039207423,0.0013292268,67109399,0,0.04910994,0.055390477,0.0020794044,0.0079788705,0.00040506717,7.759212e-05,0.0,0.0,0.0,0.0,1310988,1310988,6620172,197388,0,0,895,2,1,2,0,47,0,0,0,0,0,0,0
21726596000,21726516000,0.00018486909,0.0037358971,0.0013058458,67109399,0,0.049111765,0.055391338,0.0020794044,0.0079788705,0.00040506717,7.759212e-05,0.0,0.0,0.0,0.0,1310988,1310988,6620172,197388,0,0,895,2,1,2,0,47,0,0,0,0,0,0,0
21726604000,21726524000,0.00017172002,0.0035561488,0.0012824624,67109399,0,0.04911389,0.055392336,0.0020794044,0.0079788705,0.00040506717,7.759212e-05,0.0,0.0,0.0,0.0,1310988,1310988,6620172,197388,0,0,895,2,1,2,0,47,0,0,0,0,0,0,0
21726612000,21726532000,0.000158887,0.0033814164,0.0012545267,67109399,0,0.04908672,0.055386547,0.0020794044,0.0020795276,0.00033225055,0.0023443284,0.0,0.0,0.0,0.0,1310988,1310988,6620172,197388,0,0,895,2,1,2,0,47,0,0,0,0,0,0,0
21726620000,21726540000,0.00014625349,0.0032111409,0.0012292425,67109399,0,0.0490895,0.05538786,0.0020794044,0.0020795276,0.00033225055,0.0023443284,0.0,0.0,0.0,0.0,1310988,1310988,6620172,197388,0,0,895,2,1,2,0,47,0,0,0,0,0,0,0
21726628000,21726548000,0.00013384543,0.003046576,0.0012033546,67109399,0,0.04909265,0.055389345,0.0020794044,0.0020795276,0.00033225055,0.0023443284,0.0,0.0,0.0,0.0,1310988,1310988,6620172,197388,0,0,895,2,1,2,0,47,0,0,0,0,0,0,0
21726636000,21726556000,0.00012163336,0.0028864474,0.0011770324,67109399,0,0.04909619,0.055391014,0.0020794044,0.0020795276,0.00033225055,0.0023443284,0.0,0.0,0.0,0.0,1310988,1310988,6620172,197388,0,0,895,2,1,2,0,47,0,0,0,0,0,0,0
21726644000,21726564000,0.00010955353,0.0027303465,0.0011496873,67109399,0,0.049100146,0.055392884,0.0020794044,0.0020795276,0.00033225055,0.0023443284,0.0,0.0,0.0,0.0,1310988,1310988,6620172,197388,0,0,895,2,1,2,0,47,0,0,0,0,0,0,0
21726652000,21726572000,0.000105404106,0.0025792378,0.0011223293,67109399,0,0.049104545,0.055394966,0.024061132,0.0020795276,0.00033225055,0.0023443284,0.0,0.0,0.0,0.0,1310988,1310988,6620172,197388,0,0,895,2,1,2,0,47,0,0,0,0,0,0,0
21726660000,21726580000,9.700533e-05,0.0024320495,0.0010946767,67109399,0,0.049109418,0.055397272,0.024061132,0.0020795276,0.00033225055,0.0023443284,0.0,0.0,0.0,0.0,1310988,1310988,6620172,197388,0,0,895,2,1,2,0,47,0,0,0,0,0,0,0
21726668000,21726588000,8.989286e-05,0.0022903548,0.001066533,67109399,0,0.049114782,0.055399813,0.024061132,0.0020795276,0.00033225055,0.0023443284,0.0,0.0,0.0,0.0,1310988,1310988,6620172,197388,0,0,895,2,1,2,0,47,0,0,0,0,0,0,0
21726676000,21726596000,8.3894156e-05,0.002153413,0.0010327292,67109399,0,0.049120665,0.05539566,0.024061132,0.0020795276,0.00033225055,0.0053695487,0.0,0.0,0.0,0.0,1310988,1310988,6620172,197388,0,0,895,2,1,2,0,47,0,0,0,0,0,0,0
21726684000,21726604000,7.907298e-05,0.002020881,0.001004462,67109399,0,0.04912709,0.055398714,0.024061132,0.0020795276,0.00033225055,0.0053695487,0.0,0.0,0.0,0.0,1310988,1310988,6620172,197388,0,0,895,2,1,2,0,47,0,0,0,0,0,0,0
21726692000,21726612000,0.00020858808,0.0053452817,0.0011516202,67109399,0,0.049088992,0.05538022,0.024061132,0.0020795276,0.00033225055,0.0053695487,0.0,0.0,0.0,0.0,1310988,1310988,6620172,197388,0,0,895,2,1,2,0,47,0,0,0,0,0,0,0
21726700000,21726620000,0.00020546353,0.005181516,0.0011452672,67109399,0,0.049089026,0.055380236,0.024061132,0.0020795276,0.00033225055,0.0053695487,0.0,0.0,0.0,0.0,1310988,1310988,6620172,197388,0,0,895,2,1,2,0,47,0,0,0,0,0,0,0
21726708000,21726628000,0.00020282892,0.0050236024,0.0011401551,67109399,0,0.049089067,0.055380255,0.024061132,0.0020795276,0.00033225055,0.0053695487,0.0,0.0,0.0,0.0,1310988,1310988,6620172,197388,0,0,895,2,1,2,0,47,0,0,0,0,0,0,0
21726716000,21726636000,0.00020052855,0.004872076,0.0011357478,67109399,0,0.049089137,0.055380292,0.024061132,0.0020795276,0.00033225055,0.0053695487,0.0,0.0,0.0,0.0,1310988,1310988,6620172,197388,0,0,895,2,1,2,0,47,0,0,0,0,0,0,0
21726724000,21726644000,0.00021043862,0.004726545,0.0011330094,67109399,0,0.049089257,0.05538035,0.009890061,0.0020795276,0.00033225055,0.0053695487,0.0,0.0,0.0,0.0,1310988,1310988,6620172,197388,0,0,895,2,1,2,0,47,0,0,0,0,0,0,0
21726732000,21726652000,0.00020921313,0.004586596,0.0011312768,67109399,0,0.04908945,0.055373516,0.009890061,0.0020795276,0.00033225055,0.00022580182,0.0,0.0,0.0,0.0,1310988,1310988,6620172,197388,0,0,895,2,1,2,0,47,0,0,0,0,0,0,0
21726740000,21726660000,0.00020654632,0.0044520027,0.0011301073,67109399,0,0.049089734,0.055373654,0.009890061,0.0020795276,0.00033225055,0.00022580182,0.0,0.0,0.0,0.0,1310988,1310988,6620172,197388,0,0,895,2,1,2,0,47,0,0,0,0,0,0,0
21726748000,21726668000,0.00020413517,0.0043226383,0.0011305196,67109399,0,0.049090136,0.055373844,0.009890061,0.0020795276,0.00033225055,0.00022580182,0.0,0.0,0.0,0.0,1310988,1310988,6620172,197388,0,0,895,2,1,2,0,47,0,0,0,0,0,0,0
21726756000,21726676000,0.00020188045,0.0041990466,0.0011320071,67109399,0,0.049090672,0.0553741,0.009890061,0.0020795276,0.00033225055,0.00022580182,0.0,0.0,0.0,0.0,1310988,1310988,6620172,197388,0,0,895,2,1,2,0,47,0,0,0,0,0,0,0
21726764000,21726684000,0.00019981855,0.0040808823,0.0011341972,67109399,0,0.049091365,0.05537443,0.009890061,0.0020795276,0.00033225055,0.00022580182,0.0,0.0,0.0,0.0,1310988,1310988,6620172,197388,0,0,895,2,1,2,0,47,0,0,0,0,0,0,0
21726772000,21726692000,0.00019779349,0.003965588,0.0011378315,67109399,0,0.04909224,0.055374842,0.009890061,0.0020795276,0.00033225055,0.00022580182,0.0,0.0,0.0,0.0,1310988,1310988,6620172,197388,0,0,895,2,1,2,0,47,0,0,0,0,0,0,0
21726780000,21726700000,0.00018759766,0.0038532268,0.001141319,67109399,0,0.049093317,0.055375353,0.009890061,0.0020795276,0.00033225055,0.00022580182,0.0,0.0,0.0,0.0,1310988,1310988,6620172,197388,0,0,895,2,1,2,0,47,0,0,0,0,0,0,0
21726788000,21726708000,0.00017749691,0.0037456227,0.0011444235,67109399,0,0.04909462,0.055375967,0.009890061,0.0020795276,0.00033225055,0.00022580182,0.0,0.0,0.0,0.0,1310988,1310988,6620172,197388,0,0,895,2,1,2,0,47,0,0,0,0,0,0,0
21726796000,21726716000,0.00017490928,0.0036424624,0.0011478445,67109399,0,0.049096175,0.05536977,0.0050407615,0.0020795276,0.00033225055,0.00053093943,0.0,0.0,0.0,0.0,1310988,1310988,6620172,197388,0,0,895,2,1,2,0,47,0,0,0,0,0,0,0
21726804000,21726724000,0.00016516894,0.003543152,0.0011516673,67109399,0,0.049098,0.05537063,0.0050407615,0.0020795276,0.00033225055,0.00053093943,0.0,0.0,0.0,0.0,1310988,1310988,6620172,197388,0,0,895,2,1,2,0,47,0,0,0,0,0,0,0
21726812000,21726732000,0.0001547165,0.003448048,0.0011548917,67109399,0,0.049100123,0.055371627,0.0050407615,0.0020795276,0.00033225055,0.00053093943,0.0,0.0,0.0,0.0,1310988,1310988,6620172,197388,0,0,895,2,1,2,0,47,0,0,0,0,0,0,0
21726820000,21726740000,0.00014451223,0.0033642435,0.0011643501,67109399,0,0.04907298,0.05537277,0.0050407615,0.007822453,0.0020799977,0.00053093943,0.0,0.0,0.0,0.0,1310988,1310988,6620172,197388,0,0,895,2,1,2,0,47,0,0,0,0,0,0,0
21726828000,21726748000,0.00013415594,0.0032785616,0.0011669773,67109399,0,0.049075764,0.055374086,0.0050407615,0.007822453,0.0020799977,0.00053093943,0.0,0.0,0.0,0.0,1310988,1310988,6620172,197388,0,0,895,2,1,2,0,47,0,0,0,0,0,0,0
21726836000,21726756000,0.00012406301,0.003196427,0.0011700871,67109399,0,0.04907891,0.055375572,0.0050407615,0.007822453,0.0020799977,0.00053093943,0.0,0.0,0.0,0.0,1310988,1310988,6620172,197388,0,0,895,2,1,2,0,47,0,0,0,0,0,0,0
21726844000,21726764000,0.00011401087,0.0031181425,0.0011729907,67109399,0,0.049082454,0.055377245,0.0050407615,0.007822453,0.0020799977,0.00053093943,0.0,0.0,0.0,0.0,1310988,1310988,6620172,197388,0,0,895,2,1,2,0,47,0,0,0,0,0,0,0
21726852000,21726772000,0.00010416486,0.003043849,0.0011734804,67109399,0,0.049086418,0.055372182,0.0050407615,0.007822453,0.0020799977,0.0030958387,0.0,0.0,0.0,0.0,1310988,1310988,6620172,197388,0,0,895,2,1,2,0,47,0,0,0,0,0,0,0
21726860000,21726780000,9.456198e-05,0.0029735987,0.0011763601,67109399,0,0.04909082,0.055374265,0.0050407615,0.007822453,0.0020799977,0.0030958387,0.0,0.0,0.0,0.0,1310988,1310988,6620172,197388,0,0,895,2,1,2,0,47,0,0,0,0,0,0,0
21726868000,21726788000,8.3479455e-05,0.0029070242,0.0011792467,67109399,0,0.04909569,0.05537657,0.0010520592,0.007822453,0.0020799977,0.0030958387,0.0,0.0,0.0,0.0,1310988,1310988,6620172,197388,0,0,895,2,1,2,0,47,0,0,0,0,0,0,0
21726876000,21726796000,7.488513e-05,0.002844673,0.0011818217,67109399,0,0.049101055,0.05537911,0.0010520592,0.007822453,0.0020799977,0.0030958387,0.0,0.0,0.0,0.0,1310988,1310988,6620172,197388,0,0,895,2,1,2,0,47,0,0,0,0,0,0,0
21726884000,21726804000,6.623978e-05,0.0027845325,0.0011848416,67109399,0,0.049106937,0.0553819,0.0010520592,0.007822453,0.0020799977,0.0030958387,0.0,0.0,0.0,0.0,1310988,1310988,6620172,197388,0,0,895,2,1,2,0,47,0,0,0,0,0,0,0
21726892000,21726812000,5.8318055e-05,0.002727744,0.0011869034,67109399,0,0.049113367,0.055384953,0.0010520592,0.007822453,0.0020799977,0.0030958387,0.0,0.0,0.0,0.0,1310988,1310988,6620172,197388,0,0,895,2,1,2,0,47,0,0,0,0,0,0,0
21726900000,21726820000,0.0002062122,0.005673096,0.0014821866,67109399,0,0.049075253,0.05536645,0.0010520592,0.007822453,0.0020799977,0.0030958387,0.0,0.0,0.0,0.0,1310988,1310988,6620172,197388,0,0,895,2,1,2,0,47,0,0,0,0,0,0,0
21726908000,21726828000,0.00020106467,0.005484134,0.0014938704,67109399,0,0.049075287,0.055366464,0.0010520592,0.007822453,0.0020799977,0.0030958387,0.0,0.0,0.0,0.0,1310988,1310988,6620172,197388,0,0,895,2,1,2,0,47,0,0,0,0,0,0,0
21726916000,21726836000,0.00019650486,0.0053008297,0.0015021119,67109399,0,0.04907533,0.05535956,0.0010520592,0.007822453,0.0020799977,0.002342585,0.0,0.0,0.0,0.0,1310988,1310988,6620172,197388,0,0,895,2,1,2,0,47,0,0,0,0,0,0,0
21726924000,21726844000,0.00019242847,0.0051244786,0.0015115719,67109399,0,0.049075402,0.055359595,0.0010520592,0.007822453,0.0020799977,0.002342585,0.0,0.0,0.0,0.0,1310988,1310988,6620172,197388,0,0,895,2,1,2,0,47,0,0,0,0,0,0,0
21726932000,21726852000,0.00018887216,0.004953584,0.0015201813,67109399,0,0.04907552,0.055359658,0.0010520592,0.007822453,0.0020799977,0.002342585,0.0,0.0,0.0,0.0,1310988,1310988,6620172,197388,0,0,895,2,1,2,0,47,0,0,0,0,0,0,0
21726940000,21726860000,0.00018403503,0.004788445,0.0015279932,67109399,0,0.049075715,0.05535975,0.007495769,0.007822453,0.0020799977,0.002342585,0.0,0.0,0.0,0.0,1310988,1310988,6620172,197388,0,0,895,2,1,2,0,47,0,0,0,0,0,0,0
21726948000,21726868000,0.0001816758,0.0046300236,0.0015350414,67109399,0,0.049076,0.05535989,0.007495769,0.007822453,0.0020799977,0.002342585,0.0,0.0,0.0,0.0,1310988,1310988,6620172,197388,0,0,895,2,1,2,0,47,0,0,0,0,0,0,0
21726956000,21726876000,0.00017970415,0.004477492,0.0015420368,67109399,0,0.049076404,0.05536008,0.007495769,0.007822453,0.0020799977,0.002342585,0.0,0.0,0.0,0.0,1310988,1310988,6620172,197388,0,0,895,2,1,2,0,47,0,0,0,0,0,0,0
21726964000,21726884000,0.00017807432,0.0043295557,0.0015476195,67109399,0,0.049076937,0.055360336,0.007495769,0.007822453,0.0020799977,0.002342585,0.0,0.0,0.0,0.0,1310988,1310988,6620172,197388,0,0,895,2,1,2,0,47,0,0,0,0,0,0,0
21726972000,21726892000,0.00017674816,0.0041878866,0.0015559309,67109399,0,0.04907763,0.055353742,0.007495769,0.007822453,0.0020799977,0.0043006963,0.0,0.0,0.0,0.0,1310988,1310988,6620172,197388,0,0,895,2,1,2,0,47,0,0,0,0,0,0,0
21726980000,21726900000,0.00017564208,0.0040510246,0.001560267,67109399,0,0.049078505,0.055354156,0.007495769,0.007822453,0.0020799977,0.0043006963,0.0,0.0,0.0,0.0,1310988,1310988,6620172,197388,0,0,895,2,1,2,0,47,0,0,0,0,0,0,0
21726988000,21726908000,0.00016563047,0.0039194985,0.0015632448,67109399,0,0.049079586,0.055354662,0.007495769,0.007822453,0.0020799977,0.0043006963,0.0,0.0,0.0,0.0,1310988,1310988,6620172,197388,0,0,895,2,1,2,0,47,0,0,0,0,0,0,0
21726996000,21726916000,0.00015585277,0.0037924112,0.0015647038,67109399,0,0.04908089,0.055355277,0.007495769,0.007822453,0.0020799977,0.0043006963,0.0,0.0,0.0,0.0,1310988,1310988,6620172,197388,0,0,895,2,1,2,0,47,0,0,0,0,0,0,0
21727004000,21726924000,0.00014625759,0.0036689797,0.0015650714,67109399,0,0.049082443,0.05535601,0.007495769,0.007822453,0.0020799977,0.0043006963,0.0,0.0,0.0,0.0,1310988,1310988,6620172,197388,0,0,895,2,1,2,0,47,0,0,0,0,0,0,0
21727012000,21726932000,0.00014673382,0.003551011,0.0015650293,67109399,0,0.04908427,0.05535687,0.0153438,0.007822453,0.0020799977,0.0043006963,0.0,0.0,0.0,0.0,1310988,1310988,6620172,197388,0,0,895,2,1,2,0,47,0,0,0,0,0,0,0
21727020000,21726940000,0.00013844951,0.003437453,0.0015632911,67109399,0,0.049086392,0.05535787,0.0153438,0.007822453,0.0020799977,0.0043006963,0.0,0.0,0.0,0.0,1310988,1310988,6620172,197388,0,0,895,2,1,2,0,47,0,0,0,0,0,0,0
21727028000,21726948000,0.00012995819,0.0033278281,0.0015618292,67109399,0,0.04905928,0.055359013,0.0153438,0.00011025384,0.0020595307,0.0043006963,0.0,0.0,0.0,0.0,1310988,1310988,6620172,197388,0,0,895,2,1,2,0,47,0,0,0,0,0,0,0
21727036000,21726956000,0.000121607554,0.0032227922,0.0015584506,67109399,0,0.04906206,0.055353403,0.0153438,0.00011025384,0.0020595307,0.00038011427,0.0,0.0,0.0,0.0,1310988,1310988,6620172,197388,0,0,895,2,1,2,0,47,0,0,0,0,0,0,0
21727044000,21726964000,0.000113426315,0.0031233134,0.0015541238,67109399,0,0.04906521,0.05535489,0.0153438,0.00011025384,0.0020595307,0.00038011427,0.0,0.0,0.0,0.0,1310988,1310988,6620172,197388,0,0,895,2,1,2,0,47,0,0,0,0,0,0,0
21727052000,21726972000,0.00010540985,0.003028303,0.0015493003,67109399,0,0.049068753,0.055356562,0.0153438,0.00011025384,0.0020595307,0.00038011427,0.0,0.0,0.0,0.0,1310988,1310988,6620172,197388,0,0,895,2,1,2,0,47,0,0,0,0,0,0,0
21727060000,21726980000,9.7504744e-05,0.0029382815,0.0015441965,67109399,0,0.049072716,0.055358436,0.0153438,0.00011025384,0.0020595307,0.00038011427,0.0,0.0,0.0,0.0,1310988,1310988,6620172,197388,0,0,895,2,1,2,0,47,0,0,0,0,0,0,0
21727068000,21726988000,8.991172e-05,0.0028527789,0.0015383181,67109399,0,0.04907712,0.05536052,0.0153438,0.00011025384,0.0020595307,0.00038011427,0.0,0.0,0.0,0.0,1310988,1310988,6620172,197388,0,0,895,2,1,2,0,47,0,0,0,0,0,0,0
21727076000,21726996000,8.28275e-05,0.002771322,0.0015319817,67109399,0,0.049081992,0.055362824,0.0153438,0.00011025384,0.0020595307,0.00038011427,0.0,0.0,0.0,0.0,1310988,1310988,6620172,197388,0,0,895,2,1,2,0,47,0,0,0,0,0,0,0
21727084000,21727004000,7.049162e-05,0.0026943493,0.0015253708,67109399,0,0.049087357,0.055365365,0.003410038,0.00011025384,0.0020595307,0.00038011427,0.0,0.0,0.0,0.0,1310988,1310988,6620172,197388,0,0,895,2,1,2,0,47,0,0,0,0,0,0,0
21727092000,21727012000,6.431431e-05,0.0026225618,0.0015152314,67109399,0,0.04909324,0.05536123,0.003410038,0.00011025384,0.0020595307,0.0038508363,0.0,0.0,0.0,0.0,1310988,1310988,6620172,197388,0,0,895,2,1,2,0,47,0,0,0,0,0,0,0
21727100000,21727020000,5.717332e-05,0.0025547154,0.0015077227,67109399,0,0.04909967,0.05536428,0.003410038,0.00011025384,0.0020595307,0.0038508363,0.0,0.0,0.0,0.0,1310988,1310988,6620172,197388,0,0,895,2,1,2,0,47,0,0,0,0,0,0,0
21727108000,21727028000,9.791225e-05,0.0015879978,0.0013921817,67109399,0,0.049061548,0.055345777,0.003410038,0.00011025384,0.0020595307,0.0038508363,0.0,0.0,0.0,0.0,1310988,1310988,6620172,197388,0,0,895,2,1,2,0,47,0,0,0,0,0,0,0
21727116000,21727036000,9.426347e-05,0.0015088209,0.001377704,67109399,0,0.049061578,0.05534579,0.003410038,0.00011025384,0.0020595307,0.0038508363,0.0,0.0,0.0,0.0,1310988,1310988,6620172,197388,0,0,895,2,1,2,0,47,0,0,0,0,0,0,0
21727124000,21727044000,9.116348e-05,0.0014359575,0.0013632345,67109399,0,0.049061622,0.05534581,0.003410038,0.00011025384,0.0020595307,0.0038508363,0.0,0.0,0.0,0.0,1310988,1310988,6620172,197388,0,0,895,2,1,2,0,47,0,0,0,0,0,0,0
21727132000,21727052000,8.851037e-05,0.0013701638,0.0013488565,67109399,0,0.049061693,0.05534585,0.003410038,0.00011025384,0.0020595307,0.0038508363,0.0,0.0,0.0,0.0,1310988,1310988,6620172,197388,0,0,895,2,1,2,0,47,0,0,0,0,0,0,0
21727140000,21727060000,8.6255306e-05,0.0013101462,0.0013342001,67109399,0,0.049061812,0.055345908,0.003410038,0.00011025384,0.0020595307,0.0038508363,0.0,0.0,0.0,0.0,1310988,1310988,6620172,197388,0,0,895,2,1,2,0,47,0,0,0,0,0,0,0
21727148000,21727068000,8.430824e-05,0.0012563542,0.0013199646,67109399,0,0.049062006,0.055346,0.003410038,0.00011025384,0.0020595307,0.0038508363,0.0,0.0,0.0,0.0,1310988,1310988,6620172,197388,0,0,895,2,1,2,0,47,0,0,0,0,0,0,0
21727156000,21727076000,0.00011532753,0.0012097798,0.0013033748,67109399,0,0.049062293,0.05533922,0.023099376,0.00011025384,0.0020595307,0.0017375409,0.0,0.0,0.0,0.0,1310988,1310988,6620172,197388,0,0,895,2,1,2,0,47,0,0,0,0,0,0,0
21727164000,21727084000,0.00011273478,0.0011699717,0.0012894251,67109399,0,0.049062695,0.05533941,0.023099376,0.00011025384,0.0020595307,0.0017375409,0.0,0.0,0.0,0.0,1310988,1310988,6620172,197388,0,0,895,2,1,2,0,47,0,0,0,0,0,0,0
21727172000,21727092000,0.00011057052,0.0011374325,0.0012750021,67109399,0,0.04906323,0.055339668,0.023099376,0.00011025384,0.0020595307,0.0017375409,0.0,0.0,0.0,0.0,1310988,1310988,6620172,197388,0,0,895,2,1,2,0,47,0,0,0,0,0,0,0
21727180000,21727100000,0.00010853447,0.0011123619,0.0012606146,67109399,0,0.049063925,0.055339996,0.023099376,0.00011025384,0.0020595307,0.0017375409,0.0,0.0,0.0,0.0,1310988,1310988,6620172,197388,0,0,895,2,1,2,0,47,0,0,0,0,0,0,0
21727188000,21727108000,0.000106809464,0.0010936675,0.0012469792,67109399,0,0.049064796,0.055340413,0.023099376,0.00011025384,0.0020595307,0.0017375409,0.0,0.0,0.0,0.0,1310988,1310988,6620172,197388,0,0,895,2,1,2,0,47,0,0,0,0,0,0,0
21727196000,21727116000,0.0001027059,0.0010824668,0.0012337113,67109399,0,0.04906588,0.05534092,0.023099376,0.00011025384,0.0020595307,0.0017375409,0.0,0.0,0.0,0.0,1310988,1310988,6620172,197388,0,0,895,2,1,2,0,47,0,0,0,0,0,0,0
21727204000,21727124000,9.875685e-05,0.001078001,0.0012208328,67109399,0,0.049067184,0.055341534,0.023099376,0.00011025384,0.0020595307,0.0017375409,0.0,0.0,0.0,0.0,1310988,1310988,6620172,197388,0,0,895,2,1,2,0,47,0,0,0,0,0,0,0
21727212000,21727132000,9.483531e-05,0.0010782912,0.0012064737,67109399,0,0.049068734,0.05533535,0.023099376,0.00011025384,0.0020595307,0.0023417135,0.0,0.0,0.0,0.0,1310988,1310988,6620172,197388,0,0,895,2,1,2,0,47,0,0,0,0,0,0,0
21727220000,21727140000,9.1112044e-05,0.0010834427,0.0011952585,67109399,0,0.049070563,0.05533621,0.023099376,0.00011025384,0.0020595307,0.0023417135,0.0,0.0,0.0,0.0,1310988,1310988,6620172,197388,0,0,895,2,1,2,0,47,0,0,0,0,0,0,0
21727228000,21727148000,0.00010594401,0.0010945976,0.001184475,67109399,0,0.049072687,0.05533721,0.008545079,0.00011025384,0.0020595307,0.0023417135,0.0,0.0,0.0,0.0,1310988,1310988,6620172,197388,0,0,895,2,1,2,0,47,0,0,0,0,0,0,0
21727236000,21727156000,0.00010286854,0.0011096509,0.0011704877,67109399,0,0.0490456,0.055338357,0.008545079,0.0012240162,0.0020715285,0.0023417135,0.0,0.0,0.0,0.0,1310988,1310988,6620172,197388,0,0,895,2,1,2,0,47,0,0,0,0,0,0,0
21727244000,21727164000,9.71543e-05,0.0011283633,0.0011607826,67109399,0,0.04904838,0.055339668,0.008545079,0.0012240162,0.0020715285,0.0023417135,0.0,0.0,0.0,0.0,1310988,1310988,6620172,197388,0,0,895,2,1,2,0,47,0,0,0,0,0,0,0
21727252000,21727172000,9.167441e-05,0.001150819,0.0011516283,67109399,0,0.04905153,0.055341158,0.008545079,0.0012240162,0.0020715285,0.0023417135,0.0,0.0,0.0,0.0,1310988,1310988,6620172,197388,0,0,895,2,1,2,0,47,0,0,0,0,0,0,0
21727260000,21727180000,8.620178e-05,0.0011766595,0.0011428113,67109399,0,0.049055077,0.055335913,0.008545079,0.0012240162,0.0020715285,0.0008343335,0.0,0.0,0.0,0.0,1310988,1310988,6620172,197388,0,0,895,2,1,2,0,47,0,0,0,0,0,0,0
21727268000,21727188000,8.091812e-05,0.0012042997,0.0011345219,67109399,0,0.04905904,0.055337787,0.008545079,0.0012240162,0.0020715285,0.0008343335,0.0,0.0,0.0,0.0,1310988,1310988,6620172,197388,0,0,895,2,1,2,0,47,0,0,0,0,0,0,0
21727276000,21727196000,7.572251e-05,0.0012344723,0.0011276975,67109399,0,0.049063448,0.05533987,0.008545079,0.0012240162,0.0020715285,0.0008343335,0.0,0.0,0.0,0.0,1310988,1310988,6620172,197388,0,0,895,2,1,2,0,47,0,0,0,0,0,0,0
21727284000,21727204000,7.085108e-05,0.001265414,0.0011215742,67109399,0,0.04906832,0.055342175,0.008545079,0.0012240162,0.0020715285,0.0008343335,0.0,0.0,0.0,0.0,1310988,1310988,6620172,197388,0,0,895,2,1,2,0,47,0,0,0,0,0,0,0
21727292000,21727212000,6.5900815e-05,0.0012973747,0.0011158301,67109399,0,0.049073685,0.055344716,0.008545079,0.0012240162,0.0020715285,0.0008343335,0.0,0.0,0.0,0.0,1310988,1310988,6620172,197388,0,0,895,2,1,2,0,47,0,0,0,0,0,0,0
21727300000,21727220000,6.904153e-05,0.001330212,0.0011104286,67109399,0,0.04907957,0.05534751,0.0032164375,0.0012240162,0.0020715285,0.0008343335,0.0,0.0,0.0,0.0,1310988,1310988,6620172,197388,0,0,895,2,1,2,0,47,0,0,0,0,0,0,0
21727308000,21727228000,6.469315e-05,0.0013632526,0.0011061823,67109399,0,0.049086004,0.055350564,0.0032164375,0.0012240162,0.0020715285,0.0008343335,0.0,0.0,0.0,0.0,1310988,1310988,6620172,197388,0,0,895,2,1,2,0,47,0,0,0,0,0,0,0
21727316000,21727236000,0.00017284209,0.0030253953,0.0011216339,67109399,0,0.04904788,0.055332046,0.0032164375,0.0012240162,0.0020715285,0.0008343335,0.0,0.0,0.0,0.0,1310988,1310988,6620172,197388,0,0,895,2,1,2,0,47,0,0,0,0,0,0,0
21727324000,21727244000,0.0001708428,0.0028825346,0.0011084907,67109399,0,0.049047913,0.055325147,0.0032164375,0.0012240162,0.0020715285,0.00627363,0.0,0.0,0.0,0.0,1310988,1310988,6620172,197388,0,0,895,2,1,2,0,47,0,0,0,0,0,0,0
21727332000,21727252000,0.00016917099,0.0027456114,0.0011019573,67109399,0,0.049047954,0.05532517,0.0032164375,0.0012240162,0.0020715285,0.00627363,0.0,0.0,0.0,0.0,1310988,1310988,6620172,197388,0,0,895,2,1,2,0,47,0,0,0,0,0,0,0
21727340000,21727260000,0.00016774278,0.002614272,0.0010948287,67109399,0,0.049048025,0.055325206,0.0032164375,0.0012240162,0.0020715285,0.00627363,0.0,0.0,0.0,0.0,1310988,1310988,6620172,197388,0,0,895,2,1,2,0,47,0,0,0,0,0,0,0
21727348000,21727268000,0.00016656866,0.0024876217,0.0010884021,67109399,0,0.049048148,0.055325266,0.0032164375,0.0012240162,0.0020715285,0.00627363,0.0,0.0,0.0,0.0,1310988,1310988,6620172,197388,0,0,895,2,1,2,0,47,0,0,0,0,0,0,0
21727356000,21727276000,0.00016561997,0.0023671968,0.0010813944,67109399,0,0.049048338,0.05532536,0.0032164375,0.0012240162,0.0020715285,0.00627363,0.0,0.0,0.0,0.0,1310988,1310988,6620172,197388,0,0,895,2,1,2,0,47,0,0,0,0,0,0,0
21727364000,21727284000,0.00016907083,0.00225249,0.0010749554,67109399,0,0.04904862,0.055325497,0.026288515,0.0012240162,0.0020715285,0.00627363,0.0,0.0,0.0,0.0,1310988,1310988,6620172,197388,0,0,895,2,1,2,0,47,0,0,0,0,0,0,0
21727372000,21727292000,0.00016998519,0.0021424491,0.0010685326,67109399,0,0.04904902,0.055325687,0.026288515,0.0012240162,0.0020715285,0.00627363,0.0,0.0,0.0,0.0,1310988,1310988,6620172,197388,0,0,895,2,1,2,0,47,0,0,0,0,0,0,0
21727380000,21727300000,0.00017090472,0.0020383256,0.0010612115,67109399,0,0.049049556,0.055319034,0.026288515,0.0012240162,0.0020715285,0.00083607715,0.0,0.0,0.0,0.0,1310988,1310988,6620172,197388,0,0,895,2,1,2,0,47,0,0,0,0,0,0,0
21727388000,21727308000,0.00017207854,0.0019395999,0.0010550804,67109399,0,0.04905025,0.05531936,0.026288515,0.0012240162,0.0020715285,0.00083607715,0.0,0.0,0.0,0.0,1310988,1310988,6620172,197388,0,0,895,2,1,2,0,47,0,0,0,0,0,0,0
21727396000,21727316000,0.00017327431,0.0018447415,0.001048861,67109399,0,0.049051125,0.05531978,0.026288515,0.0012240162,0.0020715285,0.00083607715,0.0,0.0,0.0,0.0,1310988,1310988,6620172,197388,0,0,895,2,1,2,0,47,0,0,0,0,0,0,0
21727404000,21727324000,0.00016668497,0.0017543861,0.001042497,67109399,0,0.049052205,0.055320285,0.026288515,0.0012240162,0.0020715285,0.00083607715,0.0,0.0,0.0,0.0,1310988,1310988,6620172,197388,0,0,895,2,1,2,0,47,0,0,0,0,0,0,0
21727412000,21727332000,0.00016017092,0.0016693533,0.0010363691,67109399,0,0.04905351,0.0553209,0.026288515,0.0012240162,0.0020715285,0.00083607715,0.0,0.0,0.0,0.0,1310988,1310988,6620172,197388,0,0,895,2,1,2,0,47,0,0,0,0,0,0,0
21727420000,21727340000,0.00015380945,0.001589941,0.0010304005,67109399,0,0.049055062,0.055321634,0.026288515,0.0012240162,0.0020715285,0.00083607715,0.0,0.0,0.0,0.0,1310988,1310988,6620172,197388,0,0,895,2,1,2,0,47,0,0,0,0,0,0,0
21727428000,21727348000,0.00014758989,0.0015156759,0.0010237106,67109399,0,0.04905689,0.055322494,0.026288515,0.0012240162,0.0020715285,0.00083607715,0.0,0.0,0.0,0.0,1310988,1310988,6620172,197388,0,0,895,2,1,2,0,47,0,0,0,0,0,0,0
21727436000,21727356000,0.0001374812,0.0014481811,0.0010182316,67109399,0,0.049059015,0.055323493,0.0029554076,0.0012240162,0.0020715285,0.00083607715,0.0,0.0,0.0,0.0,1310988,1310988,6620172,197388,0,0,895,2,1,2,0,47,0,0,0,0,0,0,0
21727444000,21727364000,0.00013138905,0.0013841448,0.001016125,67109399,0,0.049031947,0.05531773,0.0029554076,0.004051401,0.002055958,0.0077722925,0.0,0.0,0.0,0.0,1310988,1310988,6620172,197388,0,0,895,2,1,2,0,47,0,0,0,0,0,0,0
21727452000,21727372000,0.00012336556,0.0013293873,0.0010098774,67109399,0,0.04903473,0.055319045,0.0029554076,0.004051401,0.002055958,0.0077722925,0.0,0.0,0.0,0.0,1310988,1310988,6620172,197388,0,0,895,2,1,2,0,47,0,0,0,0,0,0,0
21727460000,21727380000,0.00011534399,0.0012806304,0.001004347,67109399,0,0.04903788,0.05532053,0.0029554076,0.004051401,0.002055958,0.0077722925,0.0,0.0,0.0,0.0,1310988,1310988,6620172,197388,0,0,895,2,1,2,0,47,0,0,0,0,0,0,0
21727468000,21727388000,0.000107277505,0.0012375657,0.0009984681,67109399,0,0.049041428,0.055322208,0.0029554076,0.004051401,0.002055958,0.0077722925,0.0,0.0,0.0,0.0,1310988,1310988,6620172,197388,0,0,895,2,1,2,0,47,0,0,0,0,0,0,0
21727476000,21727396000,9.912293e-05,0.0012013975,0.0009932001,67109399,0,0.04904539,0.055324078,0.0029554076,0.004051401,0.002055958,0.0077722925,0.0,0.0,0.0,0.0,1310988,1310988,6620172,197388,0,0,895,2,1,2,0,47,0,0,0,0,0,0,0
21727484000,21727404000,9.106784e-05,0.0011713876,0.00098771,67109399,0,0.0490498,0.055326164,0.0029554076,0.004051401,0.002055958,0.0077722925,0.0,0.0,0.0,0.0,1310988,1310988,6620172,197388,0,0,895,2,1,2,0,47,0,0,0,0,0,0,0
21727492000,21727412000,8.325462e-05,0.0011483402,0.0009827978,67109399,0,0.04905467,0.055328473,0.0029554076,0.004051401,0.002055958,0.0077722925,0.0,0.0,0.0,0.0,1310988,1310988,6620172,197388,0,0,895,2,1,2,0,47,0,0,0,0,0,0,0
21727500000,21727420000,0.00022996373,0.0011321085,0.0009866044,67109399,0,0.04906004,0.055324104,0.06255835,0.004051401,0.002055958,0.008224768,0.0,0.0,0.0,0.0,1310988,1310988,6620172,197388,0,0,895,2,1,2,0,47,0,0,0,0,0,0,0
21727508000,21727428000,0.00022551417,0.001122646,0.0009819784,67109399,0,0.049065925,0.055326898,0.06255835,0.004051401,0.002055958,0.008224768,0.0,0.0,0.0,0.0,1310988,1310988,6620172,197388,0,0,895,2,1,2,0,47,0,0,0,0,0,0,0
21727516000,21727436000,0.00022113939,0.0011182184,0.000977785,67109399,0,0.04907236,0.055329952,0.06255835,0.004051401,0.002055958,0.008224768,0.0,0.0,0.0,0.0,1310988,1310988,6620172,197388,0,0,895,2,1,2,0,47,0,0,0,0,0,0,0
21727524000,21727444000,0.00025237963,0.0031185898,0.0010845687,67109399,0,0.04903423,0.055311434,0.06255835,0.004051401,0.002055958,0.008224768,0.0,0.0,0.0,0.0,1310988,1310988,6620172,197388,0,0,895,2,1,2,0,47,0,0,0,0,0,0,0
21727532000,21727452000,0.00024709516,0.0029970142,0.0010838768,67109399,0,0.049034264,0.05531145,0.06255835,0.004051401,0.002055958,0.008224768,0.0,0.0,0.0,0.0,1310988,1310988,6620172,197388,0,0,895,2,1,2,0,47,0,0,0,0,0,0,0
21727540000,21727460000,0.00024206804,0.0028810997,0.0010827911,67109399,0,0.049034305,0.055311467,0.06255835,0.004051401,0.002055958,0.008224768,0.0,0.0,0.0,0.0,1310988,1310988,6620172,197388,0,0,895,2,1,2,0,47,0,0,0,0,0,0,0
21727548000,21727468000,0.00023731886,0.0027696975,0.0010819559,67109399,0,0.049034376,0.055311505,0.06255835,0.004051401,0.002055958,0.008224768,0.0,0.0,0.0,0.0,1310988,1310988,6620172,197388,0,0,895,2,1,2,0,47,0,0,0,0,0,0,0
21727556000,21727476000,0.00023289026,0.0026641535,0.0010803624,67109399,0,0.049034495,0.055311564,0.06255835,0.004051401,0.002055958,0.008224768,0.0,0.0,0.0,0.0,1310988,1310988,6620172,197388,0,0,895,2,1,2,0,47,0,0,0,0,0,0,0
21727564000,21727484000,0.0002288176,0.0025636046,0.0010748743,67109399,0,0.04903469,0.055304755,0.06255835,0.004051401,0.002055958,0.0026573134,0.0,0.0,0.0,0.0,1310988,1310988,6620172,197388,0,0,895,2,1,2,0,47,0,0,0,0,0,0,0
21727572000,21727492000,0.00022990332,0.002468387,0.0010736054,67109399,0,0.04903497,0.055304892,0.001955983,0.004051401,0.002055958,0.0026573134,0.0,0.0,0.0,0.0,1310988,1310988,6620172,197388,0,0,895,2,1,2,0,47,0,0,0,0,0,0,0
21727580000,21727500000,0.0002266548,0.002378569,0.0010726432,67109399,0,0.049035374,0.055305082,0.001955983,0.004051401,0.002055958,0.0026573134,0.0,0.0,0.0,0.0,1310988,1310988,6620172,197388,0,0,895,2,1,2,0,47,0,0,0,0,0,0,0
21727588000,21727508000,0.00021587397,0.002294162,0.0010713052,67109399,0,0.04903591,0.05530534,0.001955983,0.004051401,0.002055958,0.0026573134,0.0,0.0,0.0,0.0,1310988,1310988,6620172,197388,0,0,895,2,1,2,0,47,0,0,0,0,0,0,0
21727596000,21727516000,0.0002053036,0.0022152665,0.0010702828,67109399,0,0.049036603,0.055305667,0.001955983,0.004051401,0.002055958,0.0026573134,0.0,0.0,0.0,0.0,1310988,1310988,6620172,197388,0,0,895,2,1,2,0,47,0,0,0,0,0,0,0
21727604000,21727524000,0.00019490832,0.0021390605,0.0010689782,67109399,0,0.04903748,0.05530608,0.001955983,0.004051401,0.002055958,0.0026573134,0.0,0.0,0.0,0.0,1310988,1310988,6620172,197388,0,0,895,2,1,2,0,47,0,0,0,0,0,0,0
21727612000,21727532000,0.00018277636,0.0020652032,0.0010674269,67109399,0,0.04903856,0.05530659,0.001955983,0.004051401,0.002055958,0.0026573134,0.0,0.0,0.0,0.0,1310988,1310988,6620172,197388,0,0,895,2,1,2,0,47,0,0,0,0,0,0,0
21727620000,21727540000,0.00017066344,0.0019972327,0.001061048,67109399,0,0.049039867,0.055300303,0.001955983,0.004051401,0.002055958,0.0031132763,0.0,0.0,0.0,0.0,1310988,1310988,6620172,197388,0,0,895,2,1,2,0,47,0,0,0,0,0,0,0
21727628000,21727548000,0.00015888482,0.0019342105,0.0010591235,67109399,0,0.04904142,0.055301033,0.001955983,0.004051401,0.002055958,0.0031132763,0.0,0.0,0.0,0.0,1310988,1310988,6620172,197388,0,0,895,2,1,2,0,47,0,0,0,0,0,0,0
21727636000,21727556000,0.00014728402,0.0018766734,0.001057389,67109399,0,0.04904325,0.055301897,0.001955983,0.004051401,0.002055958,0.0031132763,0.0,0.0,0.0,0.0,1310988,1310988,6620172,197388,0,0,895,2,1,2,0,47,0,0,0,0,0,0,0
21727644000,21727564000,6.452211e-05,0.0018247786,0.0010550551,67109399,0,0.049045376,0.055302896,0.0364535,0.004051401,0.002055958,0.0031132763,0.0,0.0,0.0,0.0,1310988,1310988,6620172,197388,0,0,895,2,1,2,0,47,0,0,0,0,0,0,0
21727652000,21727572000,5.674832e-05,0.0017787926,0.001052653,67109399,0,0.049047824,0.055304047,0.0364535,0.004051401,0.002055958,0.0031132763,0.0,0.0,0.0,0.0,1310988,1310988,6620172,197388,0,0,895,2,1,2,0,47,0,0,0,0,0,0,0
21727660000,21727580000,5.0437306e-05,0.0017380964,0.0010506941,67109399,0,0.049050614,0.05530536,0.0364535,0.004051401,0.002055958,0.0031132763,0.0,0.0,0.0,0.0,1310988,1310988,6620172,197388,0,0,895,2,1,2,0,47,0,0,0,0,0,0,0
21727668000,21727588000,4.620033e-05,0.0017021412,0.0010460006,67109399,0,0.049053773,0.055299945,0.0364535,0.004051401,0.002055958,0.0016076397,0.0,0.0,0.0,0.0,1310988,1310988,6620172,197388,0,0,895,2,1,2,0,47,0,0,0,0,0,0,0
21727676000,21727596000,4.431765e-05,0.0016711839,0.001043565,67109399,0,0.049057327,0.05530162,0.0364535,0.004051401,0.002055958,0.0016076397,0.0,0.0,0.0,0.0,1310988,1310988,6620172,197388,0,0,895,2,1,2,0,47,0,0,0,0,0,0,0
21727684000,21727604000,4.4677057e-05,0.0016457833,0.0010418178,67109399,0,0.049061295,0.05530349,0.0364535,0.004051401,0.002055958,0.0016076397,0.0,0.0,0.0,0.0,1310988,1310988,6620172,197388,0,0,895,2,1,2,0,47,0,0,0,0,0,0,0
21727692000,21727612000,4.6903737e-05,0.0016247202,0.001039636,67109399,0,0.04906571,0.055305578,0.0364535,0.004051401,0.002055958,0.0016076397,0.0,0.0,0.0,0.0,1310988,1310988,6620172,197388,0,0,895,2,1,2,0,47,0,0,0,0,0,0,0
21727700000,21727620000,5.048177e-05,0.0016078593,0.0010378116,67109399,0,0.049070593,0.055307887,0.0364535,0.004051401,0.002055958,0.0016076397,0.0,0.0,0.0,0.0,1310988,1310988,6620172,197388,0,0,895,2,1,2,0,47,0,0,0,0,0,0,0
21727708000,21727628000,5.4980366e-05,0.0015959952,0.0010351399,67109399,0,0.049075972,0.055310436,0.0364535,0.004051401,0.002055958,0.0016076397,0.0,0.0,0.0,0.0,1310988,1310988,6620172,197388,0,0,895,2,1,2,0,47,0,0,0,0,0,0,0
21727716000,21727636000,7.562748e-05,0.0015877807,0.0010338706,67109399,0,0.04908187,0.05531323,0.0057796147,0.004051401,0.002055958,0.0016076397,0.0,0.0,0.0,0.0,1310988,1310988,6620172,197388,0,0,895,2,1,2,0,47,0,0,0,0,0,0,0
21727724000,21727644000,8.088519e-05,0.0015835493,0.0010328128,67109399,0,0.04908831,0.055316288,0.0057796147,0.004051401,0.002055958,0.0016076397,0.0,0.0,0.0,0.0,1310988,1310988,6620172,197388,0,0,895,2,1,2,0,47,0,0,0,0,0,0,0
21727732000,21727652000,0.00015735923,0.0037049183,0.0011577926,67109399,0,0.049050085,0.055290844,0.0057796147,0.004051401,0.002055958,0.0031237379,0.0,0.0,0.0,0.0,1310988,1310988,6620172,197388,0,0,895,2,1,2,0,47,0,0,0,0,0,0,0
21727740000,21727660000,0.00015499785,0.0036027352,0.0011623934,67109399,0,0.04905012,0.05529086,0.0057796147,0.004051401,0.002055958,0.0031237379,0.0,0.0,0.0,0.0,1310988,1310988,6620172,197388,0,0,895,2,1,2,0,47,0,0,0,0,0,0,0
21727748000,21727668000,0.00015266136,0.0035055692,0.001166923,67109399,0,0.04905016,0.055290878,0.0057796147,0.004051401,0.002055958,0.0031237379,0.0,0.0,0.0,0.0,1310988,1310988,6620172,197388,0,0,895,2,1,2,0,47,0,0,0,0,0,0,0
21727756000,21727676000,0.00015030314,0.0034120332,0.0011710752,67109399,0,0.04905023,0.055290915,0.0057796147,0.004051401,0.002055958,0.0031237379,0.0,0.0,0.0,0.0,1310988,1310988,6620172,197388,0,0,895,2,1,2,0,47,0,0,0,0,0,0,0
21727764000,21727684000,0.00014797962,0.0033228595,0.0011752243,67109399,0,0.049050353,0.055290975,0.0057796147,0.004051401,0.002055958,0.0031237379,0.0,0.0,0.0,0.0,1310988,1310988,6620172,197388,0,0,895,2,1,2,0,47,0,0,0,0,0,0,0
21727772000,21727692000,0.0001454531,0.003238966,0.001179201,67109399,0,0.049050543,0.05529107,0.0057796147,0.004051401,0.002055958,0.0031237379,0.0,0.0,0.0,0.0,1310988,1310988,6620172,197388,0,0,895,2,1,2,0,47,0,0,0,0,0,0,0
21727780000,21727700000,0.00014304655,0.0031585614,0.0011835555,67109399,0,0.04905083,0.055291206,0.0057796147,0.004051401,0.002055958,0.0031237379,0.0,0.0,0.0,0.0,1310988,1310988,6620172,197388,0,0,895,2,1,2,0,47,0,0,0,0,0,0,0
21727788000,21727708000,0.00013785958,0.003083083,0.0011863661,67109399,0,0.049051233,0.0552845,0.0022411183,0.004051401,0.002055958,0.002663416,0.0,0.0,0.0,0.0,1310988,1310988,6620172,197388,0,0,895,2,1,2,0,47,0,0,0,0,0,0,0
21727796000,21727716000,0.00013562155,0.0030121035,0.0011904043,67109399,0,0.04905177,0.055284757,0.0022411183,0.004051401,0.002055958,0.002663416,0.0,0.0,0.0,0.0,1310988,1310988,6620172,197388,0,0,895,2,1,2,0,47,0,0,0,0,0,0,0
21727804000,21727724000,0.00013240972,0.0029278393,0.001188411,67109399,0,0.049022976,0.055285085,0.0022411183,0.014173013,0.0020600685,0.002663416,0.0,0.0,0.0,0.0,1310988,1310988,6620172,197388,0,0,895,2,1,2,0,47,0,0,0,0,0,0,0
21727812000,21727732000,0.00012994614,0.0028646055,0.0011919584,67109399,0,0.04902385,0.055285502,0.0022411183,0.014173013,0.0020600685,0.002663416,0.0,0.0,0.0,0.0,1310988,1310988,6620172,197388,0,0,895,2,1,2,0,47,0,0,0,0,0,0,0
21727820000,21727740000,0.00012165721,0.0028030712,0.0011956634,67109399,0,0.04902493,0.05528601,0.0022411183,0.014173013,0.0020600685,0.002663416,0.0,0.0,0.0,0.0,1310988,1310988,6620172,197388,0,0,895,2,1,2,0,47,0,0,0,0,0,0,0
21727828000,21727748000,0.000113521346,0.0027450486,0.0011985116,67109399,0,0.049026232,0.055286624,0.0022411183,0.014173013,0.0020600685,0.002663416,0.0,0.0,0.0,0.0,1310988,1310988,6620172,197388,0,0,895,2,1,2,0,47,0,0,0,0,0,0,0
21727836000,21727756000,0.00010549893,0.0026903737,0.0012012603,67109399,0,0.049027782,0.055287357,0.0022411183,0.014173013,0.0020600685,0.002663416,0.0,0.0,0.0,0.0,1310988,1310988,6620172,197388,0,0,895,2,1,2,0,47,0,0,0,0,0,0,0
21727844000,21727764000,9.760754e-05,0.0026391554,0.0012035222,67109399,0,0.049029607,0.055288218,0.0022411183,0.014173013,0.0020600685,0.002663416,0.0,0.0,0.0,0.0,1310988,1310988,6620172,197388,0,0,895,2,1,2,0,47,0,0,0,0,0,0,0
21727852000,21727772000,8.9896464e-05,0.002590929,0.001204958,67109399,0,0.04903173,0.055282325,0.0022411183,0.014173013,0.0020600685,0.001567536,0.0,0.0,0.0,0.0,1310988,1310988,6620172,197388,0,0,895,2,1,2,0,47,0,0,0,0,0,0,0
21727860000,21727780000,8.113034e-05,0.0025464527,0.0012063482,67109399,0,0.04903417,0.055283476,0.0015751903,0.014173013,0.0020600685,0.001567536,0.0,0.0,0.0,0.0,1310988,1310988,6620172,197388,0,0,895,2,1,2,0,47,0,0,0,0,0,0,0
21727868000,21727788000,7.3761476e-05,0.002505229,0.00120795,67109399,0,0.04903696,0.05528479,0.0015751903,0.014173013,0.0020600685,0.001567536,0.0,0.0,0.0,0.0,1310988,1310988,6620172,197388,0,0,895,2,1,2,0,47,0,0,0,0,0,0,0
21727876000,21727796000,6.6661865e-05,0.0024673566,0.0012090896,67109399,0,0.049040116,0.055286277,0.0015751903,0.014173013,0.0020600685,0.001567536,0.0,0.0,0.0,0.0,1310988,1310988,6620172,197388,0,0,895,2,1,2,0,47,0,0,0,0,0,0,0
21727884000,21727804000,5.967941e-05,0.002431632,0.0012094441,67109399,0,0.049043667,0.055287953,0.0015751903,0.014173013,0.0020600685,0.001567536,0.0,0.0,0.0,0.0,1310988,1310988,6620172,197388,0,0,895,2,1,2,0,47,0,0,0,0,0,0,0
21727892000,21727812000,5.291803e-05,0.0023997498,0.0012101292,67109399,0,0.049047634,0.055289827,0.0015751903,0.014173013,0.0020600685,0.001567536,0.0,0.0,0.0,0.0,1310988,1310988,6620172,197388,0,0,895,2,1,2,0,47,0,0,0,0,0,0,0
21727900000,21727820000,4.6303503e-05,0.00237044,0.0012102268,67109399,0,0.049052045,0.055291913,0.0015751903,0.014173013,0.0020600685,0.001567536,0.0,0.0,0.0,0.0,1310988,1310988,6620172,197388,0,0,895,2,1,2,0,47,0,0,0,0,0,0,0
21727908000,21727828000,4.0183953e-05,0.002343395,0.0012098951,67109399,0,0.04905693,0.055287324,0.0015751903,0.014173013,0.0020600685,0.00096336333,0.0,0.0,0.0,0.0,1310988,1310988,6620172,197388,0,0,895,2,1,2,0,47,0,0,0,0,0,0,0
21727916000,21727836000,3.4578337e-05,0.0023194805,0.0012100221,67109399,0,0.0490623,0.05528987,0.0015751903,0.014173013,0.0020600685,0.00096336333,0.0,0.0,0.0,0.0,1310988,1310988,6620172,197388,0,0,895,2,1,2,0,47,0,0,0,0,0,0,0
21727924000,21727844000,2.951004e-05,0.0022976147,0.0012092557,67109399,0,0.049068198,0.055292666,0.0015751903,0.014173013,0.0020600685,0.00096336333,0.0,0.0,0.0,0.0,1310988,1310988,6620172,197388,0,0,895,2,1,2,0,47,0,0,0,0,0,0,0
21727932000,21727852000,4.2650743e-05,0.0022778697,0.0012095144,67109399,0,0.04907464,0.055295724,0.014754613,0.014173013,0.0020600685,0.00096336333,0.0,0.0,0.0,0.0,1310988,1310988,6620172,197388,0,0,895,2,1,2,0,47,0,0,0,0,0,0,0
21727940000,21727860000,0.0001884561,0.0024103438,0.0009270202,67109399,0,0.049036458,0.05527718,0.014754613,0.014173013,0.0020600685,0.00096336333,0.0,0.0,0.0,0.0,1310988,1310988,6620172,197388,0,0,895,2,1,2,0,47,0,0,0,0,0,0,0
21727948000,21727868000,0.00018750354,0.002265146,0.0009104572,67109399,0,0.049036488,0.055277195,0.014754613,0.014173013,0.0020600685,0.00096336333,0.0,0.0,0.0,0.0,1310988,1310988,6620172,197388,0,0,895,2,1,2,0,47,0,0,0,0,0,0,0
21727956000,21727876000,0.0001867926,0.0021247494,0.0008936074,67109399,0,0.04903653,0.055277213,0.014754613,0.014173013,0.0020600685,0.00096336333,0.0,0.0,0.0,0.0,1310988,1310988,6620172,197388,0,0,895,2,1,2,0,47,0,0,0,0,0,0,0
21727964000,21727884000,0.00018624801,0.0019898606,0.00087683223,67109399,0,0.0490366,0.05527725,0.014754613,0.014173013,0.0020600685,0.00096336333,0.0,0.0,0.0,0.0,1310988,1310988,6620172,197388,0,0,895,2,1,2,0,47,0,0,0,0,0,0,0
21727972000,21727892000,0.00018582617,0.0018588235,0.0008602391,67109399,0,0.049036723,0.05527042,0.014754613,0.014173013,0.0020600685,0.00025108477,0.0,0.0,0.0,0.0,1310988,1310988,6620172,197388,0,0,895,2,1,2,0,47,0,0,0,0,0,0,0
21727980000,21727900000,0.000185559,0.0017322815,0.0008440238,67109399,0,0.049036913,0.05527051,0.014754613,0.014173013,0.0020600685,0.00025108477,0.0,0.0,0.0,0.0,1310988,1310988,6620172,197388,0,0,895,2,1,2,0,47,0,0,0,0,0,0,0
21727988000,21727908000,0.00018536324,0.0016107378,0.000827428,67109399,0,0.049037196,0.05527065,0.014754613,0.014173013,0.0020600685,0.00025108477,0.0,0.0,0.0,0.0,1310988,1310988,6620172,197388,0,0,895,2,1,2,0,47,0,0,0,0,0,0,0
21727996000,21727916000,0.00018526628,0.0014928249,0.00081112643,67109399,0,0.049037594,0.05527084,0.014754613,0.014173013,0.0020600685,0.00025108477,0.0,0.0,0.0,0.0,1310988,1310988,6620172,197388,0,0,895,2,1,2,0,47,0,0,0,0,0,0,0
21728004000,21727924000,0.00018620802,0.0013785268,0.00079456426,67109399,0,0.04903813,0.055271097,0.0020075473,0.014173013,0.0020600685,0.00025108477,0.0,0.0,0.0,0.0,1310988,1310988,6620172,197388,0,0,895,2,1,2,0,47,0,0,0,0,0,0,0
21728012000,21727932000,0.00018650094,0.0012744062,0.00077674596,67109399,0,0.049009364,0.055271428,0.0020075473,0.0054018516,0.00035877124,0.00025108477,0.0,0.0,0.0,0.0,1310988,1310988,6620172,197388,0,0,895,2,1,2,0,47,0,0,0,0,0,0,0
21728020000,21727940000,0.00018614014,0.0011667879,0.00076150347,67109399,0,0.049010236,0.05527184,0.0020075473,0.0054018516,0.00035877124,0.00025108477,0.0,0.0,0.0,0.0,1310988,1310988,6620172,197388,0,0,895,2,1,2,0,47,0,0,0,0,0,0,0
21728028000,21727948000,0.00017703378,0.0010601,0.0007519944,67109399,0,0.049011312,0.05526546,0.0020075473,0.0054018516,0.00035877124,0.008811506,0.0,0.0,0.0,0.0,1310988,1310988,6620172,197388,0,0,895,2,1,2,0,47,0,0,0,0,0,0,0
21728036000,21727956000,0.00016792132,0.0009569495,0.0007375733,67109399,0,0.049012616,0.055266075,0.0020075473,0.0054018516,0.00035877124,0.008811506,0.0,0.0,0.0,0.0,1310988,1310988,6620172,197388,0,0,895,2,1,2,0,47,0,0,0,0,0,0,0
21728044000,21727964000,0.0001588261,0.00085792405,0.00072414684,67109399,0,0.04901417,0.05526681,0.0020075473,0.0054018516,0.00035877124,0.008811506,0.0,0.0,0.0,0.0,1310988,1310988,6620172,197388,0,0,895,2,1,2,0,47,0,0,0,0,0,0,0
21728052000,21727972000,0.00014976138,0.0007636948,0.0007112314,67109399,0,0.049015995,0.05526767,0.0020075473,0.0054018516,0.00035877124,0.008811506,0.0,0.0,0.0,0.0,1310988,1310988,6620172,197388,0,0,895,2,1,2,0,47,0,0,0,0,0,0,0
21728060000,21727980000,0.00014068754,0.0006744437,0.0006996836,67109399,0,0.04901812,0.055268668,0.0020075473,0.0054018516,0.00035877124,0.008811506,0.0,0.0,0.0,0.0,1310988,1310988,6620172,197388,0,0,895,2,1,2,0,47,0,0,0,0,0,0,0
21728068000,21727988000,0.00013165573,0.0005903716,0.0006884471,67109399,0,0.049020562,0.055269822,0.0020075473,0.0054018516,0.00035877124,0.008811506,0.0,0.0,0.0,0.0,1310988,1310988,6620172,197388,0,0,895,2,1,2,0,47,0,0,0,0,0,0,0
21728076000,21727996000,0.00012317272,0.0005135003,0.0006779403,67109399,0,0.04902335,0.055271138,0.014893744,0.0054018516,0.00035877124,0.008811506,0.0,0.0,0.0,0.0,1310988,1310988,6620172,197388,0,0,895,2,1,2,0,47,0,0,0,0,0,0,0
21728084000,21728004000,0.000114881586,0.0004458094,0.0006684438,67109399,0,0.049026508,0.055272624,0.014893744,0.0054018516,0.00035877124,0.008811506,0.0,0.0,0.0,0.0,1310988,1310988,6620172,197388,0,0,895,2,1,2,0,47,0,0,0,0,0,0,0
21728092000,21728012000,0.00010680032,0.0003905068,0.0006589623,67109399,0,0.04903006,0.05526741,0.014893744,0.0054018516,0.00035877124,0.00070443226,0.0,0.0,0.0,0.0,1310988,1310988,6620172,197388,0,0,895,2,1,2,0,47,0,0,0,0,0,0,0
21728100000,21728020000,9.885309e-05,0.0003513171,0.00065118127,67109399,0,0.04903403,0.055269286,0.014893744,0.0054018516,0.00035877124,0.00070443226,0.0,0.0,0.0,0.0,1310988,1310988,6620172,197388,0,0,895,2,1,2,0,47,0,0,0,0,0,0,0
21728108000,21728028000,9.116768e-05,0.00033236714,0.00064441696,67109399,0,0.049038444,0.055271372,0.014893744,0.0054018516,0.00035877124,0.00070443226,0.0,0.0,0.0,0.0,1310988,1310988,6620172,197388,0,0,895,2,1,2,0,47,0,0,0,0,0,0,0
21728116000,21728036000,8.4028434e-05,0.0003356658,0.0006380619,67109399,0,0.049043328,0.055273682,0.014893744,0.0054018516,0.00035877124,0.00070443226,0.0,0.0,0.0,0.0,1310988,1310988,6620172,197388,0,0,895,2,1,2,0,47,0,0,0,0,0,0,0
21728124000,21728044000,7.761572e-05,0.00035891394,0.0006328832,67109399,0,0.049048703,0.05527623,0.014893744,0.0054018516,0.00035877124,0.00070443226,0.0,0.0,0.0,0.0,1310988,1310988,6620172,197388,0,0,895,2,1,2,0,47,0,0,0,0,0,0,0
21728132000,21728052000,7.1903756e-05,0.0003972431,0.0006284223,67109399,0,0.0490546,0.055279024,0.014893744,0.0054018516,0.00035877124,0.00070443226,0.0,0.0,0.0,0.0,1310988,1310988,6620172,197388,0,0,895,2,1,2,0,47,0,0,0,0,0,0,0
21728140000,21728060000,6.0449394e-05,0.0004453795,0.0006245487,67109399,0,0.049061045,0.055282082,0.0047263354,0.0054018516,0.00035877124,0.00070443226,0.0,0.0,0.0,0.0,1310988,1310988,6620172,197388,0,0,895,2,1,2,0,47,0,0,0,0,0,0,0
21728148000,21728068000,0.00010181403,0.0010759943,0.00050670706,67109399,0,0.04902284,0.055256642,0.0047263354,0.0054018516,0.00035877124,0.0016163581,0.0,0.0,0.0,0.0,1310988,1310988,6620172,197388,0,0,895,2,1,2,0,47,0,0,0,0,0,0,0
21728156000,21728076000,9.648482e-05,0.0010412306,0.00049985247,67109399,0,0.049022872,0.055256657,0.0047263354,0.0054018516,0.00035877124,0.0016163581,0.0,0.0,0.0,0.0,1310988,1310988,6620172,197388,0,0,895,2,1,2,0,47,0,0,0,0,0,0,0
21728164000,21728084000,9.106852e-05,0.0010148924,0.0004948383,67109399,0,0.049022917,0.05525668,0.0047263354,0.0054018516,0.00035877124,0.0016163581,0.0,0.0,0.0,0.0,1310988,1310988,6620172,197388,0,0,895,2,1,2,0,47,0,0,0,0,0,0,0
21728172000,21728092000,8.603122e-05,0.0009966368,0.000490562,67109399,0,0.049022987,0.055256713,0.0047263354,0.0054018516,0.00035877124,0.0016163581,0.0,0.0,0.0,0.0,1310988,1310988,6620172,197388,0,0,895,2,1,2,0,47,0,0,0,0,0,0,0
21728180000,21728100000,8.1407554e-05,0.0009854457,0.00048771055,67109399,0,0.049023107,0.055256777,0.0047263354,0.0054018516,0.00035877124,0.0016163581,0.0,0.0,0.0,0.0,1310988,1310988,6620172,197388,0,0,895,2,1,2,0,47,0,0,0,0,0,0,0
21728188000,21728108000,7.716466e-05,0.0009822041,0.00048595062,67109399,0,0.0490233,0.05525687,0.0047263354,0.0054018516,0.00035877124,0.0016163581,0.0,0.0,0.0,0.0,1310988,1310988,6620172,197388,0,0,895,2,1,2,0,47,0,0,0,0,0,0,0
21728196000,21728116000,7.335578e-05,0.0009852898,0.00048572026,67109399,0,0.049023584,0.055250123,0.0047263354,0.0054018516,0.00035877124,0.0010078264,0.0,0.0,0.0,0.0,1310988,1310988,6620172,197388,0,0,895,2,1,2,0,47,0,0,0,0,0,0,0
21728204000,21728124000,6.982573e-05,0.0009941419,0.000486128,67109399,0,0.049023986,0.055250313,0.0047263354,0.0054018516,0.00035877124,0.0010078264,0.0,0.0,0.0,0.0,1310988,1310988,6620172,197388,0,0,895,2,1,2,0,47,0,0,0,0,0,0,0
21728212000,21728132000,6.4645916e-05,0.0010084297,0.00048814854,67109399,0,0.049024522,0.05525057,0.0105238,0.0054018516,0.00035877124,0.0010078264,0.0,0.0,0.0,0.0,1310988,1310988,6620172,197388,0,0,895,2,1,2,0,47,0,0,0,0,0,0,0
21728220000,21728140000,6.2891624e-05,0.0010368314,0.00049676583,67109399,0,0.04899578,0.055250898,0.0105238,0.012802176,0.001317544,0.0010078264,0.0,0.0,0.0,0.0,1310988,1310988,6620172,197388,0,0,895,2,1,2,0,47,0,0,0,0,0,0,0
21728228000,21728148000,6.0889517e-05,0.0010574138,0.00050003617,67109399,0,0.048996657,0.055251315,0.0105238,0.012802176,0.001317544,0.0010078264,0.0,0.0,0.0,0.0,1310988,1310988,6620172,197388,0,0,895,2,1,2,0,47,0,0,0,0,0,0,0
21728236000,21728156000,5.677333e-05,0.0010795722,0.0005047636,67109399,0,0.048997734,0.055251826,0.0105238,0.012802176,0.001317544,0.0010078264,0.0,0.0,0.0,0.0,1310988,1310988,6620172,197388,0,0,895,2,1,2,0,47,0,0,0,0,0,0,0
21728244000,21728164000,5.301576e-05,0.0011052603,0.0005103663,67109399,0,0.048999034,0.05525244,0.0105238,0.012802176,0.001317544,0.0010078264,0.0,0.0,0.0,0.0,1310988,1310988,6620172,197388,0,0,895,2,1,2,0,47,0,0,0,0,0,0,0
21728252000,21728172000,4.959324e-05,0.0011333763,0.00051671476,67109399,0,0.049000587,0.055253174,0.0105238,0.012802176,0.001317544,0.0010078264,0.0,0.0,0.0,0.0,1310988,1310988,6620172,197388,0,0,895,2,1,2,0,47,0,0,0,0,0,0,0
21728260000,21728180000,4.645835e-05,0.0011638019,0.00052463997,67109399,0,0.049002416,0.05524715,0.0105238,0.012802176,0.001317544,0.0010052109,0.0,0.0,0.0,0.0,1310988,1310988,6620172,197388,0,0,895,2,1,2,0,47,0,0,0,0,0,0,0
21728268000,21728188000,4.363961e-05,0.0011951858,0.0005330713,67109399,0,0.04900454,0.055248152,0.0105238,0.012802176,0.001317544,0.0010052109,0.0,0.0,0.0,0.0,1310988,1310988,6620172,197388,0,0,895,2,1,2,0,47,0,0,0,0,0,0,0
21728276000,21728196000,4.1096668e-05,0.0012281872,0.00054178457,67109399,0,0.049006984,0.055249304,0.0105238,0.012802176,0.001317544,0.0010052109,0.0,0.0,0.0,0.0,1310988,1310988,6620172,197388,0,0,895,2,1,2,0,47,0,0,0,0,0,0,0
21728284000,21728204000,3.891785e-05,0.0012622133,0.0005517007,67109399,0,0.049009774,0.05525062,7.8111145e-05,0.012802176,0.001317544,0.0010052109,0.0,0.0,0.0,0.0,1310988,1310988,6620172,197388,0,0,895,2,1,2,0,47,0,0,0,0,0,0,0
21728292000,21728212000,3.6812256e-05,0.001296102,0.00056142855,67109399,0,0.04901293,0.05525211,7.8111145e-05,0.012802176,0.001317544,0.0010052109,0.0,0.0,0.0,0.0,1310988,1310988,6620172,197388,0,0,895,2,1,2,0,47,0,0,0,0,0,0,0
21728300000,21728220000,3.411061e-05,0.0013305012,0.00057198596,67109399,0,0.04901648,0.055253785,7.8111145e-05,0.012802176,0.001317544,0.0010052109,0.0,0.0,0.0,0.0,1310988,1310988,6620172,197388,0,0,895,2,1,2,0,47,0,0,0,0,0,0,0
21728308000,21728228000,3.1443593e-05,0.0013660007,0.0005828976,67109399,0,0.04902045,0.055255663,7.8111145e-05,0.012802176,0.001317544,0.0010052109,0.0,0.0,0.0,0.0,1310988,1310988,6620172,197388,0,0,895,2,1,2,0,47,0,0,0,0,0,0,0
21728316000,21728236000,2.8839133e-05,0.0014013064,0.00059318973,67109399,0,0.04902486,0.055250864,7.8111145e-05,0.012802176,0.001317544,0.0011107014,0.0,0.0,0.0,0.0,1310988,1310988,6620172,197388,0,0,895,2,1,2,0,47,0,0,0,0,0,0,0
21728324000,21728244000,2.6375483e-05,0.0014363385,0.0006045419,67109399,0,0.04902975,0.055253174,7.8111145e-05,0.012802176,0.001317544,0.0011107014,0.0,0.0,0.0,0.0,1310988,1310988,6620172,197388,0,0,895,2,1,2,0,47,0,0,0,0,0,0,0
21728332000,21728252000,2.4175222e-05,0.0014705685,0.00061648595,67109399,0,0.049035124,0.055255722,7.8111145e-05,0.012802176,0.001317544,0.0011107014,0.0,0.0,0.0,0.0,1310988,1310988,6620172,197388,0,0,895,2,1,2,0,47,0,0,0,0,0,0,0
21728340000,21728260000,2.2021954e-05,0.001503986,0.00062844687,67109399,0,0.049041025,0.055258516,7.8111145e-05,0.012802176,0.001317544,0.0011107014,0.0,0.0,0.0,0.0,1310988,1310988,6620172,197388,0,0,895,2,1,2,0,47,0,0,0,0,0,0,0
21728348000,21728268000,2.0017687e-05,0.0015372164,0.0006405577,67109399,0,0.04904747,0.05526158,7.8111145e-05,0.012802176,0.001317544,0.0011107014,0.0,0.0,0.0,0.0,1310988,1310988,6620172,197388,0,0,895,2,1,2,0,47,0,0,0,0,0,0,0
21728356000,21728276000,0.00017793495,0.0025469935,0.00049323065,67109399,0,0.04900926,0.055243026,0.018778862,0.012802176,0.001317544,0.0011107014,0.0,0.0,0.0,0.0,1310988,1310988,6620172,197388,0,0,895,2,1,2,0,47,0,0,0,0,0,0,0
21728364000,21728284000,0.00017774972,0.0024295168,0.00049676996,67109399,0,0.049009293,0.05524304,0.018778862,0.012802176,0.001317544,0.0011107014,0.0,0.0,0.0,0.0,1310988,1310988,6620172,197388,0,0,895,2,1,2,0,47,0,0,0,0,0,0,0
21728372000,21728292000,0.00017755976,0.002317861,0.0005005182,67109399,0,0.049009334,0.05524306,0.018778862,0.012802176,0.001317544,0.0011107014,0.0,0.0,0.0,0.0,1310988,1310988,6620172,197388,0,0,895,2,1,2,0,47,0,0,0,0,0,0,0
21728380000,21728300000,0.00017738453,0.0022104678,0.0005025591,67109399,0,0.049009405,0.055236217,0.018778862,0.012802176,0.001317544,0.004579682,0.0,0.0,0.0,0.0,1310988,1310988,6620172,197388,0,0,895,2,1,2,0,47,0,0,0,0,0,0,0
21728388000,21728308000,0.00017727674,0.0021087457,0.00050740544,67109399,0,0.049009524,0.055236276,0.018778862,0.012802176,0.001317544,0.004579682,0.0,0.0,0.0,0.0,1310988,1310988,6620172,197388,0,0,895,2,1,2,0,47,0,0,0,0,0,0,0
21728396000,21728316000,0.00017715333,0.0020126246,0.00051223085,67109399,0,0.049009714,0.055236373,0.018778862,0.012802176,0.001317544,0.004579682,0.0,0.0,0.0,0.0,1310988,1310988,6620172,197388,0,0,895,2,1,2,0,47,0,0,0,0,0,0,0
21728404000,21728324000,0.00017706645,0.0019218948,0.0005170667,67109399,0,0.04901,0.055236507,0.018778862,0.012802176,0.001317544,0.004579682,0.0,0.0,0.0,0.0,1310988,1310988,6620172,197388,0,0,895,2,1,2,0,47,0,0,0,0,0,0,0
21728412000,21728332000,0.00017701893,0.0018369695,0.0005216432,67109399,0,0.049010403,0.0552367,0.018778862,0.012802176,0.001317544,0.004579682,0.0,0.0,0.0,0.0,1310988,1310988,6620172,197388,0,0,895,2,1,2,0,47,0,0,0,0,0,0,0
21728420000,21728340000,0.00017701225,0.0017585314,0.00052680523,67109399,0,0.04901094,0.055236958,0.018778862,0.012802176,0.001317544,0.004579682,0.0,0.0,0.0,0.0,1310988,1310988,6620172,197388,0,0,895,2,1,2,0,47,0,0,0,0,0,0,0
