timestamp,timestamp_sample,gps_hvel[0],gps_hvel[1],gps_vvel,gps_hpos[0],gps_hpos[1],gps_vpos,ev_hvel[0],ev_hvel[1],ev_vvel,ev_hpos[0],ev_hpos[1],ev_vpos,rng_vpos,baro_vpos,aux_hvel[0],aux_hvel[1],aux_vvel,flow[0],flow[1],heading,mag_field[0],mag_field[1],mag_field[2],drag[0],drag[1],airspeed,beta,hagl,hagl_rate
21726692000,21726612000,4.3271666e-06,0.0,4.561155e-07,1.1072319e-07,0.0,0.0,0.0,0.0,0.0,0.0,0.0,0.0,0.0,2.8813334e-05,0.0,0.0,nan,0.0,0.0,0.0005670944,0.0,0.0,0.0,0.0,0.0,0.0,0.0,0.0,0.0
21727196000,21727116000,1.2061817e-08,0.0,1.8600518e-10,4.258024e-06,0.0,0.0,0.0,0.0,0.0,0.0,0.0,0.0,0.0,3.0251108e-06,0.0,0.0,nan,0.0,0.0,0.000544152,0.0,0.0,0.0,0.0,0.0,0.0,0.0,0.0,0.0
21727692000,21727612000,1.6841751e-06,0.0,1.6413149e-05,4.2426045e-06,0.0,0.0,0.0,0.0,0.0,0.0,0.0,0.0,0.0,2.590115e-06,0.0,0.0,nan,0.0,0.0,0.0013440299,0.0,0.0,0.0,0.0,0.0,0.0,0.0,0.0,0.0
21728196000,21728116000,2.9198169e-05,0.0,2.4872003e-07,1.2919598e-07,0.0,0.0,0.0,0.0,0.0,0.0,0.0,0.0,0.0,1.0192316e-06,0.0,0.0,nan,0.0,0.0,2.3954068e-05,0.0,0.0,0.0,0.0,0.0,0.0,0.0,0.0,0.0
21728692000,21728612000,4.2872976e-05,0.0,2.045527e-05,3.9511215e-06,0.0,0.0,0.0,0.0,0.0,0.0,0.0,0.0,0.0,3.064809e-07,0.0,0.0,nan,0.0,0.0,0.0007747759,0.0,0.0,0.0,0.0,0.0,0.0,0.0,0.0,0.0
21729196000,21729116000,3.2672715e-06,0.0,8.238056e-05,1.6450992e-06,0.0,0.0,0.0,0.0,0.0,0.0,0.0,0.0,0.0,1.747565e-05,0.0,0.0,nan,0.0,0.0,3.4244884e-05,0.0,0.0,0.0,0.0,0.0,0.0,0.0,0.0,0.0
21729692000,21729612000,1.6584096e-07,0.0,9.437817e-09,1.2726814e-07,0.0,0.0,0.0,0.0,0.0,0.0,0.0,0.0,0.0,1.3490845e-05,0.0,0.0,nan,0.0,0.0,0.001042902,0.0,0.0,0.0,0.0,0.0,0.0,0.0,0.0,0.0
21730196000,21730116000,0.00017413456,0.0,0.00031179268,1.2300343e-07,0.0,0.0,0.0,0.0,0.0,0.0,0.0,0.0,0.0,4.5076544e-05,0.0,0.0,nan,0.0,0.0,6.966698e-06,0.0,0.0,0.0,0.0,0.0,0.0,0.0,0.0,0.0
21730692000,21730612000,7.0936585e-05,0.0,3.243553e-05,3.828202e-06,0.0,0.0,0.0,0.0,0.0,0.0,0.0,0.0,0.0,4.3671187e-07,0.0,0.0,nan,0.0,0.0,3.688062e-06,0.0,0.0,0.0,0.0,0.0,0.0,0.0,0.0,0.0
21731196000,21731116000,4.4865e-05,0.0,2.8249007e-05,8.74741e-08,0.0,0.0,0.0,0.0,0.0,0.0,0.0,0.0,0.0,1.9750896e-06,0.0,0.0,nan,0.0,0.0,0.000110917055,0.0,0.0,0.0,0.0,0.0,0.0,0.0,0.0,0.0
21731692000,21731612000,3.4652654e-05,0.0,0.00033707754,1.1352489e-07,0.0,0.0,0.0,0.0,0.0,0.0,0.0,0.0,0.0,1.354626e-06,0.0,0.0,nan,0.0,0.0,0.00013546283,0.0,0.0,0.0,0.0,0.0,0.0,0.0,0.0,0.0
21732196000,21732116000,5.0660456e-05,0.0,0.0004951082,1.5266662e-07,0.0,0.0,0.0,0.0,0.0,0.0,0.0,0.0,0.0,1.229791e-06,0.0,0.0,nan,0.0,0.0,1.4570026e-07,0.0,0.0,0.0,0.0,0.0,0.0,0.0,0.0,0.0
21732692000,21732612000,5.7214645e-05,0.0,3.900363e-07,1.6050792e-06,0.0,0.0,0.0,0.0,0.0,0.0,0.0,0.0,0.0,1.019235e-06,0.0,0.0,nan,0.0,0.0,6.5012255e-06,0.0,0.0,0.0,0.0,0.0,0.0,0.0,0.0,0.0
21733196000,21733116000,4.7735186e-05,0.0,1.9382103e-05,3.850544e-06,0.0,0.0,0.0,0.0,0.0,0.0,0.0,0.0,0.0,0.0,0.0,0.0,nan,0.0,0.0,5.3451135e-05,0.0,0.0,0.0,0.0,0.0,0.0,0.0,0.0,0.0
21733692000,21733612000,0.00017270887,0.0,8.0293634e-05,7.504652e-07,0.0,0.0,0.0,0.0,0.0,0.0,0.0,0.0,0.0,0.0,0.0,0.0,nan,0.0,0.0,0.0009503361,0.0,0.0,0.0,0.0,0.0,0.0,0.0,0.0,0.0
21734196000,21734116000,6.604518e-05,0.0,8.531178e-06,2.7578158e-06,0.0,0.0,0.0,0.0,0.0,0.0,0.0,0.0,0.0,3.5656283e-06,0.0,0.0,nan,0.0,0.0,4.0505307e-05,0.0,0.0,0.0,0.0,0.0,0.0,0.0,0.0,0.0
21734692000,21734612000,7.73601e-05,0.0,0.0019812358,1.2113114e-05,0.0,0.0,0.0,0.0,0.0,0.0,0.0,0.0,0.0,2.89185e-05,0.0,0.0,nan,0.0,0.0,4.8969287e-05,0.0,0.0,0.0,0.0,0.0,0.0,0.0,0.0,0.0
21735196000,21735116000,0.00018245746,0.0,6.554409e-05,1.35276305e-05,0.0,0.0,0.0,0.0,0.0,0.0,0.0,0.0,0.0,6.6867938e-06,0.0,0.0,nan,0.0,0.0,1.5189045e-05,0.0,0.0,0.0,0.0,0.0,0.0,0.0,0.0,0.0
21735692000,21735612000,0.0005984612,0.0,0.00038303446,3.2136762e-05,0.0,0.0,0.0,0.0,0.0,0.0,0.0,0.0,0.0,2.8351154e-05,0.0,0.0,nan,0.0,0.0,0.0048912778,0.0,0.0,0.0,0.0,0.0,0.0,0.0,0.0,0.0
21736196000,21736116000,0.00055098423,0.0,0.0022887806,3.431322e-05,0.0,0.0,0.0,0.0,0.0,0.0,0.0,0.0,0.0,4.6944228e-05,0.0,0.0,nan,0.0,0.0,0.0021028367,0.0,0.0,0.0,0.0,0.0,0.0,0.0,0.0,0.0
21736692000,21736612000,0.00034868275,0.0,8.011744e-05,3.7375336e-05,0.0,0.0,0.0,0.0,0.0,0.0,0.0,0.0,0.0,3.741692e-06,0.0,0.0,nan,0.0,0.0,0.0004217937,0.0,0.0,0.0,0.0,0.0,0.0,0.0,0.0,0.0
21737196000,21737116000,0.00010804824,0.0,0.00056316773,3.471619e-05,0.0,0.0,0.0,0.0,0.0,0.0,0.0,0.0,0.0,4.9980965e-08,0.0,0.0,nan,0.0,0.0,0.0012367469,0.0,0.0,0.0,0.0,0.0,0.0,0.0,0.0,0.0
21737692000,21737612000,0.00024384976,0.0,7.489229e-05,4.3034426e-05,0.0,0.0,0.0,0.0,0.0,0.0,0.0,0.0,0.0,3.6971196e-05,0.0,0.0,nan,0.0,0.0,5.3835367e-05,0.0,0.0,0.0,0.0,0.0,0.0,0.0,0.0,0.0
21738196000,21738116000,6.47219e-05,0.0,2.1825437e-05,4.436469e-05,0.0,0.0,0.0,0.0,0.0,0.0,0.0,0.0,0.0,2.4899407e-05,0.0,0.0,nan,0.0,0.0,0.0005466779,0.0,0.0,0.0,0.0,0.0,0.0,0.0,0.0,0.0
21738692000,21738612000,4.0726773e-05,0.0,2.836437e-05,4.784371e-05,0.0,0.0,0.0,0.0,0.0,0.0,0.0,0.0,0.0,1.2824965e-05,0.0,0.0,nan,0.0,0.0,0.00027263167,0.0,0.0,0.0,0.0,0.0,0.0,0.0,0.0,0.0
21739196000,21739116000,0.00030216432,0.0,9.071411e-05,4.9885155e-05,0.0,0.0,0.0,0.0,0.0,0.0,0.0,0.0,0.0,8.0367994e-07,0.0,0.0,nan,0.0,0.0,0.00039824206,0.0,0.0,0.0,0.0,0.0,0.0,0.0,0.0,0.0
21739692000,21739612000,0.006728695,0.0,0.0008221307,0.000109108434,0.0,0.0,0.0,0.0,0.0,0.0,0.0,0.0,0.0,9.260542e-05,0.0,0.0,nan,0.0,0.0,0.0,0.00013302593,0.0,0.0,0.0,0.0,0.0,0.0,0.0,0.0
21740196000,21740116000,0.0020829744,0.0,0.0015030608,0.00010154889,0.0,0.0,0.0,0.0,0.0,0.0,0.0,0.0,0.0,4.6164474e-05,0.0,0.0,nan,0.0,0.0,0.0,9.341107e-05,0.0,0.0,0.0,0.0,0.0,0.0,0.0,0.0
21740692000,21740612000,0.0013536701,0.0,0.0002909868,1.8174918e-05,0.0,0.0,0.0,0.0,0.0,0.0,0.0,0.0,0.0,6.128142e-05,0.0,0.0,nan,0.0,0.0,0.0,0.00023140277,0.0,0.0,0.0,0.0,0.0,0.0,0.0,0.0
21741196000,21741116000,0.0012799666,0.0,0.00020825086,6.165011e-05,0.0,0.0,0.0,0.0,0.0,0.0,0.0,0.0,0.0,1.7402299e-05,0.0,0.0,nan,0.0,0.0,0.0,0.0007388091,0.0,0.0,0.0,0.0,0.0,0.0,0.0,0.0
21741692000,21741612000,0.0007113997,0.0,0.0011590603,1.03185275e-05,0.0,0.0,0.0,0.0,0.0,0.0,0.0,0.0,0.0,0.0001964826,0.0,0.0,nan,0.0,0.0,0.0,6.71423e-05,0.0,0.0,0.0,0.0,0.0,0.0,0.0,0.0
21742196000,21742116000,0.00038453515,0.0,6.6194494e-05,1.0618896e-05,0.0,0.0,0.0,0.0,0.0,0.0,0.0,0.0,0.0,3.1413285e-05,0.0,0.0,nan,0.0,0.0,0.0,0.0009936839,0.0,0.0,0.0,0.0,0.0,0.0,0.0,0.0
21742692000,21742612000,0.0013590615,0.0,1.0138997e-05,2.8358389e-05,0.0,0.0,0.0,0.0,0.0,0.0,0.0,0.0,0.0,9.531613e-05,0.0,0.0,nan,0.0,0.0,0.0,5.9105787e-05,0.0,0.0,0.0,0.0,0.0,0.0,0.0,0.0
21743196000,21743116000,0.0006185328,0.0,0.0002812825,9.063726e-05,0.0,0.0,0.0,0.0,0.0,0.0,0.0,0.0,0.0,5.764991e-05,0.0,0.0,nan,0.0,0.0,0.0,7.951828e-05,0.0,0.0,0.0,0.0,0.0,0.0,0.0,0.0
21743692000,21743612000,0.0010744794,0.0,0.0007238391,3.9637245e-05,0.0,0.0,0.0,0.0,0.0,0.0,0.0,0.0,0.0,2.3471468e-05,0.0,0.0,nan,0.0,0.0,0.0,0.00083485316,0.0,0.0,0.0,0.0,0.0,0.0,0.0,0.0
21744196000,21744116000,0.0005265815,0.0,0.00021068449,5.2985575e-05,0.0,0.0,0.0,0.0,0.0,0.0,0.0,0.0,0.0,6.204685e-05,0.0,0.0,nan,0.0,0.0,0.0,0.00033578777,0.0,0.0,0.0,0.0,0.0,0.0,0.0,0.0
21744692000,21744612000,0.00038288548,0.0,2.6057547e-05,0.00013609762,0.0,0.0,0.0,0.0,0.0,0.0,0.0,0.0,0.0,1.2588525e-05,0.0,0.0,nan,0.0,0.0,0.0,0.0014679607,0.0,0.0,0.0,0.0,0.0,0.0,0.0,0.0
21745196000,21745116000,0.00027937596,0.0,0.00028418386,2.8811815e-05,0.0,0.0,0.0,0.0,0.0,0.0,0.0,0.0,0.0,6.103732e-05,0.0,0.0,nan,0.0,0.0,0.0,7.903311e-05,0.0,0.0,0.0,0.0,0.0,0.0,0.0,0.0
21745692000,21745612000,0.001397775,0.0,0.0011952994,5.351825e-05,0.0,0.0,0.0,0.0,0.0,0.0,0.0,0.0,0.0,8.703365e-05,0.0,0.0,nan,0.0,0.0,2.5027037e-05,0.0,0.0,0.0,0.0,0.0,0.0,0.0,0.0,0.0
21746196000,21746116000,0.0004282648,0.0,0.00041156315,0.0002760186,0.0,0.0,0.0,0.0,0.0,0.0,0.0,0.0,0.0,6.716175e-05,0.0,0.0,nan,0.0,0.0,2.922851e-05,0.0,0.0,0.0,0.0,0.0,0.0,0.0,0.0,0.0
21746692000,21746612000,0.00032584034,0.0,4.6229507e-05,0.00018659637,0.0,0.0,0.0,0.0,0.0,0.0,0.0,0.0,0.0,1.9552373e-05,0.0,0.0,nan,0.0,0.0,0.00017309436,0.0,0.0,0.0,0.0,0.0,0.0,0.0,0.0,0.0
21747196000,21747116000,0.0014367128,0.0,0.00022240503,0.00018652348,0.0,0.0,0.0,0.0,0.0,0.0,0.0,0.0,0.0,2.8211156e-08,0.0,0.0,nan,0.0,0.0,4.008358e-06,0.0,0.0,0.0,0.0,0.0,0.0,0.0,0.0,0.0
21747692000,21747612000,0.0008629413,0.0,0.0011928988,0.00012458305,0.0,0.0,0.0,0.0,0.0,0.0,0.0,0.0,0.0,2.918883e-07,0.0,0.0,nan,0.0,0.0,0.0008008908,0.0,0.0,0.0,0.0,0.0,0.0,0.0,0.0,0.0
21748196000,21748116000,0.0008191492,0.0,5.7841753e-06,0.00034579317,0.0,0.0,0.0,0.0,0.0,0.0,0.0,0.0,0.0,3.0780928e-05,0.0,0.0,nan,0.0,0.0,0.000118615775,0.0,0.0,0.0,0.0,0.0,0.0,0.0,0.0,0.0
21748692000,21748612000,0.0009313515,0.0,0.0009476084,0.00041189653,0.0,0.0,0.0,0.0,0.0,0.0,0.0,0.0,0.0,3.4039176e-06,0.0,0.0,nan,0.0,0.0,9.934421e-05,0.0,0.0,0.0,0.0,0.0,0.0,0.0,0.0,0.0
21749196000,21749116000,0.00090401445,0.0,0.00015409169,0.0002489291,0.0,0.0,0.0,0.0,0.0,0.0,0.0,0.0,0.0,8.23115e-07,0.0,0.0,nan,0.0,0.0,0.00013921563,0.0,0.0,0.0,0.0,0.0,0.0,0.0,0.0,0.0
21749692000,21749612000,0.00022394856,0.0,0.00037492145,0.0003297223,0.0,0.0,0.0,0.0,0.0,0.0,0.0,0.0,0.0,1.3262845e-06,0.0,0.0,nan,0.0,0.0,8.14014e-07,0.0,0.0,0.0,0.0,0.0,0.0,0.0,0.0,0.0
21750196000,21750116000,0.0009793711,0.0,0.00022782413,0.00029883895,0.0,0.0,0.0,0.0,0.0,0.0,0.0,0.0,0.0,1.1229862e-05,0.0,0.0,nan,0.0,0.0,9.452938e-05,0.0,0.0,0.0,0.0,0.0,0.0,0.0,0.0,0.0
21750692000,21750612000,0.00018974605,0.0,0.00048569817,0.00013017279,0.0,0.0,0.0,0.0,0.0,0.0,0.0,0.0,0.0,2.1235446e-05,0.0,0.0,nan,0.0,0.0,5.841687e-05,0.0,0.0,0.0,0.0,0.0,0.0,0.0,0.0,0.0
21751196000,21751116000,0.00019565652,0.0,1.7805144e-06,0.00025069376,0.0,0.0,0.0,0.0,0.0,0.0,0.0,0.0,0.0,9.326662e-06,0.0,0.0,nan,0.0,0.0,3.1316806e-05,0.0,0.0,0.0,0.0,0.0,0.0,0.0,0.0,0.0
21751692000,21751612000,3.4481214e-05,0.0,0.00021321258,0.00020950871,0.0,0.0,0.0,0.0,0.0,0.0,0.0,0.0,0.0,5.81823e-06,0.0,0.0,nan,0.0,0.0,8.511207e-05,0.0,0.0,0.0,0.0,0.0,0.0,0.0,0.0,0.0
21752196000,21752116000,0.00012874092,0.0,5.458558e-06,0.00020619143,0.0,0.0,0.0,0.0,0.0,0.0,0.0,0.0,0.0,4.458649e-06,0.0,0.0,nan,0.0,0.0,0.0003119877,0.0,0.0,0.0,0.0,0.0,0.0,0.0,0.0,0.0
21752692000,21752612000,0.00011793244,0.0,6.848417e-05,0.00020156812,0.0,0.0,0.0,0.0,0.0,0.0,0.0,0.0,0.0,7.9653354e-08,0.0,0.0,nan,0.0,0.0,0.00025705388,0.0,0.0,0.0,0.0,0.0,0.0,0.0,0.0,0.0
21753196000,21753116000,6.170693e-05,0.0,0.0002895678,8.541403e-05,0.0,0.0,0.0,0.0,0.0,0.0,0.0,0.0,0.0,1.4536892e-05,0.0,0.0,nan,0.0,0.0,0.00012826275,0.0,0.0,0.0,0.0,0.0,0.0,0.0,0.0,0.0
21753692000,21753612000,4.099138e-05,0.0,0.00010487779,0.00010840561,0.0,0.0,0.0,0.0,0.0,0.0,0.0,0.0,0.0,2.9557476e-05,0.0,0.0,nan,0.0,0.0,5.56974e-07,0.0,0.0,0.0,0.0,0.0,0.0,0.0,0.0,0.0
21754196000,21754116000,0.00067064853,0.0,0.00037689818,0.00030647186,0.0,0.0,0.0,0.0,0.0,0.0,0.0,0.0,0.0,4.2946995e-05,0.0,0.0,nan,0.0,0.0,0.00026901113,0.0,0.0,0.0,0.0,0.0,0.0,0.0,0.0,0.0
21754692000,21754612000,0.00049634103,0.0,0.00010508115,0.000118594115,0.0,0.0,0.0,0.0,0.0,0.0,0.0,0.0,0.0,1.9651668e-05,0.0,0.0,nan,0.0,0.0,8.914895e-05,0.0,0.0,0.0,0.0,0.0,0.0,0.0,0.0,0.0
21755196000,21755116000,0.00044917333,0.0,0.00076897844,0.00022786122,0.0,0.0,0.0,0.0,0.0,0.0,0.0,0.0,0.0,1.695053e-06,0.0,0.0,nan,0.0,0.0,0.0003627036,0.0,0.0,0.0,0.0,0.0,0.0,0.0,0.0,0.0
21755692000,21755612000,0.0011979186,0.0,0.0002425858,2.3857045e-05,0.0,0.0,0.0,0.0,0.0,0.0,0.0,0.0,0.0,6.8734257e-06,0.0,0.0,nan,0.0,0.0,5.276685e-05,0.0,0.0,0.0,0.0,0.0,0.0,0.0,0.0,0.0
21756196000,21756116000,0.00090646127,0.0,0.0011538782,0.00023168242,0.0,0.0,0.0,0.0,0.0,0.0,0.0,0.0,0.0,6.9907175e-05,0.0,0.0,nan,0.0,0.0,0.00035931257,0.0,0.0,0.0,0.0,0.0,0.0,0.0,0.0,0.0
21756692000,21756612000,0.0009973267,0.0,0.0011990954,0.00021317294,0.0,0.0,0.0,0.0,0.0,0.0,0.0,0.0,0.0,6.2698837e-06,0.0,0.0,nan,0.0,0.0,2.0823122e-06,0.0,0.0,0.0,0.0,0.0,0.0,0.0,0.0,0.0
21757196000,21757116000,0.0008467849,0.0,0.0013296395,0.00014965334,0.0,0.0,0.0,0.0,0.0,0.0,0.0,0.0,0.0,7.4661665e-07,0.0,0.0,nan,0.0,0.0,0.00013773717,0.0,0.0,0.0,0.0,0.0,0.0,0.0,0.0,0.0
21757692000,21757612000,0.00047351897,0.0,0.0015846211,0.00013578938,0.0,0.0,0.0,0.0,0.0,0.0,0.0,0.0,0.0,1.192111e-05,0.0,0.0,nan,0.0,0.0,6.356963e-05,0.0,0.0,0.0,0.0,0.0,0.0,0.0,0.0,0.0
21758196000,21758116000,0.0007416107,0.0,0.0011853257,0.00013021598,0.0,0.0,0.0,0.0,0.0,0.0,0.0,0.0,0.0,1.4676501e-05,0.0,0.0,nan,0.0,0.0,9.3641116e-05,0.0,0.0,0.0,0.0,0.0,0.0,0.0,0.0,0.0
21758692000,21758612000,0.00037021344,0.0,0.0014130939,6.759457e-05,0.0,0.0,0.0,0.0,0.0,0.0,0.0,0.0,0.0,9.316533e-06,0.0,0.0,nan,0.0,0.0,0.00051676953,0.0,0.0,0.0,0.0,0.0,0.0,0.0,0.0,0.0
21759196000,21759116000,0.00014262374,0.0,0.00018667479,0.00012726912,0.0,0.0,0.0,0.0,0.0,0.0,0.0,0.0,0.0,0.00012667509,0.0,0.0,nan,0.0,0.0,1.2017517e-06,0.0,0.0,0.0,0.0,0.0,0.0,0.0,0.0,0.0
21759692000,21759612000,0.0002785308,0.0,0.0014728962,0.00014781396,0.0,0.0,0.0,0.0,0.0,0.0,0.0,0.0,0.0,2.1133399e-05,0.0,0.0,nan,0.0,0.0,0.00021591448,0.0,0.0,0.0,0.0,0.0,0.0,0.0,0.0,0.0
21760196000,21760116000,0.0005244342,0.0,0.0023607626,0.00019375302,0.0,0.0,0.0,0.0,0.0,0.0,0.0,0.0,0.0,1.4767207e-05,0.0,0.0,nan,0.0,0.0,1.9945404e-05,0.0,0.0,0.0,0.0,0.0,0.0,0.0,0.0,0.0
21760692000,21760612000,0.0008833939,0.0,0.0038651512,0.0001688314,0.0,0.0,0.0,0.0,0.0,0.0,0.0,0.0,0.0,4.7098078e-05,0.0,0.0,nan,0.0,0.0,0.0002728441,0.0,0.0,0.0,0.0,0.0,0.0,0.0,0.0,0.0
21761196000,21761116000,0.00051139324,0.0,0.0012043123,2.2037832e-05,0.0,0.0,0.0,0.0,0.0,0.0,0.0,0.0,0.0,1.6351036e-05,0.0,0.0,nan,0.0,0.0,6.574733e-06,0.0,0.0,0.0,0.0,0.0,0.0,0.0,0.0,0.0
21761692000,21761612000,0.0003452094,0.0,0.0008820354,0.00016438682,0.0,0.0,0.0,0.0,0.0,0.0,0.0,0.0,0.0,4.843322e-05,0.0,0.0,nan,0.0,0.0,1.5595771e-05,0.0,0.0,0.0,0.0,0.0,0.0,0.0,0.0,0.0
21762196000,21762116000,0.0007577919,0.0,0.0014670821,7.824806e-05,0.0,0.0,0.0,0.0,0.0,0.0,0.0,0.0,0.0,0.00012281588,0.0,0.0,nan,0.0,0.0,0.0006121029,0.0,0.0,0.0,0.0,0.0,0.0,0.0,0.0,0.0
21762692000,21762612000,0.0013252626,0.0,0.0010272568,2.1092172e-05,0.0,0.0,0.0,0.0,0.0,0.0,0.0,0.0,0.0,0.00013648043,0.0,0.0,nan,0.0,0.0,4.6971523e-05,0.0,0.0,0.0,0.0,0.0,0.0,0.0,0.0,0.0
21763196000,21763116000,0.00010736362,0.0,5.4348253e-05,0.00017994615,0.0,0.0,0.0,0.0,0.0,0.0,0.0,0.0,0.0,7.039783e-05,0.0,0.0,nan,0.0,0.0,5.253831e-05,0.0,0.0,0.0,0.0,0.0,0.0,0.0,0.0,0.0
21763692000,21763612000,0.00073946686,0.0,0.0006413749,5.521459e-05,0.0,0.0,0.0,0.0,0.0,0.0,0.0,0.0,0.0,0.0001356849,0.0,0.0,nan,0.0,0.0,2.7235898e-05,0.0,0.0,0.0,0.0,0.0,0.0,0.0,0.0,0.0
21764188000,21764108000,0.00042174864,0.0,0.00081878045,2.8799506e-05,0.0,0.0,0.0,0.0,0.0,0.0,0.0,0.0,0.0,8.7532826e-05,0.0,0.0,nan,0.0,0.0,0.00021561974,0.0,0.0,0.0,0.0,0.0,0.0,0.0,0.0,0.0
21764692000,21764612000,0.000196371,0.0,0.00010718371,0.000102571044,0.0,0.0,0.0,0.0,0.0,0.0,0.0,0.0,0.0,0.0003140409,0.0,0.0,nan,0.0,0.0,0.000561268,0.0,0.0,0.0,0.0,0.0,0.0,0.0,0.0,0.0
21765196000,21765116000,0.00028225215,0.0,0.0003928341,0.00010438822,0.0,0.0,0.0,0.0,0.0,0.0,0.0,0.0,0.0,0.00021718089,0.0,0.0,nan,0.0,0.0,0.00013836168,0.0,0.0,0.0,0.0,0.0,0.0,0.0,0.0,0.0
21765692000,21765612000,0.00041320175,0.0,0.00067723484,0.00010783379,0.0,0.0,0.0,0.0,0.0,0.0,0.0,0.0,0.0,2.9821764e-05,0.0,0.0,nan,0.0,0.0,0.0007194282,0.0,0.0,0.0,0.0,0.0,0.0,0.0,0.0,0.0
21766196000,21766116000,0.00027736594,0.0,3.9284183e-05,0.00013865359,0.0,0.0,0.0,0.0,0.0,0.0,0.0,0.0,0.0,3.7311147e-05,0.0,0.0,nan,0.0,0.0,1.101723e-06,0.0,0.0,0.0,0.0,0.0,0.0,0.0,0.0,0.0
21766692000,21766612000,3.4840132e-06,0.0,0.0005569253,6.689547e-05,0.0,0.0,0.0,0.0,0.0,0.0,0.0,0.0,0.0,7.0578746e-05,0.0,0.0,nan,0.0,0.0,0.00051350705,0.0,0.0,0.0,0.0,0.0,0.0,0.0,0.0,0.0
21767196000,21767116000,0.00043606423,0.0,6.4097554e-07,7.0649636e-05,0.0,0.0,0.0,0.0,0.0,0.0,0.0,0.0,0.0,3.4660625e-09,0.0,0.0,nan,0.0,0.0,8.930765e-05,0.0,0.0,0.0,0.0,0.0,0.0,0.0,0.0,0.0
21767692000,21767612000,7.1298314e-06,0.0,0.0011628985,6.0856648e-05,0.0,0.0,0.0,0.0,0.0,0.0,0.0,0.0,0.0,4.1829044e-05,0.0,0.0,nan,0.0,0.0,0.00053961715,0.0,0.0,0.0,0.0,0.0,0.0,0.0,0.0,0.0
21768196000,21768116000,2.9490873e-05,0.0,5.8699778e-05,0.00025140715,0.0,0.0,0.0,0.0,0.0,0.0,0.0,0.0,0.0,8.105133e-05,0.0,0.0,nan,0.0,0.0,3.526882e-05,0.0,0.0,0.0,0.0,0.0,0.0,0.0,0.0,0.0
21768692000,21768612000,5.537666e-05,0.0,0.001461549,0.00016577195,0.0,0.0,0.0,0.0,0.0,0.0,0.0,0.0,0.0,3.333916e-05,0.0,0.0,nan,0.0,0.0,0.0005623344,0.0,0.0,0.0,0.0,0.0,0.0,0.0,0.0,0.0
21769196000,21769116000,0.00028785173,0.0,5.1798484e-05,0.00017208583,0.0,0.0,0.0,0.0,0.0,0.0,0.0,0.0,0.0,2.2845134e-05,0.0,0.0,nan,0.0,0.0,9.960216e-06,0.0,0.0,0.0,0.0,0.0,0.0,0.0,0.0,0.0
21769692000,21769612000,8.783523e-05,0.0,0.0005162244,0.0002716965,0.0,0.0,0.0,0.0,0.0,0.0,0.0,0.0,0.0,1.4515751e-07,0.0,0.0,nan,0.0,0.0,8.692427e-07,0.0,0.0,0.0,0.0,0.0,0.0,0.0,0.0,0.0
21770188000,21770108000,1.9252138e-05,0.0,0.00044388112,0.00011239307,0.0,0.0,0.0,0.0,0.0,0.0,0.0,0.0,0.0,4.7221118e-05,0.0,0.0,nan,0.0,0.0,0.00017116145,0.0,0.0,0.0,0.0,0.0,0.0,0.0,0.0,0.0
21770692000,21770612000,0.00036299785,0.0,0.00027500966,0.0001310813,0.0,0.0,0.0,0.0,0.0,0.0,0.0,0.0,0.0,5.6328927e-06,0.0,0.0,nan,0.0,0.0,7.5678486e-07,0.0,0.0,0.0,0.0,0.0,0.0,0.0,0.0,0.0
21771196000,21771116000,0.00018519709,0.0,2.966151e-06,0.00012146674,0.0,0.0,0.0,0.0,0.0,0.0,0.0,0.0,0.0,2.755849e-05,0.0,0.0,nan,0.0,0.0,0.00021912172,0.0,0.0,0.0,0.0,0.0,0.0,0.0,0.0,0.0
21771692000,21771612000,0.0006374916,0.0,0.00014521988,0.00024317314,0.0,0.0,0.0,0.0,0.0,0.0,0.0,0.0,0.0,2.8633224e-06,0.0,0.0,nan,0.0,0.0,0.0003770485,0.0,0.0,0.0,0.0,0.0,0.0,0.0,0.0,0.0
21772196000,21772116000,0.00031725454,0.0,1.4485254e-05,0.00038637483,0.0,0.0,0.0,0.0,0.0,0.0,0.0,0.0,0.0,1.8281256e-05,0.0,0.0,nan,0.0,0.0,0.0002840217,0.0,0.0,0.0,0.0,0.0,0.0,0.0,0.0,0.0
21772692000,21772612000,0.00086239394,0.0,4.936514e-06,7.804054e-05,0.0,0.0,0.0,0.0,0.0,0.0,0.0,0.0,0.0,6.69644e-07,0.0,0.0,nan,0.0,0.0,1.3904483e-05,0.0,0.0,0.0,0.0,0.0,0.0,0.0,0.0,0.0
21773196000,21773116000,0.00025963172,0.0,0.0002218692,0.00014201427,0.0,0.0,0.0,0.0,0.0,0.0,0.0,0.0,0.0,1.8822338e-05,0.0,0.0,nan,0.0,0.0,4.7986967e-05,0.0,0.0,0.0,0.0,0.0,0.0,0.0,0.0,0.0
21773692000,21773612000,0.00059876475,0.0,1.849966e-05,0.00035625807,0.0,0.0,0.0,0.0,0.0,0.0,0.0,0.0,0.0,2.986431e-05,0.0,0.0,nan,0.0,0.0,2.278762e-05,0.0,0.0,0.0,0.0,0.0,0.0,0.0,0.0,0.0
21774196000,21774116000,4.6843226e-05,0.0,1.1941915e-05,0.00023048276,0.0,0.0,0.0,0.0,0.0,0.0,0.0,0.0,0.0,6.6852062e-06,0.0,0.0,nan,0.0,0.0,4.696077e-05,0.0,0.0,0.0,0.0,0.0,0.0,0.0,0.0,0.0
21774692000,21774612000,6.0042345e-05,0.0,0.000111293215,0.00011347746,0.0,0.0,0.0,0.0,0.0,0.0,0.0,0.0,0.0,7.407822e-07,0.0,0.0,nan,0.0,0.0,0.000398211,0.0,0.0,0.0,0.0,0.0,0.0,0.0,0.0,0.0
21775196000,21775116000,0.0014149082,0.0,0.00026158878,0.00016578675,0.0,0.0,0.0,0.0,0.0,0.0,0.0,0.0,0.0,4.8554734e-06,0.0,0.0,nan,0.0,0.0,0.00013563031,0.0,0.0,0.0,0.0,0.0,0.0,0.0,0.0,0.0
21775692000,21775612000,0.00019995982,0.0,8.295295e-05,0.00012549976,0.0,0.0,0.0,0.0,0.0,0.0,0.0,0.0,0.0,2.6213415e-06,0.0,0.0,nan,0.0,0.0,1.7157231e-07,0.0,0.0,0.0,0.0,0.0,0.0,0.0,0.0,0.0
21776196000,21776116000,0.00037888697,0.0,0.0005319993,0.0004637479,0.0,0.0,0.0,0.0,0.0,0.0,0.0,0.0,0.0,8.243606e-05,0.0,0.0,nan,0.0,0.0,2.0873958e-06,0.0,0.0,0.0,0.0,0.0,0.0,0.0,0.0,0.0
21776692000,21776612000,0.00017797912,0.0,0.00066009496,0.00020768371,0.0,0.0,0.0,0.0,0.0,0.0,0.0,0.0,0.0,1.8248056e-05,0.0,0.0,nan,0.0,0.0,0.00014107206,0.0,0.0,0.0,0.0,0.0,0.0,0.0,0.0,0.0
21777196000,21777116000,0.0001437242,0.0,8.388777e-05,0.00036674645,0.0,0.0,0.0,0.0,0.0,0.0,0.0,0.0,0.0,6.750395e-06,0.0,0.0,nan,0.0,0.0,0.00012262179,0.0,0.0,0.0,0.0,0.0,0.0,0.0,0.0,0.0
21777692000,21777612000,0.0005983051,0.0,0.0014770345,0.00038300725,0.0,0.0,0.0,0.0,0.0,0.0,0.0,0.0,0.0,3.5624806e-05,0.0,0.0,nan,0.0,0.0,1.3196233e-05,0.0,0.0,0.0,0.0,0.0,0.0,0.0,0.0,0.0
21778196000,21778116000,0.0006601286,0.0,0.0005242277,0.0003620537,0.0,0.0,0.0,0.0,0.0,0.0,0.0,0.0,0.0,4.6262053e-06,0.0,0.0,nan,0.0,0.0,4.7115314e-05,0.0,0.0,0.0,0.0,0.0,0.0,0.0,0.0,0.0
21778692000,21778612000,0.000491076,0.0,4.04976e-05,0.00018616191,0.0,0.0,0.0,0.0,0.0,0.0,0.0,0.0,0.0,8.7285343e-07,0.0,0.0,nan,0.0,0.0,0.00061748887,0.0,0.0,0.0,0.0,0.0,0.0,0.0,0.0,0.0
21779196000,21779116000,0.0018899386,0.0,0.00037614518,0.00036307247,0.0,0.0,0.0,0.0,0.0,0.0,0.0,0.0,0.0,3.555869e-05,0.0,0.0,nan,0.0,0.0,7.495777e-07,0.0,0.0,0.0,0.0,0.0,0.0,0.0,0.0,0.0
21779692000,21779612000,6.2771775e-05,0.0,0.0015907243,0.00023181699,0.0,0.0,0.0,0.0,0.0,0.0,0.0,0.0,0.0,3.904304e-06,0.0,0.0,nan,0.0,0.0,0.00014006013,0.0,0.0,0.0,0.0,0.0,0.0,0.0,0.0,0.0
21780196000,21780116000,0.00044854733,0.0,0.001153457,0.00063076627,0.0,0.0,0.0,0.0,0.0,0.0,0.0,0.0,0.0,2.016284e-08,0.0,0.0,nan,0.0,0.0,0.00028410368,0.0,0.0,0.0,0.0,0.0,0.0,0.0,0.0,0.0
21780692000,21780612000,0.00024973945,0.0,0.0007299018,6.536104e-05,0.0,0.0,0.0,0.0,0.0,0.0,0.0,0.0,0.0,9.575223e-09,0.0,0.0,nan,0.0,0.0,0.0024743371,0.0,0.0,0.0,0.0,0.0,0.0,0.0,0.0,0.0
21781196000,21781116000,0.0010795807,0.0,0.00084063894,0.0002837958,0.0,0.0,0.0,0.0,0.0,0.0,0.0,0.0,0.0,2.5794047e-06,0.0,0.0,nan,0.0,0.0,0.00023741765,0.0,0.0,0.0,0.0,0.0,0.0,0.0,0.0,0.0
21781692000,21781612000,0.00057088654,0.0,0.00012475571,0.0004318444,0.0,0.0,0.0,0.0,0.0,0.0,0.0,0.0,0.0,6.332632e-07,0.0,0.0,nan,0.0,0.0,1.0006314e-05,0.0,0.0,0.0,0.0,0.0,0.0,0.0,0.0,0.0
21782196000,21782116000,0.0004460394,0.0,5.0217426e-07,0.00021895624,0.0,0.0,0.0,0.0,0.0,0.0,0.0,0.0,0.0,3.6886562e-05,0.0,0.0,nan,0.0,0.0,0.00012915296,0.0,0.0,0.0,0.0,0.0,0.0,0.0,0.0,0.0
21782692000,21782612000,0.0006742273,0.0,0.00019926442,0.00013922868,0.0,0.0,0.0,0.0,0.0,0.0,0.0,0.0,0.0,1.5297157e-05,0.0,0.0,nan,0.0,0.0,0.0006961918,0.0,0.0,0.0,0.0,0.0,0.0,0.0,0.0,0.0
21783196000,21783116000,0.00036866928,0.0,0.00017797957,0.0001046048,0.0,0.0,0.0,0.0,0.0,0.0,0.0,0.0,0.0,2.1967095e-05,0.0,0.0,nan,0.0,0.0,0.00028204962,0.0,0.0,0.0,0.0,0.0,0.0,0.0,0.0,0.0
21783692000,21783612000,0.00011076244,0.0,2.806015e-06,0.00022823559,0.0,0.0,0.0,0.0,0.0,0.0,0.0,0.0,0.0,8.890791e-07,0.0,0.0,nan,0.0,0.0,4.4436556e-06,0.0,0.0,0.0,0.0,0.0,0.0,0.0,0.0,0.0
21784196000,21784116000,0.0003612686,0.0,0.00041389352,0.000199695,0.0,0.0,0.0,0.0,0.0,0.0,0.0,0.0,0.0,4.27289e-05,0.0,0.0,nan,0.0,0.0,5.3018746e-05,0.0,0.0,0.0,0.0,0.0,0.0,0.0,0.0,0.0
21784692000,21784612000,0.00016314552,0.0,2.8988508e-05,0.00025286875,0.0,0.0,0.0,0.0,0.0,0.0,0.0,0.0,0.0,2.0927795e-05,0.0,0.0,nan,0.0,0.0,4.4112283e-05,0.0,0.0,0.0,0.0,0.0,0.0,0.0,0.0,0.0
21785196000,21785116000,0.0009383356,0.0,0.00020137652,7.6951204e-05,0.0,0.0,0.0,0.0,0.0,0.0,0.0,0.0,0.0,4.1154028e-05,0.0,0.0,nan,0.0,0.0,0.00012504951,0.0,0.0,0.0,0.0,0.0,0.0,0.0,0.0,0.0
21785692000,21785612000,6.8441004e-05,0.0,0.001829837,0.00020493883,0.0,0.0,0.0,0.0,0.0,0.0,0.0,0.0,0.0,5.6700096e-06,0.0,0.0,nan,0.0,0.0,0.00043700915,0.0,0.0,0.0,0.0,0.0,0.0,0.0,0.0,0.0
21786196000,21786116000,0.00039590165,0.0,0.00067858445,0.00019680243,0.0,0.0,0.0,0.0,0.0,0.0,0.0,0.0,0.0,3.9940994e-07,0.0,0.0,nan,0.0,0.0,0.0005042702,0.0,0.0,0.0,0.0,0.0,0.0,0.0,0.0,0.0
21786692000,21786612000,2.701741e-05,0.0,0.0005166805,0.00021863707,0.0,0.0,0.0,0.0,0.0,0.0,0.0,0.0,0.0,4.3761265e-05,0.0,0.0,nan,0.0,0.0,4.8068054e-05,0.0,0.0,0.0,0.0,0.0,0.0,0.0,0.0,0.0
21787196000,21787116000,0.00016839024,0.0,0.0010361167,0.00019660714,0.0,0.0,0.0,0.0,0.0,0.0,0.0,0.0,0.0,1.6510451e-06,0.0,0.0,nan,0.0,0.0,2.2596873e-06,0.0,0.0,0.0,0.0,0.0,0.0,0.0,0.0,0.0
21787692000,21787612000,0.0005423772,0.0,0.0014917447,0.00020194273,0.0,0.0,0.0,0.0,0.0,0.0,0.0,0.0,0.0,5.595157e-06,0.0,0.0,nan,0.0,0.0,0.00026375995,0.0,0.0,0.0,0.0,0.0,0.0,0.0,0.0,0.0
21788196000,21788116000,0.00046909048,0.0,0.0005758705,0.00047168587,0.0,0.0,0.0,0.0,0.0,0.0,0.0,0.0,0.0,2.662779e-05,0.0,0.0,nan,0.0,0.0,0.0013436229,0.0,0.0,0.0,0.0,0.0,0.0,0.0,0.0,0.0
21788692000,21788612000,0.00016800947,0.0,0.00078675133,9.9078665e-05,0.0,0.0,0.0,0.0,0.0,0.0,0.0,0.0,0.0,1.2014334e-06,0.0,0.0,nan,0.0,0.0,8.119837e-05,0.0,0.0,0.0,0.0,0.0,0.0,0.0,0.0,0.0
21789196000,21789116000,6.937383e-05,0.0,0.0013694938,0.00020277199,0.0,0.0,0.0,0.0,0.0,0.0,0.0,0.0,0.0,1.918756e-08,0.0,0.0,nan,0.0,0.0,1.1044004e-05,0.0,0.0,0.0,0.0,0.0,0.0,0.0,0.0,0.0
21789692000,21789612000,0.00026017774,0.0,0.002841905,0.0001898764,0.0,0.0,0.0,0.0,0.0,0.0,0.0,0.0,0.0,4.318607e-08,0.0,0.0,nan,0.0,0.0,0.00017390796,0.0,0.0,0.0,0.0,0.0,0.0,0.0,0.0,0.0
21790196000,21790116000,0.00019330675,0.0,0.0006381998,0.00031930106,0.0,0.0,0.0,0.0,0.0,0.0,0.0,0.0,0.0,6.283346e-05,0.0,0.0,nan,0.0,0.0,0.000186657,0.0,0.0,0.0,0.0,0.0,0.0,0.0,0.0,0.0
21790692000,21790612000,2.1859114e-05,0.0,0.00040688188,0.0003109693,0.0,0.0,0.0,0.0,0.0,0.0,0.0,0.0,0.0,3.0537798e-05,0.0,0.0,nan,0.0,0.0,0.00023015677,0.0,0.0,0.0,0.0,0.0,0.0,0.0,0.0,0.0
21791196000,21791116000,0.00021532792,0.0,0.0009382798,9.7264565e-05,0.0,0.0,0.0,0.0,0.0,0.0,0.0,0.0,0.0,2.352871e-05,0.0,0.0,nan,0.0,0.0,2.1521084e-05,0.0,0.0,0.0,0.0,0.0,0.0,0.0,0.0,0.0
21791692000,21791612000,5.1501767e-05,0.0,0.0021973778,0.00032824225,0.0,0.0,0.0,0.0,0.0,0.0,0.0,0.0,0.0,5.0830688e-05,0.0,0.0,nan,0.0,0.0,5.1925836e-05,0.0,0.0,0.0,0.0,0.0,0.0,0.0,0.0,0.0
21792196000,21792116000,5.7910797e-06,0.0,3.8533777e-05,7.997455e-05,0.0,0.0,0.0,0.0,0.0,0.0,0.0,0.0,0.0,0.00016080965,0.0,0.0,nan,0.0,0.0,0.0016382183,0.0,0.0,0.0,0.0,0.0,0.0,0.0,0.0,0.0
21792692000,21792612000,0.00020759719,0.0,0.0013841586,9.626926e-05,0.0,0.0,0.0,0.0,0.0,0.0,0.0,0.0,0.0,2.4722253e-06,0.0,0.0,nan,0.0,0.0,6.167442e-08,0.0,0.0,0.0,0.0,0.0,0.0,0.0,0.0,0.0
21793196000,21793116000,0.00035363706,0.0,0.0003597497,7.124057e-05,0.0,0.0,0.0,0.0,0.0,0.0,0.0,0.0,0.0,4.0960866e-05,0.0,0.0,nan,0.0,0.0,0.0036389187,0.0,0.0,0.0,0.0,0.0,0.0,0.0,0.0,0.0
21793692000,21793612000,9.526423e-06,0.0,0.0014352923,9.658844e-05,0.0,0.0,0.0,0.0,0.0,0.0,0.0,0.0,0.0,3.583139e-06,0.0,0.0,nan,0.0,0.0,0.0001374935,0.0,0.0,0.0,0.0,0.0,0.0,0.0,0.0,0.0
21794188000,21794108000,0.000110342975,0.0,0.0013990017,0.0002416035,0.0,0.0,0.0,0.0,0.0,0.0,0.0,0.0,0.0,7.267019e-05,0.0,0.0,nan,0.0,0.0,5.43147e-05,0.0,0.0,0.0,0.0,0.0,0.0,0.0,0.0,0.0
21794692000,21794612000,0.0001965518,0.0,0.00034491858,0.00015205366,0.0,0.0,0.0,0.0,0.0,0.0,0.0,0.0,0.0,1.5687268e-05,0.0,0.0,nan,0.0,0.0,0.00041472237,0.0,0.0,0.0,0.0,0.0,0.0,0.0,0.0,0.0
21795196000,21795116000,0.00024390747,0.0,0.0009139707,0.00017026858,0.0,0.0,0.0,0.0,0.0,0.0,0.0,0.0,0.0,6.5324064e-05,0.0,0.0,nan,0.0,0.0,0.0005120119,0.0,0.0,0.0,0.0,0.0,0.0,0.0,0.0,0.0
21795692000,21795612000,0.00035877596,0.0,0.0010551407,0.00018212316,0.0,0.0,0.0,0.0,0.0,0.0,0.0,0.0,0.0,7.383882e-05,0.0,0.0,nan,0.0,0.0,4.1572694e-05,0.0,0.0,0.0,0.0,0.0,0.0,0.0,0.0,0.0
21796196000,21796116000,0.0006780325,0.0,3.37017e-05,0.000114551854,0.0,0.0,0.0,0.0,0.0,0.0,0.0,0.0,0.0,4.190202e-05,0.0,0.0,nan,0.0,0.0,0.00026053676,0.0,0.0,0.0,0.0,0.0,0.0,0.0,0.0,0.0
21796692000,21796612000,0.0004907892,0.0,9.968463e-05,0.00017170187,0.0,0.0,0.0,0.0,0.0,0.0,0.0,0.0,0.0,7.205048e-06,0.0,0.0,nan,0.0,0.0,0.00033813325,0.0,0.0,0.0,0.0,0.0,0.0,0.0,0.0,0.0
21797196000,21797116000,0.0010606801,0.0,0.00019477362,0.00023066475,0.0,0.0,0.0,0.0,0.0,0.0,0.0,0.0,0.0,6.105124e-05,0.0,0.0,nan,0.0,0.0,0.00021507476,0.0,0.0,0.0,0.0,0.0,0.0,0.0,0.0,0.0
21797692000,21797612000,0.001098363,0.0,5.0684248e-05,0.00030945672,0.0,0.0,0.0,0.0,0.0,0.0,0.0,0.0,0.0,1.2384645e-05,0.0,0.0,nan,0.0,0.0,6.742184e-06,0.0,0.0,0.0,0.0,0.0,0.0,0.0,0.0,0.0
21798196000,21798116000,0.0010018576,0.0,0.00022197189,0.00023458045,0.0,0.0,0.0,0.0,0.0,0.0,0.0,0.0,0.0,0.00012285337,0.0,0.0,nan,0.0,0.0,2.5096395e-05,0.0,0.0,0.0,0.0,0.0,0.0,0.0,0.0,0.0
21798692000,21798612000,0.00037532923,0.0,0.00017331027,8.7109736e-05,0.0,0.0,0.0,0.0,0.0,0.0,0.0,0.0,0.0,1.1172646e-05,0.0,0.0,nan,0.0,0.0,0.00017723012,0.0,0.0,0.0,0.0,0.0,0.0,0.0,0.0,0.0
21799196000,21799116000,0.0010606032,0.0,7.538428e-06,0.00010852237,0.0,0.0,0.0,0.0,0.0,0.0,0.0,0.0,0.0,3.572842e-05,0.0,0.0,nan,0.0,0.0,1.20315e-05,0.0,0.0,0.0,0.0,0.0,0.0,0.0,0.0,0.0
21799692000,21799612000,0.00078160135,0.0,1.0845329e-05,0.00026137405,0.0,0.0,0.0,0.0,0.0,0.0,0.0,0.0,0.0,3.6404046e-05,0.0,0.0,nan,0.0,0.0,0.00035252178,0.0,0.0,0.0,0.0,0.0,0.0,0.0,0.0,0.0
21800196000,21800116000,0.0019900133,0.0,2.1447918e-06,0.00023193,0.0,0.0,0.0,0.0,0.0,0.0,0.0,0.0,0.0,9.427412e-06,0.0,0.0,nan,0.0,0.0,4.1065752e-05,0.0,0.0,0.0,0.0,0.0,0.0,0.0,0.0,0.0
21800692000,21800612000,0.00060722674,0.0,3.5514517e-05,0.00020895487,0.0,0.0,0.0,0.0,0.0,0.0,0.0,0.0,0.0,6.559854e-05,0.0,0.0,nan,0.0,0.0,3.7543407e-05,0.0,0.0,0.0,0.0,0.0,0.0,0.0,0.0,0.0
21801196000,21801116000,0.0018234926,0.0,0.000111342386,0.00035568723,0.0,0.0,0.0,0.0,0.0,0.0,0.0,0.0,0.0,5.201186e-06,0.0,0.0,nan,0.0,0.0,2.4275303e-06,0.0,0.0,0.0,0.0,0.0,0.0,0.0,0.0,0.0
21801692000,21801612000,0.002428852,0.0,0.000207098,0.00039185732,0.0,0.0,0.0,0.0,0.0,0.0,0.0,0.0,0.0,9.120595e-06,0.0,0.0,nan,0.0,0.0,8.560069e-05,0.0,0.0,0.0,0.0,0.0,0.0,0.0,0.0,0.0
21802196000,21802116000,0.0017297665,0.0,3.3681863e-05,0.00046033686,0.0,0.0,0.0,0.0,0.0,0.0,0.0,0.0,0.0,2.0946418e-05,0.0,0.0,nan,0.0,0.0,0.00015300953,0.0,0.0,0.0,0.0,0.0,0.0,0.0,0.0,0.0
21802692000,21802612000,0.0012962203,0.0,0.00025451527,0.00046226833,0.0,0.0,0.0,0.0,0.0,0.0,0.0,0.0,0.0,1.5678615e-06,0.0,0.0,nan,0.0,0.0,0.00014046574,0.0,0.0,0.0,0.0,0.0,0.0,0.0,0.0,0.0
21803196000,21803116000,0.0026595455,0.0,8.187468e-05,0.000431365,0.0,0.0,0.0,0.0,0.0,0.0,0.0,0.0,0.0,8.143177e-06,0.0,0.0,nan,0.0,0.0,4.7372876e-05,0.0,0.0,0.0,0.0,0.0,0.0,0.0,0.0,0.0
21803692000,21803612000,0.00094105274,0.0,0.000514808,0.00031738004,0.0,0.0,0.0,0.0,0.0,0.0,0.0,0.0,0.0,2.661437e-06,0.0,0.0,nan,0.0,0.0,3.9846967e-05,0.0,0.0,0.0,0.0,0.0,0.0,0.0,0.0,0.0
21804196000,21804116000,0.0016775682,0.0,2.5184792e-05,0.00031012914,0.0,0.0,0.0,0.0,0.0,0.0,0.0,0.0,0.0,1.6689304e-05,0.0,0.0,nan,0.0,0.0,5.013118e-05,0.0,0.0,0.0,0.0,0.0,0.0,0.0,0.0,0.0
21804692000,21804612000,0.0008514059,0.0,0.0003832139,0.000475911,0.0,0.0,0.0,0.0,0.0,0.0,0.0,0.0,0.0,5.9120057e-06,0.0,0.0,nan,0.0,0.0,0.00057160173,0.0,0.0,0.0,0.0,0.0,0.0,0.0,0.0,0.0
21805196000,21805116000,0.0009054141,0.0,0.0005276441,0.0006669399,0.0,0.0,0.0,0.0,0.0,0.0,0.0,0.0,0.0,1.0407904e-05,0.0,0.0,nan,0.0,0.0,0.0003768705,0.0,0.0,0.0,0.0,0.0,0.0,0.0,0.0,0.0
21805692000,21805612000,0.0011686804,0.0,1.330803e-05,0.0005828557,0.0,0.0,0.0,0.0,0.0,0.0,0.0,0.0,0.0,8.503632e-06,0.0,0.0,nan,0.0,0.0,6.708866e-06,0.0,0.0,0.0,0.0,0.0,0.0,0.0,0.0,0.0
21806196000,21806116000,0.00046777804,0.0,0.00026212682,0.0002308618,0.0,0.0,0.0,0.0,0.0,0.0,0.0,0.0,0.0,2.792113e-06,0.0,0.0,nan,0.0,0.0,4.254914e-05,0.0,0.0,0.0,0.0,0.0,0.0,0.0,0.0,0.0
21806692000,21806612000,0.0055803214,0.0,0.017050676,0.00035844935,0.0,0.0,0.0,0.0,0.0,0.0,0.0,0.0,0.0,2.4983388e-05,0.0,0.0,nan,0.0,0.0,0.00040852686,0.0,0.0,0.0,0.0,0.0,0.0,0.0,0.0,0.0
21807196000,21807116000,0.021587878,0.0,0.0015843216,0.0009997791,0.0,0.0,0.0,0.0,0.0,0.0,0.0,0.0,0.0,6.2597865e-05,0.0,0.0,nan,0.0,0.0,0.0,0.0013191623,0.0,0.0,0.0,0.0,0.0,0.0,0.0,0.0
21807692000,21807612000,0.0034224037,0.0,1.2231756e-06,0.0005564856,0.0,0.0,0.0,0.0,0.0,0.0,0.0,0.0,0.0,2.6085716e-05,0.0,0.0,nan,0.0,0.0,0.0,0.00080353016,0.0,0.0,0.0,0.0,0.0,0.0,0.0,0.0
21808196000,21808116000,0.0011496975,0.0,0.0009236042,0.00029799392,0.0,0.0,0.0,0.0,0.0,0.0,0.0,0.0,0.0,3.1449006e-05,0.0,0.0,nan,0.0,0.0,0.0,0.0010087312,0.0,0.0,0.0,0.0,0.0,0.0,0.0,0.0
21808692000,21808612000,0.0012351212,0.0,8.8205656e-05,0.00021335448,0.0,0.0,0.0,0.0,0.0,0.0,0.0,0.0,0.0,0.0,0.0,0.0,nan,0.0,0.0,0.0,0.000104768704,0.0,0.0,0.0,0.0,0.0,0.0,0.0,0.0
21809196000,21809116000,0.00030872942,0.0,8.163643e-06,0.00012974802,0.0,0.0,0.0,0.0,0.0,0.0,0.0,0.0,0.0,0.0,0.0,0.0,nan,0.0,0.0,0.0,0.0018190187,0.0,0.0,0.0,0.0,0.0,0.0,0.0,0.0
21809692000,21809612000,0.0024966025,0.0,0.00024587146,7.2664276e-05,0.0,0.0,0.0,0.0,0.0,0.0,0.0,0.0,0.0,0.0,0.0,0.0,nan,0.0,0.0,0.0,4.0367955e-05,0.0,0.0,0.0,0.0,0.0,0.0,0.0,0.0
21810196000,21810116000,0.002107535,0.0,0.00037792246,4.5411067e-05,0.0,0.0,0.0,0.0,0.0,0.0,0.0,0.0,0.0,0.0,0.0,0.0,nan,0.0,0.0,0.0,0.00057336735,0.0,0.0,0.0,0.0,0.0,0.0,0.0,0.0
21810692000,21810612000,0.0026258456,0.0,0.00082102965,4.8031125e-06,0.0,0.0,0.0,0.0,0.0,0.0,0.0,0.0,0.0,0.0,0.0,0.0,nan,0.0,0.0,0.0,0.0008697571,0.0,0.0,0.0,0.0,0.0,0.0,0.0,0.0
21811196000,21811116000,0.003162166,0.0,0.0011711044,1.122896e-05,0.0,0.0,0.0,0.0,0.0,0.0,0.0,0.0,0.0,0.0,0.0,0.0,nan,0.0,0.0,0.0,0.00054073305,0.0,0.0,0.0,0.0,0.0,0.0,0.0,0.0
21811692000,21811612000,0.0019078888,0.0,0.0038412404,8.553999e-06,0.0,0.0,0.0,0.0,0.0,0.0,0.0,0.0,0.0,0.0,0.0,0.0,nan,0.0,0.0,0.0,0.0020002953,0.0,0.0,0.0,0.0,0.0,0.0,0.0,0.0
21812196000,21812116000,0.0019744309,0.0,0.0024294525,2.0645253e-05,0.0,0.0,0.0,0.0,0.0,0.0,0.0,0.0,0.0,0.0,0.0,0.0,nan,0.0,0.0,0.0,0.0008810785,0.0,0.0,0.0,0.0,0.0,0.0,0.0,0.0
21812692000,21812612000,0.0017867186,0.0,0.0060623614,4.2608655e-05,0.0,0.0,0.0,0.0,0.0,0.0,0.0,0.0,0.0,0.0,0.0,0.0,nan,0.0,0.0,0.00015532764,0.0,0.0,0.0,0.0,0.0,0.0,0.0,0.0,0.0
21813196000,21813116000,0.0009616582,0.0,0.0055768625,2.4013474e-05,0.0,0.0,0.0,0.0,0.0,0.0,0.0,0.0,0.0,0.0,0.0,0.0,nan,0.0,0.0,7.3163836e-05,0.0,0.0,0.0,0.0,0.0,0.0,0.0,0.0,0.0
21813692000,21813612000,0.0009209494,0.0,0.005229755,2.620052e-05,0.0,0.0,0.0,0.0,0.0,0.0,0.0,0.0,0.0,0.0,0.0,0.0,nan,0.0,0.0,1.0407467e-06,0.0,0.0,0.0,0.0,0.0,0.0,0.0,0.0,0.0
21814196000,21814116000,0.00042859153,0.0,0.0020498869,1.6236314e-05,0.0,0.0,0.0,0.0,0.0,0.0,0.0,0.0,0.0,0.0,0.0,0.0,nan,0.0,0.0,0.00035729483,0.0,0.0,0.0,0.0,0.0,0.0,0.0,0.0,0.0
21814692000,21814612000,0.00045954256,0.0,0.0020042073,1.9458139e-05,0.0,0.0,0.0,0.0,0.0,0.0,0.0,0.0,0.0,0.0,0.0,0.0,nan,0.0,0.0,5.711174e-05,0.0,0.0,0.0,0.0,0.0,0.0,0.0,0.0,0.0
21815196000,21815116000,0.00023299758,0.0,0.0024961436,1.8374702e-05,0.0,0.0,0.0,0.0,0.0,0.0,0.0,0.0,0.0,0.0,0.0,0.0,nan,0.0,0.0,1.985877e-06,0.0,0.0,0.0,0.0,0.0,0.0,0.0,0.0,0.0
21815692000,21815612000,0.00013870835,0.0,0.0035229463,1.4546568e-05,0.0,0.0,0.0,0.0,0.0,0.0,0.0,0.0,0.0,3.41523e-06,0.0,0.0,nan,0.0,0.0,0.00027610888,0.0,0.0,0.0,0.0,0.0,0.0,0.0,0.0,0.0
21816196000,21816116000,0.00022299221,0.0,0.00080305734,5.863653e-06,0.0,0.0,0.0,0.0,0.0,0.0,0.0,0.0,0.0,1.4577696e-05,0.0,0.0,nan,0.0,0.0,0.00042445373,0.0,0.0,0.0,0.0,0.0,0.0,0.0,0.0,0.0
21816692000,21816612000,0.0003129895,0.0,0.0007806122,8.147978e-07,0.0,0.0,0.0,0.0,0.0,0.0,0.0,0.0,0.0,2.4725168e-06,0.0,0.0,nan,0.0,0.0,2.5688916e-05,0.0,0.0,0.0,0.0,0.0,0.0,0.0,0.0,0.0
21817196000,21817116000,8.81297e-05,0.0,0.0018626817,6.7495675e-06,0.0,0.0,0.0,0.0,0.0,0.0,0.0,0.0,0.0,1.1751539e-06,0.0,0.0,nan,0.0,0.0,1.0671332e-05,0.0,0.0,0.0,0.0,0.0,0.0,0.0,0.0,0.0
21817692000,21817612000,0.0003996181,0.0,9.4875026e-07,8.0778855e-06,0.0,0.0,0.0,0.0,0.0,0.0,0.0,0.0,0.0,8.0141535e-07,0.0,0.0,nan,0.0,0.0,0.00020434234,0.0,0.0,0.0,0.0,0.0,0.0,0.0,0.0,0.0
21818196000,21818116000,0.00017863471,0.0,0.0001106065,7.4835098e-06,0.0,0.0,0.0,0.0,0.0,0.0,0.0,0.0,0.0,2.920695e-05,0.0,0.0,nan,0.0,0.0,1.0284794e-05,0.0,0.0,0.0,0.0,0.0,0.0,0.0,0.0,0.0
21818692000,21818612000,0.00090369344,0.0,0.00043087374,5.2789524e-06,0.0,0.0,0.0,0.0,0.0,0.0,0.0,0.0,0.0,8.8390494e-05,0.0,0.0,nan,0.0,0.0,0.0006976582,0.0,0.0,0.0,0.0,0.0,0.0,0.0,0.0,0.0
21819196000,21819116000,0.00020835485,0.0,0.00013936954,4.032709e-06,0.0,0.0,0.0,0.0,0.0,0.0,0.0,0.0,0.0,5.962829e-07,0.0,0.0,nan,0.0,0.0,9.2966446e-05,0.0,0.0,0.0,0.0,0.0,0.0,0.0,0.0,0.0
21819692000,21819612000,0.0007579614,0.0,0.00026806226,4.8266093e-06,0.0,0.0,0.0,0.0,0.0,0.0,0.0,0.0,0.0,9.064731e-05,0.0,0.0,nan,0.0,0.0,8.8461224e-05,0.0,0.0,0.0,0.0,0.0,0.0,0.0,0.0,0.0
21820196000,21820116000,0.0007239428,0.0,0.000598481,9.850451e-06,0.0,0.0,0.0,0.0,0.0,0.0,0.0,0.0,0.0,2.2916718e-05,0.0,0.0,nan,0.0,0.0,0.0004887218,0.0,0.0,0.0,0.0,0.0,0.0,0.0,0.0,0.0
21820692000,21820612000,0.00097426114,0.0,0.0007372396,1.1201244e-05,0.0,0.0,0.0,0.0,0.0,0.0,0.0,0.0,0.0,5.980233e-05,0.0,0.0,nan,0.0,0.0,0.00020097721,0.0,0.0,0.0,0.0,0.0,0.0,0.0,0.0,0.0
21821196000,21821116000,0.00016189789,0.0,3.0033016e-06,1.31541865e-05,0.0,0.0,0.0,0.0,0.0,0.0,0.0,0.0,0.0,0.0,0.0,0.0,nan,0.0,0.0,7.461639e-05,0.0,0.0,0.0,0.0,0.0,0.0,0.0,0.0,0.0
21821692000,21821612000,0.0009167798,0.0,0.00052995194,2.1114533e-05,0.0,0.0,0.0,0.0,0.0,0.0,0.0,0.0,0.0,4.3704953e-05,0.0,0.0,nan,0.0,0.0,0.0005721319,0.0,0.0,0.0,0.0,0.0,0.0,0.0,0.0,0.0
21822196000,21822116000,0.0006589675,0.0,7.359122e-06,1.42953595e-05,0.0,0.0,0.0,0.0,0.0,0.0,0.0,0.0,0.0,2.8032132e-06,0.0,0.0,nan,0.0,0.0,0.00067749753,0.0,0.0,0.0,0.0,0.0,0.0,0.0,0.0,0.0
21822692000,21822612000,0.0012959379,0.0,6.64071e-05,3.487945e-05,0.0,0.0,0.0,0.0,0.0,0.0,0.0,0.0,0.0,1.352534e-05,0.0,0.0,nan,0.0,0.0,0.00026355832,0.0,0.0,0.0,0.0,0.0,0.0,0.0,0.0,0.0
21823196000,21823116000,0.00048204302,0.0,0.00016140963,2.0692956e-05,0.0,0.0,0.0,0.0,0.0,0.0,0.0,0.0,0.0,1.7339284e-05,0.0,0.0,nan,0.0,0.0,5.2464577e-05,0.0,0.0,0.0,0.0,0.0,0.0,0.0,0.0,0.0
21823692000,21823612000,0.0005193307,0.0,9.656194e-05,1.7218825e-05,0.0,0.0,0.0,0.0,0.0,0.0,0.0,0.0,0.0,1.1342288e-06,0.0,0.0,nan,0.0,0.0,2.7952676e-05,0.0,0.0,0.0,0.0,0.0,0.0,0.0,0.0,0.0
21824196000,21824116000,0.00026584222,0.0,0.00010040482,2.6606132e-05,0.0,0.0,0.0,0.0,0.0,0.0,0.0,0.0,0.0,1.3533898e-05,0.0,0.0,nan,0.0,0.0,0.0008834176,0.0,0.0,0.0,0.0,0.0,0.0,0.0,0.0,0.0
21824692000,21824612000,0.00013972708,0.0,2.7622598e-06,3.5901036e-07,0.0,0.0,0.0,0.0,0.0,0.0,0.0,0.0,0.0,9.446402e-06,0.0,0.0,nan,0.0,0.0,7.9821344e-05,0.0,0.0,0.0,0.0,0.0,0.0,0.0,0.0,0.0
21825196000,21825116000,0.00012445578,0.0,0.0002158887,1.9340941e-06,0.0,0.0,0.0,0.0,0.0,0.0,0.0,0.0,0.0,2.6988784e-05,0.0,0.0,nan,0.0,0.0,8.10322e-05,0.0,0.0,0.0,0.0,0.0,0.0,0.0,0.0,0.0
21825692000,21825612000,5.031408e-05,0.0,3.5943467e-06,8.290335e-06,0.0,0.0,0.0,0.0,0.0,0.0,0.0,0.0,0.0,0.0,0.0,0.0,nan,0.0,0.0,0.0002862825,0.0,0.0,0.0,0.0,0.0,0.0,0.0,0.0,0.0
21826196000,21826116000,0.00030227756,0.0,0.00028159426,6.7506003e-06,0.0,0.0,0.0,0.0,0.0,0.0,0.0,0.0,0.0,0.0,0.0,0.0,nan,0.0,0.0,0.0013609332,0.0,0.0,0.0,0.0,0.0,0.0,0.0,0.0,0.0
21826692000,21826612000,0.000765467,0.0,0.0001181844,1.353188e-05,0.0,0.0,0.0,0.0,0.0,0.0,0.0,0.0,0.0,0.0,0.0,0.0,nan,0.0,0.0,2.3462073e-05,0.0,0.0,0.0,0.0,0.0,0.0,0.0,0.0,0.0
21827196000,21827116000,0.000361905,0.0,0.00044304095,5.7114366e-06,0.0,0.0,0.0,0.0,0.0,0.0,0.0,0.0,0.0,6.763721e-07,0.0,0.0,nan,0.0,0.0,4.0104722e-05,0.0,0.0,0.0,0.0,0.0,0.0,0.0,0.0,0.0
21827692000,21827612000,0.000799879,0.0,6.9263246e-05,1.2554666e-05,0.0,0.0,0.0,0.0,0.0,0.0,0.0,0.0,0.0,0.0,0.0,0.0,nan,0.0,0.0,0.00011002304,0.0,0.0,0.0,0.0,0.0,0.0,0.0,0.0,0.0
21828196000,21828116000,0.001053856,0.0,4.055825e-05,1.6703043e-05,0.0,0.0,0.0,0.0,0.0,0.0,0.0,0.0,0.0,1.04340465e-08,0.0,0.0,nan,0.0,0.0,9.112033e-06,0.0,0.0,0.0,0.0,0.0,0.0,0.0,0.0,0.0
21828692000,21828612000,0.00049622654,0.0,4.220258e-05,3.2470576e-05,0.0,0.0,0.0,0.0,0.0,0.0,0.0,0.0,0.0,0.0,0.0,0.0,nan,0.0,0.0,5.3179487e-05,0.0,0.0,0.0,0.0,0.0,0.0,0.0,0.0,0.0
21829196000,21829116000,0.00057403813,0.0,0.0012127641,5.150902e-05,0.0,0.0,0.0,0.0,0.0,0.0,0.0,0.0,0.0,0.0,0.0,0.0,nan,0.0,0.0,4.585502e-05,0.0,0.0,0.0,0.0,0.0,0.0,0.0,0.0,0.0
21829692000,21829612000,0.0005938085,0.0,0.00047656804,6.729253e-05,0.0,0.0,0.0,0.0,0.0,0.0,0.0,0.0,0.0,0.0,0.0,0.0,nan,0.0,0.0,1.9567076e-05,0.0,0.0,0.0,0.0,0.0,0.0,0.0,0.0,0.0
21830196000,21830116000,0.0007861742,0.0,6.542267e-05,7.597622e-05,0.0,0.0,0.0,0.0,0.0,0.0,0.0,0.0,0.0,0.0,0.0,0.0,nan,0.0,0.0,0.00016986592,0.0,0.0,0.0,0.0,0.0,0.0,0.0,0.0,0.0
21830692000,21830612000,0.000109392095,0.0,0.0012376742,6.28251e-05,0.0,0.0,0.0,0.0,0.0,0.0,0.0,0.0,0.0,0.0,0.0,0.0,nan,0.0,0.0,9.024708e-06,0.0,0.0,0.0,0.0,0.0,0.0,0.0,0.0,0.0
21831196000,21831116000,0.0001360747,0.0,2.2123959e-05,4.3472894e-05,0.0,0.0,0.0,0.0,0.0,0.0,0.0,0.0,0.0,0.0,0.0,0.0,nan,0.0,0.0,2.161929e-05,0.0,0.0,0.0,0.0,0.0,0.0,0.0,0.0,0.0
21831692000,21831612000,3.1542866e-05,0.0,1.1398839e-05,3.1889787e-05,0.0,0.0,0.0,0.0,0.0,0.0,0.0,0.0,0.0,0.0,0.0,0.0,nan,0.0,0.0,0.00030807388,0.0,0.0,0.0,0.0,0.0,0.0,0.0,0.0,0.0
21832196000,21832116000,0.0005523121,0.0,1.2451691e-05,4.4343797e-05,0.0,0.0,0.0,0.0,0.0,0.0,0.0,0.0,0.0,0.0,0.0,0.0,nan,0.0,0.0,6.826388e-05,0.0,0.0,0.0,0.0,0.0,0.0,0.0,0.0,0.0
21832692000,21832612000,0.00035336212,0.0,1.4095906e-07,2.3113458e-05,0.0,0.0,0.0,0.0,0.0,0.0,0.0,0.0,0.0,0.0,0.0,0.0,nan,0.0,0.0,0.00019404397,0.0,0.0,0.0,0.0,0.0,0.0,0.0,0.0,0.0
21833196000,21833116000,0.00038333226,0.0,0.00056796125,1.7122005e-05,0.0,0.0,0.0,0.0,0.0,0.0,0.0,0.0,0.0,0.0,0.0,0.0,nan,0.0,0.0,2.9941253e-05,0.0,0.0,0.0,0.0,0.0,0.0,0.0,0.0,0.0
21833692000,21833612000,0.00038498655,0.0,2.8230932e-07,6.807113e-06,0.0,0.0,0.0,0.0,0.0,0.0,0.0,0.0,0.0,0.0,0.0,0.0,nan,0.0,0.0,4.3856548e-05,0.0,0.0,0.0,0.0,0.0,0.0,0.0,0.0,0.0
21834196000,21834116000,0.00048354032,0.0,0.00017663777,7.4155532e-06,0.0,0.0,0.0,0.0,0.0,0.0,0.0,0.0,0.0,0.0,0.0,0.0,nan,0.0,0.0,0.0003351098,0.0,0.0,0.0,0.0,0.0,0.0,0.0,0.0,0.0
21834692000,21834612000,0.00028042894,0.0,0.0003646904,1.08516915e-05,0.0,0.0,0.0,0.0,0.0,0.0,0.0,0.0,0.0,0.0,0.0,0.0,nan,0.0,0.0,0.00010542006,0.0,0.0,0.0,0.0,0.0,0.0,0.0,0.0,0.0
21835196000,21835116000,7.8970224e-05,0.0,4.5807486e-05,7.0571714e-06,0.0,0.0,0.0,0.0,0.0,0.0,0.0,0.0,0.0,0.0,0.0,0.0,nan,0.0,0.0,3.4160498e-06,0.0,0.0,0.0,0.0,0.0,0.0,0.0,0.0,0.0
21835692000,21835612000,0.00011155983,0.0,0.00011664909,1.0587043e-05,0.0,0.0,0.0,0.0,0.0,0.0,0.0,0.0,0.0,0.0,0.0,0.0,nan,0.0,0.0,1.7294742e-05,0.0,0.0,0.0,0.0,0.0,0.0,0.0,0.0,0.0
21836196000,21836116000,0.00015497037,0.0,1.4950727e-05,9.964886e-06,0.0,0.0,0.0,0.0,0.0,0.0,0.0,0.0,0.0,0.0,0.0,0.0,nan,0.0,0.0,8.19668e-06,0.0,0.0,0.0,0.0,0.0,0.0,0.0,0.0,0.0
21836692000,21836612000,0.00014668789,0.0,0.00017341026,8.073125e-06,0.0,0.0,0.0,0.0,0.0,0.0,0.0,0.0,0.0,0.0,0.0,0.0,nan,0.0,0.0,9.3885774e-08,0.0,0.0,0.0,0.0,0.0,0.0,0.0,0.0,0.0
21837196000,21837116000,0.00013869621,0.0,9.033585e-06,3.0644143e-05,0.0,0.0,0.0,0.0,0.0,0.0,0.0,0.0,0.0,0.0,0.0,0.0,nan,0.0,0.0,0.0009174895,0.0,0.0,0.0,0.0,0.0,0.0,0.0,0.0,0.0
21837692000,21837612000,0.00059591566,0.0,0.00010567613,1.3657237e-05,0.0,0.0,0.0,0.0,0.0,0.0,0.0,0.0,0.0,0.0,0.0,0.0,nan,0.0,0.0,1.7061113e-08,0.0,0.0,0.0,0.0,0.0,0.0,0.0,0.0,0.0
21838196000,21838116000,0.00013338482,0.0,0.00020282567,2.6580345e-05,0.0,0.0,0.0,0.0,0.0,0.0,0.0,0.0,0.0,0.0,0.0,0.0,nan,0.0,0.0,0.0014544546,0.0,0.0,0.0,0.0,0.0,0.0,0.0,0.0,0.0
21838692000,21838612000,0.00056715496,0.0,2.594295e-09,3.8310878e-05,0.0,0.0,0.0,0.0,0.0,0.0,0.0,0.0,0.0,0.0,0.0,0.0,nan,0.0,0.0,0.00023165261,0.0,0.0,0.0,0.0,0.0,0.0,0.0,0.0,0.0
21839196000,21839116000,0.00039141113,0.0,0.00013481968,2.9836374e-05,0.0,0.0,0.0,0.0,0.0,0.0,0.0,0.0,0.0,0.0,0.0,0.0,nan,0.0,0.0,9.17018e-05,0.0,0.0,0.0,0.0,0.0,0.0,0.0,0.0,0.0
21839692000,21839612000,0.00060244254,0.0,0.00039530452,5.1814503e-05,0.0,0.0,0.0,0.0,0.0,0.0,0.0,0.0,0.0,0.0,0.0,0.0,nan,0.0,0.0,6.89196e-05,0.0,0.0,0.0,0.0,0.0,0.0,0.0,0.0,0.0
21840196000,21840116000,0.00032224748,0.0,3.0428357e-06,2.7582431e-05,0.0,0.0,0.0,0.0,0.0,0.0,0.0,0.0,0.0,0.0,0.0,0.0,nan,0.0,0.0,0.00010138108,0.0,0.0,0.0,0.0,0.0,0.0,0.0,0.0,0.0
21840692000,21840612000,0.0010589695,0.0,0.00017241594,3.9195424e-05,0.0,0.0,0.0,0.0,0.0,0.0,0.0,0.0,0.0,0.0,0.0,0.0,nan,0.0,0.0,2.0351976e-05,0.0,0.0,0.0,0.0,0.0,0.0,0.0,0.0,0.0
21841196000,21841116000,0.00025137165,0.0,0.00079057115,3.4434615e-05,0.0,0.0,0.0,0.0,0.0,0.0,0.0,0.0,0.0,0.0,0.0,0.0,nan,0.0,0.0,1.8230725e-06,0.0,0.0,0.0,0.0,0.0,0.0,0.0,0.0,0.0
21841692000,21841612000,0.00013857994,0.0,2.9001562e-10,1.7429737e-05,0.0,0.0,0.0,0.0,0.0,0.0,0.0,0.0,0.0,0.0,0.0,0.0,nan,0.0,0.0,1.0755854e-06,0.0,0.0,0.0,0.0,0.0,0.0,0.0,0.0,0.0
21842196000,21842116000,0.00032263194,0.0,0.00011174875,2.6654428e-05,0.0,0.0,0.0,0.0,0.0,0.0,0.0,0.0,0.0,0.0,0.0,0.0,nan,0.0,0.0,5.6711036e-05,0.0,0.0,0.0,0.0,0.0,0.0,0.0,0.0,0.0
21842692000,21842612000,0.0009900294,0.0,1.6414468e-05,2.1408492e-05,0.0,0.0,0.0,0.0,0.0,0.0,0.0,0.0,0.0,0.0,0.0,0.0,nan,0.0,0.0,0.000115958224,0.0,0.0,0.0,0.0,0.0,0.0,0.0,0.0,0.0
21843196000,21843116000,0.0020189,0.0,0.000115803734,3.8450165e-05,0.0,0.0,0.0,0.0,0.0,0.0,0.0,0.0,0.0,0.0,0.0,0.0,nan,0.0,0.0,0.0027121324,0.0,0.0,0.0,0.0,0.0,0.0,0.0,0.0,0.0
21843692000,21843612000,0.0010906046,0.0,2.8135094e-07,3.3609296e-05,0.0,0.0,0.0,0.0,0.0,0.0,0.0,0.0,0.0,0.0,0.0,0.0,nan,0.0,0.0,0.00016937412,0.0,0.0,0.0,0.0,0.0,0.0,0.0,0.0,0.0
21844196000,21844116000,0.001361351,0.0,0.00025381785,4.015425e-05,0.0,0.0,0.0,0.0,0.0,0.0,0.0,0.0,0.0,0.0,0.0,0.0,nan,0.0,0.0,0.000967118,0.0,0.0,0.0,0.0,0.0,0.0,0.0,0.0,0.0
21844692000,21844612000,0.0009109452,0.0,5.0736548e-05,2.8927414e-05,0.0,0.0,0.0,0.0,0.0,0.0,0.0,0.0,0.0,0.0,0.0,0.0,nan,0.0,0.0,3.3578938e-06,0.0,0.0,0.0,0.0,0.0,0.0,0.0,0.0,0.0
21845196000,21845116000,0.00031256545,0.0,8.1626466e-05,1.3351914e-05,0.0,0.0,0.0,0.0,0.0,0.0,0.0,0.0,0.0,0.0,0.0,0.0,nan,0.0,0.0,1.0647196e-05,0.0,0.0,0.0,0.0,0.0,0.0,0.0,0.0,0.0
21845692000,21845612000,0.0008100485,0.0,0.00014041224,1.0511776e-05,0.0,0.0,0.0,0.0,0.0,0.0,0.0,0.0,0.0,0.0,0.0,0.0,nan,0.0,0.0,9.502487e-07,0.0,0.0,0.0,0.0,0.0,0.0,0.0,0.0,0.0
21846196000,21846116000,5.584407e-05,0.0,0.000629572,1.920733e-05,0.0,0.0,0.0,0.0,0.0,0.0,0.0,0.0,0.0,0.0,0.0,0.0,nan,0.0,0.0,6.9334264e-06,0.0,0.0,0.0,0.0,0.0,0.0,0.0,0.0,0.0
21846692000,21846612000,0.00031285963,0.0,6.383119e-07,1.8365798e-05,0.0,0.0,0.0,0.0,0.0,0.0,0.0,0.0,0.0,0.0,0.0,0.0,nan,0.0,0.0,0.00014669968,0.0,0.0,0.0,0.0,0.0,0.0,0.0,0.0,0.0
21847196000,21847116000,3.6979134e-05,0.0,0.0005044753,6.4220235e-06,0.0,0.0,0.0,0.0,0.0,0.0,0.0,0.0,0.0,0.0,0.0,0.0,nan,0.0,0.0,4.07786e-05,0.0,0.0,0.0,0.0,0.0,0.0,0.0,0.0,0.0
21847692000,21847612000,0.00030655076,0.0,0.00056537084,4.737194e-06,0.0,0.0,0.0,0.0,0.0,0.0,0.0,0.0,0.0,0.0,0.0,0.0,nan,0.0,0.0,3.414399e-06,0.0,0.0,0.0,0.0,0.0,0.0,0.0,0.0,0.0
21848196000,21848116000,0.00019566264,0.0,3.3974953e-05,3.1365544e-06,0.0,0.0,0.0,0.0,0.0,0.0,0.0,0.0,0.0,0.0,0.0,0.0,nan,0.0,0.0,2.0840229e-05,0.0,0.0,0.0,0.0,0.0,0.0,0.0,0.0,0.0
21848692000,21848612000,0.00013545067,0.0,5.313704e-05,9.944896e-06,0.0,0.0,0.0,0.0,0.0,0.0,0.0,0.0,0.0,0.0,0.0,0.0,nan,0.0,0.0,0.0001565067,0.0,0.0,0.0,0.0,0.0,0.0,0.0,0.0,0.0
21849196000,21849116000,0.00042002252,0.0,1.0723119e-05,4.1438097e-06,0.0,0.0,0.0,0.0,0.0,0.0,0.0,0.0,0.0,0.0,0.0,0.0,nan,0.0,0.0,2.1984984e-05,0.0,0.0,0.0,0.0,0.0,0.0,0.0,0.0,0.0
21849692000,21849612000,0.00016139605,0.0,0.0003865089,3.3641286e-06,0.0,0.0,0.0,0.0,0.0,0.0,0.0,0.0,0.0,0.0,0.0,0.0,nan,0.0,0.0,0.00035989564,0.0,0.0,0.0,0.0,0.0,0.0,0.0,0.0,0.0
21850196000,21850116000,8.2809645e-05,0.0,0.000179658,6.546285e-06,0.0,0.0,0.0,0.0,0.0,0.0,0.0,0.0,0.0,0.0,0.0,0.0,nan,0.0,0.0,0.00031107714,0.0,0.0,0.0,0.0,0.0,0.0,0.0,0.0,0.0
21850692000,21850612000,0.00016565321,0.0,0.00066485716,2.1148931e-05,0.0,0.0,0.0,0.0,0.0,0.0,0.0,0.0,0.0,0.0,0.0,0.0,nan,0.0,0.0,1.023992e-05,0.0,0.0,0.0,0.0,0.0,0.0,0.0,0.0,0.0
