timestamp,timestamp_sample,yaw_composite,yaw_variance,yaw[0],yaw[1],yaw[2],yaw[3],yaw[4],innov_vn[0],innov_vn[1],innov_vn[2],innov_vn[3],innov_vn[4],innov_ve[0],innov_ve[1],innov_ve[2],innov_ve[3],innov_ve[4],weight[0],weight[1],weight[2],weight[3],weight[4]
21733228000,21733148000,3.0079389,3.7977512,-2.5132742,-1.2566371,0.0,1.2566371,2.5132742,0.0,0.0,0.0,0.0,0.0,0.0,0.0,0.0,0.0,0.0,0.2,0.2,0.2,0.2,0.2
21733236000,21733156000,3.1044297,3.9025164,-2.5132682,-1.256631,6.0919433e-06,1.2566432,2.5132804,0.0,0.0,0.0,0.0,0.0,0.0,0.0,0.0,0.0,0.0,0.2,0.2,0.2,0.2,0.2
21733244000,21733164000,2.3656502,3.574854,-2.5132675,-1.2566303,6.7748506e-06,1.2566439,2.5132809,0.0,0.0,0.0,0.0,0.0,0.0,0.0,0.0,0.0,0.0,0.2,0.2,0.2,0.2,0.2
21733252000,21733172000,2.9656723,3.7576964,-2.5132444,-1.2566072,2.9968704e-05,1.2566671,2.5133042,0.0,0.0,0.0,0.0,0.0,0.0,0.0,0.0,0.0,0.0,0.2,0.2,0.2,0.2,0.2
21733260000,21733180000,2.628894,3.5664167,-2.5132244,-1.256587,5.0021386e-05,1.2566872,2.5133243,0.0,0.0,0.0,0.0,0.0,0.0,0.0,0.0,0.0,0.0,0.2,0.2,0.2,0.2,0.2
21733268000,21733188000,2.046782,3.7707372,-2.5132084,-1.2565712,6.590697e-05,1.256703,2.51334,0.0,0.0,0.0,0.0,0.0,0.0,0.0,0.0,0.0,0.0,0.2,0.2,0.2,0.2,0.2
21733276000,21733196000,2.8215992,3.6481159,-2.5132575,-1.2566204,1.6663329e-05,1.2566538,2.513291,0.0,0.0,0.0,0.0,0.0,0.0,0.0,0.0,0.0,0.0,0.2,0.2,0.2,0.2,0.2
21733284000,21733204000,2.978881,3.769813,-2.5132325,-1.2565953,4.1838186e-05,1.2566789,2.5133162,0.0,0.0,0.0,0.0,0.0,0.0,0.0,0.0,0.0,0.0,0.2,0.2,0.2,0.2,0.2
21733292000,21733212000,-3.0453546,3.8362787,-2.5131743,-1.2565371,0.00010001244,1.2567371,2.5133743,0.0,0.0,0.0,0.0,0.0,0.0,0.0,0.0,0.0,0.0,0.2,0.2,0.2,0.2,0.2
21733300000,21733220000,2.6181238,3.5640347,-2.5131705,-1.2565331,0.00010396661,1.256741,2.5133781,0.0,0.0,0.0,0.0,0.0,0.0,0.0,0.0,0.0,0.0,0.2,0.2,0.2,0.2,0.2
21733308000,21733228000,-3.0204117,3.810361,-2.5131671,-1.25653,0.00010711015,1.2567441,2.5133815,0.0,0.0,0.0,0.0,0.0,0.0,0.0,0.0,0.0,0.0,0.2,0.2,0.2,0.2,0.2
21733316000,21733236000,2.890191,3.6950285,-2.5131388,-1.2565016,0.00013554312,1.2567726,2.5134099,0.0,0.0,0.0,0.0,0.0,0.0,0.0,0.0,0.0,0.0,0.2,0.2,0.2,0.2,0.2
21733324000,21733244000,3.1360476,3.9407263,-2.5131252,-1.2564878,0.00014922136,1.2567863,2.5134234,0.0,0.0,0.0,0.0,0.0,0.0,0.0,0.0,0.0,0.0,0.2,0.2,0.2,0.2,0.2
21733332000,21733252000,2.363248,3.575623,-2.5131094,-1.2564721,0.00016491786,1.2568021,2.5134392,0.0,0.0,0.0,0.0,0.0,0.0,0.0,0.0,0.0,0.0,0.2,0.2,0.2,0.2,0.2
21733340000,21733260000,2.4553094,3.5564532,-2.5130417,-1.2564044,0.00023266542,1.2568698,2.513507,0.0,0.0,0.0,0.0,0.0,0.0,0.0,0.0,0.0,0.0,0.2,0.2,0.2,0.2,0.2
21733348000,21733268000,2.2134714,3.6430795,-2.5130568,-1.2564197,0.00021747431,1.2568545,2.5134916,0.0,0.0,0.0,0.0,0.0,0.0,0.0,0.0,0.0,0.0,0.2,0.2,0.2,0.2,0.2
21733356000,21733276000,-2.7470322,3.607826,-2.5130272,-1.2563901,0.00024709126,1.2568842,2.5135214,0.0,0.0,0.0,0.0,0.0,0.0,0.0,0.0,0.0,0.0,0.2,0.2,0.2,0.2,0.2
21733364000,21733284000,2.5726016,3.5565512,-2.5129626,-1.2563252,0.0003118224,1.256949,2.513586,0.0,0.0,0.0,0.0,0.0,0.0,0.0,0.0,0.0,0.0,0.2,0.2,0.2,0.2,0.2
21733372000,21733292000,2.703591,3.5891647,-2.5129457,-1.2563083,0.00032874025,1.2569659,2.513603,0.0,0.0,0.0,0.0,0.0,0.0,0.0,0.0,0.0,0.0,0.2,0.2,0.2,0.2,0.2
21733380000,21733300000,-3.0908449,3.887022,-2.512959,-1.2563218,0.00031537132,1.2569525,2.5135896,0.0,0.0,0.0,0.0,0.0,0.0,0.0,0.0,0.0,0.0,0.2,0.2,0.2,0.2,0.2
21733388000,21733308000,2.8083584,3.6399517,-2.5129476,-1.2563102,0.00032684003,1.256964,2.513601,0.0,0.0,0.0,0.0,0.0,0.0,0.0,0.0,0.0,0.0,0.2,0.2,0.2,0.2,0.2
21733396000,21733316000,2.9167962,3.7156606,-2.5129764,-1.2563392,0.00029795742,1.2569351,2.5135722,0.0,0.0,0.0,0.0,0.0,0.0,0.0,0.0,0.0,0.0,0.2,0.2,0.2,0.2,0.2
21733404000,21733324000,3.0310192,3.8208332,-2.5129864,-1.2563492,0.000287955,1.2569251,2.5135622,0.0,0.0,0.0,0.0,0.0,0.0,0.0,0.0,0.0,0.0,0.2,0.2,0.2,0.2,0.2
21733412000,21733332000,3.076984,3.8704915,-2.5129642,-1.2563272,0.00030998595,1.2569472,2.5135841,0.0,0.0,0.0,0.0,0.0,0.0,0.0,0.0,0.0,0.0,0.2,0.2,0.2,0.2,0.2
21733420000,21733340000,2.7467837,3.6074371,-2.512926,-1.256289,0.0003481616,1.2569853,2.5136223,0.0,0.0,0.0,0.0,0.0,0.0,0.0,0.0,0.0,0.0,0.2,0.2,0.2,0.2,0.2
21733428000,21733348000,2.1276636,3.7020288,-2.512886,-1.2562441,0.00040009306,1.2570368,2.5136664,-0.019449135,-0.021094747,-0.021227453,-0.019663855,-0.018564802,0.011330069,0.010934914,0.009247737,0.008600161,0.009887113,0.1999997,0.19999698,0.19999844,0.20000191,0.20000294
21733436000,21733356000,2.1252084,3.703928,-2.5128906,-1.2562485,0.00039554262,1.2570322,2.5136619,-0.019449135,-0.021094747,-0.021227453,-0.019663855,-0.018564802,0.011330069,0.010934914,0.009247737,0.008600161,0.009887113,0.1999997,0.19999698,0.19999844,0.20000191,0.20000294
21733444000,21733364000,2.1287527,3.7011957,-2.51288,-1.2562381,0.0004059725,1.2570426,2.5136724,-0.019449135,-0.021094747,-0.021227453,-0.019663855,-0.018564802,0.011330069,0.010934914,0.009247737,0.008600161,0.009887113,0.1999997,0.19999698,0.19999844,0.20000191,0.20000294
21733452000,21733372000,2.1323867,3.698415,-2.512875,-1.256233,0.00041119088,1.2570479,2.5136776,-0.019449135,-0.021094747,-0.021227453,-0.019663855,-0.018564802,0.011330069,0.010934914,0.009247737,0.008600161,0.009887113,0.1999997,0.19999698,0.19999844,0.20000191,0.20000294
21733460000,21733380000,2.1302361,3.7001045,-2.5128176,-1.2561755,0.00046852248,1.2571052,2.513735,-0.019449135,-0.021094747,-0.021227453,-0.019663855,-0.018564802,0.011330069,0.010934914,0.009247737,0.008600161,0.009887113,0.1999997,0.19999698,0.19999844,0.20000191,0.20000294
21733468000,21733388000,2.1306438,3.6998024,-2.512805,-1.2561631,0.0004810225,1.2571177,2.5137475,-0.019449135,-0.021094747,-0.021227453,-0.019663855,-0.018564802,0.011330069,0.010934914,0.009247737,0.008600161,0.009887113,0.1999997,0.19999698,0.19999844,0.20000191,0.20000294
21733476000,21733396000,2.1306486,3.699824,-2.5127733,-1.2561312,0.00051285216,1.2571496,2.5137794,-0.019449135,-0.021094747,-0.021227453,-0.019663855,-0.018564802,0.011330069,0.010934914,0.009247737,0.008600161,0.009887113,0.1999997,0.19999698,0.19999844,0.20000191,0.20000294
21733484000,21733404000,2.1326795,3.6982992,-2.5127382,-1.2560962,0.00054783124,1.2571845,2.5138144,-0.019449135,-0.021094747,-0.021227453,-0.019663855,-0.018564802,0.011330069,0.010934914,0.009247737,0.008600161,0.009887113,0.1999997,0.19999698,0.19999844,0.20000191,0.20000294
21733492000,21733412000,2.1297307,3.700578,-2.5127096,-1.2560678,0.0005763974,1.2572131,2.5138428,-0.019449135,-0.021094747,-0.021227453,-0.019663855,-0.018564802,0.011330069,0.010934914,0.009247737,0.008600161,0.009887113,0.1999997,0.19999698,0.19999844,0.20000191,0.20000294
21733500000,21733420000,2.1310167,3.6996653,-2.5126143,-1.2559723,0.0006718584,1.2573086,2.5139384,-0.019449135,-0.021094747,-0.021227453,-0.019663855,-0.018564802,0.011330069,0.010934914,0.009247737,0.008600161,0.009887113,0.1999997,0.19999698,0.19999844,0.20000191,0.20000294
21733508000,21733428000,2.1311963,3.699555,-2.5125794,-1.2559373,0.0007067724,1.2573435,2.5139732,-0.019449135,-0.021094747,-0.021227453,-0.019663855,-0.018564802,0.011330069,0.010934914,0.009247737,0.008600161,0.009887113,0.1999997,0.19999698,0.19999844,0.20000191,0.20000294
21733516000,21733436000,2.1324935,3.698589,-2.5125475,-1.2559054,0.0007387072,1.2573755,2.5140052,-0.019449135,-0.021094747,-0.021227453,-0.019663855,-0.018564802,0.011330069,0.010934914,0.009247737,0.008600161,0.009887113,0.1999997,0.19999698,0.19999844,0.20000191,0.20000294
21733524000,21733444000,2.132344,3.698726,-2.512518,-1.2558758,0.00076832867,1.257405,2.5140347,-0.019449135,-0.021094747,-0.021227453,-0.019663855,-0.018564802,0.011330069,0.010934914,0.009247737,0.008600161,0.009887113,0.1999997,0.19999698,0.19999844,0.20000191,0.20000294
21733532000,21733452000,2.1346369,3.6970363,-2.512446,-1.2558037,0.0008404225,1.2574772,2.514107,-0.019449135,-0.021094747,-0.021227453,-0.019663855,-0.018564802,0.011330069,0.010934914,0.009247737,0.008600161,0.009887113,0.1999997,0.19999698,0.19999844,0.20000191,0.20000294
21733540000,21733460000,2.1344378,3.6971662,-2.5124748,-1.2558327,0.0008114124,1.2574482,2.514078,-0.019449135,-0.021094747,-0.021227453,-0.019663855,-0.018564802,0.011330069,0.010934914,0.009247737,0.008600161,0.009887113,0.1999997,0.19999698,0.19999844,0.20000191,0.20000294
21733548000,21733468000,2.1370173,3.695167,-2.5125377,-1.2558959,0.000748337,1.2573851,2.514015,-0.019449135,-0.021094747,-0.021227453,-0.019663855,-0.018564802,0.011330069,0.010934914,0.009247737,0.008600161,0.009887113,0.1999997,0.19999698,0.19999844,0.20000191,0.20000294
21733556000,21733476000,2.135819,3.6962168,-2.5123475,-1.2557054,0.00093883165,1.2575756,2.5142055,-0.019449135,-0.021094747,-0.021227453,-0.019663855,-0.018564802,0.011330069,0.010934914,0.009247737,0.008600161,0.009887113,0.1999997,0.19999698,0.19999844,0.20000191,0.20000294
21733564000,21733484000,2.1357875,3.6963322,-2.5122273,-1.2555852,0.0010589595,1.2576957,2.5143256,-0.019449135,-0.021094747,-0.021227453,-0.019663855,-0.018564802,0.011330069,0.010934914,0.009247737,0.008600161,0.009887113,0.1999997,0.19999698,0.19999844,0.20000191,0.20000294
21733572000,21733492000,2.1351757,3.6967916,-2.512234,-1.2555919,0.0010522304,1.257689,2.514319,-0.019449135,-0.021094747,-0.021227453,-0.019663855,-0.018564802,0.011330069,0.010934914,0.009247737,0.008600161,0.009887113,0.1999997,0.19999698,0.19999844,0.20000191,0.20000294
21733580000,21733500000,2.1373758,3.695166,-2.5121841,-1.255542,0.0011021531,1.257739,2.5143688,-0.019449135,-0.021094747,-0.021227453,-0.019663855,-0.018564802,0.011330069,0.010934914,0.009247737,0.008600161,0.009887113,0.1999997,0.19999698,0.19999844,0.20000191,0.20000294
21733588000,21733508000,2.133801,3.6978767,-2.5121822,-1.25554,0.0011041182,1.257741,2.5143707,-0.019449135,-0.021094747,-0.021227453,-0.019663855,-0.018564802,0.011330069,0.010934914,0.009247737,0.008600161,0.009887113,0.1999997,0.19999698,0.19999844,0.20000191,0.20000294
21733596000,21733516000,2.1367784,3.6956236,-2.512177,-1.2555349,0.0011093554,1.2577462,2.514376,-0.019449135,-0.021094747,-0.021227453,-0.019663855,-0.018564802,0.011330069,0.010934914,0.009247737,0.008600161,0.009887113,0.1999997,0.19999698,0.19999844,0.20000191,0.20000294
21733604000,21733524000,2.1384377,3.6944091,-2.51213,-1.255488,0.0011561619,1.257793,2.514423,-0.019449135,-0.021094747,-0.021227453,-0.019663855,-0.018564802,0.011330069,0.010934914,0.009247737,0.008600161,0.009887113,0.1999997,0.19999698,0.19999844,0.20000191,0.20000294
21733612000,21733532000,2.136051,3.6961908,-2.5121555,-1.2555137,0.001130545,1.2577673,2.5143971,-0.019449135,-0.021094747,-0.021227453,-0.019663855,-0.018564802,0.011330069,0.010934914,0.009247737,0.008600161,0.009887113,0.1999997,0.19999698,0.19999844,0.20000191,0.20000294
21733620000,21733540000,2.1332831,3.698274,-2.5121815,-1.2555394,0.0011047475,1.2577415,2.5143714,-0.019449135,-0.021094747,-0.021227453,-0.019663855,-0.018564802,0.011330069,0.010934914,0.009247737,0.008600161,0.009887113,0.1999997,0.19999698,0.19999844,0.20000191,0.20000294
21733628000,21733548000,2.1338441,3.6978705,-2.5121508,-1.2555088,0.0011354247,1.2577722,2.514402,-0.019449135,-0.021094747,-0.021227453,-0.019663855,-0.018564802,0.011330069,0.010934914,0.009247737,0.008600161,0.009887113,0.1999997,0.19999698,0.19999844,0.20000191,0.20000294
21733636000,21733556000,-1.427173,3.5823927,-2.5120637,-1.2554544,0.0011610822,1.257813,2.5144808,0.013273649,0.007932752,0.0054928204,0.009325776,0.014134536,-0.021755505,-0.020925337,-0.025748312,-0.02955917,-0.02709148,0.2000062,0.20001341,0.20000206,0.19998771,0.1999906
21733644000,21733564000,-1.4277136,3.582556,-2.51213,-1.2555208,0.001094804,1.2577467,2.5144145,0.013273649,0.007932752,0.0054928204,0.009325776,0.014134536,-0.021755505,-0.020925337,-0.025748312,-0.02955917,-0.02709148,0.2000062,0.20001341,0.20000206,0.19998771,0.1999906
21733652000,21733572000,-1.4279826,3.5826457,-2.5121408,-1.2555315,0.0010841471,1.257736,2.5144038,0.013273649,0.007932752,0.0054928204,0.009325776,0.014134536,-0.021755505,-0.020925337,-0.025748312,-0.02955917,-0.02709148,0.2000062,0.20001341,0.20000206,0.19998771,0.1999906
21733660000,21733580000,-1.4277415,3.582577,-2.5121005,-1.2554913,0.0011243527,1.2577763,2.514444,0.013273649,0.007932752,0.0054928204,0.009325776,0.014134536,-0.021755505,-0.020925337,-0.025748312,-0.02955917,-0.02709148,0.2000062,0.20001341,0.20000206,0.19998771,0.1999906
21733668000,21733588000,-1.4278209,3.582616,-2.5120678,-1.2554586,0.0011570776,1.2578089,2.5144768,0.013273649,0.007932752,0.0054928204,0.009325776,0.014134536,-0.021755505,-0.020925337,-0.025748312,-0.02955917,-0.02709148,0.2000062,0.20001341,0.20000206,0.19998771,0.1999906
21733676000,21733596000,-1.4274861,3.5824804,-2.5121286,-1.2555194,0.0010962044,1.2577481,2.514416,0.013273649,0.007932752,0.0054928204,0.009325776,0.014134536,-0.021755505,-0.020925337,-0.025748312,-0.02955917,-0.02709148,0.2000062,0.20001341,0.20000206,0.19998771,0.1999906
21733684000,21733604000,-1.4277592,3.5825734,-2.512134,-1.2555249,0.0010907071,1.2577426,2.5144105,0.013273649,0.007932752,0.0054928204,0.009325776,0.014134536,-0.021755505,-0.020925337,-0.025748312,-0.02955917,-0.02709148,0.2000062,0.20001341,0.20000206,0.19998771,0.1999906
21733692000,21733612000,-1.4272163,3.582425,-2.5120237,-1.2554145,0.0012011478,1.257853,2.514521,0.013273649,0.007932752,0.0054928204,0.009325776,0.014134536,-0.021755505,-0.020925337,-0.025748312,-0.02955917,-0.02709148,0.2000062,0.20001341,0.20000206,0.19998771,0.1999906
21733700000,21733620000,-1.4281752,3.5827932,-2.5119162,-1.2553068,0.0013087802,1.2579607,2.5146286,0.013273649,0.007932752,0.0054928204,0.009325776,0.014134536,-0.021755505,-0.020925337,-0.025748312,-0.02955917,-0.02709148,0.2000062,0.20001341,0.20000206,0.19998771,0.1999906
21733708000,21733628000,-1.4277425,3.5826213,-2.5119843,-1.2553751,0.001240457,1.2578924,2.5145602,0.013273649,0.007932752,0.0054928204,0.009325776,0.014134536,-0.021755505,-0.020925337,-0.025748312,-0.02955917,-0.02709148,0.2000062,0.20001341,0.20000206,0.19998771,0.1999906
21733716000,21733636000,-1.4285843,3.5828843,-2.5120666,-1.2554574,0.0011583205,1.2578102,2.5144782,0.013273649,0.007932752,0.0054928204,0.009325776,0.014134536,-0.021755505,-0.020925337,-0.025748312,-0.02955917,-0.02709148,0.2000062,0.20001341,0.20000206,0.19998771,0.1999906
21733724000,21733644000,-1.4277897,3.5826318,-2.5120049,-1.2553957,0.0012200178,1.257872,2.5145397,0.013273649,0.007932752,0.0054928204,0.009325776,0.014134536,-0.021755505,-0.020925337,-0.025748312,-0.02955917,-0.02709148,0.2000062,0.20001341,0.20000206,0.19998771,0.1999906
21733732000,21733652000,-1.4281286,3.5827756,-2.5119283,-1.2553192,0.0012964519,1.2579484,2.5146163,0.013273649,0.007932752,0.0054928204,0.009325776,0.014134536,-0.021755505,-0.020925337,-0.025748312,-0.02955917,-0.02709148,0.2000062,0.20001341,0.20000206,0.19998771,0.1999906
21733740000,21733660000,-1.4286797,3.5829594,-2.51195,-1.2553408,0.0012749179,1.2579268,2.5145948,0.013273649,0.007932752,0.0054928204,0.009325776,0.014134536,-0.021755505,-0.020925337,-0.025748312,-0.02955917,-0.02709148,0.2000062,0.20001341,0.20000206,0.19998771,0.1999906
21733748000,21733668000,-1.428254,3.5828178,-2.511935,-1.2553258,0.0012898111,1.2579417,2.5146098,0.013273649,0.007932752,0.0054928204,0.009325776,0.014134536,-0.021755505,-0.020925337,-0.025748312,-0.02955917,-0.02709148,0.2000062,0.20001341,0.20000206,0.19998771,0.1999906
21733756000,21733676000,-1.4285417,3.5829012,-2.5119832,-1.255374,0.0012417694,1.2578937,2.5145617,0.013273649,0.007932752,0.0054928204,0.009325776,0.014134536,-0.021755505,-0.020925337,-0.025748312,-0.02955917,-0.02709148,0.2000062,0.20001341,0.20000206,0.19998771,0.1999906
21733764000,21733684000,-1.4290125,3.5830815,-2.5119362,-1.2553271,0.0012886644,1.2579406,2.5146086,0.013273649,0.007932752,0.0054928204,0.009325776,0.014134536,-0.021755505,-0.020925337,-0.025748312,-0.02955917,-0.02709148,0.2000062,0.20001341,0.20000206,0.19998771,0.1999906
21733772000,21733692000,-1.4283501,3.582858,-2.5119205,-1.2553113,0.0013044447,1.2579564,2.5146244,0.013273649,0.007932752,0.0054928204,0.009325776,0.014134536,-0.021755505,-0.020925337,-0.025748312,-0.02955917,-0.02709148,0.2000062,0.20001341,0.20000206,0.19998771,0.1999906
21733780000,21733700000,-1.4290464,3.5830772,-2.5119867,-1.2553775,0.0012382518,1.2578902,2.514558,0.013273649,0.007932752,0.0054928204,0.009325776,0.014134536,-0.021755505,-0.020925337,-0.025748312,-0.02955917,-0.02709148,0.2000062,0.20001341,0.20000206,0.19998771,0.1999906
21733788000,21733708000,-1.4287621,3.5829644,-2.5120294,-1.2554202,0.0011954565,1.2578474,2.5145154,0.013273649,0.007932752,0.0054928204,0.009325776,0.014134536,-0.021755505,-0.020925337,-0.025748312,-0.02955917,-0.02709148,0.2000062,0.20001341,0.20000206,0.19998771,0.1999906
21733796000,21733716000,-1.4289632,3.5830116,-2.5120957,-1.2554865,0.0011291652,1.2577811,2.5144491,0.013273649,0.007932752,0.0054928204,0.009325776,0.014134536,-0.021755505,-0.020925337,-0.025748312,-0.02955917,-0.02709148,0.2000062,0.20001341,0.20000206,0.19998771,0.1999906
21733804000,21733724000,-1.4290515,3.5830452,-2.5120888,-1.2554796,0.0011361681,1.2577881,2.514456,0.013273649,0.007932752,0.0054928204,0.009325776,0.014134536,-0.021755505,-0.020925337,-0.025748312,-0.02955917,-0.02709148,0.2000062,0.20001341,0.20000206,0.19998771,0.1999906
21733812000,21733732000,-1.428361,3.582915,-2.5117757,-1.2551665,0.0014491397,1.2581011,2.514769,0.013273649,0.007932752,0.0054928204,0.009325776,0.014134536,-0.021755505,-0.020925337,-0.025748312,-0.02955917,-0.02709148,0.2000062,0.20001341,0.20000206,0.19998771,0.1999906
21733820000,21733740000,-1.4286344,3.5830634,-2.5116239,-1.2550147,0.0016010613,1.2582531,2.514921,0.013273649,0.007932752,0.0054928204,0.009325776,0.014134536,-0.021755505,-0.020925337,-0.025748312,-0.02955917,-0.02709148,0.2000062,0.20001341,0.20000206,0.19998771,0.1999906
21733828000,21733748000,-1.4289205,3.5831516,-2.511658,-1.2550488,0.0015669827,1.258219,2.5148869,0.013273649,0.007932752,0.0054928204,0.009325776,0.014134536,-0.021755505,-0.020925337,-0.025748312,-0.02955917,-0.02709148,0.2000062,0.20001341,0.20000206,0.19998771,0.1999906
21733836000,21733756000,-1.4287999,3.5830991,-2.5116901,-1.2550809,0.0015347709,1.2581868,2.5148547,0.013273649,0.007932752,0.0054928204,0.009325776,0.014134536,-0.021755505,-0.020925337,-0.025748312,-0.02955917,-0.02709148,0.2000062,0.20001341,0.20000206,0.19998771,0.1999906
21733844000,21733764000,-2.5811648,3.557815,-2.5116842,-1.2550619,0.0015830798,1.25824,2.5148816,-0.009661808,-0.014702236,-0.017872136,-0.014790757,-0.009716375,0.016035214,0.017730383,0.013460552,0.009126252,0.010717552,0.20000829,0.20000213,0.19999298,0.19999337,0.2000032
21733852000,21733772000,-2.5824044,3.5579917,-2.5116675,-1.2550452,0.0015998399,1.2582567,2.5148983,-0.009661808,-0.014702236,-0.017872136,-0.014790757,-0.009716375,0.016035214,0.017730383,0.013460552,0.009126252,0.010717552,0.20000829,0.20000213,0.19999298,0.19999337,0.2000032
21733860000,21733780000,-2.5829077,3.558063,-2.5116742,-1.2550516,0.0015932892,1.2582501,2.5148916,-0.009661808,-0.014702236,-0.017872136,-0.014790757,-0.009716375,0.016035214,0.017730383,0.013460552,0.009126252,0.010717552,0.20000829,0.20000213,0.19999298,0.19999337,0.2000032
21733868000,21733788000,-2.583252,3.558108,-2.5117052,-1.2550826,0.0015622484,1.2582191,2.5148606,-0.009661808,-0.014702236,-0.017872136,-0.014790757,-0.009716375,0.016035214,0.017730383,0.013460552,0.009126252,0.010717552,0.20000829,0.20000213,0.19999298,0.19999337,0.2000032
21733876000,21733796000,-2.5831995,3.5580957,-2.511744,-1.2551215,0.00152348,1.2581804,2.514822,-0.009661808,-0.014702236,-0.017872136,-0.014790757,-0.009716375,0.016035214,0.017730383,0.013460552,0.009126252,0.010717552,0.20000829,0.20000213,0.19999298,0.19999337,0.2000032
21733884000,21733804000,-2.5814018,3.5578432,-2.511741,-1.2551186,0.0015263909,1.2581832,2.5148249,-0.009661808,-0.014702236,-0.017872136,-0.014790757,-0.009716375,0.016035214,0.017730383,0.013460552,0.009126252,0.010717552,0.20000829,0.20000213,0.19999298,0.19999337,0.2000032
21733892000,21733812000,-2.5825036,3.558,-2.5117297,-1.2551072,0.0015377478,1.2581946,2.5148363,-0.009661808,-0.014702236,-0.017872136,-0.014790757,-0.009716375,0.016035214,0.017730383,0.013460552,0.009126252,0.010717552,0.20000829,0.20000213,0.19999298,0.19999337,0.2000032
21733900000,21733820000,-2.5818074,3.5579045,-2.511715,-1.2550924,0.0015524903,1.2582093,2.514851,-0.009661808,-0.014702236,-0.017872136,-0.014790757,-0.009716375,0.016035214,0.017730383,0.013460552,0.009126252,0.010717552,0.20000829,0.20000213,0.19999298,0.19999337,0.2000032
21733908000,21733828000,-2.5827901,3.5580487,-2.511686,-1.2550635,0.0015813457,1.2582382,2.5148797,-0.009661808,-0.014702236,-0.017872136,-0.014790757,-0.009716375,0.016035214,0.017730383,0.013460552,0.009126252,0.010717552,0.20000829,0.20000213,0.19999298,0.19999337,0.2000032
21733916000,21733836000,-2.5825346,3.5580091,-2.511711,-1.2550883,0.0015566325,1.2582134,2.5148551,-0.009661808,-0.014702236,-0.017872136,-0.014790757,-0.009716375,0.016035214,0.017730383,0.013460552,0.009126252,0.010717552,0.20000829,0.20000213,0.19999298,0.19999337,0.2000032
21733924000,21733844000,-2.581839,3.5579112,-2.511712,-1.2550898,0.0015552454,1.2582121,2.5148537,-0.009661808,-0.014702236,-0.017872136,-0.014790757,-0.009716375,0.016035214,0.017730383,0.013460552,0.009126252,0.010717552,0.20000829,0.20000213,0.19999298,0.19999337,0.2000032
21733932000,21733852000,-2.5833375,3.5581255,-2.511708,-1.2550856,0.0015593879,1.2582163,2.5148578,-0.009661808,-0.014702236,-0.017872136,-0.014790757,-0.009716375,0.016035214,0.017730383,0.013460552,0.009126252,0.010717552,0.20000829,0.20000213,0.19999298,0.19999337,0.2000032
21733940000,21733860000,-2.5814018,3.5578506,-2.5117188,-1.2550963,0.0015486332,1.2582054,2.5148473,-0.009661808,-0.014702236,-0.017872136,-0.014790757,-0.009716375,0.016035214,0.017730383,0.013460552,0.009126252,0.010717552,0.20000829,0.20000213,0.19999298,0.19999337,0.2000032
21733948000,21733868000,-2.5820954,3.5579484,-2.51172,-1.2550975,0.0015474368,1.2582042,2.5148458,-0.009661808,-0.014702236,-0.017872136,-0.014790757,-0.009716375,0.016035214,0.017730383,0.013460552,0.009126252,0.010717552,0.20000829,0.20000213,0.19999298,0.19999337,0.2000032
21733956000,21733876000,-2.5820847,3.5579472,-2.5117223,-1.2550999,0.0015450766,1.2582018,2.5148435,-0.009661808,-0.014702236,-0.017872136,-0.014790757,-0.009716375,0.016035214,0.017730383,0.013460552,0.009126252,0.010717552,0.20000829,0.20000213,0.19999298,0.19999337,0.2000032
21733964000,21733884000,-2.5826108,3.55802,-2.5117345,-1.2551119,0.0015329864,1.2581898,2.5148315,-0.009661808,-0.014702236,-0.017872136,-0.014790757,-0.009716375,0.016035214,0.017730383,0.013460552,0.009126252,0.010717552,0.20000829,0.20000213,0.19999298,0.19999337,0.2000032
21733972000,21733892000,-2.5833724,3.5581229,-2.5117795,-1.255157,0.0014879975,1.2581449,2.5147865,-0.009661808,-0.014702236,-0.017872136,-0.014790757,-0.009716375,0.016035214,0.017730383,0.013460552,0.009126252,0.010717552,0.20000829,0.20000213,0.19999298,0.19999337,0.2000032
21733980000,21733900000,-2.5822048,3.5579557,-2.5117924,-1.25517,0.0014749665,1.2581317,2.5147734,-0.009661808,-0.014702236,-0.017872136,-0.014790757,-0.009716375,0.016035214,0.017730383,0.013460552,0.009126252,0.010717552,0.20000829,0.20000213,0.19999298,0.19999337,0.2000032
21733988000,21733908000,-2.5825925,3.5580075,-2.5118172,-1.2551947,0.0014502457,1.2581071,2.5147488,-0.009661808,-0.014702236,-0.017872136,-0.014790757,-0.009716375,0.016035214,0.017730383,0.013460552,0.009126252,0.010717552,0.20000829,0.20000213,0.19999298,0.19999337,0.2000032
21733996000,21733916000,-2.581899,3.5579062,-2.5118484,-1.255226,0.0014189429,1.2580757,2.5147176,-0.009661808,-0.014702236,-0.017872136,-0.014790757,-0.009716375,0.016035214,0.017730383,0.013460552,0.009126252,0.010717552,0.20000829,0.20000213,0.19999298,0.19999337,0.2000032
21734004000,21733924000,-2.5830379,3.5580876,-2.5117102,-1.2550876,0.0015573247,1.2582142,2.5148559,-0.009661808,-0.014702236,-0.017872136,-0.014790757,-0.009716375,0.016035214,0.017730383,0.013460552,0.009126252,0.010717552,0.20000829,0.20000213,0.19999298,0.19999337,0.2000032
21734012000,21733932000,-2.582821,3.558105,-2.5113747,-1.2547522,0.0018927957,1.2585497,2.5151916,-0.009661808,-0.014702236,-0.017872136,-0.014790757,-0.009716375,0.016035214,0.017730383,0.013460552,0.009126252,0.010717552,0.20000829,0.20000213,0.19999298,0.19999337,0.2000032
21734020000,21733940000,-2.582655,3.5581026,-2.5112307,-1.2546083,0.002036723,1.2586937,2.5153353,-0.009661808,-0.014702236,-0.017872136,-0.014790757,-0.009716375,0.016035214,0.017730383,0.013460552,0.009126252,0.010717552,0.20000829,0.20000213,0.19999298,0.19999337,0.2000032
21734028000,21733948000,-2.5855222,3.55852,-2.5112348,-1.2546124,0.002032913,1.2586899,2.5153315,-0.009661808,-0.014702236,-0.017872136,-0.014790757,-0.009716375,0.016035214,0.017730383,0.013460552,0.009126252,0.010717552,0.20000829,0.20000213,0.19999298,0.19999337,0.2000032
21734036000,21733956000,-2.5886357,3.558987,-2.5112762,-1.2546537,0.0019918908,1.2586489,2.5152903,-0.009661808,-0.014702236,-0.017872136,-0.014790757,-0.009716375,0.016035214,0.017730383,0.013460552,0.009126252,0.010717552,0.20000829,0.20000213,0.19999298,0.19999337,0.2000032
21734044000,21733964000,-2.5934591,3.559722,-2.5114894,-1.2548664,0.0017792911,1.2584362,2.515077,-0.009661808,-0.014702236,-0.017872136,-0.014790757,-0.009716375,0.016035214,0.017730383,0.013460552,0.009126252,0.010717552,0.20000829,0.20000213,0.19999298,0.19999337,0.2000032
21734052000,21733972000,-2.8911817,3.696327,-2.5118806,-1.2553002,0.0014070597,1.2581444,2.5147736,-0.0042272573,-0.023618655,-0.024099495,-0.005004682,0.0072767665,0.0062260497,0.00043090899,-0.019802513,-0.026512055,-0.010425211,0.20004305,0.19999722,0.19995515,0.19997497,0.20002963
21734060000,21733980000,-2.8915803,3.696383,-2.512206,-1.2556255,0.0010816634,1.2578189,2.5144482,-0.0042272573,-0.023618655,-0.024099495,-0.005004682,0.0072767665,0.0062260497,0.00043090899,-0.019802513,-0.026512055,-0.010425211,0.20004305,0.19999722,0.19995515,0.19997497,0.20002963
21734068000,21733988000,-2.8920665,3.6964643,-2.512586,-1.2560055,0.000701675,1.2574389,2.5140681,-0.0042272573,-0.023618655,-0.024099495,-0.005004682,0.0072767665,0.0062260497,0.00043090899,-0.019802513,-0.026512055,-0.010425211,0.20004305,0.19999722,0.19995515,0.19997497,0.20002963
21734076000,21733996000,-2.8921642,3.6962779,-2.5129309,-1.2563503,0.00035682632,1.257094,2.5137234,-0.0042272573,-0.023618655,-0.024099495,-0.005004682,0.0072767665,0.0062260497,0.00043090899,-0.019802513,-0.026512055,-0.010425211,0.20004305,0.19999722,0.19995515,0.19997497,0.20002963
21734084000,21734004000,-2.8921351,3.696071,-2.5131752,-1.2565949,0.00011215933,1.2568494,2.5134788,-0.0042272573,-0.023618655,-0.024099495,-0.005004682,0.0072767665,0.0062260497,0.00043090899,-0.019802513,-0.026512055,-0.010425211,0.20004305,0.19999722,0.19995515,0.19997497,0.20002963
21734092000,21734012000,-2.8924055,3.6961102,-2.5133944,-1.2568138,-0.00010678637,1.2566304,2.51326,-0.0042272573,-0.023618655,-0.024099495,-0.005004682,0.0072767665,0.0062260497,0.00043090899,-0.019802513,-0.026512055,-0.010425211,0.20004305,0.19999722,0.19995515,0.19997497,0.20002963
21734100000,21734020000,-2.8878574,3.6925297,-2.5135994,-1.2570199,-0.0003148755,1.2564224,2.5130534,-0.0042272573,-0.023618655,-0.024099495,-0.005004682,0.0072767665,0.0062260497,0.00043090899,-0.019802513,-0.026512055,-0.010425211,0.20004305,0.19999722,0.19995515,0.19997497,0.20002963
21734108000,21734028000,-2.8882685,3.692701,-2.5137827,-1.2572033,-0.00049825036,1.256239,2.51287,-0.0042272573,-0.023618655,-0.024099495,-0.005004682,0.0072767665,0.0062260497,0.00043090899,-0.019802513,-0.026512055,-0.010425211,0.20004305,0.19999722,0.19995515,0.19997497,0.20002963
21734116000,21734036000,-2.8884034,3.6926582,-2.513976,-1.2573965,-0.0006914894,1.2560456,2.5126767,-0.0042272573,-0.023618655,-0.024099495,-0.005004682,0.0072767665,0.0062260497,0.00043090899,-0.019802513,-0.026512055,-0.010425211,0.20004305,0.19999722,0.19995515,0.19997497,0.20002963
21734124000,21734044000,-2.8879175,3.6922781,-2.513999,-1.2574195,-0.0007147888,1.2560222,2.5126534,-0.0042272573,-0.023618655,-0.024099495,-0.005004682,0.0072767665,0.0062260497,0.00043090899,-0.019802513,-0.026512055,-0.010425211,0.20004305,0.19999722,0.19995515,0.19997497,0.20002963
21734132000,21734052000,-2.8875446,3.6919963,-2.5140035,-1.2574241,-0.0007194511,1.2560176,2.512649,-0.0042272573,-0.023618655,-0.024099495,-0.005004682,0.0072767665,0.0062260497,0.00043090899,-0.019802513,-0.026512055,-0.010425211,0.20004305,0.19999722,0.19995515,0.19997497,0.20002963
21734140000,21734060000,-2.88754,3.6919885,-2.514011,-1.2574316,-0.00072698784,1.25601,2.5126414,-0.0042272573,-0.023618655,-0.024099495,-0.005004682,0.0072767665,0.0062260497,0.00043090899,-0.019802513,-0.026512055,-0.010425211,0.20004305,0.19999722,0.19995515,0.19997497,0.20002963
21734148000,21734068000,-2.887627,3.6920779,-2.5139785,-1.2573991,-0.00069447095,1.2560426,2.512674,-0.0042272573,-0.023618655,-0.024099495,-0.005004682,0.0072767665,0.0062260497,0.00043090899,-0.019802513,-0.026512055,-0.010425211,0.20004305,0.19999722,0.19995515,0.19997497,0.20002963
21734156000,21734076000,-2.8868268,3.6915228,-2.513923,-1.2573438,-0.0006392151,1.2560978,2.5127294,-0.0042272573,-0.023618655,-0.024099495,-0.005004682,0.0072767665,0.0062260497,0.00043090899,-0.019802513,-0.026512055,-0.010425211,0.20004305,0.19999722,0.19995515,0.19997497,0.20002963
21734164000,21734084000,-2.887107,3.691797,-2.5138357,-1.2572565,-0.00055183785,1.2561853,2.512817,-0.0042272573,-0.023618655,-0.024099495,-0.005004682,0.0072767665,0.0062260497,0.00043090899,-0.019802513,-0.026512055,-0.010425211,0.20004305,0.19999722,0.19995515,0.19997497,0.20002963
21734172000,21734092000,-2.886963,3.6917586,-2.513744,-1.257165,-0.000460242,1.2562768,2.5129085,-0.0042272573,-0.023618655,-0.024099495,-0.005004682,0.0072767665,0.0062260497,0.00043090899,-0.019802513,-0.026512055,-0.010425211,0.20004305,0.19999722,0.19995515,0.19997497,0.20002963
21734180000,21734100000,-2.8865113,3.6914747,-2.5136738,-1.2570947,-0.00039005364,1.2563471,2.5129788,-0.0042272573,-0.023618655,-0.024099495,-0.005004682,0.0072767665,0.0062260497,0.00043090899,-0.019802513,-0.026512055,-0.010425211,0.20004305,0.19999722,0.19995515,0.19997497,0.20002963
21734188000,21734108000,-2.886826,3.6917522,-2.5136175,-1.2570384,-0.0003337249,1.2564034,2.513035,-0.0042272573,-0.023618655,-0.024099495,-0.005004682,0.0072767665,0.0062260497,0.00043090899,-0.019802513,-0.026512055,-0.010425211,0.20004305,0.19999722,0.19995515,0.19997497,0.20002963
21734196000,21734116000,-2.8869798,3.6919007,-2.5135732,-1.2569939,-0.0002892173,1.2564479,2.5130796,-0.0042272573,-0.023618655,-0.024099495,-0.005004682,0.0072767665,0.0062260497,0.00043090899,-0.019802513,-0.026512055,-0.010425211,0.20004305,0.19999722,0.19995515,0.19997497,0.20002963
21734204000,21734124000,-2.8869674,3.691939,-2.51351,-1.2569307,-0.00022601597,1.2565112,2.5131428,-0.0042272573,-0.023618655,-0.024099495,-0.005004682,0.0072767665,0.0062260497,0.00043090899,-0.019802513,-0.026512055,-0.010425211,0.20004305,0.19999722,0.19995515,0.19997497,0.20002963
21734212000,21734132000,-2.8865716,3.6916635,-2.5134845,-1.2569053,-0.00020060223,1.2565365,2.5131683,-0.0042272573,-0.023618655,-0.024099495,-0.005004682,0.0072767665,0.0062260497,0.00043090899,-0.019802513,-0.026512055,-0.010425211,0.20004305,0.19999722,0.19995515,0.19997497,0.20002963
21734220000,21734140000,-2.886572,3.6916897,-2.5134504,-1.2568711,-0.00016642381,1.2565707,2.5132024,-0.0042272573,-0.023618655,-0.024099495,-0.005004682,0.0072767665,0.0062260497,0.00043090899,-0.019802513,-0.026512055,-0.010425211,0.20004305,0.19999722,0.19995515,0.19997497,0.20002963
21734228000,21734148000,-2.886673,3.6917682,-2.5134473,-1.256868,-0.00016331745,1.2565738,2.5132055,-0.0042272573,-0.023618655,-0.024099495,-0.005004682,0.0072767665,0.0062260497,0.00043090899,-0.019802513,-0.026512055,-0.010425211,0.20004305,0.19999722,0.19995515,0.19997497,0.20002963
21734236000,21734156000,-2.8864872,3.6916454,-2.5134265,-1.2568475,-0.00014280097,1.2565943,2.513226,-0.0042272573,-0.023618655,-0.024099495,-0.005004682,0.0072767665,0.0062260497,0.00043090899,-0.019802513,-0.026512055,-0.010425211,0.20004305,0.19999722,0.19995515,0.19997497,0.20002963
21734244000,21734164000,-2.886613,3.6917722,-2.5133839,-1.2568046,-9.9878576e-05,1.2566372,2.513269,-0.0042272573,-0.023618655,-0.024099495,-0.005004682,0.0072767665,0.0062260497,0.00043090899,-0.019802513,-0.026512055,-0.010425211,0.20004305,0.19999722,0.19995515,0.19997497,0.20002963
21734252000,21734172000,-2.8866186,3.691784,-2.5133743,-1.2567952,-9.0521586e-05,1.2566466,2.5132782,-0.0042272573,-0.023618655,-0.024099495,-0.005004682,0.0072767665,0.0062260497,0.00043090899,-0.019802513,-0.026512055,-0.010425211,0.20004305,0.19999722,0.19995515,0.19997497,0.20002963
21734260000,21734180000,-2.8866432,3.6918101,-2.5133643,-1.2567852,-8.0406106e-05,1.2566568,2.5132885,-0.0042272573,-0.023618655,-0.024099495,-0.005004682,0.0072767665,0.0062260497,0.00043090899,-0.019802513,-0.026512055,-0.010425211,0.20004305,0.19999722,0.19995515,0.19997497,0.20002963
21734268000,21734188000,-2.8866656,3.6918397,-2.513348,-1.2567688,-6.413717e-05,1.256673,2.5133047,-0.0042272573,-0.023618655,-0.024099495,-0.005004682,0.0072767665,0.0062260497,0.00043090899,-0.019802513,-0.026512055,-0.010425211,0.20004305,0.19999722,0.19995515,0.19997497,0.20002963
21734276000,21734196000,-2.88662,3.6917944,-2.5133643,-1.256785,-8.037052e-05,1.2566568,2.5132885,-0.0042272573,-0.023618655,-0.024099495,-0.005004682,0.0072767665,0.0062260497,0.00043090899,-0.019802513,-0.026512055,-0.010425211,0.20004305,0.19999722,0.19995515,0.19997497,0.20002963
21734284000,21734204000,-2.886146,3.6914046,-2.513414,-1.2568349,-0.00013019767,1.2566069,2.5132387,-0.0042272573,-0.023618655,-0.024099495,-0.005004682,0.0072767665,0.0062260497,0.00043090899,-0.019802513,-0.026512055,-0.010425211,0.20004305,0.19999722,0.19995515,0.19997497,0.20002963
21734292000,21734212000,-2.8866673,3.6917346,-2.513493,-1.2569139,-0.00020933141,1.2565278,2.5131595,-0.0042272573,-0.023618655,-0.024099495,-0.005004682,0.0072767665,0.0062260497,0.00043090899,-0.019802513,-0.026512055,-0.010425211,0.20004305,0.19999722,0.19995515,0.19997497,0.20002963
21734300000,21734220000,-2.8865442,3.6916869,-2.513436,-1.2568568,-0.0001522166,1.2565848,2.5132165,-0.0042272573,-0.023618655,-0.024099495,-0.005004682,0.0072767665,0.0062260497,0.00043090899,-0.019802513,-0.026512055,-0.010425211,0.20004305,0.19999722,0.19995515,0.19997497,0.20002963
21734308000,21734228000,-2.8861265,3.6913316,-2.5134952,-1.2569159,-0.00021166506,1.2565252,2.5131571,-0.0042272573,-0.023618655,-0.024099495,-0.005004682,0.0072767665,0.0062260497,0.00043090899,-0.019802513,-0.026512055,-0.010425211,0.20004305,0.19999722,0.19995515,0.19997497,0.20002963
21734316000,21734236000,-2.8860335,3.6912274,-2.5135431,-1.2569638,-0.0002596414,1.2564771,2.5131092,-0.0042272573,-0.023618655,-0.024099495,-0.005004682,0.0072767665,0.0062260497,0.00043090899,-0.019802513,-0.026512055,-0.010425211,0.20004305,0.19999722,0.19995515,0.19997497,0.20002963
21734324000,21734244000,-2.8863947,3.6914568,-2.5135975,-1.2570181,-0.00031391182,1.256423,2.5130548,-0.0042272573,-0.023618655,-0.024099495,-0.005004682,0.0072767665,0.0062260497,0.00043090899,-0.019802513,-0.026512055,-0.010425211,0.20004305,0.19999722,0.19995515,0.19997497,0.20002963
21734332000,21734252000,-2.8860817,3.6912553,-2.5135553,-1.256976,-0.00027180364,1.2564651,2.513097,-0.0042272573,-0.023618655,-0.024099495,-0.005004682,0.0072767665,0.0062260497,0.00043090899,-0.019802513,-0.026512055,-0.010425211,0.20004305,0.19999722,0.19995515,0.19997497,0.20002963
21734340000,21734260000,-2.886009,3.6912036,-2.513553,-1.2569737,-0.00026950781,1.2564673,2.5130994,-0.0042272573,-0.023618655,-0.024099495,-0.005004682,0.0072767665,0.0062260497,0.00043090899,-0.019802513,-0.026512055,-0.010425211,0.20004305,0.19999722,0.19995515,0.19997497,0.20002963
21734348000,21734268000,-2.885833,3.691067,-2.5135608,-1.2569817,-0.00027745322,1.2564595,2.5130916,-0.0042272573,-0.023618655,-0.024099495,-0.005004682,0.0072767665,0.0062260497,0.00043090899,-0.019802513,-0.026512055,-0.010425211,0.20004305,0.19999722,0.19995515,0.19997497,0.20002963
21734356000,21734276000,-2.8860767,3.6912658,-2.5135388,-1.2569597,-0.00025542552,1.2564815,2.5131135,-0.0042272573,-0.023618655,-0.024099495,-0.005004682,0.0072767665,0.0062260497,0.00043090899,-0.019802513,-0.026512055,-0.010425211,0.20004305,0.19999722,0.19995515,0.19997497,0.20002963
21734364000,21734284000,-2.8862529,3.691422,-2.5135062,-1.256927,-0.00022273867,1.2565143,2.5131462,-0.0042272573,-0.023618655,-0.024099495,-0.005004682,0.0072767665,0.0062260497,0.00043090899,-0.019802513,-0.026512055,-0.010425211,0.20004305,0.19999722,0.19995515,0.19997497,0.20002963
21734372000,21734292000,-2.8861406,3.6913595,-2.5134778,-1.2568986,-0.00019423643,1.2565428,2.5131748,-0.0042272573,-0.023618655,-0.024099495,-0.005004682,0.0072767665,0.0062260497,0.00043090899,-0.019802513,-0.026512055,-0.010425211,0.20004305,0.19999722,0.19995515,0.19997497,0.20002963
21734380000,21734300000,-2.885847,3.6911836,-2.5134218,-1.2568426,-0.00013825421,1.2565987,2.5132308,-0.0042272573,-0.023618655,-0.024099495,-0.005004682,0.0072767665,0.0062260497,0.00043090899,-0.019802513,-0.026512055,-0.010425211,0.20004305,0.19999722,0.19995515,0.19997497,0.20002963
21734388000,21734308000,-2.885934,3.691273,-2.513389,-1.2568101,-0.000105695275,1.2566314,2.5132635,-0.0042272573,-0.023618655,-0.024099495,-0.005004682,0.0072767665,0.0062260497,0.00043090899,-0.019802513,-0.026512055,-0.010425211,0.20004305,0.19999722,0.19995515,0.19997497,0.20002963
21734396000,21734316000,-2.8862412,3.6914806,-2.5134187,-1.2568395,-0.00013508521,1.256602,2.513234,-0.0042272573,-0.023618655,-0.024099495,-0.005004682,0.0072767665,0.0062260497,0.00043090899,-0.019802513,-0.026512055,-0.010425211,0.20004305,0.19999722,0.19995515,0.19997497,0.20002963
21734404000,21734324000,-2.8858986,3.6912074,-2.513444,-1.2568648,-0.00016033238,1.2565768,2.5132089,-0.0042272573,-0.023618655,-0.024099495,-0.005004682,0.0072767665,0.0062260497,0.00043090899,-0.019802513,-0.026512055,-0.010425211,0.20004305,0.19999722,0.19995515,0.19997497,0.20002963
21734412000,21734332000,-2.8857648,3.6910748,-2.5134883,-1.2569091,-0.00020477803,1.2565323,2.5131645,-0.0042272573,-0.023618655,-0.024099495,-0.005004682,0.0072767665,0.0062260497,0.00043090899,-0.019802513,-0.026512055,-0.010425211,0.20004305,0.19999722,0.19995515,0.19997497,0.20002963
21734420000,21734340000,-1.0646974,3.5882885,-2.5132656,-1.2568113,-0.00041788223,1.2562517,2.5131528,0.026731988,-0.011313746,-0.0031412076,0.039960142,0.05841855,0.03872666,0.017772725,-0.024889747,-0.030297019,0.009021789,0.20001392,0.2001133,0.20005597,0.19992124,0.1998956
21734428000,21734348000,-1.0649276,3.5882194,-2.5133142,-1.25686,-0.0004665622,1.256203,2.5131044,0.026731988,-0.011313746,-0.0031412076,0.039960142,0.05841855,0.03872666,0.017772725,-0.024889747,-0.030297019,0.009021789,0.20001392,0.2001133,0.20005597,0.19992124,0.1998956
21734436000,21734356000,-1.0656033,3.5879667,-2.5133157,-1.2568593,-0.00046233076,1.2562075,2.5131054,0.026731988,-0.011313746,-0.0031412076,0.039960142,0.05841855,0.03872666,0.017772725,-0.024889747,-0.030297019,0.009021789,0.20001392,0.2001133,0.20005597,0.19992124,0.1998956
21734444000,21734364000,-1.0654755,3.5880213,-2.513329,-1.2568728,-0.00047585985,1.2561939,2.5130918,0.026731988,-0.011313746,-0.0031412076,0.039960142,0.05841855,0.03872666,0.017772725,-0.024889747,-0.030297019,0.009021789,0.20001392,0.2001133,0.20005597,0.19992124,0.1998956
21734452000,21734372000,-1.0654546,3.5880249,-2.5133152,-1.2568587,-0.00046174944,1.256208,2.5131059,0.026731988,-0.011313746,-0.0031412076,0.039960142,0.05841855,0.03872666,0.017772725,-0.024889747,-0.030297019,0.009021789,0.20001392,0.2001133,0.20005597,0.19992124,0.1998956
21734460000,21734380000,-1.0654355,3.588033,-2.513316,-1.2568595,-0.00046264403,1.2562071,2.513105,0.026731988,-0.011313746,-0.0031412076,0.039960142,0.05841855,0.03872666,0.017772725,-0.024889747,-0.030297019,0.009021789,0.20001392,0.2001133,0.20005597,0.19992124,0.1998956
21734468000,21734388000,-1.0655209,3.588009,-2.5133374,-1.2568809,-0.00048388893,1.2561859,2.5130837,0.026731988,-0.011313746,-0.0031412076,0.039960142,0.05841855,0.03872666,0.017772725,-0.024889747,-0.030297019,0.009021789,0.20001392,0.2001133,0.20005597,0.19992124,0.1998956
21734476000,21734396000,-1.0655292,3.5879962,-2.5133107,-1.2568543,-0.000457365,1.2562125,2.5131104,0.026731988,-0.011313746,-0.0031412076,0.039960142,0.05841855,0.03872666,0.017772725,-0.024889747,-0.030297019,0.009021789,0.20001392,0.2001133,0.20005597,0.19992124,0.1998956
21734484000,21734404000,-1.0658531,3.5879009,-2.5133822,-1.2569258,-0.0005284781,1.2561415,2.513039,0.026731988,-0.011313746,-0.0031412076,0.039960142,0.05841855,0.03872666,0.017772725,-0.024889747,-0.030297019,0.009021789,0.20001392,0.2001133,0.20005597,0.19992124,0.1998956
21734492000,21734412000,-1.0658842,3.5878968,-2.513401,-1.2569444,-0.0005471297,1.2561228,2.5130205,0.026731988,-0.011313746,-0.0031412076,0.039960142,0.05841855,0.03872666,0.017772725,-0.024889747,-0.030297019,0.009021789,0.20001392,0.2001133,0.20005597,0.19992124,0.1998956
21734500000,21734420000,-1.0657418,3.5879378,-2.513364,-1.2569075,-0.0005101972,1.2561598,2.5130572,0.026731988,-0.011313746,-0.0031412076,0.039960142,0.05841855,0.03872666,0.017772725,-0.024889747,-0.030297019,0.009021789,0.20001392,0.2001133,0.20005597,0.19992124,0.1998956
21734508000,21734428000,-1.0657058,3.5879395,-2.5133305,-1.256874,-0.00047659065,1.2561934,2.5130908,0.026731988,-0.011313746,-0.0031412076,0.039960142,0.05841855,0.03872666,0.017772725,-0.024889747,-0.030297019,0.009021789,0.20001392,0.2001133,0.20005597,0.19992124,0.1998956
21734516000,21734436000,-1.0657077,3.5879192,-2.5132778,-1.2568213,-0.00042386953,1.2562461,2.5131435,0.026731988,-0.011313746,-0.0031412076,0.039960142,0.05841855,0.03872666,0.017772725,-0.024889747,-0.030297019,0.009021789,0.20001392,0.2001133,0.20005597,0.19992124,0.1998956
21734524000,21734444000,-1.0656693,3.5879152,-2.513227,-1.2567706,-0.0003731829,1.2562968,2.5131943,0.026731988,-0.011313746,-0.0031412076,0.039960142,0.05841855,0.03872666,0.017772725,-0.024889747,-0.030297019,0.009021789,0.20001392,0.2001133,0.20005597,0.19992124,0.1998956
21734532000,21734452000,-1.0655752,3.5879383,-2.5131922,-1.2567359,-0.0003385089,1.2563314,2.513229,0.026731988,-0.011313746,-0.0031412076,0.039960142,0.05841855,0.03872666,0.017772725,-0.024889747,-0.030297019,0.009021789,0.20001392,0.2001133,0.20005597,0.19992124,0.1998956
21734540000,21734460000,-1.0654954,3.5879335,-2.5130978,-1.2566413,-0.00024398252,1.256426,2.5133235,0.026731988,-0.011313746,-0.0031412076,0.039960142,0.05841855,0.03872666,0.017772725,-0.024889747,-0.030297019,0.009021789,0.20001392,0.2001133,0.20005597,0.19992124,0.1998956
21734548000,21734468000,-1.0643251,3.5883522,-2.5130343,-1.2565801,-0.00018713318,1.2564824,2.5133839,0.026731988,-0.011313746,-0.0031412076,0.039960142,0.05841855,0.03872666,0.017772725,-0.024889747,-0.030297019,0.009021789,0.20001392,0.2001133,0.20005597,0.19992124,0.1998956
21734556000,21734476000,-1.064387,3.5883274,-2.51303,-1.2565757,-0.00018265628,1.2564869,2.5133884,0.026731988,-0.011313746,-0.0031412076,0.039960142,0.05841855,0.03872666,0.017772725,-0.024889747,-0.030297019,0.009021789,0.20001392,0.2001133,0.20005597,0.19992124,0.1998956
21734564000,21734484000,-1.0644096,3.5883143,-2.5130167,-1.2565625,-0.00016941954,1.2565001,2.5134017,0.026731988,-0.011313746,-0.0031412076,0.039960142,0.05841855,0.03872666,0.017772725,-0.024889747,-0.030297019,0.009021789,0.20001392,0.2001133,0.20005597,0.19992124,0.1998956
21734572000,21734492000,-1.0644884,3.588281,-2.5130076,-1.2565534,-0.00016029616,1.2565093,2.5134108,0.026731988,-0.011313746,-0.0031412076,0.039960142,0.05841855,0.03872666,0.017772725,-0.024889747,-0.030297019,0.009021789,0.20001392,0.2001133,0.20005597,0.19992124,0.1998956
21734580000,21734500000,-1.0643781,3.5883088,-2.5129685,-1.2565141,-0.0001210699,1.2565484,2.5134501,0.026731988,-0.011313746,-0.0031412076,0.039960142,0.05841855,0.03872666,0.017772725,-0.024889747,-0.030297019,0.009021789,0.20001392,0.2001133,0.20005597,0.19992124,0.1998956
21734588000,21734508000,-1.0644277,3.5882828,-2.512949,-1.2564946,-0.00010158754,1.256568,2.5134697,0.026731988,-0.011313746,-0.0031412076,0.039960142,0.05841855,0.03872666,0.017772725,-0.024889747,-0.030297019,0.009021789,0.20001392,0.2001133,0.20005597,0.19992124,0.1998956
21734596000,21734516000,-1.0644332,3.5882692,-2.5129173,-1.2564629,-6.9866655e-05,1.2565997,2.5135014,0.026731988,-0.011313746,-0.0031412076,0.039960142,0.05841855,0.03872666,0.017772725,-0.024889747,-0.030297019,0.009021789,0.20001392,0.2001133,0.20005597,0.19992124,0.1998956
21734604000,21734524000,-1.0643936,3.5883005,-2.5129564,-1.2565022,-0.00010912814,1.2565604,2.513462,0.026731988,-0.011313746,-0.0031412076,0.039960142,0.05841855,0.03872666,0.017772725,-0.024889747,-0.030297019,0.009021789,0.20001392,0.2001133,0.20005597,0.19992124,0.1998956
21734612000,21734532000,-1.0643922,3.588308,-2.5129733,-1.256519,-0.00012593229,1.2565436,2.5134454,0.026731988,-0.011313746,-0.0031412076,0.039960142,0.05841855,0.03872666,0.017772725,-0.024889747,-0.030297019,0.009021789,0.20001392,0.2001133,0.20005597,0.19992124,0.1998956
21734620000,21734540000,-1.064522,3.5882688,-2.5129995,-1.2565452,-0.00015214733,1.2565174,2.5134192,0.026731988,-0.011313746,-0.0031412076,0.039960142,0.05841855,0.03872666,0.017772725,-0.024889747,-0.030297019,0.009021789,0.20001392,0.2001133,0.20005597,0.19992124,0.1998956
21734628000,21734548000,-1.3070693,3.5533235,-2.5129764,-1.2566385,-0.00027871315,1.2564865,2.5134804,0.004572631,-0.0175091,-0.004148051,0.026201105,0.03159353,0.017507868,-0.0037223045,-0.03128545,-0.027098166,0.003065087,0.20005497,0.20015495,0.20004061,0.19987017,0.19987933
21734636000,21734556000,-1.3072032,3.553332,-2.5130274,-1.2566895,-0.00032968284,1.2564356,2.5134296,0.004572631,-0.0175091,-0.004148051,0.026201105,0.03159353,0.017507868,-0.0037223045,-0.03128545,-0.027098166,0.003065087,0.20005497,0.20015495,0.20004061,0.19987017,0.19987933
21734644000,21734564000,-1.3071893,3.5533285,-2.5130594,-1.2567214,-0.0003615825,1.2564037,2.5133977,0.004572631,-0.0175091,-0.004148051,0.026201105,0.03159353,0.017507868,-0.0037223045,-0.03128545,-0.027098166,0.003065087,0.20005497,0.20015495,0.20004061,0.19987017,0.19987933
21734652000,21734572000,-1.3054692,3.5531573,-2.512989,-1.2566532,-0.00029793542,1.2564666,2.5134652,0.004572631,-0.0175091,-0.004148051,0.026201105,0.03159353,0.017507868,-0.0037223045,-0.03128545,-0.027098166,0.003065087,0.20005497,0.20015495,0.20004061,0.19987017,0.19987933
21734660000,21734580000,-1.3074657,3.5533535,-2.513105,-1.256767,-0.00040693788,1.2563586,2.5133524,0.004572631,-0.0175091,-0.004148051,0.026201105,0.03159353,0.017507868,-0.0037223045,-0.03128545,-0.027098166,0.003065087,0.20005497,0.20015495,0.20004061,0.19987017,0.19987933
21734668000,21734588000,-1.3075932,3.553366,-2.5131145,-1.2567766,-0.00041636179,1.2563492,2.513343,0.004572631,-0.0175091,-0.004148051,0.026201105,0.03159353,0.017507868,-0.0037223045,-0.03128545,-0.027098166,0.003065087,0.20005497,0.20015495,0.20004061,0.19987017,0.19987933
21734676000,21734596000,-1.3075625,3.5533664,-2.5130844,-1.2567465,-0.00038635623,1.2563792,2.5133731,0.004572631,-0.0175091,-0.004148051,0.026201105,0.03159353,0.017507868,-0.0037223045,-0.03128545,-0.027098166,0.003065087,0.20005497,0.20015495,0.20004061,0.19987017,0.19987933
21734684000,21734604000,-1.3075502,3.553366,-2.513084,-1.256746,-0.0003858882,1.2563797,2.5133736,0.004572631,-0.0175091,-0.004148051,0.026201105,0.03159353,0.017507868,-0.0037223045,-0.03128545,-0.027098166,0.003065087,0.20005497,0.20015495,0.20004061,0.19987017,0.19987933
21734692000,21734612000,-1.307561,3.553367,-2.5130942,-1.2567562,-0.00039603355,1.2563696,2.5133634,0.004572631,-0.0175091,-0.004148051,0.026201105,0.03159353,0.017507868,-0.0037223045,-0.03128545,-0.027098166,0.003065087,0.20005497,0.20015495,0.20004061,0.19987017,0.19987933
21734700000,21734620000,-1.3075342,3.5533657,-2.5130827,-1.2567447,-0.00038463494,1.256381,2.5133748,0.004572631,-0.0175091,-0.004148051,0.026201105,0.03159353,0.017507868,-0.0037223045,-0.03128545,-0.027098166,0.003065087,0.20005497,0.20015495,0.20004061,0.19987017,0.19987933
21734708000,21734628000,-1.3075266,3.5533676,-2.513066,-1.256728,-0.0003679028,1.2563977,2.5133915,0.004572631,-0.0175091,-0.004148051,0.026201105,0.03159353,0.017507868,-0.0037223045,-0.03128545,-0.027098166,0.003065087,0.20005497,0.20015495,0.20004061,0.19987017,0.19987933
21734716000,21734636000,-1.307524,3.5533724,-2.513023,-1.2566847,-0.00032456755,1.2564411,2.513435,0.004572631,-0.0175091,-0.004148051,0.026201105,0.03159353,0.017507868,-0.0037223045,-0.03128545,-0.027098166,0.003065087,0.20005497,0.20015495,0.20004061,0.19987017,0.19987933
21734724000,21734644000,-1.3074414,3.5533688,-2.5129805,-1.2566425,-0.00028231964,1.2564833,2.513477,0.004572631,-0.0175091,-0.004148051,0.026201105,0.03159353,0.017507868,-0.0037223045,-0.03128545,-0.027098166,0.003065087,0.20005497,0.20015495,0.20004061,0.19987017,0.19987933
21734732000,21734652000,-1.3073393,3.5533657,-2.5129166,-1.2565787,-0.00021855069,1.2565471,2.5135407,0.004572631,-0.0175091,-0.004148051,0.026201105,0.03159353,0.017507868,-0.0037223045,-0.03128545,-0.027098166,0.003065087,0.20005497,0.20015495,0.20004061,0.19987017,0.19987933
21734740000,21734660000,-1.3073173,3.5533676,-2.5128818,-1.2565438,-0.000183594,1.256582,2.5135758,0.004572631,-0.0175091,-0.004148051,0.026201105,0.03159353,0.017507868,-0.0037223045,-0.03128545,-0.027098166,0.003065087,0.20005497,0.20015495,0.20004061,0.19987017,0.19987933
21734748000,21734668000,-1.3073449,3.553375,-2.512846,-1.256508,-0.00014776856,1.2566179,2.5136116,0.004572631,-0.0175091,-0.004148051,0.026201105,0.03159353,0.017507868,-0.0037223045,-0.03128545,-0.027098166,0.003065087,0.20005497,0.20015495,0.20004061,0.19987017,0.19987933
21734756000,21734676000,-1.307279,3.5533714,-2.5128129,-1.256475,-0.000114834475,1.2566508,2.5136447,0.004572631,-0.0175091,-0.004148051,0.026201105,0.03159353,0.017507868,-0.0037223045,-0.03128545,-0.027098166,0.003065087,0.20005497,0.20015495,0.20004061,0.19987017,0.19987933
21734764000,21734684000,-1.3072782,3.553373,-2.512805,-1.256467,-0.00010685168,1.2566588,2.5136526,0.004572631,-0.0175091,-0.004148051,0.026201105,0.03159353,0.017507868,-0.0037223045,-0.03128545,-0.027098166,0.003065087,0.20005497,0.20015495,0.20004061,0.19987017,0.19987933
21734772000,21734692000,-1.3072538,3.5533726,-2.5127926,-1.2564546,-9.448137e-05,1.2566712,2.513665,0.004572631,-0.0175091,-0.004148051,0.026201105,0.03159353,0.017507868,-0.0037223045,-0.03128545,-0.027098166,0.003065087,0.20005497,0.20015495,0.20004061,0.19987017,0.19987933
21734780000,21734700000,-1.3072062,3.553367,-2.5128045,-1.2564666,-0.00010651137,1.2566592,2.5136528,0.004572631,-0.0175091,-0.004148051,0.026201105,0.03159353,0.017507868,-0.0037223045,-0.03128545,-0.027098166,0.003065087,0.20005497,0.20015495,0.20004061,0.19987017,0.19987933
21734788000,21734708000,-1.3072755,3.5533748,-2.512806,-1.256468,-0.000107809654,1.2566578,2.5136516,0.004572631,-0.0175091,-0.004148051,0.026201105,0.03159353,0.017507868,-0.0037223045,-0.03128545,-0.027098166,0.003065087,0.20005497,0.20015495,0.20004061,0.19987017,0.19987933
21734796000,21734716000,-1.3073366,3.5533807,-2.512814,-1.256476,-0.00011578878,1.2566499,2.5136437,0.004572631,-0.0175091,-0.004148051,0.026201105,0.03159353,0.017507868,-0.0037223045,-0.03128545,-0.027098166,0.003065087,0.20005497,0.20015495,0.20004061,0.19987017,0.19987933
21734804000,21734724000,-1.3073316,3.5533836,-2.5127869,-1.2564489,-8.8631656e-05,1.256677,2.513671,0.004572631,-0.0175091,-0.004148051,0.026201105,0.03159353,0.017507868,-0.0037223045,-0.03128545,-0.027098166,0.003065087,0.20005497,0.20015495,0.20004061,0.19987017,0.19987933
21734812000,21734732000,-1.3072683,3.553376,-2.5128033,-1.2564653,-0.00010520763,1.2566605,2.5136542,0.004572631,-0.0175091,-0.004148051,0.026201105,0.03159353,0.017507868,-0.0037223045,-0.03128545,-0.027098166,0.003065087,0.20005497,0.20015495,0.20004061,0.19987017,0.19987933
21734820000,21734740000,-1.3071898,3.5533695,-2.5127954,-1.2564576,-9.7423916e-05,1.2566682,2.5136619,0.004572631,-0.0175091,-0.004148051,0.026201105,0.03159353,0.017507868,-0.0037223045,-0.03128545,-0.027098166,0.003065087,0.20005497,0.20015495,0.20004061,0.19987017,0.19987933
21734828000,21734748000,-1.3074133,3.5533965,-2.5127602,-1.2564223,-6.199105e-05,1.2567039,2.5136976,0.004572631,-0.0175091,-0.004148051,0.026201105,0.03159353,0.017507868,-0.0037223045,-0.03128545,-0.027098166,0.003065087,0.20005497,0.20015495,0.20004061,0.19987017,0.19987933
21734836000,21734756000,-1.2267958,3.5512266,-2.5127497,-1.256453,-0.00017026375,1.2565888,2.513656,-0.0045988336,-0.003704194,0.0117886355,0.02047712,0.0103454515,0.020384852,0.004384377,0.00028635561,0.013757654,0.026183259,0.20005198,0.20018667,0.20006315,0.19985244,0.19984579
21734844000,21734764000,-1.2268302,3.5512257,-2.5127566,-1.2564601,-0.0001773019,1.2565818,2.513649,-0.0045988336,-0.003704194,0.0117886355,0.02047712,0.0103454515,0.020384852,0.004384377,0.00028635561,0.013757654,0.026183259,0.20005198,0.20018667,0.20006315,0.19985244,0.19984579
21734852000,21734772000,-1.2268732,3.551226,-2.5127954,-1.2564988,-0.00021610255,1.256543,2.5136101,-0.0045988336,-0.003704194,0.0117886355,0.02047712,0.0103454515,0.020384852,0.004384377,0.00028635561,0.013757654,0.026183259,0.20005198,0.20018667,0.20006315,0.19985244,0.19984579
21734860000,21734780000,-1.2268273,3.551231,-2.5128222,-1.2565258,-0.0002429682,1.2565161,2.5135832,-0.0045988336,-0.003704194,0.0117886355,0.02047712,0.0103454515,0.020384852,0.004384377,0.00028635561,0.013757654,0.026183259,0.20005198,0.20018667,0.20006315,0.19985244,0.19984579
21734868000,21734788000,-1.2268353,3.5512307,-2.5128195,-1.2565229,-0.00024019238,1.2565188,2.513586,-0.0045988336,-0.003704194,0.0117886355,0.02047712,0.0103454515,0.020384852,0.004384377,0.00028635561,0.013757654,0.026183259,0.20005198,0.20018667,0.20006315,0.19985244,0.19984579
21734876000,21734796000,-1.2268491,3.5512316,-2.5128345,-1.256538,-0.00025533137,1.2565037,2.5135708,-0.0045988336,-0.003704194,0.0117886355,0.02047712,0.0103454515,0.020384852,0.004384377,0.00028635561,0.013757654,0.026183259,0.20005198,0.20018667,0.20006315,0.19985244,0.19984579
21734884000,21734804000,-1.2269316,3.5512285,-2.5128489,-1.2565522,-0.00026941486,1.2564896,2.5135567,-0.0045988336,-0.003704194,0.0117886355,0.02047712,0.0103454515,0.020384852,0.004384377,0.00028635561,0.013757654,0.026183259,0.20005198,0.20018667,0.20006315,0.19985244,0.19984579
21734892000,21734812000,-1.2268509,3.5512328,-2.5128393,-1.2565428,-0.00026008923,1.256499,2.513566,-0.0045988336,-0.003704194,0.0117886355,0.02047712,0.0103454515,0.020384852,0.004384377,0.00028635561,0.013757654,0.026183259,0.20005198,0.20018667,0.20006315,0.19985244,0.19984579
21734900000,21734820000,-1.2268319,3.5512347,-2.5128343,-1.2565378,-0.00025505087,1.256504,2.513571,-0.0045988336,-0.003704194,0.0117886355,0.02047712,0.0103454515,0.020384852,0.004384377,0.00028635561,0.013757654,0.026183259,0.20005198,0.20018667,0.20006315,0.19985244,0.19984579
21734908000,21734828000,-1.2268298,3.5512333,-2.5127974,-1.256501,-0.00021814789,1.256541,2.513608,-0.0045988336,-0.003704194,0.0117886355,0.02047712,0.0103454515,0.020384852,0.004384377,0.00028635561,0.013757654,0.026183259,0.20005198,0.20018667,0.20006315,0.19985244,0.19984579
21734916000,21734836000,-1.2269303,3.5512278,-2.5128021,-1.2565055,-0.00022266406,1.2565365,2.5136037,-0.0045988336,-0.003704194,0.0117886355,0.02047712,0.0103454515,0.020384852,0.004384377,0.00028635561,0.013757654,0.026183259,0.20005198,0.20018667,0.20006315,0.19985244,0.19984579
21734924000,21734844000,-1.2267944,3.5512369,-2.512796,-1.2564994,-0.00021665066,1.2565424,2.5136094,-0.0045988336,-0.003704194,0.0117886355,0.02047712,0.0103454515,0.020384852,0.004384377,0.00028635561,0.013757654,0.026183259,0.20005198,0.20018667,0.20006315,0.19985244,0.19984579
21734932000,21734852000,-1.2268422,3.5512333,-2.5127816,-1.256485,-0.00020216207,1.256557,2.513624,-0.0045988336,-0.003704194,0.0117886355,0.02047712,0.0103454515,0.020384852,0.004384377,0.00028635561,0.013757654,0.026183259,0.20005198,0.20018667,0.20006315,0.19985244,0.19984579
21734940000,21734860000,-1.2268559,3.5512333,-2.512783,-1.2564864,-0.00020365912,1.2565556,2.5136225,-0.0045988336,-0.003704194,0.0117886355,0.02047712,0.0103454515,0.020384852,0.004384377,0.00028635561,0.013757654,0.026183259,0.20005198,0.20018667,0.20006315,0.19985244,0.19984579
21734948000,21734868000,-1.2268811,3.5512314,-2.5127707,-1.2564743,-0.00019140207,1.2565677,2.513635,-0.0045988336,-0.003704194,0.0117886355,0.02047712,0.0103454515,0.020384852,0.004384377,0.00028635561,0.013757654,0.026183259,0.20005198,0.20018667,0.20006315,0.19985244,0.19984579
21734956000,21734876000,-1.2267601,3.5512373,-2.51273,-1.2564332,-0.00015049436,1.2566086,2.5136757,-0.0045988336,-0.003704194,0.0117886355,0.02047712,0.0103454515,0.020384852,0.004384377,0.00028635561,0.013757654,0.026183259,0.20005198,0.20018667,0.20006315,0.19985244,0.19984579
21734964000,21734884000,-1.2267429,3.5512362,-2.512689,-1.2563926,-0.00010981051,1.2566493,2.5137165,-0.0045988336,-0.003704194,0.0117886355,0.02047712,0.0103454515,0.020384852,0.004384377,0.00028635561,0.013757654,0.026183259,0.20005198,0.20018667,0.20006315,0.19985244,0.19984579
21734972000,21734892000,-1.2267244,3.5512383,-2.5126977,-1.2564011,-0.00011829914,1.2566408,2.5137079,-0.0045988336,-0.003704194,0.0117886355,0.02047712,0.0103454515,0.020384852,0.004384377,0.00028635561,0.013757654,0.026183259,0.20005198,0.20018667,0.20006315,0.19985244,0.19984579
21734980000,21734900000,-1.2267631,3.5512369,-2.5126905,-1.2563939,-0.00011106683,1.2566481,2.513715,-0.0045988336,-0.003704194,0.0117886355,0.02047712,0.0103454515,0.020384852,0.004384377,0.00028635561,0.013757654,0.026183259,0.20005198,0.20018667,0.20006315,0.19985244,0.19984579
21734988000,21734908000,-1.2267923,3.551236,-2.5127013,-1.2564048,-0.000121934776,1.2566372,2.5137043,-0.0045988336,-0.003704194,0.0117886355,0.02047712,0.0103454515,0.020384852,0.004384377,0.00028635561,0.013757654,0.026183259,0.20005198,0.20018667,0.20006315,0.19985244,0.19984579
21734996000,21734916000,-1.2267731,3.551239,-2.5127273,-1.2564307,-0.0001479512,1.2566111,2.5136783,-0.0045988336,-0.003704194,0.0117886355,0.02047712,0.0103454515,0.020384852,0.004384377,0.00028635561,0.013757654,0.026183259,0.20005198,0.20018667,0.20006315,0.19985244,0.19984579
21735004000,21734924000,-1.2243162,3.5513732,-2.5125802,-1.2562853,-8.627446e-06,1.2567484,2.5138204,-0.0045988336,-0.003704194,0.0117886355,0.02047712,0.0103454515,0.020384852,0.004384377,0.00028635561,0.013757654,0.026183259,0.20005198,0.20018667,0.20006315,0.19985244,0.19984579
21735012000,21734932000,-1.2269548,3.5512257,-2.5126536,-1.2563573,-7.412356e-05,1.2566853,2.5137522,-0.0045988336,-0.003704194,0.0117886355,0.02047712,0.0103454515,0.020384852,0.004384377,0.00028635561,0.013757654,0.026183259,0.20005198,0.20018667,0.20006315,0.19985244,0.19984579
