timestamp,timestamp_sample,gps_hvel[0],gps_hvel[1],gps_vvel,gps_hpos[0],gps_hpos[1],gps_vpos,ev_hvel[0],ev_hvel[1],ev_vvel,ev_hpos[0],ev_hpos[1],ev_vpos,rng_vpos,baro_vpos,aux_hvel[0],aux_hvel[1],aux_vvel,flow[0],flow[1],heading,mag_field[0],mag_field[1],mag_field[2],drag[0],drag[1],airspeed,beta,hagl,hagl_rate
21726672000,21726592000,0.090134524,0.09013452,0.20263943,1.0012062,1.0012062,0.0,0.0,0.0,0.0,0.0,0.0,0.0,0.0,12.25307,0.0,0.0,nan,0.0,0.0,0.09032131,0.0025277627,0.0025353718,0.0025372955,0.0,0.0,0.0,0.0,0.0,0.0
21727168000,21727088000,0.09014338,0.09014338,0.20264894,1.001205,1.001205,0.0,0.0,0.0,0.0,0.0,0.0,0.0,0.0,12.253063,0.0,0.0,nan,0.0,0.0,0.09032141,0.0025277627,0.0025353718,0.0025372955,0.0,0.0,0.0,0.0,0.0,0.0
21727672000,21727592000,0.09014339,0.09014339,0.20264894,1.0012037,1.0012037,0.0,0.0,0.0,0.0,0.0,0.0,0.0,0.0,12.253059,0.0,0.0,nan,0.0,0.0,0.09032137,0.0025277627,0.0025353718,0.0025372955,0.0,0.0,0.0,0.0,0.0,0.0
21728168000,21728088000,0.09008256,0.09008256,0.20258452,1.0012025,1.0012023,0.0,0.0,0.0,0.0,0.0,0.0,0.0,0.0,12.253057,0.0,0.0,nan,0.0,0.0,0.09032134,0.0025277627,0.0025353718,0.0025372955,0.0,0.0,0.0,0.0,0.0,0.0
21728664000,21728584000,0.090074115,0.090074115,0.20257573,1.0012004,1.0012003,0.0,0.0,0.0,0.0,0.0,0.0,0.0,0.0,12.253049,0.0,0.0,nan,0.0,0.0,0.09032131,0.0025277627,0.0025353718,0.0025372955,0.0,0.0,0.0,0.0,0.0,0.0
21729168000,21729088000,0.09008255,0.090082556,0.20258452,1.0011997,1.0011997,0.0,0.0,0.0,0.0,0.0,0.0,0.0,0.0,12.253046,0.0,0.0,nan,0.0,0.0,0.09032128,0.0025277627,0.0025353718,0.0025372955,0.0,0.0,0.0,0.0,0.0,0.0
21729664000,21729584000,0.090024814,0.090024814,0.20252502,1.0011984,1.0011984,0.0,0.0,0.0,0.0,0.0,0.0,0.0,0.0,12.25304,0.0,0.0,nan,0.0,0.0,0.09032112,0.0025277627,0.0025353718,0.0025372955,0.0,0.0,0.0,0.0,0.0,0.0
21730168000,21730088000,0.09002482,0.09002482,0.20252502,1.0011971,1.0011971,0.0,0.0,0.0,0.0,0.0,0.0,0.0,0.0,12.2530365,0.0,0.0,nan,0.0,0.0,0.090321235,0.0025277627,0.0025353718,0.0025372955,0.0,0.0,0.0,0.0,0.0,0.0
21730664000,21730584000,0.09019806,0.090198055,0.20270804,1.0011978,1.0011978,0.0,0.0,0.0,0.0,0.0,0.0,0.0,0.0,12.253034,0.0,0.0,nan,0.0,0.0,0.09032107,0.0025277627,0.0025353718,0.0025372955,0.0,0.0,0.0,0.0,0.0,0.0
21731168000,21731088000,0.090198025,0.090198025,0.20270804,1.0011965,1.0011965,0.0,0.0,0.0,0.0,0.0,0.0,0.0,0.0,12.253027,0.0,0.0,nan,0.0,0.0,0.09032105,0.0025277627,0.0025353718,0.0025372955,0.0,0.0,0.0,0.0,0.0,0.0
21731664000,21731584000,0.090188794,0.090188794,0.20269793,1.001195,1.001195,0.0,0.0,0.0,0.0,0.0,0.0,0.0,0.0,12.253023,0.0,0.0,nan,0.0,0.0,0.09032089,0.0025277627,0.0025353718,0.0025372955,0.0,0.0,0.0,0.0,0.0,0.0
21732168000,21732088000,0.09013449,0.09013448,0.20263943,1.0011933,1.0011933,0.0,0.0,0.0,0.0,0.0,0.0,0.0,0.0,12.253017,0.0,0.0,nan,0.0,0.0,0.090320885,0.0025277627,0.0025353718,0.0025372955,0.0,0.0,0.0,0.0,0.0,0.0
21732672000,21732592000,0.0901345,0.0901345,0.20263943,1.0011914,1.0011914,0.0,0.0,0.0,0.0,0.0,0.0,0.0,0.0,12.253014,0.0,0.0,nan,0.0,0.0,0.09032061,0.0025277627,0.0025353718,0.0025372955,0.0,0.0,0.0,0.0,0.0,0.0
21733168000,21733088000,0.090082526,0.090082526,0.20258452,1.001191,1.001191,0.0,0.0,0.0,0.0,0.0,0.0,0.0,0.0,12.253011,0.0,0.0,nan,0.0,0.0,0.090320595,0.0025277627,0.0025353718,0.0025372955,0.0,0.0,0.0,0.0,0.0,0.0
21733664000,21733584000,0.090949826,0.090949796,0.20357531,1.0013264,1.0013264,0.0,0.0,0.0,0.0,0.0,0.0,0.0,0.0,12.253178,0.0,0.0,nan,0.0,0.0,0.09032072,0.0025277627,0.0025353718,0.0025372955,0.0,0.0,0.0,0.0,0.0,0.0
21734168000,21734088000,0.09177178,0.09177174,0.2045527,1.0018119,1.0018119,0.0,0.0,0.0,0.0,0.0,0.0,0.0,0.0,12.25393,0.0,0.0,nan,0.0,0.0,0.09032085,0.0025277627,0.0025353718,0.0025372955,0.0,0.0,0.0,0.0,0.0,0.0
21734664000,21734584000,0.09346058,0.09346055,0.20625606,1.0036299,1.0036298,0.0,0.0,0.0,0.0,0.0,0.0,0.0,0.0,12.256195,0.0,0.0,nan,0.0,0.0,0.090320975,0.0025277627,0.0025353718,0.0025372955,0.0,0.0,0.0,0.0,0.0,0.0
21735168000,21735088000,0.09485315,0.09485266,0.20765844,1.0061777,1.0061777,0.0,0.0,0.0,0.0,0.0,0.0,0.0,0.0,12.260091,0.0,0.0,nan,0.0,0.0,0.09032109,0.0025277627,0.0025353718,0.0025372955,0.0,0.0,0.0,0.0,0.0,0.0
21735672000,21735592000,0.09622441,0.09622419,0.20984396,1.0120062,1.012006,0.0,0.0,0.0,0.0,0.0,0.0,0.0,0.0,12.267429,0.0,0.0,nan,0.0,0.0,0.09839526,0.0025277627,0.0025353718,0.0025372955,0.0,0.0,0.0,0.0,0.0,0.0
21736168000,21736088000,0.09645627,0.09644882,0.21123764,1.0168172,1.0168171,0.0,0.0,0.0,0.0,0.0,0.0,0.0,0.0,12.27693,0.0,0.0,nan,0.0,0.0,0.095382236,0.0025277627,0.0025353718,0.0025372955,0.0,0.0,0.0,0.0,0.0,0.0
21736664000,21736584000,0.09839017,0.09835888,0.21303648,1.0243379,1.0243367,0.0,0.0,0.0,0.0,0.0,0.0,0.0,0.0,12.289051,0.0,0.0,nan,0.0,0.0,0.093640454,0.0025277627,0.0025353718,0.0025372955,0.0,0.0,0.0,0.0,0.0,0.0
21737168000,21737088000,0.10065311,0.10060242,0.2142863,1.030295,1.0302901,0.0,0.0,0.0,0.0,0.0,0.0,0.0,0.0,12.304794,0.0,0.0,nan,0.0,0.0,0.09283781,0.0025277627,0.0025353718,0.0025372955,0.0,0.0,0.0,0.0,0.0,0.0
21737664000,21737584000,0.10241939,0.10236134,0.21517864,1.037525,1.037516,0.0,0.0,0.0,0.0,0.0,0.0,0.0,0.0,12.318965,0.0,0.0,nan,0.0,0.0,0.09232549,0.0025277627,0.0025353718,0.0025372955,0.0,0.0,0.0,0.0,0.0,0.0
21738168000,21738088000,0.10283146,0.10277417,0.21533947,1.0397184,1.0397084,0.0,0.0,0.0,0.0,0.0,0.0,0.0,0.0,12.337649,0.0,0.0,nan,0.0,0.0,0.09197039,0.0025277627,0.0025353718,0.0025372955,0.0,0.0,0.0,0.0,0.0,0.0
21738672000,21738592000,0.10479446,0.10464566,0.2161924,1.049807,1.0497907,0.0,0.0,0.0,0.0,0.0,0.0,0.0,0.0,12.350742,0.0,0.0,nan,0.0,0.0,0.0917081,0.0025277627,0.0025353718,0.0025372955,0.0,0.0,0.0,0.0,0.0,0.0
21739168000,21739088000,0.10470353,0.104020245,0.21602693,1.0521454,1.0521286,0.0,0.0,0.0,0.0,0.0,0.0,0.0,0.0,12.3632145,0.0,0.0,nan,0.0,0.0,0.091496974,0.0025277627,0.0025353718,0.0025372955,0.0,0.0,0.0,0.0,0.0,0.0
21739664000,21739584000,0.108172566,0.10581287,0.21636696,1.0597562,1.0597348,0.0,0.0,0.0,0.0,0.0,0.0,0.0,0.0,12.377474,0.0,0.0,nan,0.0,0.0,0.09143501,0.003041681,0.003047011,0.0030537164,0.0,0.0,0.0,0.0,0.0,0.0
21740168000,21740088000,0.10713791,0.10570711,0.21601877,1.0604751,1.0604689,0.0,0.0,0.0,0.0,0.0,0.0,0.0,0.0,12.387802,0.0,0.0,nan,0.0,0.0,0.09143501,0.0027203031,0.0027203073,0.0027181255,0.0,0.0,0.0,0.0,0.0,0.0
21740672000,21740592000,0.10537575,0.10472127,0.21572527,1.0610434,1.061036,0.0,0.0,0.0,0.0,0.0,0.0,0.0,0.0,12.398002,0.0,0.0,nan,0.0,0.0,0.09143501,0.002639068,0.0026378392,0.0026356715,0.0,0.0,0.0,0.0,0.0,0.0
21741168000,21741088000,0.104811825,0.104605824,0.21605203,1.0664783,1.066424,0.0,0.0,0.0,0.0,0.0,0.0,0.0,0.0,12.405093,0.0,0.0,nan,0.0,0.0,0.09143501,0.002600439,0.002599591,0.0025981583,0.0,0.0,0.0,0.0,0.0,0.0
21741672000,21741592000,0.10255203,0.10259601,0.21561092,1.065472,1.0654211,0.0,0.0,0.0,0.0,0.0,0.0,0.0,0.0,12.4061165,0.0,0.0,nan,0.0,0.0,0.09143501,0.0025788404,0.002578016,0.0025769544,0.0,0.0,0.0,0.0,0.0,0.0
21742168000,21742088000,0.102052115,0.10211679,0.21547014,1.0651938,1.065143,0.0,0.0,0.0,0.0,0.0,0.0,0.0,0.0,12.416187,0.0,0.0,nan,0.0,0.0,0.09143501,0.0025651173,0.0025642328,0.0025633178,0.0,0.0,0.0,0.0,0.0,0.0
21742672000,21742592000,0.101671875,0.10171333,0.21574439,1.0685084,1.0684543,0.0,0.0,0.0,0.0,0.0,0.0,0.0,0.0,12.414951,0.0,0.0,nan,0.0,0.0,0.09143501,0.0025556246,0.0025546812,0.0025538686,0.0,0.0,0.0,0.0,0.0,0.0
21743168000,21743088000,0.10107461,0.10104235,0.2156139,1.0672718,1.0672271,0.0,0.0,0.0,0.0,0.0,0.0,0.0,0.0,12.4176445,0.0,0.0,nan,0.0,0.0,0.09143501,0.0025486997,0.002547678,0.0025469123,0.0,0.0,0.0,0.0,0.0,0.0
21743672000,21743592000,0.10153911,0.10136666,0.21599595,1.0706071,1.0705813,0.0,0.0,0.0,0.0,0.0,0.0,0.0,0.0,12.419392,0.0,0.0,nan,0.0,0.0,0.09143501,0.0025434012,0.0025423344,0.0025416326,0.0,0.0,0.0,0.0,0.0,0.0
21744168000,21744088000,0.10115467,0.10088677,0.21581118,1.0691171,1.0690995,0.0,0.0,0.0,0.0,0.0,0.0,0.0,0.0,12.4212885,0.0,0.0,nan,0.0,0.0,0.09143501,0.0025392314,0.0025381388,0.0025373679,0.0,0.0,0.0,0.0,0.0,0.0
21744672000,21744592000,0.10084741,0.10052126,0.21567905,1.0674309,1.0674202,0.0,0.0,0.0,0.0,0.0,0.0,0.0,0.0,12.423932,0.0,0.0,nan,0.0,0.0,0.09143501,0.0025354975,0.0025343266,0.0025335762,0.0,0.0,0.0,0.0,0.0,0.0
21745168000,21745088000,0.1016437,0.10119061,0.21622849,1.0707252,1.0707183,0.0,0.0,0.0,0.0,0.0,0.0,0.0,0.0,12.4241905,0.0,0.0,nan,0.0,0.0,0.09143501,0.0025331671,0.0025319767,0.0025311946,0.0,0.0,0.0,0.0,0.0,0.0
21745672000,21745592000,0.10116571,0.10071439,0.21596013,1.0681312,1.0681219,0.0,0.0,0.0,0.0,0.0,0.0,0.0,0.0,12.421532,0.0,0.0,nan,0.0,0.0,0.09096345,0.0025324656,0.0025312675,0.0025305345,0.0,0.0,0.0,0.0,0.0,0.0
21746168000,21746088000,0.102130756,0.10162489,0.21648583,1.0721647,1.0721325,0.0,0.0,0.0,0.0,0.0,0.0,0.0,0.0,12.426583,0.0,0.0,nan,0.0,0.0,0.09089169,0.0025324656,0.0025312675,0.0025305345,0.0,0.0,0.0,0.0,0.0,0.0
21746664000,21746584000,0.101442605,0.10103759,0.21614414,1.0693402,1.0693074,0.0,0.0,0.0,0.0,0.0,0.0,0.0,0.0,12.422895,0.0,0.0,nan,0.0,0.0,0.090817295,0.0025324656,0.0025312675,0.0025305345,0.0,0.0,0.0,0.0,0.0,0.0
21747168000,21747088000,0.10114213,0.10079609,0.21596086,1.0677745,1.0677388,0.0,0.0,0.0,0.0,0.0,0.0,0.0,0.0,12.423258,0.0,0.0,nan,0.0,0.0,0.09076059,0.0025324656,0.0025312675,0.0025305345,0.0,0.0,0.0,0.0,0.0,0.0
21747672000,21747592000,0.10179122,0.1014819,0.216269,1.0707141,1.0706499,0.0,0.0,0.0,0.0,0.0,0.0,0.0,0.0,12.423472,0.0,0.0,nan,0.0,0.0,0.09071092,0.0025324656,0.0025312675,0.0025305345,0.0,0.0,0.0,0.0,0.0,0.0
21748168000,21748088000,0.101347715,0.101103105,0.21602902,1.0688797,1.0688208,0.0,0.0,0.0,0.0,0.0,0.0,0.0,0.0,12.424278,0.0,0.0,nan,0.0,0.0,0.090668716,0.0025324656,0.0025312675,0.0025305345,0.0,0.0,0.0,0.0,0.0,0.0
21748664000,21748584000,0.1021551,0.10194396,0.21637534,1.0724114,1.0723243,0.0,0.0,0.0,0.0,0.0,0.0,0.0,0.0,12.424984,0.0,0.0,nan,0.0,0.0,0.09063199,0.0025324656,0.0025312675,0.0025305345,0.0,0.0,0.0,0.0,0.0,0.0
21749168000,21749088000,0.10156187,0.10140295,0.21607076,1.0702246,1.0701522,0.0,0.0,0.0,0.0,0.0,0.0,0.0,0.0,12.425534,0.0,0.0,nan,0.0,0.0,0.09060013,0.0025324656,0.0025312675,0.0025305345,0.0,0.0,0.0,0.0,0.0,0.0
21749672000,21749592000,0.10101033,0.100909546,0.21565668,1.0677543,1.0676941,0.0,0.0,0.0,0.0,0.0,0.0,0.0,0.0,12.425678,0.0,0.0,nan,0.0,0.0,0.0905726,0.0025324656,0.0025312675,0.0025305345,0.0,0.0,0.0,0.0,0.0,0.0
21750168000,21750088000,0.10191634,0.10181677,0.2160769,1.0718105,1.0717335,0.0,0.0,0.0,0.0,0.0,0.0,0.0,0.0,12.426856,0.0,0.0,nan,0.0,0.0,0.090548314,0.0025324656,0.0025312675,0.0025305345,0.0,0.0,0.0,0.0,0.0,0.0
21750664000,21750584000,0.101164095,0.10110793,0.21568951,1.0688926,1.0688336,0.0,0.0,0.0,0.0,0.0,0.0,0.0,0.0,12.422129,0.0,0.0,nan,0.0,0.0,0.090525985,0.0025324656,0.0025312675,0.0025305345,0.0,0.0,0.0,0.0,0.0,0.0
21751168000,21751088000,0.10099703,0.100949794,0.21552837,1.0681192,1.0680647,0.0,0.0,0.0,0.0,0.0,0.0,0.0,0.0,12.427506,0.0,0.0,nan,0.0,0.0,0.0905079,0.0025324656,0.0025312675,0.0025305345,0.0,0.0,0.0,0.0,0.0,0.0
21751672000,21751592000,0.10129841,0.1012653,0.2156055,1.0700029,1.069952,0.0,0.0,0.0,0.0,0.0,0.0,0.0,0.0,12.42402,0.0,0.0,nan,0.0,0.0,0.09049058,0.0025324656,0.0025312675,0.0025305345,0.0,0.0,0.0,0.0,0.0,0.0
21752168000,21752088000,0.10097173,0.10094573,0.2153777,1.068536,1.0684936,0.0,0.0,0.0,0.0,0.0,0.0,0.0,0.0,12.424439,0.0,0.0,nan,0.0,0.0,0.09047545,0.0025324656,0.0025312675,0.0025305345,0.0,0.0,0.0,0.0,0.0,0.0
21752672000,21752592000,0.10171051,0.10168574,0.21567425,1.0718598,1.0718158,0.0,0.0,0.0,0.0,0.0,0.0,0.0,0.0,12.424761,0.0,0.0,nan,0.0,0.0,0.090461716,0.0025324656,0.0025312675,0.0025305345,0.0,0.0,0.0,0.0,0.0,0.0
21753168000,21753088000,0.101185076,0.101164505,0.21537791,1.0697954,1.06976,0.0,0.0,0.0,0.0,0.0,0.0,0.0,0.0,12.425501,0.0,0.0,nan,0.0,0.0,0.090449326,0.0025324656,0.0025312675,0.0025305345,0.0,0.0,0.0,0.0,0.0,0.0
21753664000,21753584000,0.100836776,0.10081878,0.21513183,1.0681514,1.0681218,0.0,0.0,0.0,0.0,0.0,0.0,0.0,0.0,12.425358,0.0,0.0,nan,0.0,0.0,0.09043779,0.0025324656,0.0025312675,0.0025305345,0.0,0.0,0.0,0.0,0.0,0.0
21754168000,21754088000,0.10144761,0.10143041,0.21534024,1.0713086,1.0712783,0.0,0.0,0.0,0.0,0.0,0.0,0.0,0.0,12.426531,0.0,0.0,nan,0.0,0.0,0.09042732,0.0025324656,0.0025312675,0.0025305345,0.0,0.0,0.0,0.0,0.0,0.0
21754664000,21754584000,0.100823335,0.10080977,0.21491902,1.0685323,1.0685095,0.0,0.0,0.0,0.0,0.0,0.0,0.0,0.0,12.426777,0.0,0.0,nan,0.0,0.0,0.09041758,0.0025324656,0.0025312675,0.0025305345,0.0,0.0,0.0,0.0,0.0,0.0
21755168000,21755088000,0.10068409,0.10067128,0.21485186,1.0677942,1.0677731,0.0,0.0,0.0,0.0,0.0,0.0,0.0,0.0,12.42708,0.0,0.0,nan,0.0,0.0,0.09040862,0.0025324656,0.0025312675,0.0025305345,0.0,0.0,0.0,0.0,0.0,0.0
21755664000,21755584000,0.10105711,0.10104546,0.21495028,1.0697814,1.0697614,0.0,0.0,0.0,0.0,0.0,0.0,0.0,0.0,12.423097,0.0,0.0,nan,0.0,0.0,0.09040023,0.0025324656,0.0025312675,0.0025305345,0.0,0.0,0.0,0.0,0.0,0.0
21756168000,21756088000,0.10072463,0.10071526,0.21473442,1.0681376,1.0681205,0.0,0.0,0.0,0.0,0.0,0.0,0.0,0.0,12.4237995,0.0,0.0,nan,0.0,0.0,0.09039243,0.0025324656,0.0025312675,0.0025305345,0.0,0.0,0.0,0.0,0.0,0.0
21756664000,21756584000,0.101337165,0.1013285,0.21495512,1.0712866,1.0712675,0.0,0.0,0.0,0.0,0.0,0.0,0.0,0.0,12.423541,0.0,0.0,nan,0.0,0.0,0.09038535,0.0025324656,0.0025312675,0.0025305345,0.0,0.0,0.0,0.0,0.0,0.0
21757168000,21757088000,0.100896284,0.100889646,0.21472543,1.0693357,1.0693196,0.0,0.0,0.0,0.0,0.0,0.0,0.0,0.0,12.42429,0.0,0.0,nan,0.0,0.0,0.0903788,0.0025324656,0.0025312675,0.0025305345,0.0,0.0,0.0,0.0,0.0,0.0
21757672000,21757592000,0.10060252,0.10059857,0.2145367,1.0677758,1.0677617,0.0,0.0,0.0,0.0,0.0,0.0,0.0,0.0,12.423736,0.0,0.0,nan,0.0,0.0,0.09037266,0.0025324656,0.0025312675,0.0025305345,0.0,0.0,0.0,0.0,0.0,0.0
21758168000,21758088000,0.10119439,0.101193406,0.2147416,1.0707289,1.0707129,0.0,0.0,0.0,0.0,0.0,0.0,0.0,0.0,12.424956,0.0,0.0,nan,0.0,0.0,0.090367,0.0025324656,0.0025312675,0.0025305345,0.0,0.0,0.0,0.0,0.0,0.0
21758672000,21758592000,0.10064138,0.1006444,0.21441077,1.0681181,1.0681052,0.0,0.0,0.0,0.0,0.0,0.0,0.0,0.0,12.42436,0.0,0.0,nan,0.0,0.0,0.09036166,0.0025324656,0.0025312675,0.0025305345,0.0,0.0,0.0,0.0,0.0,0.0
21759168000,21759088000,0.1015445,0.10154979,0.21480179,1.0724202,1.0724041,0.0,0.0,0.0,0.0,0.0,0.0,0.0,0.0,12.425198,0.0,0.0,nan,0.0,0.0,0.090356916,0.0025324656,0.0025312675,0.0025305345,0.0,0.0,0.0,0.0,0.0,0.0
21759664000,21759584000,0.10082185,0.10082926,0.21444659,1.0693129,1.0693007,0.0,0.0,0.0,0.0,0.0,0.0,0.0,0.0,12.424626,0.0,0.0,nan,0.0,0.0,0.09035244,0.0025324656,0.0025312675,0.0025305345,0.0,0.0,0.0,0.0,0.0,0.0
21760168000,21760088000,0.10053099,0.10053989,0.21428734,1.0677555,1.0677446,0.0,0.0,0.0,0.0,0.0,0.0,0.0,0.0,12.421299,0.0,0.0,nan,0.0,0.0,0.09034831,0.0025324656,0.0025312675,0.0025305345,0.0,0.0,0.0,0.0,0.0,0.0
21760672000,21760592000,0.10112632,0.1011384,0.21458134,1.0707028,1.0706908,0.0,0.0,0.0,0.0,0.0,0.0,0.0,0.0,12.421229,0.0,0.0,nan,0.0,0.0,0.09034392,0.0025324656,0.0025312675,0.0025305345,0.0,0.0,0.0,0.0,0.0,0.0
21761168000,21761088000,0.1007391,0.1007527,0.21439691,1.06887,1.0688598,0.0,0.0,0.0,0.0,0.0,0.0,0.0,0.0,12.422122,0.0,0.0,nan,0.0,0.0,0.09034048,0.0025324656,0.0025312675,0.0025305345,0.0,0.0,0.0,0.0,0.0,0.0
21761672000,21761592000,0.10149363,0.10151224,0.21467488,1.0723907,1.0723795,0.0,0.0,0.0,0.0,0.0,0.0,0.0,0.0,12.422583,0.0,0.0,nan,0.0,0.0,0.09033732,0.0025324656,0.0025312675,0.0025305345,0.0,0.0,0.0,0.0,0.0,0.0
21762168000,21762088000,0.100922294,0.10094139,0.21443203,1.0699569,1.0699478,0.0,0.0,0.0,0.0,0.0,0.0,0.0,0.0,12.42386,0.0,0.0,nan,0.0,0.0,0.09033424,0.0025324656,0.0025312675,0.0025305345,0.0,0.0,0.0,0.0,0.0,0.0
21762664000,21762584000,0.10045837,0.10047887,0.21422245,1.0675162,1.067509,0.0,0.0,0.0,0.0,0.0,0.0,0.0,0.0,12.419634,0.0,0.0,nan,0.0,0.0,0.09033152,0.0025324656,0.0025312675,0.0025305345,0.0,0.0,0.0,0.0,0.0,0.0
21763168000,21763088000,0.10136735,0.10139328,0.21454757,1.0718074,1.0717992,0.0,0.0,0.0,0.0,0.0,0.0,0.0,0.0,12.42471,0.0,0.0,nan,0.0,0.0,0.09032893,0.0025324656,0.0025312675,0.0025305345,0.0,0.0,0.0,0.0,0.0,0.0
21763664000,21763584000,0.10071426,0.100740895,0.21430711,1.0688816,1.0688757,0.0,0.0,0.0,0.0,0.0,0.0,0.0,0.0,12.420818,0.0,0.0,nan,0.0,0.0,0.090326875,0.0025324656,0.0025312675,0.0025305345,0.0,0.0,0.0,0.0,0.0,0.0
21764168000,21764088000,0.100569874,0.100596994,0.21419512,1.0681055,1.0681,0.0,0.0,0.0,0.0,0.0,0.0,0.0,0.0,12.425063,0.0,0.0,nan,0.0,0.0,0.09032502,0.0025324656,0.0025312675,0.0025305345,0.0,0.0,0.0,0.0,0.0,0.0
21764664000,21764584000,0.10094682,0.10097907,0.21438794,1.0702101,1.0702057,0.0,0.0,0.0,0.0,0.0,0.0,0.0,0.0,12.421021,0.0,0.0,nan,0.0,0.0,0.09032327,0.0025324656,0.0025312675,0.0025305345,0.0,0.0,0.0,0.0,0.0,0.0
21765168000,21765088000,0.100600064,0.10063256,0.21422863,1.0684725,1.0684689,0.0,0.0,0.0,0.0,0.0,0.0,0.0,0.0,12.421928,0.0,0.0,nan,0.0,0.0,0.09032181,0.0025324656,0.0025312675,0.0025305345,0.0,0.0,0.0,0.0,0.0,0.0
21765664000,21765584000,0.10132349,0.101363026,0.21448731,1.0717608,1.0717583,0.0,0.0,0.0,0.0,0.0,0.0,0.0,0.0,12.422356,0.0,0.0,nan,0.0,0.0,0.09032053,0.0025324656,0.0025312675,0.0025305345,0.0,0.0,0.0,0.0,0.0,0.0
21766168000,21766088000,0.10085304,0.10089127,0.21430036,1.0697095,1.0697078,0.0,0.0,0.0,0.0,0.0,0.0,0.0,0.0,12.422708,0.0,0.0,nan,0.0,0.0,0.0903194,0.0025324656,0.0025312675,0.0025305345,0.0,0.0,0.0,0.0,0.0,0.0
21766672000,21766592000,0.10053485,0.1005728,0.21414852,1.0680727,1.0680714,0.0,0.0,0.0,0.0,0.0,0.0,0.0,0.0,12.423574,0.0,0.0,nan,0.0,0.0,0.090318345,0.0025324656,0.0025312675,0.0025305345,0.0,0.0,0.0,0.0,0.0,0.0
21767168000,21767088000,0.10114568,0.101189174,0.21440452,1.0712026,1.071203,0.0,0.0,0.0,0.0,0.0,0.0,0.0,0.0,12.423429,0.0,0.0,nan,0.0,0.0,0.09031742,0.0025324656,0.0025312675,0.0025305345,0.0,0.0,0.0,0.0,0.0,0.0
21767672000,21767592000,0.10057173,0.10061316,0.21419193,1.068445,1.0684458,0.0,0.0,0.0,0.0,0.0,0.0,0.0,0.0,12.420488,0.0,0.0,nan,0.0,0.0,0.09031662,0.0025324656,0.0025312675,0.0025305345,0.0,0.0,0.0,0.0,0.0,0.0
21768168000,21768088000,0.101454556,0.10150313,0.21458426,1.0727144,1.0727174,0.0,0.0,0.0,0.0,0.0,0.0,0.0,0.0,12.424111,0.0,0.0,nan,0.0,0.0,0.090315774,0.0025324656,0.0025312675,0.0025305345,0.0,0.0,0.0,0.0,0.0,0.0
21768672000,21768592000,0.10074935,0.10079409,0.21427006,1.0695506,1.0695533,0.0,0.0,0.0,0.0,0.0,0.0,0.0,0.0,12.420197,0.0,0.0,nan,0.0,0.0,0.09031537,0.0025324656,0.0025312675,0.0025305345,0.0,0.0,0.0,0.0,0.0,0.0
21769168000,21769088000,0.10040907,0.10045247,0.21409754,1.0677005,1.067703,0.0,0.0,0.0,0.0,0.0,0.0,0.0,0.0,12.420705,0.0,0.0,nan,0.0,0.0,0.090314955,0.0025324656,0.0025312675,0.0025305345,0.0,0.0,0.0,0.0,0.0,0.0
21769672000,21769592000,0.1010507,0.10109991,0.21436614,1.070855,1.0708597,0.0,0.0,0.0,0.0,0.0,0.0,0.0,0.0,12.421503,0.0,0.0,nan,0.0,0.0,0.09031465,0.0025324656,0.0025312675,0.0025305345,0.0,0.0,0.0,0.0,0.0,0.0
21770168000,21770088000,0.100663476,0.100710265,0.21420687,1.0689843,1.0689887,0.0,0.0,0.0,0.0,0.0,0.0,0.0,0.0,12.421067,0.0,0.0,nan,0.0,0.0,0.09031443,0.0025324656,0.0025312675,0.0025305345,0.0,0.0,0.0,0.0,0.0,0.0
21770664000,21770584000,0.101412594,0.10146602,0.21450472,1.072462,1.0724692,0.0,0.0,0.0,0.0,0.0,0.0,0.0,0.0,12.421621,0.0,0.0,nan,0.0,0.0,0.09031443,0.0025324656,0.0025312675,0.0025305345,0.0,0.0,0.0,0.0,0.0,0.0
21771168000,21771088000,0.1009063,0.10095575,0.21432,1.0702568,1.0702631,0.0,0.0,0.0,0.0,0.0,0.0,0.0,0.0,12.422561,0.0,0.0,nan,0.0,0.0,0.09031428,0.0025324656,0.0025312675,0.0025305345,0.0,0.0,0.0,0.0,0.0,0.0
21771664000,21771584000,0.10044258,0.100489385,0.2140718,1.0677619,1.0677674,0.0,0.0,0.0,0.0,0.0,0.0,0.0,0.0,12.422692,0.0,0.0,nan,0.0,0.0,0.090314314,0.0025324656,0.0025312675,0.0025305345,0.0,0.0,0.0,0.0,0.0,0.0
21772168000,21772088000,0.10129024,0.10134445,0.21444471,1.0717719,1.0717804,0.0,0.0,0.0,0.0,0.0,0.0,0.0,0.0,12.422344,0.0,0.0,nan,0.0,0.0,0.0903143,0.0025324656,0.0025312675,0.0025305345,0.0,0.0,0.0,0.0,0.0,0.0
21772664000,21772584000,0.10065286,0.10070185,0.2141666,1.0688493,1.0688564,0.0,0.0,0.0,0.0,0.0,0.0,0.0,0.0,12.422993,0.0,0.0,nan,0.0,0.0,0.090314485,0.0025324656,0.0025312675,0.0025305345,0.0,0.0,0.0,0.0,0.0,0.0
21773168000,21773088000,0.10051192,0.10056003,0.21413738,1.0680736,1.0680804,0.0,0.0,0.0,0.0,0.0,0.0,0.0,0.0,12.423197,0.0,0.0,nan,0.0,0.0,0.09031474,0.0025324656,0.0025312675,0.0025305345,0.0,0.0,0.0,0.0,0.0,0.0
21773664000,21773584000,0.10090034,0.100952104,0.21428734,1.0701898,1.0701985,0.0,0.0,0.0,0.0,0.0,0.0,0.0,0.0,12.423774,0.0,0.0,nan,0.0,0.0,0.09031492,0.0025324656,0.0025312675,0.0025305345,0.0,0.0,0.0,0.0,0.0,0.0
21774168000,21774088000,0.10051302,0.100561716,0.21417642,1.068213,1.0682205,0.0,0.0,0.0,0.0,0.0,0.0,0.0,0.0,12.421466,0.0,0.0,nan,0.0,0.0,0.09031515,0.0025324656,0.0025312675,0.0025305345,0.0,0.0,0.0,0.0,0.0,0.0
21774664000,21774584000,0.1012955,0.10135125,0.21447577,1.0717539,1.0717646,0.0,0.0,0.0,0.0,0.0,0.0,0.0,0.0,12.421968,0.0,0.0,nan,0.0,0.0,0.090315565,0.0025324656,0.0025312675,0.0025305345,0.0,0.0,0.0,0.0,0.0,0.0
21775168000,21775088000,0.100827076,0.1008787,0.21429199,1.0697021,1.0697112,0.0,0.0,0.0,0.0,0.0,0.0,0.0,0.0,12.422385,0.0,0.0,nan,0.0,0.0,0.09031611,0.0025324656,0.0025312675,0.0025305345,0.0,0.0,0.0,0.0,0.0,0.0
21775672000,21775592000,0.10051332,0.10056304,0.21414168,1.0680648,1.0680729,0.0,0.0,0.0,0.0,0.0,0.0,0.0,0.0,12.423719,0.0,0.0,nan,0.0,0.0,0.09031649,0.0025324656,0.0025312675,0.0025305345,0.0,0.0,0.0,0.0,0.0,0.0
21776168000,21776088000,0.101121925,0.10117692,0.21439463,1.0711893,1.0712001,0.0,0.0,0.0,0.0,0.0,0.0,0.0,0.0,12.423548,0.0,0.0,nan,0.0,0.0,0.09031703,0.0025324656,0.0025312675,0.0025305345,0.0,0.0,0.0,0.0,0.0,0.0
21776672000,21776592000,0.100556284,0.10060704,0.21418901,1.0684332,1.0684419,0.0,0.0,0.0,0.0,0.0,0.0,0.0,0.0,12.419313,0.0,0.0,nan,0.0,0.0,0.09031774,0.0025324656,0.0025312675,0.0025305345,0.0,0.0,0.0,0.0,0.0,0.0
21777168000,21777088000,0.100431964,0.1004819,0.21408904,1.067699,1.0677073,0.0,0.0,0.0,0.0,0.0,0.0,0.0,0.0,12.424021,0.0,0.0,nan,0.0,0.0,0.09031849,0.0025324656,0.0025312675,0.0025305345,0.0,0.0,0.0,0.0,0.0,0.0
21777664000,21777584000,0.100812726,0.10086645,0.21427605,1.0696714,1.0696814,0.0,0.0,0.0,0.0,0.0,0.0,0.0,0.0,12.421453,0.0,0.0,nan,0.0,0.0,0.09031898,0.0025324656,0.0025312675,0.0025305345,0.0,0.0,0.0,0.0,0.0,0.0
21778168000,21778088000,0.10050122,0.1005528,0.21412757,1.0680399,1.068049,0.0,0.0,0.0,0.0,0.0,0.0,0.0,0.0,12.421868,0.0,0.0,nan,0.0,0.0,0.090319775,0.0025324656,0.0025312675,0.0025305345,0.0,0.0,0.0,0.0,0.0,0.0
21778664000,21778584000,0.101108186,0.10116525,0.21438241,1.0711663,1.0711781,0.0,0.0,0.0,0.0,0.0,0.0,0.0,0.0,12.425542,0.0,0.0,nan,0.0,0.0,0.09032045,0.0025324656,0.0025312675,0.0025305345,0.0,0.0,0.0,0.0,0.0,0.0
21779168000,21779088000,0.100653924,0.10070688,0.21418387,1.0690106,1.0690205,0.0,0.0,0.0,0.0,0.0,0.0,0.0,0.0,12.421549,0.0,0.0,nan,0.0,0.0,0.090321,0.0025324656,0.0025312675,0.0025305345,0.0,0.0,0.0,0.0,0.0,0.0
21779672000,21779592000,0.1004318,0.1004837,0.2140875,1.0677212,1.0677304,0.0,0.0,0.0,0.0,0.0,0.0,0.0,0.0,12.42166,0.0,0.0,nan,0.0,0.0,0.09032171,0.0025324656,0.0025312675,0.0025305345,0.0,0.0,0.0,0.0,0.0,0.0
21780168000,21780088000,0.101020865,0.101078376,0.21433468,1.0706539,1.0706661,0.0,0.0,0.0,0.0,0.0,0.0,0.0,0.0,12.422145,0.0,0.0,nan,0.0,0.0,0.090322286,0.0025324656,0.0025312675,0.0025305345,0.0,0.0,0.0,0.0,0.0,0.0
21780672000,21780592000,0.10049636,0.10054945,0.21414436,1.0680543,1.0680643,0.0,0.0,0.0,0.0,0.0,0.0,0.0,0.0,12.41985,0.0,0.0,nan,0.0,0.0,0.09032315,0.0025324656,0.0025312675,0.0025305345,0.0,0.0,0.0,0.0,0.0,0.0
21781168000,21781088000,0.10138119,0.101442665,0.21454176,1.0723304,1.0723448,0.0,0.0,0.0,0.0,0.0,0.0,0.0,0.0,12.424453,0.0,0.0,nan,0.0,0.0,0.09032403,0.0025324656,0.0025312675,0.0025305345,0.0,0.0,0.0,0.0,0.0,0.0
21781664000,21781584000,0.10069238,0.10074772,0.21423192,1.0692629,1.0692741,0.0,0.0,0.0,0.0,0.0,0.0,0.0,0.0,12.423844,0.0,0.0,nan,0.0,0.0,0.09032491,0.0025324656,0.0025312675,0.0025305345,0.0,0.0,0.0,0.0,0.0,0.0
21782168000,21782088000,0.10041153,0.10046489,0.21409261,1.0677083,1.0677184,0.0,0.0,0.0,0.0,0.0,0.0,0.0,0.0,12.421429,0.0,0.0,nan,0.0,0.0,0.09032578,0.0025324656,0.0025312675,0.0025305345,0.0,0.0,0.0,0.0,0.0,0.0
21782664000,21782584000,0.100997515,0.101056464,0.21440117,1.0706393,1.0706525,0.0,0.0,0.0,0.0,0.0,0.0,0.0,0.0,12.420855,0.0,0.0,nan,0.0,0.0,0.09032665,0.0025324656,0.0025312675,0.0025305345,0.0,0.0,0.0,0.0,0.0,0.0
21783168000,21783088000,0.10061386,0.100669615,0.21423785,1.0688146,1.0688262,0.0,0.0,0.0,0.0,0.0,0.0,0.0,0.0,12.422591,0.0,0.0,nan,0.0,0.0,0.090327516,0.0025324656,0.0025312675,0.0025305345,0.0,0.0,0.0,0.0,0.0,0.0
21783672000,21783592000,0.10130509,0.10136784,0.21449263,1.0720532,1.0720685,0.0,0.0,0.0,0.0,0.0,0.0,0.0,0.0,12.4229355,0.0,0.0,nan,0.0,0.0,0.09032837,0.0025324656,0.0025312675,0.0025305345,0.0,0.0,0.0,0.0,0.0,0.0
21784168000,21784088000,0.100857586,0.10091594,0.21433337,1.0701634,1.0701764,0.0,0.0,0.0,0.0,0.0,0.0,0.0,0.0,12.423203,0.0,0.0,nan,0.0,0.0,0.09032907,0.0025324656,0.0025312675,0.0025305345,0.0,0.0,0.0,0.0,0.0,0.0
21784672000,21784592000,0.10038889,0.100443475,0.21413995,1.0676961,1.0677072,0.0,0.0,0.0,0.0,0.0,0.0,0.0,0.0,12.420238,0.0,0.0,nan,0.0,0.0,0.09032992,0.0025324656,0.0025312675,0.0025305345,0.0,0.0,0.0,0.0,0.0,0.0
21785168000,21785088000,0.10122915,0.10129197,0.21450372,1.0717053,1.0717208,0.0,0.0,0.0,0.0,0.0,0.0,0.0,0.0,12.424667,0.0,0.0,nan,0.0,0.0,0.09033074,0.0025324656,0.0025312675,0.0025305345,0.0,0.0,0.0,0.0,0.0,0.0
21785672000,21785592000,0.100596346,0.10065317,0.21420045,1.0688021,1.0688146,0.0,0.0,0.0,0.0,0.0,0.0,0.0,0.0,12.424882,0.0,0.0,nan,0.0,0.0,0.09033171,0.0025324656,0.0025312675,0.0025305345,0.0,0.0,0.0,0.0,0.0,0.0
21786168000,21786088000,0.100457996,0.100513734,0.2141658,1.0680306,1.0680424,0.0,0.0,0.0,0.0,0.0,0.0,0.0,0.0,12.425642,0.0,0.0,nan,0.0,0.0,0.09033251,0.0025324656,0.0025312675,0.0025305345,0.0,0.0,0.0,0.0,0.0,0.0
21786664000,21786584000,0.10083968,0.100899145,0.21429518,1.0701302,1.0701443,0.0,0.0,0.0,0.0,0.0,0.0,0.0,0.0,12.425365,0.0,0.0,nan,0.0,0.0,0.09033315,0.0025324656,0.0025312675,0.0025305345,0.0,0.0,0.0,0.0,0.0,0.0
21787168000,21787088000,0.10050906,0.1005654,0.21414143,1.0684031,1.0684155,0.0,0.0,0.0,0.0,0.0,0.0,0.0,0.0,12.422266,0.0,0.0,nan,0.0,0.0,0.09033377,0.0025324656,0.0025312675,0.0025305345,0.0,0.0,0.0,0.0,0.0,0.0
21787664000,21787584000,0.10123024,0.101294026,0.21447659,1.0716797,1.0716963,0.0,0.0,0.0,0.0,0.0,0.0,0.0,0.0,12.422554,0.0,0.0,nan,0.0,0.0,0.09033452,0.0025324656,0.0025312675,0.0025305345,0.0,0.0,0.0,0.0,0.0,0.0
21788168000,21788088000,0.100771874,0.10083095,0.21429373,1.0696422,1.0696563,0.0,0.0,0.0,0.0,0.0,0.0,0.0,0.0,12.4227915,0.0,0.0,nan,0.0,0.0,0.0903351,0.0025324656,0.0025312675,0.0025305345,0.0,0.0,0.0,0.0,0.0,0.0
21788672000,21788592000,0.100466706,0.100522995,0.21414377,1.0680143,1.0680268,0.0,0.0,0.0,0.0,0.0,0.0,0.0,0.0,12.424434,0.0,0.0,nan,0.0,0.0,0.090335816,0.0025324656,0.0025312675,0.0025305345,0.0,0.0,0.0,0.0,0.0,0.0
21789168000,21789088000,0.10107849,0.10114048,0.21447185,1.0711386,1.0711546,0.0,0.0,0.0,0.0,0.0,0.0,0.0,0.0,12.424566,0.0,0.0,nan,0.0,0.0,0.09033636,0.0025324656,0.0025312675,0.0025305345,0.0,0.0,0.0,0.0,0.0,0.0
21789664000,21789584000,0.10051973,0.10057626,0.21418115,1.0683953,1.0684085,0.0,0.0,0.0,0.0,0.0,0.0,0.0,0.0,12.4247675,0.0,0.0,nan,0.0,0.0,0.09033674,0.0025324656,0.0025312675,0.0025305345,0.0,0.0,0.0,0.0,0.0,0.0
21790168000,21790088000,0.10039817,0.100453615,0.2141488,1.0676643,1.0676768,0.0,0.0,0.0,0.0,0.0,0.0,0.0,0.0,12.42593,0.0,0.0,nan,0.0,0.0,0.09033727,0.0025324656,0.0025312675,0.0025305345,0.0,0.0,0.0,0.0,0.0,0.0
21790664000,21790584000,0.10077745,0.10083642,0.2142607,1.0696396,1.0696542,0.0,0.0,0.0,0.0,0.0,0.0,0.0,0.0,12.424712,0.0,0.0,nan,0.0,0.0,0.09033761,0.0025324656,0.0025312675,0.0025305345,0.0,0.0,0.0,0.0,0.0,0.0
21791168000,21791088000,0.10047271,0.1005288,0.21411654,1.0680128,1.0680258,0.0,0.0,0.0,0.0,0.0,0.0,0.0,0.0,12.421681,0.0,0.0,nan,0.0,0.0,0.09033809,0.0025324656,0.0025312675,0.0025305345,0.0,0.0,0.0,0.0,0.0,0.0
21791672000,21791592000,0.101041555,0.101102926,0.21442433,1.0709083,1.0709244,0.0,0.0,0.0,0.0,0.0,0.0,0.0,0.0,12.421902,0.0,0.0,nan,0.0,0.0,0.09033841,0.0025324656,0.0025312675,0.0025305345,0.0,0.0,0.0,0.0,0.0,0.0
21792168000,21792088000,0.10063695,0.10069437,0.21419011,1.0690063,1.0690202,0.0,0.0,0.0,0.0,0.0,0.0,0.0,0.0,12.421892,0.0,0.0,nan,0.0,0.0,0.090338856,0.0025324656,0.0025312675,0.0025305345,0.0,0.0,0.0,0.0,0.0,0.0
21792672000,21792592000,0.10036642,0.100421585,0.21405795,1.0674809,1.0674933,0.0,0.0,0.0,0.0,0.0,0.0,0.0,0.0,12.423274,0.0,0.0,nan,0.0,0.0,0.09033943,0.0025324656,0.0025312675,0.0025305345,0.0,0.0,0.0,0.0,0.0,0.0
21793168000,21793088000,0.10100767,0.10106922,0.21440248,1.0706699,1.0706856,0.0,0.0,0.0,0.0,0.0,0.0,0.0,0.0,12.423594,0.0,0.0,nan,0.0,0.0,0.09033999,0.0025324656,0.0025312675,0.0025305345,0.0,0.0,0.0,0.0,0.0,0.0
21793664000,21793584000,0.1004791,0.10053578,0.2141323,1.0680653,1.0680782,0.0,0.0,0.0,0.0,0.0,0.0,0.0,0.0,12.423518,0.0,0.0,nan,0.0,0.0,0.09034052,0.0025324656,0.0025312675,0.0025305345,0.0,0.0,0.0,0.0,0.0,0.0
21794168000,21794088000,0.101363145,0.101428695,0.21452795,1.0723387,1.0723567,0.0,0.0,0.0,0.0,0.0,0.0,0.0,0.0,12.424321,0.0,0.0,nan,0.0,0.0,0.090340726,0.0025324656,0.0025312675,0.0025305345,0.0,0.0,0.0,0.0,0.0,0.0
21794672000,21794592000,0.100672625,0.100731105,0.21422446,1.0692474,1.0692613,0.0,0.0,0.0,0.0,0.0,0.0,0.0,0.0,12.423791,0.0,0.0,nan,0.0,0.0,0.09034106,0.0025324656,0.0025312675,0.0025305345,0.0,0.0,0.0,0.0,0.0,0.0
21795168000,21795088000,0.100399055,0.10045518,0.21408784,1.0676945,1.0677071,0.0,0.0,0.0,0.0,0.0,0.0,0.0,0.0,12.421405,0.0,0.0,nan,0.0,0.0,0.0903413,0.0025324656,0.0025312675,0.0025305345,0.0,0.0,0.0,0.0,0.0,0.0
21795664000,21795584000,0.10099355,0.101055406,0.21439728,1.0706247,1.0706403,0.0,0.0,0.0,0.0,0.0,0.0,0.0,0.0,12.420834,0.0,0.0,nan,0.0,0.0,0.09034168,0.0025324656,0.0025312675,0.0025305345,0.0,0.0,0.0,0.0,0.0,0.0
21796168000,21796088000,0.10062078,0.100678846,0.21423519,1.0688024,1.068816,0.0,0.0,0.0,0.0,0.0,0.0,0.0,0.0,12.422598,0.0,0.0,nan,0.0,0.0,0.09034211,0.0025324656,0.0025312675,0.0025305345,0.0,0.0,0.0,0.0,0.0,0.0
21796672000,21796592000,0.10137088,0.101436675,0.21453267,1.0723045,1.0723224,0.0,0.0,0.0,0.0,0.0,0.0,0.0,0.0,12.422101,0.0,0.0,nan,0.0,0.0,0.09034227,0.0025324656,0.0025312675,0.0025305345,0.0,0.0,0.0,0.0,0.0,0.0
21797168000,21797088000,0.100866504,0.10092726,0.21435018,1.0701345,1.0701494,0.0,0.0,0.0,0.0,0.0,0.0,0.0,0.0,12.422589,0.0,0.0,nan,0.0,0.0,0.0903425,0.0025324656,0.0025312675,0.0025305345,0.0,0.0,0.0,0.0,0.0,0.0
21797664000,21797584000,0.10040676,0.100463726,0.21409802,1.0676758,1.0676882,0.0,0.0,0.0,0.0,0.0,0.0,0.0,0.0,12.423104,0.0,0.0,nan,0.0,0.0,0.090342864,0.0025324656,0.0025312675,0.0025305345,0.0,0.0,0.0,0.0,0.0,0.0
21798168000,21798088000,0.10125014,0.101315625,0.21446402,1.071688,1.0717053,0.0,0.0,0.0,0.0,0.0,0.0,0.0,0.0,12.424444,0.0,0.0,nan,0.0,0.0,0.0903432,0.0025324656,0.0025312675,0.0025305345,0.0,0.0,0.0,0.0,0.0,0.0
21798672000,21798592000,0.10061615,0.10067537,0.21417409,1.0687913,1.0688049,0.0,0.0,0.0,0.0,0.0,0.0,0.0,0.0,12.419692,0.0,0.0,nan,0.0,0.0,0.09034322,0.0025324656,0.0025312675,0.0025305345,0.0,0.0,0.0,0.0,0.0,0.0
21799168000,21799088000,0.100478664,0.10053652,0.21414413,1.0680214,1.0680343,0.0,0.0,0.0,0.0,0.0,0.0,0.0,0.0,12.424524,0.0,0.0,nan,0.0,0.0,0.09034337,0.0025324656,0.0025312675,0.0025305345,0.0,0.0,0.0,0.0,0.0,0.0
21799672000,21799592000,0.10087091,0.10093226,0.2143589,1.0701479,1.070163,0.0,0.0,0.0,0.0,0.0,0.0,0.0,0.0,12.420198,0.0,0.0,nan,0.0,0.0,0.090343654,0.0025324656,0.0025312675,0.0025305345,0.0,0.0,0.0,0.0,0.0,0.0
21800168000,21800088000,0.1005345,0.10059288,0.21420638,1.0684191,1.0684323,0.0,0.0,0.0,0.0,0.0,0.0,0.0,0.0,12.421582,0.0,0.0,nan,0.0,0.0,0.09034392,0.0025324656,0.0025312675,0.0025305345,0.0,0.0,0.0,0.0,0.0,0.0
21800672000,21800592000,0.10125022,0.10131603,0.21447073,1.0716987,1.0717163,0.0,0.0,0.0,0.0,0.0,0.0,0.0,0.0,12.422027,0.0,0.0,nan,0.0,0.0,0.09034416,0.0025324656,0.0025312675,0.0025305345,0.0,0.0,0.0,0.0,0.0,0.0
21801168000,21801088000,0.10078711,0.10084802,0.21428938,1.0696579,1.0696727,0.0,0.0,0.0,0.0,0.0,0.0,0.0,0.0,12.422847,0.0,0.0,nan,0.0,0.0,0.090344384,0.0025324656,0.0025312675,0.0025305345,0.0,0.0,0.0,0.0,0.0,0.0
21801672000,21801592000,0.100480065,0.100537606,0.21414272,1.0680282,1.0680413,0.0,0.0,0.0,0.0,0.0,0.0,0.0,0.0,12.421973,0.0,0.0,nan,0.0,0.0,0.09034429,0.0025324656,0.0025312675,0.0025305345,0.0,0.0,0.0,0.0,0.0,0.0
21802168000,21802088000,0.10110145,0.10116527,0.21441111,1.0711762,1.0711929,0.0,0.0,0.0,0.0,0.0,0.0,0.0,0.0,12.423776,0.0,0.0,nan,0.0,0.0,0.090344325,0.0025324656,0.0025312675,0.0025305345,0.0,0.0,0.0,0.0,0.0,0.0
21802664000,21802584000,0.10054231,0.10060032,0.21413384,1.0684431,1.0684566,0.0,0.0,0.0,0.0,0.0,0.0,0.0,0.0,12.423293,0.0,0.0,nan,0.0,0.0,0.09034435,0.0025324656,0.0025312675,0.0025305345,0.0,0.0,0.0,0.0,0.0,0.0
21803168000,21803088000,0.10037185,0.10042821,0.214073,1.0674719,1.0674844,0.0,0.0,0.0,0.0,0.0,0.0,0.0,0.0,12.424316,0.0,0.0,nan,0.0,0.0,0.09034436,0.0025324656,0.0025312675,0.0025305345,0.0,0.0,0.0,0.0,0.0,0.0
21803672000,21803592000,0.1008025,0.10086297,0.21429798,1.0696955,1.0697103,0.0,0.0,0.0,0.0,0.0,0.0,0.0,0.0,12.420476,0.0,0.0,nan,0.0,0.0,0.090344355,0.0025324656,0.0025312675,0.0025305345,0.0,0.0,0.0,0.0,0.0,0.0
21804168000,21804088000,0.10049096,0.10054778,0.21415263,1.0680586,1.0680717,0.0,0.0,0.0,0.0,0.0,0.0,0.0,0.0,12.421394,0.0,0.0,nan,0.0,0.0,0.09034447,0.0025324656,0.0025312675,0.0025305345,0.0,0.0,0.0,0.0,0.0,0.0
21804664000,21804584000,0.10110567,0.101168506,0.21441792,1.0712044,1.071221,0.0,0.0,0.0,0.0,0.0,0.0,0.0,0.0,12.421344,0.0,0.0,nan,0.0,0.0,0.09034429,0.0025324656,0.0025312675,0.0025305345,0.0,0.0,0.0,0.0,0.0,0.0
21805168000,21805088000,0.100689456,0.10074775,0.21424723,1.0692629,1.069277,0.0,0.0,0.0,0.0,0.0,0.0,0.0,0.0,12.421797,0.0,0.0,nan,0.0,0.0,0.09034411,0.0025324656,0.0025312675,0.0025305345,0.0,0.0,0.0,0.0,0.0,0.0
21805672000,21805592000,0.10042173,0.100477986,0.21411,1.067728,1.0677407,0.0,0.0,0.0,0.0,0.0,0.0,0.0,0.0,12.423167,0.0,0.0,nan,0.0,0.0,0.0903442,0.0025324656,0.0025312675,0.0025305345,0.0,0.0,0.0,0.0,0.0,0.0
21806168000,21806088000,0.101010084,0.10107204,0.21441472,1.0706577,1.0706735,0.0,0.0,0.0,0.0,0.0,0.0,0.0,0.0,12.423472,0.0,0.0,nan,0.0,0.0,0.09034398,0.0025324656,0.0025312675,0.0025305345,0.0,0.0,0.0,0.0,0.0,0.0
21806664000,21806584000,0.099850774,0.099897265,0.214121,1.0681074,1.0681202,0.0,0.0,0.0,0.0,0.0,0.0,0.0,0.0,12.419672,0.0,0.0,nan,0.0,0.0,0.09034418,0.0025324656,0.0025312675,0.0025305345,0.0,0.0,0.0,0.0,0.0,0.0
21807168000,21807088000,0.10066452,0.10030932,0.2133015,1.0722363,1.0722532,0.0,0.0,0.0,0.0,0.0,0.0,0.0,0.0,12.423264,0.0,0.0,nan,0.0,0.0,0.090346366,0.0028623734,0.0030330052,0.0030814016,0.0,0.0,0.0,0.0,0.0,0.0
21807664000,21807584000,0.10378723,0.100506656,0.21200006,1.0690541,1.0690614,0.0,0.0,0.0,0.0,0.0,0.0,0.0,0.0,12.419393,0.0,0.0,nan,0.0,0.0,0.090346366,0.0026782546,0.002700005,0.002711099,0.0,0.0,0.0,0.0,0.0,0.0
21808168000,21808088000,0.10326871,0.10109172,0.21156742,1.0672699,1.067247,0.0,0.0,0.0,0.0,0.0,0.0,0.0,0.0,12.4189005,0.0,0.0,nan,0.0,0.0,0.090346366,0.002638947,0.0026278768,0.0026413528,0.0,0.0,0.0,0.0,0.0,0.0
21808664000,21808584000,0.10385804,0.10256758,0.21169646,1.0704756,1.0703243,0.0,0.0,0.0,0.0,0.0,0.0,0.0,0.0,12.418316,0.0,0.0,nan,0.0,0.0,0.090346366,0.0025972994,0.0025952205,0.0026009076,0.0,0.0,0.0,0.0,0.0,0.0
21809168000,21809088000,0.10368616,0.102720164,0.21185763,1.0686878,1.0685277,0.0,0.0,0.0,0.0,0.0,0.0,0.0,0.0,12.416827,0.0,0.0,nan,0.0,0.0,0.090346366,0.0025910318,0.002575268,0.0025789058,0.0,0.0,0.0,0.0,0.0,0.0
21809672000,21809592000,0.10477206,0.10405994,0.2125899,1.0721226,1.0718515,0.0,0.0,0.0,0.0,0.0,0.0,0.0,0.0,12.41593,0.0,0.0,nan,0.0,0.0,0.090346366,0.0025695714,0.0025624589,0.002567164,0.0,0.0,0.0,0.0,0.0,0.0
21810168000,21810088000,0.10382518,0.10347653,0.21297085,1.070297,1.070043,0.0,0.0,0.0,0.0,0.0,0.0,0.0,0.0,12.415711,0.0,0.0,nan,0.0,0.0,0.090346366,0.002553604,0.0025532707,0.0025537,0.0,0.0,0.0,0.0,0.0,0.0
21810672000,21810592000,0.10316531,0.10283538,0.2136114,1.0679091,1.067688,0.0,0.0,0.0,0.0,0.0,0.0,0.0,0.0,12.412761,0.0,0.0,nan,0.0,0.0,0.090346366,0.002546892,0.002547698,0.002547534,0.0,0.0,0.0,0.0,0.0,0.0
21811168000,21811088000,0.104777455,0.104041584,0.21443477,1.0720873,1.0719007,0.0,0.0,0.0,0.0,0.0,0.0,0.0,0.0,12.415969,0.0,0.0,nan,0.0,0.0,0.090346366,0.0025442329,0.002541604,0.0025426005,0.0,0.0,0.0,0.0,0.0,0.0
21811672000,21811592000,0.10410855,0.10307934,0.21492171,1.0691363,1.069009,0.0,0.0,0.0,0.0,0.0,0.0,0.0,0.0,12.414257,0.0,0.0,nan,0.0,0.0,0.090346366,0.0025419707,0.0025376927,0.0025387902,0.0,0.0,0.0,0.0,0.0,0.0
21812168000,21812088000,0.103934884,0.102822885,0.21510483,1.0683573,1.0682492,0.0,0.0,0.0,0.0,0.0,0.0,0.0,0.0,12.417291,0.0,0.0,nan,0.0,0.0,0.090346366,0.0025443558,0.0025343706,0.002537323,0.0,0.0,0.0,0.0,0.0,0.0
21812664000,21812584000,0.10446731,0.10307995,0.21602573,1.0705818,1.070531,0.0,0.0,0.0,0.0,0.0,0.0,0.0,0.0,12.414166,0.0,0.0,nan,0.0,0.0,0.09026195,0.0025441751,0.0025320114,0.0025358202,0.0,0.0,0.0,0.0,0.0,0.0
21813168000,21813088000,0.10361578,0.10238477,0.21612278,1.0688204,1.0687817,0.0,0.0,0.0,0.0,0.0,0.0,0.0,0.0,12.415472,0.0,0.0,nan,0.0,0.0,0.09025013,0.0025441751,0.0025320114,0.0025358202,0.0,0.0,0.0,0.0,0.0,0.0
21813672000,21813592000,0.10409909,0.10293533,0.21676336,1.0723022,1.0722448,0.0,0.0,0.0,0.0,0.0,0.0,0.0,0.0,12.4156885,0.0,0.0,nan,0.0,0.0,0.09023984,0.0025441751,0.0025320114,0.0025358202,0.0,0.0,0.0,0.0,0.0,0.0
21814168000,21814088000,0.10295836,0.102062754,0.21669446,1.0701809,1.0701293,0.0,0.0,0.0,0.0,0.0,0.0,0.0,0.0,12.416469,0.0,0.0,nan,0.0,0.0,0.09023163,0.0025441751,0.0025320114,0.0025358202,0.0,0.0,0.0,0.0,0.0,0.0
21814672000,21814592000,0.102145225,0.101436205,0.21661891,1.0685034,1.0684524,0.0,0.0,0.0,0.0,0.0,0.0,0.0,0.0,12.419318,0.0,0.0,nan,0.0,0.0,0.09022596,0.0025441751,0.0025320114,0.0025358202,0.0,0.0,0.0,0.0,0.0,0.0
21815168000,21815088000,0.1024661,0.10184373,0.21721177,1.0717523,1.0716621,0.0,0.0,0.0,0.0,0.0,0.0,0.0,0.0,12.420809,0.0,0.0,nan,0.0,0.0,0.09022158,0.0025441751,0.0025320114,0.0025358202,0.0,0.0,0.0,0.0,0.0,0.0
21815672000,21815592000,0.10142918,0.10098575,0.21685824,1.0688856,1.068807,0.0,0.0,0.0,0.0,0.0,0.0,0.0,0.0,12.418208,0.0,0.0,nan,0.0,0.0,0.09021686,0.0025441751,0.0025320114,0.0025358202,0.0,0.0,0.0,0.0,0.0,0.0
21816168000,21816088000,0.10119839,0.10079418,0.21681058,1.0681245,1.0680478,0.0,0.0,0.0,0.0,0.0,0.0,0.0,0.0,12.424454,0.0,0.0,nan,0.0,0.0,0.09021721,0.0025441751,0.0025320114,0.0025358202,0.0,0.0,0.0,0.0,0.0,0.0
21816664000,21816584000,0.10137713,0.10105525,0.2170906,1.0700954,1.0699948,0.0,0.0,0.0,0.0,0.0,0.0,0.0,0.0,12.420651,0.0,0.0,nan,0.0,0.0,0.0902153,0.0025441751,0.0025320114,0.0025358202,0.0,0.0,0.0,0.0,0.0,0.0
21817168000,21817088000,0.100955,0.10069297,0.21685156,1.0683976,1.0683074,0.0,0.0,0.0,0.0,0.0,0.0,0.0,0.0,12.422359,0.0,0.0,nan,0.0,0.0,0.090215445,0.0025441751,0.0025320114,0.0025358202,0.0,0.0,0.0,0.0,0.0,0.0
21817672000,21817592000,0.1015277,0.10129057,0.21722195,1.0715249,1.0714123,0.0,0.0,0.0,0.0,0.0,0.0,0.0,0.0,12.42323,0.0,0.0,nan,0.0,0.0,0.09021588,0.0025441751,0.0025320114,0.0025358202,0.0,0.0,0.0,0.0,0.0,0.0
21818168000,21818088000,0.101061165,0.10086699,0.21693712,1.0695242,1.0694288,0.0,0.0,0.0,0.0,0.0,0.0,0.0,0.0,12.424211,0.0,0.0,nan,0.0,0.0,0.090216696,0.0025441751,0.0025320114,0.0025358202,0.0,0.0,0.0,0.0,0.0,0.0
21818664000,21818584000,0.10075246,0.100588046,0.21671334,1.067925,1.0678412,0.0,0.0,0.0,0.0,0.0,0.0,0.0,0.0,12.425207,0.0,0.0,nan,0.0,0.0,0.09021786,0.0025441751,0.0025320114,0.0025358202,0.0,0.0,0.0,0.0,0.0,0.0
21819168000,21819088000,0.10134213,0.101191275,0.21705098,1.07085,1.0707533,0.0,0.0,0.0,0.0,0.0,0.0,0.0,0.0,12.427019,0.0,0.0,nan,0.0,0.0,0.09021926,0.0025441751,0.0025320114,0.0025358202,0.0,0.0,0.0,0.0,0.0,0.0
21819672000,21819592000,0.10077534,0.10066374,0.21664417,1.068199,1.0681231,0.0,0.0,0.0,0.0,0.0,0.0,0.0,0.0,12.426235,0.0,0.0,nan,0.0,0.0,0.09022079,0.0025441751,0.0025320114,0.0025358202,0.0,0.0,0.0,0.0,0.0,0.0
21820168000,21820088000,0.10163613,0.10152331,0.21717882,1.0722249,1.0721331,0.0,0.0,0.0,0.0,0.0,0.0,0.0,0.0,12.427619,0.0,0.0,nan,0.0,0.0,0.09022242,0.0025441751,0.0025320114,0.0025358202,0.0,0.0,0.0,0.0,0.0,0.0
21820664000,21820584000,0.100959904,0.10087936,0.21685481,1.0693758,1.0693065,0.0,0.0,0.0,0.0,0.0,0.0,0.0,0.0,12.423187,0.0,0.0,nan,0.0,0.0,0.09022412,0.0025441751,0.0025320114,0.0025358202,0.0,0.0,0.0,0.0,0.0,0.0
21821168000,21821088000,0.100666195,0.10060073,0.21664345,1.0678024,1.0677435,0.0,0.0,0.0,0.0,0.0,0.0,0.0,0.0,12.423854,0.0,0.0,nan,0.0,0.0,0.09022591,0.0025441751,0.0025320114,0.0025358202,0.0,0.0,0.0,0.0,0.0,0.0
21821672000,21821592000,0.10127583,0.10121547,0.21699259,1.0707374,1.0706763,0.0,0.0,0.0,0.0,0.0,0.0,0.0,0.0,12.424847,0.0,0.0,nan,0.0,0.0,0.09022787,0.0025441751,0.0025320114,0.0025358202,0.0,0.0,0.0,0.0,0.0,0.0
21822168000,21822088000,0.100868575,0.10081861,0.21674825,1.0688978,1.0688474,0.0,0.0,0.0,0.0,0.0,0.0,0.0,0.0,12.425381,0.0,0.0,nan,0.0,0.0,0.090229884,0.0025441751,0.0025320114,0.0025358202,0.0,0.0,0.0,0.0,0.0,0.0
21822664000,21822584000,0.10163169,0.10158497,0.21718393,1.0724151,1.0723616,0.0,0.0,0.0,0.0,0.0,0.0,0.0,0.0,12.42592,0.0,0.0,nan,0.0,0.0,0.090231724,0.0025441751,0.0025320114,0.0025358202,0.0,0.0,0.0,0.0,0.0,0.0
21823168000,21823088000,0.10111241,0.10107497,0.21690743,1.0702484,1.0702053,0.0,0.0,0.0,0.0,0.0,0.0,0.0,0.0,12.427014,0.0,0.0,nan,0.0,0.0,0.09023379,0.0025441751,0.0025320114,0.0025358202,0.0,0.0,0.0,0.0,0.0,0.0
21823664000,21823584000,0.10056531,0.10053748,0.21658993,1.0675306,1.0674981,0.0,0.0,0.0,0.0,0.0,0.0,0.0,0.0,12.4227295,0.0,0.0,nan,0.0,0.0,0.090235785,0.0025441751,0.0025320114,0.0025358202,0.0,0.0,0.0,0.0,0.0,0.0
21824168000,21824088000,0.10149087,0.10146199,0.21718484,1.0718281,1.0717906,0.0,0.0,0.0,0.0,0.0,0.0,0.0,0.0,12.428131,0.0,0.0,nan,0.0,0.0,0.090238005,0.0025441751,0.0025320114,0.0025358202,0.0,0.0,0.0,0.0,0.0,0.0
21824664000,21824584000,0.10082216,0.100801885,0.21675219,1.0688984,1.0688707,0.0,0.0,0.0,0.0,0.0,0.0,0.0,0.0,12.424564,0.0,0.0,nan,0.0,0.0,0.0902401,0.0025441751,0.0025320114,0.0025358202,0.0,0.0,0.0,0.0,0.0,0.0
21825168000,21825088000,0.10067466,0.10065645,0.2166075,1.0681217,1.0680962,0.0,0.0,0.0,0.0,0.0,0.0,0.0,0.0,12.429659,0.0,0.0,nan,0.0,0.0,0.0902422,0.0025441751,0.0025320114,0.0025358202,0.0,0.0,0.0,0.0,0.0,0.0
21825672000,21825592000,0.101037174,0.10102344,0.21690068,1.0702333,1.0702099,0.0,0.0,0.0,0.0,0.0,0.0,0.0,0.0,12.425845,0.0,0.0,nan,0.0,0.0,0.09024426,0.0025441751,0.0025320114,0.0025358202,0.0,0.0,0.0,0.0,0.0,0.0
21826168000,21826088000,0.100679934,0.100669384,0.21666983,1.0684935,1.0684739,0.0,0.0,0.0,0.0,0.0,0.0,0.0,0.0,12.425762,0.0,0.0,nan,0.0,0.0,0.09024624,0.0025441751,0.0025320114,0.0025358202,0.0,0.0,0.0,0.0,0.0,0.0
21826664000,21826584000,0.10140587,0.10139657,0.21716258,1.0717905,1.0717702,0.0,0.0,0.0,0.0,0.0,0.0,0.0,0.0,12.426172,0.0,0.0,nan,0.0,0.0,0.09024818,0.0025441751,0.0025320114,0.0025358202,0.0,0.0,0.0,0.0,0.0,0.0
21827168000,21827088000,0.10092259,0.10091563,0.21689273,1.0697355,1.0697191,0.0,0.0,0.0,0.0,0.0,0.0,0.0,0.0,12.427109,0.0,0.0,nan,0.0,0.0,0.090250105,0.0025441751,0.0025320114,0.0025358202,0.0,0.0,0.0,0.0,0.0,0.0
21827672000,21827592000,0.100602604,0.10059696,0.2166797,1.0680962,1.0680825,0.0,0.0,0.0,0.0,0.0,0.0,0.0,0.0,12.426614,0.0,0.0,nan,0.0,0.0,0.09025201,0.0025441751,0.0025320114,0.0025358202,0.0,0.0,0.0,0.0,0.0,0.0
21828168000,21828088000,0.10120802,0.101202205,0.21707296,1.0712347,1.0712209,0.0,0.0,0.0,0.0,0.0,0.0,0.0,0.0,12.428531,0.0,0.0,nan,0.0,0.0,0.09025401,0.0025441751,0.0025320114,0.0025358202,0.0,0.0,0.0,0.0,0.0,0.0
21828664000,21828584000,0.10061394,0.10060934,0.216664,1.068472,1.0684617,0.0,0.0,0.0,0.0,0.0,0.0,0.0,0.0,12.427878,0.0,0.0,nan,0.0,0.0,0.09025596,0.0025441751,0.0025320114,0.0025358202,0.0,0.0,0.0,0.0,0.0,0.0
21829168000,21829088000,0.10048657,0.1004822,0.21661428,1.0677361,1.0677265,0.0,0.0,0.0,0.0,0.0,0.0,0.0,0.0,12.429078,0.0,0.0,nan,0.0,0.0,0.09025769,0.0025441751,0.0025320114,0.0025358202,0.0,0.0,0.0,0.0,0.0,0.0
21829672000,21829592000,0.10085596,0.10085214,0.21689978,1.0697128,1.069704,0.0,0.0,0.0,0.0,0.0,0.0,0.0,0.0,12.423936,0.0,0.0,nan,0.0,0.0,0.0902596,0.0025441751,0.0025320114,0.0025358202,0.0,0.0,0.0,0.0,0.0,0.0
21830168000,21830088000,0.100540765,0.10053728,0.21668729,1.068076,1.0680687,0.0,0.0,0.0,0.0,0.0,0.0,0.0,0.0,12.425509,0.0,0.0,nan,0.0,0.0,0.09026149,0.0025441751,0.0025320114,0.0025358202,0.0,0.0,0.0,0.0,0.0,0.0
21830664000,21830584000,0.10114831,0.1011447,0.21708006,1.0712076,1.0712003,0.0,0.0,0.0,0.0,0.0,0.0,0.0,0.0,12.424357,0.0,0.0,nan,0.0,0.0,0.09026325,0.0025441751,0.0025320114,0.0025358202,0.0,0.0,0.0,0.0,0.0,0.0
21831168000,21831088000,0.1007298,0.10072707,0.21682945,1.069268,1.069262,0.0,0.0,0.0,0.0,0.0,0.0,0.0,0.0,12.426439,0.0,0.0,nan,0.0,0.0,0.09026497,0.0025441751,0.0025320114,0.0025358202,0.0,0.0,0.0,0.0,0.0,0.0
21831664000,21831584000,0.10039889,0.10039647,0.21658549,1.0674788,1.0674739,0.0,0.0,0.0,0.0,0.0,0.0,0.0,0.0,12.425569,0.0,0.0,nan,0.0,0.0,0.090266675,0.0025441751,0.0025320114,0.0025358202,0.0,0.0,0.0,0.0,0.0,0.0
21832168000,21832088000,0.10103265,0.1010305,0.21700466,1.0706742,1.0706692,0.0,0.0,0.0,0.0,0.0,0.0,0.0,0.0,12.426668,0.0,0.0,nan,0.0,0.0,0.09026812,0.0025441751,0.0025320114,0.0025358202,0.0,0.0,0.0,0.0,0.0,0.0
21832672000,21832592000,0.100502945,0.100501426,0.21663441,1.0680705,1.0680668,0.0,0.0,0.0,0.0,0.0,0.0,0.0,0.0,12.422992,0.0,0.0,nan,0.0,0.0,0.09026977,0.0025441751,0.0025320114,0.0025358202,0.0,0.0,0.0,0.0,0.0,0.0
21833168000,21833088000,0.10132887,0.10132712,0.21717681,1.0720887,1.0720847,0.0,0.0,0.0,0.0,0.0,0.0,0.0,0.0,12.428533,0.0,0.0,nan,0.0,0.0,0.090271264,0.0025441751,0.0025320114,0.0025358202,0.0,0.0,0.0,0.0,0.0,0.0
21833672000,21833592000,0.100711495,0.10071027,0.21678215,1.0692976,1.0692945,0.0,0.0,0.0,0.0,0.0,0.0,0.0,0.0,12.428011,0.0,0.0,nan,0.0,0.0,0.090272866,0.0025441751,0.0025320114,0.0025358202,0.0,0.0,0.0,0.0,0.0,0.0
21834168000,21834088000,0.10038338,0.10038254,0.216624,1.0675218,1.0675192,0.0,0.0,0.0,0.0,0.0,0.0,0.0,0.0,12.425171,0.0,0.0,nan,0.0,0.0,0.09027454,0.0025441751,0.0025320114,0.0025358202,0.0,0.0,0.0,0.0,0.0,0.0
21834664000,21834584000,0.10102102,0.10102051,0.21703008,1.0707103,1.0707077,0.0,0.0,0.0,0.0,0.0,0.0,0.0,0.0,12.42459,0.0,0.0,nan,0.0,0.0,0.09027595,0.0025441751,0.0025320114,0.0025358202,0.0,0.0,0.0,0.0,0.0,0.0
21835168000,21835088000,0.1006322,0.10063174,0.21678591,1.0688727,1.0688705,0.0,0.0,0.0,0.0,0.0,0.0,0.0,0.0,12.426657,0.0,0.0,nan,0.0,0.0,0.090277575,0.0025441751,0.0025320114,0.0025358202,0.0,0.0,0.0,0.0,0.0,0.0
21835672000,21835592000,0.10136817,0.10136751,0.21722046,1.0723712,1.0723691,0.0,0.0,0.0,0.0,0.0,0.0,0.0,0.0,12.426068,0.0,0.0,nan,0.0,0.0,0.09027915,0.0025441751,0.0025320114,0.0025358202,0.0,0.0,0.0,0.0,0.0,0.0
21836168000,21836088000,0.10086632,0.10086534,0.2169376,1.0701874,1.0701858,0.0,0.0,0.0,0.0,0.0,0.0,0.0,0.0,12.425591,0.0,0.0,nan,0.0,0.0,0.090280466,0.0025441751,0.0025320114,0.0025358202,0.0,0.0,0.0,0.0,0.0,0.0
21836672000,21836592000,0.1004022,0.100401334,0.21658404,1.067714,1.0677128,0.0,0.0,0.0,0.0,0.0,0.0,0.0,0.0,12.4262705,0.0,0.0,nan,0.0,0.0,0.090281874,0.0025441751,0.0025320114,0.0025358202,0.0,0.0,0.0,0.0,0.0,0.0
21837168000,21837088000,0.10124454,0.10124346,0.21713176,1.0717262,1.0717247,0.0,0.0,0.0,0.0,0.0,0.0,0.0,0.0,12.427464,0.0,0.0,nan,0.0,0.0,0.09028313,0.0025441751,0.0025320114,0.0025358202,0.0,0.0,0.0,0.0,0.0,0.0
21837664000,21837584000,0.100613296,0.10061251,0.2167119,1.0688175,1.0688164,0.0,0.0,0.0,0.0,0.0,0.0,0.0,0.0,12.428009,0.0,0.0,nan,0.0,0.0,0.09028461,0.0025441751,0.0025320114,0.0025358202,0.0,0.0,0.0,0.0,0.0,0.0
21838168000,21838088000,0.10047538,0.100474544,0.21665473,1.068045,1.068044,0.0,0.0,0.0,0.0,0.0,0.0,0.0,0.0,12.430275,0.0,0.0,nan,0.0,0.0,0.09028604,0.0025441751,0.0025320114,0.0025358202,0.0,0.0,0.0,0.0,0.0,0.0
21838664000,21838584000,0.10086984,0.10086885,0.21694677,1.0701454,1.0701444,0.0,0.0,0.0,0.0,0.0,0.0,0.0,0.0,12.425393,0.0,0.0,nan,0.0,0.0,0.09028745,0.0025441751,0.0025320114,0.0025358202,0.0,0.0,0.0,0.0,0.0,0.0
21839168000,21839088000,0.100536756,0.100535706,0.216712,1.0684171,1.0684162,0.0,0.0,0.0,0.0,0.0,0.0,0.0,0.0,12.425818,0.0,0.0,nan,0.0,0.0,0.09028881,0.0025441751,0.0025320114,0.0025358202,0.0,0.0,0.0,0.0,0.0,0.0
21839672000,21839592000,0.10124878,0.10124765,0.21711054,1.0716987,1.0716977,0.0,0.0,0.0,0.0,0.0,0.0,0.0,0.0,12.426767,0.0,0.0,nan,0.0,0.0,0.09029015,0.0025441751,0.0025320114,0.0025358202,0.0,0.0,0.0,0.0,0.0,0.0
21840168000,21840088000,0.100784324,0.100783244,0.21684046,1.0696579,1.069657,0.0,0.0,0.0,0.0,0.0,0.0,0.0,0.0,12.426128,0.0,0.0,nan,0.0,0.0,0.09029132,0.0025441751,0.0025320114,0.0025358202,0.0,0.0,0.0,0.0,0.0,0.0
21840664000,21840584000,0.10047447,0.100473344,0.21662736,1.0680285,1.0680277,0.0,0.0,0.0,0.0,0.0,0.0,0.0,0.0,12.4282255,0.0,0.0,nan,0.0,0.0,0.090292476,0.0025441751,0.0025320114,0.0025358202,0.0,0.0,0.0,0.0,0.0,0.0
21841168000,21841088000,0.101098195,0.10109694,0.21701701,1.0711775,1.0711766,0.0,0.0,0.0,0.0,0.0,0.0,0.0,0.0,12.426981,0.0,0.0,nan,0.0,0.0,0.090293705,0.0025441751,0.0025320114,0.0025358202,0.0,0.0,0.0,0.0,0.0,0.0
21841672000,21841592000,0.10054305,0.100541905,0.21662596,1.0684447,1.068444,0.0,0.0,0.0,0.0,0.0,0.0,0.0,0.0,12.427049,0.0,0.0,nan,0.0,0.0,0.09029491,0.0025441751,0.0025320114,0.0025358202,0.0,0.0,0.0,0.0,0.0,0.0
21842168000,21842088000,0.100417964,0.10041689,0.21657941,1.0677097,1.067709,0.0,0.0,0.0,0.0,0.0,0.0,0.0,0.0,12.427767,0.0,0.0,nan,0.0,0.0,0.09029596,0.0025441751,0.0025320114,0.0025358202,0.0,0.0,0.0,0.0,0.0,0.0
21842664000,21842584000,0.10077803,0.10077726,0.2168625,1.0696808,1.06968,0.0,0.0,0.0,0.0,0.0,0.0,0.0,0.0,12.424738,0.0,0.0,nan,0.0,0.0,0.09029699,0.0025441751,0.0025320114,0.0025358202,0.0,0.0,0.0,0.0,0.0,0.0
21843168000,21843088000,0.1004643,0.10046386,0.21664773,1.0680472,1.0680465,0.0,0.0,0.0,0.0,0.0,0.0,0.0,0.0,12.425269,0.0,0.0,nan,0.0,0.0,0.09029798,0.0025441751,0.0025320114,0.0025358202,0.0,0.0,0.0,0.0,0.0,0.0
21843664000,21843584000,0.10106656,0.1010667,0.21703508,1.0711689,1.0711681,0.0,0.0,0.0,0.0,0.0,0.0,0.0,0.0,12.425148,0.0,0.0,nan,0.0,0.0,0.09029907,0.0025441751,0.0025320114,0.0025358202,0.0,0.0,0.0,0.0,0.0,0.0
21844168000,21844088000,0.10065684,0.100657284,0.21678793,1.0692339,1.0692333,0.0,0.0,0.0,0.0,0.0,0.0,0.0,0.0,12.425211,0.0,0.0,nan,0.0,0.0,0.09030001,0.0025441751,0.0025320114,0.0025358202,0.0,0.0,0.0,0.0,0.0,0.0
21844672000,21844592000,0.10038981,0.10039068,0.21659078,1.0676836,1.0676831,0.0,0.0,0.0,0.0,0.0,0.0,0.0,0.0,12.426416,0.0,0.0,nan,0.0,0.0,0.09030104,0.0025441751,0.0025320114,0.0025358202,0.0,0.0,0.0,0.0,0.0,0.0
21845168000,21845088000,0.100977555,0.10097859,0.21695343,1.0706156,1.0706152,0.0,0.0,0.0,0.0,0.0,0.0,0.0,0.0,12.425867,0.0,0.0,nan,0.0,0.0,0.09030204,0.0025441751,0.0025320114,0.0025358202,0.0,0.0,0.0,0.0,0.0,0.0
21845664000,21845584000,0.100452594,0.10045299,0.21666841,1.0680256,1.0680254,0.0,0.0,0.0,0.0,0.0,0.0,0.0,0.0,12.422209,0.0,0.0,nan,0.0,0.0,0.090303004,0.0025441751,0.0025320114,0.0025358202,0.0,0.0,0.0,0.0,0.0,0.0
21846168000,21846088000,0.1013353,0.10133557,0.2171715,1.0722967,1.0722966,0.0,0.0,0.0,0.0,0.0,0.0,0.0,0.0,12.42832,0.0,0.0,nan,0.0,0.0,0.090303816,0.0025441751,0.0025320114,0.0025358202,0.0,0.0,0.0,0.0,0.0,0.0
21846672000,21846592000,0.10065103,0.10065116,0.21682163,1.0692172,1.0692171,0.0,0.0,0.0,0.0,0.0,0.0,0.0,0.0,12.423352,0.0,0.0,nan,0.0,0.0,0.090304606,0.0025441751,0.0025320114,0.0025358202,0.0,0.0,0.0,0.0,0.0,0.0
21847168000,21847088000,0.10037659,0.10037662,0.2166222,1.0676703,1.0676702,0.0,0.0,0.0,0.0,0.0,0.0,0.0,0.0,12.424007,0.0,0.0,nan,0.0,0.0,0.09030562,0.0025441751,0.0025320114,0.0025358202,0.0,0.0,0.0,0.0,0.0,0.0
21847672000,21847592000,0.1009758,0.10097577,0.21697912,1.0706024,1.0706023,0.0,0.0,0.0,0.0,0.0,0.0,0.0,0.0,12.425473,0.0,0.0,nan,0.0,0.0,0.09030648,0.0025441751,0.0025320114,0.0025358202,0.0,0.0,0.0,0.0,0.0,0.0
21848168000,21848088000,0.10059251,0.100592494,0.21673532,1.0687853,1.0687852,0.0,0.0,0.0,0.0,0.0,0.0,0.0,0.0,12.425943,0.0,0.0,nan,0.0,0.0,0.0903073,0.0025441751,0.0025320114,0.0025358202,0.0,0.0,0.0,0.0,0.0,0.0
21848664000,21848584000,0.10133777,0.10133777,0.21725655,1.0722871,1.072287,0.0,0.0,0.0,0.0,0.0,0.0,0.0,0.0,12.426322,0.0,0.0,nan,0.0,0.0,0.09030798,0.0025441751,0.0025320114,0.0025358202,0.0,0.0,0.0,0.0,0.0,0.0
21849168000,21849088000,0.100835964,0.10083596,0.21696305,1.0701208,1.0701208,0.0,0.0,0.0,0.0,0.0,0.0,0.0,0.0,12.427199,0.0,0.0,nan,0.0,0.0,0.09030864,0.0025441751,0.0025320114,0.0025358202,0.0,0.0,0.0,0.0,0.0,0.0
21849672000,21849592000,0.10037341,0.100373276,0.21659094,1.0676657,1.0676656,0.0,0.0,0.0,0.0,0.0,0.0,0.0,0.0,12.427643,0.0,0.0,nan,0.0,0.0,0.0903094,0.0025441751,0.0025320114,0.0025358202,0.0,0.0,0.0,0.0,0.0,0.0
21850168000,21850088000,0.10121057,0.10121036,0.21712963,1.0716754,1.0716753,0.0,0.0,0.0,0.0,0.0,0.0,0.0,0.0,12.4296255,0.0,0.0,nan,0.0,0.0,0.09031012,0.0025441751,0.0025320114,0.0025358202,0.0,0.0,0.0,0.0,0.0,0.0
21850664000,21850584000,0.1005856,0.100585274,0.21670029,1.0687814,1.0687811,0.0,0.0,0.0,0.0,0.0,0.0,0.0,0.0,12.4284,0.0,0.0,nan,0.0,0.0,0.0903107,0.0025441751,0.0025320114,0.0025358202,0.0,0.0,0.0,0.0,0.0,0.0
21851168000,21851088000,0.10044864,0.10044817,0.21664576,1.0680121,1.068012,0.0,0.0,0.0,0.0,0.0,0.0,0.0,0.0,12.428575,0.0,0.0,nan,0.0,0.0,0.09031111,0.0025441751,0.0025320114,0.0025358202,0.0,0.0,0.0,0.0,0.0,0.0
