timestamp,x,y,z,yaw,yawspeed,vx,vy,vz,acceleration[0],acceleration[1],acceleration[2],jerk[0],jerk[1],jerk[2],thrust[0],thrust[1],thrust[2]
21726356000,nan,nan,nan,-1.0712705,0.0,nan,nan,nan,0.0,0.0,100.0,0.0,0.0,0.0,-0.0,-0.0,-0.001
21726364000,nan,nan,nan,-1.0712653,0.0,nan,nan,nan,0.0,0.0,100.0,0.0,0.0,0.0,-0.0,-0.0,-0.001
21726452000,nan,nan,nan,-1.0713533,0.0,nan,nan,nan,0.0,0.0,100.0,0.0,0.0,0.0,-0.0,-0.0,-0.001
21726556000,nan,nan,nan,-1.0712874,0.0,nan,nan,nan,0.0,0.0,100.0,0.0,0.0,0.0,-0.0,-0.0,-0.001
21726660000,nan,nan,nan,-1.0712669,0.0,nan,nan,nan,0.0,0.0,100.0,0.0,0.0,0.0,-0.0,-0.0,-0.001
21726756000,nan,nan,nan,-1.0712483,0.0,nan,nan,nan,0.0,0.0,100.0,0.0,0.0,0.0,-0.0,-0.0,-0.001
21726852000,nan,nan,nan,-1.0712899,0.0,nan,nan,nan,0.0,0.0,100.0,0.0,0.0,0.0,-0.0,-0.0,-0.001
21726956000,nan,nan,nan,-1.0712237,0.0,nan,nan,nan,0.0,0.0,100.0,0.0,0.0,0.0,-0.0,-0.0,-0.001
21727052000,nan,nan,nan,-1.0710964,0.0,nan,nan,nan,0.0,0.0,100.0,0.0,0.0,0.0,-0.0,-0.0,-0.001
21727156000,nan,nan,nan,-1.0710156,0.0,nan,nan,nan,0.0,0.0,100.0,0.0,0.0,0.0,-0.0,-0.0,-0.001
21727252000,nan,nan,nan,-1.0710717,0.0,nan,nan,nan,0.0,0.0,100.0,0.0,0.0,0.0,-0.0,-0.0,-0.001
21727356000,nan,nan,nan,-1.0711823,0.0,nan,nan,nan,0.0,0.0,100.0,0.0,0.0,0.0,-0.0,-0.0,-0.001
21727460000,nan,nan,nan,-1.0712423,0.0,nan,nan,nan,0.0,0.0,100.0,0.0,0.0,0.0,-0.0,-0.0,-0.001
21727556000,nan,nan,nan,-1.0710864,0.0,nan,nan,nan,0.0,0.0,100.0,0.0,0.0,0.0,-0.0,-0.0,-0.001
21727660000,nan,nan,nan,-1.0710895,0.0,nan,nan,nan,0.0,0.0,100.0,0.0,0.0,0.0,-0.0,-0.0,-0.001
21727756000,nan,nan,nan,-1.0710676,0.0,nan,nan,nan,0.0,0.0,100.0,0.0,0.0,0.0,-0.0,-0.0,-0.001
21727860000,nan,nan,nan,-1.0712126,0.0,nan,nan,nan,0.0,0.0,100.0,0.0,0.0,0.0,-0.0,-0.0,-0.001
21727956000,nan,nan,nan,-1.0711188,0.0,nan,nan,nan,0.0,0.0,100.0,0.0,0.0,0.0,-0.0,-0.0,-0.001
21728052000,nan,nan,nan,-1.0712988,0.0,nan,nan,nan,0.0,0.0,100.0,0.0,0.0,0.0,-0.0,-0.0,-0.001
21728156000,nan,nan,nan,-1.0712444,0.0,nan,nan,nan,0.0,0.0,100.0,0.0,0.0,0.0,-0.0,-0.0,-0.001
21728252000,nan,nan,nan,-1.0710456,0.0,nan,nan,nan,0.0,0.0,100.0,0.0,0.0,0.0,-0.0,-0.0,-0.001
21728356000,nan,nan,nan,-1.0710065,0.0,nan,nan,nan,0.0,0.0,100.0,0.0,0.0,0.0,-0.0,-0.0,-0.001
21728452000,nan,nan,nan,-1.071054,0.0,nan,nan,nan,0.0,0.0,100.0,0.0,0.0,0.0,-0.0,-0.0,-0.001
21728556000,nan,nan,nan,-1.0709611,0.0,nan,nan,nan,0.0,0.0,100.0,0.0,0.0,0.0,-0.0,-0.0,-0.001
21728660000,nan,nan,nan,-1.0710214,0.0,nan,nan,nan,0.0,0.0,100.0,0.0,0.0,0.0,-0.0,-0.0,-0.001
21728756000,nan,nan,nan,-1.071007,0.0,nan,nan,nan,0.0,0.0,100.0,0.0,0.0,0.0,-0.0,-0.0,-0.001
21728852000,nan,nan,nan,-1.0709519,0.0,nan,nan,nan,0.0,0.0,100.0,0.0,0.0,0.0,-0.0,-0.0,-0.001
21728956000,nan,nan,nan,-1.0708694,0.0,nan,nan,nan,0.0,0.0,100.0,0.0,0.0,0.0,-0.0,-0.0,-0.001
21729052000,nan,nan,nan,-1.0708327,0.0,nan,nan,nan,0.0,0.0,100.0,0.0,0.0,0.0,-0.0,-0.0,-0.001
21729156000,nan,nan,nan,-1.070879,0.0,nan,nan,nan,0.0,0.0,100.0,0.0,0.0,0.0,-0.0,-0.0,-0.001
21729252000,nan,nan,nan,-1.0711844,0.0,nan,nan,nan,0.0,0.0,100.0,0.0,0.0,0.0,-0.0,-0.0,-0.001
21729356000,nan,nan,nan,-1.0713255,0.0,nan,nan,nan,0.0,0.0,100.0,0.0,0.0,0.0,-0.0,-0.0,-0.001
21729452000,nan,nan,nan,-1.0712874,0.0,nan,nan,nan,0.0,0.0,100.0,0.0,0.0,0.0,-0.0,-0.0,-0.001
21729556000,nan,nan,nan,-1.0712715,0.0,nan,nan,nan,0.0,0.0,100.0,0.0,0.0,0.0,-0.0,-0.0,-0.001
21729652000,nan,nan,nan,-1.0713503,0.0,nan,nan,nan,0.0,0.0,100.0,0.0,0.0,0.0,-0.0,-0.0,-0.001
21729756000,nan,nan,nan,-1.0713038,0.0,nan,nan,nan,0.0,0.0,100.0,0.0,0.0,0.0,-0.0,-0.0,-0.001
21729860000,nan,nan,nan,-1.0713378,0.0,nan,nan,nan,0.0,0.0,100.0,0.0,0.0,0.0,-0.0,-0.0,-0.001
21729956000,nan,nan,nan,-1.0711555,0.0,nan,nan,nan,0.0,0.0,100.0,0.0,0.0,0.0,-0.0,-0.0,-0.001
21730052000,nan,nan,nan,-1.0712277,0.0,nan,nan,nan,0.0,0.0,100.0,0.0,0.0,0.0,-0.0,-0.0,-0.001
21730156000,nan,nan,nan,-1.0713539,0.0,nan,nan,nan,0.0,0.0,100.0,0.0,0.0,0.0,-0.0,-0.0,-0.001
21730252000,nan,nan,nan,-1.0712684,0.0,nan,nan,nan,0.0,0.0,100.0,0.0,0.0,0.0,-0.0,-0.0,-0.001
21730356000,nan,nan,nan,-1.0711685,0.0,nan,nan,nan,0.0,0.0,100.0,0.0,0.0,0.0,-0.0,-0.0,-0.001
21730452000,nan,nan,nan,-1.0710515,0.0,nan,nan,nan,0.0,0.0,100.0,0.0,0.0,0.0,-0.0,-0.0,-0.001
21730556000,nan,nan,nan,-1.0709938,0.0,nan,nan,nan,0.0,0.0,100.0,0.0,0.0,0.0,-0.0,-0.0,-0.001
21730652000,nan,nan,nan,-1.0710332,0.0,nan,nan,nan,0.0,0.0,100.0,0.0,0.0,0.0,-0.0,-0.0,-0.001
21730756000,nan,nan,nan,-1.0709138,0.0,nan,nan,nan,0.0,0.0,100.0,0.0,0.0,0.0,-0.0,-0.0,-0.001
21730852000,nan,nan,nan,-1.0710218,0.0,nan,nan,nan,0.0,0.0,100.0,0.0,0.0,0.0,-0.0,-0.0,-0.001
21730956000,nan,nan,nan,-1.0710096,0.0,nan,nan,nan,0.0,0.0,100.0,0.0,0.0,0.0,-0.0,-0.0,-0.001
21731052000,nan,nan,nan,-1.0710672,0.0,nan,nan,nan,0.0,0.0,100.0,0.0,0.0,0.0,-0.0,-0.0,-0.001
21731156000,nan,nan,nan,-1.0708586,0.0,nan,nan,nan,0.0,0.0,100.0,0.0,0.0,0.0,-0.0,-0.0,-0.001
21731260000,nan,nan,nan,-1.0709368,0.0,nan,nan,nan,0.0,0.0,100.0,0.0,0.0,0.0,-0.0,-0.0,-0.001
21731356000,nan,nan,nan,-1.0710155,0.0,nan,nan,nan,0.0,0.0,100.0,0.0,0.0,0.0,-0.0,-0.0,-0.001
21731452000,nan,nan,nan,-1.0709891,0.0,nan,nan,nan,0.0,0.0,100.0,0.0,0.0,0.0,-0.0,-0.0,-0.001
21731556000,nan,nan,nan,-1.0710825,0.0,nan,nan,nan,0.0,0.0,100.0,0.0,0.0,0.0,-0.0,-0.0,-0.001
21731660000,nan,nan,nan,-1.071042,0.0,nan,nan,nan,0.0,0.0,100.0,0.0,0.0,0.0,-0.0,-0.0,-0.001
21731756000,nan,nan,nan,-1.0711554,0.0,nan,nan,nan,0.0,0.0,100.0,0.0,0.0,0.0,-0.0,-0.0,-0.001
21731852000,nan,nan,nan,-1.071133,0.0,nan,nan,nan,0.0,0.0,100.0,0.0,0.0,0.0,-0.0,-0.0,-0.001
21731956000,nan,nan,nan,-1.0712577,0.0,nan,nan,nan,0.0,0.0,100.0,0.0,0.0,0.0,-0.0,-0.0,-0.001
21732060000,nan,nan,nan,-1.0713732,0.0,nan,nan,nan,0.0,0.0,100.0,0.0,0.0,0.0,-0.0,-0.0,-0.001
21732156000,nan,nan,nan,-1.07152,0.0,nan,nan,nan,0.0,0.0,100.0,0.0,0.0,0.0,-0.0,-0.0,-0.001
21732252000,nan,nan,nan,-1.0716425,0.0,nan,nan,nan,0.0,0.0,100.0,0.0,0.0,0.0,-0.0,-0.0,-0.001
21732356000,-0.67828894,-1.1473696,0.13194275,-1.0715431,0.0,-0.011907038,0.004611152,2.3935115,-0.032863528,-0.0012828079,9.656991,0.0,0.0,0.0,-2.5659074e-05,-1.0015864e-06,-0.007630497
21732452000,-0.66716945,-1.1473696,0.12930298,-1.0713085,0.0,-0.0011247873,0.0045073032,2.2190583,0.005624004,-0.0025982514,9.398853,0.0,0.0,0.0,1.3033758e-05,-6.021507e-06,-0.020791857
21732556000,-0.66716945,-1.1473696,0.12284851,-1.0712239,0.0,-0.0007710546,0.0043890714,2.0300672,0.018249715,-0.0003914946,9.084638,0.0,0.0,0.0,6.9600195e-05,-1.4930699e-06,-0.036812395
21732660000,-0.67828894,-1.1473696,0.10096741,-1.0711304,0.0,-0.011004898,0.004343998,1.8410763,-0.0176126,-0.0070932973,8.733822,0.0,0.0,0.0,-9.7538425e-05,-3.928262e-05,-0.054699022
21732756000,-0.67828894,-1.1473696,0.07522583,-1.071031,0.0,-0.010780156,0.004263365,1.6666231,-0.015159881,-0.0010205032,8.368564,0.0,0.0,0.0,-0.000112959555,-7.60399e-06,-0.073322006
21732860000,-0.66716945,-1.1473696,0.014755249,-1.0708845,0.0,-0.00012627244,0.004296094,1.477632,0.010983918,-0.0029303087,7.943843,0.0,0.0,0.0,0.00010508461,-2.8034656e-05,-0.09497674
21732956000,-0.66716945,-1.1473696,-0.04321289,-1.0708911,0.0,-0.00021760761,0.0043125153,1.3031789,0.00081862643,-0.0010252491,7.5107946,0.0,0.0,0.0,-0.0,-0.0,-0.11705606
21733060000,-0.66716945,-1.1473696,-0.15740967,-1.0708963,0.0,-0.0003943324,0.0043863533,1.1141878,0.0018057949,-0.008472433,7.0193806,0.0,0.0,0.0,2.5053725e-05,-0.00011754714,-0.1421112
21733156000,-0.66716945,-1.1473696,-0.24900818,-1.0708346,0.0,-0.00054240524,0.004401189,0.93973553,0.0029949788,-0.004095889,6.5080185,0.0,0.0,0.0,3.427484e-05,-4.6873763e-05,-0.16818342
21733252000,-0.66716945,-1.1473696,-0.40446472,-1.070634,0.0,-0.00067094265,0.004378766,0.7652833,-0.0050213197,-0.00038147133,5.9815493,0.0,0.0,0.0,-6.714252e-05,-5.1008396e-06,-0.19502588
21733356000,-0.67828894,-1.1473696,-0.51841736,-1.070449,0.0,-0.011395549,0.004302776,0.57629335,-0.029393222,-0.0040040286,5.35365,0.0,0.0,0.0,-0.00067713106,-9.224073e-05,-0.22703981
21733452000,-0.66716945,-1.1473696,-0.69374084,-1.0700701,0.0,-0.00092428026,0.004107535,0.40184107,-0.0038818654,-0.010415364,4.7544227,0.0,0.0,0.0,-0.00010301612,-0.0002764007,-0.2575919
21733556000,-0.66716945,-1.1473696,-0.8138733,-1.0697807,0.0,-0.0009665787,0.0035939515,0.21285112,0.0004432673,-0.012558702,4.0608244,0.0,0.0,0.0,1.3818258e-05,-0.00039150057,-0.29295558
21733652000,-0.67828894,-1.1473696,-0.9344635,-1.069777,0.0,-0.011561063,0.0029851256,0.038398873,-0.03924738,-0.014227191,3.3647645,0.0,0.0,0.0,-0.001314416,-0.0004764763,-0.32844475
21733756000,-0.67828894,-1.1473696,-1.1150665,-1.0698116,0.0,-0.011415311,0.002226585,-0.15059108,-0.04390765,-0.022216655,2.5878017,0.0,0.0,0.0,-0.0016470964,-0.0008334077,-0.36805883
21733852000,-0.67828894,-1.1473696,-1.2957916,-1.0695038,0.0,-0.011351779,0.0013745009,-0.32504332,-0.025968194,-0.036653034,1.8473117,0.0,0.0,0.0,-0.0010776431,-0.001521049,-0.4058133
21733956000,-0.66716945,-1.1473696,-1.4177704,-1.0695982,0.0,-0.0004460305,0.0003268361,-0.51403326,0.05208941,-0.049629312,1.0427723,0.0,0.0,0.0,0.0023747354,-0.0022625804,-0.4468334
21734052000,-0.67828894,-1.1473696,-1.5366364,-1.0705912,0.0,-0.0097930785,-0.000940758,-0.6884855,0.040521428,-0.04990244,0.31797576,0.0,0.0,0.0,0.0020006103,-0.0024637666,-0.48378775
21734156000,-0.67828894,-1.1473696,-1.7135468,-1.0711727,0.0,-0.007888687,-0.0023792444,-0.87747544,0.061223846,-0.074576095,0.0420599,0.0,0.0,0.0,0.0031100423,-0.0037883082,-0.49785554
21734260000,-0.67828894,-1.1473696,-1.8803864,-1.0711294,0.0,-0.0052493094,-0.0040831864,-1.0664654,0.09745857,-0.09189977,-0.042644262,0.0,0.0,0.0,0.004989095,-0.004704529,-0.50217426
21734356000,-0.67828894,-1.1473696,-1.9837646,-1.0710325,0.0,-0.0021738112,-0.0057973205,-1.2409177,0.12781332,-0.11264334,-0.06654167,0.0,0.0,0.0,0.0065593845,-0.00578086,-0.5033927
21734452000,-0.67828894,-1.1473696,-2.0743713,-1.0712408,0.0,0.0011136323,-0.0074504134,-1.4153699,0.15008913,-0.10563297,-0.10068345,0.0,0.0,0.0,0.0077316924,-0.0054415776,-0.50513345
21734556000,-0.67828894,-1.1473696,-2.1895752,-1.0708872,0.0,0.004557699,-0.008828878,-1.6043599,0.15162675,-0.10673427,-0.15227056,0.0,0.0,0.0,0.007851774,-0.005527081,-0.5077636
21734660000,-0.67828894,-1.1473696,-2.272171,-1.0710523,0.0,0.007524365,-0.009694212,-1.7933499,0.15831666,-0.10117499,-0.20104384,0.0,0.0,0.0,0.0082369875,-0.005263989,-0.5102504
21734756000,-0.67828894,-1.1473696,-2.309906,-1.0708416,0.0,0.009649876,-0.010136789,-1.967802,0.15076597,-0.103072256,-0.24937534,0.0,0.0,0.0,0.007882913,-0.005389211,-0.5127146
21734852000,-0.67828894,-1.1473696,-2.33609,-1.070942,0.0,0.011263388,-0.010178238,-1.8588117,0.15577388,-0.10653746,0.778124,0.0,0.0,0.0,0.0073123323,-0.0050010784,-0.46032673
21734956000,-0.67828894,-1.1473696,-2.35849,-1.0708218,0.0,0.012436023,-0.009855932,-1.718775,0.15391989,-0.08524641,1.3179828,0.0,0.0,0.0,0.0067920997,-0.0037617108,-0.43280157
21735052000,-0.67828894,-1.1473696,-2.365158,-1.0706948,0.0,0.013159966,-0.009277796,-1.5802803,0.15947768,-0.073658034,1.4689742,0.0,0.0,0.0,0.0069143404,-0.0031935298,-0.42510316
21735156000,-0.67828894,-1.1473696,-2.3679657,-1.0706986,0.0,0.013500222,-0.008359688,-1.4379728,0.15168291,-0.058887426,1.4842154,0.0,0.0,0.0,0.0065619457,-0.0025475256,-0.4243261
21735252000,-0.67828894,-1.1473696,-2.3680115,-1.0706878,0.0,0.01361432,-0.0072300313,-1.3158334,0.14164889,-0.043111295,1.4709525,0.0,0.0,0.0,0.0061389008,-0.0018683942,-0.4250023
21735356000,-0.67828894,-1.1473696,-2.3680115,-1.0704452,0.0,0.013315457,-0.0056624413,-1.1954762,0.1369479,-0.047747612,1.4384255,0.0,0.0,0.0,0.005957466,-0.0020771022,-0.42666072
21735460000,-0.67828894,-1.1473696,-2.3680115,-1.0704827,0.0,0.012959629,-0.004290545,-1.0873257,0.1277108,-0.03171006,1.414021,0.0,0.0,0.0,0.0055722333,-0.0013835623,-0.427905
21735556000,-0.67828894,-1.1473696,-2.3680115,-1.0706649,0.0,0.012615353,-0.0030273676,-0.9976344,0.13764742,-0.035345238,1.3678215,0.0,0.0,0.0,0.0060402937,-0.0015510324,-0.4302605
21735652000,-0.67828894,-1.1473696,-2.3680115,-0.99180907,0.0,0.011617177,-0.0014535487,-0.9161298,0.11621766,-0.022864487,1.3267182,0.0,0.0,0.0,0.0051246583,-0.0010082176,-0.4323562
21735756000,-0.67828894,-1.1473696,-2.3680115,-0.9999669,0.0,0.010286448,0.0004988611,-0.83611023,0.11590462,-0.0065516564,1.3138264,0.0,0.0,0.0,0.005114706,-0.00028911524,-0.4330135
21735860000,-0.67828894,-1.1473696,-2.3680115,-1.0071924,0.0,0.009060925,0.0024605573,-0.7636498,0.12107428,0.0058067623,1.2899624,0.0,0.0,0.0,0.005362225,0.0002571741,-0.4342302
21735956000,-0.67828894,-1.1473696,-2.3680115,-1.0127057,0.0,0.008091572,0.0041714073,-0.7027236,0.10933654,0.01005026,1.2689886,0.0,0.0,0.0,0.004852192,0.0004460155,-0.43529958
21736052000,-0.67828894,-1.1473696,-2.3680115,-1.0165137,0.0,0.0068458915,0.0058938083,-0.64660966,0.108006045,0.011330466,1.2613133,0.0,0.0,0.0,0.0048017055,0.000503727,-0.4356909
21736156000,-0.67828894,-1.1473696,-2.3680115,-1.0206215,0.0,0.0050904215,0.0077318368,-0.5905154,0.108149484,0.024017919,1.260523,0.0,0.0,0.0,0.004804326,0.0010669483,-0.4357312
21736252000,-0.67828894,-1.1473696,-2.3680115,-1.0226402,0.0,0.0034562408,0.009111208,-0.5444399,0.09086924,0.031642184,1.2247742,0.0,0.0,0.0,0.004055606,0.0014122297,-0.43755388
21736356000,-0.67828894,-1.1473696,-2.3680115,-1.0254232,0.0,0.0013441503,0.010363626,-0.5002687,0.08428281,0.03956138,1.1766993,0.0,0.0,0.0,0.0037788788,0.001773762,-0.44000503
21736452000,-0.67828894,-1.1473696,-2.3680115,-1.0273756,0.0,-0.0003284216,0.011039835,-0.46306646,0.07746014,0.029279387,1.1794795,0.0,0.0,0.0,0.003474041,0.0013131629,-0.4398633
21736556000,-0.67828894,-1.1473696,-2.3680115,-1.0299108,0.0,-0.0022077858,0.011293965,-0.42497027,0.080331415,0.04948827,1.1697488,0.0,0.0,0.0,0.0036061553,0.0022215764,-0.4403594
21736652000,-0.67828894,-1.1473696,-2.3680115,-1.0311773,0.0,-0.0035664886,0.011491358,-0.39313257,0.06300651,0.055149652,1.1746023,0.0,0.0,0.0,0.002828732,0.0024759916,-0.44011196
21736756000,-0.67828894,-1.1473696,-2.3680115,-1.0343803,0.0,-0.0057834475,0.01176576,-0.36192918,0.052698877,0.051048394,1.1666993,0.0,0.0,0.0,0.0023684183,0.0022942415,-0.4405149
21736860000,-0.67828894,-1.1473696,-2.3680115,-1.036463,0.0,-0.0074047744,0.011895769,-0.3338046,0.05615598,0.052361514,1.172728,0.0,0.0,0.0,0.0025202867,0.0023499904,-0.4402075
21736956000,-0.67828894,-1.1473696,-2.3680115,-1.0376682,0.0,-0.008172205,0.011943674,-0.31068683,0.05746013,0.05387579,1.1480507,0.0,0.0,0.0,0.002588711,0.0024272283,-0.4414657
21737052000,-0.67828894,-1.1473696,-2.3680115,-1.0390058,0.0,-0.008186304,0.012079346,-0.28856158,0.06744789,0.060996775,1.1121266,0.0,0.0,0.0,0.0030482602,0.0027567062,-0.44329733
21737156000,-0.67828894,-1.1473696,-2.3680115,-1.0396527,0.0,-0.00753603,0.012248767,-0.26625037,0.06076728,0.059492458,1.1357429,0.0,0.0,0.0,0.0027399082,0.002682428,-0.44209322
21737252000,-0.67828894,-1.1473696,-2.3680115,-1.0399063,0.0,-0.0075873313,0.012334382,-0.24756265,0.06606217,0.07443876,0.3940274,0.0,0.0,0.0,0.0029821978,0.0033603364,-0.44293612
21737356000,nan,nan,nan,-1.0421399,0.0,0.0,0.0,-0.0,0.08508686,0.030642485,1.2500352,0.0,0.0,0.0,0.0034809296,0.0012535935,-0.40101242
21737452000,nan,nan,nan,-1.0431215,0.0,0.0,0.0,-0.0,0.083308265,0.047116786,0.75823027,0.0,0.0,0.0,0.0036115325,0.00204258,-0.42512175
21737556000,-0.67828894,-1.1473696,-2.146347,-1.0432129,0.0,-0.009359959,0.013295638,-0.0032444,0.052697957,0.093164325,0.45222175,0.0,0.0,0.0,0.0023642473,0.004179735,-0.4397986
21737652000,-0.67828894,-1.1473696,-2.1487427,-1.0435869,0.0,-0.009789568,0.013611036,-0.012653112,0.04329794,0.10510757,0.3042291,0.0,0.0,0.0,0.0019710646,0.004784842,-0.44624382
21737756000,-0.67828894,-1.1390553,-2.1607056,-1.0453674,0.0,-0.010089395,0.021135515,-0.032482862,0.03671236,0.12472147,0.18636733,0.0,0.0,0.0,0.0016889261,0.0057377224,-0.45102814
21737852000,-0.67828894,-1.1224267,-2.1772766,-1.0472394,0.0,-0.010101115,0.03637303,-0.055525303,0.04331472,0.15844642,0.12372923,0.0,0.0,0.0,0.0020001289,0.0073165256,-0.45274216
21737956000,-0.678289,-1.0808554,-2.2200775,-1.0503021,0.0,-0.010482085,0.07416167,-0.10251284,0.049387574,0.2558304,0.002693534,0.0,0.0,0.0,0.002302292,0.011926002,-0.45717543
21738060000,-0.678289,-1.006027,-2.284378,-1.0526867,0.0,-0.010465777,0.14284323,-0.16718197,0.038224377,0.44278422,-0.12540895,0.0,0.0,0.0,0.0017994478,0.020844476,-0.4616625
21738156000,-0.678289,-0.9395128,-2.3349762,-1.0534041,0.0,-0.010172122,0.202515,-0.21368337,0.04920307,0.61133385,-0.15130186,0.0,0.0,0.0,0.0023153124,0.028767081,-0.46146652
21738252000,-0.678289,-0.85637003,-2.3896637,-1.0536095,0.0,-0.010299641,0.27590045,-0.2581849,0.047676805,0.786487,-0.14595526,0.0,0.0,0.0,0.0022354042,0.036875717,-0.45979843
21738356000,-0.678289,-0.6983989,-2.475586,-1.0517156,0.0,-0.010562038,0.4160256,-0.3261745,0.040606193,1.132172,-0.19877696,0.0,0.0,0.0,0.0019075078,0.053184666,-0.46067232
21738460000,-0.67828906,-0.49054205,-2.5618896,-1.0518208,0.0,-0.010438257,0.597455,-0.38905072,0.039942928,1.5762914,-0.26301718,0.0,0.0,0.0,0.0018831943,0.07431761,-0.46235535
21738556000,-0.67828906,-0.34088516,-2.619873,-1.0521852,0.0,-0.00986771,0.71770686,-0.42008305,0.04963869,1.809017,-0.1825419,0.0,0.0,0.0,0.0023146719,0.08435518,-0.4572883
21738660000,-0.67828906,-0.08314272,-2.7055511,-1.0531715,0.0,-0.009682887,0.92918366,-0.46963048,0.053426266,2.2806857,-0.18939093,0.0,0.0,0.0,0.002485952,0.1061215,-0.4563078
21738756000,-0.67828906,0.09977127,-2.76297,-1.053673,0.0,-0.009791493,1.0615828,-0.48745131,0.04297218,2.4958568,-0.087272525,0.0,0.0,0.0,0.0019738048,0.11464007,-0.45044053
21738852000,-0.67828906,0.28268525,-2.8204193,-1.0538071,0.0,-0.010787234,1.1821631,-0.49992967,0.023165772,2.6442702,0.016598575,0.0,0.0,0.0,0.0010501293,0.1198676,-0.44454607
21738956000,-0.67828906,0.58199906,-2.9066315,-1.0503047,0.0,-0.013485444,1.3938804,-0.5313208,0.017370498,3.036248,0.04699958,0.0,0.0,0.0,0.00078252854,0.1367808,-0.44178274
21739060000,-0.678289,0.88962716,-2.9944305,-1.050433,0.0,-0.015559426,1.5989524,-0.5596168,0.013665645,3.404649,0.048157807,0.0,0.0,0.0,0.0006140922,0.15299447,-0.44068086
21739156000,-0.678289,1.0891696,-3.0518494,-1.0507793,0.0,-0.017272258,1.6954519,-0.5586977,0.002767389,3.4887073,0.14134172,0.0,0.0,0.0,0.00012287547,0.1549029,-0.43542737
21739164000,-0.678289,1.0891696,-3.0518494,-1.0507793,0.0,-0.017383581,1.6871021,-0.5537648,0.0053555663,3.4463003,0.16949318,0.0,0.0,0.0,0.00023704916,0.15254083,-0.43406376
21806348000,-193.08409,344.7286,-372.8276,-0.9698207,0.0,-2.9183922,5.2181616,-3.0,0.0336448,2.045495,10.99515,0.0,0.0,0.0,0.00040302108,0.024502382,-0.11747114
21806356000,-193.08409,344.7286,-372.8276,-0.9698207,0.0,-2.896344,5.178153,-3.0,0.09579756,1.8939257,10.993992,0.0,0.0,0.0,0.0011509142,0.02275367,-0.117817424
21806444000,-193.31676,345.1452,-373.28616,-1.0326525,-0.3197716,-2.8454115,5.1047525,-3.0,0.5682815,1.1537718,10.147625,0.0,0.0,0.0,0.006894781,0.013998351,-0.11898112
21806548000,-193.65477,345.75912,-373.9631,-1.0495211,-0.2521668,-2.7282221,5.0194116,-3.0,1.4110146,0.21794915,7.88546,0.0,0.0,0.0,0.017085861,0.0026391284,-0.11874808
21806644000,-193.86568,346.15378,-374.39972,-1.0495211,-0.17234726,-2.5132148,4.759421,-3.0,1.5119734,-0.56078553,5.4586797,0.0,0.0,0.0,0.030187178,-0.011196317,-0.19579397
21806748000,-194.15517,346.7112,-375.0201,-1.0495211,-0.097382076,-2.2767537,4.4253907,-3.0,0.8968822,-1.3311305,3.5057652,0.0,0.0,0.0,0.025949584,-0.038513735,-0.2837359
21806844000,-194.33023,347.05252,-375.40338,-1.0495211,-0.066557266,-2.0743933,4.0155435,-3.0,-0.18398166,-1.7658055,2.1869545,0.0,0.0,0.0,-0.0064373156,-0.061783593,-0.3431234
21806948000,-194.56592,347.50684,-375.92023,-1.0495211,-0.03760712,-1.8681123,3.4680727,-3.0,-0.88735914,-1.6265678,1.6048851,0.0,0.0,0.0,-0.03341938,-0.061259173,-0.36933464
21807052000,-194.74405,347.8398,-376.30017,-1.0495211,-0.015299499,-1.6797712,2.922339,-3.0,-1.1748309,-1.7583578,1.4498258,0.0,0.0,0.0,-0.045082487,-0.06747451,-0.37631714
21807148000,-194.88567,348.09467,-376.5825,-1.0495211,-0.014523161,-1.5007495,2.4138002,-3.0,-0.6695821,-2.0182457,0.5079441,0.0,0.0,0.0,-0.02859029,-0.08617647,-0.41873112
21807244000,-194.98659,348.26816,-376.7657,-1.0495211,-0.009926075,-1.3236208,1.9553945,-3.0,-0.06989312,-2.107319,-1.0009036,0.0,0.0,0.0,-0.0034686008,-0.10458037,-0.48667622
21807348000,-195.1155,348.4733,-376.97357,-1.0495211,-0.0056085703,-1.0685323,1.3324523,-2.6401577,0.53680766,-2.5776951,-0.5098696,0.0,0.0,0.0,0.02542987,-0.1221116,-0.4645644
21807444000,-195.1835,348.569,-377.06927,-1.0495211,-0.0038332625,-0.8574742,0.9034385,-2.2013898,0.84238744,-2.2074275,0.51003504,0.0,0.0,0.0,0.035960764,-0.094233096,-0.41863695
21807548000,-195.25862,348.66068,-377.16107,-1.0495211,-0.002165924,-0.5635367,0.41460198,-1.679894,1.3312918,-1.901337,0.8076937,0.0,0.0,0.0,0.055012006,-0.07856758,-0.40523306
21807652000,-195.29758,348.7014,-377.20197,-1.0495211,-0.00088115106,-0.28461096,0.08265513,-1.2999475,1.8002752,-1.499548,0.5699005,0.0,0.0,0.0,0.07635727,-0.06360216,-0.41594115
21807748000,-195.31279,348.717,-377.2178,-1.0495211,-0.0008364389,-0.050403077,-0.13296896,-1.035645,1.3812547,-1.0475358,0.20167744,0.0,0.0,0.0,0.060920287,-0.0462016,-0.43252265
21807844000,-195.31487,348.72046,-377.22147,-1.0495211,-0.0005716769,0.08313473,-0.24762797,-0.8659364,0.8153881,-0.65422136,-0.13375688,0.0,0.0,0.0,0.03721868,-0.02986217,-0.44762763
21807948000,-195.31186,348.72043,-377.2217,-1.0495211,-0.00032301695,0.14667527,-0.29957005,-0.7496022,-0.060366362,-0.5031654,-0.18844627,0.0,0.0,0.0,-0.0027706195,-0.023093654,-0.45009035
21808044000,-195.31102,348.72034,-377.2217,-1.0495211,-0.00022077085,0.15251887,-0.32892534,-0.6547849,0.28288773,-0.80721295,0.17661084,0.0,0.0,0.0,0.012509268,-0.03569488,-0.43365142
21808148000,-195.31145,348.71967,-377.221,-1.0495211,-0.00012474305,0.18340401,-0.37763754,-0.5366826,0.9599488,-1.550328,0.8006356,0.0,0.0,0.0,0.03969827,-0.064113155,-0.4055509
21808244000,-195.31107,348.71756,-377.21875,-1.0495211,-8.5257525e-05,0.2313351,-0.43437225,-0.42257252,1.476696,-1.988902,1.0129719,0.0,0.0,0.0,0.059628427,-0.08031112,-0.39598915
21808348000,-195.30724,348.70966,-377.2106,-1.0495211,-4.8173406e-05,0.31704897,-0.53426874,-0.27559063,1.9924021,-2.5154777,1.0925002,0.0,0.0,0.0,0.07972485,-0.10065542,-0.3924079
21808452000,-195.29893,348.6965,-377.19855,-1.0495211,-1.9598123e-05,0.41711402,-0.6429008,-0.15073933,2.2987118,-2.8716354,1.2583027,0.0,0.0,0.0,0.0925606,-0.1156301,-0.39487717
21808548000,-195.28621,348.67792,-377.18344,-1.0495211,-1.8603658e-05,0.5106723,-0.7563602,-0.045107663,2.3327065,-3.1914296,1.2487658,0.0,0.0,0.0,0.09404387,-0.12866358,-0.3953585
21808644000,-195.27187,348.65665,-377.16806,-1.0495211,-1.2714954e-05,0.58276033,-0.8562913,0.04106286,2.2915258,-3.3779936,1.2395041,0.0,0.0,0.0,0.092425086,-0.13624606,-0.3955358
21808748000,-195.24408,348.6134,-377.14008,-1.0495211,-7.1843824e-06,0.6863831,-1.0339441,0.15584192,2.358355,-3.8573747,1.3454908,0.0,0.0,0.0,0.093839906,-0.1534865,-0.39021075
21808852000,-195.21378,348.56293,-377.1109,-1.0495211,-2.922783e-06,0.76937854,-1.2029095,0.25408486,2.4301748,-4.219371,1.4430028,0.0,0.0,0.0,0.09540583,-0.16564758,-0.38499758
21808948000,-195.18054,348.50394,-377.07983,-1.0495211,-2.774473e-06,0.8445102,-1.3765097,0.34205312,2.502091,-4.588786,1.5292596,0.0,0.0,0.0,0.09701783,-0.17792882,-0.38024992
21809044000,-195.14885,348.44443,-377.05072,-1.0495211,-1.8962558e-06,0.89803565,-1.5152442,0.41273648,2.5067418,-4.4869637,1.5619515,0.0,0.0,0.0,0.0965724,-0.17286058,-0.37780187
21809148000,-195.09428,348.33752,-377.00137,-1.0495211,-1.071449e-06,0.99384063,-1.7353399,0.5202452,2.6511688,-4.3990893,1.6879327,0.0,0.0,0.0,0.10030396,-0.16643456,-0.3710234
21809252000,-195.03983,348.22882,-376.9528,-1.0495211,-4.3589174e-07,1.0703759,-1.8894482,0.6088159,2.7516327,-4.225824,1.6712551,0.0,0.0,0.0,0.104087055,-0.15985186,-0.37095988
21809348000,-194.98361,348.11685,-376.90305,-1.0495211,-4.1377336e-07,1.1437335,-2.011132,0.68879014,2.8551536,-4.112977,1.6732156,0.0,0.0,0.0,0.107731566,-0.15519217,-0.37002775
21809444000,-194.93224,348.0157,-376.8579,-1.0495211,-2.8279968e-07,1.1936128,-2.0766308,0.7454499,2.8913496,-3.9479656,1.5832872,0.0,0.0,0.0,0.110048324,-0.15026444,-0.3732531
21809548000,-194.8478,347.85248,-376.78372,-1.0495211,-1.5979148e-07,1.2780999,-2.2054696,0.8442079,2.6949155,-3.9183416,1.6649517,0.0,0.0,0.0,0.101275384,-0.14725193,-0.36853564
21809644000,-194.78773,347.7373,-376.72995,-1.0495211,-1.0921191e-07,1.2960438,-2.2348208,0.89337415,2.464157,-3.7543948,1.5302333,0.0,0.0,0.0,0.09393957,-0.1431265,-0.37385282
21809748000,-194.69412,347.557,-376.64294,-1.0495211,-6.1708455e-08,1.3243074,-2.3116388,0.97681266,2.2040308,-3.670208,1.229253,0.0,0.0,0.0,0.08691723,-0.14473678,-0.38673106
21809844000,-194.63072,347.43317,-376.58163,-1.0495211,-4.2175582e-08,1.3008103,-2.3029673,0.99191105,1.998707,-3.4913936,0.87830293,0.0,0.0,0.0,0.08189255,-0.14305204,-0.40180576
21809948000,-194.53601,347.24402,-376.48697,-1.0495211,-2.383064e-08,1.2834071,-2.323276,1.0163305,2.034358,-3.3308778,0.6840719,0.0,0.0,0.0,0.08494951,-0.13908881,-0.4095002
21810044000,-194.4734,347.11707,-376.4231,-1.0495211,-1.6287414e-08,1.2458802,-2.2730422,1.006163,2.0311193,-3.1001663,0.7267039,0.0,0.0,0.0,0.084182754,-0.128491,-0.4064512
21810148000,-194.38057,346.92767,-376.32632,-1.0495211,-9.202943e-09,1.2188538,-2.2288885,1.023802,2.0275238,-2.8138654,0.7895396,0.0,0.0,0.0,0.08326372,-0.115556166,-0.40272686
21810244000,-194.31958,346.80374,-376.2611,-1.0495211,-6.2898913e-09,1.1743846,-2.13333,1.0143871,1.9606413,-2.491983,0.67544705,0.0,0.0,0.0,0.081422456,-0.10348827,-0.4072551
21810348000,-194.22968,346.62366,-376.16196,-1.0495211,-3.5540029e-09,1.1335595,-2.0169582,1.0300548,1.8735514,-2.0609655,0.6087316,0.0,0.0,0.0,0.07831081,-0.08614436,-0.40989894
21810444000,-194.17099,346.5094,-376.0949,-1.0495211,-2.4290374e-09,1.0798305,-1.8730471,1.0154378,1.7800549,-1.6804203,0.40831646,0.0,0.0,0.0,0.07600833,-0.07175393,-0.41874415
21810548000,-194.08524,346.34995,-375.99274,-1.0495211,-1.372489e-09,1.0261347,-1.6774789,1.0253149,1.6787719,-1.2034003,0.286985,0.0,0.0,0.0,0.07263049,-0.05206398,-0.42427534
21810652000,-194.01363,346.2256,-375.9024,-1.0495211,-5.583622e-10,0.9608788,-1.4811668,1.0183101,1.5532918,-1.1674098,0.13271137,0.0,0.0,0.0,0.06832551,-0.0513515,-0.4313698
21810748000,-193.9504,346.12164,-375.81754,-1.0495211,-5.3002935e-10,0.8921879,-1.3105403,1.0120159,1.4084241,-1.165924,0.046541464,0.0,0.0,0.0,0.06252697,-0.051761173,-0.43536597
21810852000,-193.8855,346.0196,-375.7237,-1.0495211,-2.1562893e-10,0.81168723,-1.1429712,1.004614,1.2298217,-1.145135,-0.015089245,0.0,0.0,0.0,0.054963395,-0.05117857,-0.4382796
21810948000,-193.82973,345.93448,-375.6355,-1.0495211,-2.0468731e-10,0.732112,-1.0047832,0.9982982,1.0715628,-1.0906277,-0.05358805,0.0,0.0,0.0,0.048091155,-0.048946775,-0.44011602
21811044000,-193.7867,345.8693,-375.56073,-1.0495211,-1.3989666e-10,0.6492185,-0.88339746,0.978916,0.91482025,-1.0046966,-0.13924262,0.0,0.0,0.0,0.041427974,-0.045498054,-0.4440977
21811148000,-193.72841,345.77997,-375.44632,-1.0495211,-7.904638e-11,0.54868567,-0.76114374,0.99165267,0.7242655,-0.93305326,-0.12552774,0.0,0.0,0.0,0.03277546,-0.04222381,-0.44378167
21811244000,-193.694,345.72534,-375.36877,-1.0495211,-5.4025454e-11,0.4644895,-0.66517204,0.9757446,0.6869498,-0.78889716,-0.22146268,0.0,0.0,0.0,0.031407863,-0.036068972,-0.448371
21811348000,-193.64745,345.6488,-375.24976,-1.0495211,-3.052622e-11,0.38884157,-0.5748335,0.9951502,0.77265084,-0.7005995,-0.14877227,0.0,0.0,0.0,0.035090867,-0.03181857,-0.44537854
21811444000,-193.619,345.6013,-375.1698,-1.0495211,-2.086361e-11,0.33502415,-0.50010425,0.98318493,0.79290223,-0.5685628,-0.22144122,0.0,0.0,0.0,0.036297176,-0.026027454,-0.44892386
21811548000,-193.579,345.5349,-375.04987,-1.0495211,-1.178865e-11,0.2890771,-0.43087533,1.0049438,0.6560594,-0.4240645,-0.15183103,0.0,0.0,0.0,0.029844051,-0.019290637,-0.44610113
21811644000,-193.55385,345.49353,-374.9699,-1.0495211,-8.057132e-12,0.24585849,-0.36861253,0.9923402,0.5331974,-0.2674454,-0.22890611,0.0,0.0,0.0,0.02445889,-0.012268285,-0.4498492
21811748000,-193.51842,345.4353,-374.84998,-1.0495211,-4.552554e-12,0.20136103,-0.31143898,1.0141603,0.38340503,-0.13708997,-0.16972536,0.0,0.0,0.0,0.017497338,-0.006256332,-0.44754124
21811844000,-193.49635,345.39896,-374.77002,-1.0495211,-3.1115126e-12,0.16127819,-0.25898862,1.0000917,0.33332717,-0.0023807287,-0.28100285,0.0,0.0,0.0,0.015395479,-0.00010995941,-0.45293283
21811948000,-193.46498,345.3478,-374.6501,-1.0495211,-1.7581105e-12,0.12662065,-0.21108161,1.0199586,0.24192837,0.09787731,-0.24208717,0.0,0.0,0.0,0.011140987,0.004507325,-0.4515955
21812052000,-193.43942,345.30658,-374.54614,-1.0495211,-7.1524254e-13,0.09256862,-0.1666373,1.0198671,0.12711559,0.19447064,-0.26309672,0.0,0.0,0.0,0.0058703776,0.008980929,-0.45289758
21812148000,-193.41731,345.2708,-374.4502,-1.0495211,-6.7894914e-13,0.06470531,-0.13076714,1.0169984,0.0704691,0.27259868,-0.2947267,0.0,0.0,0.0,0.0032670002,0.01263788,-0.45466647
21812244000,-193.4,345.24265,-374.37024,-1.0495211,-4.640381e-13,0.036624953,-0.09603335,1.000641,0.006580651,0.33976904,-0.35221562,0.0,0.0,0.0,0.00030703013,0.015852433,-0.45755312
21812348000,-193.37587,345.20303,-374.2503,-1.0495211,-2.6219733e-13,0.009751424,-0.065547645,1.0183107,0.00818558,0.41489702,-0.26152834,0.0,0.0,0.0,0.00037874476,0.01919718,-0.45374873
21812444000,-193.36082,345.17828,-374.17035,-1.0495211,-1.7920275e-13,-0.0101213455,-0.03831166,1.0045472,-0.059519995,0.45978737,-0.30870894,0.0,0.0,0.0,-0.0027683913,0.02138561,-0.4561352
21812548000,-193.33942,345.1436,-374.0504,-1.0495211,-1.0125567e-13,-0.029818043,-0.016079992,1.0234071,-0.11678715,0.50564754,-0.22612531,0.0,0.0,0.0,-0.0053908178,0.023340357,-0.4526734
21812644000,-193.32605,345.12192,-373.97046,-1.0495211,-6.920472e-14,-0.048136294,0.002282679,1.0103456,-0.1878855,0.53173053,-0.28643498,0.0,0.0,0.0,-0.008730375,0.024707641,-0.45568666
21812748000,-193.30737,345.09152,-373.85052,-1.0495211,-3.9103022e-14,-0.0660754,0.014360085,1.0325013,-0.23596129,0.5457232,-0.1902965,0.0,0.0,0.0,-0.010865051,0.025128318,-0.45155677
21812852000,-193.29239,345.06696,-373.74658,-1.0495211,-1.5908068e-14,-0.077543035,0.023821533,1.0364991,-0.22715807,0.5379358,-0.19181229,0.0,0.0,0.0,-0.010467511,0.02478824,-0.45189533
21812948000,-193.27934,345.04575,-373.65063,-1.0495211,-1.510085e-14,-0.08762203,0.028985545,1.0411377,-0.24952415,0.5340656,-0.17279883,0.0,0.0,0.0,-0.01148163,0.02457455,-0.45123902
21813052000,-193.26616,345.0242,-373.5467,-1.0495211,-6.1433957e-15,-0.0957356,0.03226337,1.0444031,-0.27571222,0.5334929,-0.18143456,0.0,0.0,0.0,-0.0127048,0.024583317,-0.45189318
21813148000,-193.25488,345.0056,-373.45074,-1.0495211,-5.831663e-15,-0.10246216,0.03278868,1.0497742,-0.2402688,0.5136829,-0.17210138,0.0,0.0,0.0,-0.011066846,0.023660373,-0.45169547
21813244000,-193.24593,344.99103,-373.3708,-1.0495211,-3.985739e-15,-0.10451918,0.032960236,1.0360718,-0.30162144,0.5088459,-0.24175096,0.0,0.0,0.0,-0.013996058,0.02361184,-0.45506656
21813348000,-193.2333,344.97055,-373.25085,-1.0495211,-2.252078e-15,-0.10637701,0.028292716,1.0568237,-0.2947548,0.45893198,-0.16729984,0.0,0.0,0.0,-0.0135834515,0.021149376,-0.45192647
21813444000,-193.22548,344.9578,-373.1709,-1.0495211,-1.539217e-15,-0.10644669,0.025250569,1.0415039,-0.30118224,0.45160994,-0.24185053,0.0,0.0,0.0,-0.013989404,0.020976515,-0.45550627
21813548000,-193.21448,344.93985,-373.05096,-1.0495211,-8.697101e-16,-0.10172092,0.020482242,1.0554504,-0.27783057,0.43190175,-0.19989187,0.0,0.0,0.0,-0.012857062,0.019986957,-0.45381823
21813644000,-193.20761,344.92865,-372.971,-1.0495211,-5.9441654e-16,-0.09922024,0.016433716,1.0391846,-0.26630363,0.40993834,-0.24870478,0.0,0.0,0.0,-0.012387984,0.019069621,-0.45618287
21813748000,-193.19806,344.913,-372.85107,-1.0495211,-3.3586564e-16,-0.096298076,0.009724721,1.0570984,-0.19821766,0.38051987,-0.16534078,0.0,0.0,0.0,-0.009147477,0.017560476,-0.4525655
21813844000,-193.19203,344.90326,-372.77112,-1.0495211,-2.2955247e-16,-0.092058375,0.0051607043,1.0425415,-0.2530922,0.37097117,-0.22792837,0.0,0.0,0.0,-0.01175741,0.017233483,-0.45557895
21813948000,-193.18362,344.8896,-372.65118,-1.0495211,-1.2970495e-16,-0.08752952,-0.0002503395,1.0609436,-0.24068427,0.35031605,-0.15135954,0.0,0.0,0.0,-0.011099909,0.016155923,-0.45226908
21814044000,-193.1784,344.88107,-372.57123,-1.0495211,-8.864882e-17,-0.08277707,-0.0039416924,1.0452881,-0.16590762,0.34135967,-0.2229557,0.0,0.0,0.0,-0.007709121,0.015861738,-0.45569804
21814148000,-193.17102,344.86908,-372.4513,-1.0495211,-5.0089604e-17,-0.07807528,-0.0095085725,1.0628052,-0.22607906,0.31989947,-0.14748785,0.0,0.0,0.0,-0.010430162,0.014758569,-0.45242473
21814244000,-193.16643,344.86163,-372.37134,-1.0495211,-3.42345e-17,-0.073377,-0.013239689,1.046875,-0.23134825,0.30728838,-0.22399674,0.0,0.0,0.0,-0.0107593825,0.014291155,-0.45606554
21814348000,-193.15997,344.8512,-372.2514,-1.0495211,-1.9343657e-17,-0.06655221,-0.01810705,1.0660706,-0.20517208,0.29199842,-0.12843649,0.0,0.0,0.0,-0.0094536925,0.0134543795,-0.45184016
21814444000,-193.15596,344.84467,-372.17145,-1.0495211,-1.3220716e-17,-0.060300387,-0.021559294,1.0504761,-0.18245818,0.27545056,-0.20839268,0.0,0.0,0.0,-0.008476988,0.012797406,-0.4556375
21814548000,-193.15028,344.8355,-372.0515,-1.0495211,-7.470155e-18,-0.052133817,-0.027246442,1.0681152,-0.15340732,0.26151857,-0.1469586,0.0,0.0,0.0,-0.00708625,0.012080166,-0.45301005
21814644000,-193.14676,344.82983,-371.97156,-1.0495211,-5.1055908e-18,-0.0449428,-0.030796599,1.0508728,-0.13562904,0.23667222,-0.21968722,0.0,0.0,0.0,-0.006312638,0.011015533,-0.45645857
21814748000,-193.14185,344.82184,-371.85162,-1.0495211,-2.8848327e-18,-0.03701962,-0.034280807,1.0630493,-0.10796888,0.21650404,-0.15615931,0.0,0.0,0.0,-0.0049949232,0.010016044,-0.45368803
21814844000,-193.13878,344.8169,-371.77167,-1.0495211,-1.9716828e-18,-0.029615361,-0.036758184,1.0444946,-0.08176768,0.20801525,-0.2331211,0.0,0.0,0.0,-0.0038133217,0.00970101,-0.4573338
21814948000,-193.13446,344.81,-371.65173,-1.0495211,-1.1140679e-18,-0.020965055,-0.039722174,1.0584412,-0.069777735,0.19611445,-0.17717986,0.0,0.0,0.0,-0.0032368866,0.009097462,-0.45493004
21815044000,-193.13177,344.8057,-371.57178,-1.0495211,-7.614267e-19,-0.013759013,-0.041606005,1.0418091,-0.05712466,0.18923855,-0.21463004,0.0,0.0,0.0,-0.0026607271,0.00881427,-0.45672226
21815148000,-193.12802,344.7996,-371.45184,-1.0495211,-4.30232e-19,-0.0059557613,-0.043817908,1.0586853,-0.024215458,0.19765808,-0.14463297,0.0,0.0,0.0,-0.0011202458,0.009143979,-0.4536653
21815244000,-193.12569,344.7958,-371.3719,-1.0495211,-2.9404862e-19,0.00096878596,-0.045007624,1.0432434,3.8718805e-05,0.17753154,-0.19506012,0.0,0.0,0.0,1.8004912e-06,0.008255522,-0.4560661
21815348000,-193.12242,344.79056,-371.25186,-1.0495211,-1.6614748e-19,0.009171387,-0.047380406,1.0610962,0.016619097,0.17164363,-0.12529364,0.0,0.0,0.0,0.00076781306,0.007930047,-0.4530139
21815444000,-193.1204,344.7873,-371.17197,-1.0495211,-1.1355603e-19,0.014920465,-0.04801897,1.0458069,0.029139802,0.16970491,-0.19848564,0.0,0.0,0.0,0.0013562619,0.007898623,-0.45648408
21815548000,-193.11757,344.7827,-371.05276,-1.0495211,-6.416303e-20,0.019519685,-0.04936333,1.0635376,0.04773227,0.15596464,-0.12066732,0.0,0.0,0.0,0.00220464,0.007203636,-0.453047
21815644000,-193.1158,344.77982,-370.97333,-1.0495211,-4.3853197e-20,0.022719618,-0.0497488,1.0484009,0.043550506,0.1432714,-0.20053795,0.0,0.0,0.0,0.002029474,0.0066765137,-0.45682722
21815748000,-193.11331,344.77582,-370.85437,-1.0495211,-2.4778549e-20,0.02570915,-0.050811052,1.0686035,0.049956966,0.12727243,-0.091244526,0.0,0.0,0.0,0.002301156,0.005862521,-0.4519117
21815852000,-193.1113,344.77258,-370.75153,-1.0495211,-1.0080522e-20,0.02779277,-0.05080038,1.069458,0.06448759,0.11682747,-0.10291541,0.0,0.0,0.0,0.0029759884,0.005391381,-0.45256743
21815948000,-193.1096,344.7698,-370.65674,-1.0495211,-9.569008e-21,0.029714528,-0.050270237,1.0700378,0.0511228,0.123809375,-0.10838556,0.0,0.0,0.0,0.0023604939,0.005716652,-0.4529221
21816052000,-193.10786,344.76706,-370.5542,-1.0495211,-3.8929074e-21,0.030788755,-0.048771806,1.0670471,0.06968894,0.12284277,-0.12040049,0.0,0.0,0.0,0.0032235745,0.0056822905,-0.45357385
21816148000,-193.10638,344.76468,-370.45953,-1.0495211,-3.6953704e-21,0.031165864,-0.046508886,1.0626221,0.055747386,0.12231676,-0.14174592,0.0,0.0,0.0,0.0025837978,0.005669177,-0.45464993
21816252000,-193.10487,344.76224,-370.35703,-1.0495211,-1.5033674e-21,0.031801276,-0.044772208,1.060669,0.068826,0.12662551,-0.1292569,0.0,0.0,0.0,0.003187912,0.0058650947,-0.45416495
21816348000,-193.10356,344.76007,-370.2625,-1.0495211,-1.4270822e-21,0.032853775,-0.04380005,1.0609436,0.085042775,0.128811,-0.13567449,0.0,0.0,0.0,0.0039422247,0.005971135,-0.45456722
21816452000,-193.10228,344.75797,-370.16013,-1.0495211,-5.805722e-22,0.033905778,-0.043059,1.0622253,0.08605547,0.11299789,-0.10215596,0.0,0.0,0.0,0.0039755665,0.005220244,-0.4531011
21816548000,-193.10112,344.75604,-370.06577,-1.0495211,-5.5111236e-22,0.03445583,-0.04322187,1.063385,0.0807221,0.10770739,-0.10565323,0.0,0.0,0.0,0.0037317176,0.0049792253,-0.4533613
21816644000,-193.10019,344.75464,-369.98715,-1.0495211,-3.7666611e-22,0.03463985,-0.042655844,1.0473633,0.08432301,0.10389688,-0.16378558,0.0,0.0,0.0,0.003922323,0.00483281,-0.45609745
21816748000,-193.09892,344.75253,-369.86942,-1.0495211,-2.1282922e-22,0.03549401,-0.041693337,1.0621643,0.081449755,0.09761312,-0.11594962,0.0,0.0,0.0,0.0037714227,0.004519846,-0.45402125
21816852000,-193.09793,344.75092,-369.76733,-1.0495211,-8.6584155e-23,0.035660356,-0.03998747,1.0598755,0.094549194,0.09670834,-0.11335598,0.0,0.0,0.0,0.004376536,0.0044764793,-0.4539809
21816948000,-193.09709,344.74948,-369.67313,-1.0495211,-8.219062e-23,0.035223298,-0.038185332,1.0588989,0.0893362,0.104855955,-0.101000056,0.0,0.0,0.0,0.0041298745,0.004847328,-0.4534753
21817044000,-193.0964,344.7483,-369.59457,-1.0495211,-5.617444e-23,0.034326687,-0.03603233,1.0408325,0.08554239,0.10867018,-0.1602276,0.0,0.0,0.0,0.003979667,0.0050556366,-0.4562471
21817148000,-193.09544,344.74673,-369.47665,-1.0495211,-3.1740472e-23,0.03362984,-0.03302358,1.0571289,0.08960416,0.110453464,-0.09903619,0.0,0.0,0.0,0.004143811,0.0051080026,-0.4535436
21817244000,-193.09486,344.74576,-369.39798,-1.0495211,-2.1693508e-23,0.03247488,-0.03015107,1.039978,0.083929084,0.11278158,-0.18129858,0.0,0.0,0.0,0.0039127893,0.0052578985,-0.45740816
21817348000,-193.09406,344.7444,-369.27985,-1.0495211,-1.2257572e-23,0.03082113,-0.027718924,1.0531921,0.08212906,0.117626764,-0.11731109,0.0,0.0,0.0,0.0038068458,0.0054522348,-0.4545504
21817444000,-193.09354,344.74353,-369.20102,-1.0495211,-8.377625e-24,0.029379118,-0.024396984,1.0350647,0.077463716,0.12240664,-0.18243769,0.0,0.0,0.0,0.0036146068,0.0057117315,-0.45760518
21817548000,-193.09277,344.7423,-369.0826,-1.0495211,-4.7336427e-24,0.028030887,-0.020056706,1.0491943,0.07877863,0.13598658,-0.121292,0.0,0.0,0.0,0.0036542278,0.0063078767,-0.45488542
21817644000,-193.0923,344.74155,-369.0036,-1.0495211,-3.2352803e-24,0.026474087,-0.015470281,1.0301514,0.07464979,0.13923594,-0.19028258,0.0,0.0,0.0,0.0034867076,0.0065033673,-0.45811638
21817748000,-193.09163,344.74054,-368.88495,-1.0495211,-1.8280435e-24,0.024905417,-0.010025357,1.0416565,0.07424042,0.15696603,-0.117710255,0.0,0.0,0.0,0.003443836,0.0072812797,-0.45484304
21817844000,-193.0912,344.73987,-368.80573,-1.0495211,-1.2494041e-24,0.023287632,-0.0052300603,1.0224304,0.07787611,0.17279634,-0.17903024,0.0,0.0,0.0,0.0036349676,0.008065491,-0.45770755
21817948000,-193.0906,344.739,-368.6869,-1.0495211,-7.059559e-25,0.02117538,-0.0006201323,1.0358582,0.069901206,0.17552996,-0.11876837,0.0,0.0,0.0,0.0032433867,0.0081445165,-0.45501375
21818044000,-193.09024,344.73846,-368.60764,-1.0495211,-4.8249627e-25,0.019051608,0.0032532997,1.017334,0.08006216,0.19239537,-0.17983323,0.0,0.0,0.0,0.0037372834,0.008980973,-0.45786962
21818148000,-193.08974,344.73767,-368.4876,-1.0495211,-2.7262683e-25,0.01663337,0.00728943,1.0319824,0.07896711,0.1914128,-0.11073344,0.0,0.0,0.0,0.0036621806,0.008876965,-0.45476657
21818244000,-193.08946,344.73715,-368.40762,-1.0495211,-1.8633095e-25,0.014473292,0.01018605,1.015564,0.07255017,0.198702,-0.15900521,0.0,0.0,0.0,0.0033812488,0.009260638,-0.4570265
21818348000,-193.08908,344.73645,-368.28766,-1.0495211,-1.0528334e-25,0.011436227,0.01301322,1.0341797,0.066343576,0.20221825,-0.07451408,0.0,0.0,0.0,0.0030658788,0.009344938,-0.45321015
21818452000,-193.08879,344.73587,-368.18362,-1.0495211,-4.2831847e-26,0.008928141,0.0153418565,1.035614,0.0539668,0.197756,-0.06669528,0.0,0.0,0.0,0.0024924073,0.00913318,-0.45291394
21818548000,-193.08853,344.73535,-368.08762,-1.0495211,-4.065844e-26,0.006798485,0.018499533,1.0382385,0.064093605,0.20502634,-0.05526504,0.0,0.0,0.0,0.002957572,0.0094608525,-0.4524401
21818644000,-193.08832,344.73492,-368.00766,-1.0495211,-2.778863e-26,0.0051340237,0.020726737,1.0233154,0.060273793,0.21549934,-0.13793021,0.0,0.0,0.0,0.002804901,0.010028477,-0.4563089
21818748000,-193.08803,344.73428,-367.88773,-1.0495211,-1.5701524e-26,0.003945224,0.021791179,1.0397644,0.0719283,0.20926869,-0.062346227,0.0,0.0,0.0,0.0033211191,0.009662487,-0.4528836
21818844000,-193.08784,344.73398,-367.80768,-1.0495211,-1.0731446e-26,0.0025042344,0.022614824,1.0240784,0.084990636,0.2181126,-0.13805911,0.0,0.0,0.0,0.0039553917,0.010150775,-0.45642507
21818948000,-193.08762,344.73352,-367.68768,-1.0495211,-6.063633e-27,0.00039924867,0.023586465,1.0400085,0.07328714,0.22313432,-0.07595421,0.0,0.0,0.0,0.0033903406,0.010322429,-0.4536349
21819044000,-193.08746,344.73334,-367.6077,-1.0495211,-4.1442823e-27,-0.0013985585,0.024503095,1.0236206,0.07537112,0.21973418,-0.1419737,0.0,0.0,0.0,0.003510557,0.010234549,-0.45672038
21819148000,-193.08723,344.73306,-367.48773,-1.0495211,-2.3416606e-27,-0.0034352124,0.025265492,1.0393066,0.06946464,0.2199384,-0.06278243,0.0,0.0,0.0,0.0032099057,0.010163179,-0.4531269
21819244000,-193.0871,344.73288,-367.4077,-1.0495211,-1.6004434e-27,-0.0052083163,0.025242655,1.0233765,0.06766743,0.2108463,-0.13345206,0.0,0.0,0.0,0.003149246,0.009812799,-0.45642996
21819348000,-193.08693,344.7326,-367.2877,-1.0495211,-9.04305e-28,-0.007935412,0.025512872,1.041565,0.074938595,0.21417807,-0.081142455,0.0,0.0,0.0,0.0034700132,0.009917463,-0.45411068
21819444000,-193.08682,344.73242,-367.20764,-1.0495211,-6.1806106e-28,-0.010050202,0.025315555,1.0267944,0.066310205,0.2136395,-0.12257903,0.0,0.0,0.0,0.0030836426,0.0099349385,-0.45604223
21819548000,-193.08665,344.7322,-367.08755,-1.0495211,-3.492256e-28,-0.014529742,0.025652356,1.0449219,0.05115634,0.20448942,-0.057250388,0.0,0.0,0.0,0.0023634848,0.00944766,-0.45310163
21819644000,-193.08656,344.73206,-367.0075,-1.0495211,-2.3868356e-28,-0.017688654,0.025530923,1.0303345,0.043322887,0.20821957,-0.12897564,0.0,0.0,0.0,0.0020164878,0.009691695,-0.4564595
21819748000,-193.08643,344.73187,-366.88745,-1.0495211,-1.3486434e-28,-0.022128785,0.026455864,1.0482178,0.032933418,0.20882063,-0.056556255,0.0,0.0,0.0,0.0015219478,0.0096502,-0.45318487
21819852000,-193.0863,344.73172,-366.78345,-1.0495211,-5.486612e-29,-0.024964433,0.025658932,1.048706,0.01786932,0.21170506,-0.05020839,0.0,0.0,0.0,0.00082534394,0.009778184,-0.45294002
21819948000,-193.0862,344.73157,-366.68738,-1.0495211,-5.208206e-29,-0.026311167,0.024716798,1.048523,0.031346403,0.1999188,-0.073130466,0.0,0.0,0.0,0.0014514338,0.009256848,-0.45406476
21820044000,-193.0861,344.73145,-366.60733,-1.0495211,-3.559628e-29,-0.028169613,0.02349345,1.0332642,0.0290629,0.20808034,-0.1516111,0.0,0.0,0.0,0.001356558,0.009712487,-0.45774332
21820148000,-193.08597,344.73126,-366.48724,-1.0495211,-2.011311e-29,-0.03013116,0.022977749,1.0501404,0.03811211,0.20315367,-0.061464503,0.0,0.0,0.0,0.0017628622,0.009396801,-0.45362866
21820244000,-193.08588,344.73114,-366.4072,-1.0495211,-1.3746611e-29,-0.031047381,0.022508191,1.0351868,0.04228591,0.20221382,-0.12778017,0.0,0.0,0.0,0.001969293,0.00941728,-0.45673278
21820348000,-193.08577,344.73096,-366.28717,-1.0495211,-7.767303e-30,-0.031592473,0.021760292,1.0528564,0.043080997,0.18554685,-0.057812862,0.0,0.0,0.0,0.0019925477,0.008581763,-0.45356905
21820444000,-193.08571,344.73083,-366.20712,-1.0495211,-5.308682e-30,-0.031633314,0.020189349,1.0368652,0.051593844,0.17561029,-0.121409275,0.0,0.0,0.0,0.0024017198,0.008174748,-0.45653602
21820548000,-193.08562,344.73065,-366.08704,-1.0495211,-2.9995862e-30,-0.031998698,0.018136937,1.0515747,0.038659148,0.16599992,-0.07616683,0.0,0.0,0.0,0.0017919922,0.0076947007,-0.45452017
21820652000,-193.08554,344.73053,-365.983,-1.0495211,-1.2203054e-30,-0.032411754,0.01655687,1.0496216,0.03572977,0.16176794,-0.07828667,0.0,0.0,0.0,0.0016563901,0.0074993717,-0.4546686
21820748000,-193.08546,344.7304,-365.88696,-1.0495211,-1.1583837e-30,-0.033825386,0.01624123,1.049408,0.036174543,0.17926681,-0.08993061,0.0,0.0,0.0,0.0016792215,0.008321561,-0.45526716
21820844000,-193.0854,344.73035,-365.80695,-1.0495211,-7.917151e-31,-0.034329783,0.015867174,1.0326843,0.0272141,0.18052082,-0.13604116,0.0,0.0,0.0,0.0012690597,0.008418124,-0.45741522
21820948000,-193.08531,344.73026,-365.68692,-1.0495211,-4.47346e-31,-0.035521425,0.01578316,1.0480957,0.028393367,0.18632655,-0.06906049,0.0,0.0,0.0,0.001315619,0.008633521,-0.45437747
21821052000,-193.08524,344.73016,-365.5829,-1.0495211,-1.8199134e-31,-0.035413016,0.015612509,1.0468445,0.028978264,0.18620734,-0.0666884,0.0,0.0,0.0,0.0013427188,0.008627988,-0.4543076
21821148000,-193.08516,344.7301,-365.48682,-1.0495211,-1.727566e-31,-0.035434656,0.016145742,1.0454102,0.044795036,0.19150206,-0.07838961,0.0,0.0,0.0,0.0020782382,0.008884622,-0.4548975
21821244000,-193.0851,344.73004,-365.40683,-1.0495211,-1.1807312e-31,-0.034562375,0.016012857,1.026886,0.04682703,0.18997698,-0.1449202,0.0,0.0,0.0,0.002187146,0.008873238,-0.45799625
21821348000,-193.085,344.72995,-365.28677,-1.0495211,-6.671534e-32,-0.032419972,0.015406991,1.0403442,0.05270823,0.18205844,-0.07500295,0.0,0.0,0.0,0.002444646,0.008444003,-0.45481038
21821452000,-193.08495,344.72986,-365.1828,-1.0495211,-2.714144e-32,-0.031455893,0.015293734,1.0395813,0.07244311,0.19100559,-0.08134278,0.0,0.0,0.0,0.0033628172,0.0088665,-0.45515558
21821548000,-193.08488,344.7298,-365.0868,-1.0495211,-2.5764206e-32,-0.030921195,0.015334605,1.0397034,0.06661705,0.17515722,-0.053464755,0.0,0.0,0.0,0.0030830745,0.008106374,-0.45388484
21821644000,-193.08484,344.72977,-365.00677,-1.0495211,-1.7608939e-32,-0.030980827,0.01514355,1.0249939,0.05557489,0.16610251,-0.117025785,0.0,0.0,0.0,0.0025888535,0.007737578,-0.45685437
21821748000,-193.08478,344.7297,-364.88684,-1.0495211,-9.9496494e-33,-0.03187251,0.0148740895,1.0431519,0.06082694,0.16837062,-0.03865195,0.0,0.0,0.0,0.0028111362,0.007781301,-0.45328128
21821844000,-193.08475,344.7297,-364.8069,-1.0495211,-6.800239e-33,-0.03235654,0.014372297,1.0280151,0.05760274,0.17760095,-0.099444434,0.0,0.0,0.0,0.0026787482,0.008259126,-0.45611477
21821948000,-193.0847,344.7297,-364.6869,-1.0495211,-3.842367e-33,-0.033561334,0.014807369,1.0455322,0.045731366,0.17315029,-0.034606062,0.0,0.0,0.0,0.0021133276,0.008001582,-0.45317152
21822044000,-193.08467,344.7297,-364.60693,-1.0495211,-2.6261242e-33,-0.03403088,0.014836062,1.0296631,0.04370034,0.17991528,-0.10051945,0.0,0.0,0.0,0.00203301,0.008369948,-0.4562408
21822148000,-193.08464,344.7297,-364.48694,-1.0495211,-1.4838496e-33,-0.035772003,0.015329107,1.045044,0.04160427,0.19045049,-0.04277341,0.0,0.0,0.0,0.0019245273,0.008809844,-0.4536234
21822244000,-193.08463,344.72968,-364.40695,-1.0495211,-1.0141595e-33,-0.036361862,0.01532016,1.0280457,0.03534655,0.1901303,-0.12045361,0.0,0.0,0.0,0.0016480207,0.008864759,-0.45724747
21822348000,-193.0846,344.7296,-364.28702,-1.0495211,-5.7303467e-34,-0.03843051,0.015688533,1.044281,0.023664696,0.18965901,-0.061573707,0.0,0.0,0.0,0.0010970517,0.008792241,-0.45458433
21822452000,-193.08458,344.72958,-364.18304,-1.0495211,-2.3312454e-34,-0.03875518,0.0155551,1.0437012,0.036697887,0.19030991,-0.044030122,0.0,0.0,0.0,0.0016982508,0.0088068815,-0.45379484
21822548000,-193.08456,344.72955,-364.0871,-1.0495211,-2.2129515e-34,-0.037721716,0.015082712,1.042572,0.050273217,0.1898538,-0.049453586,0.0,0.0,0.0,0.0023279868,0.008791503,-0.45407835
21822644000,-193.08456,344.72955,-364.00714,-1.0495211,-1.5124754e-34,-0.038011633,0.015053722,1.0244751,0.044331864,0.18969204,-0.12847549,0.0,0.0,0.0,0.0020696195,0.008855714,-0.45775995
21822748000,-193.08456,344.72955,-363.8872,-1.0495211,-8.546001e-35,-0.039055333,0.015198681,1.037323,0.044819053,0.20054038,-0.06200905,0.0,0.0,0.0,0.0020779404,0.00929763,-0.45472288
21822844000,-193.08456,344.72955,-363.80725,-1.0495211,-5.840894e-35,-0.039852604,0.015343639,1.0201721,0.034141656,0.21182837,-0.104533024,0.0,0.0,0.0,0.0015901283,0.009865787,-0.4566936
21822948000,-193.08456,344.72955,-363.68732,-1.0495211,-3.300304e-35,-0.040925298,0.016184397,1.0360718,0.023053784,0.20230483,-0.04126618,0.0,0.0,0.0,0.001066824,0.009361745,-0.45381522
21823044000,-193.08456,344.72955,-363.60736,-1.0495211,-2.2556432e-35,-0.041621096,0.016387338,1.0198975,0.031747732,0.21092367,-0.11517846,0.0,0.0,0.0,0.001480305,0.009834761,-0.4572622
21823148000,-193.08456,344.72955,-363.48743,-1.0495211,-1.2745153e-35,-0.042476352,0.017460031,1.0357056,0.027127879,0.21306562,-0.041600563,0.0,0.0,0.0,0.0012555133,0.009860952,-0.45389625
21823252000,-193.08456,344.72955,-363.38348,-1.0495211,-5.1850407e-36,-0.042606816,0.017575998,1.0350037,0.027749646,0.22277601,-0.040061004,0.0,0.0,0.0,0.0012843475,0.010310828,-0.45385492
21823348000,-193.08456,344.72955,-363.28754,-1.0495211,-4.921937e-36,-0.042882238,0.017257089,1.0344849,0.0138470335,0.21957475,-0.032482013,0.0,0.0,0.0,0.00064048124,0.010156218,-0.45352137
21823444000,-193.08456,344.72955,-363.20758,-1.0495211,-3.3639726e-36,-0.04259232,0.016619273,1.0172119,0.02078705,0.22116359,-0.109158136,0.0,0.0,0.0,0.00096893957,0.010309023,-0.45709142
21823548000,-193.08456,344.72955,-363.08765,-1.0495211,-1.900759e-36,-0.043882452,0.016184397,1.0313416,0.008046132,0.22066587,-0.03597968,0.0,0.0,0.0,0.00037226386,0.01020937,-0.45373714
21823644000,-193.08456,344.72955,-363.0077,-1.0495211,-1.2991029e-36,-0.04395493,0.015517588,1.013916,-0.001498234,0.21098797,-0.11221853,0.0,0.0,0.0,-6.9864844e-05,0.009838679,-0.45728767
21823748000,-193.08456,344.72955,-362.88776,-1.0495211,-7.340373e-37,-0.045390017,0.014937755,1.0292664,-0.004215988,0.20815666,-0.062305614,0.0,0.0,0.0,-0.00019560463,0.0096576195,-0.45503235
21823844000,-193.08456,344.72955,-362.8078,-1.0495211,-5.01689e-37,-0.04524506,0.014154979,1.0122375,-0.010682076,0.20813705,-0.1114062,0.0,0.0,0.0,-0.0004981692,0.009706677,-0.45730743
21823948000,-193.08456,344.72955,-362.68787,-1.0495211,-2.8347136e-37,-0.043998417,0.013024302,1.0272827,-0.010772498,0.20459346,-0.051191576,0.0,0.0,0.0,-0.00049932854,0.009483349,-0.45456523
21824044000,-193.08456,344.72955,-362.6079,-1.0495211,-1.937428e-37,-0.04304169,0.012444468,1.0093079,-0.016846256,0.19874261,-0.1165078,0.0,0.0,0.0,-0.00078596757,0.009272402,-0.45759884
21824148000,-193.08456,344.72955,-362.48798,-1.0495211,-1.0947135e-37,-0.04221543,0.0122415265,1.0221252,-0.00023248579,0.2100508,-0.05619497,0.0,0.0,0.0,-1.0784019e-05,0.009743356,-0.45484304
21824244000,-193.08456,344.72955,-362.40802,-1.0495211,-7.481996e-38,-0.040867314,0.011487743,1.0036011,-0.0043063667,0.20125212,-0.13283843,0.0,0.0,0.0,-0.00020129058,0.009407037,-0.45841286
21824348000,-193.08456,344.72955,-362.2881,-1.0495211,-4.227586e-38,-0.039562687,0.010357066,1.018158,-0.0010714646,0.18780287,-0.0502486,0.0,0.0,0.0,-4.9664835e-05,0.008705093,-0.45461437
21824452000,-193.08456,344.72955,-362.18414,-1.0495211,-1.7198837e-38,-0.037692722,0.009313365,1.0161743,-0.007498354,0.19393435,-0.068325825,0.0,0.0,0.0,-0.00034829846,0.009008247,-0.45548928
21824548000,-193.08456,344.72955,-362.0882,-1.0495211,-1.6326002e-38,-0.0360257,0.008849498,1.013031,0.010521765,0.18765235,-0.054152966,0.0,0.0,0.0,0.00048789708,0.00870149,-0.45483676
21824652000,-193.08456,344.72955,-361.98425,-1.0495211,-6.641804e-39,-0.033764347,0.008008739,1.0106506,0.0071634324,0.1781108,-0.053653657,0.0,0.0,0.0,0.00033230695,0.008262443,-0.45483515
21824748000,-193.08456,344.72955,-361.8883,-1.0495211,-6.304792e-39,-0.03208283,0.0066751204,1.0090637,0.014299749,0.16889259,-0.047431916,0.0,0.0,0.0,0.00066291046,0.007829554,-0.45456278
21824844000,-193.08456,344.72955,-361.80835,-1.0495211,-4.30908e-39,-0.029893955,0.005399485,0.9924927,0.012241513,0.15835384,-0.100617625,0.0,0.0,0.0,0.0005703828,0.0073783617,-0.45702866
21824948000,-193.08456,344.72955,-361.68842,-1.0495211,-2.434756e-39,-0.028197942,0.005051585,1.0073853,0.015154501,0.14965375,-0.038635895,0.0,0.0,0.0,0.0007020122,0.006932512,-0.4541915
21825044000,-193.08456,344.72955,-361.60846,-1.0495211,-1.664042e-39,-0.026356969,0.0043267924,0.9907837,0.029494999,0.14394742,-0.10437237,0.0,0.0,0.0,0.0013752488,0.006711765,-0.45724678
21825148000,-193.08456,344.72955,-361.48853,-1.0495211,-9.40183e-40,-0.023878178,0.0027032576,1.0063782,0.035931144,0.12676103,-0.050987914,0.0,0.0,0.0,0.0016664393,0.005879011,-0.454819
21825244000,-193.08456,344.72955,-361.40857,-1.0495211,-6.42582e-40,-0.021399388,0.0011956892,0.9914856,0.034760993,0.120022506,-0.09220773,0.0,0.0,0.0,0.0016190789,0.005590344,-0.45672956
21825348000,-193.08456,344.72955,-361.28864,-1.0495211,-3.63111e-40,-0.018630682,-0.00010893721,1.009552,0.06307602,0.113197796,-0.028727703,0.0,0.0,0.0,0.0029195102,0.005239426,-0.4538359
21825444000,-193.08456,344.72955,-361.20868,-1.0495211,-2.48205e-40,-0.016180882,-0.0003988542,0.99417114,0.06145882,0.11888023,-0.08789308,0.0,0.0,0.0,0.0028614474,0.005534918,-0.456583
21825548000,-193.08456,344.72955,-361.08875,-1.0495211,-1.40217e-40,-0.013934026,-0.0005438127,1.0092163,0.056324024,0.123996146,-0.04102651,0.0,0.0,0.0,0.0026104888,0.0057469355,-0.45445865
21825644000,-193.08456,344.72955,-361.0088,-1.0495211,-9.5814e-41,-0.012281499,-5.0953822e-05,0.992157,0.0638335,0.11259577,-0.10931523,0.0,0.0,0.0,0.0029787652,0.0052542374,-0.457635
21825748000,-193.08456,344.72955,-360.88885,-1.0495211,-5.4212e-41,-0.011034856,0.0006158552,1.0073853,0.054123502,0.12187679,-0.041945077,0.0,0.0,0.0,0.0025095209,0.0056510083,-0.4545484
21825844000,-193.08456,344.72955,-360.8089,-1.0495211,-3.7046e-41,-0.009976659,0.0012826644,0.9911194,0.043336708,0.11853704,-0.09945734,0.0,0.0,0.0,0.0020210408,0.0055280663,-0.45722017
21825948000,-193.08456,344.72955,-360.68896,-1.0495211,-2.0931e-41,-0.008845982,0.0028772077,1.0068359,0.05861212,0.12310845,-0.034865446,0.0,0.0,0.0,0.0027155348,0.0057036886,-0.45426384
21826044000,-193.08456,344.72955,-360.609,-1.0495211,-1.4275e-41,-0.0076863146,0.0040078843,0.99017334,0.05069578,0.12538545,-0.109777704,0.0,0.0,0.0,0.0023661535,0.0058521866,-0.457752
21826148000,-193.08456,344.72955,-360.48907,-1.0495211,-8.144e-42,-0.0061062677,0.0061822617,1.0040894,0.06904726,0.12176911,-0.054448854,0.0,0.0,0.0,0.0032042875,0.0056509594,-0.4552272
21826244000,-193.08456,344.72955,-360.40912,-1.0495211,-5.605e-42,-0.0045842035,0.007457896,0.98638916,0.063406974,0.124858975,-0.10782261,0.0,0.0,0.0,0.0029591138,0.005826992,-0.45769852
21826348000,-193.08456,344.72955,-360.28918,-1.0495211,-3.153e-42,-0.0023083547,0.008733531,0.9988098,0.06831904,0.12687765,-0.063678406,0.0,0.0,0.0,0.0031746274,0.0058957106,-0.4556927
21826444000,-193.08456,344.72955,-360.20923,-1.0495211,-2.189e-42,-0.000655828,0.008762523,0.98062134,0.066757016,0.11448637,-0.118356004,0.0,0.0,0.0,0.0031194924,0.00534984,-0.4582263
21826548000,-193.08456,344.72955,-360.0893,-1.0495211,-1.226e-42,0.0009966989,0.008124705,0.9954529,0.0660847,0.10985849,-0.04105603,0.0,0.0,0.0,0.003064477,0.0050943536,-0.45467076
21826652000,-193.08456,344.72955,-359.98535,-1.0495211,-4.67e-43,0.0017069954,0.008936473,0.9941406,0.07940931,0.12074118,-0.041663244,0.0,0.0,0.0,0.003680704,0.0055964794,-0.45471898
21826748000,-193.08456,344.72955,-359.8894,-1.0495211,-4.37e-43,0.0020548957,0.010617992,0.9932556,0.07034653,0.12836146,-0.04177688,0.0,0.0,0.0,0.0032615406,0.0059513403,-0.45474067
21826844000,-193.08456,344.72955,-359.80945,-1.0495211,-3.5e-43,0.0026347297,0.013053294,0.9764099,0.07132264,0.13312694,-0.10456897,0.0,0.0,0.0,0.0033291015,0.006213919,-0.45765603
21826948000,-193.08456,344.72955,-359.6895,-1.0495211,-3.5e-43,0.0035044807,0.015981454,0.9898071,0.07827711,0.13715546,-0.05584623,0.0,0.0,0.0,0.0036353953,0.0063698613,-0.4554375
21827044000,-193.08456,344.72955,-359.60956,-1.0495211,-3.5e-43,0.004069819,0.01809785,0.97213745,0.07485403,0.138678,-0.11385045,0.0,0.0,0.0,0.003497014,0.0064787283,-0.4581265
21827148000,-193.08456,344.72955,-359.48962,-1.0495211,-3.5e-43,0.004040827,0.020881051,0.9853821,0.08269486,0.14780353,-0.047709577,0.0,0.0,0.0,0.003837909,0.006859635,-0.4550836
21827252000,-193.08456,344.72955,-359.38568,-1.0495211,-2.34e-43,0.0044177193,0.023200387,0.9834595,0.082675874,0.1525135,-0.04339935,0.0,0.0,0.0,0.0038354082,0.0070752385,-0.4548981
21827348000,-193.08456,344.72955,-359.28973,-1.0495211,-3.5e-43,0.004852595,0.026447458,0.98062134,0.077275164,0.1647768,-0.054275133,0.0,0.0,0.0,0.0035877652,0.0076503293,-0.45542136
21827444000,-193.08456,344.72955,-359.20978,-1.0495211,-3.5e-43,0.005316462,0.028592844,0.9633179,0.077500604,0.17422956,-0.12656336,0.0,0.0,0.0,0.003625803,0.0081511885,-0.45878577
21827548000,-193.08456,344.72955,-359.08984,-1.0495211,-3.5e-43,0.0066790716,0.031868905,0.97857666,0.09888005,0.17515752,-0.031676248,0.0,0.0,0.0,0.004581736,0.008116151,-0.45439398
21827644000,-193.08456,344.72955,-359.0099,-1.0495211,-3.5e-43,0.0077807563,0.03331849,0.96328735,0.11090485,0.1807426,-0.08907312,0.0,0.0,0.0,0.005169595,0.008424934,-0.45705837
21827748000,-193.08456,344.72955,-358.88995,-1.0495211,-3.5e-43,0.008737483,0.033405464,0.9806824,0.10267462,0.16510247,-0.028204639,0.0,0.0,0.0,0.0047560213,0.0076477597,-0.45427534
21827852000,-193.08456,344.72955,-358.786,-1.0495211,-2.34e-43,0.0082591195,0.033898324,0.9821472,0.09939595,0.1706075,-0.022537626,0.0,0.0,0.0,0.004601467,0.0078981565,-0.4540336
21827948000,-193.08456,344.72955,-358.69006,-1.0495211,-3.5e-43,0.007113947,0.034536142,0.98324585,0.09187396,0.16109592,-0.0070611797,0.0,0.0,0.0,0.0042476184,0.0074479645,-0.4533278
21828052000,-193.08456,344.72955,-358.58612,-1.0495211,-2.34e-43,0.0059252875,0.035927743,0.98583984,0.081088275,0.17361696,-0.0048047937,0.0,0.0,0.0,0.0037478385,0.008024445,-0.4532475
21828148000,-193.08456,344.72955,-358.49017,-1.0495211,-3.5e-43,0.004910578,0.037638254,0.9884949,0.06826427,0.1786036,-0.01807617,0.0,0.0,0.0,0.0031590685,0.008265247,-0.45389596
21828244000,-193.08456,344.72955,-358.41022,-1.0495211,-3.5e-43,0.0039103646,0.038826913,0.97436523,0.08176225,0.19023153,-0.07040426,0.0,0.0,0.0,0.0038048457,0.008852515,-0.45632187
21828348000,-193.08456,344.72955,-358.29028,-1.0495211,-3.5e-43,0.0028086798,0.040247507,0.99108887,0.07675968,0.18873772,-0.017712072,0.0,0.0,0.0,0.0035529623,0.008736071,-0.45391545
21828444000,-193.08456,344.72955,-358.21033,-1.0495211,-3.5e-43,0.0021563668,0.040682383,0.9747925,0.07611151,0.17892739,-0.08547096,0.0,0.0,0.0,0.003546873,0.008338197,-0.4570612
21828548000,-193.08456,344.72955,-358.0904,-1.0495211,-3.5e-43,0.0018954414,0.041755076,0.98883057,0.088851124,0.18615873,-0.03126516,0.0,0.0,0.0,0.004119024,0.008630081,-0.45457608
21828644000,-193.08456,344.72955,-358.01044,-1.0495211,-3.5e-43,0.0016635079,0.041929025,0.97213745,0.08789996,0.18911536,-0.09288062,0.0,0.0,0.0,0.00410052,0.008822204,-0.45743558
