timestamp,timestamp_sample,gps_hvel[0],gps_hvel[1],gps_vvel,gps_hpos[0],gps_hpos[1],gps_vpos,ev_hvel[0],ev_hvel[1],ev_vvel,ev_hpos[0],ev_hpos[1],ev_vpos,rng_vpos,baro_vpos,aux_hvel[0],aux_hvel[1],aux_vvel,flow[0],flow[1],heading,mag_field[0],mag_field[1],mag_field[2],drag[0],drag[1],airspeed,beta,hagl,hagl_rate
21726696000,21726616000,4.6244204e-06,0.0,5.062902e-07,1.5594051e-07,0.0,0.0,0.0,0.0,0.0,0.0,0.0,0.0,0.0,2.8523918e-05,0.0,0.0,nan,0.0,0.0,0.0005643195,0.0,0.0,0.0,0.0,0.0,0.0,0.0,0.0,0.0
21727192000,21727112000,5.49727e-08,0.0,3.0336512e-08,3.83503e-06,0.0,0.0,0.0,0.0,0.0,0.0,0.0,0.0,0.0,3.113698e-06,0.0,0.0,nan,0.0,0.0,0.00056080165,0.0,0.0,0.0,0.0,0.0,0.0,0.0,0.0,0.0
21727696000,21727616000,1.7020246e-06,0.0,1.688751e-05,3.7955208e-06,0.0,0.0,0.0,0.0,0.0,0.0,0.0,0.0,0.0,2.669284e-06,0.0,0.0,nan,0.0,0.0,0.0013769226,0.0,0.0,0.0,0.0,0.0,0.0,0.0,0.0,0.0
21728200000,21728120000,2.8696353e-05,0.0,6.177829e-07,1.7530759e-07,0.0,0.0,0.0,0.0,0.0,0.0,0.0,0.0,0.0,1.0691168e-06,0.0,0.0,nan,0.0,0.0,2.8357063e-05,0.0,0.0,0.0,0.0,0.0,0.0,0.0,0.0,0.0
21728696000,21728616000,4.4048666e-05,0.0,1.7800125e-05,3.518763e-06,0.0,0.0,0.0,0.0,0.0,0.0,0.0,0.0,0.0,3.4221654e-07,0.0,0.0,nan,0.0,0.0,0.00075767725,0.0,0.0,0.0,0.0,0.0,0.0,0.0,0.0,0.0
21729200000,21729120000,4.18961e-06,0.0,7.9098994e-05,1.4974139e-06,0.0,0.0,0.0,0.0,0.0,0.0,0.0,0.0,0.0,1.787885e-05,0.0,0.0,nan,0.0,0.0,0.0004245169,0.0,0.0,0.0,0.0,0.0,0.0,0.0,0.0,0.0
21729696000,21729616000,7.1159825e-08,0.0,2.5461588e-07,1.6771047e-07,0.0,0.0,0.0,0.0,0.0,0.0,0.0,0.0,0.0,1.3147224e-05,0.0,0.0,nan,0.0,0.0,0.00015063943,0.0,0.0,0.0,0.0,0.0,0.0,0.0,0.0,0.0
21730192000,21730112000,0.00017483877,0.0,0.00030951467,1.6373377e-07,0.0,0.0,0.0,0.0,0.0,0.0,0.0,0.0,0.0,4.4284006e-05,0.0,0.0,nan,0.0,0.0,0.0006543872,0.0,0.0,0.0,0.0,0.0,0.0,0.0,0.0,0.0
21730696000,21730616000,6.883905e-05,0.0,2.09306e-05,3.5878063e-06,0.0,0.0,0.0,0.0,0.0,0.0,0.0,0.0,0.0,5.43998e-07,0.0,0.0,nan,0.0,0.0,1.2777103e-07,0.0,0.0,0.0,0.0,0.0,0.0,0.0,0.0,0.0
21731200000,21731120000,4.5712608e-05,0.0,2.4832132e-05,1.2663165e-07,0.0,0.0,0.0,0.0,0.0,0.0,0.0,0.0,0.0,2.2538397e-06,0.0,0.0,nan,0.0,0.0,6.7185196e-05,0.0,0.0,0.0,0.0,0.0,0.0,0.0,0.0,0.0
21731696000,21731616000,3.4508193e-05,0.0,0.00033037586,1.6301182e-07,0.0,0.0,0.0,0.0,0.0,0.0,0.0,0.0,0.0,1.1331521e-06,0.0,0.0,nan,0.0,0.0,5.3828884e-05,0.0,0.0,0.0,0.0,0.0,0.0,0.0,0.0,0.0
21732200000,21732120000,5.1106133e-05,0.0,0.0005136628,1.9217791e-07,0.0,0.0,0.0,0.0,0.0,0.0,0.0,0.0,0.0,1.4601031e-06,0.0,0.0,nan,0.0,0.0,5.0326148e-09,0.0,0.0,0.0,0.0,0.0,0.0,0.0,0.0,0.0
21732696000,21732616000,5.4720553e-05,0.0,4.758243e-08,1.5134474e-06,0.0,0.0,0.0,0.0,0.0,0.0,0.0,0.0,0.0,8.079315e-07,0.0,0.0,nan,0.0,0.0,6.281445e-05,0.0,0.0,0.0,0.0,0.0,0.0,0.0,0.0,0.0
21733200000,21733120000,4.6045323e-05,0.0,6.892632e-06,3.7040272e-06,0.0,0.0,0.0,0.0,0.0,0.0,0.0,0.0,0.0,0.0,0.0,0.0,nan,0.0,0.0,9.2389935e-05,0.0,0.0,0.0,0.0,0.0,0.0,0.0,0.0,0.0
21733696000,21733616000,0.00016356116,0.0,9.424395e-05,8.785189e-07,0.0,0.0,0.0,0.0,0.0,0.0,0.0,0.0,0.0,0.0,0.0,0.0,nan,0.0,0.0,0.00018149233,0.0,0.0,0.0,0.0,0.0,0.0,0.0,0.0,0.0
21734200000,21734120000,7.733328e-05,0.0,1.7506884e-05,3.2076805e-06,0.0,0.0,0.0,0.0,0.0,0.0,0.0,0.0,0.0,4.450921e-06,0.0,0.0,nan,0.0,0.0,7.867093e-06,0.0,0.0,0.0,0.0,0.0,0.0,0.0,0.0,0.0
21734696000,21734616000,8.4986474e-05,0.0,0.0017651242,1.3536748e-05,0.0,0.0,0.0,0.0,0.0,0.0,0.0,0.0,0.0,2.7841063e-05,0.0,0.0,nan,0.0,0.0,1.2662799e-05,0.0,0.0,0.0,0.0,0.0,0.0,0.0,0.0,0.0
21735200000,21735120000,0.00018239835,0.0,9.92349e-05,1.5119599e-05,0.0,0.0,0.0,0.0,0.0,0.0,0.0,0.0,0.0,5.715195e-06,0.0,0.0,nan,0.0,0.0,5.6663273e-05,0.0,0.0,0.0,0.0,0.0,0.0,0.0,0.0,0.0
21735696000,21735616000,0.00062171015,0.0,0.00051710836,3.44204e-05,0.0,0.0,0.0,0.0,0.0,0.0,0.0,0.0,0.0,2.4372479e-05,0.0,0.0,nan,0.0,0.0,0.0077804383,0.0,0.0,0.0,0.0,0.0,0.0,0.0,0.0,0.0
21736192000,21736112000,0.0006081053,0.0,0.0025042887,3.624598e-05,0.0,0.0,0.0,0.0,0.0,0.0,0.0,0.0,0.0,5.1751744e-05,0.0,0.0,nan,0.0,0.0,0.0006614051,0.0,0.0,0.0,0.0,0.0,0.0,0.0,0.0,0.0
21736696000,21736616000,0.00042471828,0.0,0.00010202936,4.0769282e-05,0.0,0.0,0.0,0.0,0.0,0.0,0.0,0.0,0.0,5.0955e-06,0.0,0.0,nan,0.0,0.0,0.002565857,0.0,0.0,0.0,0.0,0.0,0.0,0.0,0.0,0.0
21737192000,21737112000,6.2545434e-05,0.0,0.00060409604,3.8987506e-05,0.0,0.0,0.0,0.0,0.0,0.0,0.0,0.0,0.0,8.028161e-09,0.0,0.0,nan,0.0,0.0,0.00135898,0.0,0.0,0.0,0.0,0.0,0.0,0.0,0.0,0.0
21737696000,21737616000,0.00021101774,0.0,7.1126975e-05,5.0416307e-05,0.0,0.0,0.0,0.0,0.0,0.0,0.0,0.0,0.0,4.0431238e-05,0.0,0.0,nan,0.0,0.0,0.00062420266,0.0,0.0,0.0,0.0,0.0,0.0,0.0,0.0,0.0
21738192000,21738112000,5.0656927e-05,0.0,2.5101901e-05,5.212616e-05,0.0,0.0,0.0,0.0,0.0,0.0,0.0,0.0,0.0,2.7249105e-05,0.0,0.0,nan,0.0,0.0,0.0005916171,0.0,0.0,0.0,0.0,0.0,0.0,0.0,0.0,0.0
21738696000,21738616000,9.094734e-05,0.0,1.5120352e-05,5.753048e-05,0.0,0.0,0.0,0.0,0.0,0.0,0.0,0.0,0.0,1.40986795e-05,0.0,0.0,nan,0.0,0.0,9.5305084e-05,0.0,0.0,0.0,0.0,0.0,0.0,0.0,0.0,0.0
21739200000,21739120000,0.00023960254,0.0,0.00012829152,5.8418438e-05,0.0,0.0,0.0,0.0,0.0,0.0,0.0,0.0,0.0,3.1625675e-07,0.0,0.0,nan,0.0,0.0,6.21858e-05,0.0,0.0,0.0,0.0,0.0,0.0,0.0,0.0,0.0
21739696000,21739616000,0.00863301,0.0,0.0010558128,0.00014002774,0.0,0.0,0.0,0.0,0.0,0.0,0.0,0.0,0.0,0.00010275426,0.0,0.0,nan,0.0,0.0,0.0,0.0002029692,0.0,0.0,0.0,0.0,0.0,0.0,0.0,0.0
21740200000,21740120000,0.0021396014,0.0,0.0013357961,9.468696e-05,0.0,0.0,0.0,0.0,0.0,0.0,0.0,0.0,0.0,4.054892e-05,0.0,0.0,nan,0.0,0.0,0.0,0.00021600688,0.0,0.0,0.0,0.0,0.0,0.0,0.0,0.0
21740696000,21740616000,0.0012110628,0.0,0.00022795647,1.5774709e-05,0.0,0.0,0.0,0.0,0.0,0.0,0.0,0.0,0.0,5.0867755e-05,0.0,0.0,nan,0.0,0.0,0.0,0.0003138787,0.0,0.0,0.0,0.0,0.0,0.0,0.0,0.0
21741200000,21741120000,0.00094814686,0.0,0.00026634237,2.0250327e-05,0.0,0.0,0.0,0.0,0.0,0.0,0.0,0.0,0.0,2.4886664e-05,0.0,0.0,nan,0.0,0.0,0.0,0.005754896,0.0,0.0,0.0,0.0,0.0,0.0,0.0,0.0
21741696000,21741616000,0.00049644534,0.0,0.0012055647,1.608932e-05,0.0,0.0,0.0,0.0,0.0,0.0,0.0,0.0,0.0,0.00017724987,0.0,0.0,nan,0.0,0.0,0.0,0.0007546132,0.0,0.0,0.0,0.0,0.0,0.0,0.0,0.0
21742200000,21742120000,0.00023553266,0.0,7.8593155e-05,1.3840915e-06,0.0,0.0,0.0,0.0,0.0,0.0,0.0,0.0,0.0,4.567529e-05,0.0,0.0,nan,0.0,0.0,0.0,0.00032628965,0.0,0.0,0.0,0.0,0.0,0.0,0.0,0.0
21742696000,21742616000,0.0010038993,0.0,1.7731665e-05,5.232842e-06,0.0,0.0,0.0,0.0,0.0,0.0,0.0,0.0,0.0,7.986309e-05,0.0,0.0,nan,0.0,0.0,0.0,0.0014957906,0.0,0.0,0.0,0.0,0.0,0.0,0.0,0.0
21743192000,21743112000,0.0003203144,0.0,0.00026850656,3.8642378e-05,0.0,0.0,0.0,0.0,0.0,0.0,0.0,0.0,0.0,7.938789e-05,0.0,0.0,nan,0.0,0.0,0.0,8.454098e-06,0.0,0.0,0.0,0.0,0.0,0.0,0.0,0.0
21743696000,21743616000,0.0006379836,0.0,0.0006151749,9.637794e-05,0.0,0.0,0.0,0.0,0.0,0.0,0.0,0.0,0.0,3.8546827e-05,0.0,0.0,nan,0.0,0.0,0.0,0.0015481367,0.0,0.0,0.0,0.0,0.0,0.0,0.0,0.0
21744192000,21744112000,0.00031621064,0.0,0.00026287502,1.0516707e-05,0.0,0.0,0.0,0.0,0.0,0.0,0.0,0.0,0.0,8.6050946e-05,0.0,0.0,nan,0.0,0.0,0.0,0.00020400663,0.0,0.0,0.0,0.0,0.0,0.0,0.0,0.0
21744696000,21744616000,8.095935e-05,0.0,9.606013e-06,0.000212232,0.0,0.0,0.0,0.0,0.0,0.0,0.0,0.0,0.0,2.5043599e-05,0.0,0.0,nan,0.0,0.0,0.0,0.003817064,0.0,0.0,0.0,0.0,0.0,0.0,0.0,0.0
21745200000,21745120000,1.9195759e-05,0.0,0.00021966815,6.06281e-05,0.0,0.0,0.0,0.0,0.0,0.0,0.0,0.0,0.0,4.8005855e-05,0.0,0.0,nan,0.0,0.0,0.0,0.00053150865,0.0,0.0,0.0,0.0,0.0,0.0,0.0,0.0
21745696000,21745616000,0.00059910445,0.0,0.0010439738,9.2097114e-05,0.0,0.0,0.0,0.0,0.0,0.0,0.0,0.0,0.0,7.156721e-05,0.0,0.0,nan,0.0,0.0,0.0011320693,0.0,0.0,0.0,0.0,0.0,0.0,0.0,0.0,0.0
21746200000,21746120000,5.3483094e-05,0.0,0.0003258787,0.000323296,0.0,0.0,0.0,0.0,0.0,0.0,0.0,0.0,0.0,5.4115484e-05,0.0,0.0,nan,0.0,0.0,2.0539663e-05,0.0,0.0,0.0,0.0,0.0,0.0,0.0,0.0,0.0
21746696000,21746616000,1.9881416e-05,0.0,2.292033e-05,6.4141226e-05,0.0,0.0,0.0,0.0,0.0,0.0,0.0,0.0,0.0,3.709215e-05,0.0,0.0,nan,0.0,0.0,4.629587e-05,0.0,0.0,0.0,0.0,0.0,0.0,0.0,0.0,0.0
21747192000,21747112000,0.00059604744,0.0,0.00027639075,7.237206e-05,0.0,0.0,0.0,0.0,0.0,0.0,0.0,0.0,0.0,2.3563766e-06,0.0,0.0,nan,0.0,0.0,0.0010317257,0.0,0.0,0.0,0.0,0.0,0.0,0.0,0.0,0.0
21747696000,21747616000,0.00026261798,0.0,0.0010270991,0.00014632285,0.0,0.0,0.0,0.0,0.0,0.0,0.0,0.0,0.0,1.4255605e-06,0.0,0.0,nan,0.0,0.0,0.0006140509,0.0,0.0,0.0,0.0,0.0,0.0,0.0,0.0,0.0
21748192000,21748112000,0.0002502373,0.0,2.506498e-09,0.00016581216,0.0,0.0,0.0,0.0,0.0,0.0,0.0,0.0,0.0,3.950956e-05,0.0,0.0,nan,0.0,0.0,1.1177515e-05,0.0,0.0,0.0,0.0,0.0,0.0,0.0,0.0,0.0
21748696000,21748616000,0.0002878696,0.0,0.00075406046,0.00019505071,0.0,0.0,0.0,0.0,0.0,0.0,0.0,0.0,0.0,1.2242383e-06,0.0,0.0,nan,0.0,0.0,8.295243e-05,0.0,0.0,0.0,0.0,0.0,0.0,0.0,0.0,0.0
21749192000,21749112000,0.00030091772,0.0,9.938786e-05,0.00011438291,0.0,0.0,0.0,0.0,0.0,0.0,0.0,0.0,0.0,9.134533e-07,0.0,0.0,nan,0.0,0.0,9.870777e-05,0.0,0.0,0.0,0.0,0.0,0.0,0.0,0.0,0.0
21749696000,21749616000,5.2959942e-05,0.0,0.0003005148,0.00018273192,0.0,0.0,0.0,0.0,0.0,0.0,0.0,0.0,0.0,1.5448693e-07,0.0,0.0,nan,0.0,0.0,2.8088425e-05,0.0,0.0,0.0,0.0,0.0,0.0,0.0,0.0,0.0
21750192000,21750112000,0.00036524457,0.0,0.00017872293,0.0003608482,0.0,0.0,0.0,0.0,0.0,0.0,0.0,0.0,0.0,1.894668e-06,0.0,0.0,nan,0.0,0.0,6.5774264e-05,0.0,0.0,0.0,0.0,0.0,0.0,0.0,0.0,0.0
21750696000,21750616000,7.4065074e-06,0.0,0.00037680732,0.0001851189,0.0,0.0,0.0,0.0,0.0,0.0,0.0,0.0,0.0,5.6299832e-05,0.0,0.0,nan,0.0,0.0,0.0005609279,0.0,0.0,0.0,0.0,0.0,0.0,0.0,0.0,0.0
21751200000,21751120000,5.0810286e-05,0.0,1.3966389e-06,0.0003258987,0.0,0.0,0.0,0.0,0.0,0.0,0.0,0.0,0.0,2.5086256e-05,0.0,0.0,nan,0.0,0.0,3.1047279e-07,0.0,0.0,0.0,0.0,0.0,0.0,0.0,0.0,0.0
21751696000,21751616000,9.98749e-05,0.0,0.00014738296,0.00027663624,0.0,0.0,0.0,0.0,0.0,0.0,0.0,0.0,0.0,1.8486358e-05,0.0,0.0,nan,0.0,0.0,4.687214e-06,0.0,0.0,0.0,0.0,0.0,0.0,0.0,0.0,0.0
21752192000,21752112000,6.700626e-05,0.0,1.975656e-08,8.676493e-05,0.0,0.0,0.0,0.0,0.0,0.0,0.0,0.0,0.0,2.9803937e-06,0.0,0.0,nan,0.0,0.0,0.00026712107,0.0,0.0,0.0,0.0,0.0,0.0,0.0,0.0,0.0
21752696000,21752616000,0.00030937023,0.0,3.725519e-05,0.00031039177,0.0,0.0,0.0,0.0,0.0,0.0,0.0,0.0,0.0,1.8512866e-07,0.0,0.0,nan,0.0,0.0,0.0001656071,0.0,0.0,0.0,0.0,0.0,0.0,0.0,0.0,0.0
21753200000,21753120000,0.00026172967,0.0,0.00036503215,0.00014559763,0.0,0.0,0.0,0.0,0.0,0.0,0.0,0.0,0.0,3.239259e-05,0.0,0.0,nan,0.0,0.0,8.657704e-06,0.0,0.0,0.0,0.0,0.0,0.0,0.0,0.0,0.0
21753696000,21753616000,0.00020061231,0.0,0.00014784743,0.00015034837,0.0,0.0,0.0,0.0,0.0,0.0,0.0,0.0,0.0,5.361576e-05,0.0,0.0,nan,0.0,0.0,1.6678523e-05,0.0,0.0,0.0,0.0,0.0,0.0,0.0,0.0,0.0
21754200000,21754120000,0.0011090431,0.0,0.00045773896,0.00015088163,0.0,0.0,0.0,0.0,0.0,0.0,0.0,0.0,0.0,7.073524e-05,0.0,0.0,nan,0.0,0.0,0.00015768563,0.0,0.0,0.0,0.0,0.0,0.0,0.0,0.0,0.0
21754696000,21754616000,0.0003593419,0.0,7.436484e-05,4.5409146e-05,0.0,0.0,0.0,0.0,0.0,0.0,0.0,0.0,0.0,1.35403425e-05,0.0,0.0,nan,0.0,0.0,3.1439184e-05,0.0,0.0,0.0,0.0,0.0,0.0,0.0,0.0,0.0
21755192000,21755112000,0.00070723635,0.0,0.0008743578,0.00012697672,0.0,0.0,0.0,0.0,0.0,0.0,0.0,0.0,0.0,3.1271196e-07,0.0,0.0,nan,0.0,0.0,0.00022147068,0.0,0.0,0.0,0.0,0.0,0.0,0.0,0.0,0.0
21755696000,21755616000,0.0015291474,0.0,0.00032385378,8.347479e-05,0.0,0.0,0.0,0.0,0.0,0.0,0.0,0.0,0.0,1.9277799e-05,0.0,0.0,nan,0.0,0.0,3.9011443e-06,0.0,0.0,0.0,0.0,0.0,0.0,0.0,0.0,0.0
21756192000,21756112000,0.0012253947,0.0,0.0012405856,0.00035960067,0.0,0.0,0.0,0.0,0.0,0.0,0.0,0.0,0.0,0.00010174135,0.0,0.0,nan,0.0,0.0,0.00023398949,0.0,0.0,0.0,0.0,0.0,0.0,0.0,0.0,0.0
21756696000,21756616000,0.0012885402,0.0,0.001290135,0.00011232571,0.0,0.0,0.0,0.0,0.0,0.0,0.0,0.0,0.0,4.1025276e-05,0.0,0.0,nan,0.0,0.0,1.522522e-05,0.0,0.0,0.0,0.0,0.0,0.0,0.0,0.0,0.0
21757200000,21757120000,0.0010458707,0.0,0.0014097661,7.835926e-05,0.0,0.0,0.0,0.0,0.0,0.0,0.0,0.0,0.0,7.4959825e-13,0.0,0.0,nan,0.0,0.0,0.00028345402,0.0,0.0,0.0,0.0,0.0,0.0,0.0,0.0,0.0
21757696000,21757616000,0.00061553455,0.0,0.0016479865,7.795122e-05,0.0,0.0,0.0,0.0,0.0,0.0,0.0,0.0,0.0,6.705502e-06,0.0,0.0,nan,0.0,0.0,3.9956954e-06,0.0,0.0,0.0,0.0,0.0,0.0,0.0,0.0,0.0
21758200000,21758120000,0.00086597336,0.0,0.0012378347,0.00030949098,0.0,0.0,0.0,0.0,0.0,0.0,0.0,0.0,0.0,4.565576e-06,0.0,0.0,nan,0.0,0.0,0.0006068668,0.0,0.0,0.0,0.0,0.0,0.0,0.0,0.0,0.0
21758696000,21758616000,0.00043798666,0.0,0.0014679775,0.00020760448,0.0,0.0,0.0,0.0,0.0,0.0,0.0,0.0,0.0,2.2197419e-05,0.0,0.0,nan,0.0,0.0,0.0003880475,0.0,0.0,0.0,0.0,0.0,0.0,0.0,0.0,0.0
21759200000,21759120000,0.00035553734,0.0,0.00020227603,8.735164e-05,0.0,0.0,0.0,0.0,0.0,0.0,0.0,0.0,0.0,0.0001072159,0.0,0.0,nan,0.0,0.0,1.696859e-05,0.0,0.0,0.0,0.0,0.0,0.0,0.0,0.0,0.0
21759696000,21759616000,0.00031467498,0.0,0.0015117029,0.00011448171,0.0,0.0,0.0,0.0,0.0,0.0,0.0,0.0,0.0,3.8471844e-05,0.0,0.0,nan,0.0,0.0,9.486546e-05,0.0,0.0,0.0,0.0,0.0,0.0,0.0,0.0,0.0
21760192000,21760112000,0.00020578207,0.0,0.0024827216,0.00016262902,0.0,0.0,0.0,0.0,0.0,0.0,0.0,0.0,0.0,2.9138468e-05,0.0,0.0,nan,0.0,0.0,5.1546318e-05,0.0,0.0,0.0,0.0,0.0,0.0,0.0,0.0,0.0
21760696000,21760616000,0.0005019014,0.0,0.0038650818,0.00013851305,0.0,0.0,0.0,0.0,0.0,0.0,0.0,0.0,0.0,7.0731236e-05,0.0,0.0,nan,0.0,0.0,0.00019830637,0.0,0.0,0.0,0.0,0.0,0.0,0.0,0.0,0.0
21761200000,21761120000,0.00022836402,0.0,0.0012054159,0.00014281298,0.0,0.0,0.0,0.0,0.0,0.0,0.0,0.0,0.0,9.163201e-06,0.0,0.0,nan,0.0,0.0,1.1402363e-10,0.0,0.0,0.0,0.0,0.0,0.0,0.0,0.0,0.0
21761696000,21761616000,0.00013954943,0.0,0.0009021736,0.00012822697,0.0,0.0,0.0,0.0,0.0,0.0,0.0,0.0,0.0,7.173185e-05,0.0,0.0,nan,0.0,0.0,3.996447e-05,0.0,0.0,0.0,0.0,0.0,0.0,0.0,0.0,0.0
21762192000,21762112000,0.00042058338,0.0,0.0014626447,0.00025100715,0.0,0.0,0.0,0.0,0.0,0.0,0.0,0.0,0.0,0.00015713058,0.0,0.0,nan,0.0,0.0,0.00073134614,0.0,0.0,0.0,0.0,0.0,0.0,0.0,0.0,0.0
21762696000,21762616000,0.00089777115,0.0,0.0010216681,0.00013150778,0.0,0.0,0.0,0.0,0.0,0.0,0.0,0.0,0.0,7.911736e-05,0.0,0.0,nan,0.0,0.0,7.934233e-05,0.0,0.0,0.0,0.0,0.0,0.0,0.0,0.0,0.0
21763200000,21763120000,2.2187663e-05,0.0,5.183142e-05,0.00014259727,0.0,0.0,0.0,0.0,0.0,0.0,0.0,0.0,0.0,5.1787498e-05,0.0,0.0,nan,0.0,0.0,2.9130328e-05,0.0,0.0,0.0,0.0,0.0,0.0,0.0,0.0,0.0
21763696000,21763616000,0.00047744796,0.0,0.0006212339,9.965983e-05,0.0,0.0,0.0,0.0,0.0,0.0,0.0,0.0,0.0,0.00010956172,0.0,0.0,nan,0.0,0.0,0.000115895884,0.0,0.0,0.0,0.0,0.0,0.0,0.0,0.0,0.0
21764200000,21764120000,0.00024151505,0.0,0.0007951834,0.0001050806,0.0,0.0,0.0,0.0,0.0,0.0,0.0,0.0,0.0,6.651904e-05,0.0,0.0,nan,0.0,0.0,0.000100857265,0.0,0.0,0.0,0.0,0.0,0.0,0.0,0.0,0.0
21764696000,21764616000,6.9392714e-05,0.0,0.00011856392,6.346283e-05,0.0,0.0,0.0,0.0,0.0,0.0,0.0,0.0,0.0,0.00036312017,0.0,0.0,nan,0.0,0.0,0.00045722985,0.0,0.0,0.0,0.0,0.0,0.0,0.0,0.0,0.0
21765200000,21765120000,0.0003140565,0.0,0.00036619362,6.966079e-05,0.0,0.0,0.0,0.0,0.0,0.0,0.0,0.0,0.0,0.00025773738,0.0,0.0,nan,0.0,0.0,0.00018446779,0.0,0.0,0.0,0.0,0.0,0.0,0.0,0.0,0.0
21765696000,21765616000,0.00022366166,0.0,0.0006464715,0.00018084764,0.0,0.0,0.0,0.0,0.0,0.0,0.0,0.0,0.0,4.5671153e-05,0.0,0.0,nan,0.0,0.0,0.00062340806,0.0,0.0,0.0,0.0,0.0,0.0,0.0,0.0,0.0
21766200000,21766120000,0.00016495567,0.0,2.0395644e-05,0.00021822413,0.0,0.0,0.0,0.0,0.0,0.0,0.0,0.0,0.0,2.3281682e-05,0.0,0.0,nan,0.0,0.0,8.968879e-06,0.0,0.0,0.0,0.0,0.0,0.0,0.0,0.0,0.0
21766696000,21766616000,6.678982e-06,0.0,0.00053085544,0.00016439155,0.0,0.0,0.0,0.0,0.0,0.0,0.0,0.0,0.0,5.0516595e-05,0.0,0.0,nan,0.0,0.0,0.00042989943,0.0,0.0,0.0,0.0,0.0,0.0,0.0,0.0,0.0
21767192000,21767112000,0.00027351276,0.0,1.7647592e-06,4.549364e-05,0.0,0.0,0.0,0.0,0.0,0.0,0.0,0.0,0.0,1.4399707e-06,0.0,0.0,nan,0.0,0.0,0.0001218113,0.0,0.0,0.0,0.0,0.0,0.0,0.0,0.0,0.0
21767696000,21767616000,1.2033899e-05,0.0,0.0011292574,0.00015273764,0.0,0.0,0.0,0.0,0.0,0.0,0.0,0.0,0.0,6.0103343e-05,0.0,0.0,nan,0.0,0.0,0.00045326375,0.0,0.0,0.0,0.0,0.0,0.0,0.0,0.0,0.0
21768192000,21768112000,1.2135606e-05,0.0,5.0605624e-05,0.0001971245,0.0,0.0,0.0,0.0,0.0,0.0,0.0,0.0,0.0,0.00010482421,0.0,0.0,nan,0.0,0.0,1.8716904e-05,0.0,0.0,0.0,0.0,0.0,0.0,0.0,0.0,0.0
21768696000,21768616000,0.00011066168,0.0,0.0014032534,0.000106789856,0.0,0.0,0.0,0.0,0.0,0.0,0.0,0.0,0.0,4.9306735e-05,0.0,0.0,nan,0.0,0.0,0.0006485251,0.0,0.0,0.0,0.0,0.0,0.0,0.0,0.0,0.0
21769200000,21769120000,0.00039073077,0.0,4.176132e-05,0.00036626856,0.0,0.0,0.0,0.0,0.0,0.0,0.0,0.0,0.0,1.1656306e-05,0.0,0.0,nan,0.0,0.0,2.1943555e-05,0.0,0.0,0.0,0.0,0.0,0.0,0.0,0.0,0.0
21769696000,21769616000,9.527181e-05,0.0,0.00048756594,0.00018595302,0.0,0.0,0.0,0.0,0.0,0.0,0.0,0.0,0.0,9.95018e-07,0.0,0.0,nan,0.0,0.0,6.8070876e-06,0.0,0.0,0.0,0.0,0.0,0.0,0.0,0.0,0.0
21770200000,21770120000,2.3766265e-06,0.0,0.00041704605,0.00026864724,0.0,0.0,0.0,0.0,0.0,0.0,0.0,0.0,0.0,6.5675005e-05,0.0,0.0,nan,0.0,0.0,0.00021807564,0.0,0.0,0.0,0.0,0.0,0.0,0.0,0.0,0.0
21770696000,21770616000,0.0005383722,0.0,0.00028306898,8.15786e-05,0.0,0.0,0.0,0.0,0.0,0.0,0.0,0.0,0.0,1.2881632e-05,0.0,0.0,nan,0.0,0.0,1.4063596e-06,0.0,0.0,0.0,0.0,0.0,0.0,0.0,0.0,0.0
21771200000,21771120000,0.00028056317,0.0,5.560587e-06,7.973232e-05,0.0,0.0,0.0,0.0,0.0,0.0,0.0,0.0,0.0,4.1968593e-05,0.0,0.0,nan,0.0,0.0,0.00027229334,0.0,0.0,0.0,0.0,0.0,0.0,0.0,0.0,0.0
21771696000,21771616000,0.00080453785,0.0,0.00012275235,0.00019480985,0.0,0.0,0.0,0.0,0.0,0.0,0.0,0.0,0.0,9.165515e-06,0.0,0.0,nan,0.0,0.0,0.00051211973,0.0,0.0,0.0,0.0,0.0,0.0,0.0,0.0,0.0
21772200000,21772120000,0.0004443674,0.0,1.4531066e-05,0.0003370478,0.0,0.0,0.0,0.0,0.0,0.0,0.0,0.0,0.0,5.0937146e-05,0.0,0.0,nan,0.0,0.0,0.00023035602,0.0,0.0,0.0,0.0,0.0,0.0,0.0,0.0,0.0
21772696000,21772616000,0.001075324,0.0,7.5300145e-06,0.00023997635,0.0,0.0,0.0,0.0,0.0,0.0,0.0,0.0,0.0,2.1223278e-07,0.0,0.0,nan,0.0,0.0,4.582427e-06,0.0,0.0,0.0,0.0,0.0,0.0,0.0,0.0,0.0
21773192000,21773112000,0.0003681193,0.0,0.0002040796,0.0003295823,0.0,0.0,0.0,0.0,0.0,0.0,0.0,0.0,0.0,3.9244496e-06,0.0,0.0,nan,0.0,0.0,2.6688047e-05,0.0,0.0,0.0,0.0,0.0,0.0,0.0,0.0,0.0
21773696000,21773616000,0.00075344567,0.0,2.8892488e-05,0.00026979521,0.0,0.0,0.0,0.0,0.0,0.0,0.0,0.0,0.0,1.6683227e-05,0.0,0.0,nan,0.0,0.0,7.408915e-06,0.0,0.0,0.0,0.0,0.0,0.0,0.0,0.0,0.0
21774200000,21774120000,0.000109956614,0.0,1.66025e-05,0.00045460468,0.0,0.0,0.0,0.0,0.0,0.0,0.0,0.0,0.0,1.4361488e-06,0.0,0.0,nan,0.0,0.0,2.113765e-05,0.0,0.0,0.0,0.0,0.0,0.0,0.0,0.0,0.0
21774696000,21774616000,0.00013700823,0.0,0.00012495379,0.00028113823,0.0,0.0,0.0,0.0,0.0,0.0,0.0,0.0,0.0,1.5953116e-05,0.0,0.0,nan,0.0,0.0,0.00032805395,0.0,0.0,0.0,0.0,0.0,0.0,0.0,0.0,0.0
21775200000,21775120000,0.0016998524,0.0,0.00027840582,0.00033154667,0.0,0.0,0.0,0.0,0.0,0.0,0.0,0.0,0.0,1.1732126e-05,0.0,0.0,nan,0.0,0.0,0.00024999972,0.0,0.0,0.0,0.0,0.0,0.0,0.0,0.0,0.0
21775696000,21775616000,0.00032454383,0.0,9.5657204e-05,0.00027110951,0.0,0.0,0.0,0.0,0.0,0.0,0.0,0.0,0.0,1.6000459e-07,0.0,0.0,nan,0.0,0.0,5.8858805e-06,0.0,0.0,0.0,0.0,0.0,0.0,0.0,0.0,0.0
21776200000,21776120000,0.0005735954,0.0,0.0005597762,0.0003509031,0.0,0.0,0.0,0.0,0.0,0.0,0.0,0.0,0.0,6.170565e-05,0.0,0.0,nan,0.0,0.0,7.117959e-07,0.0,0.0,0.0,0.0,0.0,0.0,0.0,0.0,0.0
21776696000,21776616000,0.00020655981,0.0,0.0006975069,0.00015026711,0.0,0.0,0.0,0.0,0.0,0.0,0.0,0.0,0.0,9.118144e-06,0.0,0.0,nan,0.0,0.0,0.00019767799,0.0,0.0,0.0,0.0,0.0,0.0,0.0,0.0,0.0
21777192000,21777112000,0.00029768984,0.0,9.481174e-05,0.00029616788,0.0,0.0,0.0,0.0,0.0,0.0,0.0,0.0,0.0,1.4398436e-06,0.0,0.0,nan,0.0,0.0,7.739674e-05,0.0,0.0,0.0,0.0,0.0,0.0,0.0,0.0,0.0
21777696000,21777616000,0.00090711843,0.0,0.0014517531,0.00064498454,0.0,0.0,0.0,0.0,0.0,0.0,0.0,0.0,0.0,5.4528315e-05,0.0,0.0,nan,0.0,0.0,2.9639235e-05,0.0,0.0,0.0,0.0,0.0,0.0,0.0,0.0,0.0
21778200000,21778120000,0.00090205413,0.0,0.00055401365,0.00058218284,0.0,0.0,0.0,0.0,0.0,0.0,0.0,0.0,0.0,6.8345165e-05,0.0,0.0,nan,0.0,0.0,2.4994506e-05,0.0,0.0,0.0,0.0,0.0,0.0,0.0,0.0,0.0
21778696000,21778616000,0.0007283994,0.0,4.873962e-05,0.000115640505,0.0,0.0,0.0,0.0,0.0,0.0,0.0,0.0,0.0,5.542535e-06,0.0,0.0,nan,0.0,0.0,0.00053392287,0.0,0.0,0.0,0.0,0.0,0.0,0.0,0.0,0.0
21779200000,21779120000,0.0023110383,0.0,0.00040512494,0.00058521837,0.0,0.0,0.0,0.0,0.0,0.0,0.0,0.0,0.0,2.2374636e-05,0.0,0.0,nan,0.0,0.0,5.0109685e-07,0.0,0.0,0.0,0.0,0.0,0.0,0.0,0.0,0.0
21779696000,21779616000,4.2231368e-05,0.0,0.0016525501,0.00014777102,0.0,0.0,0.0,0.0,0.0,0.0,0.0,0.0,0.0,5.532314e-07,0.0,0.0,nan,0.0,0.0,0.00010287039,0.0,0.0,0.0,0.0,0.0,0.0,0.0,0.0,0.0
21780192000,21780112000,0.00068012864,0.0,0.0011932238,0.000491644,0.0,0.0,0.0,0.0,0.0,0.0,0.0,0.0,0.0,2.4019364e-06,0.0,0.0,nan,0.0,0.0,0.00033986013,0.0,0.0,0.0,0.0,0.0,0.0,0.0,0.0,0.0
21780696000,21780616000,0.00027222748,0.0,0.00075549085,0.00017806861,0.0,0.0,0.0,0.0,0.0,0.0,0.0,0.0,0.0,2.275517e-06,0.0,0.0,nan,0.0,0.0,0.00017117249,0.0,0.0,0.0,0.0,0.0,0.0,0.0,0.0,0.0
21781192000,21781112000,0.0013931305,0.0,0.00089823536,0.00019233995,0.0,0.0,0.0,0.0,0.0,0.0,0.0,0.0,0.0,9.109145e-06,0.0,0.0,nan,0.0,0.0,0.00018906436,0.0,0.0,0.0,0.0,0.0,0.0,0.0,0.0,0.0
21781696000,21781616000,0.00049252465,0.0,0.00013624346,0.00031985735,0.0,0.0,0.0,0.0,0.0,0.0,0.0,0.0,0.0,4.7766534e-06,0.0,0.0,nan,0.0,0.0,2.0479818e-05,0.0,0.0,0.0,0.0,0.0,0.0,0.0,0.0,0.0
21782200000,21782120000,0.00070973166,0.0,1.5530095e-07,0.00015203947,0.0,0.0,0.0,0.0,0.0,0.0,0.0,0.0,0.0,5.598305e-05,0.0,0.0,nan,0.0,0.0,0.000104771396,0.0,0.0,0.0,0.0,0.0,0.0,0.0,0.0,0.0
21782696000,21782616000,0.00092155166,0.0,0.00021429232,0.00030300516,0.0,0.0,0.0,0.0,0.0,0.0,0.0,0.0,0.0,2.8199936e-05,0.0,0.0,nan,0.0,0.0,0.0006400451,0.0,0.0,0.0,0.0,0.0,0.0,0.0,0.0,0.0
21783200000,21783120000,0.00031506893,0.0,0.00019611012,0.00022949139,0.0,0.0,0.0,0.0,0.0,0.0,0.0,0.0,0.0,3.6966605e-05,0.0,0.0,nan,0.0,0.0,0.00025047435,0.0,0.0,0.0,0.0,0.0,0.0,0.0,0.0,0.0
21783696000,21783616000,0.00014439957,0.0,1.0011091e-06,0.00040560233,0.0,0.0,0.0,0.0,0.0,0.0,0.0,0.0,0.0,6.088845e-08,0.0,0.0,nan,0.0,0.0,2.1448272e-06,0.0,0.0,0.0,0.0,0.0,0.0,0.0,0.0,0.0
21784200000,21784120000,0.00031109492,0.0,0.00038585535,0.00011926626,0.0,0.0,0.0,0.0,0.0,0.0,0.0,0.0,0.0,2.8435205e-05,0.0,0.0,nan,0.0,0.0,1.941337e-05,0.0,0.0,0.0,0.0,0.0,0.0,0.0,0.0,0.0
21784696000,21784616000,0.00012496448,0.0,2.4465891e-05,0.00017852258,0.0,0.0,0.0,0.0,0.0,0.0,0.0,0.0,0.0,1.1416809e-05,0.0,0.0,nan,0.0,0.0,3.5221554e-05,0.0,0.0,0.0,0.0,0.0,0.0,0.0,0.0,0.0
21785200000,21785120000,0.00082727114,0.0,0.00018874013,0.00021751011,0.0,0.0,0.0,0.0,0.0,0.0,0.0,0.0,0.0,2.5169466e-05,0.0,0.0,nan,0.0,0.0,0.0001096013,0.0,0.0,0.0,0.0,0.0,0.0,0.0,0.0,0.0
21785696000,21785616000,4.794357e-05,0.0,0.0017839625,0.00038603295,0.0,0.0,0.0,0.0,0.0,0.0,0.0,0.0,0.0,9.641311e-07,0.0,0.0,nan,0.0,0.0,0.002259675,0.0,0.0,0.0,0.0,0.0,0.0,0.0,0.0,0.0
21786200000,21786120000,0.00030822278,0.0,0.0006508444,0.00036209516,0.0,0.0,0.0,0.0,0.0,0.0,0.0,0.0,0.0,3.3116673e-06,0.0,0.0,nan,0.0,0.0,0.0004266146,0.0,0.0,0.0,0.0,0.0,0.0,0.0,0.0,0.0
21786696000,21786616000,6.967303e-05,0.0,0.00053407595,0.00014204322,0.0,0.0,0.0,0.0,0.0,0.0,0.0,0.0,0.0,6.0432456e-05,0.0,0.0,nan,0.0,0.0,0.00043407365,0.0,0.0,0.0,0.0,0.0,0.0,0.0,0.0,0.0
21787200000,21787120000,0.0001310203,0.0,0.000990026,0.00013231157,0.0,0.0,0.0,0.0,0.0,0.0,0.0,0.0,0.0,5.936733e-06,0.0,0.0,nan,0.0,0.0,5.0572242e-05,0.0,0.0,0.0,0.0,0.0,0.0,0.0,0.0,0.0
21787696000,21787616000,0.0006134307,0.0,0.0014383905,0.00041230128,0.0,0.0,0.0,0.0,0.0,0.0,0.0,0.0,0.0,9.0045825e-07,0.0,0.0,nan,0.0,0.0,0.00039401144,0.0,0.0,0.0,0.0,0.0,0.0,0.0,0.0,0.0
21788192000,21788112000,0.00038569342,0.0,0.0005698822,0.00035573734,0.0,0.0,0.0,0.0,0.0,0.0,0.0,0.0,0.0,1.3924791e-05,0.0,0.0,nan,0.0,0.0,0.00082066655,0.0,0.0,0.0,0.0,0.0,0.0,0.0,0.0,0.0
21788696000,21788616000,0.00019733647,0.0,0.0007560936,0.00022787656,0.0,0.0,0.0,0.0,0.0,0.0,0.0,0.0,0.0,1.0261881e-07,0.0,0.0,nan,0.0,0.0,0.0001156492,0.0,0.0,0.0,0.0,0.0,0.0,0.0,0.0,0.0
21789200000,21789120000,5.1424926e-05,0.0,0.0013339097,0.00012647636,0.0,0.0,0.0,0.0,0.0,0.0,0.0,0.0,0.0,1.6640279e-06,0.0,0.0,nan,0.0,0.0,0.0006351552,0.0,0.0,0.0,0.0,0.0,0.0,0.0,0.0,0.0
21789696000,21789616000,0.00027898003,0.0,0.0027665817,0.00012940793,0.0,0.0,0.0,0.0,0.0,0.0,0.0,0.0,0.0,1.8059794e-06,0.0,0.0,nan,0.0,0.0,3.5246147e-05,0.0,0.0,0.0,0.0,0.0,0.0,0.0,0.0,0.0
21790192000,21790112000,0.00022168733,0.0,0.0006055517,0.00024447148,0.0,0.0,0.0,0.0,0.0,0.0,0.0,0.0,0.0,4.2384483e-05,0.0,0.0,nan,0.0,0.0,3.74387e-06,0.0,0.0,0.0,0.0,0.0,0.0,0.0,0.0,0.0
21790696000,21790616000,2.3181497e-05,0.0,0.00038985745,0.00022099022,0.0,0.0,0.0,0.0,0.0,0.0,0.0,0.0,0.0,1.6816646e-05,0.0,0.0,nan,0.0,0.0,0.00081021804,0.0,0.0,0.0,0.0,0.0,0.0,0.0,0.0,0.0
21791192000,21791112000,0.00022041364,0.0,0.000915431,0.00022859056,0.0,0.0,0.0,0.0,0.0,0.0,0.0,0.0,0.0,3.59031e-05,0.0,0.0,nan,0.0,0.0,2.0623476e-05,0.0,0.0,0.0,0.0,0.0,0.0,0.0,0.0,0.0
21791696000,21791616000,5.6771718e-05,0.0,0.0021531933,0.0005225993,0.0,0.0,0.0,0.0,0.0,0.0,0.0,0.0,0.0,6.898114e-05,0.0,0.0,nan,0.0,0.0,3.6127574e-06,0.0,0.0,0.0,0.0,0.0,0.0,0.0,0.0,0.0
21792192000,21792112000,1.0657329e-06,0.0,3.258068e-05,0.00018434438,0.0,0.0,0.0,0.0,0.0,0.0,0.0,0.0,0.0,0.00019158493,0.0,0.0,nan,0.0,0.0,3.569048e-05,0.0,0.0,0.0,0.0,0.0,0.0,0.0,0.0,0.0
21792696000,21792616000,0.00022231809,0.0,0.0013550755,0.0002074256,0.0,0.0,0.0,0.0,0.0,0.0,0.0,0.0,0.0,7.523751e-06,0.0,0.0,nan,0.0,0.0,5.4160704e-05,0.0,0.0,0.0,0.0,0.0,0.0,0.0,0.0,0.0
21793200000,21793120000,0.00041091625,0.0,0.0003433497,0.00016932035,0.0,0.0,0.0,0.0,0.0,0.0,0.0,0.0,0.0,5.7525587e-05,0.0,0.0,nan,0.0,0.0,4.9769445e-05,0.0,0.0,0.0,0.0,0.0,0.0,0.0,0.0,0.0
21793696000,21793616000,1.9649728e-05,0.0,0.001417657,2.9456973e-05,0.0,0.0,0.0,0.0,0.0,0.0,0.0,0.0,0.0,9.567393e-06,0.0,0.0,nan,0.0,0.0,9.580775e-06,0.0,0.0,0.0,0.0,0.0,0.0,0.0,0.0,0.0
21794200000,21794120000,0.00013783017,0.0,0.0014168088,0.00013291027,0.0,0.0,0.0,0.0,0.0,0.0,0.0,0.0,0.0,5.0895793e-05,0.0,0.0,nan,0.0,0.0,1.1896105e-06,0.0,0.0,0.0,0.0,0.0,0.0,0.0,0.0,0.0
21794696000,21794616000,0.00023126647,0.0,0.00033686985,8.284094e-05,0.0,0.0,0.0,0.0,0.0,0.0,0.0,0.0,0.0,6.730236e-06,0.0,0.0,nan,0.0,0.0,0.00014011018,0.0,0.0,0.0,0.0,0.0,0.0,0.0,0.0,0.0
21795200000,21795120000,0.00033366086,0.0,0.0008988788,0.00010527073,0.0,0.0,0.0,0.0,0.0,0.0,0.0,0.0,0.0,4.5079698e-05,0.0,0.0,nan,0.0,0.0,0.0006473965,0.0,0.0,0.0,0.0,0.0,0.0,0.0,0.0,0.0
21795696000,21795616000,0.00045512035,0.0,0.0010403933,0.00035296803,0.0,0.0,0.0,0.0,0.0,0.0,0.0,0.0,0.0,5.2548614e-05,0.0,0.0,nan,0.0,0.0,5.528547e-05,0.0,0.0,0.0,0.0,0.0,0.0,0.0,0.0,0.0
21796200000,21796120000,0.0007762645,0.0,2.8729199e-05,0.00023326527,0.0,0.0,0.0,0.0,0.0,0.0,0.0,0.0,0.0,2.618561e-05,0.0,0.0,nan,0.0,0.0,1.2470572e-05,0.0,0.0,0.0,0.0,0.0,0.0,0.0,0.0,0.0
21796696000,21796616000,0.0005763024,0.0,9.694101e-05,8.121751e-05,0.0,0.0,0.0,0.0,0.0,0.0,0.0,0.0,0.0,1.8621622e-06,0.0,0.0,nan,0.0,0.0,0.00032813448,0.0,0.0,0.0,0.0,0.0,0.0,0.0,0.0,0.0
21797200000,21797120000,0.0011958675,0.0,0.00017863426,0.00013688667,0.0,0.0,0.0,0.0,0.0,0.0,0.0,0.0,0.0,4.2305728e-05,0.0,0.0,nan,0.0,0.0,0.0001551337,0.0,0.0,0.0,0.0,0.0,0.0,0.0,0.0,0.0
21797696000,21797616000,0.0012256666,0.0,4.8902326e-05,0.00021911788,0.0,0.0,0.0,0.0,0.0,0.0,0.0,0.0,0.0,2.2848755e-05,0.0,0.0,nan,0.0,0.0,2.558803e-05,0.0,0.0,0.0,0.0,0.0,0.0,0.0,0.0,0.0
21798192000,21798112000,0.0010955941,0.0,0.00021563037,0.00043954994,0.0,0.0,0.0,0.0,0.0,0.0,0.0,0.0,0.0,9.5106116e-05,0.0,0.0,nan,0.0,0.0,1.2465092e-05,0.0,0.0,0.0,0.0,0.0,0.0,0.0,0.0,0.0
21798696000,21798616000,0.00048355744,0.0,0.00016889766,0.00021075542,0.0,0.0,0.0,0.0,0.0,0.0,0.0,0.0,0.0,2.0937023e-05,0.0,0.0,nan,0.0,0.0,6.870341e-06,0.0,0.0,0.0,0.0,0.0,0.0,0.0,0.0,0.0
21799200000,21799120000,0.0016748561,0.0,3.8138027e-05,0.00043965527,0.0,0.0,0.0,0.0,0.0,0.0,0.0,0.0,0.0,5.188801e-05,0.0,0.0,nan,0.0,0.0,3.3888373e-06,0.0,0.0,0.0,0.0,0.0,0.0,0.0,0.0,0.0
21799696000,21799616000,0.00086070615,0.0,9.823347e-06,0.0001615108,0.0,0.0,0.0,0.0,0.0,0.0,0.0,0.0,0.0,5.290539e-05,0.0,0.0,nan,0.0,0.0,4.7567035e-05,0.0,0.0,0.0,0.0,0.0,0.0,0.0,0.0,0.0
21800200000,21800120000,0.0022036876,0.0,1.6697106e-06,0.00014983446,0.0,0.0,0.0,0.0,0.0,0.0,0.0,0.0,0.0,1.863922e-05,0.0,0.0,nan,0.0,0.0,0.0001066014,0.0,0.0,0.0,0.0,0.0,0.0,0.0,0.0,0.0
21800696000,21800616000,0.00063954835,0.0,3.9751845e-05,0.00040419324,0.0,0.0,0.0,0.0,0.0,0.0,0.0,0.0,0.0,8.731956e-05,0.0,0.0,nan,0.0,0.0,4.0388437e-05,0.0,0.0,0.0,0.0,0.0,0.0,0.0,0.0,0.0
21801200000,21801120000,0.0019913209,0.0,0.00010593617,0.0005656129,0.0,0.0,0.0,0.0,0.0,0.0,0.0,0.0,0.0,1.2651436e-05,0.0,0.0,nan,0.0,0.0,1.1960685e-05,0.0,0.0,0.0,0.0,0.0,0.0,0.0,0.0,0.0
21801696000,21801616000,0.0025985076,0.0,0.00021500401,0.0006062278,0.0,0.0,0.0,0.0,0.0,0.0,0.0,0.0,0.0,2.6608668e-06,0.0,0.0,nan,0.0,0.0,5.5458935e-07,0.0,0.0,0.0,0.0,0.0,0.0,0.0,0.0,0.0
21802200000,21802120000,0.0018681946,0.0,2.8672535e-05,0.00031299324,0.0,0.0,0.0,0.0,0.0,0.0,0.0,0.0,0.0,1.0240246e-05,0.0,0.0,nan,0.0,0.0,0.00011153283,0.0,0.0,0.0,0.0,0.0,0.0,0.0,0.0,0.0
21802696000,21802616000,0.0014794655,0.0,0.00024093546,0.0003220065,0.0,0.0,0.0,0.0,0.0,0.0,0.0,0.0,0.0,1.7782966e-08,0.0,0.0,nan,0.0,0.0,7.3510023e-06,0.0,0.0,0.0,0.0,0.0,0.0,0.0,0.0,0.0
21803200000,21803120000,0.0028150973,0.0,8.669155e-05,0.000647965,0.0,0.0,0.0,0.0,0.0,0.0,0.0,0.0,0.0,2.6268744e-06,0.0,0.0,nan,0.0,0.0,1.5157608e-06,0.0,0.0,0.0,0.0,0.0,0.0,0.0,0.0,0.0
21803696000,21803616000,0.0009941957,0.0,0.0005271029,0.00047315625,0.0,0.0,0.0,0.0,0.0,0.0,0.0,0.0,0.0,1.586637e-07,0.0,0.0,nan,0.0,0.0,9.3663744e-05,0.0,0.0,0.0,0.0,0.0,0.0,0.0,0.0,0.0
21804200000,21804120000,0.0016631855,0.0,3.9779694e-05,0.00044502315,0.0,0.0,0.0,0.0,0.0,0.0,0.0,0.0,0.0,2.8746945e-05,0.0,0.0,nan,0.0,0.0,6.066016e-05,0.0,0.0,0.0,0.0,0.0,0.0,0.0,0.0,0.0
21804696000,21804616000,0.00088343344,0.0,0.00039462856,0.00028505176,0.0,0.0,0.0,0.0,0.0,0.0,0.0,0.0,0.0,1.5416974e-06,0.0,0.0,nan,0.0,0.0,2.5510672e-05,0.0,0.0,0.0,0.0,0.0,0.0,0.0,0.0,0.0
21805192000,21805112000,0.0009645961,0.0,0.00053907343,0.00046491035,0.0,0.0,0.0,0.0,0.0,0.0,0.0,0.0,0.0,2.0193878e-05,0.0,0.0,nan,0.0,0.0,0.00079097366,0.0,0.0,0.0,0.0,0.0,0.0,0.0,0.0,0.0
21805696000,21805616000,0.0012425823,0.0,1.1295651e-05,0.00039506127,0.0,0.0,0.0,0.0,0.0,0.0,0.0,0.0,0.0,2.717701e-06,0.0,0.0,nan,0.0,0.0,9.044205e-06,0.0,0.0,0.0,0.0,0.0,0.0,0.0,0.0,0.0
21806200000,21806120000,0.00050012226,0.0,0.00026362322,0.00036412597,0.0,0.0,0.0,0.0,0.0,0.0,0.0,0.0,0.0,8.726577e-06,0.0,0.0,nan,0.0,0.0,4.751006e-05,0.0,0.0,0.0,0.0,0.0,0.0,0.0,0.0,0.0
21806696000,21806616000,0.0052929204,0.0,0.015152276,0.00050734263,0.0,0.0,0.0,0.0,0.0,0.0,0.0,0.0,0.0,3.2328964e-05,0.0,0.0,nan,0.0,0.0,0.0011219756,0.0,0.0,0.0,0.0,0.0,0.0,0.0,0.0,0.0
21807200000,21807120000,0.028762793,0.0,0.0026746092,0.0008557586,0.0,0.0,0.0,0.0,0.0,0.0,0.0,0.0,0.0,5.1793526e-05,0.0,0.0,nan,0.0,0.0,0.0,0.0016731401,0.0,0.0,0.0,0.0,0.0,0.0,0.0,0.0
21807696000,21807616000,0.0043796664,0.0,3.0480085e-06,0.0004571454,0.0,0.0,0.0,0.0,0.0,0.0,0.0,0.0,0.0,2.1000975e-05,0.0,0.0,nan,0.0,0.0,0.0,0.00047759624,0.0,0.0,0.0,0.0,0.0,0.0,0.0,0.0
21808200000,21808120000,0.0015624329,0.0,0.0010339842,0.00025108038,0.0,0.0,0.0,0.0,0.0,0.0,0.0,0.0,0.0,2.708622e-05,0.0,0.0,nan,0.0,0.0,0.0,0.0010537236,0.0,0.0,0.0,0.0,0.0,0.0,0.0,0.0
21808696000,21808616000,0.0014167825,0.0,3.6935027e-05,0.00016891718,0.0,0.0,0.0,0.0,0.0,0.0,0.0,0.0,0.0,0.0,0.0,0.0,nan,0.0,0.0,0.0,2.2994254e-05,0.0,0.0,0.0,0.0,0.0,0.0,0.0,0.0
21809192000,21809112000,0.00059924694,0.0,6.394204e-06,0.00012572578,0.0,0.0,0.0,0.0,0.0,0.0,0.0,0.0,0.0,0.0,0.0,0.0,nan,0.0,0.0,0.0,0.0015164601,0.0,0.0,0.0,0.0,0.0,0.0,0.0,0.0
21809696000,21809616000,0.0029556628,0.0,0.00014479284,4.2437536e-05,0.0,0.0,0.0,0.0,0.0,0.0,0.0,0.0,0.0,0.0,0.0,0.0,nan,0.0,0.0,0.0,3.577831e-05,0.0,0.0,0.0,0.0,0.0,0.0,0.0,0.0
21810200000,21810120000,0.002357871,0.0,0.00024732007,5.327309e-05,0.0,0.0,0.0,0.0,0.0,0.0,0.0,0.0,0.0,0.0,0.0,0.0,nan,0.0,0.0,0.0,2.8341306e-05,0.0,0.0,0.0,0.0,0.0,0.0,0.0,0.0
21810696000,21810616000,0.003385531,0.0,0.0006804398,6.7550454e-06,0.0,0.0,0.0,0.0,0.0,0.0,0.0,0.0,0.0,0.0,0.0,0.0,nan,0.0,0.0,0.0,0.0012817451,0.0,0.0,0.0,0.0,0.0,0.0,0.0,0.0
21811200000,21811120000,0.0030987104,0.0,0.00092972745,1.2760945e-05,0.0,0.0,0.0,0.0,0.0,0.0,0.0,0.0,0.0,0.0,0.0,0.0,nan,0.0,0.0,0.0,0.00049754884,0.0,0.0,0.0,0.0,0.0,0.0,0.0,0.0
21811696000,21811616000,0.0019935102,0.0,0.0034023812,9.403802e-06,0.0,0.0,0.0,0.0,0.0,0.0,0.0,0.0,0.0,0.0,0.0,0.0,nan,0.0,0.0,0.0,0.0036198893,0.0,0.0,0.0,0.0,0.0,0.0,0.0,0.0
21812192000,21812112000,0.002119588,0.0,0.0020937817,2.2094007e-05,0.0,0.0,0.0,0.0,0.0,0.0,0.0,0.0,0.0,0.0,0.0,0.0,nan,0.0,0.0,0.0,0.00064619246,0.0,0.0,0.0,0.0,0.0,0.0,0.0,0.0
21812696000,21812616000,0.0022629828,0.0,0.0056039062,4.062501e-05,0.0,0.0,0.0,0.0,0.0,0.0,0.0,0.0,0.0,0.0,0.0,0.0,nan,0.0,0.0,0.00054712116,0.0,0.0,0.0,0.0,0.0,0.0,0.0,0.0,0.0
21813200000,21813120000,0.0014092925,0.0,0.0051833973,2.332195e-05,0.0,0.0,0.0,0.0,0.0,0.0,0.0,0.0,0.0,0.0,0.0,0.0,nan,0.0,0.0,2.3446824e-05,0.0,0.0,0.0,0.0,0.0,0.0,0.0,0.0,0.0
21813696000,21813616000,0.0013689789,0.0,0.004838361,2.9789777e-05,0.0,0.0,0.0,0.0,0.0,0.0,0.0,0.0,0.0,0.0,0.0,0.0,nan,0.0,0.0,2.010513e-06,0.0,0.0,0.0,0.0,0.0,0.0,0.0,0.0,0.0
21814192000,21814112000,0.000742249,0.0,0.0018115934,1.9010502e-05,0.0,0.0,0.0,0.0,0.0,0.0,0.0,0.0,0.0,0.0,0.0,0.0,nan,0.0,0.0,0.000453687,0.0,0.0,0.0,0.0,0.0,0.0,0.0,0.0,0.0
21814696000,21814616000,0.00024988205,0.0,0.001796175,1.6479005e-05,0.0,0.0,0.0,0.0,0.0,0.0,0.0,0.0,0.0,0.0,0.0,0.0,nan,0.0,0.0,0.0012446095,0.0,0.0,0.0,0.0,0.0,0.0,0.0,0.0,0.0
21815200000,21815120000,9.8485034e-05,0.0,0.0025054333,1.6143531e-05,0.0,0.0,0.0,0.0,0.0,0.0,0.0,0.0,0.0,0.0,0.0,0.0,nan,0.0,0.0,2.022225e-05,0.0,0.0,0.0,0.0,0.0,0.0,0.0,0.0,0.0
21815696000,21815616000,9.938836e-05,0.0,0.0032856313,9.424716e-06,0.0,0.0,0.0,0.0,0.0,0.0,0.0,0.0,0.0,8.0183014e-07,0.0,0.0,nan,0.0,0.0,0.0008337408,0.0,0.0,0.0,0.0,0.0,0.0,0.0,0.0,0.0
21816200000,21816120000,0.000176016,0.0,0.0006993019,6.891003e-06,0.0,0.0,0.0,0.0,0.0,0.0,0.0,0.0,0.0,7.976104e-06,0.0,0.0,nan,0.0,0.0,0.0003747714,0.0,0.0,0.0,0.0,0.0,0.0,0.0,0.0,0.0
21816696000,21816616000,0.00030403121,0.0,0.00068778964,1.738974e-06,0.0,0.0,0.0,0.0,0.0,0.0,0.0,0.0,0.0,1.2283446e-06,0.0,0.0,nan,0.0,0.0,3.7035377e-06,0.0,0.0,0.0,0.0,0.0,0.0,0.0,0.0,0.0
21817200000,21817120000,0.000100860605,0.0,0.0017368768,8.578096e-06,0.0,0.0,0.0,0.0,0.0,0.0,0.0,0.0,0.0,2.5382343e-08,0.0,0.0,nan,0.0,0.0,5.5943405e-05,0.0,0.0,0.0,0.0,0.0,0.0,0.0,0.0,0.0
21817696000,21817616000,0.00035310598,0.0,4.385392e-06,9.13158e-06,0.0,0.0,0.0,0.0,0.0,0.0,0.0,0.0,0.0,2.1214467e-07,0.0,0.0,nan,0.0,0.0,6.801733e-06,0.0,0.0,0.0,0.0,0.0,0.0,0.0,0.0,0.0
21818192000,21818112000,0.0001358785,0.0,8.023022e-05,8.569057e-06,0.0,0.0,0.0,0.0,0.0,0.0,0.0,0.0,0.0,2.4800996e-05,0.0,0.0,nan,0.0,0.0,0.0003121312,0.0,0.0,0.0,0.0,0.0,0.0,0.0,0.0,0.0
21818696000,21818616000,0.0008576832,0.0,0.0003978354,5.9356366e-06,0.0,0.0,0.0,0.0,0.0,0.0,0.0,0.0,0.0,7.277497e-05,0.0,0.0,nan,0.0,0.0,0.00058157515,0.0,0.0,0.0,0.0,0.0,0.0,0.0,0.0,0.0
21819192000,21819112000,0.00018544773,0.0,0.00011845998,4.080869e-06,0.0,0.0,0.0,0.0,0.0,0.0,0.0,0.0,0.0,0.0,0.0,0.0,nan,0.0,0.0,0.00034483575,0.0,0.0,0.0,0.0,0.0,0.0,0.0,0.0,0.0
21819696000,21819616000,0.000673841,0.0,0.00024982766,4.8520537e-06,0.0,0.0,0.0,0.0,0.0,0.0,0.0,0.0,0.0,7.647824e-05,0.0,0.0,nan,0.0,0.0,0.00023809457,0.0,0.0,0.0,0.0,0.0,0.0,0.0,0.0,0.0
21820200000,21820120000,0.00064155564,0.0,0.00057592103,9.268615e-06,0.0,0.0,0.0,0.0,0.0,0.0,0.0,0.0,0.0,1.6287588e-05,0.0,0.0,nan,0.0,0.0,6.26527e-05,0.0,0.0,0.0,0.0,0.0,0.0,0.0,0.0,0.0
21820696000,21820616000,0.0009316559,0.0,0.0006250794,1.1358739e-05,0.0,0.0,0.0,0.0,0.0,0.0,0.0,0.0,0.0,5.6943903e-05,0.0,0.0,nan,0.0,0.0,3.3551583e-08,0.0,0.0,0.0,0.0,0.0,0.0,0.0,0.0,0.0
21821192000,21821112000,0.00014152746,0.0,1.9623917e-06,1.3454773e-05,0.0,0.0,0.0,0.0,0.0,0.0,0.0,0.0,0.0,0.0,0.0,0.0,nan,0.0,0.0,3.90935e-05,0.0,0.0,0.0,0.0,0.0,0.0,0.0,0.0,0.0
21821696000,21821616000,0.0008581022,0.0,0.00053033617,2.022818e-05,0.0,0.0,0.0,0.0,0.0,0.0,0.0,0.0,0.0,3.6414527e-05,0.0,0.0,nan,0.0,0.0,3.2041014e-05,0.0,0.0,0.0,0.0,0.0,0.0,0.0,0.0,0.0
21822192000,21822112000,0.0006070947,0.0,7.731437e-06,1.32032255e-05,0.0,0.0,0.0,0.0,0.0,0.0,0.0,0.0,0.0,2.5871793e-06,0.0,0.0,nan,0.0,0.0,0.0007923377,0.0,0.0,0.0,0.0,0.0,0.0,0.0,0.0,0.0
21822696000,21822616000,0.0012435229,0.0,7.003463e-05,3.3805813e-05,0.0,0.0,0.0,0.0,0.0,0.0,0.0,0.0,0.0,2.4674859e-05,0.0,0.0,nan,0.0,0.0,0.00013789894,0.0,0.0,0.0,0.0,0.0,0.0,0.0,0.0,0.0
21823200000,21823120000,0.00043129202,0.0,0.00017100443,1.9867559e-05,0.0,0.0,0.0,0.0,0.0,0.0,0.0,0.0,0.0,1.7353399e-05,0.0,0.0,nan,0.0,0.0,9.377738e-05,0.0,0.0,0.0,0.0,0.0,0.0,0.0,0.0,0.0
21823696000,21823616000,0.00047052332,0.0,0.000105775056,1.5994003e-05,0.0,0.0,0.0,0.0,0.0,0.0,0.0,0.0,0.0,1.1639095e-06,0.0,0.0,nan,0.0,0.0,0.00014990485,0.0,0.0,0.0,0.0,0.0,0.0,0.0,0.0,0.0
21824200000,21824120000,0.00023032806,0.0,9.369092e-05,2.4787592e-05,0.0,0.0,0.0,0.0,0.0,0.0,0.0,0.0,0.0,1.052579e-05,0.0,0.0,nan,0.0,0.0,0.0013186205,0.0,0.0,0.0,0.0,0.0,0.0,0.0,0.0,0.0
21824696000,21824616000,0.000121330915,0.0,3.2764024e-06,2.1476477e-07,0.0,0.0,0.0,0.0,0.0,0.0,0.0,0.0,0.0,7.0371448e-06,0.0,0.0,nan,0.0,0.0,0.00012538691,0.0,0.0,0.0,0.0,0.0,0.0,0.0,0.0,0.0
21825200000,21825120000,0.00010941425,0.0,0.00020850658,1.5749156e-06,0.0,0.0,0.0,0.0,0.0,0.0,0.0,0.0,0.0,2.2977729e-05,0.0,0.0,nan,0.0,0.0,6.4952173e-06,0.0,0.0,0.0,0.0,0.0,0.0,0.0,0.0,0.0
21825696000,21825616000,3.4589873e-05,0.0,1.8757037e-06,7.3494143e-06,0.0,0.0,0.0,0.0,0.0,0.0,0.0,0.0,0.0,0.0,0.0,0.0,nan,0.0,0.0,0.00038700821,0.0,0.0,0.0,0.0,0.0,0.0,0.0,0.0,0.0
21826200000,21826120000,0.00025605326,0.0,0.00026891718,6.56713e-06,0.0,0.0,0.0,0.0,0.0,0.0,0.0,0.0,0.0,1.9619922e-06,0.0,0.0,nan,0.0,0.0,0.001163811,0.0,0.0,0.0,0.0,0.0,0.0,0.0,0.0,0.0
21826696000,21826616000,0.0006754846,0.0,0.000109643894,1.3018511e-05,0.0,0.0,0.0,0.0,0.0,0.0,0.0,0.0,0.0,0.0,0.0,0.0,nan,0.0,0.0,5.3659485e-05,0.0,0.0,0.0,0.0,0.0,0.0,0.0,0.0,0.0
21827200000,21827120000,0.0002999155,0.0,0.00043056606,5.8826636e-06,0.0,0.0,0.0,0.0,0.0,0.0,0.0,0.0,0.0,9.1010855e-07,0.0,0.0,nan,0.0,0.0,2.5736446e-05,0.0,0.0,0.0,0.0,0.0,0.0,0.0,0.0,0.0
21827696000,21827616000,0.00073009264,0.0,6.330524e-05,1.2556189e-05,0.0,0.0,0.0,0.0,0.0,0.0,0.0,0.0,0.0,0.0,0.0,0.0,nan,0.0,0.0,0.00054520724,0.0,0.0,0.0,0.0,0.0,0.0,0.0,0.0,0.0
21828192000,21828112000,0.0010086203,0.0,4.2026317e-05,1.6943064e-05,0.0,0.0,0.0,0.0,0.0,0.0,0.0,0.0,0.0,6.9251236e-08,0.0,0.0,nan,0.0,0.0,0.00010220276,0.0,0.0,0.0,0.0,0.0,0.0,0.0,0.0,0.0
21828696000,21828616000,0.00048453442,0.0,4.6621157e-05,3.2670207e-05,0.0,0.0,0.0,0.0,0.0,0.0,0.0,0.0,0.0,0.0,0.0,0.0,nan,0.0,0.0,1.6115295e-06,0.0,0.0,0.0,0.0,0.0,0.0,0.0,0.0,0.0
21829192000,21829112000,0.00056944875,0.0,0.001186705,5.1505387e-05,0.0,0.0,0.0,0.0,0.0,0.0,0.0,0.0,0.0,0.0,0.0,0.0,nan,0.0,0.0,9.545735e-05,0.0,0.0,0.0,0.0,0.0,0.0,0.0,0.0,0.0
21829696000,21829616000,0.0005940554,0.0,0.00036156425,6.689951e-05,0.0,0.0,0.0,0.0,0.0,0.0,0.0,0.0,0.0,0.0,0.0,0.0,nan,0.0,0.0,2.9973811e-05,0.0,0.0,0.0,0.0,0.0,0.0,0.0,0.0,0.0
21830192000,21830112000,0.0008054339,0.0,6.531308e-05,7.516454e-05,0.0,0.0,0.0,0.0,0.0,0.0,0.0,0.0,0.0,0.0,0.0,0.0,nan,0.0,0.0,6.713421e-05,0.0,0.0,0.0,0.0,0.0,0.0,0.0,0.0,0.0
21830696000,21830616000,0.00012857902,0.0,0.0012364626,6.385105e-05,0.0,0.0,0.0,0.0,0.0,0.0,0.0,0.0,0.0,0.0,0.0,0.0,nan,0.0,0.0,0.00024756574,0.0,0.0,0.0,0.0,0.0,0.0,0.0,0.0,0.0
21831200000,21831120000,0.00014330487,0.0,5.3902772e-06,4.346927e-05,0.0,0.0,0.0,0.0,0.0,0.0,0.0,0.0,0.0,0.0,0.0,0.0,nan,0.0,0.0,9.243804e-05,0.0,0.0,0.0,0.0,0.0,0.0,0.0,0.0,0.0
21831696000,21831616000,4.4106113e-05,0.0,1.3554756e-05,3.196147e-05,0.0,0.0,0.0,0.0,0.0,0.0,0.0,0.0,0.0,0.0,0.0,0.0,nan,0.0,0.0,6.3804005e-06,0.0,0.0,0.0,0.0,0.0,0.0,0.0,0.0,0.0
21832200000,21832120000,0.0006050792,0.0,1.0671198e-05,4.3334443e-05,0.0,0.0,0.0,0.0,0.0,0.0,0.0,0.0,0.0,0.0,0.0,0.0,nan,0.0,0.0,9.49663e-05,0.0,0.0,0.0,0.0,0.0,0.0,0.0,0.0,0.0
21832696000,21832616000,0.0003506101,0.0,7.0044985e-07,2.4085946e-05,0.0,0.0,0.0,0.0,0.0,0.0,0.0,0.0,0.0,0.0,0.0,0.0,nan,0.0,0.0,0.00038248659,0.0,0.0,0.0,0.0,0.0,0.0,0.0,0.0,0.0
21833192000,21833112000,0.0003640426,0.0,0.00057402864,1.836538e-05,0.0,0.0,0.0,0.0,0.0,0.0,0.0,0.0,0.0,0.0,0.0,0.0,nan,0.0,0.0,0.000104194805,0.0,0.0,0.0,0.0,0.0,0.0,0.0,0.0,0.0
21833696000,21833616000,0.00037699172,0.0,1.7002706e-07,7.371884e-06,0.0,0.0,0.0,0.0,0.0,0.0,0.0,0.0,0.0,0.0,0.0,0.0,nan,0.0,0.0,0.00037856196,0.0,0.0,0.0,0.0,0.0,0.0,0.0,0.0,0.0
21834192000,21834112000,0.00045333756,0.0,0.00017463467,7.74152e-06,0.0,0.0,0.0,0.0,0.0,0.0,0.0,0.0,0.0,0.0,0.0,0.0,nan,0.0,0.0,9.2751136e-05,0.0,0.0,0.0,0.0,0.0,0.0,0.0,0.0,0.0
21834696000,21834616000,0.0002723161,0.0,0.0003608376,1.0033136e-05,0.0,0.0,0.0,0.0,0.0,0.0,0.0,0.0,0.0,0.0,0.0,0.0,nan,0.0,0.0,6.116309e-05,0.0,0.0,0.0,0.0,0.0,0.0,0.0,0.0,0.0
21835200000,21835120000,0.00010204412,0.0,4.4109525e-05,7.310818e-06,0.0,0.0,0.0,0.0,0.0,0.0,0.0,0.0,0.0,0.0,0.0,0.0,nan,0.0,0.0,7.988581e-06,0.0,0.0,0.0,0.0,0.0,0.0,0.0,0.0,0.0
21835696000,21835616000,0.00011687109,0.0,0.00017541173,1.0111087e-05,0.0,0.0,0.0,0.0,0.0,0.0,0.0,0.0,0.0,0.0,0.0,0.0,nan,0.0,0.0,1.8361718e-06,0.0,0.0,0.0,0.0,0.0,0.0,0.0,0.0,0.0
21836200000,21836120000,0.00013443714,0.0,1.4092999e-05,9.232403e-06,0.0,0.0,0.0,0.0,0.0,0.0,0.0,0.0,0.0,0.0,0.0,0.0,nan,0.0,0.0,0.00038287794,0.0,0.0,0.0,0.0,0.0,0.0,0.0,0.0,0.0
21836696000,21836616000,0.00014365502,0.0,0.00011801811,7.4149298e-06,0.0,0.0,0.0,0.0,0.0,0.0,0.0,0.0,0.0,0.0,0.0,0.0,nan,0.0,0.0,4.1648204e-06,0.0,0.0,0.0,0.0,0.0,0.0,0.0,0.0,0.0
21837200000,21837120000,0.00016562574,0.0,8.145426e-06,2.8595052e-05,0.0,0.0,0.0,0.0,0.0,0.0,0.0,0.0,0.0,0.0,0.0,0.0,nan,0.0,0.0,0.00097122265,0.0,0.0,0.0,0.0,0.0,0.0,0.0,0.0,0.0
21837696000,21837616000,0.00061824615,0.0,0.000104052844,1.5090679e-05,0.0,0.0,0.0,0.0,0.0,0.0,0.0,0.0,0.0,0.0,0.0,0.0,nan,0.0,0.0,8.72378e-07,0.0,0.0,0.0,0.0,0.0,0.0,0.0,0.0,0.0
21838192000,21838112000,0.00013155173,0.0,0.00020112538,2.5497804e-05,0.0,0.0,0.0,0.0,0.0,0.0,0.0,0.0,0.0,0.0,0.0,0.0,nan,0.0,0.0,0.0014502098,0.0,0.0,0.0,0.0,0.0,0.0,0.0,0.0,0.0
21838696000,21838616000,0.0005712895,0.0,1.8259624e-07,3.7506976e-05,0.0,0.0,0.0,0.0,0.0,0.0,0.0,0.0,0.0,0.0,0.0,0.0,nan,0.0,0.0,0.00022874023,0.0,0.0,0.0,0.0,0.0,0.0,0.0,0.0,0.0
21839192000,21839112000,0.00041159967,0.0,0.00013843016,3.193328e-05,0.0,0.0,0.0,0.0,0.0,0.0,0.0,0.0,0.0,0.0,0.0,0.0,nan,0.0,0.0,8.2289305e-05,0.0,0.0,0.0,0.0,0.0,0.0,0.0,0.0,0.0
21839696000,21839616000,0.0006055412,0.0,0.00039633608,5.3103697e-05,0.0,0.0,0.0,0.0,0.0,0.0,0.0,0.0,0.0,0.0,0.0,0.0,nan,0.0,0.0,7.5205506e-05,0.0,0.0,0.0,0.0,0.0,0.0,0.0,0.0,0.0
21840200000,21840120000,0.0003399186,0.0,2.2508636e-06,2.846115e-05,0.0,0.0,0.0,0.0,0.0,0.0,0.0,0.0,0.0,0.0,0.0,0.0,nan,0.0,0.0,9.704688e-05,0.0,0.0,0.0,0.0,0.0,0.0,0.0,0.0,0.0
21840696000,21840616000,0.001081956,0.0,0.0001722889,4.0759514e-05,0.0,0.0,0.0,0.0,0.0,0.0,0.0,0.0,0.0,0.0,0.0,0.0,nan,0.0,0.0,2.2026132e-05,0.0,0.0,0.0,0.0,0.0,0.0,0.0,0.0,0.0
21841200000,21841120000,0.00028892932,0.0,0.0007887284,3.597004e-05,0.0,0.0,0.0,0.0,0.0,0.0,0.0,0.0,0.0,0.0,0.0,0.0,nan,0.0,0.0,4.8440994e-05,0.0,0.0,0.0,0.0,0.0,0.0,0.0,0.0,0.0
21841696000,21841616000,0.0001405131,0.0,4.8846175e-08,1.8835755e-05,0.0,0.0,0.0,0.0,0.0,0.0,0.0,0.0,0.0,0.0,0.0,0.0,nan,0.0,0.0,1.450057e-06,0.0,0.0,0.0,0.0,0.0,0.0,0.0,0.0,0.0
21842192000,21842112000,0.0003195459,0.0,0.00011361234,2.876596e-05,0.0,0.0,0.0,0.0,0.0,0.0,0.0,0.0,0.0,0.0,0.0,0.0,nan,0.0,0.0,7.789461e-05,0.0,0.0,0.0,0.0,0.0,0.0,0.0,0.0,0.0
21842696000,21842616000,0.0009330568,0.0,1.6107086e-05,2.3132443e-05,0.0,0.0,0.0,0.0,0.0,0.0,0.0,0.0,0.0,0.0,0.0,0.0,nan,0.0,0.0,0.00020927105,0.0,0.0,0.0,0.0,0.0,0.0,0.0,0.0,0.0
21843192000,21843112000,0.0019321176,0.0,0.00011911109,3.8601233e-05,0.0,0.0,0.0,0.0,0.0,0.0,0.0,0.0,0.0,0.0,0.0,0.0,nan,0.0,0.0,0.00010970184,0.0,0.0,0.0,0.0,0.0,0.0,0.0,0.0,0.0
21843696000,21843616000,0.0010375308,0.0,4.2763764e-07,3.333248e-05,0.0,0.0,0.0,0.0,0.0,0.0,0.0,0.0,0.0,0.0,0.0,0.0,nan,0.0,0.0,0.0003471821,0.0,0.0,0.0,0.0,0.0,0.0,0.0,0.0,0.0
21844200000,21844120000,0.001297472,0.0,0.00024487427,3.9851897e-05,0.0,0.0,0.0,0.0,0.0,0.0,0.0,0.0,0.0,0.0,0.0,0.0,nan,0.0,0.0,0.00010795802,0.0,0.0,0.0,0.0,0.0,0.0,0.0,0.0,0.0
21844696000,21844616000,0.0009176496,0.0,5.1273495e-05,2.9020657e-05,0.0,0.0,0.0,0.0,0.0,0.0,0.0,0.0,0.0,0.0,0.0,0.0,nan,0.0,0.0,0.00019640371,0.0,0.0,0.0,0.0,0.0,0.0,0.0,0.0,0.0
21845200000,21845120000,0.00031347957,0.0,8.260547e-05,1.2799358e-05,0.0,0.0,0.0,0.0,0.0,0.0,0.0,0.0,0.0,0.0,0.0,0.0,nan,0.0,0.0,0.0010557297,0.0,0.0,0.0,0.0,0.0,0.0,0.0,0.0,0.0
21845696000,21845616000,0.0008151615,0.0,0.00014459617,1.0322295e-05,0.0,0.0,0.0,0.0,0.0,0.0,0.0,0.0,0.0,0.0,0.0,0.0,nan,0.0,0.0,4.7094774e-05,0.0,0.0,0.0,0.0,0.0,0.0,0.0,0.0,0.0
21846200000,21846120000,5.9476326e-05,0.0,0.00062476366,1.9777146e-05,0.0,0.0,0.0,0.0,0.0,0.0,0.0,0.0,0.0,0.0,0.0,0.0,nan,0.0,0.0,2.350324e-06,0.0,0.0,0.0,0.0,0.0,0.0,0.0,0.0,0.0
21846696000,21846616000,0.0003210968,0.0,7.903639e-07,1.9053314e-05,0.0,0.0,0.0,0.0,0.0,0.0,0.0,0.0,0.0,0.0,0.0,0.0,nan,0.0,0.0,7.640771e-06,0.0,0.0,0.0,0.0,0.0,0.0,0.0,0.0,0.0
21847200000,21847120000,4.896902e-05,0.0,0.00039251053,6.878424e-06,0.0,0.0,0.0,0.0,0.0,0.0,0.0,0.0,0.0,0.0,0.0,0.0,nan,0.0,0.0,2.2500999e-05,0.0,0.0,0.0,0.0,0.0,0.0,0.0,0.0,0.0
21847696000,21847616000,0.00030902386,0.0,0.00056367955,4.763601e-06,0.0,0.0,0.0,0.0,0.0,0.0,0.0,0.0,0.0,0.0,0.0,0.0,nan,0.0,0.0,6.8787344e-08,0.0,0.0,0.0,0.0,0.0,0.0,0.0,0.0,0.0
21848200000,21848120000,0.0001647131,0.0,3.608726e-05,3.1789486e-06,0.0,0.0,0.0,0.0,0.0,0.0,0.0,0.0,0.0,0.0,0.0,0.0,nan,0.0,0.0,1.5581627e-05,0.0,0.0,0.0,0.0,0.0,0.0,0.0,0.0,0.0
21848696000,21848616000,0.00013293063,0.0,5.597384e-05,1.0205814e-05,0.0,0.0,0.0,0.0,0.0,0.0,0.0,0.0,0.0,0.0,0.0,0.0,nan,0.0,0.0,2.5979114e-05,0.0,0.0,0.0,0.0,0.0,0.0,0.0,0.0,0.0
21849200000,21849120000,0.0003775235,0.0,9.906114e-06,3.6770032e-06,0.0,0.0,0.0,0.0,0.0,0.0,0.0,0.0,0.0,0.0,0.0,0.0,nan,0.0,0.0,0.0002736002,0.0,0.0,0.0,0.0,0.0,0.0,0.0,0.0,0.0
21849696000,21849616000,0.00013607113,0.0,0.00039208517,3.5284102e-06,0.0,0.0,0.0,0.0,0.0,0.0,0.0,0.0,0.0,0.0,0.0,0.0,nan,0.0,0.0,1.3130154e-05,0.0,0.0,0.0,0.0,0.0,0.0,0.0,0.0,0.0
21850192000,21850112000,6.5867294e-05,0.0,0.00017681064,5.8719256e-06,0.0,0.0,0.0,0.0,0.0,0.0,0.0,0.0,0.0,0.0,0.0,0.0,nan,0.0,0.0,8.577484e-05,0.0,0.0,0.0,0.0,0.0,0.0,0.0,0.0,0.0
21850696000,21850616000,0.00014471852,0.0,0.0006633667,2.0345018e-05,0.0,0.0,0.0,0.0,0.0,0.0,0.0,0.0,0.0,0.0,0.0,0.0,nan,0.0,0.0,1.2621939e-05,0.0,0.0,0.0,0.0,0.0,0.0,0.0,0.0,0.0
