timestamp,timestamp_sample,gyro_device_id,gyro_bias[0],gyro_bias[1],gyro_bias[2],gyro_bias_limit,gyro_bias_variance[0],gyro_bias_variance[1],gyro_bias_variance[2],accel_device_id,accel_bias[0],accel_bias[1],accel_bias[2],accel_bias_limit,accel_bias_variance[0],accel_bias_variance[1],accel_bias_variance[2],mag_device_id,mag_bias[0],mag_bias[1],mag_bias[2],mag_bias_limit,mag_bias_variance[0],mag_bias_variance[1],mag_bias_variance[2],gyro_bias_valid,gyro_bias_stable,accel_bias_valid,accel_bias_stable,mag_bias_valid,mag_bias_stable
21726064000,21725984000,1311004,0.001098957,8.2383696e-05,-0.00025154976,0.34906584,1.3784022e-07,1.378404e-07,3.5919436e-07,1311004,-0.015618751,-0.001512222,-0.02762729,0.4,0.0013564567,0.0013633961,0.00078123936,197644,0.0121409055,-0.0051030065,-0.0013440406,0.5,1.8456922e-05,4.2435124e-05,5.2224037e-05,1,1,1,0,1,0
21726688000,21726608000,1311004,0.0010705915,9.2186485e-05,-0.000250831,0.34906584,1.378347e-07,1.3783666e-07,3.5907797e-07,1311004,-0.01562316,-0.0015067888,-0.029775435,0.4,0.0013564988,0.0013634382,0.00078123936,197644,0.0121409055,-0.0051030065,-0.0013440406,0.5,1.8456922e-05,4.2435124e-05,5.2224037e-05,1,1,1,0,1,0
21727312000,21727232000,1311004,0.001049787,0.00010036799,-0.000247993,0.34906584,1.3783323e-07,1.3783611e-07,3.589663e-07,1311004,-0.015628012,-0.0015049673,-0.031101583,0.4,0.0013565427,0.0013634813,0.00078123936,197644,0.0121409055,-0.0051030065,-0.0013440406,0.5,1.8456922e-05,4.2435124e-05,5.2224037e-05,1,1,1,0,1,0
21727520000,21727440000,1311004,0.0010448238,0.00010100543,-0.00025321386,0.34906584,1.3783138e-07,1.3783453e-07,3.5892978e-07,1311004,-0.015628392,-0.0015033068,-0.032189965,0.4,0.0013565572,0.0013634958,0.00078123936,197644,0.0121409055,-0.0051030065,-0.0013440406,0.5,1.8456922e-05,4.2435124e-05,5.2224037e-05,1,1,1,0,1,0
21728520000,21728440000,1311004,0.0010209173,0.00010791158,-0.00024920833,0.34906584,1.3917685e-07,1.3918091e-07,3.589924e-07,1311004,-0.01563178,-0.0015048041,-0.03235165,0.4,0.0013566265,0.0013635656,0.0007812457,197644,0.0121409055,-0.0051030065,-0.0013440406,0.5,1.8456922e-05,4.2435124e-05,5.2224037e-05,1,1,1,0,1,0
21729184000,21729104000,1311004,0.0009878605,0.000105159204,-0.00025220183,0.34906584,1.3783877e-07,1.3784515e-07,3.5920175e-07,1311004,-0.015634276,-0.0015104257,-0.030531451,0.4,0.0013566725,0.0013636112,0.00078123936,197644,0.0121409055,-0.0051030065,-0.0013440406,0.5,1.8456922e-05,4.2435124e-05,5.2224037e-05,1,1,1,0,1,0
21729392000,21729312000,1311004,0.0009848531,0.00010484171,-0.00025178053,0.34906584,1.3784107e-07,1.378473e-07,3.5916702e-07,1311004,-0.015633777,-0.0015120257,-0.02925237,0.4,0.0013566869,0.0013636257,0.00078123936,197644,0.0121409055,-0.0051030065,-0.0013440406,0.5,1.8456922e-05,4.2435124e-05,5.2224037e-05,1,1,1,0,1,0
21729600000,21729520000,1311004,0.0009762689,0.000102411395,-0.00025353124,0.34906584,1.378367e-07,1.3784361e-07,3.5913098e-07,1311004,-0.015632583,-0.001509399,-0.030754678,0.4,0.0013567011,0.0013636396,0.00078123936,197644,0.0121409055,-0.0051030065,-0.0013440406,0.5,1.8456922e-05,4.2435124e-05,5.2224037e-05,1,1,1,0,1,0
21729808000,21729728000,1311004,0.00096554746,9.639193e-05,-0.00025470468,0.34906584,1.3783858e-07,1.378467e-07,3.5909318e-07,1311004,-0.015630526,-0.0015098271,-0.02955376,0.4,0.0013567152,0.0013636535,0.00078123936,197644,0.0121409055,-0.0051030065,-0.0013440406,0.5,1.8456922e-05,4.2435124e-05,5.2224037e-05,1,1,1,0,1,0
21730016000,21729936000,1311004,0.0009630143,9.085719e-05,-0.0002541466,0.34906584,1.3782726e-07,1.3783541e-07,3.5905742e-07,1311004,-0.015630642,-0.0015044797,-0.034360286,0.4,0.0013567253,0.0013636638,0.00078123936,197644,0.0121409055,-0.0051030065,-0.0013440406,0.5,1.8456922e-05,4.2435124e-05,5.2224037e-05,1,1,1,0,1,0
21730432000,21730352000,1311004,0.00096840906,9.054909e-05,-0.00025347676,0.34906584,1.3783364e-07,1.3783982e-07,3.5897997e-07,1311004,-0.01563207,-0.0015057204,-0.03247684,0.4,0.0013567533,0.0013636912,0.00078123936,197644,0.0121409055,-0.0051030065,-0.0013440406,0.5,1.8456922e-05,4.2435124e-05,5.2224037e-05,1,1,1,0,1,0
21730848000,21730768000,1311004,0.0009687774,9.066617e-05,-0.0002526025,0.34906584,1.3783134e-07,1.3783644e-07,3.5890938e-07,1311004,-0.01563112,-0.0015055668,-0.034001246,0.4,0.0013567818,0.0013637206,0.00078123936,197644,0.0121409055,-0.0051030065,-0.0013440406,0.5,1.8456922e-05,4.2435124e-05,5.2224037e-05,1,1,1,0,1,0
21731264000,21731184000,1311004,0.0009717694,8.099183e-05,-0.00025386643,0.34906584,1.3783546e-07,1.378401e-07,3.5883983e-07,1311004,-0.01563145,-0.0015046276,-0.032203637,0.4,0.0013568101,0.0013637496,0.00078123936,197644,0.0121409055,-0.0051030065,-0.0013440406,0.5,1.8456922e-05,4.2435124e-05,5.2224037e-05,1,1,1,0,1,0
21732264000,21732184000,1311004,0.00097412587,8.2171435e-05,-0.0002473005,0.34906584,1.3917867e-07,1.3918161e-07,3.5890875e-07,1311004,-0.015632365,-0.0015054947,-0.0318774,0.4,0.0013568784,0.0013638188,0.00078124227,197644,0.0121409055,-0.0051030065,-0.0013440406,0.5,1.8456922e-05,4.2435124e-05,5.2224037e-05,1,1,1,0,1,0
21732304000,21732224000,1311004,0.0009830483,8.27869e-05,-0.000246983,0.34906584,1.3784162e-07,1.3784349e-07,3.586608e-07,1311004,-0.015635753,-0.0015054651,-0.029279692,0.4,0.00135688,0.0013638195,0.00078123936,197644,0.0121409055,-0.0051030065,-0.0013440406,0.5,1.8456922e-05,4.2435124e-05,5.2224037e-05,1,1,1,0,1,0
21732512000,21732432000,1311004,0.0009782057,9.381323e-05,-0.00024699062,0.34906584,1.3785169e-07,1.3785302e-07,3.586244e-07,1311004,-0.015637366,-0.0015096612,-0.02446476,0.4,0.00135689,0.0013638302,0.00078123936,197644,0.0121409055,-0.0051030065,-0.0013440406,0.5,1.8456922e-05,4.2435124e-05,5.2224037e-05,1,1,1,0,1,0
21732720000,21732640000,1311004,0.0009744783,0.00010664178,-0.00024705505,0.34906584,1.37856e-07,1.3785647e-07,3.5858773e-07,1311004,-0.01563736,-0.0015107174,-0.021706427,0.4,0.0013569031,0.001363844,0.00078123936,197644,0.0121409055,-0.0051030065,-0.0013440406,0.5,1.8456922e-05,4.2435124e-05,5.2224037e-05,1,1,1,0,1,0
21732928000,21732848000,1311004,0.00097655854,0.00011279297,-0.00024602943,0.34906584,1.3785707e-07,1.3785676e-07,3.5855646e-07,1311004,-0.015637709,-0.0015110512,-0.019770967,0.4,0.0013569177,0.0013638587,0.00078123936,197644,0.0121409055,-0.0051030065,-0.0013440406,0.5,1.8456922e-05,4.2435124e-05,5.2224037e-05,1,1,1,0,1,0
21733928000,21733848000,1311004,0.000977447,0.00011301232,-0.00025500578,0.34906584,1.4565761e-07,1.4565722e-07,3.5921e-07,1311004,-0.015638428,-0.001511148,-0.01957201,0.4,0.0013569888,0.0013639296,0.0007812417,197644,0.0121409055,-0.0051030065,-0.0013440406,0.5,1.8456922e-05,4.2435124e-05,5.2224037e-05,1,0,1,0,1,0
21734824000,21734744000,1311004,0.00097699,0.0001169253,-0.00025351928,0.34906584,1.5109515e-07,1.5109462e-07,3.5901726e-07,1311004,-0.015575017,-0.0015074924,-0.020746935,0.4,0.0013564547,0.0013633898,0.00078123936,197644,0.0121409055,-0.0051030065,-0.0013440406,0.5,1.8456922e-05,4.2435124e-05,5.2224037e-05,1,0,1,0,1,0
21735240000,21735160000,1311004,0.00097518123,0.000119068885,-0.00025395726,0.34906584,1.5263355e-07,1.526332e-07,3.5894487e-07,1311004,-0.015541671,-0.0014653814,-0.019747091,0.4,0.0013557876,0.0013627165,0.00078123936,197644,0.0121409055,-0.0051030065,-0.0013440406,0.5,1.8456922e-05,4.2435124e-05,5.2224037e-05,1,0,1,0,1,0
21735816000,21735736000,1311004,0.0009728561,0.00012532214,-0.00025524313,0.34906584,1.5502985e-07,1.5502974e-07,3.6185145e-07,1311004,-0.015584781,-0.0014684199,-0.018514503,0.4,0.0013548413,0.0013617611,0.00078123936,197644,0.0121409055,-0.0051030065,-0.0013440406,0.5,0.0025000002,0.0025000002,0.0025000002,1,0,1,0,1,0
21736024000,21735944000,1311004,0.00097051775,0.00012899993,-0.00025515832,0.34906584,1.5573845e-07,1.5573839e-07,3.63515e-07,1311004,-0.0158022,-0.0015979935,-0.017293716,0.4,0.0013515374,0.001358424,0.00078123936,197644,0.0121409055,-0.0051030065,-0.0013440406,0.5,0.0025000002,0.0025000002,0.0025000002,1,0,1,0,1,0
21736536000,21736456000,1311004,0.0009659474,0.00013035841,-0.000254549,0.34906584,1.5817346e-07,1.5817314e-07,3.6760719e-07,1311004,-0.015842667,-0.0020872247,-0.01642199,0.4,0.0013340688,0.0013407808,0.00078123936,197644,0.0121409055,-0.0051030065,-0.0013440406,0.5,0.0025000002,0.0025000002,0.0025000002,1,0,1,0,1,0
21737008000,21736928000,1311004,0.00096435036,0.00013213426,-0.00025414868,0.34906584,1.6055652e-07,1.6055513e-07,3.7137679e-07,1311004,-0.015958225,-0.0022729924,-0.015428552,0.4,0.0012947563,0.0013010905,0.00078123936,197644,0.0121409055,-0.0051030065,-0.0013440406,0.5,0.0025000002,0.0025000002,0.0025000002,1,0,1,0,1,0
21737632000,21737552000,1311004,0.00096048083,0.00013392368,-0.0002533511,0.34906584,1.6400396e-07,1.6399989e-07,3.7635138e-07,1311004,-0.016019808,-0.0032063713,-0.014800863,0.4,0.0012121554,0.0012177643,0.00078123936,197644,0.0121409055,-0.0051030065,-0.0013440406,0.5,0.0025000002,0.0025000002,0.0025000002,1,0,1,0,1,0
21738632000,21738552000,1311004,0.0009575697,0.0001354498,-0.0002517042,0.34906584,1.7064752e-07,1.7063877e-07,3.8429891e-07,1311004,-0.016101636,-0.003909208,-0.014484547,0.4,0.0011045033,0.001109373,0.00078123994,197644,0.0121409055,-0.0051030065,-0.0013440406,0.5,0.0025000002,0.0025000002,0.0025000002,1,0,1,0,1,0
21739032000,21738952000,1311004,0.0009557854,0.00013709805,-0.00025141498,0.34906584,1.7336946e-07,1.7335582e-07,3.8746344e-07,1311004,-0.016598456,-0.004464888,-0.013621484,0.4,0.0010673357,0.0010722516,0.00078123936,197644,0.0121409055,-0.0051030065,-0.0013440406,0.5,0.0025000002,0.0025000002,0.0025000002,1,0,1,0,1,0
21739344000,21739264000,1311004,0.00095454167,0.00013784552,-0.0002509053,0.34906584,1.7565807e-07,1.7564018e-07,3.8993122e-07,1311004,-0.016839985,-0.004855693,-0.01350268,0.4,0.0010527135,0.0010578353,0.0007812428,197644,0.009543519,-0.006954074,0.00021766925,0.5,0.0014246384,0.0015463986,0.0016290094,1,0,1,0,1,0
21739416000,21739336000,1311004,0.00095454394,0.00013784533,-0.0002509053,0.34906584,1.762341e-07,1.762162e-07,3.9050724e-07,1311004,-0.016840858,-0.0048552346,-0.013420811,0.4,0.0010527183,0.0010578404,0.00078123936,197644,0.010725901,-0.006219593,0.0010608917,0.5,0.001122073,0.0012954747,0.001431917,1,0,1,0,1,0
21739608000,21739528000,1311004,0.0009501664,0.00014154508,-0.00025024713,0.34906584,1.775366e-07,1.7750217e-07,3.9203874e-07,1311004,-0.017804947,-0.006168834,-0.014262688,0.4,0.001039806,0.0010459728,0.00078123936,197644,0.011005982,-0.0060837134,0.001206966,0.5,0.0008956086,0.001104928,0.0012935891,1,0,1,0,1,0
21739816000,21739736000,1311004,0.000946141,0.00014246181,-0.00024953182,0.34906584,1.78988e-07,1.7892474e-07,3.936966e-07,1311004,-0.017955698,-0.0071877455,-0.014393041,0.4,0.0010296393,0.0010375562,0.00078123936,197644,0.011269486,-0.005831003,0.0016362545,0.5,0.00076879654,0.0010059549,0.0012248139,1,0,1,0,1,0
21740232000,21740152000,1311004,0.00094012084,0.00014108834,-0.00024855314,0.34906584,1.8192478e-07,1.8176821e-07,3.970153e-07,1311004,-0.017493721,-0.0083782,-0.015456714,0.4,0.0010151948,0.0010272956,0.00078123936,197644,0.011573909,-0.006487291,0.0018127487,0.5,0.0006735878,0.0009406387,0.0011805871,1,0,1,0,1,0
21740808000,21740728000,1311004,0.0009352891,0.00013711002,-0.00024849238,0.34906584,1.8606079e-07,1.857475e-07,4.0159705e-07,1311004,-0.0167446,-0.009051588,-0.015999507,0.4,0.0010052932,0.0010212185,0.00078123936,197644,0.012299332,-0.0072375243,0.0021068125,0.5,0.00062641583,0.00090999296,0.0011595943,1,0,1,0,1,0
21741224000,21741144000,1311004,0.00093179016,0.00013342786,-0.00024876182,0.34906584,1.888188e-07,1.8830544e-07,4.048591e-07,1311004,-0.016189178,-0.009375742,-0.016812738,0.4,0.0009980226,0.0010173034,0.00078123936,197644,0.01237748,-0.00744002,0.0022634275,0.5,0.00060974906,0.0008982229,0.0011509474,1,0,1,0,1,0
21742224000,21742144000,1311004,0.0009263967,0.0001217582,-0.0002498305,0.34906584,1.9518733e-07,1.9424229e-07,4.1244553e-07,1311004,-0.0152862305,-0.009649742,-0.017065898,0.4,0.0009866703,0.001012719,0.0007812405,197644,0.012501731,-0.0076487064,0.0024122319,0.5,0.000592249,0.00088312075,0.0011379847,1,0,1,0,1,0
21743224000,21743144000,1311004,0.0009213835,0.00011601183,-0.00025270574,0.34906584,2.003758e-07,1.9905738e-07,4.1931028e-07,1311004,-0.014997381,-0.009827056,-0.01672855,0.4,0.00097508583,0.0010099359,0.00078124163,197644,0.012477192,-0.007844481,0.0026599537,0.5,0.000585149,0.0008746579,0.0011278474,1,0,1,0,1,0
21744224000,21744144000,1311004,0.0009174603,0.00010561458,-0.0002556649,0.34906584,2.0369127e-07,2.0210847e-07,4.248539e-07,1311004,-0.014765228,-0.009923293,-0.016165536,0.4,0.00096140883,0.0010078533,0.0007812405,197644,0.012543887,-0.008004769,0.0029492208,0.5,0.00058115873,0.0008688979,0.0011183138,1,0,1,0,1,0
21745224000,21745144000,1311004,0.000916569,9.495229e-05,-0.00025636217,0.34906584,2.0387574e-07,2.0176033e-07,4.2796077e-07,1311004,-0.014581246,-0.009936116,-0.015731947,0.4,0.0009431078,0.0010060038,0.00078123936,197644,0.012402923,-0.00815709,0.0032868304,0.5,0.00057803484,0.00086444704,0.0011088474,1,0,1,0,1,0
21746224000,21746144000,1311004,0.0009206723,8.585883e-05,-0.00025387693,0.34906584,2.0457217e-07,2.0131789e-07,4.3005727e-07,1311004,-0.014015778,-0.009929358,-0.016483704,0.4,0.000928142,0.0010026286,0.00078124,197644,0.012413985,-0.008156247,0.0033077192,0.5,0.00057786226,0.000864134,0.0011081843,1,0,1,0,1,0
21747224000,21747144000,1311004,0.00092237507,7.684909e-05,-0.00025461635,0.34906584,2.0500156e-07,2.0000581e-07,4.320511e-07,1311004,-0.014128177,-0.010002858,-0.015850358,0.4,0.0009142138,0.0010002701,0.0007812417,197644,0.012413985,-0.008156247,0.0033077192,0.5,0.00057786226,0.000864134,0.0011081843,1,0,1,0,1,0
21748224000,21748144000,1311004,0.0009328729,6.33104e-05,-0.00024912367,0.34906584,2.0461735e-07,1.972298e-07,4.335054e-07,1311004,-0.013967534,-0.010093425,-0.015903512,0.4,0.000901342,0.0009985046,0.00078123936,197644,0.012413985,-0.008156247,0.0033077192,0.5,0.00057786226,0.000864134,0.0011081843,1,0,1,0,1,0
21748608000,21748528000,1311004,0.00094094564,5.681779e-05,-0.00024332869,0.34906584,2.034682e-07,1.9467889e-07,4.33338e-07,1311004,-0.013531331,-0.010116238,-0.016904943,0.4,0.00089574634,0.0009980056,0.00078123936,197644,0.012413985,-0.008156247,0.0033077192,0.5,0.00057786226,0.000864134,0.0011081843,1,0,1,0,1,0
21749440000,21749360000,1311004,0.0009474608,3.7404694e-05,-0.00023886867,0.34906584,2.0182259e-07,1.9020214e-07,4.3352648e-07,1311004,-0.012973821,-0.010138536,-0.018261222,0.4,0.00088582194,0.0009969248,0.00078123936,197644,0.012413985,-0.008156247,0.0033077192,0.5,0.00057786226,0.000864134,0.0011081843,1,0,1,0,1,0
21750424000,21750344000,1311004,0.0009538043,2.0556112e-05,-0.0002346236,0.34906584,2.0128512e-07,1.8679629e-07,4.347158e-07,1311004,-0.012530848,-0.010171444,-0.019491991,0.4,0.0008774905,0.0009958361,0.00078123936,197644,0.012413985,-0.008156247,0.0033077192,0.5,0.00057786226,0.000864134,0.0011081843,1,0,1,0,1,0
21751424000,21751344000,1311004,0.0009583356,1.558462e-05,-0.0002317402,0.34906584,2.0085024e-07,1.8370572e-07,4.358683e-07,1311004,-0.012261486,-0.010199661,-0.020335032,0.4,0.00087080017,0.0009946382,0.00078123936,197644,0.012413985,-0.008156247,0.0033077192,0.5,0.00057786226,0.000864134,0.0011081843,1,0,1,0,1,0
21752424000,21752344000,1311004,0.00096058997,1.4888057e-05,-0.00023418019,0.34906584,2.0101338e-07,1.814357e-07,4.3733618e-07,1311004,-0.012163801,-0.010269017,-0.020635873,0.4,0.00086565944,0.0009935962,0.00078124285,197644,0.012413985,-0.008156247,0.0033077192,0.5,0.00057786226,0.000864134,0.0011081843,1,0,1,0,1,0
21753424000,21753344000,1311004,0.00094791764,2.2789147e-05,-0.00025015502,0.34906584,2.0093425e-07,1.7899258e-07,4.3839185e-07,1311004,-0.012192848,-0.010223739,-0.02022939,0.4,0.00086158386,0.0009924874,0.00078124227,197644,0.012413985,-0.008156247,0.0033077192,0.5,0.00057786226,0.000864134,0.0011081843,1,0,1,0,1,0
21754424000,21754344000,1311004,0.00093965,3.6138084e-05,-0.0002631005,0.34906584,2.0103765e-07,1.7686654e-07,4.3939534e-07,1311004,-0.012190381,-0.010214205,-0.019870266,0.4,0.0008584944,0.0009914072,0.0007812417,197644,0.012413985,-0.008156247,0.0033077192,0.5,0.00057786226,0.000864134,0.0011081843,1,0,1,0,1,0
21755208000,21755128000,1311004,0.0009328234,6.038309e-05,-0.00027274425,0.34906584,2.0005874e-07,1.7371488e-07,4.3914955e-07,1311004,-0.012251464,-0.0102044195,-0.018630225,0.4,0.0008563335,0.000990501,0.00078123936,197644,0.012413985,-0.008156247,0.0033077192,0.5,0.00057786226,0.000864134,0.0011081843,1,0,1,0,1,0
21756040000,21755960000,1311004,0.0009205675,8.696174e-05,-0.00028803668,0.34906584,1.9959535e-07,1.7121013e-07,4.39269e-07,1311004,-0.012245379,-0.010147522,-0.017514477,0.4,0.0008546742,0.0009895932,0.00078123936,197644,0.012413985,-0.008156247,0.0033077192,0.5,0.00057786226,0.000864134,0.0011081843,1,0,1,0,1,0
21757032000,21756952000,1311004,0.00090730615,0.00011283491,-0.00030615038,0.34906584,2.0020363e-07,1.6981852e-07,4.4027348e-07,1311004,-0.01226484,-0.010095256,-0.015880534,0.4,0.0008533393,0.0009886676,0.00078123936,197644,0.012413985,-0.008156247,0.0033077192,0.5,0.00057786226,0.000864134,0.0011081843,1,0,1,0,1,0
21757448000,21757368000,1311004,0.0009018589,0.00012570602,-0.00031570866,0.34906584,2.0026806e-07,1.6894448e-07,4.40463e-07,1311004,-0.0123075005,-0.010090785,-0.014475041,0.4,0.0008528403,0.000988281,0.00078123936,197644,0.012413985,-0.008156247,0.0033077192,0.5,0.00057786226,0.000864134,0.0011081843,1,0,1,0,1,0
21758224000,21758144000,1311004,0.00089209015,0.00013957327,-0.00032996002,0.34906584,2.011432e-07,1.6834709e-07,4.4136632e-07,1311004,-0.012354632,-0.010052738,-0.012864577,0.4,0.0008521356,0.0009876607,0.00078123936,197644,0.012413985,-0.008156247,0.0033077192,0.5,0.00057786226,0.000864134,0.0011081843,1,0,1,0,1,0
21758640000,21758560000,1311004,0.0008868816,0.00014199424,-0.0003355869,0.34906584,2.0127653e-07,1.6752173e-07,4.4151167e-07,1311004,-0.012447492,-0.010021887,-0.011256172,0.4,0.00085175375,0.0009873211,0.00078123936,197644,0.012413985,-0.008156247,0.0033077192,0.5,0.00057786226,0.000864134,0.0011081843,1,0,1,0,1,0
21759216000,21759136000,1311004,0.0008829179,0.00014540975,-0.0003415341,0.34906584,2.0227579e-07,1.6753646e-07,4.4237223e-07,1311004,-0.01249984,-0.010007795,-0.010133854,0.4,0.000851378,0.0009869393,0.00078123936,197644,0.012413985,-0.008156247,0.0033077192,0.5,0.00057786226,0.000864134,0.0011081843,1,0,1,0,1,0
21759632000,21759552000,1311004,0.00087846484,0.00015062458,-0.00034867978,0.34906584,2.0236597e-07,1.6664357e-07,4.424468e-07,1311004,-0.012552438,-0.009995501,-0.008624619,0.4,0.00085108017,0.0009866295,0.00078123936,197644,0.012413985,-0.008156247,0.0033077192,0.5,0.00057786226,0.000864134,0.0011081843,1,0,1,0,1,0
21760032000,21759952000,1311004,0.0008801647,0.0001503988,-0.0003488939,0.34906584,2.0382862e-07,1.6781902e-07,4.4353834e-07,1311004,-0.012615848,-0.010021182,-0.0076236413,0.4,0.00085092953,0.0009864295,0.00078123936,197644,0.012413985,-0.008156247,0.0033077192,0.5,0.00057786226,0.000864134,0.0011081843,1,0,1,0,1,0
21760408000,21760328000,1311004,0.00088200986,0.00015595873,-0.00034830652,0.34906584,2.036423e-07,1.6659583e-07,4.4344398e-07,1311004,-0.012665846,-0.010051549,-0.005602473,0.4,0.00085067766,0.0009861628,0.00078123936,197644,0.012413985,-0.008156247,0.0033077192,0.5,0.00057786226,0.000864134,0.0011081843,1,0,1,0,1,0
21760616000,21760536000,1311004,0.0008830742,0.00016251553,-0.00034811613,0.34906584,2.0364782e-07,1.6610198e-07,4.4344614e-07,1311004,-0.012661311,-0.010071395,-0.0044667446,0.4,0.000850557,0.0009860225,0.00078123936,197644,0.012413985,-0.008156247,0.0033077192,0.5,0.00057786226,0.000864134,0.0011081843,1,0,1,0,1,0
21761032000,21760952000,1311004,0.0008873817,0.0001706412,-0.00034669446,0.34906584,2.0380939e-07,1.6532965e-07,4.4354763e-07,1311004,-0.012672842,-0.010125292,-0.0029124778,0.4,0.0008503285,0.0009857576,0.00078123936,197644,0.012413985,-0.008156247,0.0033077192,0.5,0.00057786226,0.000864134,0.0011081843,1,0,1,0,1,0
21761448000,21761368000,1311004,0.00088924734,0.00017654107,-0.00034653326,0.34906584,2.0541938e-07,1.6668048e-07,4.446781e-07,1311004,-0.012676213,-0.010152772,-0.0018871072,0.4,0.00085021555,0.0009855891,0.00078123936,197644,0.012413985,-0.008156247,0.0033077192,0.5,0.00057786226,0.000864134,0.0011081843,1,0,1,0,1,0
21761816000,21761736000,1311004,0.0008948328,0.00018381131,-0.0003428639,0.34906584,2.050226e-07,1.6520315e-07,4.444215e-07,1311004,-0.012668123,-0.010207599,-0.0005665095,0.4,0.00084999733,0.000985348,0.00078123936,197644,0.012413985,-0.008156247,0.0033077192,0.5,0.00057786226,0.000864134,0.0011081843,1,0,1,0,1,0
21762232000,21762152000,1311004,0.0008989279,0.00019321888,-0.0003397776,0.34906584,2.0518343e-07,1.6446397e-07,4.4450573e-07,1311004,-0.0126555795,-0.010250744,0.0010918793,0.4,0.00084980525,0.0009851153,0.00078123936,197644,0.012413985,-0.008156247,0.0033077192,0.5,0.00057786226,0.000864134,0.0011081843,1,0,1,0,1,0
21762440000,21762360000,1311004,0.0009036457,0.00020003255,-0.0003362379,0.34906584,2.0531424e-07,1.6417036e-07,4.445766e-07,1311004,-0.012634867,-0.010294385,0.0022363241,0.4,0.0008497178,0.0009850056,0.00078123936,197644,0.012413985,-0.008156247,0.0033077192,0.5,0.00057786226,0.000864134,0.0011081843,1,0,1,0,1,0
21763104000,21763024000,1311004,0.0009056757,0.00020903393,-0.0003402116,0.34906584,2.07158e-07,1.653749e-07,4.4564786e-07,1311004,-0.012614977,-0.010336063,0.0032889347,0.4,0.000849544,0.0009847404,0.00078123936,197644,0.012413985,-0.008156247,0.0033077192,0.5,0.00057786226,0.000864134,0.0011081843,1,0,1,0,1,0
21763424000,21763344000,1311004,0.0009104697,0.00021024431,-0.0003378194,0.34906584,2.0662033e-07,1.6381368e-07,4.453717e-07,1311004,-0.012630642,-0.010381003,0.0047536176,0.4,0.00084937294,0.0009845616,0.00078123936,197644,0.012413985,-0.008156247,0.0033077192,0.5,0.00057786226,0.000864134,0.0011081843,1,1,1,0,1,0
21763840000,21763760000,1311004,0.0009141242,0.00021763498,-0.00033366258,0.34906584,2.0687231e-07,1.6325693e-07,4.454607e-07,1311004,-0.012607253,-0.010410977,0.005930482,0.4,0.0008492202,0.000984373,0.00078123936,197644,0.012413985,-0.008156247,0.0033077192,0.5,0.00057786226,0.000864134,0.0011081843,1,1,1,0,1,0
21764416000,21764336000,1311004,0.0009175742,0.00022215405,-0.00032937687,0.34906584,2.079413e-07,1.6354508e-07,4.4609544e-07,1311004,-0.012603029,-0.01043829,0.0075647817,0.4,0.00084906444,0.0009841628,0.00078123936,197644,0.012413985,-0.008156247,0.0033077192,0.5,0.00057786226,0.000864134,0.0011081843,1,1,1,0,1,0
21765040000,21764960000,1311004,0.00092354306,0.00022407893,-0.00032759825,0.34906584,2.0821896e-07,1.6264657e-07,4.461053e-07,1311004,-0.012605004,-0.010490499,0.008814309,0.4,0.00084885996,0.0009839124,0.00078123936,197644,0.012413985,-0.008156247,0.0033077192,0.5,0.00057786226,0.000864134,0.0011081843,1,1,1,0,1,0
21765608000,21765528000,1311004,0.0009240588,0.00023145993,-0.00033206606,0.34906584,2.0947161e-07,1.631721e-07,4.4695327e-07,1311004,-0.012573616,-0.010513282,0.010058122,0.4,0.00084873947,0.0009837545,0.00078123936,197644,0.012413985,-0.008156247,0.0033077192,0.5,0.00057786226,0.000864134,0.0011081843,1,1,1,0,1,0
21766232000,21766152000,1311004,0.0009301511,0.00023346438,-0.0003300497,0.34906584,2.0966235e-07,1.6221321e-07,4.467987e-07,1311004,-0.012574961,-0.010560753,0.011338353,0.4,0.0008485618,0.0009835404,0.00078123936,197644,0.012413985,-0.008156247,0.0033077192,0.5,0.00057786226,0.000864134,0.0011081843,1,1,1,0,1,0
21766808000,21766728000,1311004,0.0009293734,0.00023520507,-0.00033409413,0.34906584,2.108348e-07,1.627767e-07,4.4726877e-07,1311004,-0.012572331,-0.010568776,0.0126828095,0.4,0.00084846193,0.0009833963,0.00078123936,197644,0.012413985,-0.008156247,0.0033077192,0.5,0.00057786226,0.000864134,0.0011081843,1,1,1,0,1,0
21767432000,21767352000,1311004,0.0009289684,0.00024108023,-0.00033031395,0.34906584,2.1093788e-07,1.6179888e-07,4.4698533e-07,1311004,-0.012543874,-0.010561278,0.013916129,0.4,0.00084831205,0.0009832163,0.00078123936,197644,0.012413985,-0.008156247,0.0033077192,0.5,0.00057786226,0.000864134,0.0011081843,1,1,1,0,1,0
21768128000,21768048000,1311004,0.0009291554,0.00024029512,-0.00033350894,0.34906584,2.128519e-07,1.6332761e-07,4.4756922e-07,1311004,-0.012551184,-0.010571764,0.0149404295,0.4,0.0008482408,0.0009830855,0.00078123936,197644,0.012413985,-0.008156247,0.0033077192,0.5,0.00057786226,0.000864134,0.0011081843,1,1,1,0,1,0
21768480000,21768400000,1311004,0.0009311395,0.00024472282,-0.0003324411,0.34906584,2.1243365e-07,1.6214692e-07,4.4712473e-07,1311004,-0.012528519,-0.010584379,0.015963627,0.4,0.0008481539,0.0009829911,0.00078123936,197644,0.012413985,-0.008156247,0.0033077192,0.5,0.00057786226,0.000864134,0.0011081843,1,1,1,0,1,0
21768840000,21768760000,1311004,0.00093308225,0.00023876035,-0.00033069542,0.34906584,2.122146e-07,1.6124082e-07,4.4680274e-07,1311004,-0.012554899,-0.010593632,0.017268933,0.4,0.00084807904,0.0009829067,0.00078123936,197644,0.012413985,-0.008156247,0.0033077192,0.5,0.00057786226,0.000864134,0.0011081843,1,1,1,0,1,0
21769616000,21769536000,1311004,0.00092785986,0.00023360556,-0.0003320084,0.34906584,2.1325206e-07,1.6151482e-07,4.4673808e-07,1311004,-0.012580685,-0.010565822,0.01845324,0.4,0.0008479904,0.0009827735,0.00078123936,197644,0.012413985,-0.008156247,0.0033077192,0.5,0.00057786226,0.000864134,0.0011081843,1,1,1,0,1,0
21770400000,21770320000,1311004,0.0009285407,0.00022318267,-0.0003289249,0.34906584,2.1450214e-07,1.6210983e-07,4.466698e-07,1311004,-0.012632122,-0.010564384,0.019484261,0.4,0.0008479185,0.0009826584,0.00078123936,197644,0.012413985,-0.008156247,0.0033077192,0.5,0.00057786226,0.000864134,0.0011081843,1,1,1,0,1,0
21771232000,21771152000,1311004,0.00092566037,0.00020459983,-0.00032867974,0.34906584,2.1434856e-07,1.6076613e-07,4.4561222e-07,1311004,-0.01271686,-0.010548749,0.02065257,0.4,0.00084781303,0.0009825235,0.00078123936,197644,0.012413985,-0.008156247,0.0033077192,0.5,0.00057786226,0.000864134,0.0011081843,1,1,1,0,1,0
21772232000,21772152000,1311004,0.0009258695,0.00018105606,-0.00032478812,0.34906584,2.1545998e-07,1.610337e-07,4.4497727e-07,1311004,-0.012820692,-0.010543558,0.021408558,0.4,0.00084774115,0.0009824069,0.0007812405,197644,0.012413985,-0.008156247,0.0033077192,0.5,0.00057786226,0.000864134,0.0011081843,1,1,1,0,1,0
21773232000,21773152000,1311004,0.0009177915,0.00016231544,-0.0003231722,0.34906584,2.1650327e-07,1.6132263e-07,4.4414307e-07,1311004,-0.012898955,-0.010502559,0.021897297,0.4,0.0008476868,0.0009823106,0.00078124163,197644,0.012413985,-0.008156247,0.0033077192,0.5,0.00057786226,0.000864134,0.0011081843,1,1,1,0,1,0
21774232000,21774152000,1311004,0.00090411317,0.0001500386,-0.00033026648,0.34906584,2.1749062e-07,1.6167058e-07,4.431547e-07,1311004,-0.012947552,-0.010452831,0.0220422,0.4,0.00084764935,0.0009822327,0.0007812405,197644,0.012413985,-0.008156247,0.0033077192,0.5,0.00057786226,0.000864134,0.0011081843,1,1,1,0,1,0
21775232000,21775152000,1311004,0.0008952857,0.0001192803,-0.00033628123,0.34906584,2.169659e-07,1.6005401e-07,4.413704e-07,1311004,-0.013058997,-0.010428245,0.021231327,0.4,0.00084759906,0.0009821544,0.00078123936,197644,0.012413985,-0.008156247,0.0033077192,0.5,0.00057786226,0.000864134,0.0011081843,1,1,1,0,1,0
21776016000,21775936000,1311004,0.00088491617,0.00010281099,-0.00033858643,0.34906584,2.1753836e-07,1.6040988e-07,4.3984633e-07,1311004,-0.013113243,-0.010394947,0.020046841,0.4,0.00084758986,0.0009821117,0.00078123936,197644,0.012413985,-0.008156247,0.0033077192,0.5,0.00057786226,0.000864134,0.0011081843,1,1,1,0,1,0
21776640000,21776560000,1311004,0.0008792771,8.49271e-05,-0.00034826397,0.34906584,2.1746943e-07,1.597874e-07,4.3908076e-07,1311004,-0.01316921,-0.010389325,0.018836292,0.4,0.00084757776,0.0009820845,0.00078123936,197644,0.012413985,-0.008156247,0.0033077192,0.5,0.00057786226,0.000864134,0.0011081843,1,1,1,0,1,0
21777416000,21777336000,1311004,0.00087203196,7.131616e-05,-0.0003525892,0.34906584,2.1806663e-07,1.6018679e-07,4.378405e-07,1311004,-0.013209646,-0.010372609,0.017799929,0.4,0.00084758026,0.0009820609,0.00078123936,197644,0.012413985,-0.008156247,0.0033077192,0.5,0.00057786226,0.000864134,0.0011081843,1,1,1,1,1,0
21777832000,21777752000,1311004,0.0008691851,5.889452e-05,-0.0003559789,0.34906584,2.1788908e-07,1.5977055e-07,4.3689968e-07,1311004,-0.013243868,-0.010371568,0.016379207,0.4,0.00084757915,0.0009820479,0.00078123936,197644,0.012413985,-0.008156247,0.0033077192,0.5,0.00057786226,0.000864134,0.0011081843,1,1,1,1,1,0
21778832000,21778752000,1311004,0.00085791864,3.340327e-05,-0.00037178348,0.34906584,2.1835186e-07,1.5999132e-07,4.3509974e-07,1311004,-0.013311446,-0.010357705,0.015427989,0.4,0.00084759446,0.0009820345,0.0007812405,197644,0.012413985,-0.008156247,0.0033077192,0.5,0.00057786226,0.000864134,0.0011081843,1,1,1,1,1,0
21779448000,21779368000,1311004,0.00084557483,1.8516092e-05,-0.00038355598,0.34906584,2.1806434e-07,1.5947406e-07,4.33531e-07,1311004,-0.013345753,-0.010340705,0.013757952,0.4,0.0008476052,0.0009820288,0.00078123936,197644,0.012413985,-0.008156247,0.0033077192,0.5,0.00057786226,0.000864134,0.0011081843,1,1,1,1,1,0
21780432000,21780352000,1311004,0.0008381763,-4.4705757e-06,-0.00039735704,0.34906584,2.1827483e-07,1.5959964e-07,4.3142097e-07,1311004,-0.013397821,-0.010339764,0.012384761,0.4,0.0008476337,0.0009820323,0.00078123936,197644,0.012413985,-0.008156247,0.0033077192,0.5,0.00057786226,0.000864134,0.0011081843,1,1,1,1,1,0
21781008000,21780928000,1311004,0.00083039893,-1.3790814e-05,-0.00041113893,0.34906584,2.1888334e-07,1.6032784e-07,4.304048e-07,1311004,-0.013414919,-0.010337372,0.011278803,0.4,0.0008476569,0.000982041,0.00078123936,197644,0.012413985,-0.008156247,0.0033077192,0.5,0.00057786226,0.000864134,0.0011081843,1,1,1,1,1,0
21781424000,21781344000,1311004,0.0008232065,-2.3918294e-05,-0.00042090353,0.34906584,2.184626e-07,1.5977743e-07,4.292355e-07,1311004,-0.013433495,-0.01033271,0.010203893,0.4,0.00084767013,0.000982046,0.00078123936,197644,0.012413985,-0.008156247,0.0033077192,0.5,0.00057786226,0.000864134,0.0011081843,1,1,1,1,1,0
21782424000,21782344000,1311004,0.0008193595,-3.825105e-05,-0.00043698694,0.34906584,2.1884456e-07,1.6030027e-07,4.2707242e-07,1311004,-0.013460034,-0.010340122,0.009604437,0.4,0.0008477156,0.00098207,0.0007812405,197644,0.012413985,-0.008156247,0.0033077192,0.5,0.00057786226,0.000864134,0.0011081843,1,1,1,1,1,0
21783424000,21783344000,1311004,0.0008105727,-5.4553857e-05,-0.00046365158,0.34906584,2.1930806e-07,1.608354e-07,4.2540617e-07,1311004,-0.013484956,-0.010348083,0.009062553,0.4,0.00084776664,0.0009821045,0.0007812411,197644,0.012413985,-0.008156247,0.0033077192,0.5,0.00057786226,0.000864134,0.0011081843,1,1,1,1,1,0
21784424000,21784344000,1311004,0.0008108251,-5.828586e-05,-0.00048423684,0.34906584,2.1929243e-07,1.6105142e-07,4.229964e-07,1311004,-0.013490781,-0.010366669,0.009363117,0.4,0.0008478221,0.0009821433,0.00078123994,197644,0.012413985,-0.008156247,0.0033077192,0.5,0.00057786226,0.000864134,0.0011081843,1,1,1,1,1,0
21785424000,21785344000,1311004,0.00080329605,-5.7920442e-05,-0.0005043437,0.34906584,2.1794749e-07,1.596286e-07,4.2011686e-07,1311004,-0.013489904,-0.010373538,0.010704461,0.4,0.00084787986,0.0009821876,0.00078123936,197644,0.012413985,-0.008156247,0.0033077192,0.5,0.00057786226,0.000864134,0.0011081843,1,1,1,1,1,0
21785840000,21785760000,1311004,0.0008071254,-5.4242424e-05,-0.0005121718,0.34906584,2.1756686e-07,1.5933821e-07,4.1886628e-07,1311004,-0.013486419,-0.01038456,0.011967561,0.4,0.0008479051,0.0009822075,0.00078123936,197644,0.012413985,-0.008156247,0.0033077192,0.5,0.00057786226,0.000864134,0.0011081843,1,1,1,1,1,0
21786416000,21786336000,1311004,0.0008097885,-5.6153876e-05,-0.0005208661,0.34906584,2.1782354e-07,1.5990334e-07,4.175279e-07,1311004,-0.0134874,-0.010393554,0.013450653,0.4,0.0008479416,0.0009822367,0.00078123936,197644,0.012413985,-0.008156247,0.0033077192,0.5,0.00057786226,0.000864134,0.0011081843,1,1,1,1,1,0
21786832000,21786752000,1311004,0.00080949225,-5.468341e-05,-0.000527254,0.34906584,2.1732143e-07,1.594859e-07,4.1622278e-07,1311004,-0.013484544,-0.010397884,0.0146388775,0.4,0.00084796705,0.0009822578,0.00078123936,197644,0.012413985,-0.008156247,0.0033077192,0.5,0.00057786226,0.000864134,0.0011081843,1,1,1,1,1,0
21787248000,21787168000,1311004,0.00081169856,-4.967204e-05,-0.0005354166,0.34906584,2.1694619e-07,1.5924294e-07,4.1495076e-07,1311004,-0.01347765,-0.010406662,0.015987268,0.4,0.0008479927,0.0009822792,0.00078123936,197644,0.012413985,-0.008156247,0.0033077192,0.5,0.00057786226,0.000864134,0.0011081843,1,1,1,1,1,0
21787816000,21787736000,1311004,0.00082001765,-5.3703465e-05,-0.0005383951,0.34906584,2.1714943e-07,1.5980156e-07,4.135176e-07,1311004,-0.013481443,-0.010417978,0.017930591,0.4,0.0008480287,0.0009823095,0.00078123936,197644,0.012413985,-0.008156247,0.0033077192,0.5,0.00057786226,0.000864134,0.0011081843,1,1,1,1,1,0
21788232000,21788152000,1311004,0.0008226624,-4.98549e-05,-0.0005451252,0.34906584,2.1664108e-07,1.5941546e-07,4.1219536e-07,1311004,-0.013475545,-0.0104265325,0.01937002,0.4,0.0008480539,0.0009823318,0.00078123936,197644,0.012413985,-0.008156247,0.0033077192,0.5,0.00057786226,0.000864134,0.0011081843,1,1,1,1,1,0
21788808000,21788728000,1311004,0.0008279138,-4.7464953e-05,-0.0005534512,0.34906584,2.1698094e-07,1.6015797e-07,4.108279e-07,1311004,-0.013471409,-0.01043847,0.020552319,0.4,0.0008480901,0.0009823639,0.00078123936,197644,0.012413985,-0.008156247,0.0033077192,0.5,0.00057786226,0.000864134,0.0011081843,1,1,1,1,1,0
21789224000,21789144000,1311004,0.00083025196,-4.4721604e-05,-0.0005579745,0.34906584,2.163286e-07,1.5960605e-07,4.0945486e-07,1311004,-0.01346612,-0.010446054,0.02197069,0.4,0.0008481145,0.000982386,0.00078123936,197644,0.012413985,-0.008156247,0.0033077192,0.5,0.00057786226,0.000864134,0.0011081843,1,1,1,1,1,0
21789640000,21789560000,1311004,0.00083425135,-4.4845736e-05,-0.0005601601,0.34906584,2.1600356e-07,1.592822e-07,4.0878018e-07,1311004,-0.013464344,-0.010454472,0.023494765,0.4,0.000848139,0.0009824092,0.00078123936,197644,0.012413985,-0.008156247,0.0033077192,0.5,0.00057786226,0.000864134,0.0011081843,1,1,1,1,1,0
21790208000,21790128000,1311004,0.0008397908,-4.6085337e-05,-0.0005645664,0.34906584,2.163096e-07,1.6001836e-07,4.0734278e-07,1311004,-0.013464537,-0.010464808,0.024591085,0.4,0.0008481743,0.0009824415,0.00078123936,197644,0.012413985,-0.008156247,0.0033077192,0.5,0.00057786226,0.000864134,0.0011081843,1,1,1,1,1,0
21790624000,21790544000,1311004,0.0008455274,-4.4327455e-05,-0.0005682493,0.34906584,2.1568755e-07,1.5951763e-07,4.0596998e-07,1311004,-0.013461241,-0.010475158,0.025678646,0.4,0.000848199,0.0009824646,0.00078123936,197644,0.012413985,-0.008156247,0.0033077192,0.5,0.00057786226,0.000864134,0.0011081843,1,1,1,1,1,0
21791040000,21790960000,1311004,0.00085049594,-4.548475e-05,-0.0005719598,0.34906584,2.152285e-07,1.5922306e-07,4.0463712e-07,1311004,-0.013460814,-0.010484175,0.027012862,0.4,0.0008482236,0.0009824879,0.00078123936,197644,0.012413985,-0.008156247,0.0033077192,0.5,0.00057786226,0.000864134,0.0011081843,1,1,1,1,1,0
21791608000,21791528000,1311004,0.0008488143,-4.376854e-05,-0.00057856605,0.34906584,2.1535777e-07,1.597482e-07,4.03144e-07,1311004,-0.013455353,-0.010486368,0.028632214,0.4,0.0008482585,0.0009825212,0.00078123936,197644,0.012413985,-0.008156247,0.0033077192,0.5,0.00057786226,0.000864134,0.0011081843,1,1,1,1,1,0
21792240000,21792160000,1311004,0.00084362016,-4.1528205e-05,-0.0005899249,0.34906584,2.1461406e-07,1.5925238e-07,4.011987e-07,1311004,-0.013449005,-0.010483875,0.029930921,0.4,0.00084829563,0.0009825572,0.00078123936,197644,0.012413985,-0.008156247,0.0033077192,0.5,0.00057786226,0.000864134,0.0011081843,1,1,1,1,1,0
21792808000,21792728000,1311004,0.0008368778,-4.1833842e-05,-0.00059934915,0.34906584,2.1491613e-07,1.5999414e-07,3.9973605e-07,1311004,-0.013446287,-0.0104784705,0.031224849,0.4,0.0008483312,0.000982592,0.00078123936,197644,0.012413985,-0.008156247,0.0033077192,0.5,0.00057786226,0.000864134,0.0011081843,1,1,1,1,1,0
21793224000,21793144000,1311004,0.0008335552,-4.4087687e-05,-0.00060845993,0.34906584,2.1427681e-07,1.5948491e-07,3.983486e-07,1311004,-0.013446291,-0.010476508,0.032441784,0.4,0.0008483559,0.0009826166,0.00078123936,197644,0.012413985,-0.008156247,0.0033077192,0.5,0.00057786226,0.000864134,0.0011081843,1,1,1,1,1,0
21793640000,21793560000,1311004,0.00082873827,-4.6431775e-05,-0.0006106983,0.34906584,2.1381824e-07,1.5918992e-07,3.9699182e-07,1311004,-0.013446763,-0.010472004,0.033892065,0.4,0.0008483815,0.0009826418,0.00078123936,197644,0.012413985,-0.008156247,0.0033077192,0.5,0.00057786226,0.000864134,0.0011081843,1,1,1,1,1,0
21794216000,21794136000,1311004,0.00082641485,-4.6125395e-05,-0.0006199024,0.34906584,2.1400683e-07,1.5975431e-07,3.955155e-07,1311004,-0.013444637,-0.010471677,0.03527755,0.4,0.00084841845,0.0009826785,0.00078123936,197644,0.012413985,-0.008156247,0.0033077192,0.5,0.00057786226,0.000864134,0.0011081843,1,1,1,1,1,0
21794632000,21794552000,1311004,0.00082266575,-5.0587692e-05,-0.0006231906,0.34906584,2.1346781e-07,1.5933915e-07,3.9412132e-07,1311004,-0.013448336,-0.010468105,0.036376182,0.4,0.00084844447,0.0009827046,0.00078123936,197644,0.012413985,-0.008156247,0.0033077192,0.5,0.00057786226,0.000864134,0.0011081843,1,1,1,1,1,0
21795048000,21794968000,1311004,0.00081845914,-5.3482083e-05,-0.0006289534,0.34906584,2.1306987e-07,1.5910022e-07,3.9276713e-07,1311004,-0.01345058,-0.010464025,0.03759134,0.4,0.0008484706,0.0009827308,0.00078123936,197644,0.012413985,-0.008156247,0.0033077192,0.5,0.00057786226,0.000864134,0.0011081843,1,1,1,1,1,0
21795616000,21795536000,1311004,0.00080687867,-5.956834e-05,-0.0006356761,0.34906584,2.1324843e-07,1.5966263e-07,3.912499e-07,1311004,-0.013456268,-0.010450847,0.039034445,0.4,0.000848507,0.000982767,0.00078123936,197644,0.012413985,-0.008156247,0.0033077192,0.5,0.00057786226,0.000864134,0.0011081843,1,1,1,1,1,0
21796336000,21796256000,1311004,0.0007900234,-7.375933e-05,-0.0006474739,0.34906584,2.1314055e-07,1.5991512e-07,3.8931813e-07,1311004,-0.01347089,-0.01043079,0.040055964,0.4,0.00084855215,0.0009828127,0.00078123936,197644,0.012413985,-0.008156247,0.0033077192,0.5,0.00057786226,0.000864134,0.0011081843,1,1,1,1,1,0
21797336000,21797256000,1311004,0.0007629195,-8.268625e-05,-0.0006740617,0.34906584,2.1283081e-07,1.6012257e-07,3.8658902e-07,1311004,-0.013479343,-0.010398848,0.040990327,0.4,0.000848615,0.0009828759,0.00078124,197644,0.012413985,-0.008156247,0.0033077192,0.5,0.00057786226,0.000864134,0.0011081843,1,1,1,1,1,0
21798336000,21798256000,1311004,0.0007313332,-8.668507e-05,-0.00068924756,0.34906584,2.1269652e-07,1.6057616e-07,3.8396308e-07,1311004,-0.0134828985,-0.01036676,0.0418158,0.4,0.0008486794,0.0009829404,0.00078123936,197644,0.012413985,-0.008156247,0.0033077192,0.5,0.00057786226,0.000864134,0.0011081843,1,1,1,1,1,0
21799152000,21799072000,1311004,0.0007120311,-9.562687e-05,-0.0007025753,0.34906584,2.1303538e-07,1.616056e-07,3.8161488e-07,1311004,-0.013490993,-0.010347194,0.042830173,0.4,0.0008487336,0.0009829956,0.00078123936,197644,0.012413985,-0.008156247,0.0033077192,0.5,0.00057786226,0.000864134,0.0011081843,1,1,1,1,1,0
21800152000,21800072000,1311004,0.00067354896,-0.00011770372,-0.00072702166,0.34906584,2.1151737e-07,1.6003963e-07,3.7922106e-07,1311004,-0.013510113,-0.010316034,0.04321229,0.4,0.0008487986,0.0009830625,0.0007812428,197644,0.012413985,-0.008156247,0.0033077192,0.5,0.00057786226,0.000864134,0.0011081843,1,1,1,1,1,0
21801152000,21801072000,1311004,0.00065262406,-0.00013436905,-0.00074169406,0.34906584,2.1140129e-07,1.6041845e-07,3.7662969e-07,1311004,-0.013524027,-0.010299874,0.04396313,0.4,0.0008488664,0.0009831314,0.00078124227,197644,0.012413985,-0.008156247,0.0033077192,0.5,0.00057786226,0.000864134,0.0011081843,1,1,1,1,1,0
21802152000,21802072000,1311004,0.0006306182,-0.00016291458,-0.00076121266,0.34906584,2.111523e-07,1.6077686e-07,3.7342784e-07,1311004,-0.013543604,-0.01028712,0.043832276,0.4,0.0008489345,0.0009832006,0.0007812427,197644,0.012413985,-0.008156247,0.0033077192,0.5,0.00057786226,0.000864134,0.0011081843,1,1,1,1,1,0
21803152000,21803072000,1311004,0.0006129381,-0.00019491205,-0.00077547145,0.34906584,2.1134623e-07,1.6147968e-07,3.7099628e-07,1311004,-0.013566088,-0.010276051,0.044305827,0.4,0.000849003,0.0009832704,0.00078124274,197644,0.012413985,-0.008156247,0.0033077192,0.5,0.00057786226,0.000864134,0.0011081843,1,1,1,1,1,0
21804152000,21804072000,1311004,0.00059386186,-0.00023936576,-0.00079655694,0.34906584,2.0982743e-07,1.5999409e-07,3.6815382e-07,1311004,-0.013591235,-0.010267056,0.043963645,0.4,0.0008490706,0.0009833401,0.0007812421,197644,0.012413985,-0.008156247,0.0033077192,0.5,0.00057786226,0.000864134,0.0011081843,1,1,1,1,1,0
21805152000,21805072000,1311004,0.0005809563,-0.00026962493,-0.0008176793,0.34906584,2.0963466e-07,1.6021981e-07,3.657861e-07,1311004,-0.013602958,-0.010262091,0.043087874,0.4,0.00084913976,0.0009834107,0.0007812417,197644,0.012413985,-0.008156247,0.0033077192,0.5,0.00057786226,0.000864134,0.0011081843,1,1,1,1,1,0
21806152000,21806072000,1311004,0.0005656677,-0.00029675022,-0.0008357661,0.34906584,2.09575e-07,1.6067848e-07,3.6361007e-07,1311004,-0.013616187,-0.010254639,0.043225355,0.4,0.0008492093,0.0009834821,0.0007812405,197644,0.012413985,-0.008156247,0.0033077192,0.5,0.00057786226,0.000864134,0.0011081843,1,1,1,1,1,0
21806640000,21806560000,1311004,0.00056454836,-0.00031900548,-0.00085457,0.34906584,2.0852013e-07,1.5931947e-07,3.6178565e-07,1311004,-0.013477884,-0.010248496,0.045025866,0.4,0.0008490823,0.000983337,0.00078123936,197644,0.012413985,-0.008156247,0.0033077192,0.5,0.00057786226,0.000864134,0.0011081843,1,1,1,1,1,0
21806880000,21806800000,1311004,0.0005672421,-0.00031890857,-0.00086032366,0.34906584,2.0972672e-07,1.6119867e-07,3.613247e-07,1311004,-0.013477884,-0.010248496,0.045025866,0.4,0.0008490852,0.00098334,0.00078124227,197644,0.0119372625,-0.008897417,0.0011842974,0.5,0.00048568592,0.0006753628,0.0008513765,1,1,1,0,1,0
21806944000,21806864000,1311004,0.00056658994,-0.00031975468,-0.00085823226,0.34906584,2.1008046e-07,1.6168941e-07,3.6147225e-07,1311004,-0.013477891,-0.010248501,0.045025855,0.4,0.0008490898,0.0009833445,0.00078124687,197644,0.010663391,-0.0094330665,0.0023759052,0.5,0.00043391093,0.00058253383,0.0007613835,1,1,1,0,1,0
21807016000,21806936000,1311004,0.00057101087,-0.00035695423,-0.00086490717,0.34906584,2.1039818e-07,1.6078366e-07,3.5704966e-07,1311004,-0.013477897,-0.0102485055,0.045025844,0.4,0.0008490904,0.0009833452,0.0007812474,197644,0.011386683,-0.009584973,0.0014976453,0.5,0.000394084,0.00052999763,0.00070917176,1,1,1,0,1,0
21807160000,21807080000,1311004,0.0005721354,-0.00035616054,-0.00086742017,0.34906584,2.1139148e-07,1.6190981e-07,3.578292e-07,1311004,-0.013477897,-0.0102485055,0.045025844,0.4,0.0008490904,0.0009833452,0.0007812474,197644,0.012743178,-0.008625338,0.0014788519,0.5,0.00033220625,0.0004637193,0.00062250346,1,1,1,0,1,0
21807512000,21807432000,1311004,0.0005721528,-0.00040088815,-0.00087703404,0.34906584,2.1375968e-07,1.6180557e-07,3.4398616e-07,1311004,-0.01327283,-0.010227917,0.044935364,0.4,0.0008489575,0.000983172,0.0007812457,197644,0.013473588,-0.007879266,0.0014727701,0.5,0.0002614185,0.0003923361,0.0005433596,1,1,1,0,1,0
21808040000,21807960000,1311004,0.0005656431,-0.00041358938,-0.0008157598,0.34906584,2.1733106e-07,1.6152194e-07,3.2361356e-07,1311004,-0.013108391,-0.00920846,0.044657525,0.4,0.00084333634,0.0009765984,0.00078123936,197644,0.014287493,-0.008348611,0.0015680208,0.5,0.00022175373,0.00035715758,0.0005187865,1,1,1,0,1,0
21808616000,21808536000,1311004,0.0005676619,-0.00041761715,-0.0007930298,0.34906584,2.2171001e-07,1.6275231e-07,3.1872852e-07,1311004,-0.012872589,-0.008190132,0.044698626,0.4,0.00083005376,0.00096124987,0.00078123936,197644,0.015068355,-0.008770125,0.0019032982,0.5,0.00019843558,0.00033670053,0.00049760373,1,1,1,0,1,0
21809032000,21808952000,1311004,0.0005698039,-0.00042165344,-0.00077422505,0.34906584,2.2485628e-07,1.6312056e-07,3.152895e-07,1311004,-0.012568241,-0.0071121273,0.044602685,0.4,0.00081363163,0.0009427055,0.00078123936,197644,0.015297257,-0.009103846,0.0011487559,0.5,0.00018932177,0.0003267305,0.00047979274,1,1,1,0,1,0
21809496000,21809416000,1311004,0.00057265384,-0.00042091843,-0.0007658691,0.34906584,2.2836709e-07,1.6546268e-07,3.1633826e-07,1311004,-0.0125304125,-0.006410595,0.044995103,0.4,0.0008049057,0.0009328043,0.0007812411,197644,0.0152990455,-0.009582349,0.00025228676,0.5,0.00018226565,0.00031874338,0.00045537576,1,1,1,0,1,0
21809808000,21809728000,1311004,0.00057590974,-0.00040635103,-0.0007567633,0.34906584,2.303718e-07,1.6519613e-07,3.158471e-07,1311004,-0.013795793,-0.0055467742,0.045611683,0.4,0.00078447646,0.00090820366,0.00078123936,197644,0.015199768,-0.00963664,6.4965825e-05,0.5,0.00017913521,0.00031429372,0.00044744406,1,1,1,0,1,0
21810224000,21810144000,1311004,0.00057849474,-0.00039028592,-0.00075534324,0.34906584,2.324626e-07,1.6615259e-07,3.1819613e-07,1311004,-0.0151022645,-0.0051841293,0.046802193,0.4,0.00078123936,0.00088461785,0.00078123936,197644,0.015182181,-0.009715926,-9.895679e-05,0.5,0.0001760208,0.00031055493,0.00044242555,1,1,1,0,1,0
21810648000,21810568000,1311004,0.0005799031,-0.0003721635,-0.0007554897,0.34906584,2.333516e-07,1.6743708e-07,3.2111254e-07,1311004,-0.01650475,-0.0049966816,0.048207074,0.4,0.00078123936,0.0008619417,0.00078123936,197644,0.015142444,-0.009828897,-0.00021706567,0.5,0.00017315429,0.0003070568,0.00044026703,1,1,1,0,1,0
21811008000,21810928000,1311004,0.00057258917,-0.00036233538,-0.0007514791,0.34906584,2.3355076e-07,1.6913282e-07,3.2299164e-07,1311004,-0.01723161,-0.005505581,0.049134865,0.4,0.00078123936,0.00084933225,0.00078123936,197644,0.01507973,-0.009840109,-0.00013354298,0.5,0.00017064824,0.00030430497,0.0004363512,1,1,1,0,1,0
21811216000,21811136000,1311004,0.00056560786,-0.00035516344,-0.0007473566,0.34906584,2.3234065e-07,1.6970634e-07,3.2337576e-07,1311004,-0.017609507,-0.0059739063,0.05054806,0.4,0.00078123936,0.0008379931,0.00078123936,197644,0.015048219,-0.009952509,-1.6496608e-05,0.5,0.00016909058,0.00030278182,0.00043433192,1,1,1,0,1,0
21811424000,21811344000,1311004,0.0005586984,-0.00034757078,-0.00074287126,0.34906584,2.3090584e-07,1.7033365e-07,3.2338377e-07,1311004,-0.017947773,-0.006339249,0.05202424,0.4,0.00078123936,0.00082790334,0.00078123936,197644,0.015110571,-0.010020631,8.767207e-05,0.5,0.00016737606,0.00030119607,0.00043178906,1,1,1,0,1,0
21811632000,21811552000,1311004,0.00054938113,-0.00034221727,-0.00073591893,0.34906584,2.2929983e-07,1.7099892e-07,3.2304894e-07,1311004,-0.018135672,-0.0067790803,0.053462148,0.4,0.00078123936,0.000819012,0.00078123936,197644,0.015084826,-0.010058088,0.00013115718,0.5,0.00016574762,0.00029978238,0.0004291103,1,1,1,0,1,0
21811840000,21811760000,1311004,0.0005406232,-0.0003373505,-0.0007288344,0.34906584,2.2757281e-07,1.7168993e-07,3.224183e-07,1311004,-0.018376473,-0.007214992,0.054619726,0.4,0.00078123936,0.00081123755,0.00078123936,197644,0.01490888,-0.010152754,7.934118e-05,0.5,0.00016407194,0.00029833827,0.00042561014,1,1,1,0,1,0
21812208000,21812128000,1311004,0.0005342933,-0.00032791932,-0.0007242595,0.34906584,2.2611333e-07,1.7345383e-07,3.2202814e-07,1311004,-0.018704908,-0.007492101,0.05647932,0.4,0.00078123936,0.00080372224,0.00078123936,197644,0.014848056,-0.010353062,0.00032283948,0.5,0.00016097965,0.00029565816,0.00041728036,1,1,1,0,1,0
21812416000,21812336000,1311004,0.00052229286,-0.0003203761,-0.00071441726,0.34906584,2.2364841e-07,1.7401203e-07,3.2043718e-07,1311004,-0.018971277,-0.007960621,0.057818342,0.4,0.00078123936,0.00079757674,0.00078123936,197644,0.014807652,-0.010579009,0.00049756636,0.5,0.00015894958,0.00029374642,0.00041145473,1,1,1,0,1,0
21812624000,21812544000,1311004,0.0005092482,-0.00031721726,-0.0007033133,0.34906584,2.213131e-07,1.7461387e-07,3.1858977e-07,1311004,-0.018901538,-0.008431389,0.059677005,0.4,0.00078123936,0.00079255755,0.00078123936,197644,0.014729071,-0.010683347,0.00054728216,0.5,0.00015774473,0.0002926935,0.00040740537,1,1,1,0,1,0
21812832000,21812752000,1311004,0.00049994345,-0.0003154054,-0.000695594,0.34906584,2.1910414e-07,1.7526247e-07,3.1632146e-07,1311004,-0.018825378,-0.00872112,0.06107591,0.4,0.00078123936,0.0007884806,0.00078123936,197644,0.014729071,-0.010683347,0.00054728216,0.5,0.00015774473,0.0002926935,0.00040740537,1,1,1,0,1,0
21813040000,21812960000,1311004,0.000489527,-0.0003130226,-0.00068681006,0.34906584,2.1709894e-07,1.7591456e-07,3.1424688e-07,1311004,-0.018746473,-0.009008184,0.06284613,0.4,0.00078123936,0.000785178,0.00078123936,197644,0.014729071,-0.010683347,0.00054728216,0.5,0.00015774473,0.0002926935,0.00040740537,1,1,1,0,1,0
21813248000,21813168000,1311004,0.0004834121,-0.00031293224,-0.0006822105,0.34906584,2.15289e-07,1.7656097e-07,3.1240216e-07,1311004,-0.018607121,-0.009166104,0.064241104,0.4,0.00078123936,0.0007825118,0.00078123936,197644,0.014729071,-0.010683347,0.00054728216,0.5,0.00015774473,0.0002926935,0.00040740537,1,1,1,0,1,0
21813608000,21813528000,1311004,0.00047201948,-0.00031121133,-0.0006730297,0.34906584,2.1421658e-07,1.782024e-07,3.111292e-07,1311004,-0.01853155,-0.009416851,0.06602411,0.4,0.00078123936,0.00078123936,0.00078123936,197644,0.014729071,-0.010683347,0.00054728216,0.5,0.00015774473,0.0002926935,0.00040740537,1,1,1,0,1,0
21813816000,21813736000,1311004,0.00046915084,-0.0003090314,-0.0006713682,0.34906584,2.1236798e-07,1.7864635e-07,3.0959316e-07,1311004,-0.018530363,-0.009466467,0.06731231,0.4,0.00078123936,0.00078123936,0.00078123936,197644,0.014729071,-0.010683347,0.00054728216,0.5,0.00015774473,0.0002926935,0.00040740537,1,1,1,0,1,0
21814024000,21813944000,1311004,0.00046207506,-0.00030764396,-0.00066681195,0.34906584,2.10772e-07,1.790961e-07,3.083784e-07,1311004,-0.018515993,-0.009604989,0.068384185,0.4,0.00078123936,0.00078123936,0.00078123936,197644,0.014729071,-0.010683347,0.00054728216,0.5,0.00015774473,0.0002926935,0.00040740537,1,1,1,0,1,0
21814232000,21814152000,1311004,0.00046408808,-0.00030825354,-0.0006705479,0.34906584,2.0937327e-07,1.7954022e-07,3.0743783e-07,1311004,-0.018429263,-0.009571037,0.0697925,0.4,0.00078123936,0.00078123936,0.00078123936,197644,0.014729071,-0.010683347,0.00054728216,0.5,0.00015774473,0.0002926935,0.00040740537,1,1,1,0,1,0
21814440000,21814360000,1311004,0.00046309002,-0.00031107088,-0.0006702721,0.34906584,2.0812696e-07,1.7996922e-07,3.0673024e-07,1311004,-0.018298224,-0.009581288,0.07086915,0.4,0.00078123936,0.00078123936,0.00078123936,197644,0.014729071,-0.010683347,0.00054728216,0.5,0.00015774473,0.0002926935,0.00040740537,1,1,1,0,1,0
21815016000,21814936000,1311004,0.00046865366,-0.00031509422,-0.0006779924,0.34906584,2.0633944e-07,1.8156307e-07,3.0641857e-07,1311004,-0.018148953,-0.009526116,0.07310646,0.4,0.00078123936,0.00078123936,0.00078123936,197644,0.014729071,-0.010683347,0.00054728216,0.5,0.00015774473,0.0002926935,0.00040740537,1,1,1,0,1,0
21815224000,21815144000,1311004,0.00047198258,-0.00032017133,-0.00068018306,0.34906584,2.0513234e-07,1.8173593e-07,3.064362e-07,1311004,-0.018024584,-0.009492175,0.07419358,0.4,0.00078123936,0.00078123936,0.00078123936,197644,0.014729071,-0.010683347,0.00054728216,0.5,0.00015774473,0.0002926935,0.00040740537,1,1,1,0,1,0
21815432000,21815352000,1311004,0.0004699656,-0.00032073393,-0.00068077934,0.34906584,2.040208e-07,1.8190384e-07,3.0636303e-07,1311004,-0.0180057,-0.009510025,0.07531672,0.4,0.00078123936,0.00078123936,0.00078123936,197644,0.014729071,-0.010683347,0.00054728216,0.5,0.00015774473,0.0002926935,0.00040740537,1,1,1,0,1,0
21815640000,21815560000,1311004,0.00046972823,-0.00032293727,-0.00068179343,0.34906584,2.0300105e-07,1.8205859e-07,3.064208e-07,1311004,-0.017962653,-0.009506388,0.07682571,0.4,0.00078123936,0.00078123936,0.00078123936,197644,0.014729071,-0.010683347,0.00054728216,0.5,0.00015774473,0.0002926935,0.00040740537,1,1,1,0,1,0
21816208000,21816128000,1311004,0.00047659094,-0.00032941357,-0.0006890916,0.34906584,2.0188968e-07,1.8322262e-07,3.0750326e-07,1311004,-0.017903209,-0.009490346,0.07892828,0.4,0.00078123936,0.00078123936,0.00078123936,197644,0.014729071,-0.010683347,0.00054728216,0.5,0.00015774473,0.0002926935,0.00040740537,1,1,1,0,1,0
21816416000,21816336000,1311004,0.00047688765,-0.0003333794,-0.0006906452,0.34906584,2.006794e-07,1.830616e-07,3.077902e-07,1311004,-0.017879797,-0.009488661,0.080088526,0.4,0.00078123936,0.00078123936,0.00078123936,197644,0.014729071,-0.010683347,0.00054728216,0.5,0.00015774473,0.0002926935,0.00040740537,1,1,1,0,1,0
21816832000,21816752000,1311004,0.0004832404,-0.00033657163,-0.0006976896,0.34906584,1.9853212e-07,1.8276936e-07,3.0858698e-07,1311004,-0.017883694,-0.009499871,0.08139239,0.4,0.00078123936,0.00078123936,0.00078123936,197644,0.014729071,-0.010683347,0.00054728216,0.5,0.00015774473,0.0002926935,0.00040740537,1,1,1,0,1,0
21817040000,21816960000,1311004,0.00048624145,-0.00033686875,-0.0006998788,0.34906584,1.9754683e-07,1.8261571e-07,3.090722e-07,1311004,-0.017906547,-0.009508098,0.08244961,0.4,0.00078123936,0.00078123936,0.00078123936,197644,0.014729071,-0.010683347,0.00054728216,0.5,0.00015774473,0.0002926935,0.00040740537,1,1,1,0,1,0
21818040000,21817960000,1311004,0.0004992342,-0.0003258861,-0.0007108321,0.34906584,1.9390518e-07,1.821482e-07,3.121116e-07,1311004,-0.017917588,-0.009587099,0.0834437,0.4,0.00078123936,0.0007812399,0.00078123936,197644,0.014729071,-0.010683347,0.00054728216,0.5,0.00015774473,0.0002926935,0.00040740537,1,1,1,0,1,0
21818448000,21818368000,1311004,0.0005035195,-0.0003175359,-0.00071515323,0.34906584,1.9180473e-07,1.8130439e-07,3.133221e-07,1311004,-0.017928697,-0.009625235,0.084870614,0.4,0.00078123936,0.00078123936,0.00078123936,197644,0.014729071,-0.010683347,0.00054728216,0.5,0.00015774473,0.0002926935,0.00040740537,1,1,1,0,1,0
21819224000,21819144000,1311004,0.0004997952,-0.00030508803,-0.00071900734,0.34906584,1.8920062e-07,1.8049857e-07,3.159702e-07,1311004,-0.017890086,-0.009580681,0.08617516,0.4,0.00078123936,0.00078123936,0.00078123936,197644,0.014729071,-0.010683347,0.00054728216,0.5,0.00015774473,0.0002926935,0.00040740537,1,1,1,0,1,0
21819680000,21819600000,1311004,0.0004913199,-0.00029113056,-0.0007181162,0.34906584,1.8744828e-07,1.7971142e-07,3.1767036e-07,1311004,-0.017798444,-0.009478974,0.08717126,0.4,0.0007812421,0.0007812422,0.00078123936,197644,0.014729071,-0.010683347,0.00054728216,0.5,0.00015774473,0.0002926935,0.00040740537,1,1,1,0,1,0
21820216000,21820136000,1311004,0.0004856497,-0.00028223224,-0.0007208613,0.34906584,1.8577244e-07,1.7898067e-07,3.1944933e-07,1311004,-0.017760893,-0.009398901,0.08856405,0.4,0.00078123936,0.00078123936,0.00078123936,197644,0.014729071,-0.010683347,0.00054728216,0.5,0.00015774473,0.0002926935,0.00040740537,1,1,1,0,1,0
21820840000,21820760000,1311004,0.00047430207,-0.0002703149,-0.000720941,0.34906584,1.8266238e-07,1.7698576e-07,3.2156007e-07,1311004,-0.017673664,-0.009243038,0.08965233,0.4,0.00078123936,0.00078123936,0.00078123936,197644,0.014729071,-0.010683347,0.00054728216,0.5,0.00015774473,0.0002926935,0.00040740537,1,1,1,0,1,0
21821616000,21821536000,1311004,0.00046422041,-0.0002549844,-0.0007225334,0.34906584,1.806402e-07,1.7590334e-07,3.2427675e-07,1311004,-0.0175367,-0.00909984,0.09099224,0.4,0.00078123936,0.00078123936,0.00078123936,197644,0.014729071,-0.010683347,0.00054728216,0.5,0.00015774473,0.0002926935,0.00040740537,1,1,1,0,1,0
21822240000,21822160000,1311004,0.0004523856,-0.00024115205,-0.00072718284,0.34906584,1.7794486e-07,1.7393442e-07,3.2665884e-07,1311004,-0.017399643,-0.0089283725,0.09211867,0.4,0.00078123936,0.00078123936,0.00078123936,197644,0.014729071,-0.010683347,0.00054728216,0.5,0.00015774473,0.0002926935,0.00040740537,1,1,1,0,1,0
21823240000,21823160000,1311004,0.00043524877,-0.00022360832,-0.0007335027,0.34906584,1.7539676e-07,1.7218203e-07,3.3002937e-07,1311004,-0.017194455,-0.008687135,0.092975624,0.4,0.00078123994,0.00078123994,0.00078123994,197644,0.014729071,-0.010683347,0.00054728216,0.5,0.00015774473,0.0002926935,0.00040740537,1,1,1,0,1,0
21824240000,21824160000,1311004,0.00042077515,-0.00021178086,-0.0007409262,0.34906584,1.7351566e-07,1.708754e-07,3.332242e-07,1311004,-0.017039496,-0.008488986,0.09312813,0.4,0.0007812411,0.0007812411,0.0007812411,197644,0.014729071,-0.010683347,0.00054728216,0.5,0.00015774473,0.0002926935,0.00040740537,1,1,1,0,1,0
21825240000,21825160000,1311004,0.00041821052,-0.00020360714,-0.0007485809,0.34906584,1.7191367e-07,1.6970309e-07,3.3587148e-07,1311004,-0.016920015,-0.00845058,0.0929346,0.4,0.00078124163,0.00078124163,0.00078124163,197644,0.014729071,-0.010683347,0.00054728216,0.5,0.00015774473,0.0002926935,0.00040740537,1,1,1,0,1,0
21826240000,21826160000,1311004,0.00042310296,-0.00019238683,-0.0007598648,0.34906584,1.7069954e-07,1.6880182e-07,3.386708e-07,1311004,-0.016758192,-0.008496337,0.09221138,0.4,0.0007812523,0.00078125356,0.0007812422,197644,0.014729071,-0.010683347,0.00054728216,0.5,0.00015774473,0.0002926935,0.00040740537,1,1,1,0,1,0
21826816000,21826736000,1311004,0.00043289005,-0.00018278985,-0.000766961,0.34906584,1.6845173e-07,1.6673803e-07,3.4021775e-07,1311004,-0.016617488,-0.008596024,0.09098214,0.4,0.00078123936,0.00078123936,0.00078123936,197644,0.014729071,-0.010683347,0.00054728216,0.5,0.00015774473,0.0002926935,0.00040740537,1,1,1,0,1,0
21827232000,21827152000,1311004,0.00043897363,-0.00017455859,-0.0007707078,0.34906584,1.674192e-07,1.6580918e-07,3.4120893e-07,1311004,-0.016501997,-0.008655392,0.08989012,0.4,0.00078123936,0.00078123936,0.00078123936,197644,0.014729071,-0.010683347,0.00054728216,0.5,0.00015774473,0.0002926935,0.00040740537,1,1,1,0,1,0
21828232000,21828152000,1311004,0.0004515719,-0.00015431395,-0.00077980023,0.34906584,1.6648684e-07,1.6506904e-07,3.4361162e-07,1311004,-0.016270451,-0.008774183,0.08944146,0.4,0.0007812399,0.0007812398,0.00078123994,197644,0.014729071,-0.010683347,0.00054728216,0.5,0.00015774473,0.0002926935,0.00040740537,1,1,1,0,1,0
21828848000,21828768000,1311004,0.00045631677,-0.00013793584,-0.00078494597,0.34906584,1.6528134e-07,1.6398212e-07,3.4524805e-07,1311004,-0.016086945,-0.008814766,0.08815972,0.4,0.00078123936,0.00078123936,0.00078123936,197644,0.014729071,-0.010683347,0.00054728216,0.5,0.00015774473,0.0002926935,0.00040740537,1,1,1,0,1,0
21829832000,21829752000,1311004,0.00046841716,-0.000119246426,-0.0007925361,0.34906584,1.6456978e-07,1.6342692e-07,3.4721774e-07,1311004,-0.015896752,-0.008915613,0.08698667,0.4,0.00078123936,0.00078123936,0.00078123936,197644,0.014729071,-0.010683347,0.00054728216,0.5,0.00015774473,0.0002926935,0.00040740537,1,1,1,0,1,0
21830616000,21830536000,1311004,0.00047427983,-0.00010526685,-0.00080089155,0.34906584,1.6441538e-07,1.633802e-07,3.4872096e-07,1311004,-0.015762035,-0.008958891,0.08540158,0.4,0.00078123936,0.00078123936,0.00078123936,197644,0.014729071,-0.010683347,0.00054728216,0.5,0.00015774473,0.0002926935,0.00040740537,1,1,1,0,1,0
21831616000,21831536000,1311004,0.00048080453,-9.13927e-05,-0.00080416497,0.34906584,1.6446131e-07,1.6354724e-07,3.505035e-07,1311004,-0.01564182,-0.00900815,0.08551162,0.4,0.00078125176,0.00078125176,0.00078123936,197644,0.014729071,-0.010683347,0.00054728216,0.5,0.00015774473,0.0002926935,0.00040740537,1,1,1,0,1,0
21832616000,21832536000,1311004,0.00047947082,-7.4973876e-05,-0.00080430775,0.34906584,1.6417677e-07,1.6337867e-07,3.5212702e-07,1311004,-0.015509879,-0.009002582,0.08565566,0.4,0.00078125246,0.0007812523,0.00078124,197644,0.014729071,-0.010683347,0.00054728216,0.5,0.00015774473,0.0002926935,0.00040740537,1,1,1,0,1,0
