timestamp,timestamp_sample,output_tracking_error[0],output_tracking_error[1],output_tracking_error[2],control_mode_flags,filter_fault_flags,pos_horiz_accuracy,pos_vert_accuracy,mag_test_ratio,vel_test_ratio,pos_test_ratio,hgt_test_ratio,tas_test_ratio,hagl_test_ratio,beta_test_ratio,time_slip,accel_device_id,gyro_device_id,baro_device_id,mag_device_id,gps_check_fail_flags,innovation_check_flags,solution_status_flags,reset_count_vel_ne,reset_count_vel_d,reset_count_pos_ne,reset_count_pod_d,reset_count_quat,pre_flt_fail_innov_heading,pre_flt_fail_innov_vel_horiz,pre_flt_fail_innov_vel_vert,pre_flt_fail_innov_height,pre_flt_fail_mag_field_disturbed,health_flags,timeout_flags
21726360000,21726280000,0.0002318001,0.00498293,0.0016523013,67109399,0,0.049090665,0.05540981,0.018357966,0.007973117,0.0004674236,0.00018569798,0.0,0.0,0.0,0.0,1311004,1311004,6620172,197388,0,0,895,2,1,2,0,47,0,0,0,0,0,0,0
21726368000,21726288000,0.00021769962,0.004767373,0.0016284337,67109399,0,0.049091972,0.055410422,0.018357966,0.007973117,0.0004674236,0.00018569798,0.0,0.0,0.0,0.0,1311004,1311004,6620172,197388,0,0,895,2,1,2,0,47,0,0,0,0,0,0,0
21726552000,21726472000,0.00023976366,0.004786749,0.0014593161,67109399,0,0.049104538,0.05538814,0.014318911,0.007973117,0.0004674236,0.00010723406,0.0,0.0,0.0,0.0,1311004,1311004,6620172,197388,0,0,895,2,1,2,0,47,0,0,0,0,0,0,0
21726760000,21726680000,0.0002047698,0.0040800916,0.0011434633,67109399,0,0.04909077,0.05537436,0.009478303,0.0021504466,0.00039489302,0.00019790353,0.0,0.0,0.0,0.0,1311004,1311004,6620172,197388,0,0,895,2,1,2,0,47,0,0,0,0,0,0,0
21726960000,21726880000,0.00018898817,0.0043531046,0.0015455376,67109399,0,0.049076345,0.05536027,0.008007461,0.007987975,0.0019827578,0.0023696115,0.0,0.0,0.0,0.0,1311004,1311004,6620172,197388,0,0,895,2,1,2,0,47,0,0,0,0,0,0,0
21727152000,21727072000,0.00011797776,0.001330602,0.0013068808,67109399,0,0.049061704,0.05533915,0.023681251,0.00023446257,0.0019583232,0.0017645673,0.0,0.0,0.0,0.0,1311004,1311004,6620172,197388,0,0,895,2,1,2,0,47,0,0,0,0,0,0,0
21727360000,21727280000,0.00016769495,0.0023223523,0.0010905198,67109399,0,0.049048033,0.055325426,0.0037439938,0.0012373904,0.0019660918,0.0063006566,0.0,0.0,0.0,0.0,1311004,1311004,6620172,197388,0,0,895,2,1,2,0,47,0,0,0,0,0,0,0
21727560000,21727480000,0.00022497842,0.0023492042,0.0010600983,67109399,0,0.0490341,0.05530468,0.06222133,0.004109442,0.0019482096,0.002683468,0.0,0.0,0.0,0.0,1311004,1311004,6620172,197388,0,0,895,2,1,2,0,47,0,0,0,0,0,0,0
21727752000,21727672000,0.00016094117,0.0034357088,0.0011544189,67109399,0,0.049049642,0.05529084,0.0063811606,0.004109442,0.0019482096,0.0031498927,0.0,0.0,0.0,0.0,1311004,1311004,6620172,197388,0,0,895,2,1,2,0,47,0,0,0,0,0,0,0
21727952000,21727872000,0.00019033719,0.0021465097,0.000895494,67109399,0,0.049035933,0.055277143,0.015373861,0.014141597,0.001949068,0.0009380805,0.0,0.0,0.0,0.0,1311004,1311004,6620172,197388,0,0,895,2,1,2,0,47,0,0,0,0,0,0,0
21728152000,21728072000,8.5682e-05,0.0010321293,0.00053438224,67109399,0,0.049022283,0.055256587,0.005325135,0.0053568976,0.00041869748,0.0016442564,0.0,0.0,0.0,0.0,1311004,1311004,6620172,197388,0,0,895,2,1,2,0,47,0,0,0,0,0,0,0
21728352000,21728272000,0.000182727,0.0025807829,0.0005358919,67109399,0,0.049008664,0.055242952,0.019388504,0.012721408,0.0012567361,0.0010862903,0.0,0.0,0.0,0.0,1311004,1311004,6620172,197388,0,0,895,2,1,2,0,47,0,0,0,0,0,0,0
21728552000,21728472000,6.5999026e-05,0.0012514879,0.00064422505,67109399,0,0.049033325,0.055241033,0.02338834,0.000114969705,0.0018801488,0.0013818382,0.0,0.0,0.0,0.0,1311004,1311004,6620172,197388,0,0,895,2,1,2,0,47,0,0,0,0,0,0,0
21728752000,21728672000,8.817109e-05,0.002041372,0.0009289509,67109399,0,0.04901338,0.05522441,0.0016806109,0.0066369167,0.0018758366,0.00016913353,0.0,0.0,0.0,0.0,1311004,1311004,6620172,197388,0,0,895,2,1,2,0,47,0,0,0,0,0,0,0
21728960000,21728880000,9.806617e-05,0.0013195951,0.0008126807,67109399,0,0.048999894,0.05520399,0.022152295,0.008893762,0.0012236886,0.009203829,0.0,0.0,0.0,0.0,1311004,1311004,6620172,197388,0,0,895,2,1,2,0,47,0,0,0,0,0,0,0
21729160000,21729080000,3.8380513e-05,0.0011145845,0.00066093163,67109399,0,0.049009908,0.05518767,0.0065354,0.008893762,0.0012236886,0.0013469657,0.0,0.0,0.0,0.0,1311004,1311004,6620172,197388,0,0,895,2,1,2,0,47,0,0,0,0,0,0,0
21729360000,21729280000,3.7006135e-05,0.0024667438,0.0009591061,67109399,0,0.048991036,0.0551716,0.014147733,0.0071476204,0.0012447285,0.004380908,0.0,0.0,0.0,0.0,1311004,1311004,6620172,197388,0,0,895,2,1,2,0,47,0,0,0,0,0,0,0
21729552000,21729472000,9.2304115e-05,0.0025689784,0.0010908144,67109399,0,0.048968248,0.055146854,0.0060783327,0.013168147,0.001268485,0.0003208307,0.0,0.0,0.0,0.0,1311004,1311004,6620172,197388,0,0,895,2,1,2,0,47,0,0,0,0,0,0,0
21729760000,21729680000,7.419752e-05,0.0015807236,0.00072138594,67109399,0,0.04895485,0.055133384,0.012273526,0.00050459476,0.00040952468,0.0007515111,0.0,0.0,0.0,0.0,1311004,1311004,6620172,197388,0,0,895,2,1,2,0,47,0,0,0,0,0,0,0
21729952000,21729872000,0.00011763259,0.0026405654,0.00095960835,67109399,0,0.048933867,0.05511637,0.0135025615,0.0066283303,0.0004086194,0.0040557194,0.0,0.0,0.0,0.0,1311004,1311004,6620172,197388,0,0,895,2,1,2,0,47,0,0,0,0,0,0,0
21730160000,21730080000,7.8380646e-05,0.004580691,0.0014347091,67109399,0,0.048920527,0.05509611,0.0008374075,0.017593028,0.0004046403,0.006654623,0.0,0.0,0.0,0.0,1311004,1311004,6620172,197388,0,0,895,2,1,2,0,47,0,0,0,0,0,0,0
21730360000,21730280000,0.00011277147,0.0028752163,0.0013239897,67109399,0,0.048933253,0.0550812,0.040203966,0.017593028,0.0004046403,0.00044201416,0.0,0.0,0.0,0.0,1311004,1311004,6620172,197388,0,0,895,2,1,2,0,47,0,0,0,0,0,0,0
21730560000,21730480000,0.00016973173,0.00434968,0.0013234195,67109399,0,0.048917077,0.05505967,0.008567676,0.015144235,0.0003922497,0.0013434791,0.0,0.0,0.0,0.0,1311004,1311004,6620172,197388,0,0,895,2,1,2,0,47,0,0,0,0,0,0,0
21730752000,21730672000,0.000110456975,0.0036481179,0.0014569305,67109399,0,0.048899148,0.055044144,0.0053902892,0.00829693,0.0018941505,0.00088315667,0.0,0.0,0.0,0.0,1311004,1311004,6620172,197388,0,0,895,2,1,2,0,47,0,0,0,0,0,0,0
21730960000,21730880000,9.83162e-05,0.0030287218,0.0013634735,67109399,0,0.048885837,0.055023994,0.0031676278,0.0136594325,0.0018480209,0.0018264694,0.0,0.0,0.0,0.0,1311004,1311004,6620172,197388,0,0,895,2,1,2,0,47,0,0,0,0,0,0,0
21731160000,21731080000,5.3437987e-05,0.0032218413,0.0012816745,67109399,0,0.04887071,0.055009805,0.0081966575,0.00676111,0.0003558534,0.0015213313,0.0,0.0,0.0,0.0,1311004,1311004,6620172,197388,0,0,895,2,1,2,0,47,0,0,0,0,0,0,0
21731352000,21731272000,9.712248e-05,0.0037699114,0.0013001952,67109399,0,0.048854586,0.054995142,0.0075562038,0.012544438,0.000352327,0.0030165082,0.0,0.0,0.0,0.0,1311004,1311004,6620172,197388,0,0,895,2,1,2,0,47,0,0,0,0,0,0,0
21731552000,21731472000,0.00021695443,0.005758209,0.0016842538,67109399,0,0.048840262,0.054974552,0.015437816,0.018176245,0.00040374722,0.00044898895,0.0,0.0,0.0,0.0,1311004,1311004,6620172,197388,0,0,895,2,1,2,0,47,0,0,0,0,0,0,0
21731760000,21731680000,0.00013066098,0.0022020433,0.001161511,67109399,0,0.048856188,0.05495451,0.006271029,0.018176245,0.00040374722,0.00090931176,0.0,0.0,0.0,0.0,1311004,1311004,6620172,197388,0,0,895,2,1,2,0,47,0,0,0,0,0,0,0
21731960000,21731880000,0.00019264292,0.0017952236,0.0005942003,67109399,0,0.04884206,0.054940846,0.03247905,0.0037963972,0.00040773852,0.003918846,0.0,0.0,0.0,0.0,1311004,1311004,6620172,197388,0,0,895,2,1,2,0,47,0,0,0,0,0,0,0
21732160000,21732080000,0.0002126147,0.0042015207,0.00081990357,67109399,0,0.04882816,0.054927286,7.094092e-05,0.02266413,0.00043838102,0.0012135782,0.0,0.0,0.0,0.0,1311004,1311004,6620172,197388,0,0,895,2,1,2,0,47,0,0,0,0,0,0,0
21732360000,21732280000,0.0001601958,0.0057001794,0.0014040591,67109399,0,0.048814457,0.05490706,0.00842382,0.008244877,0.00042556188,0.00724311,0.0,0.0,0.0,0.0,1311004,1311004,6620172,197388,0,0,895,2,1,2,0,47,0,0,0,0,0,0,0
21732560000,21732480000,0.00020618405,0.008809633,0.0021670836,67109399,0,0.048800893,0.05489368,0.0071993615,0.015781771,0.0019666278,0.0016582084,0.0,0.0,0.0,0.0,1311004,1311004,6620172,197388,0,0,895,2,1,2,0,47,0,0,0,0,0,0,0
21732760000,21732680000,0.0002581441,0.009054992,0.00273503,67109399,0,0.048787463,0.05488037,0.013455289,0.007397334,0.0012302225,0.00028944542,0.0,0.0,0.0,0.0,1311004,1311004,6620172,197388,0,0,895,2,1,2,0,47,0,0,0,0,0,0,0
21732960000,21732880000,0.0001550286,0.006820913,0.0026113116,67109399,0,0.048803214,0.05486038,0.0018967945,0.007397334,0.0012302225,0.00090669666,0.0,0.0,0.0,0.0,1311004,1311004,6620172,197388,0,0,895,2,1,2,0,47,0,0,0,0,0,0,0
21733160000,21733080000,6.797271e-05,0.0023554268,0.0017286335,1049239,0,0.048860125,0.05488104,0.009611968,0.0067856703,0.001924585,1.1754944e-38,0.0,0.0,0.0,0.0,1311004,1311004,6620172,197388,0,0,895,2,1,2,0,47,0,0,0,0,0,0,0
21733360000,21733280000,3.829503e-05,0.0007145176,0.00074146345,1049239,0,0.049348496,0.055107597,0.011784741,0.013292941,0.0019351342,0.002223148,0.0,0.0,0.0,0.0,1311004,1311004,6620172,197388,0,0,895,2,1,2,0,47,0,0,0,0,0,0,0
21733560000,21733480000,8.5365646e-05,0.0011175729,0.00025926044,1049239,0,0.05071487,0.055798605,0.0051797563,0.010133291,0.0019557597,1.1754944e-38,0.0,0.0,0.0,0.0,1311004,1311004,6620172,197388,0,0,895,2,1,2,0,47,0,0,0,0,0,0,0
21733760000,21733680000,0.00010644208,0.0015728918,0.00057831,1049239,0,0.05340583,0.05723013,0.024493378,0.012789103,0.0009372934,0.0042466144,0.0,0.0,0.0,0.0,1311004,1311004,6620172,197388,0,0,895,2,1,2,0,47,0,0,0,0,0,0,0
21733960000,21733880000,0.00011197866,0.0012762557,0.0005796268,1049239,0,0.057769127,0.059675224,0.008895529,0.03023113,0.001331542,1.1754944e-38,0.0,0.0,0.0,0.0,1311004,1311004,6620172,197388,0,0,895,2,1,2,0,47,0,0,0,0,0,0,0
21734152000,21734072000,2.0403126e-05,0.0011377189,0.0006071662,1049239,0,0.0636815,0.06320264,0.002804834,0.008793934,0.0017909999,0.00029379354,0.0,0.0,0.0,0.0,1311004,1311004,6620172,197388,0,0,895,2,1,2,0,47,0,0,0,0,0,0,0
21734352000,21734272000,6.24467e-05,0.0012926856,0.0006788302,1049239,0,0.07219642,0.06836954,0.014395959,0.008793934,0.0017909999,0.0004341387,0.0,0.0,0.0,0.0,1311004,1311004,6620172,197388,0,0,895,2,1,2,0,47,0,0,0,0,0,0,0
21734552000,21734472000,5.6930752e-05,0.0014733198,0.00086022296,1049239,0,0.08222571,0.0749091,0.0029755482,0.014276111,0.0015993618,0.0009876749,0.0,0.0,0.0,0.0,1311004,1311004,6620172,197388,0,0,895,2,1,2,0,47,0,0,0,0,0,0,0
21734760000,21734680000,3.904767e-05,0.002092245,0.001646371,1049239,0,0.094412304,0.08319842,0.016212186,0.04201338,0.003679232,0.0034815576,0.0,0.0,0.0,0.0,1311004,1311004,6620172,197388,0,0,895,2,1,2,0,47,0,0,0,0,0,0,0
21734960000,21734880000,8.0769525e-05,0.0021838597,0.0019297241,663,0,0.107416324,0.09241251,0.020503717,0.03171743,0.004009067,0.005411965,0.0,0.0,0.0,0.0,1311004,1311004,6620172,197388,0,0,895,2,1,2,0,47,0,0,0,0,0,0,0
21735152000,21735072000,5.258369e-05,0.0009585899,0.0010089735,663,0,0.12058428,0.10227507,0.012883759,0.013505493,0.0038883928,0.0037189974,0.0,0.0,0.0,0.0,1311004,1311004,6620172,197388,0,0,895,2,1,2,0,47,0,0,0,0,0,0,0
21735360000,21735280000,0.00010413928,0.001183123,0.0021540988,663,0,0.13549832,0.11394388,0.045669362,0.042472433,0.0052787676,0.0018963249,0.0,0.0,0.0,0.0,1311004,1311004,6620172,197388,0,0,895,2,1,2,0,47,0,0,0,0,0,0,0
21735552000,21735472000,0.0074123577,0.00042479232,0.0010474031,8389271,0,0.15351993,0.12684514,0.08841946,0.042472433,0.0052787676,0.0005515793,0.0,0.0,0.0,0.0,1311004,1311004,6620172,197388,0,0,895,2,1,2,0,48,0,0,0,0,0,0,0
21735760000,21735680000,0.012006908,0.0014155506,0.0030234393,8389271,0,0.1684645,0.14020304,0.056341738,0.024934117,0.0058668903,0.0042108325,0.0,0.0,0.0,0.0,1311004,1311004,6620172,197388,0,0,895,2,1,2,0,48,0,0,0,0,0,0,0
21735960000,21735880000,0.008669336,0.0017702903,0.003835873,8389271,0,0.18185136,0.15323633,0.05613653,0.032915287,0.004830217,0.0042936606,0.0,0.0,0.0,0.0,1311004,1311004,6620172,197388,0,0,895,2,1,2,0,48,0,0,0,0,0,0,0
21736160000,21736080000,0.0032600614,0.0035317596,0.0069743474,8389271,0,0.19449791,0.16661647,0.047976956,0.050042868,0.0060204635,0.0004119707,0.0,0.0,0.0,0.0,1311004,1311004,6620172,197388,0,0,895,2,1,2,0,48,0,0,0,0,0,0,0
21736360000,21736280000,0.0032248285,0.0017164861,0.0038001786,8389271,0,0.20645145,0.17985766,0.037238244,0.019183137,0.0065575605,0.0046194815,0.0,0.0,0.0,0.0,1311004,1311004,6620172,197388,0,0,895,2,1,2,0,48,0,0,0,0,0,0,0
21736560000,21736480000,0.0017772675,0.0028394603,0.006004661,8389271,0,0.21775226,0.19325146,0.045013465,0.037782315,0.0064937593,0.00468225,0.0,0.0,0.0,0.0,1311004,1311004,6620172,197388,0,0,895,2,1,2,0,48,0,0,0,0,0,0,0
21736760000,21736680000,0.0031520426,0.0023429254,0.0047671916,8389271,0,0.22842476,0.20649374,0.014726127,0.020608695,0.006385083,0.0011342171,0.0,0.0,0.0,0.0,1311004,1311004,6620172,197388,0,0,895,2,1,2,0,48,0,0,0,0,0,0,0
21736960000,21736880000,0.0028786832,0.0007140109,0.0015131142,8389271,0,0.24845438,0.22394378,0.03357511,0.020608695,0.006385083,0.004969464,0.0,0.0,0.0,0.0,1311004,1311004,6620172,197388,0,0,895,2,1,2,0,48,0,0,0,0,0,0,0
21737152000,21737072000,0.0009081267,0.0017399298,0.0037292538,8389271,0,0.25710794,0.23593274,0.042407963,0.024578365,0.0062439977,0.0019165819,0.0,0.0,0.0,0.0,1311004,1311004,6620172,197388,0,0,895,2,1,2,0,48,0,0,0,0,0,0,0
21737360000,21737280000,0.0018835975,0.0013520543,0.0025669592,8389271,0,0.26672184,0.24845669,0.040823106,0.020923095,0.0060872533,0.001140236,0.0,0.0,0.0,0.0,1311004,1311004,6620172,197388,0,0,895,2,1,2,0,48,0,0,0,0,0,0,0
21737560000,21737480000,0.001056827,0.0012774162,0.0020870036,8389271,0,0.27475235,0.26026598,0.02552429,0.008231563,0.0073110824,0.004130417,0.0,0.0,0.0,0.0,1311004,1311004,6620172,197388,0,0,895,2,1,2,0,48,0,0,0,0,0,0,0
21737752000,21737672000,0.0015019616,0.0018739292,0.0025510015,8389271,0,0.28122506,0.2707573,0.045509957,0.01452645,0.0071004443,0.005194729,0.0,0.0,0.0,0.0,1311004,1311004,6620172,197388,0,0,895,2,1,2,0,48,0,0,0,0,0,0,0
21737960000,21737880000,0.0012985014,0.0017084788,0.0026614694,8389271,0,0.28871325,0.2814593,0.029128885,0.007117368,0.007219845,0.0024023014,0.0,0.0,0.0,0.0,1311004,1311004,6620172,197388,0,0,895,2,1,2,0,48,0,0,0,0,0,0,0
21738152000,21738072000,0.0013285112,0.0011839357,0.0016286626,8389271,0,0.31037536,0.2983653,0.02432318,0.007117368,0.007219845,0.0039496925,0.0,0.0,0.0,0.0,1311004,1311004,6620172,197388,0,0,831,2,1,2,0,48,0,0,0,0,0,0,0
21738352000,21738272000,0.00012404552,0.0005593938,0.001124772,8389271,0,0.31478956,0.3078636,0.02206874,0.008822974,0.007448493,0.004259912,0.0,0.0,0.0,0.0,1311004,1311004,6620172,197388,0,0,831,2,1,2,0,48,0,0,0,0,0,0,0
21738560000,21738480000,0.0009944846,0.0023716697,0.0043722983,8389271,0,0.31949735,0.31633684,0.025769075,0.022227153,0.0071236403,0.0039798757,0.0,0.0,0.0,0.0,1311004,1311004,6620172,197388,0,0,831,2,1,2,0,48,0,0,0,0,0,0,0
21738760000,21738680000,0.00025013648,0.0014998114,0.001831387,8389271,0,0.32278284,0.3246261,0.0040004384,0.009536631,0.0075848848,0.00501685,0.0,0.0,0.0,0.0,1311004,1311004,6620172,197388,0,0,831,2,1,2,0,48,0,0,0,0,0,0,0
21738960000,21738880000,0.00057587033,0.003837549,0.007189768,8389271,0,0.32563657,0.3309126,0.00080070243,0.026612515,0.007170067,0.014991994,0.0,0.0,0.0,0.0,1311004,1311004,6620172,197388,0,0,831,2,1,2,0,48,0,0,0,0,0,0,0
21739160000,21739080000,0.0002360711,0.0033539615,0.0060839057,8389271,0,0.328177,0.33816823,0.007885797,0.0154791,0.0076431953,0.0044828546,0.0,0.0,0.0,0.0,1311004,1311004,6620172,197388,0,0,831,2,1,2,0,48,0,0,0,0,0,0,0
21739352000,21739272000,0.0009022717,0.006589547,0.0064390097,8389351,0,0.3295195,0.34417808,0.02282583,0.023736393,0.0073131565,0.005879624,0.0,0.0,0.0,0.0,1311004,1311004,6620172,197388,0,0,831,2,1,2,0,48,0,0,0,0,0,0,0
21739552000,21739472000,5.7631412e-05,0.0030691952,0.0019175296,8389351,0,0.35212287,0.35744324,0.009680427,0.023736393,0.0073131565,0.002793072,0.0,0.0,0.0,0.0,1311004,1311004,6620172,197388,0,0,831,2,1,2,0,48,0,0,0,0,0,0,0
21739760000,21739680000,0.0014674929,0.014482896,0.021390043,8389351,0,0.35269374,0.36373368,0.04609371,0.09291399,0.011833332,0.0069931527,0.0,0.0,0.0,0.0,1311004,1311004,6620172,197388,0,0,831,2,1,2,0,48,0,0,0,0,0,0,0
21739952000,21739872000,0.0015293645,0.016553529,0.02449171,8389351,0,0.35141703,0.3680323,0.015570305,0.0664007,0.008970451,0.002332014,0.0,0.0,0.0,0.0,1311004,1311004,6620172,197388,0,0,831,2,1,2,0,48,0,0,0,0,0,0,0
21740152000,21740072000,0.0012626654,0.0145838065,0.022925949,8389351,0,0.35107073,0.3707078,0.014697173,0.046255827,0.009730723,0.014100253,0.0,0.0,0.0,0.0,1311004,1311004,6620172,197388,0,0,831,2,1,2,0,48,0,0,0,0,0,0,0
21740352000,21740272000,0.0011767974,0.0126885185,0.020266747,8389351,0,0.35070798,0.37510243,0.01680519,0.040312592,0.0052227094,0.0046602953,0.0,0.0,0.0,0.0,1311004,1311004,6620172,197388,0,0,831,2,1,2,0,48,0,0,0,0,0,0,0
21740560000,21740480000,0.00075298914,0.009359244,0.015395915,8389351,0,0.35114294,0.37779576,0.06228899,0.03480033,0.0039717387,0.0073270174,0.0,0.0,0.0,0.0,1311004,1311004,6620172,197388,0,0,831,2,1,2,0,48,0,0,0,0,0,0,0
21740760000,21740680000,0.000134317,0.0044354605,0.007044959,8389351,0,0.3731016,0.39007264,0.017767534,0.03480033,0.0039717387,0.001263543,0.0,0.0,0.0,0.0,1311004,1311004,6620172,197388,0,0,831,2,1,2,0,48,0,0,0,0,0,0,0
21740960000,21740880000,0.00073277083,0.0074288514,0.012866053,8389351,0,0.37027758,0.39072588,0.012341422,0.04931468,0.0064536356,0.0050889645,0.0,0.0,0.0,0.0,1311004,1311004,6620172,197388,0,0,831,2,1,2,0,48,0,0,0,0,0,0,0
21741160000,21741080000,0.0005683231,0.006501998,0.011517499,8389351,0,0.3678161,0.3935882,0.07586103,0.030791994,0.004500036,0.0026349141,0.0,0.0,0.0,0.0,1311004,1311004,6620172,197388,0,0,831,2,1,2,0,48,0,0,0,0,0,0,0
21741360000,21741280000,0.00020414827,0.0064087724,0.011471954,8389351,0,0.3656233,0.3962647,0.012998942,0.04046487,0.003715457,0.015743367,0.0,0.0,0.0,0.0,1311004,1311004,6620172,197388,0,0,831,2,1,2,0,48,0,0,0,0,0,0,0
21741552000,21741472000,0.0004044524,0.00644497,0.0115157785,8389351,0,0.36283657,0.39548552,0.007276428,0.034092285,0.0047987727,0.0070685204,0.0,0.0,0.0,0.0,1311004,1311004,6620172,197388,0,0,831,2,1,2,0,48,0,0,0,0,0,0,0
21741760000,21741680000,0.00023214037,0.0048913597,0.008163288,8389351,0,0.36180764,0.39854178,0.027470224,0.034721244,0.0040111495,0.012527566,0.0,0.0,0.0,0.0,1311004,1311004,6620172,197388,0,0,831,2,1,2,0,48,0,0,0,0,0,0,0
21741952000,21741872000,6.1423205e-05,0.0063838805,0.010750693,8389351,0,0.3593521,0.3974688,0.0058764117,0.015347073,0.0011764742,0.0035760459,0.0,0.0,0.0,0.0,1311004,1311004,6620172,197388,0,0,831,2,1,2,0,48,0,0,0,0,0,0,0
21742160000,21742080000,3.463692e-05,0.0072360598,0.0140476795,8389351,0,0.3800685,0.4077791,0.03525011,0.015347073,0.0011764742,0.017842894,0.0,0.0,0.0,0.0,1311004,1311004,6620172,197388,0,0,831,2,1,2,0,48,0,0,0,0,0,0,0
21742352000,21742272000,0.00018631252,0.0074601765,0.014396955,8389351,0,0.37572232,0.40863836,0.008691729,0.044688035,0.010421128,0.01132326,0.0,0.0,0.0,0.0,1311004,1311004,6620172,197388,0,0,831,2,1,2,0,48,0,0,0,0,0,0,0
21742560000,21742480000,6.18607e-05,0.006588729,0.0122064175,8389351,0,0.3733694,0.40805513,0.055327382,0.011499639,0.008068363,0.011344323,0.0,0.0,0.0,0.0,1311004,1311004,6620172,197388,0,0,831,2,1,2,0,48,0,0,0,0,0,0,0
21742752000,21742672000,0.00012080034,0.004189104,0.009716028,8389351,0,0.36975685,0.4087729,0.03867545,0.03168437,0.0022875406,0.0076973876,0.0,0.0,0.0,0.0,1311004,1311004,6620172,197388,0,0,831,2,1,2,0,48,0,0,0,0,0,0,0
21742952000,21742872000,1.4572201e-05,0.00506778,0.011257446,8389351,0,0.36717248,0.40736008,0.013430025,0.0046187537,0.0082291,0.012537436,0.0,0.0,0.0,0.0,1311004,1311004,6620172,197388,0,0,831,2,1,2,0,48,0,0,0,0,0,0,0
21743152000,21743072000,6.9566115e-05,0.0035529507,0.0069366707,8389351,0,0.36479557,0.40864176,0.03485553,0.01789733,0.0062162993,0.0069775637,0.0,0.0,0.0,0.0,1311004,1311004,6620172,197388,0,0,831,2,1,2,0,48,0,0,0,0,0,0,0
21743360000,21743280000,1.4151824e-05,0.005219662,0.011732959,8389351,0,0.3845205,0.4145844,0.010066206,0.01789733,0.0062162993,0.009452938,0.0,0.0,0.0,0.0,1311004,1311004,6620172,197388,0,0,831,2,1,2,0,48,0,0,0,0,0,0,0
21743560000,21743480000,3.9219536e-05,0.003845518,0.007217254,8389351,0,0.38044345,0.4154518,0.017032364,0.022117836,0.007986209,0.0049874955,0.0,0.0,0.0,0.0,1311004,1311004,6620172,197388,0,0,831,2,1,2,0,48,0,0,0,0,0,0,0
21743760000,21743680000,8.0922044e-05,0.002176687,0.0034195017,8389351,0,0.37686262,0.41342518,0.01824765,0.025258338,0.009817227,0.0049621635,0.0,0.0,0.0,0.0,1311004,1311004,6620172,197388,0,0,831,2,1,2,0,48,0,0,0,0,0,0,0
21743960000,21743880000,2.9969382e-05,0.0036731742,0.0058856322,8389351,0,0.37362295,0.4142858,0.036427893,0.0060115624,0.010430185,0.0011992666,0.0,0.0,0.0,0.0,1311004,1311004,6620172,197388,0,0,831,2,1,2,0,48,0,0,0,0,0,0,0
21744160000,21744080000,6.938179e-05,0.0061763832,0.0128056975,8389351,0,0.370608,0.41228122,0.014283089,0.017782312,0.0032429474,0.009276365,0.0,0.0,0.0,0.0,1311004,1311004,6620172,197388,0,0,831,2,1,2,0,48,0,0,0,0,0,0,0
21744360000,21744280000,0.00010019862,0.004367444,0.00942093,8389351,0,0.36790878,0.4131239,0.044717275,0.022896482,0.01148783,0.0047356607,0.0,0.0,0.0,0.0,1311004,1311004,6620172,197388,0,0,831,2,1,2,0,48,0,0,0,0,0,0,0
21744560000,21744480000,5.352017e-05,0.003721778,0.007840279,8389351,0,0.36542314,0.4111118,0.025426954,0.008997741,0.0145681845,0.011209247,0.0,0.0,0.0,0.0,1311004,1311004,6620172,197388,0,0,831,2,1,2,0,48,0,0,0,0,0,0,0
21744760000,21744680000,3.124909e-05,0.0039958144,0.007238508,8389351,0,0.3835484,0.4182155,0.01610256,0.008997741,0.0145681845,0.005063723,0.0,0.0,0.0,0.0,1311004,1311004,6620172,197388,0,0,831,2,1,2,0,48,0,0,0,0,0,0,0
21744960000,21744880000,4.7486403e-05,0.004307496,0.008481054,8389351,0,0.37958318,0.41576293,0.0062979525,0.0117197605,0.008423269,0.008457581,0.0,0.0,0.0,0.0,1311004,1311004,6620172,197388,0,0,831,2,1,2,0,48,0,0,0,0,0,0,0
21745152000,21745072000,2.8526607e-05,0.0037290512,0.006474917,8389351,0,0.37528616,0.41568086,0.023054471,0.014821206,0.007786405,0.01040861,0.0,0.0,0.0,0.0,1311004,1311004,6620172,197388,0,0,831,2,1,2,0,48,0,0,0,0,0,0,0
21745360000,21745280000,4.7363257e-05,0.003657831,0.006949972,8389271,0,0.372767,0.41687742,0.002532645,0.0046355794,0.0076633925,0.008266123,0.0,0.0,0.0,0.0,1311004,1311004,6620172,197388,0,0,831,2,1,2,0,48,0,0,0,0,0,0,0
21745560000,21745480000,0.00010314236,0.005243177,0.0093561085,8389271,0,0.36980936,0.41450655,0.0066198846,0.015379676,0.007970881,0.007180185,0.0,0.0,0.0,0.0,1311004,1311004,6620172,197388,0,0,831,2,1,2,0,48,0,0,0,0,0,0,0
21745760000,21745680000,9.4145114e-05,0.0034395114,0.007487263,8389271,0,0.36709905,0.41506356,0.00022454705,0.032310583,0.009596724,0.003996764,0.0,0.0,0.0,0.0,1311004,1311004,6620172,197388,0,0,831,2,1,2,0,48,0,0,0,0,0,0,0
21745960000,21745880000,4.01298e-05,0.0024879414,0.004765501,8389271,0,0.38519225,0.4187644,0.0029621373,0.032310583,0.009596724,0.009956905,0.0,0.0,0.0,0.0,1311004,1311004,6620172,197388,0,0,831,2,1,2,0,48,0,0,0,0,0,0,0
21746160000,21746080000,6.327396e-05,0.0026488332,0.005678013,8389271,0,0.3810989,0.4191009,0.002654119,0.01805211,0.017980434,0.0050990526,0.0,0.0,0.0,0.0,1311004,1311004,6620172,197388,0,0,831,2,1,2,0,48,0,0,0,0,0,0,0
21746360000,21746280000,0.00010684707,0.0023794137,0.0043682,8389271,0,0.37734494,0.41942957,0.010835681,0.0055902405,0.008955728,0.004246455,0.0,0.0,0.0,0.0,1311004,1311004,6620172,197388,0,0,831,2,1,2,0,48,0,0,0,0,0,0,0
21746560000,21746480000,0.000192653,0.0025862972,0.004552291,8389271,0,0.37394732,0.41680846,0.006470934,0.0061473018,0.010546,0.006428286,0.0,0.0,0.0,0.0,1311004,1311004,6620172,197388,0,0,831,2,1,2,0,48,0,0,0,0,0,0,0
21746760000,21746680000,0.00012885142,0.0016812121,0.0029073756,8389271,0,0.3708555,0.4172015,0.01466224,0.004787518,0.008008822,0.0064700223,0.0,0.0,0.0,0.0,1311004,1311004,6620172,197388,0,0,831,2,1,2,0,48,0,0,0,0,0,0,0
21746952000,21746872000,0.00016991871,0.0025872483,0.004353915,8389271,0,0.3673441,0.41406852,0.029716961,0.014602678,0.012626428,0.004006957,0.0,0.0,0.0,0.0,1311004,1311004,6620172,197388,0,0,831,2,1,2,0,48,0,0,0,0,0,0,0
21747160000,21747080000,0.00010455985,0.0024965282,0.0056708795,8389271,0,0.36543518,0.41511917,0.0036974773,0.024414083,0.008507177,0.0049715918,0.0,0.0,0.0,0.0,1311004,1311004,6620172,197388,0,0,831,2,1,2,0,48,0,0,0,0,0,0,0
21747352000,21747272000,0.00015135689,0.0017874399,0.004926318,8389271,0,0.3825927,0.4208608,0.023399016,0.024414083,0.008507177,0.011207318,0.0,0.0,0.0,0.0,1311004,1311004,6620172,197388,0,0,831,2,1,2,0,48,0,0,0,0,0,0,0
21747552000,21747472000,0.00020107938,0.0013169148,0.0023010215,8389271,0,0.37866902,0.4181425,0.006752656,0.014176623,0.012564842,0.002219713,0.0,0.0,0.0,0.0,1311004,1311004,6620172,197388,0,0,831,2,1,2,0,48,0,0,0,0,0,0,0
21747752000,21747672000,0.00020113536,0.003187271,0.008080765,8389271,0,0.37512872,0.4184667,0.020843482,0.032048386,0.0120963985,0.0077693923,0.0,0.0,0.0,0.0,1311004,1311004,6620172,197388,0,0,831,2,1,2,0,48,0,0,0,0,0,0,0
21747952000,21747872000,8.480061e-05,0.0024607603,0.0042446507,8389271,0,0.37191582,0.41586325,0.01878577,0.011330437,0.01088586,0.0013913243,0.0,0.0,0.0,0.0,1311004,1311004,6620172,197388,0,0,831,2,1,2,0,48,0,0,0,0,0,0,0
21748160000,21748080000,0.00016086081,0.0031691883,0.005308076,8389271,0,0.3696806,0.41686425,0.003343279,0.01581889,0.012876807,0.005360249,0.0,0.0,0.0,0.0,1311004,1311004,6620172,197388,0,0,831,2,1,2,0,48,0,0,0,0,0,0,0
21748360000,21748280000,6.0101946e-05,0.0037724064,0.008702399,8389271,0,0.36698696,0.41438577,0.0009790214,0.030302854,0.012854159,0.0010450607,0.0,0.0,0.0,0.0,1311004,1311004,6620172,197388,0,0,831,2,1,2,0,48,0,0,0,0,0,0,0
21748560000,21748480000,0.00015482603,0.0020094295,0.00479514,8389271,0,0.38514215,0.42064673,0.010823737,0.030302854,0.012854159,0.006468398,0.0,0.0,0.0,0.0,1311004,1311004,6620172,197388,0,0,831,2,1,2,0,48,0,0,0,0,0,0,0
21748760000,21748680000,5.6042703e-05,0.0032331846,0.008456121,8389271,0,0.38098842,0.42088097,0.0046812603,0.027460162,0.013966056,0.0015964098,0.0,0.0,0.0,0.0,1311004,1311004,6620172,197388,0,0,831,2,1,2,0,48,0,0,0,0,0,0,0
21748952000,21748872000,4.741122e-05,0.0026619402,0.007922836,8389271,0,0.376526,0.41752052,0.0026730197,0.023108572,0.01427505,0.0026863376,0.0,0.0,0.0,0.0,1311004,1311004,6620172,197388,0,0,831,2,1,2,0,48,0,0,0,0,0,0,0
21749160000,21749080000,6.0611746e-05,0.0024481649,0.005872833,8389271,0,0.37387535,0.4184039,0.009935179,0.01734698,0.010694995,0.00067355356,0.0,0.0,0.0,0.0,1311004,1311004,6620172,197388,0,0,831,2,1,2,0,48,0,0,0,0,0,0,0
21749360000,21749280000,9.40235e-05,0.002459645,0.0069710985,8389271,0,0.3708024,0.41574973,0.015339783,0.018902183,0.014737283,0.0010675009,0.0,0.0,0.0,0.0,1311004,1311004,6620172,197388,0,0,831,2,1,2,0,48,0,0,0,0,0,0,0
21749552000,21749472000,0.0002555216,0.003265566,0.008128646,8389271,0,0.3673057,0.41550893,0.024297541,0.034876544,0.011151288,0.0059090834,0.0,0.0,0.0,0.0,1311004,1311004,6620172,197388,0,0,831,2,1,2,0,48,0,0,0,0,0,0,0
21749760000,21749680000,0.000108748594,0.0024618302,0.005539431,8389271,0,0.36541873,0.41358173,0.0051448923,0.017335363,0.013517837,0.0016918159,0.0,0.0,0.0,0.0,1311004,1311004,6620172,197388,0,0,831,2,1,2,0,48,0,0,0,0,0,0,0
21749960000,21749880000,1.4565186e-05,0.002268293,0.0055853957,8389271,0,0.38345015,0.41968015,0.004899842,0.017335363,0.013517837,0.0018924485,0.0,0.0,0.0,0.0,1311004,1311004,6620172,197388,0,0,831,2,1,2,0,48,0,0,0,0,0,0,0
21750152000,21750072000,7.213883e-05,0.0007577178,0.0019027578,8389271,0,0.37876186,0.4193243,0.008110133,0.019111373,0.018996006,0.0037157598,0.0,0.0,0.0,0.0,1311004,1311004,6620172,197388,0,0,831,2,1,2,0,48,0,0,0,0,0,0,0
21750352000,21750272000,9.35771e-05,0.0025122091,0.0074051283,8389271,0,0.37522,0.41661593,0.0028034816,0.03131593,0.015900662,0.002199824,0.0,0.0,0.0,0.0,1311004,1311004,6620172,197388,0,0,831,2,1,2,0,48,0,0,0,0,0,0,0
21750560000,21750480000,8.597424e-05,0.0012404181,0.004589257,8389271,0,0.37271821,0.41751596,0.0061850967,0.019301943,0.014056997,0.00652362,0.0,0.0,0.0,0.0,1311004,1311004,6620172,197388,0,0,831,2,1,2,0,48,0,0,0,0,0,0,0
21750752000,21750672000,0.00011766402,0.0013271616,0.0035050695,8389271,0,0.36907873,0.41727078,0.023683917,0.019411525,0.0136058405,0.0075033214,0.0,0.0,0.0,0.0,1311004,1311004,6620172,197388,0,0,831,2,1,2,0,48,0,0,0,0,0,0,0
21750960000,21750880000,9.9071956e-05,0.0012006159,0.0016117807,8389271,0,0.36708498,0.41528893,0.004655341,0.0071281334,0.018052664,0.0013584768,0.0,0.0,0.0,0.0,1311004,1311004,6620172,197388,0,0,831,2,1,2,0,48,0,0,0,0,0,0,0
21751160000,21751080000,4.9970407e-05,0.002635255,0.0063889385,8389271,0,0.38532168,0.4213445,0.0031227837,0.0071281334,0.018052664,0.0010093844,0.0,0.0,0.0,0.0,1311004,1311004,6620172,197388,0,0,831,2,1,2,0,48,0,0,0,0,0,0,0
21751360000,21751280000,5.5113105e-05,0.0024154722,0.0057646404,8389271,0,0.381151,0.41849032,0.008334785,0.025013752,0.009303671,0.0038124349,0.0,0.0,0.0,0.0,1311004,1311004,6620172,197388,0,0,831,2,1,2,0,48,0,0,0,0,0,0,0
21751552000,21751472000,0.00010388719,0.0024326073,0.0054641874,8389271,0,0.37667295,0.41809666,0.018219857,0.008599814,0.012846123,0.005493879,0.0,0.0,0.0,0.0,1311004,1311004,6620172,197388,0,0,831,2,1,2,0,48,0,0,0,0,0,0,0
21751752000,21751672000,2.2756245e-05,0.002486114,0.004461771,8389271,0,0.3733658,0.4183283,0.006966056,0.012140138,0.016632386,0.00018007625,0.0,0.0,0.0,0.0,1311004,1311004,6620172,197388,0,0,831,2,1,2,0,48,0,0,0,0,0,0,0
21751960000,21751880000,0.00013371934,0.0027949994,0.0062283534,8389271,0,0.37099296,0.4161992,0.013726986,0.009325802,0.010044173,0.00206311,0.0,0.0,0.0,0.0,1311004,1311004,6620172,197388,0,0,831,2,1,2,0,48,0,0,0,0,0,0,0
21752160000,21752080000,0.000114979775,0.0022859727,0.0054004863,8389271,0,0.36817148,0.41646993,0.008040051,0.008185735,0.009314769,0.0017263817,0.0,0.0,0.0,0.0,1311004,1311004,6620172,197388,0,0,831,2,1,2,0,48,0,0,0,0,0,0,0
21752352000,21752272000,3.6155012e-05,0.002198159,0.0048847315,8389271,0,0.36490035,0.41616836,0.011401115,0.008326657,0.013520389,0.0038165075,0.0,0.0,0.0,0.0,1311004,1311004,6620172,197388,0,0,831,2,1,2,0,48,0,0,0,0,0,0,0
21752552000,21752472000,0.00018958849,0.002495534,0.006790072,8389271,0,0.3828849,0.4220641,0.022888752,0.008326657,0.013520389,0.0076354267,0.0,0.0,0.0,0.0,1311004,1311004,6620172,197388,0,0,831,2,1,2,0,48,0,0,0,0,0,0,0
21752752000,21752672000,0.00014092054,0.002954208,0.0057740873,8389271,0,0.37893638,0.41914952,0.0053966236,0.017588923,0.017617939,0.0001237939,0.0,0.0,0.0,0.0,1311004,1311004,6620172,197388,0,0,831,2,1,2,0,48,0,0,0,0,0,0,0
21752952000,21752872000,6.0741564e-05,0.003656262,0.0067053796,8389271,0,0.37537655,0.4193141,0.01029459,0.019874662,0.016088862,0.00044326746,0.0,0.0,0.0,0.0,1311004,1311004,6620172,197388,0,0,831,2,1,2,0,48,0,0,0,0,0,0,0
21753160000,21753080000,7.158956e-05,0.004422365,0.010036123,8389271,0,0.37286025,0.41713354,0.0029423977,0.019105814,0.012066385,0.0056914487,0.0,0.0,0.0,0.0,1311004,1311004,6620172,197388,0,0,831,2,1,2,0,48,0,0,0,0,0,0,0
21753352000,21753272000,0.00014586415,0.0059193345,0.011723115,8389271,0,0.36920667,0.41678414,0.006950893,0.033630665,0.014213507,0.0010112294,0.0,0.0,0.0,0.0,1311004,1311004,6620172,197388,0,0,831,2,1,2,0,48,0,0,0,0,0,0,0
21753560000,21753480000,0.00015389758,0.0043745465,0.009628775,8389271,0,0.3672005,0.4176242,0.025831452,0.014163768,0.012261663,0.0020823015,0.0,0.0,0.0,0.0,1311004,1311004,6620172,197388,0,0,831,2,1,2,0,48,0,0,0,0,0,0,0
21753760000,21753680000,9.297783e-05,0.00256383,0.0078893285,8389271,0,0.3854248,0.42047602,0.014562232,0.014163768,0.012261663,0.002120026,0.0,0.0,0.0,0.0,1311004,1311004,6620172,197388,0,0,831,2,1,2,0,48,0,0,0,0,0,0,0
21753960000,21753880000,8.70368e-05,0.0021472198,0.005411543,8389271,0,0.38124272,0.42060432,0.012422974,0.0122054545,0.012947157,0.0039390214,0.0,0.0,0.0,0.0,1311004,1311004,6620172,197388,0,0,831,2,1,2,0,48,0,0,0,0,0,0,0
21754160000,21754080000,0.00010432527,0.0044679665,0.010052303,8389271,0,0.37748504,0.41775095,0.012557294,0.0333023,0.0122833885,0.008410424,0.0,0.0,0.0,0.0,1311004,1311004,6620172,197388,0,0,831,2,1,2,0,48,0,0,0,0,0,0,0
21754360000,21754280000,0.00011040408,0.003567636,0.007641589,8389271,0,0.37408563,0.41793472,0.019674925,0.02009995,0.0083290525,0.00094366167,0.0,0.0,0.0,0.0,1311004,1311004,6620172,197388,0,0,831,2,1,2,0,48,0,0,0,0,0,0,0
21754552000,21754472000,0.00011442168,0.00486072,0.009444981,8389271,0,0.3702932,0.41755858,0.006554188,0.03178271,0.012338838,6.060528e-05,0.0,0.0,0.0,0.0,1311004,1311004,6620172,197388,0,0,831,2,1,2,0,48,0,0,0,0,0,0,0
21754752000,21754672000,0.00010250613,0.0037504367,0.007856677,8389271,0,0.36747962,0.41483757,0.0063640308,0.018956317,0.006738631,0.0037159477,0.0,0.0,0.0,0.0,1311004,1311004,6620172,197388,0,0,831,2,1,2,0,48,0,0,0,0,0,0,0
21754952000,21754872000,0.00011825047,0.0045201574,0.010572342,8389271,0,0.3648977,0.41509348,0.011902924,0.029569542,0.011268395,0.002656308,0.0,0.0,0.0,0.0,1311004,1311004,6620172,197388,0,0,831,2,1,2,0,48,0,0,0,0,0,0,0
21755160000,21755080000,0.00011963535,0.0016369626,0.0055385935,8389271,0,0.3835932,0.42136097,0.014881891,0.029569542,0.011268395,0.001975519,0.0,0.0,0.0,0.0,1311004,1311004,6620172,197388,0,0,831,2,1,2,0,48,0,0,0,0,0,0,0
21755352000,21755272000,9.44957e-05,0.0037934843,0.01004224,8389271,0,0.37889206,0.41785845,0.0064845853,0.03562921,0.013089435,0.0033052887,0.0,0.0,0.0,0.0,1311004,1311004,6620172,197388,0,0,831,2,1,2,0,48,0,0,0,0,0,0,0
21755560000,21755480000,6.247643e-05,0.0021827773,0.006316798,8389271,0,0.37605983,0.4186228,0.0022178772,0.014673764,0.01389239,0.0039028402,0.0,0.0,0.0,0.0,1311004,1311004,6620172,197388,0,0,831,2,1,2,0,48,0,0,0,0,0,0,0
21755752000,21755672000,0.00014132654,0.0043332176,0.010432597,8389271,0,0.37211072,0.41823125,0.0010410978,0.039104313,0.009136454,0.008919334,0.0,0.0,0.0,0.0,1311004,1311004,6620172,197388,0,0,831,2,1,2,0,48,0,0,0,0,0,0,0
21755960000,21755880000,0.00014359488,0.0038354641,0.0076577016,8389271,0,0.36986735,0.41607228,0.011595945,0.033260886,0.015052547,0.0020648902,0.0,0.0,0.0,0.0,1311004,1311004,6620172,197388,0,0,831,2,1,2,0,48,0,0,0,0,0,0,0
21756152000,21756072000,0.00015318418,0.004487901,0.009757209,8389271,0,0.3664754,0.4157465,0.003254712,0.03522195,0.01896314,0.0035845162,0.0,0.0,0.0,0.0,1311004,1311004,6620172,197388,0,0,831,2,1,2,0,48,0,0,0,0,0,0,0
21756360000,21756280000,0.00010421012,0.0009183422,0.004146869,8389271,0,0.38533935,0.41901812,0.006349097,0.03522195,0.01896314,0.002034425,0.0,0.0,0.0,0.0,1311004,1311004,6620172,197388,0,0,831,2,1,2,0,48,0,0,0,0,0,0,0
21756552000,21756472000,0.00014458194,0.0016712535,0.0036378454,8389271,0,0.38042235,0.41859588,0.016007055,0.028975064,0.013305273,0.0035062565,0.0,0.0,0.0,0.0,1311004,1311004,6620172,197388,0,0,831,2,1,2,0,48,0,0,0,0,0,0,0
21756752000,21756672000,0.00011817801,0.0032102007,0.007894227,8389271,0,0.3766889,0.41878903,0.0039019508,0.035918448,0.010598382,0.0064050974,0.0,0.0,0.0,0.0,1311004,1311004,6620172,197388,0,0,831,2,1,2,0,48,0,0,0,0,0,0,0
21756952000,21756872000,9.226175e-05,0.0021024677,0.005372437,8389271,0,0.37331,0.4160501,0.013960002,0.026967155,0.014100608,0.0048640636,0.0,0.0,0.0,0.0,1311004,1311004,6620172,197388,0,0,831,2,1,2,0,48,0,0,0,0,0,0,0
21757152000,21757072000,0.00020519688,0.0034112926,0.008717911,8389271,0,0.37023586,0.41632906,0.008245056,0.037546854,0.008852077,0.0012217028,0.0,0.0,0.0,0.0,1311004,1311004,6620172,197388,0,0,831,2,1,2,0,48,0,0,0,0,0,0,0
21757352000,21757272000,0.0001445584,0.00419881,0.01070456,8389271,0,0.36742604,0.4137053,0.0031970425,0.038388666,0.013604281,0.0024485816,0.0,0.0,0.0,0.0,1311004,1311004,6620172,197388,0,0,831,2,1,2,0,48,0,0,0,0,0,0,0
21757552000,21757472000,0.0001528683,0.004211286,0.0118587725,8389271,0,0.3648465,0.41402078,0.00656515,0.0405954,0.008828999,0.00785334,0.0,0.0,0.0,0.0,1311004,1311004,6620172,197388,0,0,831,2,1,2,0,48,0,0,0,0,0,0,0
21757760000,21757680000,6.967816e-05,0.0020738083,0.004914676,8389271,0,0.3835018,0.4172378,0.008534892,0.0405954,0.008828999,0.0099004945,0.0,0.0,0.0,0.0,1311004,1311004,6620172,197388,0,0,831,2,1,2,0,48,0,0,0,0,0,0,0
21757960000,21757880000,9.0237634e-05,0.00092705886,0.0012901349,8389271,0,0.3795494,0.41745746,0.0008922524,0.032692377,0.013051232,0.0071261995,0.0,0.0,0.0,0.0,1311004,1311004,6620172,197388,0,0,831,2,1,2,0,48,0,0,0,0,0,0,0
21758152000,21758072000,0.00010833652,0.0016675479,0.0059691384,8389271,0,0.3752631,0.4171183,0.011834163,0.035182875,0.017592356,0.008609538,0.0,0.0,0.0,0.0,1311004,1311004,6620172,197388,0,0,831,2,1,2,0,48,0,0,0,0,0,0,0
21758360000,21758280000,9.1884474e-05,0.00218896,0.0051595313,8389271,0,0.3727509,0.41501638,0.0031710085,0.035837118,0.014133363,9.9568526e-05,0.0,0.0,0.0,0.0,1311004,1311004,6620172,197388,0,0,831,2,1,2,0,48,0,0,0,0,0,0,0
21758560000,21758480000,3.3656663e-05,0.0038646038,0.00852923,8389271,0,0.36980188,0.4153283,0.0046263104,0.045737926,0.01512055,0.003110148,0.0,0.0,0.0,0.0,1311004,1311004,6620172,197388,0,0,831,2,1,2,0,48,0,0,0,0,0,0,0
21758760000,21758680000,0.00012663662,0.004149494,0.009286409,8389271,0,0.36710134,0.4127792,0.022503091,0.038314193,0.014408486,0.00077754434,0.0,0.0,0.0,0.0,1311004,1311004,6620172,197388,0,0,831,2,1,2,0,48,0,0,0,0,0,0,0
21758952000,21758872000,9.0712645e-05,0.0032263417,0.004757723,8389271,0,0.38447386,0.4177722,0.02224838,0.038314193,0.014408486,0.0011038305,0.0,0.0,0.0,0.0,1311004,1311004,6620172,197388,0,0,831,2,1,2,0,48,0,0,0,0,0,0,0
21759152000,21759072000,6.3953565e-05,0.0040359,0.0070406953,8389271,0,0.38033292,0.4179832,0.006047283,0.018855698,0.00934621,0.003392115,0.0,0.0,0.0,0.0,1311004,1311004,6620172,197388,0,0,831,2,1,2,0,48,0,0,0,0,0,0,0
21759360000,21759280000,7.946213e-05,0.0020587035,0.0043752366,8389271,0,0.37733355,0.4158843,0.004946513,0.03767779,0.009262805,0.006825139,0.0,0.0,0.0,0.0,1311004,1311004,6620172,197388,0,0,831,2,1,2,0,48,0,0,0,0,0,0,0
21759560000,21759480000,0.00012847125,0.0018434626,0.0051969355,8389271,0,0.37394673,0.4161965,0.022264794,0.03434497,0.009593223,0.010341861,0.0,0.0,0.0,0.0,1311004,1311004,6620172,197388,0,0,831,2,1,2,0,48,0,0,0,0,0,0,0
21759760000,21759680000,0.00017080473,0.0024796722,0.0071292887,8389271,0,0.37086508,0.4136521,0.029509278,0.038880624,0.010699612,0.006497489,0.0,0.0,0.0,0.0,1311004,1311004,6620172,197388,0,0,831,2,1,2,0,48,0,0,0,0,0,0,0
21759960000,21759880000,3.7590027e-05,0.0044711963,0.0101175355,8389271,0,0.36804816,0.4140472,0.0045343484,0.0441171,0.010948764,0.011227359,0.0,0.0,0.0,0.0,1311004,1311004,6620172,197388,0,0,831,2,1,2,0,48,0,0,0,0,0,0,0
21760152000,21760072000,8.296876e-05,0.004791884,0.012601031,8389271,0,0.36478513,0.41101947,0.012348647,0.049826916,0.012752608,0.0053980057,0.0,0.0,0.0,0.0,1311004,1311004,6620172,197388,0,0,831,2,1,2,0,48,0,0,0,0,0,0,0
21760360000,21760280000,6.8e-05,0.0031798305,0.00565007,8389271,0,0.3834009,0.41710845,0.020401983,0.049826916,0.012752608,0.0041418383,0.0,0.0,0.0,0.0,1311004,1311004,6620172,197388,0,0,831,2,1,2,0,48,0,0,0,0,0,0,0
21760560000,21760480000,6.48459e-05,0.0036305902,0.0070047816,8389271,0,0.37945977,0.4144371,0.003958001,0.054780655,0.01693068,0.009584367,0.0,0.0,0.0,0.0,1311004,1311004,6620172,197388,0,0,831,2,1,2,0,48,0,0,0,0,0,0,0
21760760000,21760680000,0.00010857446,0.004111636,0.010762089,8389271,0,0.37590346,0.4147606,0.0069625233,0.062169783,0.011769157,0.013619362,0.0,0.0,0.0,0.0,1311004,1311004,6620172,197388,0,0,831,2,1,2,0,48,0,0,0,0,0,0,0
21760960000,21760880000,8.061697e-05,0.0035566941,0.009127677,8389271,0,0.37267566,0.41509855,0.016123785,0.040555246,0.012669992,0.0074723796,0.0,0.0,0.0,0.0,1311004,1311004,6620172,197388,0,0,831,2,1,2,0,48,0,0,0,0,0,0,0
21761160000,21761080000,7.612207e-05,0.0036890032,0.0078041507,8389271,0,0.36973178,0.41255465,1.06781845e-05,0.034719102,0.011950438,0.003027078,0.0,0.0,0.0,0.0,1311004,1311004,6620172,197388,0,0,831,2,1,2,0,48,0,0,0,0,0,0,0
21761360000,21761280000,9.622211e-05,0.0034642261,0.0071864077,8389271,0,0.36703554,0.4129592,0.0047847657,0.047577206,0.014046887,0.0015430452,0.0,0.0,0.0,0.0,1311004,1311004,6620172,197388,0,0,831,2,1,2,0,48,0,0,0,0,0,0,0
21761560000,21761480000,8.90238e-05,0.0028836352,0.0062642917,8389271,0,0.38514042,0.4185317,0.011728454,0.047577206,0.014046887,0.00813572,0.0,0.0,0.0,0.0,1311004,1311004,6620172,197388,0,0,831,2,1,2,0,48,0,0,0,0,0,0,0
21761752000,21761672000,5.927385e-05,0.0021219146,0.0047279107,8389271,0,0.3802486,0.41525018,0.010430652,0.030036204,0.011323734,0.0025436895,0.0,0.0,0.0,0.0,1311004,1311004,6620172,197388,0,0,831,2,1,2,0,48,0,0,0,0,0,0,0
21761960000,21761880000,0.000121027195,0.003754283,0.0068120765,8389271,0,0.3772572,0.4161013,0.009624812,0.035401665,0.011490538,0.012041755,0.0,0.0,0.0,0.0,1311004,1311004,6620172,197388,0,0,831,2,1,2,0,48,0,0,0,0,0,0,0
21762152000,21762072000,8.509176e-05,0.0023545786,0.004605052,8389271,0,0.37323302,0.41582,0.027043412,0.038244538,0.015843205,0.010400466,0.0,0.0,0.0,0.0,1311004,1311004,6620172,197388,0,0,831,2,1,2,0,48,0,0,0,0,0,0,0
21762360000,21762280000,8.5799074e-05,0.0030624666,0.0066106943,8389271,0,0.37086105,0.4137775,0.020539705,0.040415626,0.011046365,0.011815155,0.0,0.0,0.0,0.0,1311004,1311004,6620172,197388,0,0,831,2,1,2,0,48,0,0,0,0,0,0,0
21762560000,21762480000,0.00015075786,0.004767359,0.01056585,8389271,0,0.36804315,0.41411892,0.00023538865,0.06051091,0.010040908,0.007915955,0.0,0.0,0.0,0.0,1311004,1311004,6620172,197388,0,0,831,2,1,2,0,48,0,0,0,0,0,0,0
21762752000,21762672000,0.00012941117,0.0033283967,0.007072676,8389271,0,0.3648382,0.41107878,0.008907431,0.031963542,0.011467684,0.002318913,0.0,0.0,0.0,0.0,1311004,1311004,6620172,197388,0,0,831,2,1,2,0,48,0,0,0,0,0,0,0
21762960000,21762880000,1.5599264e-05,0.002504589,0.005904821,8389271,0,0.3834519,0.4171327,0.0020407164,0.031963542,0.011467684,0.010251761,0.0,0.0,0.0,0.0,1311004,1311004,6620172,197388,0,0,831,2,1,2,0,48,0,0,0,0,0,0,0
21763160000,21763080000,0.00017274507,0.0034791806,0.008202571,8389271,0,0.37950364,0.41740528,0.049159016,0.0071994043,0.01194141,0.016114779,0.0,0.0,0.0,0.0,1311004,1311004,6620172,197388,0,0,831,2,1,2,0,48,0,0,0,0,0,0,0
21763352000,21763272000,9.793206e-05,0.0025900926,0.0044393176,8389271,0,0.37522227,0.41419,0.014948792,0.034723595,0.011270623,0.0061880206,0.0,0.0,0.0,0.0,1311004,1311004,6620172,197388,0,0,831,2,1,2,0,48,0,0,0,0,0,0,0
21763552000,21763472000,0.00011603799,0.0027898347,0.0048070755,8389271,0,0.37200326,0.41450062,0.02014387,0.036382414,0.012312863,0.005356116,0.0,0.0,0.0,0.0,1311004,1311004,6620172,197388,0,0,831,2,1,2,0,48,0,0,0,0,0,0,0
21763760000,21763680000,8.734599e-05,0.0020488224,0.0036081874,8389271,0,0.36976126,0.41249743,0.001401849,0.024924563,0.009982977,0.011370395,0.0,0.0,0.0,0.0,1311004,1311004,6620172,197388,0,0,831,2,1,2,0,48,0,0,0,0,0,0,0
21763952000,21763872000,6.965189e-05,0.0010422453,0.0028411276,8389271,0,0.36637592,0.412294,0.01199258,0.028198997,0.010250883,0.016584134,0.0,0.0,0.0,0.0,1311004,1311004,6620172,197388,0,0,831,2,1,2,0,48,0,0,0,0,0,0,0
21764152000,21764072000,5.6045785e-05,0.00275603,0.0058657196,8389271,0,0.38439378,0.41776162,0.030956533,0.028198997,0.010250883,0.008027387,0.0,0.0,0.0,0.0,1311004,1311004,6620172,197388,0,0,831,2,1,2,0,48,0,0,0,0,0,0,0
21764360000,21764280000,0.00012497604,0.002018469,0.0036593506,8389271,0,0.38100177,0.41561818,0.009438664,0.034476735,0.006263738,0.007529824,0.0,0.0,0.0,0.0,1311004,1311004,6620172,197388,0,0,831,2,1,2,0,48,0,0,0,0,0,0,0
21764560000,21764480000,6.31519e-05,0.0012226813,0.003446266,8389271,0,0.3772661,0.41591567,0.003302454,0.0368511,0.010255024,0.0037871713,0.0,0.0,0.0,0.0,1311004,1311004,6620172,197388,0,0,831,2,1,2,0,48,0,0,0,0,0,0,0
21764752000,21764672000,7.558702e-05,0.0018771457,0.0041998345,8389271,0,0.37317488,0.41277453,0.0009545677,0.010888706,0.007966356,0.0052097943,0.0,0.0,0.0,0.0,1311004,1311004,6620172,197388,0,0,831,2,1,2,0,48,0,0,0,0,0,0,0
21764960000,21764880000,6.141218e-05,0.002210462,0.008244005,8389271,0,0.37080643,0.41370755,0.0010398511,0.0266993,0.010203847,0.009864157,0.0,0.0,0.0,0.0,1311004,1311004,6620172,197388,0,0,831,2,1,2,0,48,0,0,0,0,0,0,0
21765160000,21765080000,7.614568e-05,0.002980788,0.0070827412,8389271,0,0.36799192,0.41408038,0.015490871,0.019136187,0.008346304,0.010418582,0.0,0.0,0.0,0.0,1311004,1311004,6620172,197388,0,0,831,2,1,2,0,48,0,0,0,0,0,0,0
21765360000,21765280000,0.00012225308,0.0017755901,0.0032952803,8389271,0,0.36540827,0.41159815,0.006071175,0.02735576,0.009667862,0.009284147,0.0,0.0,0.0,0.0,1311004,1311004,6620172,197388,0,0,831,2,1,2,0,48,0,0,0,0,0,0,0
21765560000,21765480000,8.623187e-05,0.0030412117,0.007552692,8389271,0,0.38330755,0.41704997,0.022065304,0.02735576,0.009667862,0.012925339,0.0,0.0,0.0,0.0,1311004,1311004,6620172,197388,0,0,831,2,1,2,0,48,0,0,0,0,0,0,0
21765760000,21765680000,0.0001008701,0.0020012753,0.00586363,8389271,0,0.37937507,0.41730177,0.0041986615,0.025425805,0.01344796,0.0067065903,0.0,0.0,0.0,0.0,1311004,1311004,6620172,197388,0,0,831,2,1,2,0,48,0,0,0,0,0,0,0
21765960000,21765880000,3.5604033e-05,0.0017347942,0.00314269,8389271,0,0.3758258,0.41463953,0.003001817,0.02816008,0.013378092,0.008009585,0.0,0.0,0.0,0.0,1311004,1311004,6620172,197388,0,0,831,2,1,2,0,48,0,0,0,0,0,0,0
21766160000,21766080000,4.691418e-05,0.0024666477,0.0060823313,8389271,0,0.3726031,0.41493776,0.0052699745,0.012843506,0.014772411,0.010931338,0.0,0.0,0.0,0.0,1311004,1311004,6620172,197388,0,0,831,2,1,2,0,48,0,0,0,0,0,0,0
21766352000,21766272000,4.8774e-05,0.0020854836,0.005997369,8389271,0,0.36896995,0.41469723,0.00083284185,0.019844752,0.013073696,0.007117734,0.0,0.0,0.0,0.0,1311004,1311004,6620172,197388,0,0,831,2,1,2,0,48,0,0,0,0,0,0,0
21766560000,21766480000,5.1960273e-05,0.002134923,0.0053661712,8389271,0,0.36697027,0.41273877,0.0005307684,0.0230403,0.012821526,0.0029821463,0.0,0.0,0.0,0.0,1311004,1311004,6620172,197388,0,0,831,2,1,2,0,48,0,0,0,0,0,0,0
21766752000,21766672000,6.074225e-05,0.0026162649,0.0060299686,8389271,0,0.38427472,0.41764465,0.020734016,0.0230403,0.012821526,0.00915483,0.0,0.0,0.0,0.0,1311004,1311004,6620172,197388,0,0,831,2,1,2,0,48,0,0,0,0,0,0,0
21766960000,21766880000,5.5754856e-05,0.0023556645,0.00483937,8389271,0,0.38089463,0.41552562,0.010226218,0.03170512,0.0063979398,0.012896064,0.0,0.0,0.0,0.0,1311004,1311004,6620172,197388,0,0,831,2,1,2,0,48,0,0,0,0,0,0,0
21767152000,21767072000,8.3055886e-05,0.0024826035,0.0064345067,8389271,0,0.37644637,0.4152353,0.028996836,0.016538221,0.0067448975,0.005897989,0.0,0.0,0.0,0.0,1311004,1311004,6620172,197388,0,0,831,2,1,2,0,48,0,0,0,0,0,0,0
21767352000,21767272000,2.0689311e-05,0.0026304359,0.0075819027,8389271,0,0.37308803,0.41553557,0.0013540108,0.013310815,0.008124299,0.008443041,0.0,0.0,0.0,0.0,1311004,1311004,6620172,197388,0,0,831,2,1,2,0,48,0,0,0,0,0,0,0
21767560000,21767480000,7.648978e-05,0.00087552326,0.002815164,8389271,0,0.37072596,0.41350982,0.0016724165,0.041857317,0.0073899576,0.003360392,0.0,0.0,0.0,0.0,1311004,1311004,6620172,197388,0,0,831,2,1,2,0,48,0,0,0,0,0,0,0
21767752000,21767672000,0.00011574008,0.0016374411,0.0026682382,8389271,0,0.36723262,0.4132821,0.007784029,0.033604424,0.012358707,0.0046437155,0.0,0.0,0.0,0.0,1311004,1311004,6620172,197388,0,0,831,2,1,2,0,48,0,0,0,0,0,0,0
21767952000,21767872000,1.2014117e-05,0.0017936758,0.004553822,8389271,0,0.3852739,0.41580757,0.00672508,0.033604424,0.012358707,0.004955586,0.0,0.0,0.0,0.0,1311004,1311004,6620172,197388,0,0,831,2,1,2,0,48,0,0,0,0,0,0,0
21768160000,21768080000,9.493583e-06,0.0026490402,0.006626519,8389271,0,0.3817726,0.41662544,0.005231322,0.007113763,0.014040103,0.008544576,0.0,0.0,0.0,0.0,1311004,1311004,6620172,197388,0,0,831,2,1,2,0,48,0,0,0,0,0,0,0
21768352000,21768272000,5.3465854e-05,0.0011362713,0.0035119753,8389271,0,0.37728673,0.41633433,0.0012510391,0.028869893,0.016349459,0.004270329,0.0,0.0,0.0,0.0,1311004,1311004,6620172,197388,0,0,831,2,1,2,0,48,0,0,0,0,0,0,0
21768552000,21768472000,5.044752e-05,0.00061085407,0.0023528365,8389271,0,0.37389654,0.41373006,0.002722843,0.02093922,0.02226016,0.007137938,0.0,0.0,0.0,0.0,1311004,1311004,6620172,197388,0,0,831,2,1,2,0,48,0,0,0,0,0,0,0
21768752000,21768672000,3.2466196e-05,0.001866912,0.0037003506,8389271,0,0.3707474,0.41408047,0.002001208,0.037460025,0.010333918,0.004221213,0.0,0.0,0.0,0.0,1311004,1311004,6620172,197388,0,0,831,2,1,2,0,48,0,0,0,0,0,0,0
21768952000,21768872000,9.2936134e-05,0.0040401616,0.008023646,8389271,0,0.36787015,0.41157687,0.009222466,0.02656714,0.014004459,8.225871e-05,0.0,0.0,0.0,0.0,1311004,1311004,6620172,197388,0,0,831,2,1,2,0,48,0,0,0,0,0,0,0
21769160000,21769080000,7.313525e-05,0.004301932,0.009843767,8389271,0,0.3659685,0.41253242,0.007674692,0.019766912,0.019138144,0.008181197,0.0,0.0,0.0,0.0,1311004,1311004,6620172,197388,0,0,831,2,1,2,0,48,0,0,0,0,0,0,0
21769360000,21769280000,5.0267365e-05,0.0026713063,0.0057813697,8389271,0,0.3838714,0.4150736,0.011840367,0.019766912,0.019138144,0.009642165,0.0,0.0,0.0,0.0,1311004,1311004,6620172,197388,0,0,831,2,1,2,0,48,0,0,0,0,0,0,0
21769552000,21769472000,2.7538234e-05,0.001950366,0.005285034,8389271,0,0.3791346,0.41479987,0.008067558,0.018514229,0.011294943,0.004742094,0.0,0.0,0.0,0.0,1311004,1311004,6620172,197388,0,0,831,2,1,2,0,48,0,0,0,0,0,0,0
21769760000,21769680000,2.7561446e-05,0.002162953,0.0060436027,8389271,0,0.37625885,0.41570202,0.004178034,0.022080895,0.013636459,0.0065408293,0.0,0.0,0.0,0.0,1311004,1311004,6620172,197388,0,0,831,2,1,2,0,48,0,0,0,0,0,0,0
21769960000,21769880000,9.711609e-05,0.004365624,0.010412055,8389271,0,0.37298423,0.41318426,0.0024718847,0.02405982,0.01709475,0.002593321,0.0,0.0,0.0,0.0,1311004,1311004,6620172,197388,0,0,831,2,1,2,0,48,0,0,0,0,0,0,0
21770160000,21770080000,6.124208e-05,0.001844684,0.005079693,8389271,0,0.36999902,0.41074476,0.014767384,0.020421706,0.016390461,0.008104011,0.0,0.0,0.0,0.0,1311004,1311004,6620172,197388,0,0,831,2,1,2,0,48,0,0,0,0,0,0,0
21770360000,21770280000,9.303718e-05,0.0024691373,0.005950678,8389271,0,0.3672648,0.4112023,0.019252995,0.011017533,0.017149476,0.003287051,0.0,0.0,0.0,0.0,1311004,1311004,6620172,197388,0,0,831,2,1,2,0,48,0,0,0,0,0,0,0
21770560000,21770480000,1.8579125e-05,0.0023645468,0.0071625877,8389271,0,0.38531297,0.41671428,0.0074898014,0.011017533,0.017149476,0.0040147817,0.0,0.0,0.0,0.0,1311004,1311004,6620172,197388,0,0,831,2,1,2,0,48,0,0,0,0,0,0,0
21770752000,21770672000,6.75024e-05,0.0023136123,0.0045344285,8389271,0,0.38039985,0.4135257,0.010884864,0.02320285,0.009032087,0.004885842,0.0,0.0,0.0,0.0,1311004,1311004,6620172,197388,0,0,831,2,1,2,0,48,0,0,0,0,0,0,0
21770960000,21770880000,5.7115518e-05,0.0030889877,0.005268024,8389271,0,0.3773833,0.41446462,0.008259655,0.02529585,0.013987467,0.008387614,0.0,0.0,0.0,0.0,1311004,1311004,6620172,197388,0,0,831,2,1,2,0,48,0,0,0,0,0,0,0
21771160000,21771080000,7.527045e-05,0.0033312084,0.007899427,8389271,0,0.37398303,0.41483587,0.016501313,0.016750019,0.008929295,0.0019283255,0.0,0.0,0.0,0.0,1311004,1311004,6620172,197388,0,0,831,2,1,2,0,48,0,0,0,0,0,0,0
21771352000,21771272000,6.0102942e-05,0.0022691744,0.0042936075,8389271,0,0.37019324,0.41179773,2.4410672e-06,0.010776081,0.012725396,0.009721545,0.0,0.0,0.0,0.0,1311004,1311004,6620172,197388,0,0,831,2,1,2,0,48,0,0,0,0,0,0,0
21771552000,21771472000,6.6216824e-05,0.002911406,0.007219653,8389271,0,0.36737517,0.4122316,0.0018558217,0.017551124,0.010209059,0.0065767183,0.0,0.0,0.0,0.0,1311004,1311004,6620172,197388,0,0,831,2,1,2,0,48,0,0,0,0,0,0,0
21771760000,21771680000,0.00010515389,0.0033140576,0.0065899114,8389271,0,0.36546326,0.41040474,0.0019308836,0.028364377,0.01395743,0.0069622234,0.0,0.0,0.0,0.0,1311004,1311004,6620172,197388,0,0,831,2,1,2,0,48,0,0,0,0,0,0,0
21771960000,21771880000,6.1625986e-05,0.0020724316,0.0070226123,8389271,0,0.38332453,0.41591772,0.016247585,0.028364377,0.01395743,0.00084334234,0.0,0.0,0.0,0.0,1311004,1311004,6620172,197388,0,0,831,2,1,2,0,48,0,0,0,0,0,0,0
21772152000,21772072000,8.6312044e-05,0.00289173,0.007294551,8389271,0,0.37865403,0.41282216,0.015177484,0.021080025,0.018358862,0.002950855,0.0,0.0,0.0,0.0,1311004,1311004,6620172,197388,0,0,831,2,1,2,0,48,0,0,0,0,0,0,0
21772360000,21772280000,7.953447e-05,0.002377033,0.0052784383,8389271,0,0.3758333,0.41382167,0.0015735712,0.019289996,0.009897826,0.003515547,0.0,0.0,0.0,0.0,1311004,1311004,6620172,197388,0,0,831,2,1,2,0,48,0,0,0,0,0,0,0
21772552000,21772472000,5.820457e-05,0.0023610897,0.006951802,8389271,0,0.37190259,0.41368642,0.0106044365,0.014926461,0.020043619,0.0014227035,0.0,0.0,0.0,0.0,1311004,1311004,6620172,197388,0,0,831,2,1,2,0,48,0,0,0,0,0,0,0
21772760000,21772680000,0.00010505614,0.0032974137,0.0089192195,8389271,0,0.369663,0.4118339,0.010348275,0.032792132,0.01549117,0.0006165372,0.0,0.0,0.0,0.0,1311004,1311004,6620172,197388,0,0,831,2,1,2,0,48,0,0,0,0,0,0,0
21772960000,21772880000,7.954061e-05,0.002025009,0.005277799,8389271,0,0.36696628,0.4123181,0.0012255659,0.019186435,0.018154401,0.0019492698,0.0,0.0,0.0,0.0,1311004,1311004,6620172,197388,0,0,831,2,1,2,0,48,0,0,0,0,0,0,0
21773160000,21773080000,4.8410093e-05,0.0020895812,0.0058140242,8389271,0,0.38500106,0.41498563,0.024750516,0.019186435,0.018154401,0.0019810223,0.0,0.0,0.0,0.0,1311004,1311004,6620172,197388,0,0,831,2,1,2,0,48,0,0,0,0,0,0,0
21773360000,21773280000,5.4541273e-05,0.0019694853,0.005509358,8389271,0,0.38093603,0.4153665,0.001748715,0.014732416,0.015267323,0.0034989147,0.0,0.0,0.0,0.0,1311004,1311004,6620172,197388,0,0,831,2,1,2,0,48,0,0,0,0,0,0,0
21773552000,21773472000,6.837595e-05,0.0035308774,0.0084172,8389271,0,0.3764819,0.41517866,0.0026416825,0.019428635,0.010735692,0.0011802106,0.0,0.0,0.0,0.0,1311004,1311004,6620172,197388,0,0,831,2,1,2,0,48,0,0,0,0,0,0,0
21773752000,21773672000,0.00010704986,0.004203888,0.009367023,8389271,0,0.37311777,0.4126849,0.006877983,0.027448965,0.016425444,0.00011516227,0.0,0.0,0.0,0.0,1311004,1311004,6620172,197388,0,0,831,2,1,2,0,48,0,0,0,0,0,0,0
21773952000,21773872000,6.7148554e-05,0.0035199868,0.008881467,8389271,0,0.37005466,0.4130919,0.004892027,0.021340659,0.016134411,0.0012607542,0.0,0.0,0.0,0.0,1311004,1311004,6620172,197388,0,0,831,2,1,2,0,48,0,0,0,0,0,0,0
21774160000,21774080000,5.467661e-05,0.0015173305,0.004134463,8389271,0,0.36799952,0.4112171,0.01878467,0.01048602,0.02132146,0.0011983942,0.0,0.0,0.0,0.0,1311004,1311004,6620172,197388,0,0,831,2,1,2,0,48,0,0,0,0,0,0,0
21774352000,21774272000,7.1224524e-05,0.0012434429,0.002541264,8389271,0,0.36473605,0.41109335,0.000250513,0.020913383,0.015422448,0.00341955,0.0,0.0,0.0,0.0,1311004,1311004,6620172,197388,0,0,831,2,1,2,0,48,0,0,0,0,0,0,0
21774560000,21774480000,3.614191e-05,0.0024793965,0.0066360515,8389271,0,0.38328975,0.41713777,0.0057889475,0.020913383,0.015422448,0.001590478,0.0,0.0,0.0,0.0,1311004,1311004,6620172,197388,0,0,831,2,1,2,0,48,0,0,0,0,0,0,0
21774760000,21774680000,6.4845575e-05,0.002270393,0.0066669034,8389271,0,0.37935734,0.41448757,0.008645725,0.011705051,0.016767178,0.0011480441,0.0,0.0,0.0,0.0,1311004,1311004,6620172,197388,0,0,831,2,1,2,0,48,0,0,0,0,0,0,0
21774960000,21774880000,9.07257e-05,0.0035981894,0.011716199,8389271,0,0.37580723,0.41480064,0.0070404224,0.026570123,0.022839466,0.0062625934,0.0,0.0,0.0,0.0,1311004,1311004,6620172,197388,0,0,831,2,1,2,0,48,0,0,0,0,0,0,0
21775160000,21775080000,0.00012364348,0.00441387,0.012695542,8389271,0,0.37258515,0.4151213,0.009378786,0.041229267,0.018208424,0.0002216601,0.0,0.0,0.0,0.0,1311004,1311004,6620172,197388,0,0,831,2,1,2,0,48,0,0,0,0,0,0,0
21775360000,21775280000,8.3588886e-05,0.0029341609,0.008257124,8389271,0,0.3696455,0.4125609,0.012800496,0.023618445,0.020987554,0.0046452964,0.0,0.0,0.0,0.0,1311004,1311004,6620172,197388,0,0,831,2,1,2,0,48,0,0,0,0,0,0,0
21775560000,21775480000,0.00010277767,0.0019484374,0.0065737762,8389271,0,0.3669516,0.41292024,0.02520722,0.0180151,0.016465403,0.0019932808,0.0,0.0,0.0,0.0,1311004,1311004,6620172,197388,0,0,831,2,1,2,0,48,0,0,0,0,0,0,0
21775752000,21775672000,1.2598182e-05,0.0027027344,0.008116672,8389271,0,0.38423643,0.41780782,0.0053322846,0.0180151,0.016465403,0.00356522,0.0,0.0,0.0,0.0,1311004,1311004,6620172,197388,0,0,831,2,1,2,0,48,0,0,0,0,0,0,0
21775960000,21775880000,9.4327224e-05,0.0040124226,0.012463248,8389271,0,0.38085875,0.41567528,0.011855478,0.037767876,0.014920688,0.0010735843,0.0,0.0,0.0,0.0,1311004,1311004,6620172,197388,0,0,831,2,1,2,0,48,0,0,0,0,0,0,0
21776152000,21776072000,0.00013154335,0.0035137031,0.011450132,8389271,0,0.37641415,0.41537496,0.00084368,0.023949852,0.018732408,0.0026788448,0.0,0.0,0.0,0.0,1311004,1311004,6620172,197388,0,0,831,2,1,2,0,48,0,0,0,0,0,0,0
21776352000,21776272000,0.00013947196,0.0040020733,0.013478418,8389271,0,0.37305677,0.4127728,0.0010885443,0.033781767,0.014581873,0.0051561124,0.0,0.0,0.0,0.0,1311004,1311004,6620172,197388,0,0,831,2,1,2,0,48,0,0,0,0,0,0,0
21776552000,21776472000,0.00020393064,0.0030069728,0.009355956,8389271,0,0.37000066,0.41315794,0.051258523,0.028989611,0.018224066,0.003080008,0.0,0.0,0.0,0.0,1311004,1311004,6620172,197388,0,0,831,2,1,2,0,48,0,0,0,0,0,0,0
21776752000,21776672000,6.696743e-05,0.0028440717,0.008585412,8389271,0,0.36720458,0.41354764,0.0082742805,0.026410356,0.012258348,0.0026904175,0.0,0.0,0.0,0.0,1311004,1311004,6620172,197388,0,0,831,2,1,2,0,48,0,0,0,0,0,0,0
21776952000,21776872000,7.364202e-05,0.0020194314,0.004586707,8389271,0,0.36463687,0.41109216,0.007287182,0.017253691,0.017209528,0.0022903366,0.0,0.0,0.0,0.0,1311004,1311004,6620172,197388,0,0,831,2,1,2,0,48,0,0,0,0,0,0,0
21777152000,21777072000,1.46013845e-05,0.003435455,0.0083654355,8389271,0,0.38242278,0.41652167,0.0059285993,0.017253691,0.017209528,0.003872736,0.0,0.0,0.0,0.0,1311004,1311004,6620172,197388,0,0,831,2,1,2,0,48,0,0,0,0,0,0,0
21777360000,21777280000,0.000114311755,0.0024958744,0.005646314,8389271,0,0.37925473,0.41442952,0.019405998,0.034610923,0.019606272,0.006026811,0.0,0.0,0.0,0.0,1311004,1311004,6620172,197388,0,0,831,2,1,2,0,48,0,0,0,0,0,0,0
21777552000,21777472000,8.594553e-05,0.0018258258,0.0054296637,8389271,0,0.3749993,0.41415614,0.0026986816,0.022303618,0.019445114,0.001228601,0.0,0.0,0.0,0.0,1311004,1311004,6620172,197388,0,0,831,2,1,2,0,48,0,0,0,0,0,0,0
21777760000,21777680000,0.00010634933,0.002684131,0.008632012,8389271,0,0.37250403,0.41503525,0.007875424,0.038101878,0.025396546,0.004270432,0.0,0.0,0.0,0.0,1311004,1311004,6620172,197388,0,0,831,2,1,2,0,48,0,0,0,0,0,0,0
21777960000,21777880000,7.100312e-05,0.003435186,0.01106758,8389271,0,0.3695727,0.4124609,0.02141621,0.04114988,0.024134513,0.006339791,0.0,0.0,0.0,0.0,1311004,1311004,6620172,197388,0,0,831,2,1,2,0,48,0,0,0,0,0,0,0
21778160000,21778080000,0.00013416975,0.0026466227,0.0075280285,8389271,0,0.3668859,0.4128054,0.0049994504,0.030034216,0.024128465,0.00072387385,0.0,0.0,0.0,0.0,1311004,1311004,6620172,197388,0,0,831,2,1,2,0,48,0,0,0,0,0,0,0
21778360000,21778280000,0.00010669663,0.002852618,0.006938409,8389271,0,0.38491762,0.418249,0.011926657,0.030034216,0.024128465,0.0072863116,0.0,0.0,0.0,0.0,1311004,1311004,6620172,197388,0,0,831,2,1,2,0,48,0,0,0,0,0,0,0
21778552000,21778472000,0.00014656893,0.0017056895,0.003997286,8389271,0,0.38005155,0.41493854,0.029954368,0.027757468,0.02112438,0.0066388138,0.0,0.0,0.0,0.0,1311004,1311004,6620172,197388,0,0,831,2,1,2,0,48,0,0,0,0,0,0,0
21778752000,21778672000,0.00011966979,0.0013900343,0.003728464,8389271,0,0.37635344,0.41520986,0.007248637,0.026988875,0.010753628,0.0032199998,0.0,0.0,0.0,0.0,1311004,1311004,6620172,197388,0,0,831,2,1,2,0,48,0,0,0,0,0,0,0
21778960000,21778880000,9.76142e-05,0.0012141798,0.0025108939,8389271,0,0.37377644,0.4131953,0.006143477,0.033040576,0.025340768,0.0019949183,0.0,0.0,0.0,0.0,1311004,1311004,6620172,197388,0,0,831,2,1,2,0,48,0,0,0,0,0,0,0
