timestamp,timestamp_sample,gps_hvel[0],gps_hvel[1],gps_vvel,gps_hpos[0],gps_hpos[1],gps_vpos,ev_hvel[0],ev_hvel[1],ev_vvel,ev_hpos[0],ev_hpos[1],ev_vpos,rng_vpos,baro_vpos,aux_hvel[0],aux_hvel[1],aux_vvel,flow[0],flow[1],heading,mag_field[0],mag_field[1],mag_field[2],drag[0],drag[1],airspeed,beta,hagl,hagl_rate
21726356000,21726276000,-0.004405882,0.011980852,0.0092541585,0.0004581809,0.002026558,0.0,0.0,0.0,0.0,0.0,0.0,0.0,0.0,-0.0037841797,0.0,0.0,nan,0.0,0.0,0.006849289,-0.0005450472,0.0016117692,-0.0027478933,0.0,0.0,0.0,0.0,0.0,0.0
21726364000,21726284000,-0.004405882,0.011980852,0.0092541585,0.0004581809,0.002026558,0.0,0.0,0.0,0.0,0.0,0.0,0.0,0.0,-0.0037841797,0.0,0.0,nan,0.0,0.0,0.014017463,-0.0005450472,0.0016117692,-0.0027478933,0.0,0.0,0.0,0.0,0.0,0.0
21726372000,21726292000,-0.004405882,0.011980852,0.0092541585,0.0004581809,0.002026558,0.0,0.0,0.0,0.0,0.0,0.0,0.0,0.0,0.04374695,0.0,0.0,nan,0.0,0.0,0.014017463,-0.0005450472,0.0016117692,-0.0027478933,0.0,0.0,0.0,0.0,0.0,0.0
21726380000,21726300000,-0.004405882,0.011980852,0.0092541585,0.0004581809,0.002026558,0.0,0.0,0.0,0.0,0.0,0.0,0.0,0.0,0.04374695,0.0,0.0,nan,0.0,0.0,0.014017463,-0.0005450472,0.0016117692,-0.0027478933,0.0,0.0,0.0,0.0,0.0,0.0
21726388000,21726308000,-0.004405882,0.011980852,0.0092541585,0.0004581809,0.002026558,0.0,0.0,0.0,0.0,0.0,0.0,0.0,0.0,0.04374695,0.0,0.0,nan,0.0,0.0,0.014017463,-0.0005450472,0.0016117692,-0.0027478933,0.0,0.0,0.0,0.0,0.0,0.0
21726396000,21726316000,-0.004405882,0.011980852,0.0092541585,0.0004581809,0.002026558,0.0,0.0,0.0,0.0,0.0,0.0,0.0,0.0,0.04374695,0.0,0.0,nan,0.0,0.0,0.014017463,-0.0005450472,0.0016117692,-0.0027478933,0.0,0.0,0.0,0.0,0.0,0.0
21726404000,21726324000,-0.004405882,0.011980852,0.0092541585,0.0004581809,0.002026558,0.0,0.0,0.0,0.0,0.0,0.0,0.0,0.0,0.04374695,0.0,0.0,nan,0.0,0.0,0.014017463,-0.0005450472,0.0016117692,-0.0027478933,0.0,0.0,0.0,0.0,0.0,0.0
21726412000,21726332000,-0.004405882,0.011980852,0.0092541585,0.0004581809,0.002026558,0.0,0.0,0.0,0.0,0.0,0.0,0.0,0.0,0.04374695,0.0,0.0,nan,0.0,0.0,0.014017463,-0.0005450472,0.0016117692,-0.0027478933,0.0,0.0,0.0,0.0,0.0,0.0
21726420000,21726340000,-0.004405882,0.011980852,0.0092541585,0.0004581809,0.002026558,0.0,0.0,0.0,0.0,0.0,0.0,0.0,0.0,0.04374695,0.0,0.0,nan,0.0,0.0,0.014017463,-0.0005450472,0.0016117692,-0.0027478933,0.0,0.0,0.0,0.0,0.0,0.0
21726428000,21726348000,-0.004405882,0.011980852,0.0092541585,0.0004581809,0.002026558,0.0,0.0,0.0,0.0,0.0,0.0,0.0,0.0,0.04374695,0.0,0.0,nan,0.0,0.0,0.014017463,-0.0005450472,0.0016117692,-0.0027478933,0.0,0.0,0.0,0.0,0.0,0.0
21726436000,21726356000,-0.004405882,0.011980852,0.0092541585,0.0004581809,0.002026558,0.0,0.0,0.0,0.0,0.0,0.0,0.0,0.0,-0.0012054443,0.0,0.0,nan,0.0,0.0,0.00395,-0.0005450472,0.0016117692,-0.0027478933,0.0,0.0,0.0,0.0,0.0,0.0
21726444000,21726364000,-0.004405882,0.011980852,0.0092541585,0.0004581809,0.002026558,0.0,0.0,0.0,0.0,0.0,0.0,0.0,0.0,-0.0012054443,0.0,0.0,nan,0.0,0.0,0.00395,-0.0005450472,0.0016117692,-0.0027478933,0.0,0.0,0.0,0.0,0.0,0.0
21726452000,21726372000,-0.004405882,0.011980852,0.0092541585,0.0004581809,0.002026558,0.0,0.0,0.0,0.0,0.0,0.0,0.0,0.0,-0.0012054443,0.0,0.0,nan,0.0,0.0,0.00395,-0.0005450472,0.0016117692,-0.0027478933,0.0,0.0,0.0,0.0,0.0,0.0
21726460000,21726380000,-0.004405882,0.011980852,0.0092541585,0.0004581809,0.002026558,0.0,0.0,0.0,0.0,0.0,0.0,0.0,0.0,-0.0012054443,0.0,0.0,nan,0.0,0.0,0.00395,-0.0005450472,0.0016117692,-0.0027478933,0.0,0.0,0.0,0.0,0.0,0.0
21726468000,21726388000,-0.004405882,0.011980852,0.0092541585,0.0004581809,0.002026558,0.0,0.0,0.0,0.0,0.0,0.0,0.0,0.0,-0.0012054443,0.0,0.0,nan,0.0,0.0,0.00395,-0.0005450472,0.0016117692,-0.0027478933,0.0,0.0,0.0,0.0,0.0,0.0
21726476000,21726396000,-0.004405882,0.011980852,0.0092541585,0.0004581809,0.002026558,0.0,0.0,0.0,0.0,0.0,0.0,0.0,0.0,-0.0012054443,0.0,0.0,nan,0.0,0.0,0.00395,-0.0005450472,0.0016117692,-0.0027478933,0.0,0.0,0.0,0.0,0.0,0.0
21726484000,21726404000,-0.004405882,0.011980852,0.0092541585,0.0004581809,0.002026558,0.0,0.0,0.0,0.0,0.0,0.0,0.0,0.0,-0.0012054443,0.0,0.0,nan,0.0,0.0,0.00395,-0.0005450472,0.0016117692,-0.0027478933,0.0,0.0,0.0,0.0,0.0,0.0
21726492000,21726412000,-0.004405882,0.011980852,0.0092541585,0.0004581809,0.002026558,0.0,0.0,0.0,0.0,0.0,0.0,0.0,0.0,0.07807922,0.0,0.0,nan,0.0,0.0,0.00395,-0.0005450472,0.0016117692,-0.0027478933,0.0,0.0,0.0,0.0,0.0,0.0
21726500000,21726420000,-0.004405882,0.011980852,0.0092541585,0.0004581809,0.002026558,0.0,0.0,0.0,0.0,0.0,0.0,0.0,0.0,0.07807922,0.0,0.0,nan,0.0,0.0,0.00395,-0.0005450472,0.0016117692,-0.0027478933,0.0,0.0,0.0,0.0,0.0,0.0
21726508000,21726428000,-0.004405882,0.011980852,0.0092541585,0.0004581809,0.002026558,0.0,0.0,0.0,0.0,0.0,0.0,0.0,0.0,0.07807922,0.0,0.0,nan,0.0,0.0,0.010925055,-0.0005450472,0.0016117692,-0.0027478933,0.0,0.0,0.0,0.0,0.0,0.0
21726516000,21726436000,-0.004405882,0.011980852,0.0092541585,0.0004581809,0.002026558,0.0,0.0,0.0,0.0,0.0,0.0,0.0,0.0,0.07807922,0.0,0.0,nan,0.0,0.0,0.010925055,-0.0005450472,0.0016117692,-0.0027478933,0.0,0.0,0.0,0.0,0.0,0.0
21726524000,21726444000,-0.004405882,0.011980852,0.0092541585,0.0004581809,0.002026558,0.0,0.0,0.0,0.0,0.0,0.0,0.0,0.0,0.07807922,0.0,0.0,nan,0.0,0.0,0.010925055,-0.0005450472,0.0016117692,-0.0027478933,0.0,0.0,0.0,0.0,0.0,0.0
21726532000,21726452000,-0.004405882,0.011980852,0.0092541585,0.0004581809,0.002026558,0.0,0.0,0.0,0.0,0.0,0.0,0.0,0.0,0.07807922,0.0,0.0,nan,0.0,0.0,0.010925055,-0.0005450472,0.0016117692,-0.0027478933,0.0,0.0,0.0,0.0,0.0,0.0
21726540000,21726460000,-0.004405882,0.011980852,0.0092541585,0.0004581809,0.002026558,0.0,0.0,0.0,0.0,0.0,0.0,0.0,0.0,0.07807922,0.0,0.0,nan,0.0,0.0,0.010925055,-0.0005450472,0.0016117692,-0.0027478933,0.0,0.0,0.0,0.0,0.0,0.0
21726548000,21726468000,-0.004405882,0.011980852,0.0092541585,0.0004581809,0.002026558,0.0,0.0,0.0,0.0,0.0,0.0,0.0,0.0,0.07807922,0.0,0.0,nan,0.0,0.0,0.010925055,-0.0005450472,0.0016117692,-0.0027478933,0.0,0.0,0.0,0.0,0.0,0.0
21726556000,21726476000,-0.004405882,0.011980852,0.0092541585,0.0004581809,0.002026558,0.0,0.0,0.0,0.0,0.0,0.0,0.0,0.0,0.0013580322,0.0,0.0,nan,0.0,0.0,0.010925055,-0.0005450472,0.0016117692,-0.0027478933,0.0,0.0,0.0,0.0,0.0,0.0
21726564000,21726484000,-0.004405882,0.011980852,0.0092541585,0.0004581809,0.002026558,0.0,0.0,0.0,0.0,0.0,0.0,0.0,0.0,0.0013580322,0.0,0.0,nan,0.0,0.0,0.010925055,-0.0005450472,0.0016117692,-0.0027478933,0.0,0.0,0.0,0.0,0.0,0.0
21726572000,21726492000,-0.004405882,0.011980852,0.0092541585,0.0004581809,0.002026558,0.0,0.0,0.0,0.0,0.0,0.0,0.0,0.0,0.0013580322,0.0,0.0,nan,0.0,0.0,0.010925055,-0.0005450472,0.0016117692,-0.0027478933,0.0,0.0,0.0,0.0,0.0,0.0
21726580000,21726500000,-0.004405882,0.011980852,0.0092541585,0.0004581809,0.002026558,0.0,0.0,0.0,0.0,0.0,0.0,0.0,0.0,0.0013580322,0.0,0.0,nan,0.0,0.0,0.0016248226,-0.0005450472,0.0016117692,-0.0027478933,0.0,0.0,0.0,0.0,0.0,0.0
21726588000,21726508000,-0.004405882,0.011980852,0.0092541585,0.0004581809,0.002026558,0.0,0.0,0.0,0.0,0.0,0.0,0.0,0.0,0.0013580322,0.0,0.0,nan,0.0,0.0,0.0016248226,-0.0005450472,0.0016117692,-0.0027478933,0.0,0.0,0.0,0.0,0.0,0.0
21726596000,21726516000,-0.004405882,0.011980852,0.0092541585,0.0004581809,0.002026558,0.0,0.0,0.0,0.0,0.0,0.0,0.0,0.0,0.0013580322,0.0,0.0,nan,0.0,0.0,0.0016248226,-0.0005450472,0.0016117692,-0.0027478933,0.0,0.0,0.0,0.0,0.0,0.0
21726604000,21726524000,-0.004405882,0.011980852,0.0092541585,0.0004581809,0.002026558,0.0,0.0,0.0,0.0,0.0,0.0,0.0,0.0,0.0013580322,0.0,0.0,nan,0.0,0.0,0.0016248226,-0.0005450472,0.0016117692,-0.0027478933,0.0,0.0,0.0,0.0,0.0,0.0
21726612000,21726532000,-0.0002747589,-0.0031216214,-0.0015199711,0.0007542372,0.0016622543,0.0,0.0,0.0,0.0,0.0,0.0,0.0,0.0,-0.041030884,0.0,0.0,nan,0.0,0.0,0.0016248226,-0.0005450472,0.0016117692,-0.0027478933,0.0,0.0,0.0,0.0,0.0,0.0
21726620000,21726540000,-0.0002747589,-0.0031216214,-0.0015199711,0.0007542372,0.0016622543,0.0,0.0,0.0,0.0,0.0,0.0,0.0,0.0,-0.041030884,0.0,0.0,nan,0.0,0.0,0.0016248226,-0.0005450472,0.0016117692,-0.0027478933,0.0,0.0,0.0,0.0,0.0,0.0
21726628000,21726548000,-0.0002747589,-0.0031216214,-0.0015199711,0.0007542372,0.0016622543,0.0,0.0,0.0,0.0,0.0,0.0,0.0,0.0,-0.041030884,0.0,0.0,nan,0.0,0.0,0.0016248226,-0.0005450472,0.0016117692,-0.0027478933,0.0,0.0,0.0,0.0,0.0,0.0
21726636000,21726556000,-0.0002747589,-0.0031216214,-0.0015199711,0.0007542372,0.0016622543,0.0,0.0,0.0,0.0,0.0,0.0,0.0,0.0,-0.041030884,0.0,0.0,nan,0.0,0.0,0.0016248226,-0.0005450472,0.0016117692,-0.0027478933,0.0,0.0,0.0,0.0,0.0,0.0
21726644000,21726564000,-0.0002747589,-0.0031216214,-0.0015199711,0.0007542372,0.0016622543,0.0,0.0,0.0,0.0,0.0,0.0,0.0,0.0,-0.041030884,0.0,0.0,nan,0.0,0.0,0.0016248226,-0.0005450472,0.0016117692,-0.0027478933,0.0,0.0,0.0,0.0,0.0,0.0
21726652000,21726572000,-0.0002747589,-0.0031216214,-0.0015199711,0.0007542372,0.0016622543,0.0,0.0,0.0,0.0,0.0,0.0,0.0,0.0,-0.041030884,0.0,0.0,nan,0.0,0.0,-0.018801093,-0.0005450472,0.0016117692,-0.0027478933,0.0,0.0,0.0,0.0,0.0,0.0
21726660000,21726580000,-0.0002747589,-0.0031216214,-0.0015199711,0.0007542372,0.0016622543,0.0,0.0,0.0,0.0,0.0,0.0,0.0,0.0,-0.041030884,0.0,0.0,nan,0.0,0.0,-0.018801093,-0.0005450472,0.0016117692,-0.0027478933,0.0,0.0,0.0,0.0,0.0,0.0
21726668000,21726588000,-0.0002747589,-0.0031216214,-0.0015199711,0.0007542372,0.0016622543,0.0,0.0,0.0,0.0,0.0,0.0,0.0,0.0,-0.041030884,0.0,0.0,nan,0.0,0.0,-0.018801093,-0.0005450472,0.0016117692,-0.0027478933,0.0,0.0,0.0,0.0,0.0,0.0
21726676000,21726596000,-0.0002747589,-0.0031216214,-0.0015199711,0.0007542372,0.0016622543,0.0,0.0,0.0,0.0,0.0,0.0,0.0,0.0,-0.09397888,0.0,0.0,nan,0.0,0.0,-0.018801093,-0.0005450472,0.0016117692,-0.0027478933,0.0,0.0,0.0,0.0,0.0,0.0
21726684000,21726604000,-0.0002747589,-0.0031216214,-0.0015199711,0.0007542372,0.0016622543,0.0,0.0,0.0,0.0,0.0,0.0,0.0,0.0,-0.09397888,0.0,0.0,nan,0.0,0.0,-0.018801093,-0.0005450472,0.0016117692,-0.0027478933,0.0,0.0,0.0,0.0,0.0,0.0
21726692000,21726612000,-0.0002747589,-0.0031216214,-0.0015199711,0.0007542372,0.0016622543,0.0,0.0,0.0,0.0,0.0,0.0,0.0,0.0,-0.09397888,0.0,0.0,nan,0.0,0.0,-0.018801093,-0.0005450472,0.0016117692,-0.0027478933,0.0,0.0,0.0,0.0,0.0,0.0
21726700000,21726620000,-0.0002747589,-0.0031216214,-0.0015199711,0.0007542372,0.0016622543,0.0,0.0,0.0,0.0,0.0,0.0,0.0,0.0,-0.09397888,0.0,0.0,nan,0.0,0.0,-0.018801093,-0.0005450472,0.0016117692,-0.0027478933,0.0,0.0,0.0,0.0,0.0,0.0
21726708000,21726628000,-0.0002747589,-0.0031216214,-0.0015199711,0.0007542372,0.0016622543,0.0,0.0,0.0,0.0,0.0,0.0,0.0,0.0,-0.09397888,0.0,0.0,nan,0.0,0.0,-0.018801093,-0.0005450472,0.0016117692,-0.0027478933,0.0,0.0,0.0,0.0,0.0,0.0
21726716000,21726636000,-0.0002747589,-0.0031216214,-0.0015199711,0.0007542372,0.0016622543,0.0,0.0,0.0,0.0,0.0,0.0,0.0,0.0,-0.09397888,0.0,0.0,nan,0.0,0.0,-0.018801093,-0.0005450472,0.0016117692,-0.0027478933,0.0,0.0,0.0,0.0,0.0,0.0
21726724000,21726644000,-0.0002747589,-0.0031216214,-0.0015199711,0.0007542372,0.0016622543,0.0,0.0,0.0,0.0,0.0,0.0,0.0,0.0,-0.09397888,0.0,0.0,nan,0.0,0.0,-0.0077279806,-0.0005450472,0.0016117692,-0.0027478933,0.0,0.0,0.0,0.0,0.0,0.0
21726732000,21726652000,-0.0002747589,-0.0031216214,-0.0015199711,0.0007542372,0.0016622543,0.0,0.0,0.0,0.0,0.0,0.0,0.0,0.0,-0.0039520264,0.0,0.0,nan,0.0,0.0,-0.0077279806,-0.0005450472,0.0016117692,-0.0027478933,0.0,0.0,0.0,0.0,0.0,0.0
21726740000,21726660000,-0.0002747589,-0.0031216214,-0.0015199711,0.0007542372,0.0016622543,0.0,0.0,0.0,0.0,0.0,0.0,0.0,0.0,-0.0039520264,0.0,0.0,nan,0.0,0.0,-0.0077279806,-0.0005450472,0.0016117692,-0.0027478933,0.0,0.0,0.0,0.0,0.0,0.0
21726748000,21726668000,-0.0002747589,-0.0031216214,-0.0015199711,0.0007542372,0.0016622543,0.0,0.0,0.0,0.0,0.0,0.0,0.0,0.0,-0.0039520264,0.0,0.0,nan,0.0,0.0,-0.0077279806,-0.0005450472,0.0016117692,-0.0027478933,0.0,0.0,0.0,0.0,0.0,0.0
21726756000,21726676000,-0.0002747589,-0.0031216214,-0.0015199711,0.0007542372,0.0016622543,0.0,0.0,0.0,0.0,0.0,0.0,0.0,0.0,-0.0039520264,0.0,0.0,nan,0.0,0.0,-0.0077279806,-0.0005450472,0.0016117692,-0.0027478933,0.0,0.0,0.0,0.0,0.0,0.0
21726764000,21726684000,-0.0002747589,-0.0031216214,-0.0015199711,0.0007542372,0.0016622543,0.0,0.0,0.0,0.0,0.0,0.0,0.0,0.0,-0.0039520264,0.0,0.0,nan,0.0,0.0,-0.0077279806,-0.0005450472,0.0016117692,-0.0027478933,0.0,0.0,0.0,0.0,0.0,0.0
21726772000,21726692000,-0.0002747589,-0.0031216214,-0.0015199711,0.0007542372,0.0016622543,0.0,0.0,0.0,0.0,0.0,0.0,0.0,0.0,-0.0039520264,0.0,0.0,nan,0.0,0.0,-0.0077279806,-0.0005450472,0.0016117692,-0.0027478933,0.0,0.0,0.0,0.0,0.0,0.0
21726780000,21726700000,-0.0002747589,-0.0031216214,-0.0015199711,0.0007542372,0.0016622543,0.0,0.0,0.0,0.0,0.0,0.0,0.0,0.0,-0.0039520264,0.0,0.0,nan,0.0,0.0,-0.0077279806,-0.0005450472,0.0016117692,-0.0027478933,0.0,0.0,0.0,0.0,0.0,0.0
21726788000,21726708000,-0.0002747589,-0.0031216214,-0.0015199711,0.0007542372,0.0016622543,0.0,0.0,0.0,0.0,0.0,0.0,0.0,0.0,-0.0039520264,0.0,0.0,nan,0.0,0.0,-0.0077279806,-0.0005450472,0.0016117692,-0.0027478933,0.0,0.0,0.0,0.0,0.0,0.0
21726796000,21726716000,-0.0002747589,-0.0031216214,-0.0015199711,0.0007542372,0.0016622543,0.0,0.0,0.0,0.0,0.0,0.0,0.0,0.0,0.009292603,0.0,0.0,nan,0.0,0.0,-0.003938794,-0.0005450472,0.0016117692,-0.0027478933,0.0,0.0,0.0,0.0,0.0,0.0
21726804000,21726724000,-0.0002747589,-0.0031216214,-0.0015199711,0.0007542372,0.0016622543,0.0,0.0,0.0,0.0,0.0,0.0,0.0,0.0,0.009292603,0.0,0.0,nan,0.0,0.0,-0.003938794,-0.0005450472,0.0016117692,-0.0027478933,0.0,0.0,0.0,0.0,0.0,0.0
21726812000,21726732000,-0.0002747589,-0.0031216214,-0.0015199711,0.0007542372,0.0016622543,0.0,0.0,0.0,0.0,0.0,0.0,0.0,0.0,0.009292603,0.0,0.0,nan,0.0,0.0,-0.003938794,-0.0005450472,0.0016117692,-0.0027478933,0.0,0.0,0.0,0.0,0.0,0.0
21726820000,21726740000,-0.011742443,-0.0010521743,-1.9004036e-06,-0.010406256,0.0018200874,0.0,0.0,0.0,0.0,0.0,0.0,0.0,0.0,0.009292603,0.0,0.0,nan,0.0,0.0,-0.003938794,-0.0005450472,0.0016117692,-0.0027478933,0.0,0.0,0.0,0.0,0.0,0.0
21726828000,21726748000,-0.011742443,-0.0010521743,-1.9004036e-06,-0.010406256,0.0018200874,0.0,0.0,0.0,0.0,0.0,0.0,0.0,0.0,0.009292603,0.0,0.0,nan,0.0,0.0,-0.003938794,-0.0005450472,0.0016117692,-0.0027478933,0.0,0.0,0.0,0.0,0.0,0.0
21726836000,21726756000,-0.011742443,-0.0010521743,-1.9004036e-06,-0.010406256,0.0018200874,0.0,0.0,0.0,0.0,0.0,0.0,0.0,0.0,0.009292603,0.0,0.0,nan,0.0,0.0,-0.003938794,-0.0005450472,0.0016117692,-0.0027478933,0.0,0.0,0.0,0.0,0.0,0.0
21726844000,21726764000,-0.011742443,-0.0010521743,-1.9004036e-06,-0.010406256,0.0018200874,0.0,0.0,0.0,0.0,0.0,0.0,0.0,0.0,0.009292603,0.0,0.0,nan,0.0,0.0,-0.003938794,-0.0005450472,0.0016117692,-0.0027478933,0.0,0.0,0.0,0.0,0.0,0.0
21726852000,21726772000,-0.011742443,-0.0010521743,-1.9004036e-06,-0.010406256,0.0018200874,0.0,0.0,0.0,0.0,0.0,0.0,0.0,0.0,0.05418396,0.0,0.0,nan,0.0,0.0,-0.003938794,-0.0005450472,0.0016117692,-0.0027478933,0.0,0.0,0.0,0.0,0.0,0.0
21726860000,21726780000,-0.011742443,-0.0010521743,-1.9004036e-06,-0.010406256,0.0018200874,0.0,0.0,0.0,0.0,0.0,0.0,0.0,0.0,0.05418396,0.0,0.0,nan,0.0,0.0,-0.003938794,-0.0005450472,0.0016117692,-0.0027478933,0.0,0.0,0.0,0.0,0.0,0.0
21726868000,21726788000,-0.011742443,-0.0010521743,-1.9004036e-06,-0.010406256,0.0018200874,0.0,0.0,0.0,0.0,0.0,0.0,0.0,0.0,0.05418396,0.0,0.0,nan,0.0,0.0,0.00082206726,-0.0005450472,0.0016117692,-0.0027478933,0.0,0.0,0.0,0.0,0.0,0.0
21726876000,21726796000,-0.011742443,-0.0010521743,-1.9004036e-06,-0.010406256,0.0018200874,0.0,0.0,0.0,0.0,0.0,0.0,0.0,0.0,0.05418396,0.0,0.0,nan,0.0,0.0,0.00082206726,-0.0005450472,0.0016117692,-0.0027478933,0.0,0.0,0.0,0.0,0.0,0.0
21726884000,21726804000,-0.011742443,-0.0010521743,-1.9004036e-06,-0.010406256,0.0018200874,0.0,0.0,0.0,0.0,0.0,0.0,0.0,0.0,0.05418396,0.0,0.0,nan,0.0,0.0,0.00082206726,-0.0005450472,0.0016117692,-0.0027478933,0.0,0.0,0.0,0.0,0.0,0.0
21726892000,21726812000,-0.011742443,-0.0010521743,-1.9004036e-06,-0.010406256,0.0018200874,0.0,0.0,0.0,0.0,0.0,0.0,0.0,0.0,0.05418396,0.0,0.0,nan,0.0,0.0,0.00082206726,-0.0005450472,0.0016117692,-0.0027478933,0.0,0.0,0.0,0.0,0.0,0.0
21726900000,21726820000,-0.011742443,-0.0010521743,-1.9004036e-06,-0.010406256,0.0018200874,0.0,0.0,0.0,0.0,0.0,0.0,0.0,0.0,0.05418396,0.0,0.0,nan,0.0,0.0,0.00082206726,-0.0005450472,0.0016117692,-0.0027478933,0.0,0.0,0.0,0.0,0.0,0.0
21726908000,21726828000,-0.011742443,-0.0010521743,-1.9004036e-06,-0.010406256,0.0018200874,0.0,0.0,0.0,0.0,0.0,0.0,0.0,0.0,0.05418396,0.0,0.0,nan,0.0,0.0,0.00082206726,-0.0005450472,0.0016117692,-0.0027478933,0.0,0.0,0.0,0.0,0.0,0.0
21726916000,21726836000,-0.011742443,-0.0010521743,-1.9004036e-06,-0.010406256,0.0018200874,0.0,0.0,0.0,0.0,0.0,0.0,0.0,0.0,0.041000366,0.0,0.0,nan,0.0,0.0,0.00082206726,-0.0005450472,0.0016117692,-0.0027478933,0.0,0.0,0.0,0.0,0.0,0.0
21726924000,21726844000,-0.011742443,-0.0010521743,-1.9004036e-06,-0.010406256,0.0018200874,0.0,0.0,0.0,0.0,0.0,0.0,0.0,0.0,0.041000366,0.0,0.0,nan,0.0,0.0,0.00082206726,-0.0005450472,0.0016117692,-0.0027478933,0.0,0.0,0.0,0.0,0.0,0.0
21726932000,21726852000,-0.011742443,-0.0010521743,-1.9004036e-06,-0.010406256,0.0018200874,0.0,0.0,0.0,0.0,0.0,0.0,0.0,0.0,0.041000366,0.0,0.0,nan,0.0,0.0,0.00082206726,-0.0005450472,0.0016117692,-0.0027478933,0.0,0.0,0.0,0.0,0.0,0.0
21726940000,21726860000,-0.011742443,-0.0010521743,-1.9004036e-06,-0.010406256,0.0018200874,0.0,0.0,0.0,0.0,0.0,0.0,0.0,0.0,0.041000366,0.0,0.0,nan,0.0,0.0,0.00585711,-0.0005450472,0.0016117692,-0.0027478933,0.0,0.0,0.0,0.0,0.0,0.0
21726948000,21726868000,-0.011742443,-0.0010521743,-1.9004036e-06,-0.010406256,0.0018200874,0.0,0.0,0.0,0.0,0.0,0.0,0.0,0.0,0.041000366,0.0,0.0,nan,0.0,0.0,0.00585711,-0.0005450472,0.0016117692,-0.0027478933,0.0,0.0,0.0,0.0,0.0,0.0
21726956000,21726876000,-0.011742443,-0.0010521743,-1.9004036e-06,-0.010406256,0.0018200874,0.0,0.0,0.0,0.0,0.0,0.0,0.0,0.0,0.041000366,0.0,0.0,nan,0.0,0.0,0.00585711,-0.0005450472,0.0016117692,-0.0027478933,0.0,0.0,0.0,0.0,0.0,0.0
21726964000,21726884000,-0.011742443,-0.0010521743,-1.9004036e-06,-0.010406256,0.0018200874,0.0,0.0,0.0,0.0,0.0,0.0,0.0,0.0,0.041000366,0.0,0.0,nan,0.0,0.0,0.00585711,-0.0005450472,0.0016117692,-0.0027478933,0.0,0.0,0.0,0.0,0.0,0.0
21726972000,21726892000,-0.011742443,-0.0010521743,-1.9004036e-06,-0.010406256,0.0018200874,0.0,0.0,0.0,0.0,0.0,0.0,0.0,0.0,-0.07527161,0.0,0.0,nan,0.0,0.0,0.00585711,-0.0005450472,0.0016117692,-0.0027478933,0.0,0.0,0.0,0.0,0.0,0.0
21726980000,21726900000,-0.011742443,-0.0010521743,-1.9004036e-06,-0.010406256,0.0018200874,0.0,0.0,0.0,0.0,0.0,0.0,0.0,0.0,-0.07527161,0.0,0.0,nan,0.0,0.0,0.00585711,-0.0005450472,0.0016117692,-0.0027478933,0.0,0.0,0.0,0.0,0.0,0.0
21726988000,21726908000,-0.011742443,-0.0010521743,-1.9004036e-06,-0.010406256,0.0018200874,0.0,0.0,0.0,0.0,0.0,0.0,0.0,0.0,-0.07527161,0.0,0.0,nan,0.0,0.0,0.00585711,-0.0005450472,0.0016117692,-0.0027478933,0.0,0.0,0.0,0.0,0.0,0.0
21726996000,21726916000,-0.011742443,-0.0010521743,-1.9004036e-06,-0.010406256,0.0018200874,0.0,0.0,0.0,0.0,0.0,0.0,0.0,0.0,-0.07527161,0.0,0.0,nan,0.0,0.0,0.00585711,-0.0005450472,0.0016117692,-0.0027478933,0.0,0.0,0.0,0.0,0.0,0.0
21727004000,21726924000,-0.011742443,-0.0010521743,-1.9004036e-06,-0.010406256,0.0018200874,0.0,0.0,0.0,0.0,0.0,0.0,0.0,0.0,-0.07527161,0.0,0.0,nan,0.0,0.0,0.00585711,-0.0005450472,0.0016117692,-0.0027478933,0.0,0.0,0.0,0.0,0.0,0.0
21727012000,21726932000,-0.011742443,-0.0010521743,-1.9004036e-06,-0.010406256,0.0018200874,0.0,0.0,0.0,0.0,0.0,0.0,0.0,0.0,-0.07527161,0.0,0.0,nan,0.0,0.0,0.011989474,-0.0005450472,0.0016117692,-0.0027478933,0.0,0.0,0.0,0.0,0.0,0.0
21727020000,21726940000,-0.011742443,-0.0010521743,-1.9004036e-06,-0.010406256,0.0018200874,0.0,0.0,0.0,0.0,0.0,0.0,0.0,0.0,-0.07527161,0.0,0.0,nan,0.0,0.0,0.011989474,-0.0005450472,0.0016117692,-0.0027478933,0.0,0.0,0.0,0.0,0.0,0.0
21727028000,21726948000,-0.00016225789,0.00016550429,-3.057769e-05,-0.010303855,0.0019187927,0.0,0.0,0.0,0.0,0.0,0.0,0.0,0.0,-0.07527161,0.0,0.0,nan,0.0,0.0,0.011989474,-0.0005450472,0.0016117692,-0.0027478933,0.0,0.0,0.0,0.0,0.0,0.0
21727036000,21726956000,-0.00016225789,0.00016550429,-3.057769e-05,-0.010303855,0.0019187927,0.0,0.0,0.0,0.0,0.0,0.0,0.0,0.0,0.006652832,0.0,0.0,nan,0.0,0.0,0.011989474,-0.0005450472,0.0016117692,-0.0027478933,0.0,0.0,0.0,0.0,0.0,0.0
21727044000,21726964000,-0.00016225789,0.00016550429,-3.057769e-05,-0.010303855,0.0019187927,0.0,0.0,0.0,0.0,0.0,0.0,0.0,0.0,0.006652832,0.0,0.0,nan,0.0,0.0,0.011989474,-0.0005450472,0.0016117692,-0.0027478933,0.0,0.0,0.0,0.0,0.0,0.0
21727052000,21726972000,-0.00016225789,0.00016550429,-3.057769e-05,-0.010303855,0.0019187927,0.0,0.0,0.0,0.0,0.0,0.0,0.0,0.0,0.006652832,0.0,0.0,nan,0.0,0.0,0.011989474,-0.0005450472,0.0016117692,-0.0027478933,0.0,0.0,0.0,0.0,0.0,0.0
21727060000,21726980000,-0.00016225789,0.00016550429,-3.057769e-05,-0.010303855,0.0019187927,0.0,0.0,0.0,0.0,0.0,0.0,0.0,0.0,0.006652832,0.0,0.0,nan,0.0,0.0,0.011989474,-0.0005450472,0.0016117692,-0.0027478933,0.0,0.0,0.0,0.0,0.0,0.0
21727068000,21726988000,-0.00016225789,0.00016550429,-3.057769e-05,-0.010303855,0.0019187927,0.0,0.0,0.0,0.0,0.0,0.0,0.0,0.0,0.006652832,0.0,0.0,nan,0.0,0.0,0.011989474,-0.0005450472,0.0016117692,-0.0027478933,0.0,0.0,0.0,0.0,0.0,0.0
21727076000,21726996000,-0.00016225789,0.00016550429,-3.057769e-05,-0.010303855,0.0019187927,0.0,0.0,0.0,0.0,0.0,0.0,0.0,0.0,0.006652832,0.0,0.0,nan,0.0,0.0,0.011989474,-0.0005450472,0.0016117692,-0.0027478933,0.0,0.0,0.0,0.0,0.0,0.0
21727084000,21727004000,-0.00016225789,0.00016550429,-3.057769e-05,-0.010303855,0.0019187927,0.0,0.0,0.0,0.0,0.0,0.0,0.0,0.0,0.006652832,0.0,0.0,nan,0.0,0.0,-0.002664566,-0.0005450472,0.0016117692,-0.0027478933,0.0,0.0,0.0,0.0,0.0,0.0
21727092000,21727012000,-0.00016225789,0.00016550429,-3.057769e-05,-0.010303855,0.0019187927,0.0,0.0,0.0,0.0,0.0,0.0,0.0,0.0,0.06739807,0.0,0.0,nan,0.0,0.0,-0.002664566,-0.0005450472,0.0016117692,-0.0027478933,0.0,0.0,0.0,0.0,0.0,0.0
21727100000,21727020000,-0.00016225789,0.00016550429,-3.057769e-05,-0.010303855,0.0019187927,0.0,0.0,0.0,0.0,0.0,0.0,0.0,0.0,0.06739807,0.0,0.0,nan,0.0,0.0,-0.002664566,-0.0005450472,0.0016117692,-0.0027478933,0.0,0.0,0.0,0.0,0.0,0.0
21727108000,21727028000,-0.00016225789,0.00016550429,-3.057769e-05,-0.010303855,0.0019187927,0.0,0.0,0.0,0.0,0.0,0.0,0.0,0.0,0.06739807,0.0,0.0,nan,0.0,0.0,-0.002664566,-0.0005450472,0.0016117692,-0.0027478933,0.0,0.0,0.0,0.0,0.0,0.0
21727116000,21727036000,-0.00016225789,0.00016550429,-3.057769e-05,-0.010303855,0.0019187927,0.0,0.0,0.0,0.0,0.0,0.0,0.0,0.0,0.06739807,0.0,0.0,nan,0.0,0.0,-0.002664566,-0.0005450472,0.0016117692,-0.0027478933,0.0,0.0,0.0,0.0,0.0,0.0
21727124000,21727044000,-0.00016225789,0.00016550429,-3.057769e-05,-0.010303855,0.0019187927,0.0,0.0,0.0,0.0,0.0,0.0,0.0,0.0,0.06739807,0.0,0.0,nan,0.0,0.0,-0.002664566,-0.0005450472,0.0016117692,-0.0027478933,0.0,0.0,0.0,0.0,0.0,0.0
21727132000,21727052000,-0.00016225789,0.00016550429,-3.057769e-05,-0.010303855,0.0019187927,0.0,0.0,0.0,0.0,0.0,0.0,0.0,0.0,0.06739807,0.0,0.0,nan,0.0,0.0,-0.002664566,-0.0005450472,0.0016117692,-0.0027478933,0.0,0.0,0.0,0.0,0.0,0.0
21727140000,21727060000,-0.00016225789,0.00016550429,-3.057769e-05,-0.010303855,0.0019187927,0.0,0.0,0.0,0.0,0.0,0.0,0.0,0.0,0.06739807,0.0,0.0,nan,0.0,0.0,-0.002664566,-0.0005450472,0.0016117692,-0.0027478933,0.0,0.0,0.0,0.0,0.0,0.0
21727148000,21727068000,-0.00016225789,0.00016550429,-3.057769e-05,-0.010303855,0.0019187927,0.0,0.0,0.0,0.0,0.0,0.0,0.0,0.0,0.06739807,0.0,0.0,nan,0.0,0.0,-0.002664566,-0.0005450472,0.0016117692,-0.0027478933,0.0,0.0,0.0,0.0,0.0,0.0
21727156000,21727076000,-0.00016225789,0.00016550429,-3.057769e-05,-0.010303855,0.0019187927,0.0,0.0,0.0,0.0,0.0,0.0,0.0,0.0,0.030410767,0.0,0.0,nan,0.0,0.0,0.018049598,-0.0005450472,0.0016117692,-0.0027478933,0.0,0.0,0.0,0.0,0.0,0.0
21727164000,21727084000,-0.00016225789,0.00016550429,-3.057769e-05,-0.010303855,0.0019187927,0.0,0.0,0.0,0.0,0.0,0.0,0.0,0.0,0.030410767,0.0,0.0,nan,0.0,0.0,0.018049598,-0.0005450472,0.0016117692,-0.0027478933,0.0,0.0,0.0,0.0,0.0,0.0
21727172000,21727092000,-0.00016225789,0.00016550429,-3.057769e-05,-0.010303855,0.0019187927,0.0,0.0,0.0,0.0,0.0,0.0,0.0,0.0,0.030410767,0.0,0.0,nan,0.0,0.0,0.018049598,-0.0005450472,0.0016117692,-0.0027478933,0.0,0.0,0.0,0.0,0.0,0.0
21727180000,21727100000,-0.00016225789,0.00016550429,-3.057769e-05,-0.010303855,0.0019187927,0.0,0.0,0.0,0.0,0.0,0.0,0.0,0.0,0.030410767,0.0,0.0,nan,0.0,0.0,0.018049598,-0.0005450472,0.0016117692,-0.0027478933,0.0,0.0,0.0,0.0,0.0,0.0
21727188000,21727108000,-0.00016225789,0.00016550429,-3.057769e-05,-0.010303855,0.0019187927,0.0,0.0,0.0,0.0,0.0,0.0,0.0,0.0,0.030410767,0.0,0.0,nan,0.0,0.0,0.018049598,-0.0005450472,0.0016117692,-0.0027478933,0.0,0.0,0.0,0.0,0.0,0.0
21727196000,21727116000,-0.00016225789,0.00016550429,-3.057769e-05,-0.010303855,0.0019187927,0.0,0.0,0.0,0.0,0.0,0.0,0.0,0.0,0.030410767,0.0,0.0,nan,0.0,0.0,0.018049598,-0.0005450472,0.0016117692,-0.0027478933,0.0,0.0,0.0,0.0,0.0,0.0
21727204000,21727124000,-0.00016225789,0.00016550429,-3.057769e-05,-0.010303855,0.0019187927,0.0,0.0,0.0,0.0,0.0,0.0,0.0,0.0,0.030410767,0.0,0.0,nan,0.0,0.0,0.018049598,-0.0005450472,0.0016117692,-0.0027478933,0.0,0.0,0.0,0.0,0.0,0.0
21727212000,21727132000,-0.00016225789,0.00016550429,-3.057769e-05,-0.010303855,0.0019187927,0.0,0.0,0.0,0.0,0.0,0.0,0.0,0.0,0.040985107,0.0,0.0,nan,0.0,0.0,0.018049598,-0.0005450472,0.0016117692,-0.0027478933,0.0,0.0,0.0,0.0,0.0,0.0
21727220000,21727140000,-0.00016225789,0.00016550429,-3.057769e-05,-0.010303855,0.0019187927,0.0,0.0,0.0,0.0,0.0,0.0,0.0,0.0,0.040985107,0.0,0.0,nan,0.0,0.0,0.018049598,-0.0005450472,0.0016117692,-0.0027478933,0.0,0.0,0.0,0.0,0.0,0.0
21727228000,21727148000,-0.00016225789,0.00016550429,-3.057769e-05,-0.010303855,0.0019187927,0.0,0.0,0.0,0.0,0.0,0.0,0.0,0.0,0.040985107,0.0,0.0,nan,0.0,0.0,0.0066770315,-0.0005450472,0.0016117692,-0.0027478933,0.0,0.0,0.0,0.0,0.0,0.0
21727236000,21727156000,-0.0018373955,-0.0011471107,0.0013317312,-0.010363877,0.0017489195,0.0,0.0,0.0,0.0,0.0,0.0,0.0,0.0,0.040985107,0.0,0.0,nan,0.0,0.0,0.0066770315,-0.0005450472,0.0016117692,-0.0027478933,0.0,0.0,0.0,0.0,0.0,0.0
21727244000,21727164000,-0.0018373955,-0.0011471107,0.0013317312,-0.010363877,0.0017489195,0.0,0.0,0.0,0.0,0.0,0.0,0.0,0.0,0.040985107,0.0,0.0,nan,0.0,0.0,0.0066770315,-0.0005450472,0.0016117692,-0.0027478933,0.0,0.0,0.0,0.0,0.0,0.0
21727252000,21727172000,-0.0018373955,-0.0011471107,0.0013317312,-0.010363877,0.0017489195,0.0,0.0,0.0,0.0,0.0,0.0,0.0,0.0,0.040985107,0.0,0.0,nan,0.0,0.0,0.0066770315,-0.0005450472,0.0016117692,-0.0027478933,0.0,0.0,0.0,0.0,0.0,0.0
21727260000,21727180000,-0.0018373955,-0.0011471107,0.0013317312,-0.010363877,0.0017489195,0.0,0.0,0.0,0.0,0.0,0.0,0.0,0.0,0.014602661,0.0,0.0,nan,0.0,0.0,0.0066770315,-0.0005450472,0.0016117692,-0.0027478933,0.0,0.0,0.0,0.0,0.0,0.0
21727268000,21727188000,-0.0018373955,-0.0011471107,0.0013317312,-0.010363877,0.0017489195,0.0,0.0,0.0,0.0,0.0,0.0,0.0,0.0,0.014602661,0.0,0.0,nan,0.0,0.0,0.0066770315,-0.0005450472,0.0016117692,-0.0027478933,0.0,0.0,0.0,0.0,0.0,0.0
21727276000,21727196000,-0.0018373955,-0.0011471107,0.0013317312,-0.010363877,0.0017489195,0.0,0.0,0.0,0.0,0.0,0.0,0.0,0.0,0.014602661,0.0,0.0,nan,0.0,0.0,0.0066770315,-0.0005450472,0.0016117692,-0.0027478933,0.0,0.0,0.0,0.0,0.0,0.0
21727284000,21727204000,-0.0018373955,-0.0011471107,0.0013317312,-0.010363877,0.0017489195,0.0,0.0,0.0,0.0,0.0,0.0,0.0,0.0,0.014602661,0.0,0.0,nan,0.0,0.0,0.0066770315,-0.0005450472,0.0016117692,-0.0027478933,0.0,0.0,0.0,0.0,0.0,0.0
21727292000,21727212000,-0.0018373955,-0.0011471107,0.0013317312,-0.010363877,0.0017489195,0.0,0.0,0.0,0.0,0.0,0.0,0.0,0.0,0.014602661,0.0,0.0,nan,0.0,0.0,0.0066770315,-0.0005450472,0.0016117692,-0.0027478933,0.0,0.0,0.0,0.0,0.0,0.0
21727300000,21727220000,-0.0018373955,-0.0011471107,0.0013317312,-0.010363877,0.0017489195,0.0,0.0,0.0,0.0,0.0,0.0,0.0,0.0,0.014602661,0.0,0.0,nan,0.0,0.0,0.0025132895,-0.0005450472,0.0016117692,-0.0027478933,0.0,0.0,0.0,0.0,0.0,0.0
21727308000,21727228000,-0.0018373955,-0.0011471107,0.0013317312,-0.010363877,0.0017489195,0.0,0.0,0.0,0.0,0.0,0.0,0.0,0.0,0.014602661,0.0,0.0,nan,0.0,0.0,0.0025132895,-0.0005450472,0.0016117692,-0.0027478933,0.0,0.0,0.0,0.0,0.0,0.0
21727316000,21727236000,-0.0018373955,-0.0011471107,0.0013317312,-0.010363877,0.0017489195,0.0,0.0,0.0,0.0,0.0,0.0,0.0,0.0,0.014602661,0.0,0.0,nan,0.0,0.0,0.0025132895,-0.0005450472,0.0016117692,-0.0027478933,0.0,0.0,0.0,0.0,0.0,0.0
21727324000,21727244000,-0.0018373955,-0.0011471107,0.0013317312,-0.010363877,0.0017489195,0.0,0.0,0.0,0.0,0.0,0.0,0.0,0.0,0.109802246,0.0,0.0,nan,0.0,0.0,0.0025132895,-0.0005450472,0.0016117692,-0.0027478933,0.0,0.0,0.0,0.0,0.0,0.0
21727332000,21727252000,-0.0018373955,-0.0011471107,0.0013317312,-0.010363877,0.0017489195,0.0,0.0,0.0,0.0,0.0,0.0,0.0,0.0,0.109802246,0.0,0.0,nan,0.0,0.0,0.0025132895,-0.0005450472,0.0016117692,-0.0027478933,0.0,0.0,0.0,0.0,0.0,0.0
21727340000,21727260000,-0.0018373955,-0.0011471107,0.0013317312,-0.010363877,0.0017489195,0.0,0.0,0.0,0.0,0.0,0.0,0.0,0.0,0.109802246,0.0,0.0,nan,0.0,0.0,0.0025132895,-0.0005450472,0.0016117692,-0.0027478933,0.0,0.0,0.0,0.0,0.0,0.0
21727348000,21727268000,-0.0018373955,-0.0011471107,0.0013317312,-0.010363877,0.0017489195,0.0,0.0,0.0,0.0,0.0,0.0,0.0,0.0,0.109802246,0.0,0.0,nan,0.0,0.0,0.0025132895,-0.0005450472,0.0016117692,-0.0027478933,0.0,0.0,0.0,0.0,0.0,0.0
21727356000,21727276000,-0.0018373955,-0.0011471107,0.0013317312,-0.010363877,0.0017489195,0.0,0.0,0.0,0.0,0.0,0.0,0.0,0.0,0.109802246,0.0,0.0,nan,0.0,0.0,0.0025132895,-0.0005450472,0.0016117692,-0.0027478933,0.0,0.0,0.0,0.0,0.0,0.0
21727364000,21727284000,-0.0018373955,-0.0011471107,0.0013317312,-0.010363877,0.0017489195,0.0,0.0,0.0,0.0,0.0,0.0,0.0,0.0,0.109802246,0.0,0.0,nan,0.0,0.0,-0.020541549,-0.0005450472,0.0016117692,-0.0027478933,0.0,0.0,0.0,0.0,0.0,0.0
21727372000,21727292000,-0.0018373955,-0.0011471107,0.0013317312,-0.010363877,0.0017489195,0.0,0.0,0.0,0.0,0.0,0.0,0.0,0.0,0.109802246,0.0,0.0,nan,0.0,0.0,-0.020541549,-0.0005450472,0.0016117692,-0.0027478933,0.0,0.0,0.0,0.0,0.0,0.0
21727380000,21727300000,-0.0018373955,-0.0011471107,0.0013317312,-0.010363877,0.0017489195,0.0,0.0,0.0,0.0,0.0,0.0,0.0,0.0,0.014633179,0.0,0.0,nan,0.0,0.0,-0.020541549,-0.0005450472,0.0016117692,-0.0027478933,0.0,0.0,0.0,0.0,0.0,0.0
21727388000,21727308000,-0.0018373955,-0.0011471107,0.0013317312,-0.010363877,0.0017489195,0.0,0.0,0.0,0.0,0.0,0.0,0.0,0.0,0.014633179,0.0,0.0,nan,0.0,0.0,-0.020541549,-0.0005450472,0.0016117692,-0.0027478933,0.0,0.0,0.0,0.0,0.0,0.0
21727396000,21727316000,-0.0018373955,-0.0011471107,0.0013317312,-0.010363877,0.0017489195,0.0,0.0,0.0,0.0,0.0,0.0,0.0,0.0,0.014633179,0.0,0.0,nan,0.0,0.0,-0.020541549,-0.0005450472,0.0016117692,-0.0027478933,0.0,0.0,0.0,0.0,0.0,0.0
21727404000,21727324000,-0.0018373955,-0.0011471107,0.0013317312,-0.010363877,0.0017489195,0.0,0.0,0.0,0.0,0.0,0.0,0.0,0.0,0.014633179,0.0,0.0,nan,0.0,0.0,-0.020541549,-0.0005450472,0.0016117692,-0.0027478933,0.0,0.0,0.0,0.0,0.0,0.0
21727412000,21727332000,-0.0018373955,-0.0011471107,0.0013317312,-0.010363877,0.0017489195,0.0,0.0,0.0,0.0,0.0,0.0,0.0,0.0,0.014633179,0.0,0.0,nan,0.0,0.0,-0.020541549,-0.0005450472,0.0016117692,-0.0027478933,0.0,0.0,0.0,0.0,0.0,0.0
21727420000,21727340000,-0.0018373955,-0.0011471107,0.0013317312,-0.010363877,0.0017489195,0.0,0.0,0.0,0.0,0.0,0.0,0.0,0.0,0.014633179,0.0,0.0,nan,0.0,0.0,-0.020541549,-0.0005450472,0.0016117692,-0.0027478933,0.0,0.0,0.0,0.0,0.0,0.0
21727428000,21727348000,-0.0018373955,-0.0011471107,0.0013317312,-0.010363877,0.0017489195,0.0,0.0,0.0,0.0,0.0,0.0,0.0,0.0,0.014633179,0.0,0.0,nan,0.0,0.0,-0.020541549,-0.0005450472,0.0016117692,-0.0027478933,0.0,0.0,0.0,0.0,0.0,0.0
21727436000,21727356000,-0.0018373955,-0.0011471107,0.0013317312,-0.010363877,0.0017489195,0.0,0.0,0.0,0.0,0.0,0.0,0.0,0.0,0.014633179,0.0,0.0,nan,0.0,0.0,0.0023093224,-0.0005450472,0.0016117692,-0.0027478933,0.0,0.0,0.0,0.0,0.0,0.0
21727444000,21727364000,-0.0019450776,0.00083244476,0.009118789,-0.010285974,0.0017026663,0.0,0.0,0.0,0.0,0.0,0.0,0.0,0.0,-0.1360321,0.0,0.0,nan,0.0,0.0,0.0023093224,-0.0005450472,0.0016117692,-0.0027478933,0.0,0.0,0.0,0.0,0.0,0.0
21727452000,21727372000,-0.0019450776,0.00083244476,0.009118789,-0.010285974,0.0017026663,0.0,0.0,0.0,0.0,0.0,0.0,0.0,0.0,-0.1360321,0.0,0.0,nan,0.0,0.0,0.0023093224,-0.0005450472,0.0016117692,-0.0027478933,0.0,0.0,0.0,0.0,0.0,0.0
21727460000,21727380000,-0.0019450776,0.00083244476,0.009118789,-0.010285974,0.0017026663,0.0,0.0,0.0,0.0,0.0,0.0,0.0,0.0,-0.1360321,0.0,0.0,nan,0.0,0.0,0.0023093224,-0.0005450472,0.0016117692,-0.0027478933,0.0,0.0,0.0,0.0,0.0,0.0
21727468000,21727388000,-0.0019450776,0.00083244476,0.009118789,-0.010285974,0.0017026663,0.0,0.0,0.0,0.0,0.0,0.0,0.0,0.0,-0.1360321,0.0,0.0,nan,0.0,0.0,0.0023093224,-0.0005450472,0.0016117692,-0.0027478933,0.0,0.0,0.0,0.0,0.0,0.0
21727476000,21727396000,-0.0019450776,0.00083244476,0.009118789,-0.010285974,0.0017026663,0.0,0.0,0.0,0.0,0.0,0.0,0.0,0.0,-0.1360321,0.0,0.0,nan,0.0,0.0,0.0023093224,-0.0005450472,0.0016117692,-0.0027478933,0.0,0.0,0.0,0.0,0.0,0.0
21727484000,21727404000,-0.0019450776,0.00083244476,0.009118789,-0.010285974,0.0017026663,0.0,0.0,0.0,0.0,0.0,0.0,0.0,0.0,-0.1360321,0.0,0.0,nan,0.0,0.0,0.0023093224,-0.0005450472,0.0016117692,-0.0027478933,0.0,0.0,0.0,0.0,0.0,0.0
21727492000,21727412000,-0.0019450776,0.00083244476,0.009118789,-0.010285974,0.0017026663,0.0,0.0,0.0,0.0,0.0,0.0,0.0,0.0,-0.1360321,0.0,0.0,nan,0.0,0.0,0.0023093224,-0.0005450472,0.0016117692,-0.0027478933,0.0,0.0,0.0,0.0,0.0,0.0
21727500000,21727420000,-0.0019450776,0.00083244476,0.009118789,-0.010285974,0.0017026663,0.0,0.0,0.0,0.0,0.0,0.0,0.0,0.0,-0.14395142,0.0,0.0,nan,0.0,0.0,-0.048882365,-0.0005450472,0.0016117692,-0.0027478933,0.0,0.0,0.0,0.0,0.0,0.0
21727508000,21727428000,-0.0019450776,0.00083244476,0.009118789,-0.010285974,0.0017026663,0.0,0.0,0.0,0.0,0.0,0.0,0.0,0.0,-0.14395142,0.0,0.0,nan,0.0,0.0,-0.048882365,-0.0005450472,0.0016117692,-0.0027478933,0.0,0.0,0.0,0.0,0.0,0.0
21727516000,21727436000,-0.0019450776,0.00083244476,0.009118789,-0.010285974,0.0017026663,0.0,0.0,0.0,0.0,0.0,0.0,0.0,0.0,-0.14395142,0.0,0.0,nan,0.0,0.0,-0.048882365,-0.0005450472,0.0016117692,-0.0027478933,0.0,0.0,0.0,0.0,0.0,0.0
21727524000,21727444000,-0.0019450776,0.00083244476,0.009118789,-0.010285974,0.0017026663,0.0,0.0,0.0,0.0,0.0,0.0,0.0,0.0,-0.14395142,0.0,0.0,nan,0.0,0.0,-0.048882365,-0.0005450472,0.0016117692,-0.0027478933,0.0,0.0,0.0,0.0,0.0,0.0
21727532000,21727452000,-0.0019450776,0.00083244476,0.009118789,-0.010285974,0.0017026663,0.0,0.0,0.0,0.0,0.0,0.0,0.0,0.0,-0.14395142,0.0,0.0,nan,0.0,0.0,-0.048882365,-0.0005450472,0.0016117692,-0.0027478933,0.0,0.0,0.0,0.0,0.0,0.0
21727540000,21727460000,-0.0019450776,0.00083244476,0.009118789,-0.010285974,0.0017026663,0.0,0.0,0.0,0.0,0.0,0.0,0.0,0.0,-0.14395142,0.0,0.0,nan,0.0,0.0,-0.048882365,-0.0005450472,0.0016117692,-0.0027478933,0.0,0.0,0.0,0.0,0.0,0.0
21727548000,21727468000,-0.0019450776,0.00083244476,0.009118789,-0.010285974,0.0017026663,0.0,0.0,0.0,0.0,0.0,0.0,0.0,0.0,-0.14395142,0.0,0.0,nan,0.0,0.0,-0.048882365,-0.0005450472,0.0016117692,-0.0027478933,0.0,0.0,0.0,0.0,0.0,0.0
21727556000,21727476000,-0.0019450776,0.00083244476,0.009118789,-0.010285974,0.0017026663,0.0,0.0,0.0,0.0,0.0,0.0,0.0,0.0,-0.14395142,0.0,0.0,nan,0.0,0.0,-0.048882365,-0.0005450472,0.0016117692,-0.0027478933,0.0,0.0,0.0,0.0,0.0,0.0
21727564000,21727484000,-0.0019450776,0.00083244476,0.009118789,-0.010285974,0.0017026663,0.0,0.0,0.0,0.0,0.0,0.0,0.0,0.0,0.04650879,0.0,0.0,nan,0.0,0.0,-0.048882365,-0.0005450472,0.0016117692,-0.0027478933,0.0,0.0,0.0,0.0,0.0,0.0
21727572000,21727492000,-0.0019450776,0.00083244476,0.009118789,-0.010285974,0.0017026663,0.0,0.0,0.0,0.0,0.0,0.0,0.0,0.0,0.04650879,0.0,0.0,nan,0.0,0.0,-0.0015283823,-0.0005450472,0.0016117692,-0.0027478933,0.0,0.0,0.0,0.0,0.0,0.0
21727580000,21727500000,-0.0019450776,0.00083244476,0.009118789,-0.010285974,0.0017026663,0.0,0.0,0.0,0.0,0.0,0.0,0.0,0.0,0.04650879,0.0,0.0,nan,0.0,0.0,-0.0015283823,-0.0005450472,0.0016117692,-0.0027478933,0.0,0.0,0.0,0.0,0.0,0.0
21727588000,21727508000,-0.0019450776,0.00083244476,0.009118789,-0.010285974,0.0017026663,0.0,0.0,0.0,0.0,0.0,0.0,0.0,0.0,0.04650879,0.0,0.0,nan,0.0,0.0,-0.0015283823,-0.0005450472,0.0016117692,-0.0027478933,0.0,0.0,0.0,0.0,0.0,0.0
21727596000,21727516000,-0.0019450776,0.00083244476,0.009118789,-0.010285974,0.0017026663,0.0,0.0,0.0,0.0,0.0,0.0,0.0,0.0,0.04650879,0.0,0.0,nan,0.0,0.0,-0.0015283823,-0.0005450472,0.0016117692,-0.0027478933,0.0,0.0,0.0,0.0,0.0,0.0
21727604000,21727524000,-0.0019450776,0.00083244476,0.009118789,-0.010285974,0.0017026663,0.0,0.0,0.0,0.0,0.0,0.0,0.0,0.0,0.04650879,0.0,0.0,nan,0.0,0.0,-0.0015283823,-0.0005450472,0.0016117692,-0.0027478933,0.0,0.0,0.0,0.0,0.0,0.0
21727612000,21727532000,-0.0019450776,0.00083244476,0.009118789,-0.010285974,0.0017026663,0.0,0.0,0.0,0.0,0.0,0.0,0.0,0.0,0.04650879,0.0,0.0,nan,0.0,0.0,-0.0015283823,-0.0005450472,0.0016117692,-0.0027478933,0.0,0.0,0.0,0.0,0.0,0.0
21727620000,21727540000,-0.0019450776,0.00083244476,0.009118789,-0.010285974,0.0017026663,0.0,0.0,0.0,0.0,0.0,0.0,0.0,0.0,0.054489136,0.0,0.0,nan,0.0,0.0,-0.0015283823,-0.0005450472,0.0016117692,-0.0027478933,0.0,0.0,0.0,0.0,0.0,0.0
21727628000,21727548000,-0.0019450776,0.00083244476,0.009118789,-0.010285974,0.0017026663,0.0,0.0,0.0,0.0,0.0,0.0,0.0,0.0,0.054489136,0.0,0.0,nan,0.0,0.0,-0.0015283823,-0.0005450472,0.0016117692,-0.0027478933,0.0,0.0,0.0,0.0,0.0,0.0
21727636000,21727556000,-0.0019450776,0.00083244476,0.009118789,-0.010285974,0.0017026663,0.0,0.0,0.0,0.0,0.0,0.0,0.0,0.0,0.054489136,0.0,0.0,nan,0.0,0.0,-0.0015283823,-0.0005450472,0.0016117692,-0.0027478933,0.0,0.0,0.0,0.0,0.0,0.0
21727644000,21727564000,-0.0019450776,0.00083244476,0.009118789,-0.010285974,0.0017026663,0.0,0.0,0.0,0.0,0.0,0.0,0.0,0.0,0.054489136,0.0,0.0,nan,0.0,0.0,0.028484344,-0.0005450472,0.0016117692,-0.0027478933,0.0,0.0,0.0,0.0,0.0,0.0
21727652000,21727572000,-0.0019450776,0.00083244476,0.009118789,-0.010285974,0.0017026663,0.0,0.0,0.0,0.0,0.0,0.0,0.0,0.0,0.054489136,0.0,0.0,nan,0.0,0.0,0.028484344,-0.0005450472,0.0016117692,-0.0027478933,0.0,0.0,0.0,0.0,0.0,0.0
21727660000,21727580000,-0.0019450776,0.00083244476,0.009118789,-0.010285974,0.0017026663,0.0,0.0,0.0,0.0,0.0,0.0,0.0,0.0,0.054489136,0.0,0.0,nan,0.0,0.0,0.028484344,-0.0005450472,0.0016117692,-0.0027478933,0.0,0.0,0.0,0.0,0.0,0.0
21727668000,21727588000,-0.0019450776,0.00083244476,0.009118789,-0.010285974,0.0017026663,0.0,0.0,0.0,0.0,0.0,0.0,0.0,0.0,0.028137207,0.0,0.0,nan,0.0,0.0,0.028484344,-0.0005450472,0.0016117692,-0.0027478933,0.0,0.0,0.0,0.0,0.0,0.0
21727676000,21727596000,-0.0019450776,0.00083244476,0.009118789,-0.010285974,0.0017026663,0.0,0.0,0.0,0.0,0.0,0.0,0.0,0.0,0.028137207,0.0,0.0,nan,0.0,0.0,0.028484344,-0.0005450472,0.0016117692,-0.0027478933,0.0,0.0,0.0,0.0,0.0,0.0
21727684000,21727604000,-0.0019450776,0.00083244476,0.009118789,-0.010285974,0.0017026663,0.0,0.0,0.0,0.0,0.0,0.0,0.0,0.0,0.028137207,0.0,0.0,nan,0.0,0.0,0.028484344,-0.0005450472,0.0016117692,-0.0027478933,0.0,0.0,0.0,0.0,0.0,0.0
21727692000,21727612000,-0.0019450776,0.00083244476,0.009118789,-0.010285974,0.0017026663,0.0,0.0,0.0,0.0,0.0,0.0,0.0,0.0,0.028137207,0.0,0.0,nan,0.0,0.0,0.028484344,-0.0005450472,0.0016117692,-0.0027478933,0.0,0.0,0.0,0.0,0.0,0.0
21727700000,21727620000,-0.0019450776,0.00083244476,0.009118789,-0.010285974,0.0017026663,0.0,0.0,0.0,0.0,0.0,0.0,0.0,0.0,0.028137207,0.0,0.0,nan,0.0,0.0,0.028484344,-0.0005450472,0.0016117692,-0.0027478933,0.0,0.0,0.0,0.0,0.0,0.0
21727708000,21727628000,-0.0019450776,0.00083244476,0.009118789,-0.010285974,0.0017026663,0.0,0.0,0.0,0.0,0.0,0.0,0.0,0.0,0.028137207,0.0,0.0,nan,0.0,0.0,0.028484344,-0.0005450472,0.0016117692,-0.0027478933,0.0,0.0,0.0,0.0,0.0,0.0
21727716000,21727636000,-0.0019450776,0.00083244476,0.009118789,-0.010285974,0.0017026663,0.0,0.0,0.0,0.0,0.0,0.0,0.0,0.0,0.028137207,0.0,0.0,nan,0.0,0.0,0.0045161247,-0.0005450472,0.0016117692,-0.0027478933,0.0,0.0,0.0,0.0,0.0,0.0
21727724000,21727644000,-0.0019450776,0.00083244476,0.009118789,-0.010285974,0.0017026663,0.0,0.0,0.0,0.0,0.0,0.0,0.0,0.0,0.028137207,0.0,0.0,nan,0.0,0.0,0.0045161247,-0.0005450472,0.0016117692,-0.0027478933,0.0,0.0,0.0,0.0,0.0,0.0
21727732000,21727652000,-0.0019450776,0.00083244476,0.009118789,-0.010285974,0.0017026663,0.0,0.0,0.0,0.0,0.0,0.0,0.0,0.0,0.05467224,0.0,0.0,nan,0.0,0.0,0.0045161247,-0.0005450472,0.0016117692,-0.0027478933,0.0,0.0,0.0,0.0,0.0,0.0
21727740000,21727660000,-0.0019450776,0.00083244476,0.009118789,-0.010285974,0.0017026663,0.0,0.0,0.0,0.0,0.0,0.0,0.0,0.0,0.05467224,0.0,0.0,nan,0.0,0.0,0.0045161247,-0.0005450472,0.0016117692,-0.0027478933,0.0,0.0,0.0,0.0,0.0,0.0
21727748000,21727668000,-0.0019450776,0.00083244476,0.009118789,-0.010285974,0.0017026663,0.0,0.0,0.0,0.0,0.0,0.0,0.0,0.0,0.05467224,0.0,0.0,nan,0.0,0.0,0.0045161247,-0.0005450472,0.0016117692,-0.0027478933,0.0,0.0,0.0,0.0,0.0,0.0
21727756000,21727676000,-0.0019450776,0.00083244476,0.009118789,-0.010285974,0.0017026663,0.0,0.0,0.0,0.0,0.0,0.0,0.0,0.0,0.05467224,0.0,0.0,nan,0.0,0.0,0.0045161247,-0.0005450472,0.0016117692,-0.0027478933,0.0,0.0,0.0,0.0,0.0,0.0
21727764000,21727684000,-0.0019450776,0.00083244476,0.009118789,-0.010285974,0.0017026663,0.0,0.0,0.0,0.0,0.0,0.0,0.0,0.0,0.05467224,0.0,0.0,nan,0.0,0.0,0.0045161247,-0.0005450472,0.0016117692,-0.0027478933,0.0,0.0,0.0,0.0,0.0,0.0
21727772000,21727692000,-0.0019450776,0.00083244476,0.009118789,-0.010285974,0.0017026663,0.0,0.0,0.0,0.0,0.0,0.0,0.0,0.0,0.05467224,0.0,0.0,nan,0.0,0.0,0.0045161247,-0.0005450472,0.0016117692,-0.0027478933,0.0,0.0,0.0,0.0,0.0,0.0
21727780000,21727700000,-0.0019450776,0.00083244476,0.009118789,-0.010285974,0.0017026663,0.0,0.0,0.0,0.0,0.0,0.0,0.0,0.0,0.05467224,0.0,0.0,nan,0.0,0.0,0.0045161247,-0.0005450472,0.0016117692,-0.0027478933,0.0,0.0,0.0,0.0,0.0,0.0
21727788000,21727708000,-0.0019450776,0.00083244476,0.009118789,-0.010285974,0.0017026663,0.0,0.0,0.0,0.0,0.0,0.0,0.0,0.0,0.0466156,0.0,0.0,nan,0.0,0.0,-0.0017511845,-0.0005450472,0.0016117692,-0.0027478933,0.0,0.0,0.0,0.0,0.0,0.0
21727796000,21727716000,-0.0019450776,0.00083244476,0.009118789,-0.010285974,0.0017026663,0.0,0.0,0.0,0.0,0.0,0.0,0.0,0.0,0.0466156,0.0,0.0,nan,0.0,0.0,-0.0017511845,-0.0005450472,0.0016117692,-0.0027478933,0.0,0.0,0.0,0.0,0.0,0.0
21727804000,21727724000,-0.0013469633,0.02126827,-0.0093317805,-0.010306537,0.0017844439,0.0,0.0,0.0,0.0,0.0,0.0,0.0,0.0,0.0466156,0.0,0.0,nan,0.0,0.0,-0.0017511845,-0.0005450472,0.0016117692,-0.0027478933,0.0,0.0,0.0,0.0,0.0,0.0
21727812000,21727732000,-0.0013469633,0.02126827,-0.0093317805,-0.010306537,0.0017844439,0.0,0.0,0.0,0.0,0.0,0.0,0.0,0.0,0.0466156,0.0,0.0,nan,0.0,0.0,-0.0017511845,-0.0005450472,0.0016117692,-0.0027478933,0.0,0.0,0.0,0.0,0.0,0.0
21727820000,21727740000,-0.0013469633,0.02126827,-0.0093317805,-0.010306537,0.0017844439,0.0,0.0,0.0,0.0,0.0,0.0,0.0,0.0,0.0466156,0.0,0.0,nan,0.0,0.0,-0.0017511845,-0.0005450472,0.0016117692,-0.0027478933,0.0,0.0,0.0,0.0,0.0,0.0
21727828000,21727748000,-0.0013469633,0.02126827,-0.0093317805,-0.010306537,0.0017844439,0.0,0.0,0.0,0.0,0.0,0.0,0.0,0.0,0.0466156,0.0,0.0,nan,0.0,0.0,-0.0017511845,-0.0005450472,0.0016117692,-0.0027478933,0.0,0.0,0.0,0.0,0.0,0.0
21727836000,21727756000,-0.0013469633,0.02126827,-0.0093317805,-0.010306537,0.0017844439,0.0,0.0,0.0,0.0,0.0,0.0,0.0,0.0,0.0466156,0.0,0.0,nan,0.0,0.0,-0.0017511845,-0.0005450472,0.0016117692,-0.0027478933,0.0,0.0,0.0,0.0,0.0,0.0
21727844000,21727764000,-0.0013469633,0.02126827,-0.0093317805,-0.010306537,0.0017844439,0.0,0.0,0.0,0.0,0.0,0.0,0.0,0.0,0.0466156,0.0,0.0,nan,0.0,0.0,-0.0017511845,-0.0005450472,0.0016117692,-0.0027478933,0.0,0.0,0.0,0.0,0.0,0.0
21727852000,21727772000,-0.0013469633,0.02126827,-0.0093317805,-0.010306537,0.0017844439,0.0,0.0,0.0,0.0,0.0,0.0,0.0,0.0,-0.027435303,0.0,0.0,nan,0.0,0.0,-0.0017511845,-0.0005450472,0.0016117692,-0.0027478933,0.0,0.0,0.0,0.0,0.0,0.0
21727860000,21727780000,-0.0013469633,0.02126827,-0.0093317805,-0.010306537,0.0017844439,0.0,0.0,0.0,0.0,0.0,0.0,0.0,0.0,-0.027435303,0.0,0.0,nan,0.0,0.0,-0.0012308359,-0.0005450472,0.0016117692,-0.0027478933,0.0,0.0,0.0,0.0,0.0,0.0
21727868000,21727788000,-0.0013469633,0.02126827,-0.0093317805,-0.010306537,0.0017844439,0.0,0.0,0.0,0.0,0.0,0.0,0.0,0.0,-0.027435303,0.0,0.0,nan,0.0,0.0,-0.0012308359,-0.0005450472,0.0016117692,-0.0027478933,0.0,0.0,0.0,0.0,0.0,0.0
21727876000,21727796000,-0.0013469633,0.02126827,-0.0093317805,-0.010306537,0.0017844439,0.0,0.0,0.0,0.0,0.0,0.0,0.0,0.0,-0.027435303,0.0,0.0,nan,0.0,0.0,-0.0012308359,-0.0005450472,0.0016117692,-0.0027478933,0.0,0.0,0.0,0.0,0.0,0.0
21727884000,21727804000,-0.0013469633,0.02126827,-0.0093317805,-0.010306537,0.0017844439,0.0,0.0,0.0,0.0,0.0,0.0,0.0,0.0,-0.027435303,0.0,0.0,nan,0.0,0.0,-0.0012308359,-0.0005450472,0.0016117692,-0.0027478933,0.0,0.0,0.0,0.0,0.0,0.0
21727892000,21727812000,-0.0013469633,0.02126827,-0.0093317805,-0.010306537,0.0017844439,0.0,0.0,0.0,0.0,0.0,0.0,0.0,0.0,-0.027435303,0.0,0.0,nan,0.0,0.0,-0.0012308359,-0.0005450472,0.0016117692,-0.0027478933,0.0,0.0,0.0,0.0,0.0,0.0
21727900000,21727820000,-0.0013469633,0.02126827,-0.0093317805,-0.010306537,0.0017844439,0.0,0.0,0.0,0.0,0.0,0.0,0.0,0.0,-0.027435303,0.0,0.0,nan,0.0,0.0,-0.0012308359,-0.0005450472,0.0016117692,-0.0027478933,0.0,0.0,0.0,0.0,0.0,0.0
21727908000,21727828000,-0.0013469633,0.02126827,-0.0093317805,-0.010306537,0.0017844439,0.0,0.0,0.0,0.0,0.0,0.0,0.0,0.0,-0.016860962,0.0,0.0,nan,0.0,0.0,-0.0012308359,-0.0005450472,0.0016117692,-0.0027478933,0.0,0.0,0.0,0.0,0.0,0.0
21727916000,21727836000,-0.0013469633,0.02126827,-0.0093317805,-0.010306537,0.0017844439,0.0,0.0,0.0,0.0,0.0,0.0,0.0,0.0,-0.016860962,0.0,0.0,nan,0.0,0.0,-0.0012308359,-0.0005450472,0.0016117692,-0.0027478933,0.0,0.0,0.0,0.0,0.0,0.0
21727924000,21727844000,-0.0013469633,0.02126827,-0.0093317805,-0.010306537,0.0017844439,0.0,0.0,0.0,0.0,0.0,0.0,0.0,0.0,-0.016860962,0.0,0.0,nan,0.0,0.0,-0.0012308359,-0.0005450472,0.0016117692,-0.0027478933,0.0,0.0,0.0,0.0,0.0,0.0
21727932000,21727852000,-0.0013469633,0.02126827,-0.0093317805,-0.010306537,0.0017844439,0.0,0.0,0.0,0.0,0.0,0.0,0.0,0.0,-0.016860962,0.0,0.0,nan,0.0,0.0,0.011529088,-0.0005450472,0.0016117692,-0.0027478933,0.0,0.0,0.0,0.0,0.0,0.0
21727940000,21727860000,-0.0013469633,0.02126827,-0.0093317805,-0.010306537,0.0017844439,0.0,0.0,0.0,0.0,0.0,0.0,0.0,0.0,-0.016860962,0.0,0.0,nan,0.0,0.0,0.011529088,-0.0005450472,0.0016117692,-0.0027478933,0.0,0.0,0.0,0.0,0.0,0.0
21727948000,21727868000,-0.0013469633,0.02126827,-0.0093317805,-0.010306537,0.0017844439,0.0,0.0,0.0,0.0,0.0,0.0,0.0,0.0,-0.016860962,0.0,0.0,nan,0.0,0.0,0.011529088,-0.0005450472,0.0016117692,-0.0027478933,0.0,0.0,0.0,0.0,0.0,0.0
21727956000,21727876000,-0.0013469633,0.02126827,-0.0093317805,-0.010306537,0.0017844439,0.0,0.0,0.0,0.0,0.0,0.0,0.0,0.0,-0.016860962,0.0,0.0,nan,0.0,0.0,0.011529088,-0.0005450472,0.0016117692,-0.0027478933,0.0,0.0,0.0,0.0,0.0,0.0
21727964000,21727884000,-0.0013469633,0.02126827,-0.0093317805,-0.010306537,0.0017844439,0.0,0.0,0.0,0.0,0.0,0.0,0.0,0.0,-0.016860962,0.0,0.0,nan,0.0,0.0,0.011529088,-0.0005450472,0.0016117692,-0.0027478933,0.0,0.0,0.0,0.0,0.0,0.0
21727972000,21727892000,-0.0013469633,0.02126827,-0.0093317805,-0.010306537,0.0017844439,0.0,0.0,0.0,0.0,0.0,0.0,0.0,0.0,0.0043945312,0.0,0.0,nan,0.0,0.0,0.011529088,-0.0005450472,0.0016117692,-0.0027478933,0.0,0.0,0.0,0.0,0.0,0.0
21727980000,21727900000,-0.0013469633,0.02126827,-0.0093317805,-0.010306537,0.0017844439,0.0,0.0,0.0,0.0,0.0,0.0,0.0,0.0,0.0043945312,0.0,0.0,nan,0.0,0.0,0.011529088,-0.0005450472,0.0016117692,-0.0027478933,0.0,0.0,0.0,0.0,0.0,0.0
21727988000,21727908000,-0.0013469633,0.02126827,-0.0093317805,-0.010306537,0.0017844439,0.0,0.0,0.0,0.0,0.0,0.0,0.0,0.0,0.0043945312,0.0,0.0,nan,0.0,0.0,0.011529088,-0.0005450472,0.0016117692,-0.0027478933,0.0,0.0,0.0,0.0,0.0,0.0
21727996000,21727916000,-0.0013469633,0.02126827,-0.0093317805,-0.010306537,0.0017844439,0.0,0.0,0.0,0.0,0.0,0.0,0.0,0.0,0.0043945312,0.0,0.0,nan,0.0,0.0,0.011529088,-0.0005450472,0.0016117692,-0.0027478933,0.0,0.0,0.0,0.0,0.0,0.0
21728004000,21727924000,-0.0013469633,0.02126827,-0.0093317805,-0.010306537,0.0017844439,0.0,0.0,0.0,0.0,0.0,0.0,0.0,0.0,0.0043945312,0.0,0.0,nan,0.0,0.0,0.001568675,-0.0005450472,0.0016117692,-0.0027478933,0.0,0.0,0.0,0.0,0.0,0.0
21728012000,21727932000,-0.008106113,0.0006920669,-0.0011224751,0.0008890629,0.0017949343,0.0,0.0,0.0,0.0,0.0,0.0,0.0,0.0,0.0043945312,0.0,0.0,nan,0.0,0.0,0.001568675,-0.0005450472,0.0016117692,-0.0027478933,0.0,0.0,0.0,0.0,0.0,0.0
21728020000,21727940000,-0.008106113,0.0006920669,-0.0011224751,0.0008890629,0.0017949343,0.0,0.0,0.0,0.0,0.0,0.0,0.0,0.0,0.0043945312,0.0,0.0,nan,0.0,0.0,0.001568675,-0.0005450472,0.0016117692,-0.0027478933,0.0,0.0,0.0,0.0,0.0,0.0
21728028000,21727948000,-0.008106113,0.0006920669,-0.0011224751,0.0008890629,0.0017949343,0.0,0.0,0.0,0.0,0.0,0.0,0.0,0.0,-0.15422058,0.0,0.0,nan,0.0,0.0,0.001568675,-0.0005450472,0.0016117692,-0.0027478933,0.0,0.0,0.0,0.0,0.0,0.0
21728036000,21727956000,-0.008106113,0.0006920669,-0.0011224751,0.0008890629,0.0017949343,0.0,0.0,0.0,0.0,0.0,0.0,0.0,0.0,-0.15422058,0.0,0.0,nan,0.0,0.0,0.001568675,-0.0005450472,0.0016117692,-0.0027478933,0.0,0.0,0.0,0.0,0.0,0.0
21728044000,21727964000,-0.008106113,0.0006920669,-0.0011224751,0.0008890629,0.0017949343,0.0,0.0,0.0,0.0,0.0,0.0,0.0,0.0,-0.15422058,0.0,0.0,nan,0.0,0.0,0.001568675,-0.0005450472,0.0016117692,-0.0027478933,0.0,0.0,0.0,0.0,0.0,0.0
21728052000,21727972000,-0.008106113,0.0006920669,-0.0011224751,0.0008890629,0.0017949343,0.0,0.0,0.0,0.0,0.0,0.0,0.0,0.0,-0.15422058,0.0,0.0,nan,0.0,0.0,0.001568675,-0.0005450472,0.0016117692,-0.0027478933,0.0,0.0,0.0,0.0,0.0,0.0
21728060000,21727980000,-0.008106113,0.0006920669,-0.0011224751,0.0008890629,0.0017949343,0.0,0.0,0.0,0.0,0.0,0.0,0.0,0.0,-0.15422058,0.0,0.0,nan,0.0,0.0,0.001568675,-0.0005450472,0.0016117692,-0.0027478933,0.0,0.0,0.0,0.0,0.0,0.0
21728068000,21727988000,-0.008106113,0.0006920669,-0.0011224751,0.0008890629,0.0017949343,0.0,0.0,0.0,0.0,0.0,0.0,0.0,0.0,-0.15422058,0.0,0.0,nan,0.0,0.0,0.001568675,-0.0005450472,0.0016117692,-0.0027478933,0.0,0.0,0.0,0.0,0.0,0.0
21728076000,21727996000,-0.008106113,0.0006920669,-0.0011224751,0.0008890629,0.0017949343,0.0,0.0,0.0,0.0,0.0,0.0,0.0,0.0,-0.15422058,0.0,0.0,nan,0.0,0.0,-0.011637807,-0.0005450472,0.0016117692,-0.0027478933,0.0,0.0,0.0,0.0,0.0,0.0
21728084000,21728004000,-0.008106113,0.0006920669,-0.0011224751,0.0008890629,0.0017949343,0.0,0.0,0.0,0.0,0.0,0.0,0.0,0.0,-0.15422058,0.0,0.0,nan,0.0,0.0,-0.011637807,-0.0005450472,0.0016117692,-0.0027478933,0.0,0.0,0.0,0.0,0.0,0.0
21728092000,21728012000,-0.008106113,0.0006920669,-0.0011224751,0.0008890629,0.0017949343,0.0,0.0,0.0,0.0,0.0,0.0,0.0,0.0,0.012329102,0.0,0.0,nan,0.0,0.0,-0.011637807,-0.0005450472,0.0016117692,-0.0027478933,0.0,0.0,0.0,0.0,0.0,0.0
21728100000,21728020000,-0.008106113,0.0006920669,-0.0011224751,0.0008890629,0.0017949343,0.0,0.0,0.0,0.0,0.0,0.0,0.0,0.0,0.012329102,0.0,0.0,nan,0.0,0.0,-0.011637807,-0.0005450472,0.0016117692,-0.0027478933,0.0,0.0,0.0,0.0,0.0,0.0
21728108000,21728028000,-0.008106113,0.0006920669,-0.0011224751,0.0008890629,0.0017949343,0.0,0.0,0.0,0.0,0.0,0.0,0.0,0.0,0.012329102,0.0,0.0,nan,0.0,0.0,-0.011637807,-0.0005450472,0.0016117692,-0.0027478933,0.0,0.0,0.0,0.0,0.0,0.0
21728116000,21728036000,-0.008106113,0.0006920669,-0.0011224751,0.0008890629,0.0017949343,0.0,0.0,0.0,0.0,0.0,0.0,0.0,0.0,0.012329102,0.0,0.0,nan,0.0,0.0,-0.011637807,-0.0005450472,0.0016117692,-0.0027478933,0.0,0.0,0.0,0.0,0.0,0.0
21728124000,21728044000,-0.008106113,0.0006920669,-0.0011224751,0.0008890629,0.0017949343,0.0,0.0,0.0,0.0,0.0,0.0,0.0,0.0,0.012329102,0.0,0.0,nan,0.0,0.0,-0.011637807,-0.0005450472,0.0016117692,-0.0027478933,0.0,0.0,0.0,0.0,0.0,0.0
21728132000,21728052000,-0.008106113,0.0006920669,-0.0011224751,0.0008890629,0.0017949343,0.0,0.0,0.0,0.0,0.0,0.0,0.0,0.0,0.012329102,0.0,0.0,nan,0.0,0.0,-0.011637807,-0.0005450472,0.0016117692,-0.0027478933,0.0,0.0,0.0,0.0,0.0,0.0
21728140000,21728060000,-0.008106113,0.0006920669,-0.0011224751,0.0008890629,0.0017949343,0.0,0.0,0.0,0.0,0.0,0.0,0.0,0.0,0.012329102,0.0,0.0,nan,0.0,0.0,0.0036931038,-0.0005450472,0.0016117692,-0.0027478933,0.0,0.0,0.0,0.0,0.0,0.0
21728148000,21728068000,-0.008106113,0.0006920669,-0.0011224751,0.0008890629,0.0017949343,0.0,0.0,0.0,0.0,0.0,0.0,0.0,0.0,0.028289795,0.0,0.0,nan,0.0,0.0,0.0036931038,-0.0005450472,0.0016117692,-0.0027478933,0.0,0.0,0.0,0.0,0.0,0.0
21728156000,21728076000,-0.008106113,0.0006920669,-0.0011224751,0.0008890629,0.0017949343,0.0,0.0,0.0,0.0,0.0,0.0,0.0,0.0,0.028289795,0.0,0.0,nan,0.0,0.0,0.0036931038,-0.0005450472,0.0016117692,-0.0027478933,0.0,0.0,0.0,0.0,0.0,0.0
21728164000,21728084000,-0.008106113,0.0006920669,-0.0011224751,0.0008890629,0.0017949343,0.0,0.0,0.0,0.0,0.0,0.0,0.0,0.0,0.028289795,0.0,0.0,nan,0.0,0.0,0.0036931038,-0.0005450472,0.0016117692,-0.0027478933,0.0,0.0,0.0,0.0,0.0,0.0
21728172000,21728092000,-0.008106113,0.0006920669,-0.0011224751,0.0008890629,0.0017949343,0.0,0.0,0.0,0.0,0.0,0.0,0.0,0.0,0.028289795,0.0,0.0,nan,0.0,0.0,0.0036931038,-0.0005450472,0.0016117692,-0.0027478933,0.0,0.0,0.0,0.0,0.0,0.0
21728180000,21728100000,-0.008106113,0.0006920669,-0.0011224751,0.0008890629,0.0017949343,0.0,0.0,0.0,0.0,0.0,0.0,0.0,0.0,0.028289795,0.0,0.0,nan,0.0,0.0,0.0036931038,-0.0005450472,0.0016117692,-0.0027478933,0.0,0.0,0.0,0.0,0.0,0.0
21728188000,21728108000,-0.008106113,0.0006920669,-0.0011224751,0.0008890629,0.0017949343,0.0,0.0,0.0,0.0,0.0,0.0,0.0,0.0,0.028289795,0.0,0.0,nan,0.0,0.0,0.0036931038,-0.0005450472,0.0016117692,-0.0027478933,0.0,0.0,0.0,0.0,0.0,0.0
21728196000,21728116000,-0.008106113,0.0006920669,-0.0011224751,0.0008890629,0.0017949343,0.0,0.0,0.0,0.0,0.0,0.0,0.0,0.0,0.01763916,0.0,0.0,nan,0.0,0.0,0.0036931038,-0.0005450472,0.0016117692,-0.0027478933,0.0,0.0,0.0,0.0,0.0,0.0
21728204000,21728124000,-0.008106113,0.0006920669,-0.0011224751,0.0008890629,0.0017949343,0.0,0.0,0.0,0.0,0.0,0.0,0.0,0.0,0.01763916,0.0,0.0,nan,0.0,0.0,0.0036931038,-0.0005450472,0.0016117692,-0.0027478933,0.0,0.0,0.0,0.0,0.0,0.0
21728212000,21728132000,-0.008106113,0.0006920669,-0.0011224751,0.0008890629,0.0017949343,0.0,0.0,0.0,0.0,0.0,0.0,0.0,0.0,0.01763916,0.0,0.0,nan,0.0,0.0,0.008223176,-0.0005450472,0.0016117692,-0.0027478933,0.0,0.0,0.0,0.0,0.0,0.0
21728220000,21728140000,0.0089283865,0.01921117,-0.010605629,0.0010890365,-0.0065916777,0.0,0.0,0.0,0.0,0.0,0.0,0.0,0.0,0.01763916,0.0,0.0,nan,0.0,0.0,0.008223176,-0.0005450472,0.0016117692,-0.0027478933,0.0,0.0,0.0,0.0,0.0,0.0
21728228000,21728148000,0.0089283865,0.01921117,-0.010605629,0.0010890365,-0.0065916777,0.0,0.0,0.0,0.0,0.0,0.0,0.0,0.0,0.01763916,0.0,0.0,nan,0.0,0.0,0.008223176,-0.0005450472,0.0016117692,-0.0027478933,0.0,0.0,0.0,0.0,0.0,0.0
21728236000,21728156000,0.0089283865,0.01921117,-0.010605629,0.0010890365,-0.0065916777,0.0,0.0,0.0,0.0,0.0,0.0,0.0,0.0,0.01763916,0.0,0.0,nan,0.0,0.0,0.008223176,-0.0005450472,0.0016117692,-0.0027478933,0.0,0.0,0.0,0.0,0.0,0.0
21728244000,21728164000,0.0089283865,0.01921117,-0.010605629,0.0010890365,-0.0065916777,0.0,0.0,0.0,0.0,0.0,0.0,0.0,0.0,0.01763916,0.0,0.0,nan,0.0,0.0,0.008223176,-0.0005450472,0.0016117692,-0.0027478933,0.0,0.0,0.0,0.0,0.0,0.0
21728252000,21728172000,0.0089283865,0.01921117,-0.010605629,0.0010890365,-0.0065916777,0.0,0.0,0.0,0.0,0.0,0.0,0.0,0.0,0.01763916,0.0,0.0,nan,0.0,0.0,0.008223176,-0.0005450472,0.0016117692,-0.0027478933,0.0,0.0,0.0,0.0,0.0,0.0
21728260000,21728180000,0.0089283865,0.01921117,-0.010605629,0.0010890365,-0.0065916777,0.0,0.0,0.0,0.0,0.0,0.0,0.0,0.0,0.017593384,0.0,0.0,nan,0.0,0.0,0.008223176,-0.0005450472,0.0016117692,-0.0027478933,0.0,0.0,0.0,0.0,0.0,0.0
21728268000,21728188000,0.0089283865,0.01921117,-0.010605629,0.0010890365,-0.0065916777,0.0,0.0,0.0,0.0,0.0,0.0,0.0,0.0,0.017593384,0.0,0.0,nan,0.0,0.0,0.008223176,-0.0005450472,0.0016117692,-0.0027478933,0.0,0.0,0.0,0.0,0.0,0.0
21728276000,21728196000,0.0089283865,0.01921117,-0.010605629,0.0010890365,-0.0065916777,0.0,0.0,0.0,0.0,0.0,0.0,0.0,0.0,0.017593384,0.0,0.0,nan,0.0,0.0,0.008223176,-0.0005450472,0.0016117692,-0.0027478933,0.0,0.0,0.0,0.0,0.0,0.0
21728284000,21728204000,0.0089283865,0.01921117,-0.010605629,0.0010890365,-0.0065916777,0.0,0.0,0.0,0.0,0.0,0.0,0.0,0.0,0.017593384,0.0,0.0,nan,0.0,0.0,6.1035156e-05,-0.0005450472,0.0016117692,-0.0027478933,0.0,0.0,0.0,0.0,0.0,0.0
21728292000,21728212000,0.0089283865,0.01921117,-0.010605629,0.0010890365,-0.0065916777,0.0,0.0,0.0,0.0,0.0,0.0,0.0,0.0,0.017593384,0.0,0.0,nan,0.0,0.0,6.1035156e-05,-0.0005450472,0.0016117692,-0.0027478933,0.0,0.0,0.0,0.0,0.0,0.0
21728300000,21728220000,0.0089283865,0.01921117,-0.010605629,0.0010890365,-0.0065916777,0.0,0.0,0.0,0.0,0.0,0.0,0.0,0.0,0.017593384,0.0,0.0,nan,0.0,0.0,6.1035156e-05,-0.0005450472,0.0016117692,-0.0027478933,0.0,0.0,0.0,0.0,0.0,0.0
21728308000,21728228000,0.0089283865,0.01921117,-0.010605629,0.0010890365,-0.0065916777,0.0,0.0,0.0,0.0,0.0,0.0,0.0,0.0,0.017593384,0.0,0.0,nan,0.0,0.0,6.1035156e-05,-0.0005450472,0.0016117692,-0.0027478933,0.0,0.0,0.0,0.0,0.0,0.0
21728316000,21728236000,0.0089283865,0.01921117,-0.010605629,0.0010890365,-0.0065916777,0.0,0.0,0.0,0.0,0.0,0.0,0.0,0.0,-0.019439697,0.0,0.0,nan,0.0,0.0,6.1035156e-05,-0.0005450472,0.0016117692,-0.0027478933,0.0,0.0,0.0,0.0,0.0,0.0
21728324000,21728244000,0.0089283865,0.01921117,-0.010605629,0.0010890365,-0.0065916777,0.0,0.0,0.0,0.0,0.0,0.0,0.0,0.0,-0.019439697,0.0,0.0,nan,0.0,0.0,6.1035156e-05,-0.0005450472,0.0016117692,-0.0027478933,0.0,0.0,0.0,0.0,0.0,0.0
21728332000,21728252000,0.0089283865,0.01921117,-0.010605629,0.0010890365,-0.0065916777,0.0,0.0,0.0,0.0,0.0,0.0,0.0,0.0,-0.019439697,0.0,0.0,nan,0.0,0.0,6.1035156e-05,-0.0005450472,0.0016117692,-0.0027478933,0.0,0.0,0.0,0.0,0.0,0.0
21728340000,21728260000,0.0089283865,0.01921117,-0.010605629,0.0010890365,-0.0065916777,0.0,0.0,0.0,0.0,0.0,0.0,0.0,0.0,-0.019439697,0.0,0.0,nan,0.0,0.0,6.1035156e-05,-0.0005450472,0.0016117692,-0.0027478933,0.0,0.0,0.0,0.0,0.0,0.0
21728348000,21728268000,0.0089283865,0.01921117,-0.010605629,0.0010890365,-0.0065916777,0.0,0.0,0.0,0.0,0.0,0.0,0.0,0.0,-0.019439697,0.0,0.0,nan,0.0,0.0,6.1035156e-05,-0.0005450472,0.0016117692,-0.0027478933,0.0,0.0,0.0,0.0,0.0,0.0
21728356000,21728276000,0.0089283865,0.01921117,-0.010605629,0.0010890365,-0.0065916777,0.0,0.0,0.0,0.0,0.0,0.0,0.0,0.0,-0.019439697,0.0,0.0,nan,0.0,0.0,0.014673591,-0.0005450472,0.0016117692,-0.0027478933,0.0,0.0,0.0,0.0,0.0,0.0
21728364000,21728284000,0.0089283865,0.01921117,-0.010605629,0.0010890365,-0.0065916777,0.0,0.0,0.0,0.0,0.0,0.0,0.0,0.0,-0.019439697,0.0,0.0,nan,0.0,0.0,0.014673591,-0.0005450472,0.0016117692,-0.0027478933,0.0,0.0,0.0,0.0,0.0,0.0
21728372000,21728292000,0.0089283865,0.01921117,-0.010605629,0.0010890365,-0.0065916777,0.0,0.0,0.0,0.0,0.0,0.0,0.0,0.0,-0.019439697,0.0,0.0,nan,0.0,0.0,0.014673591,-0.0005450472,0.0016117692,-0.0027478933,0.0,0.0,0.0,0.0,0.0,0.0
21728380000,21728300000,0.0089283865,0.01921117,-0.010605629,0.0010890365,-0.0065916777,0.0,0.0,0.0,0.0,0.0,0.0,0.0,0.0,-0.08015442,0.0,0.0,nan,0.0,0.0,0.014673591,-0.0005450472,0.0016117692,-0.0027478933,0.0,0.0,0.0,0.0,0.0,0.0
21728388000,21728308000,0.0089283865,0.01921117,-0.010605629,0.0010890365,-0.0065916777,0.0,0.0,0.0,0.0,0.0,0.0,0.0,0.0,-0.08015442,0.0,0.0,nan,0.0,0.0,0.014673591,-0.0005450472,0.0016117692,-0.0027478933,0.0,0.0,0.0,0.0,0.0,0.0
21728396000,21728316000,0.0089283865,0.01921117,-0.010605629,0.0010890365,-0.0065916777,0.0,0.0,0.0,0.0,0.0,0.0,0.0,0.0,-0.08015442,0.0,0.0,nan,0.0,0.0,0.014673591,-0.0005450472,0.0016117692,-0.0027478933,0.0,0.0,0.0,0.0,0.0,0.0
21728404000,21728324000,0.0089283865,0.01921117,-0.010605629,0.0010890365,-0.0065916777,0.0,0.0,0.0,0.0,0.0,0.0,0.0,0.0,-0.08015442,0.0,0.0,nan,0.0,0.0,0.014673591,-0.0005450472,0.0016117692,-0.0027478933,0.0,0.0,0.0,0.0,0.0,0.0
