timestamp,timestamp_sample,output_tracking_error[0],output_tracking_error[1],output_tracking_error[2],control_mode_flags,filter_fault_flags,pos_horiz_accuracy,pos_vert_accuracy,mag_test_ratio,vel_test_ratio,pos_test_ratio,hgt_test_ratio,tas_test_ratio,hagl_test_ratio,beta_test_ratio,time_slip,accel_device_id,gyro_device_id,baro_device_id,mag_device_id,gps_check_fail_flags,innovation_check_flags,solution_status_flags,reset_count_vel_ne,reset_count_vel_d,reset_count_pos_ne,reset_count_pod_d,reset_count_quat,pre_flt_fail_innov_heading,pre_flt_fail_innov_vel_horiz,pre_flt_fail_innov_vel_vert,pre_flt_fail_innov_height,pre_flt_fail_mag_field_disturbed,health_flags,timeout_flags
21726360000,21726280000,0.00023229154,0.0049829497,0.0016521942,67109399,0,0.049090695,0.05540983,0.018453857,0.007958854,0.00046997314,0.00018569798,0.0,0.0,0.0,0.0,1310996,1310996,6620172,197644,0,0,895,2,1,2,0,47,0,0,0,0,0,0,0
21726368000,21726288000,0.00021823571,0.004767391,0.0016282244,67109399,0,0.049092,0.055410445,0.018453857,0.007958854,0.00046997314,0.00018569798,0.0,0.0,0.0,0.0,1310996,1310996,6620172,197644,0,0,895,2,1,2,0,47,0,0,0,0,0,0,0
21726552000,21726472000,0.0002399378,0.0047867894,0.0014591407,67109399,0,0.049104568,0.055388164,0.014413446,0.007958854,0.00046997314,0.00010723406,0.0,0.0,0.0,0.0,1310996,1310996,6620172,197644,0,0,895,2,1,2,0,47,0,0,0,0,0,0,0
21726760000,21726680000,0.00020440762,0.0040801647,0.0011432624,67109399,0,0.049090795,0.05537438,0.009327234,0.0021514227,0.00039775236,0.00019703171,0.0,0.0,0.0,0.0,1310996,1310996,6620172,197644,0,0,895,2,1,2,0,47,0,0,0,0,0,0,0
21726960000,21726880000,0.00018899185,0.0043531805,0.001545659,67109399,0,0.04907637,0.05536029,0.008161366,0.007984955,0.0019905255,0.0023696115,0.0,0.0,0.0,0.0,1310996,1310996,6620172,197644,0,0,895,2,1,2,0,47,0,0,0,0,0,0,0
21727152000,21727072000,0.00011948345,0.0013306701,0.0013067706,67109399,0,0.04906173,0.055339172,0.023911228,0.00023508906,0.0019661505,0.0017645673,0.0,0.0,0.0,0.0,1310996,1310996,6620172,197644,0,0,895,2,1,2,0,47,0,0,0,0,0,0,0
21727360000,21727280000,0.0001677887,0.002322369,0.0010902995,67109399,0,0.049048062,0.055325445,0.0039140857,0.0012341079,0.0019737524,0.0063006566,0.0,0.0,0.0,0.0,1310996,1310996,6620172,197644,0,0,895,2,1,2,0,47,0,0,0,0,0,0,0
21727560000,21727480000,0.0002240633,0.0023492551,0.0010599217,67109399,0,0.049034126,0.0553047,0.062061537,0.004109392,0.0019558584,0.0026843399,0.0,0.0,0.0,0.0,1310996,1310996,6620172,197644,0,0,895,2,1,2,0,47,0,0,0,0,0,0,0
21727752000,21727672000,0.00016172456,0.003435713,0.0011546875,67109399,0,0.04904967,0.055290863,0.0065861796,0.004109392,0.0019558584,0.0031507644,0.0,0.0,0.0,0.0,1310996,1310996,6620172,197644,0,0,895,2,1,2,0,47,0,0,0,0,0,0,0
21727952000,21727872000,0.000190481,0.0021468047,0.00089597475,67109399,0,0.04903597,0.055277165,0.015585414,0.014152162,0.0019545602,0.00093720865,0.0,0.0,0.0,0.0,1310996,1310996,6620172,197644,0,0,895,2,1,2,0,47,0,0,0,0,0,0,0
21728152000,21728072000,8.548465e-05,0.0010321115,0.0005346016,67109399,0,0.049022317,0.05525661,0.0054903408,0.0053578573,0.0004219142,0.0016442564,0.0,0.0,0.0,0.0,1310996,1310996,6620172,197644,0,0,895,2,1,2,0,47,0,0,0,0,0,0,0
21728352000,21728272000,0.00018318559,0.0025807566,0.00053642155,67109399,0,0.049008697,0.055242974,0.01949676,0.012717283,0.0012533526,0.0010854185,0.0,0.0,0.0,0.0,1310996,1310996,6620172,197644,0,0,895,2,1,2,0,47,0,0,0,0,0,0,0
21728560000,21728480000,0.00022805561,0.0043912157,0.00079761207,67109399,0,0.048995145,0.055222504,0.023246385,0.00011499951,0.0018878331,0.0013818382,0.0,0.0,0.0,0.0,1310996,1310996,6620172,197644,0,0,895,2,1,2,0,47,0,0,0,0,0,0,0
21728752000,21728672000,8.776417e-05,0.0020412938,0.0009283443,67109399,0,0.049013417,0.055224434,0.0015028729,0.0066306726,0.0018836521,0.0001682617,0.0,0.0,0.0,0.0,1310996,1310996,6620172,197644,0,0,895,2,1,2,0,47,0,0,0,0,0,0,0
21728960000,21728880000,9.7762815e-05,0.0013191814,0.00081243576,67109399,0,0.04899993,0.055204015,0.021970682,0.009056265,0.001218518,0.009203829,0.0,0.0,0.0,0.0,1310996,1310996,6620172,197644,0,0,895,2,1,2,0,47,0,0,0,0,0,0,0
21729160000,21729080000,3.9063267e-05,0.0011145889,0.00066010695,67109399,0,0.04900994,0.05518769,0.0067338618,0.009056265,0.001218518,0.0013460938,0.0,0.0,0.0,0.0,1310996,1310996,6620172,197644,0,0,895,2,1,2,0,47,0,0,0,0,0,0,0
21729360000,21729280000,3.647473e-05,0.002466599,0.0009592132,67109399,0,0.04899107,0.055171624,0.014006726,0.007145693,0.0012415831,0.004380908,0.0,0.0,0.0,0.0,1310996,1310996,6620172,197644,0,0,895,2,1,2,0,47,0,0,0,0,0,0,0
21729560000,21729480000,8.7969805e-05,0.0025368803,0.0010865715,67109399,0,0.048972704,0.055148967,0.006227215,0.013168659,0.001265292,0.0003208307,0.0,0.0,0.0,0.0,1310996,1310996,6620172,197644,0,0,895,2,1,2,0,47,0,0,0,0,0,0,0
21729760000,21729680000,7.3926596e-05,0.0015806411,0.0007213463,67109399,0,0.04895488,0.055133406,0.01241171,0.00050458155,0.00041269377,0.00075063924,0.0,0.0,0.0,0.0,1310996,1310996,6620172,197644,0,0,895,2,1,2,0,47,0,0,0,0,0,0,0
21729952000,21729872000,0.00011825899,0.0026404453,0.0009594665,67109399,0,0.0489339,0.055116393,0.014007489,0.006627366,0.00041176463,0.004056591,0.0,0.0,0.0,0.0,1310996,1310996,6620172,197644,0,0,895,2,1,2,0,47,0,0,0,0,0,0,0
21730160000,21730080000,5.755209e-05,0.0045807315,0.001434673,67109399,0,0.048920557,0.05509613,0.008433387,0.01759301,0.00040795235,0.006654623,0.0,0.0,0.0,0.0,1310996,1310996,6620172,197644,0,0,895,2,1,2,0,47,0,0,0,0,0,0,0
21730352000,21730272000,7.862912e-05,0.002936843,0.0013383807,67109399,0,0.048930485,0.055079903,0.0045969523,0.01759301,0.00040795235,0.00044201416,0.0,0.0,0.0,0.0,1310996,1310996,6620172,197644,0,0,895,2,1,2,0,47,0,0,0,0,0,0,0
21730560000,21730480000,0.00015888867,0.004349694,0.001323655,67109399,0,0.048917107,0.055059694,0.008924488,0.015149048,0.0003956094,0.001344351,0.0,0.0,0.0,0.0,1310996,1310996,6620172,197644,0,0,895,2,1,2,0,47,0,0,0,0,0,0,0
21730760000,21730680000,8.939228e-05,0.0035986474,0.00145943,67109399,0,0.048901305,0.055045173,0.0040912186,0.008297798,0.0019015372,0.00088315667,0.0,0.0,0.0,0.0,1310996,1310996,6620172,197644,0,0,895,2,1,2,0,47,0,0,0,0,0,0,0
21730960000,21730880000,0.000109942506,0.0030287046,0.0013635182,67109399,0,0.048885863,0.055024017,0.021346584,0.013653503,0.0018552169,0.0018264694,0.0,0.0,0.0,0.0,1310996,1310996,6620172,197644,0,0,895,2,1,2,0,47,0,0,0,0,0,0,0
21731160000,21731080000,5.312179e-05,0.003221749,0.0012820425,67109399,0,0.04887074,0.055009827,0.0055403896,0.006757947,0.00034862172,0.0015213313,0.0,0.0,0.0,0.0,1310996,1310996,6620172,197644,0,0,895,2,1,2,0,47,0,0,0,0,0,0,0
21731352000,21731272000,9.8693374e-05,0.003769858,0.001300339,67109399,0,0.048854616,0.054995164,0.010361911,0.012544496,0.00034507152,0.0030165082,0.0,0.0,0.0,0.0,1310996,1310996,6620172,197644,0,0,895,2,1,2,0,47,0,0,0,0,0,0,0
21731552000,21731472000,0.00022075199,0.005757688,0.0016843213,67109399,0,0.048840288,0.05497458,0.019337071,0.018200342,0.00040186476,0.00044898895,0.0,0.0,0.0,0.0,1310996,1310996,6620172,197644,0,0,895,2,1,2,0,47,0,0,0,0,0,0,0
21731760000,21731680000,0.00012664153,0.002201746,0.0011612411,67109399,0,0.048856214,0.054954536,0.0037134793,0.018200342,0.00040186476,0.0009084399,0.0,0.0,0.0,0.0,1310996,1310996,6620172,197644,0,0,895,2,1,2,0,47,0,0,0,0,0,0,0
21731960000,21731880000,0.00019222325,0.001795403,0.00059407135,67109399,0,0.048842084,0.054940872,0.03760668,0.0037963972,0.0004108123,0.003919718,0.0,0.0,0.0,0.0,1310996,1310996,6620172,197644,0,0,895,2,1,2,0,47,0,0,0,0,0,0,0
21732160000,21732080000,0.00021183195,0.0042016506,0.00081977923,67109399,0,0.04882818,0.05492731,0.003006209,0.022664137,0.00044133564,0.0012135782,0.0,0.0,0.0,0.0,1310996,1310996,6620172,197644,0,0,895,2,1,2,0,47,0,0,0,0,0,0,0
21732360000,21732280000,0.00016046315,0.0057002236,0.0014039519,67109399,0,0.04881448,0.054907087,0.0058619953,0.0082448535,0.00042861182,0.007242238,0.0,0.0,0.0,0.0,1310996,1310996,6620172,197644,0,0,895,2,1,2,0,47,0,0,0,0,0,0,0
21732560000,21732480000,0.00020553355,0.008809764,0.002167523,67109399,0,0.04880092,0.054893706,0.008829611,0.015781729,0.001974217,0.0016582084,0.0,0.0,0.0,0.0,1310996,1310996,6620172,197644,0,0,895,2,1,2,0,47,0,0,0,0,0,0,0
21732760000,21732680000,0.00025787042,0.00905514,0.0027353286,67109399,0,0.048787486,0.054880396,7.53651e-05,0.0073900875,0.0012275062,0.00028944542,0.0,0.0,0.0,0.0,1310996,1310996,6620172,197644,0,0,895,2,1,2,0,47,0,0,0,0,0,0,0
21732960000,21732880000,0.00014932132,0.00682101,0.0026116404,67109399,0,0.048803236,0.054860402,0.021556716,0.0073900875,0.0012275062,0.00090669666,0.0,0.0,0.0,0.0,1310996,1310996,6620172,197644,0,0,895,2,1,2,0,47,0,0,0,0,0,0,0
21733160000,21733080000,0.00016631717,0.002355525,0.0017289288,1049239,0,0.048860148,0.054881066,0.007161211,0.0067826374,0.0019319595,1.1754944e-38,0.0,0.0,0.0,0.0,1310996,1310996,6620172,197644,0,0,895,2,1,2,0,47,0,0,0,0,0,0,0
21733360000,21733280000,0.00012018115,0.0007146237,0.0007412804,1049239,0,0.04934852,0.055107623,0.05007018,0.013281849,0.0019429139,0.002223148,0.0,0.0,0.0,0.0,1310996,1310996,6620172,197644,0,0,895,2,1,2,0,47,0,0,0,0,0,0,0
21733560000,21733480000,0.00012870082,0.0011185645,0.0002587832,1049239,0,0.050714895,0.05579863,0.0310916,0.01013232,0.0019642303,1.1754944e-38,0.0,0.0,0.0,0.0,1310996,1310996,6620172,197644,0,0,895,2,1,2,0,47,0,0,0,0,0,0,0
21733760000,21733680000,4.6649147e-05,0.0015736365,0.0005785142,1049239,0,0.05340586,0.05723015,0.008683915,0.012761655,0.00093986664,0.0042466144,0.0,0.0,0.0,0.0,1310996,1310996,6620172,197644,0,0,895,2,1,2,0,47,0,0,0,0,0,0,0
21733960000,21733880000,2.2052935e-05,0.0012761403,0.0005796699,1049239,0,0.05776917,0.059675246,0.004566754,0.030231107,0.0013338767,1.1754944e-38,0.0,0.0,0.0,0.0,1310996,1310996,6620172,197644,0,0,895,2,1,2,0,47,0,0,0,0,0,0,0
21734152000,21734072000,2.8835344e-05,0.0011373009,0.0006071943,1049239,0,0.06368155,0.063202664,0.005880301,0.008842813,0.0017926672,0.00029379354,0.0,0.0,0.0,0.0,1310996,1310996,6620172,197644,0,0,895,2,1,2,0,47,0,0,0,0,0,0,0
21734360000,21734280000,1.5800602e-05,0.0013000169,0.00068248744,1049239,0,0.072585575,0.068611175,0.008764918,0.008842813,0.0017926672,0.00043501047,0.0,0.0,0.0,0.0,1310996,1310996,6620172,197644,0,0,895,2,1,2,0,47,0,0,0,0,0,0,0
21734552000,21734472000,2.5530238e-05,0.001473461,0.0008602488,1049239,0,0.08222579,0.07490909,0.0017568886,0.01427632,0.0016183851,0.0009885466,0.0,0.0,0.0,0.0,1310996,1310996,6620172,197644,0,0,895,2,1,2,0,47,0,0,0,0,0,0,0
21734760000,21734680000,3.6249552e-05,0.00209226,0.0016463944,1049239,0,0.09441244,0.083198406,0.00845079,0.042013437,0.0036673567,0.0034815576,0.0,0.0,0.0,0.0,1310996,1310996,6620172,197644,0,0,895,2,1,2,0,47,0,0,0,0,0,0,0
21734960000,21734880000,5.1788298e-05,0.0021841344,0.0019291952,663,0,0.107416525,0.09241249,0.013875232,0.031717483,0.0039936304,0.005411965,0.0,0.0,0.0,0.0,1310996,1310996,6620172,197644,0,0,895,2,1,2,0,47,0,0,0,0,0,0,0
21735152000,21735072000,0.00010721308,0.000956887,0.0010053177,663,0,0.120584585,0.102275044,0.037798095,0.013448097,0.0038728483,0.003719869,0.0,0.0,0.0,0.0,1310996,1310996,6620172,197644,0,0,895,2,1,2,0,47,0,0,0,0,0,0,0
21735360000,21735280000,2.7421456e-05,0.0011832417,0.002151907,663,0,0.13549869,0.11394385,0.0038077573,0.042472072,0.0052637826,0.0018963249,0.0,0.0,0.0,0.0,1310996,1310996,6620172,197644,0,0,895,2,1,2,0,47,0,0,0,0,0,0,0
21735552000,21735472000,0.00773402,0.0004237446,0.0010465101,8389271,0,0.15352042,0.12684509,0.09173362,0.042472072,0.0052637826,0.0005507079,0.0,0.0,0.0,0.0,1310996,1310996,6620172,197644,0,0,895,2,1,2,0,48,0,0,0,0,0,0,0
21735760000,21735680000,0.011961312,0.0014184371,0.0030212842,8389271,0,0.16846497,0.140203,0.063922524,0.024872929,0.005854234,0.004211704,0.0,0.0,0.0,0.0,1310996,1310996,6620172,197644,0,0,895,2,1,2,0,48,0,0,0,0,0,0,0
21735960000,21735880000,0.008829459,0.0017705195,0.0038349917,8389271,0,0.1818518,0.15323627,0.059506815,0.032914665,0.0048184516,0.004294532,0.0,0.0,0.0,0.0,1310996,1310996,6620172,197644,0,0,895,2,1,2,0,48,0,0,0,0,0,0,0
21736160000,21736080000,0.0039040113,0.003532165,0.0069727977,8389271,0,0.19449852,0.16661642,0.046233766,0.050042223,0.006025417,0.0004119707,0.0,0.0,0.0,0.0,1310996,1310996,6620172,197644,0,0,895,2,1,2,0,48,0,0,0,0,0,0,0
21736360000,21736280000,0.0043698023,0.0017243068,0.0037982145,8389271,0,0.2064525,0.17985761,0.04695477,0.01914075,0.006547429,0.0046194815,0.0,0.0,0.0,0.0,1310996,1310996,6620172,197644,0,0,895,2,1,2,0,48,0,0,0,0,0,0,0
21736552000,21736472000,0.0033883064,0.0029928917,0.0062352605,8389271,0,0.21699749,0.19252735,0.060492896,0.0377814,0.0064950087,0.00468225,0.0,0.0,0.0,0.0,1310996,1310996,6620172,197644,0,0,895,2,1,2,0,48,0,0,0,0,0,0,0
21736760000,21736680000,0.0021263792,0.0023359929,0.0047619375,8389271,0,0.22842751,0.20649368,0.029958345,0.020559644,0.00637752,0.0011342171,0.0,0.0,0.0,0.0,1310996,1310996,6620172,197644,0,0,895,2,1,2,0,48,0,0,0,0,0,0,0
21736960000,21736880000,0.0012759095,0.0006781389,0.0015018965,8389271,0,0.24846184,0.22394371,0.0003341318,0.020559644,0.00637752,0.004969464,0.0,0.0,0.0,0.0,1310996,1310996,6620172,197644,0,0,895,2,1,2,0,48,0,0,0,0,0,0,0
21737160000,21737080000,0.0017002306,0.0016848006,0.0035683925,8389271,0,0.25796154,0.23672675,0.033965997,0.02457713,0.00623683,0.0019174519,0.0,0.0,0.0,0.0,1310996,1310996,6620172,197644,0,0,895,2,1,2,0,48,0,0,0,0,0,0,0
21737360000,21737280000,0.0015372332,0.0013373843,0.0025577284,8389271,0,0.26673186,0.2484566,0.024304282,0.020889891,0.0060817823,0.001140236,0.0,0.0,0.0,0.0,1310996,1310996,6620172,197644,0,0,895,2,1,2,0,48,0,0,0,0,0,0,0
21737560000,21737480000,0.00095011585,0.0012720044,0.0020819153,8389271,0,0.27476323,0.2602659,0.027834283,0.008203415,0.007307573,0.004130417,0.0,0.0,0.0,0.0,1310996,1310996,6620172,197644,0,0,895,2,1,2,0,48,0,0,0,0,0,0,0
21737752000,21737672000,0.0007373023,0.001857002,0.0025393115,8389271,0,0.28123614,0.27075717,0.03213187,0.014512523,0.00709757,0.0051955986,0.0,0.0,0.0,0.0,1310996,1310996,6620172,197644,0,0,895,2,1,2,0,48,0,0,0,0,0,0,0
21737960000,21737880000,0.00092282786,0.0016953305,0.002653975,8389271,0,0.28872487,0.28145918,0.021398157,0.0071137273,0.007218025,0.0024031706,0.0,0.0,0.0,0.0,1310996,1310996,6620172,197644,0,0,895,2,1,2,0,48,0,0,0,0,0,0,0
21738152000,21738072000,0.0010687369,0.0011855264,0.0016249818,8389271,0,0.31039563,0.29836518,0.022864074,0.0071137273,0.007218025,0.0039505614,0.0,0.0,0.0,0.0,1310996,1310996,6620172,197644,0,0,831,2,1,2,0,48,0,0,0,0,0,0,0
21738352000,21738272000,0.000863999,0.00058218057,0.0011359188,8389271,0,0.31480792,0.30786347,0.022024116,0.008819429,0.0074470923,0.004259912,0.0,0.0,0.0,0.0,1310996,1310996,6620172,197644,0,0,831,2,1,2,0,48,0,0,0,0,0,0,0
21738560000,21738480000,0.0006999173,0.0023768,0.0043724407,8389271,0,0.31951424,0.31633675,0.022851879,0.022229306,0.007120554,0.0039790072,0.0,0.0,0.0,0.0,1310996,1310996,6620172,197644,0,0,831,2,1,2,0,48,0,0,0,0,0,0,0
21738760000,21738680000,0.00015634256,0.0014775259,0.0018323736,8389271,0,0.32279804,0.324626,0.004014369,0.009579224,0.007584651,0.00501685,0.0,0.0,0.0,0.0,1310996,1310996,6620172,197644,0,0,831,2,1,2,0,48,0,0,0,0,0,0,0
21738960000,21738880000,0.0005275997,0.0037845336,0.0072007123,8389271,0,0.32565027,0.3309125,0.0006858617,0.026739521,0.0071724043,0.014991994,0.0,0.0,0.0,0.0,1310996,1310996,6620172,197644,0,0,831,2,1,2,0,48,0,0,0,0,0,0,0
21739160000,21739080000,0.00027363695,0.003366405,0.006104433,8389271,0,0.32818946,0.33816814,0.014616118,0.015480498,0.0076481006,0.004482855,0.0,0.0,0.0,0.0,1310996,1310996,6620172,197644,0,0,831,2,1,2,0,48,0,0,0,0,0,0,0
21739352000,21739272000,0.0007284791,0.006524271,0.0065128147,8389351,0,0.3295306,0.344178,0.031806108,0.024038445,0.0073205684,0.005879624,0.0,0.0,0.0,0.0,1310996,1310996,6620172,197644,0,0,831,2,1,2,0,48,0,0,0,0,0,0,0
21739552000,21739472000,5.573882e-05,0.0030293572,0.0019333512,8389351,0,0.3521393,0.35744318,0.0026102865,0.024038445,0.0073205684,0.0027922045,0.0,0.0,0.0,0.0,1310996,1310996,6620172,197644,0,0,831,2,1,2,0,48,0,0,0,0,0,0,0
21739760000,21739680000,0.0014860639,0.014581197,0.021521999,8389351,0,0.35270777,0.3637336,0.033306856,0.09356925,0.011878158,0.0069922856,0.0,0.0,0.0,0.0,1310996,1310996,6620172,197644,0,0,831,2,1,2,0,48,0,0,0,0,0,0,0
21739952000,21739872000,0.001545919,0.01674505,0.024728052,8389351,0,0.35142887,0.36803225,0.011172624,0.067075245,0.00900775,0.002332014,0.0,0.0,0.0,0.0,1310996,1310996,6620172,197644,0,0,831,2,1,2,0,48,0,0,0,0,0,0,0
21740152000,21740072000,0.001281132,0.014798395,0.023191463,8389351,0,0.35108098,0.37070778,0.009328056,0.046896398,0.00976069,0.014099386,0.0,0.0,0.0,0.0,1310996,1310996,6620172,197644,0,0,831,2,1,2,0,48,0,0,0,0,0,0,0
21740352000,21740272000,0.0011942605,0.012877231,0.0205139,8389351,0,0.35071698,0.3751024,0.023276629,0.040734723,0.0052464064,0.0046594287,0.0,0.0,0.0,0.0,1310996,1310996,6620172,197644,0,0,831,2,1,2,0,48,0,0,0,0,0,0,0
21740560000,21740480000,0.0008634432,0.0096897,0.015666245,8389351,0,0.35115197,0.37779576,0.004216379,0.035191678,0.0039905286,0.0073261503,0.0,0.0,0.0,0.0,1310996,1310996,6620172,197644,0,0,831,2,1,2,0,48,0,0,0,0,0,0,0
21740760000,21740680000,0.0001306966,0.004427009,0.0070567257,8389351,0,0.37311178,0.39007273,0.00800921,0.035191678,0.0039905286,0.0012618098,0.0,0.0,0.0,0.0,1310996,1310996,6620172,197644,0,0,831,2,1,2,0,48,0,0,0,0,0,0,0
21740960000,21740880000,0.00075200276,0.0074744886,0.012928845,8389351,0,0.37028626,0.3907261,0.009970788,0.049684975,0.006483957,0.0050872318,0.0,0.0,0.0,0.0,1310996,1310996,6620172,197644,0,0,831,2,1,2,0,48,0,0,0,0,0,0,0
21741160000,21741080000,0.00043556793,0.0063816686,0.011468646,8389351,0,0.36782357,0.3935884,0.026990322,0.0311784,0.004538309,0.0026314482,0.0,0.0,0.0,0.0,1310996,1310996,6620172,197644,0,0,831,2,1,2,0,48,0,0,0,0,0,0,0
21741360000,21741280000,0.00024779,0.0063980427,0.011484842,8389351,0,0.36562982,0.396265,0.015020791,0.04048914,0.0037443626,0.015740769,0.0,0.0,0.0,0.0,1310996,1310996,6620172,197644,0,0,831,2,1,2,0,48,0,0,0,0,0,0,0
21741552000,21741472000,0.00038791884,0.0064463867,0.01154346,8389351,0,0.3628423,0.39548585,0.0049415897,0.034513544,0.0048426483,0.007065055,0.0,0.0,0.0,0.0,1310996,1310996,6620172,197644,0,0,831,2,1,2,0,48,0,0,0,0,0,0,0
21741760000,21741680000,0.00027171776,0.004926773,0.0082231,8389351,0,0.36181283,0.3985421,0.010617584,0.03474295,0.004034244,0.012525833,0.0,0.0,0.0,0.0,1310996,1310996,6620172,197644,0,0,831,2,1,2,0,48,0,0,0,0,0,0,0
21741952000,21741872000,9.626266e-05,0.006357364,0.010762713,8389351,0,0.3593568,0.39746904,0.010687899,0.015593986,0.0011916275,0.0035734468,0.0,0.0,0.0,0.0,1310996,1310996,6620172,197644,0,0,831,2,1,2,0,48,0,0,0,0,0,0,0
21742160000,21742080000,1.7513543e-05,0.007207301,0.014070505,8389351,0,0.3800737,0.4077795,0.031327356,0.015593986,0.0011916275,0.017840298,0.0,0.0,0.0,0.0,1310996,1310996,6620172,197644,0,0,831,2,1,2,0,48,0,0,0,0,0,0,0
21742352000,21742272000,0.00019341092,0.007483579,0.014452253,8389351,0,0.37572682,0.40863886,0.005376173,0.04483497,0.01043624,0.011320663,0.0,0.0,0.0,0.0,1310996,1310996,6620172,197644,0,0,831,2,1,2,0,48,0,0,0,0,0,0,0
21742560000,21742480000,3.3167446e-05,0.006561425,0.012247052,8389351,0,0.37337336,0.40805563,0.024775222,0.011520132,0.008063007,0.011341725,0.0,0.0,0.0,0.0,1310996,1310996,6620172,197644,0,0,831,2,1,2,0,48,0,0,0,0,0,0,0
21742752000,21742672000,0.00013549053,0.0042760456,0.009786159,8389351,0,0.36976033,0.4087733,0.049812432,0.031649914,0.0022748066,0.007695656,0.0,0.0,0.0,0.0,1310996,1310996,6620172,197644,0,0,831,2,1,2,0,48,0,0,0,0,0,0,0
21742952000,21742872000,3.7159498e-05,0.005187085,0.011369179,8389351,0,0.36717558,0.4073605,0.013930691,0.0046378397,0.008213775,0.012535703,0.0,0.0,0.0,0.0,1310996,1310996,6620172,197644,0,0,831,2,1,2,0,48,0,0,0,0,0,0,0
21743152000,21743072000,4.443549e-05,0.0037058461,0.007095773,8389351,0,0.3647984,0.40864223,0.042452835,0.017879898,0.006215742,0.006974966,0.0,0.0,0.0,0.0,1310996,1310996,6620172,197644,0,0,831,2,1,2,0,48,0,0,0,0,0,0,0
21743352000,21743272000,2.7721248e-05,0.0052706464,0.012025894,8389351,0,0.38372692,0.41390756,0.0025907988,0.017879898,0.006215742,0.009450341,0.0,0.0,0.0,0.0,1310996,1310996,6620172,197644,0,0,831,2,1,2,0,48,0,0,0,0,0,0,0
21743560000,21743480000,4.5829584e-05,0.003883704,0.007332828,8389351,0,0.380446,0.41545272,0.037339095,0.022017404,0.007974783,0.0049866294,0.0,0.0,0.0,0.0,1310996,1310996,6620172,197644,0,0,831,2,1,2,0,48,0,0,0,0,0,0,0
21743760000,21743680000,9.582354e-05,0.0021748482,0.003469318,8389351,0,0.37686485,0.4134262,0.01717062,0.02518847,0.009816116,0.0049595656,0.0,0.0,0.0,0.0,1310996,1310996,6620172,197644,0,0,831,2,1,2,0,48,0,0,0,0,0,0,0
21743960000,21743880000,1.557175e-05,0.0037430807,0.0060204626,8389351,0,0.37362522,0.4142867,0.0058889408,0.0059200493,0.010427414,0.0011958032,0.0,0.0,0.0,0.0,1310996,1310996,6620172,197644,0,0,831,2,1,2,0,48,0,0,0,0,0,0,0
21744160000,21744080000,9.820888e-05,0.00615309,0.012880011,8389351,0,0.37060997,0.41228217,0.03098477,0.018092172,0.0032562278,0.009272036,0.0,0.0,0.0,0.0,1310996,1310996,6620172,197644,0,0,831,2,1,2,0,48,0,0,0,0,0,0,0
21744360000,21744280000,7.5426775e-05,0.0043206136,0.008810003,8389351,0,0.36784908,0.41311505,0.020281915,0.021599008,0.0044129477,0.004758176,0.0,0.0,0.0,0.0,1310996,1310996,6620172,197644,0,0,831,2,1,2,0,48,0,0,0,0,0,0,0
21744560000,21744480000,4.2019852e-05,0.0036741141,0.0077064564,8389351,0,0.36536857,0.41110346,0.067544386,0.009297979,0.0150989005,0.011230898,0.0,0.0,0.0,0.0,1310996,1310996,6620172,197644,0,0,831,2,1,2,0,48,0,0,0,0,0,0,0
21744760000,21744680000,1.3247165e-05,0.0039471895,0.0072791087,8389351,0,0.3834828,0.41820607,0.008067857,0.009297979,0.0150989005,0.005086234,0.0,0.0,0.0,0.0,1310996,1310996,6620172,197644,0,0,831,2,1,2,0,48,0,0,0,0,0,0,0
21744960000,21744880000,4.405375e-05,0.00433724,0.008578492,8389351,0,0.37952524,0.41575414,0.027740424,0.012229172,0.00890458,0.008479226,0.0,0.0,0.0,0.0,1310996,1310996,6620172,197644,0,0,831,2,1,2,0,48,0,0,0,0,0,0,0
21745152000,21745072000,1.2239805e-05,0.0036830835,0.006522236,8389351,0,0.3752355,0.41567257,0.03435476,0.0147672985,0.008235501,0.010428526,0.0,0.0,0.0,0.0,1310996,1310996,6620172,197644,0,0,831,2,1,2,0,48,0,0,0,0,0,0,0
21745360000,21745280000,2.1499443e-05,0.0037169831,0.0070131416,8389271,0,0.372721,0.41686955,0.0026491927,0.0046846177,0.0080758,0.008285174,0.0,0.0,0.0,0.0,1310996,1310996,6620172,197644,0,0,831,2,1,2,0,48,0,0,0,0,0,0,0
21745552000,21745472000,0.00014900861,0.005336356,0.009530001,8389271,0,0.36907348,0.4138837,0.021337582,0.015924625,0.008356884,0.0071992343,0.0,0.0,0.0,0.0,1310996,1310996,6620172,197644,0,0,831,2,1,2,0,48,0,0,0,0,0,0,0
21745760000,21745680000,0.00012268551,0.003429189,0.0075826542,8389271,0,0.36706164,0.4150566,0.001008864,0.03226669,0.009953344,0.0040140823,0.0,0.0,0.0,0.0,1310996,1310996,6620172,197644,0,0,831,2,1,2,0,48,0,0,0,0,0,0,0
21745960000,21745880000,4.3846343e-05,0.0024666921,0.004691669,8389271,0,0.38514945,0.41875714,0.0038382583,0.03226669,0.009953344,0.009975087,0.0,0.0,0.0,0.0,1310996,1310996,6620172,197644,0,0,831,2,1,2,0,48,0,0,0,0,0,0,0
21746160000,21746080000,5.4172295e-05,0.002699084,0.0057455916,8389271,0,0.3810612,0.41909418,0.0042441194,0.01801276,0.018298866,0.005113771,0.0,0.0,0.0,0.0,1310996,1310996,6620172,197644,0,0,831,2,1,2,0,48,0,0,0,0,0,0,0
21746352000,21746272000,6.703151e-05,0.0024996593,0.004511145,8389271,0,0.3765884,0.41880056,0.0034873642,0.00555272,0.009247318,0.004261174,0.0,0.0,0.0,0.0,1310996,1310996,6620172,197644,0,0,831,2,1,2,0,48,0,0,0,0,0,0,0
21746552000,21746472000,9.642603e-05,0.0027756377,0.004849467,8389271,0,0.37320933,0.41618904,0.0066520013,0.0068236836,0.010814132,0.00644214,0.0,0.0,0.0,0.0,1310996,1310996,6620172,197644,0,0,831,2,1,2,0,48,0,0,0,0,0,0,0
21746760000,21746680000,0.00014725518,0.0017649228,0.0029794923,8389271,0,0.37082973,0.41719595,0.005490749,0.004754899,0.00825418,0.0064847423,0.0,0.0,0.0,0.0,1310996,1310996,6620172,197644,0,0,831,2,1,2,0,48,0,0,0,0,0,0,0
21746960000,21746880000,6.789079e-05,0.0027353077,0.004464532,8389271,0,0.36800572,0.41466466,0.0005724655,0.015214102,0.012853445,0.0040216763,0.0,0.0,0.0,0.0,1310996,1310996,6620172,197644,0,0,831,2,1,2,0,48,0,0,0,0,0,0,0
21747160000,21747080000,0.00015204519,0.002500559,0.0057244133,8389271,0,0.36541387,0.41511446,0.0016740969,0.023928482,0.00871247,0.004983715,0.0,0.0,0.0,0.0,1310996,1310996,6620172,197644,0,0,831,2,1,2,0,48,0,0,0,0,0,0,0
21747352000,21747272000,7.344639e-05,0.0017944559,0.0049079475,8389271,0,0.38257143,0.42085603,0.009842956,0.023928482,0.00871247,0.011220305,0.0,0.0,0.0,0.0,1310996,1310996,6620172,197644,0,0,831,2,1,2,0,48,0,0,0,0,0,0,0
21747560000,21747480000,0.0001097244,0.0013349446,0.0022007762,8389271,0,0.37938678,0.41875422,0.005399978,0.013627244,0.012812132,0.002204996,0.0,0.0,0.0,0.0,1310996,1310996,6620172,197644,0,0,831,2,1,2,0,48,0,0,0,0,0,0,0
21747760000,21747680000,0.00021369389,0.0030808528,0.00786872,8389271,0,0.3758327,0.4190746,0.012836893,0.032023735,0.012334591,0.007780649,0.0,0.0,0.0,0.0,1310996,1310996,6620172,197644,0,0,831,2,1,2,0,48,0,0,0,0,0,0,0
21747952000,21747872000,0.00014188587,0.0024161248,0.004309833,8389271,0,0.37190115,0.4158596,0.014852553,0.01135401,0.011114562,0.0014025797,0.0,0.0,0.0,0.0,1310996,1310996,6620172,197644,0,0,831,2,1,2,0,48,0,0,0,0,0,0,0
21748160000,21748080000,8.0086174e-05,0.003138362,0.005367221,8389271,0,0.36966774,0.41686073,0.009873801,0.016602743,0.012982369,0.0053697736,0.0,0.0,0.0,0.0,1310996,1310996,6620172,197644,0,0,831,2,1,2,0,48,0,0,0,0,0,0,0
21748352000,21748272000,8.655804e-05,0.003975139,0.009013775,8389271,0,0.36629036,0.41378936,0.003341897,0.03027962,0.012950898,0.0010554508,0.0,0.0,0.0,0.0,1310996,1310996,6620172,197644,0,0,831,2,1,2,0,48,0,0,0,0,0,0,0
21748560000,21748480000,0.00013483026,0.0020326073,0.0048300233,8389271,0,0.3851311,0.4206438,0.013053892,0.03027962,0.012950898,0.006478787,0.0,0.0,0.0,0.0,1310996,1310996,6620172,197644,0,0,831,2,1,2,0,48,0,0,0,0,0,0,0
21748760000,21748680000,5.8046287e-05,0.0032887666,0.008510111,8389271,0,0.38097867,0.42087832,0.0020438915,0.027439825,0.014022079,0.0016067988,0.0,0.0,0.0,0.0,1310996,1310996,6620172,197644,0,0,831,2,1,2,0,48,0,0,0,0,0,0,0
21748952000,21748872000,0.00010178705,0.002724741,0.007960907,8389271,0,0.37651747,0.41751814,0.008132048,0.02308947,0.014325938,0.0026958608,0.0,0.0,0.0,0.0,1310996,1310996,6620172,197644,0,0,831,2,1,2,0,48,0,0,0,0,0,0,0
21749160000,21749080000,7.127252e-05,0.0025137733,0.0059353923,8389271,0,0.37386784,0.41840175,0.009914553,0.017955327,0.010909988,0.0006848083,0.0,0.0,0.0,0.0,1310996,1310996,6620172,197644,0,0,831,2,1,2,0,48,0,0,0,0,0,0,0
21749360000,21749280000,9.180704e-05,0.0024811157,0.006977874,8389271,0,0.37079576,0.41574785,0.015172052,0.018886363,0.014780096,0.001078756,0.0,0.0,0.0,0.0,1310996,1310996,6620172,197644,0,0,831,2,1,2,0,48,0,0,0,0,0,0,0
21749552000,21749472000,0.00025340612,0.0032312789,0.008104056,8389271,0,0.36729985,0.41550726,0.020942764,0.03486173,0.011186729,0.0059186076,0.0,0.0,0.0,0.0,1310996,1310996,6620172,197644,0,0,831,2,1,2,0,48,0,0,0,0,0,0,0
21749760000,21749680000,5.9170263e-05,0.0024168487,0.0055083795,8389271,0,0.36541364,0.41358018,0.0014989969,0.017322617,0.013696899,0.0017013402,0.0,0.0,0.0,0.0,1310996,1310996,6620172,197644,0,0,831,2,1,2,0,48,0,0,0,0,0,0,0
21749952000,21749872000,1.2634883e-05,0.0022714904,0.005562219,8389271,0,0.38268563,0.4190663,0.0039648707,0.017322617,0.013696899,0.0019019714,0.0,0.0,0.0,0.0,1310996,1310996,6620172,197644,0,0,831,2,1,2,0,48,0,0,0,0,0,0,0
21750160000,21750080000,6.764218e-05,0.00065231835,0.0016206404,8389271,0,0.37949887,0.41993156,0.0070353313,0.019586945,0.018997494,0.0037071027,0.0,0.0,0.0,0.0,1310996,1310996,6620172,197644,0,0,831,2,1,2,0,48,0,0,0,0,0,0,0
21750352000,21750272000,7.915975e-05,0.0025113705,0.0073889517,8389271,0,0.37521753,0.416615,0.014302051,0.031306274,0.015906572,0.0021903012,0.0,0.0,0.0,0.0,1310996,1310996,6620172,197644,0,0,831,2,1,2,0,48,0,0,0,0,0,0,0
21750560000,21750480000,6.307347e-05,0.0012403983,0.004566507,8389271,0,0.37271616,0.4175151,0.008900665,0.019292085,0.01405848,0.0065322774,0.0,0.0,0.0,0.0,1310996,1310996,6620172,197644,0,0,831,2,1,2,0,48,0,0,0,0,0,0,0
21750752000,21750672000,0.00014808534,0.0013404426,0.0035106863,8389271,0,0.36907595,0.41727003,0.02666061,0.019401256,0.013605847,0.0075111142,0.0,0.0,0.0,0.0,1310996,1310996,6620172,197644,0,0,831,2,1,2,0,48,0,0,0,0,0,0,0
21750960000,21750880000,7.941553e-05,0.0012144218,0.0016560575,8389271,0,0.36708257,0.41528824,0.00784402,0.0067304014,0.018058576,0.0013524161,0.0,0.0,0.0,0.0,1310996,1310996,6620172,197644,0,0,831,2,1,2,0,48,0,0,0,0,0,0,0
21751160000,21751080000,0.00012225453,0.0026538223,0.006451531,8389271,0,0.3853197,0.42134392,0.0023467008,0.0067304014,0.018058576,0.0010033248,0.0,0.0,0.0,0.0,1310996,1310996,6620172,197644,0,0,831,2,1,2,0,48,0,0,0,0,0,0,0
21751360000,21751280000,4.9690512e-05,0.0024072758,0.00578852,8389271,0,0.38114926,0.4184898,0.00536039,0.025004528,0.009441075,0.0038202258,0.0,0.0,0.0,0.0,1310996,1310996,6620172,197644,0,0,831,2,1,2,0,48,0,0,0,0,0,0,0
21751552000,21751472000,8.0453305e-05,0.002442682,0.005491388,8389271,0,0.37667227,0.41809624,0.015022494,0.008591197,0.012838755,0.005502536,0.0,0.0,0.0,0.0,1310996,1310996,6620172,197644,0,0,831,2,1,2,0,48,0,0,0,0,0,0,0
21751752000,21751672000,4.2711396e-05,0.0029103598,0.006098006,8389271,0,0.37329835,0.41831958,0.0073883757,0.01248412,0.010395804,0.00019392834,0.0,0.0,0.0,0.0,1310996,1310996,6620172,197644,0,0,831,2,1,2,0,48,0,0,0,0,0,0,0
21751960000,21751880000,0.00013327492,0.0028660512,0.0066315965,8389271,0,0.37093198,0.4161907,0.016723914,0.0092494385,0.010553584,0.0020778286,0.0,0.0,0.0,0.0,1310996,1310996,6620172,197644,0,0,831,2,1,2,0,48,0,0,0,0,0,0,0
21752160000,21752080000,0.00013295474,0.0022783538,0.0053718765,8389271,0,0.36811593,0.41646168,0.01378793,0.008229268,0.009744417,0.001739369,0.0,0.0,0.0,0.0,1310996,1310996,6620172,197644,0,0,831,2,1,2,0,48,0,0,0,0,0,0,0
21752352000,21752272000,3.8396553e-05,0.0021059783,0.004678488,8389271,0,0.3648509,0.4161604,0.008685221,0.008317009,0.013995258,0.0038303614,0.0,0.0,0.0,0.0,1310996,1310996,6620172,197644,0,0,831,2,1,2,0,48,0,0,0,0,0,0,0
21752552000,21752472000,0.00020583949,0.0024444505,0.00658329,8389271,0,0.38282716,0.422055,0.03197551,0.008317009,0.013995258,0.0076475483,0.0,0.0,0.0,0.0,1310996,1310996,6620172,197644,0,0,831,2,1,2,0,48,0,0,0,0,0,0,0
21752760000,21752680000,0.00011683625,0.0029217321,0.0056862463,8389271,0,0.37962678,0.41974014,0.0037857792,0.01719019,0.018057315,0.000114271315,0.0,0.0,0.0,0.0,1310996,1310996,6620172,197644,0,0,831,2,1,2,0,48,0,0,0,0,0,0,0
21752952000,21752872000,5.739075e-05,0.003630819,0.006554415,8389271,0,0.37533134,0.41930577,0.008415734,0.01953387,0.01650115,0.0004510594,0.0,0.0,0.0,0.0,1310996,1310996,6620172,197644,0,0,831,2,1,2,0,48,0,0,0,0,0,0,0
21753160000,21753080000,7.621032e-05,0.0044156983,0.009965452,8389271,0,0.37281978,0.4171257,0.007161448,0.01913162,0.012451524,0.0057009733,0.0,0.0,0.0,0.0,1310996,1310996,6620172,197644,0,0,831,2,1,2,0,48,0,0,0,0,0,0,0
21753352000,21753272000,0.00014307085,0.0058894944,0.011579064,8389271,0,0.36917055,0.4167765,0.008938904,0.033379365,0.014573717,0.0010216191,0.0,0.0,0.0,0.0,1310996,1310996,6620172,197644,0,0,831,2,1,2,0,48,0,0,0,0,0,0,0
21753560000,21753480000,0.00014761733,0.004364351,0.009545962,8389271,0,0.36716795,0.4176168,0.023820097,0.01394484,0.012596883,0.0020918262,0.0,0.0,0.0,0.0,1310996,1310996,6620172,197644,0,0,831,2,1,2,0,48,0,0,0,0,0,0,0
21753760000,21753680000,9.647372e-05,0.0025643918,0.007798305,8389271,0,0.38538855,0.42046782,0.013744111,0.01394484,0.012596883,0.0021295487,0.0,0.0,0.0,0.0,1310996,1310996,6620172,197644,0,0,831,2,1,2,0,48,0,0,0,0,0,0,0
21753960000,21753880000,8.0551305e-05,0.0021219905,0.0052713887,8389271,0,0.38121086,0.42059645,0.013306267,0.01201214,0.013252237,0.0039476794,0.0,0.0,0.0,0.0,1310996,1310996,6620172,197644,0,0,831,2,1,2,0,48,0,0,0,0,0,0,0
21754160000,21754080000,0.00010085043,0.004466712,0.010002091,8389271,0,0.37745696,0.41774356,0.01175032,0.033141606,0.0125650335,0.008416487,0.0,0.0,0.0,0.0,1310996,1310996,6620172,197644,0,0,831,2,1,2,0,48,0,0,0,0,0,0,0
21754360000,21754280000,0.000106122345,0.0035653715,0.0075725815,8389271,0,0.37406072,0.41792753,0.01888961,0.019970404,0.008597533,0.00094885635,0.0,0.0,0.0,0.0,1310996,1310996,6620172,197644,0,0,831,2,1,2,0,48,0,0,0,0,0,0,0
21754552000,21754472000,0.00011454576,0.004863708,0.009376957,8389271,0,0.3702711,0.41755176,0.0074016824,0.031678557,0.012594166,6.753162e-05,0.0,0.0,0.0,0.0,1310996,1310996,6620172,197644,0,0,831,2,1,2,0,48,0,0,0,0,0,0,0
21754752000,21754672000,9.810532e-05,0.0037395086,0.0077602356,8389271,0,0.36745983,0.414831,0.005556073,0.01909906,0.0069733653,0.003722009,0.0,0.0,0.0,0.0,1310996,1310996,6620172,197644,0,0,831,2,1,2,0,48,0,0,0,0,0,0,0
21754952000,21754872000,0.00011599973,0.0045253243,0.010513757,8389271,0,0.36488006,0.41508713,0.01112611,0.029589029,0.011484024,0.0026649667,0.0,0.0,0.0,0.0,1310996,1310996,6620172,197644,0,0,831,2,1,2,0,48,0,0,0,0,0,0,0
21755152000,21755072000,0.00011779636,0.0016901736,0.0056885667,8389271,0,0.38281673,0.42075667,0.014117061,0.029589029,0.011484024,0.0019833106,0.0,0.0,0.0,0.0,1310996,1310996,6620172,197644,0,0,831,2,1,2,0,48,0,0,0,0,0,0,0
21755352000,21755272000,9.162609e-05,0.0037890233,0.010014108,8389271,0,0.37887576,0.4178518,0.0073012095,0.035647694,0.013282553,0.0033130809,0.0,0.0,0.0,0.0,1310996,1310996,6620172,197644,0,0,831,2,1,2,0,48,0,0,0,0,0,0,0
21755560000,21755480000,5.9484148e-05,0.0021820955,0.006296406,8389271,0,0.37604547,0.41861632,0.0014360145,0.014646055,0.014067909,0.003910633,0.0,0.0,0.0,0.0,1310996,1310996,6620172,197644,0,0,831,2,1,2,0,48,0,0,0,0,0,0,0
21755752000,21755672000,0.00014118847,0.004352702,0.010473651,8389271,0,0.37209806,0.41822505,0.0018220055,0.039088875,0.009295808,0.008924531,0.0,0.0,0.0,0.0,1310996,1310996,6620172,197644,0,0,831,2,1,2,0,48,0,0,0,0,0,0,0
21755960000,21755880000,0.0001404592,0.00385624,0.007705715,8389271,0,0.36985615,0.41606644,0.010849284,0.03325743,0.0152045945,0.002070951,0.0,0.0,0.0,0.0,1310996,1310996,6620172,197644,0,0,831,2,1,2,0,48,0,0,0,0,0,0,0
21756160000,21756080000,0.00014004612,0.0042865477,0.009352148,8389271,0,0.36715272,0.4163134,0.0024921598,0.035237763,0.019104911,0.0035914436,0.0,0.0,0.0,0.0,1310996,1310996,6620172,197644,0,0,831,2,1,2,0,48,0,0,0,0,0,0,0
21756360000,21756280000,9.9103185e-05,0.0009059193,0.004172923,8389271,0,0.38532946,0.41901198,0.007126307,0.035237763,0.019104911,0.0020413513,0.0,0.0,0.0,0.0,1310996,1310996,6620172,197644,0,0,831,2,1,2,0,48,0,0,0,0,0,0,0
21756552000,21756472000,0.00014042453,0.0016861319,0.0036916593,8389271,0,0.38041362,0.41858998,0.015287144,0.02899688,0.0134305395,0.0035131832,0.0,0.0,0.0,0.0,1310996,1310996,6620172,197644,0,0,831,2,1,2,0,48,0,0,0,0,0,0,0
21756752000,21756672000,0.000118168085,0.003232408,0.007947127,8389271,0,0.37668118,0.4187833,0.003157049,0.035933036,0.010716339,0.0064102933,0.0,0.0,0.0,0.0,1310996,1310996,6620172,197644,0,0,831,2,1,2,0,48,0,0,0,0,0,0,0
21756960000,21756880000,8.0408034e-05,0.0019397753,0.0050116484,8389271,0,0.3740161,0.41662237,0.014749802,0.027001023,0.014214199,0.0048692594,0.0,0.0,0.0,0.0,1310996,1310996,6620172,197644,0,0,831,2,1,2,0,48,0,0,0,0,0,0,0
21757152000,21757072000,0.00020128673,0.003429526,0.0087391585,8389271,0,0.37022993,0.4163237,0.0075163916,0.037562482,0.008956854,0.0012286298,0.0,0.0,0.0,0.0,1310996,1310996,6620172,197644,0,0,831,2,1,2,0,48,0,0,0,0,0,0,0
21757352000,21757272000,0.00014706187,0.0042153206,0.010717573,8389271,0,0.36742085,0.41370016,0.006821492,0.03840389,0.013703197,0.002453777,0.0,0.0,0.0,0.0,1310996,1310996,6620172,197644,0,0,831,2,1,2,0,48,0,0,0,0,0,0,0
21757552000,21757472000,0.00015332548,0.0042222016,0.011859166,8389271,0,0.364842,0.41401586,0.0018243997,0.040610224,0.00892056,0.007858537,0.0,0.0,0.0,0.0,1310996,1310996,6620172,197644,0,0,831,2,1,2,0,48,0,0,0,0,0,0,0
21757760000,21757680000,5.8934354e-05,0.0020532832,0.0048673027,8389271,0,0.38349763,0.4172323,0.0082880035,0.040610224,0.00892056,0.00990569,0.0,0.0,0.0,0.0,1310996,1310996,6620172,197644,0,0,831,2,1,2,0,48,0,0,0,0,0,0,0
21757960000,21757880000,9.656534e-05,0.0009354635,0.0013152742,8389271,0,0.37954575,0.4174521,0.0006491242,0.0327386,0.013129358,0.0071305297,0.0,0.0,0.0,0.0,1310996,1310996,6620172,197644,0,0,831,2,1,2,0,48,0,0,0,0,0,0,0
21758152000,21758072000,0.00012150992,0.0016741307,0.005980838,8389271,0,0.37525985,0.41711313,0.012226145,0.03519768,0.017664626,0.0086156,0.0,0.0,0.0,0.0,1310996,1310996,6620172,197644,0,0,831,2,1,2,0,48,0,0,0,0,0,0,0
21758360000,21758280000,8.0459555e-05,0.0021892206,0.0051512597,8389271,0,0.37274802,0.41501138,0.002237981,0.03585275,0.014201235,9.350784e-05,0.0,0.0,0.0,0.0,1310996,1310996,6620172,197644,0,0,831,2,1,2,0,48,0,0,0,0,0,0,0
21758560000,21758480000,2.9467588e-05,0.0038552976,0.008488753,8389271,0,0.3697994,0.4153234,0.00442309,0.045753617,0.015185497,0.0031144777,0.0,0.0,0.0,0.0,1310996,1310996,6620172,197644,0,0,831,2,1,2,0,48,0,0,0,0,0,0,0
21758760000,21758680000,0.00012161835,0.004148969,0.009264821,8389271,0,0.36709914,0.4127745,0.021796934,0.038330674,0.014469027,0.0007844714,0.0,0.0,0.0,0.0,1310996,1310996,6620172,197644,0,0,831,2,1,2,0,48,0,0,0,0,0,0,0
21758952000,21758872000,8.526307e-05,0.0032173756,0.0047196564,8389271,0,0.38447192,0.41776696,0.02154939,0.038330674,0.014469027,0.0011107567,0.0,0.0,0.0,0.0,1310996,1310996,6620172,197644,0,0,831,2,1,2,0,48,0,0,0,0,0,0,0
21759152000,21759072000,6.553304e-05,0.004031058,0.007029488,8389271,0,0.38033122,0.417978,0.0053109517,0.018800333,0.0093992585,0.003382592,0.0,0.0,0.0,0.0,1310996,1310996,6620172,197644,0,0,831,2,1,2,0,48,0,0,0,0,0,0,0
21759360000,21759280000,7.8833975e-05,0.0020433613,0.004338181,8389271,0,0.37733206,0.4158793,0.0042156787,0.03769345,0.009312933,0.006834664,0.0,0.0,0.0,0.0,1310996,1310996,6620172,197644,0,0,831,2,1,2,0,48,0,0,0,0,0,0,0
21759560000,21759480000,0.00012447675,0.001829854,0.0051632514,8389271,0,0.37394542,0.41619155,0.021581512,0.034359995,0.009643375,0.010350521,0.0,0.0,0.0,0.0,1310996,1310996,6620172,197644,0,0,831,2,1,2,0,48,0,0,0,0,0,0,0
21759760000,21759680000,0.0001663912,0.0024756473,0.0071082553,8389271,0,0.37086388,0.41364732,0.028855665,0.03889609,0.010743883,0.0065070144,0.0,0.0,0.0,0.0,1310996,1310996,6620172,197644,0,0,831,2,1,2,0,48,0,0,0,0,0,0,0
21759960000,21759880000,3.378402e-05,0.0044625592,0.010090552,8389271,0,0.36804715,0.41404253,0.0052741054,0.0441324,0.010988623,0.011236886,0.0,0.0,0.0,0.0,1310996,1310996,6620172,197644,0,0,831,2,1,2,0,48,0,0,0,0,0,0,0
21760152000,21760072000,8.204849e-05,0.0047820304,0.012598166,8389271,0,0.3647842,0.41101488,0.011657224,0.04984204,0.012789528,0.0054075313,0.0,0.0,0.0,0.0,1310996,1310996,6620172,197644,0,0,831,2,1,2,0,48,0,0,0,0,0,0,0
21760360000,21760280000,6.402926e-05,0.0031704975,0.005625234,8389271,0,0.38340017,0.41710305,0.019743424,0.04984204,0.012789528,0.0041513625,0.0,0.0,0.0,0.0,1310996,1310996,6620172,197644,0,0,831,2,1,2,0,48,0,0,0,0,0,0,0
21760552000,21760472000,6.3274194e-05,0.0036146806,0.006510811,8389271,0,0.37872314,0.41678905,0.0032542949,0.054796852,0.016961636,0.0069204355,0.0,0.0,0.0,0.0,1310996,1310996,6620172,197644,0,0,831,2,1,2,0,48,0,0,0,0,0,0,0
21760760000,21760680000,0.00010602807,0.0041019632,0.010745766,8389271,0,0.37590295,0.41475552,0.006282428,0.06218603,0.011795701,0.013627157,0.0,0.0,0.0,0.0,1310996,1310996,6620172,197644,0,0,831,2,1,2,0,48,0,0,0,0,0,0,0
21760960000,21760880000,7.891577e-05,0.0035495632,0.009115885,8389271,0,0.37267524,0.41509357,0.015475483,0.04057095,0.012696548,0.007481905,0.0,0.0,0.0,0.0,1310996,1310996,6620172,197644,0,0,831,2,1,2,0,48,0,0,0,0,0,0,0
21761160000,21761080000,7.2700175e-05,0.0036787402,0.0077977823,8389271,0,0.3697314,0.4125498,0.0006713468,0.03473497,0.01197553,0.0030340056,0.0,0.0,0.0,0.0,1310996,1310996,6620172,197644,0,0,831,2,1,2,0,48,0,0,0,0,0,0,0
21761360000,21761280000,9.553696e-05,0.003455149,0.0071727913,8389271,0,0.3670352,0.41295436,0.004113984,0.04759358,0.014071988,0.0015499727,0.0,0.0,0.0,0.0,1310996,1310996,6620172,197644,0,0,831,2,1,2,0,48,0,0,0,0,0,0,0
21761560000,21761480000,8.541687e-05,0.0028808177,0.0062642917,8389271,0,0.38514018,0.4185259,0.011082931,0.04759358,0.014071988,0.0081435125,0.0,0.0,0.0,0.0,1310996,1310996,6620172,197644,0,0,831,2,1,2,0,48,0,0,0,0,0,0,0
21761752000,21761672000,5.6747707e-05,0.0021159886,0.004710513,8389271,0,0.38024843,0.4152447,0.009788188,0.030052464,0.011345837,0.0025506162,0.0,0.0,0.0,0.0,1310996,1310996,6620172,197644,0,0,831,2,1,2,0,48,0,0,0,0,0,0,0
21761960000,21761880000,0.00011853853,0.003746187,0.006789279,8389271,0,0.3772571,0.41609573,0.008985403,0.035417963,0.011511179,0.012047819,0.0,0.0,0.0,0.0,1310996,1310996,6620172,197644,0,0,831,2,1,2,0,48,0,0,0,0,0,0,0
21762152000,21762072000,8.775838e-05,0.0023464276,0.0045986157,8389271,0,0.37323296,0.41581464,0.02777284,0.03826271,0.015863858,0.010407395,0.0,0.0,0.0,0.0,1310996,1310996,6620172,197644,0,0,831,2,1,2,0,48,0,0,0,0,0,0,0
21762360000,21762280000,8.5421794e-05,0.0030551986,0.006604337,8389271,0,0.37086105,0.4137723,0.019942157,0.040434845,0.011065547,0.011820352,0.0,0.0,0.0,0.0,1310996,1310996,6620172,197644,0,0,831,2,1,2,0,48,0,0,0,0,0,0,0
21762560000,21762480000,0.00014906772,0.0047619413,0.010558335,8389271,0,0.36804318,0.4141137,0.0004161603,0.060529646,0.010057146,0.007921153,0.0,0.0,0.0,0.0,1310996,1310996,6620172,197644,0,0,831,2,1,2,0,48,0,0,0,0,0,0,0
21762752000,21762672000,0.00012894247,0.0033239184,0.007066459,8389271,0,0.36483824,0.4110738,0.009572339,0.031982712,0.011482453,0.002324109,0.0,0.0,0.0,0.0,1310996,1310996,6620172,197644,0,0,831,2,1,2,0,48,0,0,0,0,0,0,0
21762960000,21762880000,1.2512245e-05,0.0025034468,0.0059262915,8389271,0,0.38345203,0.4171267,0.0014123357,0.031982712,0.011482453,0.010257823,0.0,0.0,0.0,0.0,1310996,1310996,6620172,197644,0,0,831,2,1,2,0,48,0,0,0,0,0,0,0
21763160000,21763080000,0.00017075909,0.003477784,0.008210143,8389271,0,0.37950376,0.41739938,0.04865676,0.0072194273,0.0119546745,0.01612171,0.0,0.0,0.0,0.0,1310996,1310996,6620172,197644,0,0,831,2,1,2,0,48,0,0,0,0,0,0,0
21763352000,21763272000,9.677958e-05,0.0025925667,0.0044365176,8389271,0,0.37522238,0.41418415,0.015273468,0.034743812,0.011283894,0.0061940826,0.0,0.0,0.0,0.0,1310996,1310996,6620172,197644,0,0,831,2,1,2,0,48,0,0,0,0,0,0,0
21763552000,21763472000,0.00013845834,0.0027938874,0.004801169,8389271,0,0.37200347,0.41449487,0.041014064,0.036402855,0.012326141,0.005362178,0.0,0.0,0.0,0.0,1310996,1310996,6620172,197644,0,0,831,2,1,2,0,48,0,0,0,0,0,0,0
21763760000,21763680000,8.289477e-05,0.002045783,0.003607792,8389271,0,0.36976147,0.4124917,0.003183083,0.024945134,0.009993308,0.0113781905,0.0,0.0,0.0,0.0,1310996,1310996,6620172,197644,0,0,831,2,1,2,0,48,0,0,0,0,0,0,0
21763952000,21763872000,0.00012240197,0.0010337252,0.0028396214,8389271,0,0.3663761,0.4122883,0.001961877,0.028219182,0.010262694,0.016591063,0.0,0.0,0.0,0.0,1310996,1310996,6620172,197644,0,0,831,2,1,2,0,48,0,0,0,0,0,0,0
21764152000,21764072000,2.7490178e-05,0.0027573176,0.0058815703,8389271,0,0.38439402,0.41775492,0.006132342,0.028219182,0.010262694,0.008034315,0.0,0.0,0.0,0.0,1310996,1310996,6620172,197644,0,0,831,2,1,2,0,48,0,0,0,0,0,0,0
21764352000,21764272000,7.324103e-05,0.001943869,0.003203301,8389271,0,0.38026083,0.415037,0.009448212,0.034496345,0.006271105,0.0075358865,0.0,0.0,0.0,0.0,1310996,1310996,6620172,197644,0,0,831,2,1,2,0,48,0,0,0,0,0,0,0
21764560000,21764480000,6.426901e-05,0.0012276061,0.0034605507,8389271,0,0.37726626,0.41590926,0.0036026689,0.036870938,0.010263869,0.0037915013,0.0,0.0,0.0,0.0,1310996,1310996,6620172,197644,0,0,831,2,1,2,0,48,0,0,0,0,0,0,0
21764760000,21764680000,7.4801625e-05,0.001991536,0.004650377,8389271,0,0.37388483,0.4133339,0.00066378445,0.010910618,0.007975206,0.005213259,0.0,0.0,0.0,0.0,1310996,1310996,6620172,197644,0,0,831,2,1,2,0,48,0,0,0,0,0,0,0
21764960000,21764880000,6.0317703e-05,0.0022121507,0.008229387,8389271,0,0.37080655,0.41370142,0.0013359627,0.026720507,0.0102097485,0.009858964,0.0,0.0,0.0,0.0,1310996,1310996,6620172,197644,0,0,831,2,1,2,0,48,0,0,0,0,0,0,0
21765160000,21765080000,7.525113e-05,0.0029856022,0.0070849354,8389271,0,0.36799198,0.41407436,0.015242566,0.019158369,0.008350732,0.010423779,0.0,0.0,0.0,0.0,1310996,1310996,6620172,197644,0,0,831,2,1,2,0,48,0,0,0,0,0,0,0
21765360000,21765280000,0.000121289355,0.0017765478,0.0032913478,8389271,0,0.3654083,0.41159233,0.0063742786,0.027378622,0.009670815,0.009289344,0.0,0.0,0.0,0.0,1310996,1310996,6620172,197644,0,0,831,2,1,2,0,48,0,0,0,0,0,0,0
21765560000,21765480000,8.488184e-05,0.003039598,0.007538637,8389271,0,0.38330764,0.41704306,0.021843357,0.027378622,0.009670815,0.012930537,0.0,0.0,0.0,0.0,1310996,1310996,6620172,197644,0,0,831,2,1,2,0,48,0,0,0,0,0,0,0
21765760000,21765680000,9.977538e-05,0.0019995812,0.0058701932,8389271,0,0.37937513,0.41729492,0.0044877427,0.025449676,0.013452382,0.006710921,0.0,0.0,0.0,0.0,1310996,1310996,6620172,197644,0,0,831,2,1,2,0,48,0,0,0,0,0,0,0
21765960000,21765880000,3.473927e-05,0.0017385994,0.0031954779,8389271,0,0.37582585,0.41463292,0.003283735,0.028184181,0.013382515,0.0080147805,0.0,0.0,0.0,0.0,1310996,1310996,6620172,197644,0,0,831,2,1,2,0,48,0,0,0,0,0,0,0
21766160000,21766080000,4.6779045e-05,0.0024686824,0.0060931165,8389271,0,0.37260315,0.41493124,0.0055506616,0.012809885,0.014775361,0.010934804,0.0,0.0,0.0,0.0,1310996,1310996,6620172,197644,0,0,831,2,1,2,0,48,0,0,0,0,0,0,0
21766352000,21766272000,4.8050068e-05,0.0020877963,0.0059605497,8389271,0,0.36897,0.41469082,0.0011092805,0.019867562,0.013082552,0.007122065,0.0,0.0,0.0,0.0,1310996,1310996,6620172,197644,0,0,831,2,1,2,0,48,0,0,0,0,0,0,0
21766560000,21766480000,5.0022565e-05,0.0021389925,0.0053389464,8389271,0,0.36697033,0.41273248,0.0002692732,0.023062931,0.012839244,0.0029890742,0.0,0.0,0.0,0.0,1310996,1310996,6620172,197644,0,0,831,2,1,2,0,48,0,0,0,0,0,0,0
21766752000,21766672000,5.9668833e-05,0.0026158637,0.006030683,8389271,0,0.38427475,0.4176373,0.020527652,0.023062931,0.012839244,0.0091634905,0.0,0.0,0.0,0.0,1310996,1310996,6620172,197644,0,0,831,2,1,2,0,48,0,0,0,0,0,0,0
21766960000,21766880000,5.6629062e-05,0.002353814,0.0048429593,8389271,0,0.38089463,0.41551843,0.010509479,0.0317276,0.006418569,0.01290386,0.0,0.0,0.0,0.0,1310996,1310996,6620172,197644,0,0,831,2,1,2,0,48,0,0,0,0,0,0,0
21767160000,21767080000,8.227626e-05,0.0025466476,0.006795988,8389271,0,0.3771696,0.41579902,0.028810877,0.016501052,0.006747846,0.0059057823,0.0,0.0,0.0,0.0,1310996,1310996,6620172,197644,0,0,831,2,1,2,0,48,0,0,0,0,0,0,0
21767352000,21767272000,1.972795e-05,0.0026296424,0.007612106,8389271,0,0.37308806,0.41552863,0.0016129055,0.013331515,0.008142,0.008450836,0.0,0.0,0.0,0.0,1310996,1310996,6620172,197644,0,0,831,2,1,2,0,48,0,0,0,0,0,0,0
21767560000,21767480000,7.774925e-05,0.0008736272,0.0028183463,8389271,0,0.370726,0.41350308,0.0019281065,0.041878648,0.007407665,0.0033500025,0.0,0.0,0.0,0.0,1310996,1310996,6620172,197644,0,0,831,2,1,2,0,48,0,0,0,0,0,0,0
21767752000,21767672000,0.000114343515,0.0016391837,0.0026828146,8389271,0,0.36723265,0.41327545,0.0075607933,0.03362487,0.012373469,0.0046523754,0.0,0.0,0.0,0.0,1310996,1310996,6620172,197644,0,0,831,2,1,2,0,48,0,0,0,0,0,0,0
21767952000,21767872000,1.1725234e-05,0.0017929322,0.004538252,8389271,0,0.385274,0.41579995,0.0069830376,0.03362487,0.012373469,0.004962513,0.0,0.0,0.0,0.0,1310996,1310996,6620172,197644,0,0,831,2,1,2,0,48,0,0,0,0,0,0,0
21768160000,21768080000,1.0800049e-05,0.0026498183,0.0066136466,8389271,0,0.38177267,0.4166179,0.0054842522,0.0071335835,0.014066622,0.008553237,0.0,0.0,0.0,0.0,1310996,1310996,6620172,197644,0,0,831,2,1,2,0,48,0,0,0,0,0,0,0
21768352000,21768272000,5.268457e-05,0.0011373209,0.0035026483,8389271,0,0.37728676,0.416327,0.001494833,0.02888927,0.016373048,0.004278123,0.0,0.0,0.0,0.0,1310996,1310996,6620172,197644,0,0,831,2,1,2,0,48,0,0,0,0,0,0,0
21768552000,21768472000,5.0789204e-05,0.00061085966,0.0023346571,8389271,0,0.37389654,0.413723,0.0029620547,0.020958947,0.02228671,0.0071440004,0.0,0.0,0.0,0.0,1310996,1310996,6620172,197644,0,0,831,2,1,2,0,48,0,0,0,0,0,0,0
21768752000,21768672000,3.398966e-05,0.0018649729,0.0036854397,8389271,0,0.37074742,0.41407347,0.0017772343,0.037479263,0.010357525,0.0042290073,0.0,0.0,0.0,0.0,1310996,1310996,6620172,197644,0,0,831,2,1,2,0,48,0,0,0,0,0,0,0
21768952000,21768872000,9.309787e-05,0.004038938,0.008008077,8389271,0,0.36787018,0.41157,0.009476452,0.026586091,0.014025123,7.5331685e-05,0.0,0.0,0.0,0.0,1310996,1310996,6620172,197644,0,0,831,2,1,2,0,48,0,0,0,0,0,0,0
21769152000,21769072000,7.825758e-05,0.004112323,0.0085377395,8389271,0,0.36523175,0.41196284,0.007444595,0.019780738,0.010923478,0.008188128,0.0,0.0,0.0,0.0,1310996,1310996,6620172,197644,0,0,831,2,1,2,0,48,0,0,0,0,0,0,0
21769360000,21769280000,5.141981e-05,0.002630798,0.0057580653,8389271,0,0.3837994,0.41505808,0.012117535,0.019780738,0.010923478,0.009649962,0.0,0.0,0.0,0.0,1310996,1310996,6620172,197644,0,0,831,2,1,2,0,48,0,0,0,0,0,0,0
21769552000,21769472000,2.8972261e-05,0.001973373,0.005283905,8389271,0,0.37907124,0.4147848,0.00831972,0.018547626,0.011869843,0.0047516203,0.0,0.0,0.0,0.0,1310996,1310996,6620172,197644,0,0,831,2,1,2,0,48,0,0,0,0,0,0,0
21769760000,21769680000,2.7221704e-05,0.0022198851,0.006113126,8389271,0,0.37620208,0.41568708,0.0044106827,0.022112276,0.014179225,0.0065512233,0.0,0.0,0.0,0.0,1310996,1310996,6620172,197644,0,0,831,2,1,2,0,48,0,0,0,0,0,0,0
21769960000,21769880000,9.783121e-05,0.0044794064,0.010722641,8389271,0,0.37293336,0.41316983,0.0022636235,0.024355417,0.01761123,0.002582066,0.0,0.0,0.0,0.0,1310996,1310996,6620172,197644,0,0,831,2,1,2,0,48,0,0,0,0,0,0,0
21770160000,21770080000,6.307278e-05,0.00194808,0.005444908,8389271,0,0.36995324,0.4107308,0.015013882,0.020449348,0.01686581,0.00811354,0.0,0.0,0.0,0.0,1310996,1310996,6620172,197644,0,0,831,2,1,2,0,48,0,0,0,0,0,0,0
21770360000,21770280000,9.464269e-05,0.0025575152,0.0062740534,8389271,0,0.36722347,0.41118857,0.019499328,0.01121715,0.017583655,0.003295712,0.0,0.0,0.0,0.0,1310996,1310996,6620172,197644,0,0,831,2,1,2,0,48,0,0,0,0,0,0,0
21770552000,21770472000,1.8753712e-05,0.0023085235,0.0068397853,8389271,0,0.3845073,0.4161198,0.0077035227,0.01121715,0.017583655,0.0040234416,0.0,0.0,0.0,0.0,1310996,1310996,6620172,197644,0,0,831,2,1,2,0,48,0,0,0,0,0,0,0
21770760000,21770680000,6.291948e-05,0.002299258,0.0047881305,8389271,0,0.3810975,0.41408253,0.010728909,0.023363765,0.009435875,0.004897101,0.0,0.0,0.0,0.0,1310996,1310996,6620172,197644,0,0,831,2,1,2,0,48,0,0,0,0,0,0,0
21770960000,21770880000,5.7913316e-05,0.00313268,0.0054525784,8389271,0,0.37734652,0.41445,0.008461933,0.025418859,0.014359067,0.008396277,0.0,0.0,0.0,0.0,1310996,1310996,6620172,197644,0,0,831,2,1,2,0,48,0,0,0,0,0,0,0
21771160000,21771080000,7.679984e-05,0.0033648747,0.008010926,8389271,0,0.37395033,0.41482154,0.016725384,0.01683907,0.009271537,0.0019387171,0.0,0.0,0.0,0.0,1310996,1310996,6620172,197644,0,0,831,2,1,2,0,48,0,0,0,0,0,0,0
21771352000,21771272000,6.324013e-05,0.0026126022,0.0058724587,8389271,0,0.370227,0.4117909,0.00014737899,0.010666148,0.021253832,0.009737999,0.0,0.0,0.0,0.0,1310996,1310996,6620172,197644,0,0,831,2,1,2,0,48,0,0,0,0,0,0,0
21771552000,21771472000,6.47881e-05,0.0029691504,0.007477009,8389271,0,0.36740604,0.41222498,0.00201357,0.017208692,0.009972825,0.0065923063,0.0,0.0,0.0,0.0,1310996,1310996,6620172,197644,0,0,831,2,1,2,0,48,0,0,0,0,0,0,0
21771752000,21771672000,0.00011213667,0.0034234247,0.006823904,8389271,0,0.36481607,0.40984488,0.002089242,0.028055193,0.013715192,0.006979544,0.0,0.0,0.0,0.0,1310996,1310996,6620172,197644,0,0,831,2,1,2,0,48,0,0,0,0,0,0,0
21771960000,21771880000,6.056497e-05,0.0020968681,0.007074111,8389271,0,0.38336062,0.4159108,0.016144864,0.028055193,0.013715192,0.0008606596,0.0,0.0,0.0,0.0,1310996,1310996,6620172,197644,0,0,831,2,1,2,0,48,0,0,0,0,0,0,0
21772160000,21772080000,7.770489e-05,0.0027418425,0.0071207555,8389271,0,0.37941912,0.4133855,0.015060121,0.020886332,0.0181141,0.002967307,0.0,0.0,0.0,0.0,1310996,1310996,6620172,197644,0,0,831,2,1,2,0,48,0,0,0,0,0,0,0
21772360000,21772280000,8.013014e-05,0.0022961847,0.0051264307,8389271,0,0.375862,0.4138153,0.001728727,0.019117948,0.009670684,0.0035294022,0.0,0.0,0.0,0.0,1310996,1310996,6620172,197644,0,0,831,2,1,2,0,48,0,0,0,0,0,0,0
21772552000,21772472000,5.8296937e-05,0.0023677102,0.006931942,8389271,0,0.3719282,0.41368026,0.010473051,0.015078751,0.019836988,0.0014356927,0.0,0.0,0.0,0.0,1310996,1310996,6620172,197644,0,0,831,2,1,2,0,48,0,0,0,0,0,0,0
21772760000,21772680000,0.00010436419,0.003244235,0.008788284,8389271,0,0.3696863,0.41182798,0.01021979,0.032600507,0.015290385,0.00063039205,0.0,0.0,0.0,0.0,1310996,1310996,6620172,197644,0,0,831,2,1,2,0,48,0,0,0,0,0,0,0
21772960000,21772880000,7.99475e-05,0.0019569353,0.005082826,8389271,0,0.3669874,0.41231236,0.0010714713,0.019019593,0.017965352,0.0019657232,0.0,0.0,0.0,0.0,1310996,1310996,6620172,197644,0,0,831,2,1,2,0,48,0,0,0,0,0,0,0
21773160000,21773080000,4.9413142e-05,0.0021260038,0.0060573597,8389271,0,0.38502616,0.41497934,0.024964966,0.019019593,0.017965352,0.002000071,0.0,0.0,0.0,0.0,1310996,1310996,6620172,197644,0,0,831,2,1,2,0,48,0,0,0,0,0,0,0
21773360000,21773280000,5.4761622e-05,0.0019844093,0.0056378487,8389271,0,0.38095817,0.41536036,0.0019053963,0.014586712,0.015084528,0.0035170985,0.0,0.0,0.0,0.0,1310996,1310996,6620172,197644,0,0,831,2,1,2,0,48,0,0,0,0,0,0,0
21773552000,21773472000,6.809657e-05,0.0035610024,0.008534138,8389271,0,0.3765014,0.41517276,0.0024939931,0.019523375,0.010570537,0.0011992605,0.0,0.0,0.0,0.0,1310996,1310996,6620172,197644,0,0,831,2,1,2,0,48,0,0,0,0,0,0,0
21773752000,21773672000,0.00010619249,0.0042134207,0.009402154,8389271,0,0.37313515,0.41267923,0.00674783,0.027345834,0.016271995,0.00013594345,0.0,0.0,0.0,0.0,1310996,1310996,6620172,197644,0,0,831,2,1,2,0,48,0,0,0,0,0,0,0
21773960000,21773880000,6.105859e-05,0.0034246843,0.008819967,8389271,0,0.37076607,0.4136498,0.004755928,0.021256128,0.015989758,0.0012382409,0.0,0.0,0.0,0.0,1310996,1310996,6620172,197644,0,0,831,2,1,2,0,48,0,0,0,0,0,0,0
21774160000,21774080000,5.5125412e-05,0.0015202723,0.0041509024,8389271,0,0.36801356,0.4112117,0.018979002,0.010416812,0.021185584,0.0012174441,0.0,0.0,0.0,0.0,1310996,1310996,6620172,197644,0,0,831,2,1,2,0,48,0,0,0,0,0,0,0
21774352000,21774272000,7.090333e-05,0.0012361001,0.0025082498,8389271,0,0.36474863,0.411088,0.00039880615,0.02085827,0.015292466,0.003437735,0.0,0.0,0.0,0.0,1310996,1310996,6620172,197644,0,0,831,2,1,2,0,48,0,0,0,0,0,0,0
21774552000,21774472000,3.6441477e-05,0.00241351,0.0064532277,8389271,0,0.38255203,0.416553,0.005664138,0.02085827,0.015292466,0.0015705648,0.0,0.0,0.0,0.0,1310996,1310996,6620172,197644,0,0,831,2,1,2,0,48,0,0,0,0,0,0,0
21774760000,21774680000,6.4221844e-05,0.0022750702,0.006692923,8389271,0,0.37936965,0.4144815,0.008804834,0.011663987,0.016640384,0.0011281312,0.0,0.0,0.0,0.0,1310996,1310996,6620172,197644,0,0,831,2,1,2,0,48,0,0,0,0,0,0,0
21774960000,21774880000,9.063014e-05,0.0035942663,0.011675526,8389271,0,0.37581816,0.4147946,0.006926291,0.026556917,0.0227244,0.0062444126,0.0,0.0,0.0,0.0,1310996,1310996,6620172,197644,0,0,831,2,1,2,0,48,0,0,0,0,0,0,0
21775160000,21775080000,0.00012343322,0.0044105896,0.012621318,8389271,0,0.3725949,0.41511536,0.009543996,0.04121272,0.018099217,0.0002355139,0.0,0.0,0.0,0.0,1310996,1310996,6620172,197644,0,0,831,2,1,2,0,48,0,0,0,0,0,0,0
21775360000,21775280000,8.3159015e-05,0.0029360913,0.008232258,8389271,0,0.36965415,0.41255525,0.0126915425,0.02361062,0.020887159,0.0046582855,0.0,0.0,0.0,0.0,1310996,1310996,6620172,197644,0,0,831,2,1,2,0,48,0,0,0,0,0,0,0
21775552000,21775472000,0.00010773308,0.0020799905,0.0068445876,8389271,0,0.36627653,0.41235653,0.025408715,0.0180151,0.016367935,0.0019802926,0.0,0.0,0.0,0.0,1310996,1310996,6620172,197644,0,0,831,2,1,2,0,48,0,0,0,0,0,0,0
21775760000,21775680000,1.3761389e-05,0.0027602348,0.008217807,8389271,0,0.3850029,0.41838232,0.005211445,0.0180151,0.016367935,0.0035531002,0.0,0.0,0.0,0.0,1310996,1310996,6620172,197644,0,0,831,2,1,2,0,48,0,0,0,0,0,0,0
21775960000,21775880000,9.485586e-05,0.004011412,0.012465518,8389271,0,0.38086578,0.41566914,0.012014584,0.0377593,0.014832259,0.0010865714,0.0,0.0,0.0,0.0,1310996,1310996,6620172,197644,0,0,831,2,1,2,0,48,0,0,0,0,0,0,0
21776152000,21776072000,0.00013273241,0.0035151439,0.011462949,8389271,0,0.37642032,0.41536897,0.0009777824,0.023966651,0.018646877,0.002666724,0.0,0.0,0.0,0.0,1310996,1310996,6620172,197644,0,0,831,2,1,2,0,48,0,0,0,0,0,0,0
21776352000,21776272000,0.00013912474,0.0040039844,0.013491749,8389271,0,0.37306225,0.412767,0.0009677121,0.033804897,0.014499258,0.005145723,0.0,0.0,0.0,0.0,1310996,1310996,6620172,197644,0,0,831,2,1,2,0,48,0,0,0,0,0,0,0
21776552000,21776472000,0.00020339734,0.0030106395,0.009351596,8389271,0,0.3700055,0.41315225,0.051292468,0.029016968,0.018147316,0.0030696178,0.0,0.0,0.0,0.0,1310996,1310996,6620172,197644,0,0,831,2,1,2,0,48,0,0,0,0,0,0,0
21776752000,21776672000,6.749663e-05,0.0028427043,0.008565714,8389271,0,0.3672088,0.413542,0.0084198145,0.02640663,0.012187481,0.002701675,0.0,0.0,0.0,0.0,1310996,1310996,6620172,197644,0,0,831,2,1,2,0,48,0,0,0,0,0,0,0
21776952000,21776872000,7.392034e-05,0.0020146763,0.004574431,8389271,0,0.36464062,0.41108665,0.007427377,0.017288301,0.017141588,0.002281678,0.0,0.0,0.0,0.0,1310996,1310996,6620172,197644,0,0,831,2,1,2,0,48,0,0,0,0,0,0,0
21777152000,21777072000,1.4964978e-05,0.0034266962,0.008358502,8389271,0,0.3824265,0.41651508,0.0060588797,0.017288301,0.017141588,0.0038813946,0.0,0.0,0.0,0.0,1310996,1310996,6620172,197644,0,0,831,2,1,2,0,48,0,0,0,0,0,0,0
21777360000,21777280000,0.00011385639,0.002490694,0.0056694155,8389271,0,0.37925804,0.41442308,0.019350898,0.034609336,0.019544356,0.0060346047,0.0,0.0,0.0,0.0,1310996,1310996,6620172,197644,0,0,831,2,1,2,0,48,0,0,0,0,0,0,0
21777560000,21777480000,7.755478e-05,0.0017923655,0.0052851886,8389271,0,0.37571964,0.41471753,0.0028213381,0.02234593,0.019389065,0.001219943,0.0,0.0,0.0,0.0,1310996,1310996,6620172,197644,0,0,831,2,1,2,0,48,0,0,0,0,0,0,0
21777760000,21777680000,0.00010619534,0.0026862596,0.00864304,8389271,0,0.3725066,0.41502878,0.0077849445,0.038101755,0.02534047,0.0042790915,0.0,0.0,0.0,0.0,1310996,1310996,6620172,197644,0,0,831,2,1,2,0,48,0,0,0,0,0,0,0
21777960000,21777880000,7.19394e-05,0.0034345414,0.011084197,8389271,0,0.36957493,0.41245458,0.021575613,0.04115081,0.024087273,0.006333731,0.0,0.0,0.0,0.0,1310996,1310996,6620172,197644,0,0,831,2,1,2,0,48,0,0,0,0,0,0,0
21778160000,21778080000,0.00013424197,0.0026489394,0.0075348644,8389271,0,0.3668879,0.41279918,0.004913095,0.030079048,0.024084164,0.00072993507,0.0,0.0,0.0,0.0,1310996,1310996,6620172,197644,0,0,831,2,1,2,0,48,0,0,0,0,0,0,0
21778360000,21778280000,0.00010652656,0.0028452228,0.0069298972,8389271,0,0.38491943,0.41824162,0.011857075,0.030079048,0.024084164,0.0072923736,0.0,0.0,0.0,0.0,1310996,1310996,6620172,197644,0,0,831,2,1,2,0,48,0,0,0,0,0,0,0
21778560000,21778480000,0.00013994271,0.0017522848,0.004200188,8389271,0,0.38079175,0.41550416,0.029923366,0.027804198,0.021086061,0.006632754,0.0,0.0,0.0,0.0,1310996,1310996,6620172,197644,0,0,831,2,1,2,0,48,0,0,0,0,0,0,0
21778760000,21778680000,0.00011009166,0.0014195184,0.0039479667,8389271,0,0.37707686,0.41577286,0.0071665514,0.02703567,0.010712343,0.0032139397,0.0,0.0,0.0,0.0,1310996,1310996,6620172,197644,0,0,831,2,1,2,0,48,0,0,0,0,0,0,0
21778960000,21778880000,9.74665e-05,0.0012236818,0.0025216273,8389271,0,0.3737777,0.41318864,0.0060650543,0.033088036,0.025302405,0.001987992,0.0,0.0,0.0,0.0,1310996,1310996,6620172,197644,0,0,831,2,1,2,0,48,0,0,0,0,0,0,0
