timestamp,timestamp_sample,gps_hvel[0],gps_hvel[1],gps_vvel,gps_hpos[0],gps_hpos[1],gps_vpos,ev_hvel[0],ev_hvel[1],ev_vvel,ev_hpos[0],ev_hpos[1],ev_vpos,rng_vpos,baro_vpos,aux_hvel[0],aux_hvel[1],aux_vvel,flow[0],flow[1],heading,mag_field[0],mag_field[1],mag_field[2],drag[0],drag[1],airspeed,beta,hagl,hagl_rate
21726660000,21726580000,-0.0002628936,-0.0031226072,-0.0015200903,0.0007352829,0.0016647577,0.0,0.0,0.0,0.0,0.0,0.0,0.0,0.0,-0.041000366,0.0,0.0,nan,0.0,0.0,-0.018607855,7.477403e-05,0.0025667548,-0.0028057396,0.0,0.0,0.0,0.0,0.0,0.0
21727164000,21727084000,-0.00016284002,0.0001648625,-3.0696898e-05,-0.010323703,0.001921773,0.0,0.0,0.0,0.0,0.0,0.0,0.0,0.0,0.030441284,0.0,0.0,nan,0.0,0.0,0.018227577,7.477403e-05,0.0025667548,-0.0028057396,0.0,0.0,0.0,0.0,0.0,0.0
21727660000,21727580000,-0.0019480907,0.0008251322,0.009118595,-0.010304987,0.0017057657,0.0,0.0,0.0,0.0,0.0,0.0,0.0,0.0,0.054519653,0.0,0.0,nan,0.0,0.0,0.028646588,7.477403e-05,0.0025667548,-0.0028057396,0.0,0.0,0.0,0.0,0.0,0.0
21728164000,21728084000,-0.008108636,0.00069918524,-0.0011223261,0.0008698702,0.0017982721,0.0,0.0,0.0,0.0,0.0,0.0,0.0,0.0,0.028335571,0.0,0.0,nan,0.0,0.0,0.0038243532,7.477403e-05,0.0025667548,-0.0028057396,0.0,0.0,0.0,0.0,0.0,0.0
21728660000,21728580000,-0.0016542125,0.009825662,-0.010178091,-0.009944677,-0.0063869953,0.0,0.0,0.0,0.0,0.0,0.0,0.0,0.0,0.009689331,0.0,0.0,nan,0.0,0.0,-0.021749854,7.477403e-05,0.0025667548,-0.0028057396,0.0,0.0,0.0,0.0,0.0,0.0
21729164000,21729084000,-0.0027124556,-0.0008428595,-0.020425659,0.0011034012,-0.006416917,0.0,0.0,0.0,0.0,0.0,0.0,0.0,0.0,-0.024398804,0.0,0.0,nan,0.0,0.0,0.00457263,7.477403e-05,0.0025667548,-0.0028057396,0.0,0.0,0.0,0.0,0.0,0.0
21729660000,21729580000,-0.0006109107,0.00010446036,-0.0002185931,0.0011370778,0.0017848015,0.0,0.0,0.0,0.0,0.0,0.0,0.0,0.0,-0.104003906,0.0,0.0,nan,0.0,0.0,-0.025234222,7.477403e-05,0.0025667548,-0.0028057396,0.0,0.0,0.0,0.0,0.0,0.0
21730164000,21730084000,0.019796738,-0.00032765907,0.039732173,0.0013267398,0.0017546415,0.0,0.0,0.0,0.0,0.0,0.0,0.0,0.0,-0.117507935,0.0,0.0,nan,0.0,0.0,-0.0070488453,7.477403e-05,0.0025667548,-0.0028057396,0.0,0.0,0.0,0.0,0.0,0.0
21730660000,21730580000,0.00078475743,0.012646825,-0.0128205065,-0.009788752,0.0015387535,0.0,0.0,0.0,0.0,0.0,0.0,0.0,0.0,0.016738892,0.0,0.0,nan,0.0,0.0,0.0012518167,7.477403e-05,0.0025667548,-0.0028057396,0.0,0.0,0.0,0.0,0.0,0.0
21731164000,21731084000,-0.009037324,-0.010057731,0.0119645465,0.0014796853,0.0014659166,0.0,0.0,0.0,0.0,0.0,0.0,0.0,0.0,-0.028274536,0.0,0.0,nan,0.0,0.0,0.0039207935,7.477403e-05,0.0025667548,-0.0028057396,0.0,0.0,0.0,0.0,0.0,0.0
21731660000,21731580000,0.002820233,0.008839233,-0.041329443,0.001685679,0.0015530586,0.0,0.0,0.0,0.0,0.0,0.0,0.0,0.0,-0.020370483,0.0,0.0,nan,0.0,0.0,0.0043389797,7.477403e-05,0.0025667548,-0.0028057396,0.0,0.0,0.0,0.0,0.0,0.0
21732156000,21732076000,-0.0106838755,0.0021169651,0.05008088,0.0012462735,0.001954794,0.0,0.0,0.0,0.0,0.0,0.0,0.0,0.0,-0.022964478,0.0,0.0,nan,0.0,0.0,0.0019773245,7.477403e-05,0.0025667548,-0.0028057396,0.0,0.0,0.0,0.0,0.0,0.0
21732660000,21732580000,-0.0023712688,0.011353973,0.001405641,0.0011563301,-0.006338358,0.0,0.0,0.0,0.0,0.0,0.0,0.0,0.0,-0.017669678,0.0,0.0,nan,0.0,0.0,0.0019923449,7.477403e-05,0.0025667548,-0.0028057396,0.0,0.0,0.0,0.0,0.0,0.0
21733164000,21733084000,0.010367865,0.0008288993,-0.009907502,-0.009817243,0.0018668175,0.0,0.0,0.0,0.0,0.0,0.0,0.0,0.0,0.0,0.0,0.0,nan,0.0,0.0,-0.0057127476,7.477403e-05,0.0025667548,-0.0028057396,0.0,0.0,0.0,0.0,0.0,0.0
21733660000,21733580000,0.019815007,-0.012025916,-0.020214148,0.0010004044,0.0043343306,0.0,0.0,0.0,0.0,0.0,0.0,0.0,0.0,0.0,0.0,0.0,nan,0.0,0.0,-0.024088264,7.477403e-05,0.0025667548,-0.0028057396,0.0,0.0,0.0,0.0,0.0,0.0
21734164000,21734084000,-0.012308456,0.0038814181,0.006604723,7.587671e-05,0.008310795,0.0,0.0,0.0,0.0,0.0,0.0,0.0,0.0,0.0016174316,0.0,0.0,nan,0.0,0.0,0.004973054,7.477403e-05,0.0025667548,-0.0028057396,0.0,0.0,0.0,0.0,0.0,0.0
21734660000,21734580000,-0.013444692,0.0035725543,-0.101074755,-0.0044222474,0.017433524,0.0,0.0,0.0,0.0,0.0,0.0,0.0,0.0,0.09413147,0.0,0.0,nan,0.0,0.0,0.005468011,7.477403e-05,0.0025667548,-0.0028057396,0.0,0.0,0.0,0.0,0.0,0.0
21735164000,21735084000,-0.020797454,-0.003400899,0.018445015,-0.012973666,0.018446088,0.0,0.0,0.0,0.0,0.0,0.0,0.0,0.0,0.057235718,0.0,0.0,nan,0.0,0.0,-0.0030453205,7.477403e-05,0.0025667548,-0.0028057396,0.0,0.0,0.0,0.0,0.0,0.0
21735660000,21735580000,-0.03798261,0.027888276,0.04482317,-0.013181984,0.028512716,0.0,0.0,0.0,0.0,0.0,0.0,0.0,0.0,-0.09324646,0.0,0.0,nan,0.0,0.0,0.08126092,7.477403e-05,0.0025667548,-0.0028057396,0.0,0.0,0.0,0.0,0.0,0.0
21736164000,21736084000,-0.036448248,0.018653296,0.109932244,-0.029533029,0.027977943,0.0,0.0,0.0,0.0,0.0,0.0,0.0,0.0,-0.008880615,0.0,0.0,nan,0.0,0.0,0.04064846,7.477403e-05,0.0025667548,-0.0028057396,0.0,0.0,0.0,0.0,0.0,0.0
21736660000,21736580000,-0.029258823,-0.003693437,0.020655394,-0.028426528,0.030936956,0.0,0.0,0.0,0.0,0.0,0.0,0.0,0.0,0.03390503,0.0,0.0,nan,0.0,0.0,0.016353488,7.477403e-05,0.0025667548,-0.0028057396,0.0,0.0,0.0,0.0,0.0,0.0
21737164000,21737084000,0.01647007,-0.001388273,0.054923818,-0.023864925,0.029902458,0.0,0.0,0.0,0.0,0.0,0.0,0.0,0.0,0.029724121,0.0,0.0,nan,0.0,0.0,0.027873516,7.477403e-05,0.0025667548,-0.0028057396,0.0,0.0,0.0,0.0,0.0,0.0
21737660000,21737580000,0.003162798,-0.024973381,0.020073175,-0.033412516,0.019557238,0.0,0.0,0.0,0.0,0.0,0.0,0.0,0.0,0.10670471,0.0,0.0,nan,0.0,0.0,0.005798459,7.477403e-05,0.0025667548,-0.0028057396,0.0,0.0,0.0,0.0,0.0,0.0
21738164000,21738084000,-0.00633587,-0.012893576,0.010840274,-0.03396064,0.013641357,0.0,0.0,0.0,0.0,0.0,0.0,0.0,0.0,0.06512451,0.0,0.0,nan,0.0,0.0,0.018440247,7.477403e-05,0.0025667548,-0.0028057396,0.0,0.0,0.0,0.0,0.0,0.0
21738660000,21738580000,-0.0103287855,-0.0085142255,0.012381047,-0.035432935,0.006198883,0.0,0.0,0.0,0.0,0.0,0.0,0.0,0.0,0.062927246,0.0,0.0,nan,0.0,0.0,0.013002992,7.477403e-05,0.0025667548,-0.0028057396,0.0,0.0,0.0,0.0,0.0,0.0
21739164000,21739084000,-0.0018934605,0.028048515,0.022135556,-0.036226034,0.015602827,0.0,0.0,0.0,0.0,0.0,0.0,0.0,0.0,0.07295227,0.0,0.0,nan,0.0,0.0,0.015696764,7.477403e-05,0.0025667548,-0.0028057396,0.0,0.0,0.0,0.0,0.0,0.0
21739660000,21739580000,-0.1349175,0.0066564083,-0.06668353,-0.053760648,-0.004488513,0.0,0.0,0.0,0.0,0.0,0.0,0.0,0.0,0.169281,0.0,0.0,nan,0.0,0.0,0.017151356,0.0009188205,-0.0019100606,-0.0014276505,0.0,0.0,0.0,0.0,0.0,0.0
21740164000,21740084000,-0.07474768,-0.048469782,-0.090101,-0.05188954,0.011087239,0.0,0.0,0.0,0.0,0.0,0.0,0.0,0.0,0.23881531,0.0,0.0,nan,0.0,0.0,0.017151356,0.00029051304,0.0010500699,0.0015116632,0.0,0.0,0.0,0.0,0.0,0.0
21740660000,21740580000,-0.03596294,-0.05956793,-0.039616823,-0.021957874,-0.009438038,0.0,0.0,0.0,0.0,0.0,0.0,0.0,0.0,0.13781738,0.0,0.0,nan,0.0,0.0,0.017151356,0.00026162714,0.00015945733,-0.0023429096,0.0,0.0,0.0,0.0,0.0,0.0
21741164000,21741084000,-0.022079825,-0.05787182,-0.03353691,-0.011784792,-0.040538073,0.0,0.0,0.0,0.0,0.0,0.0,0.0,0.0,0.059036255,0.0,0.0,nan,0.0,0.0,0.017151356,0.0041584894,0.00024235249,0.0010147095,0.0,0.0,0.0,0.0,0.0,0.0
21741660000,21741580000,-0.020654678,-0.042726517,-0.07903957,-0.011449337,-0.016577244,0.0,0.0,0.0,0.0,0.0,0.0,0.0,0.0,0.24685669,0.0,0.0,nan,0.0,0.0,0.017151356,-0.00042442977,0.0005146563,-0.0012478828,0.0,0.0,0.0,0.0,0.0,0.0
21742164000,21742084000,0.011929989,-0.03133893,-0.018887281,0.0026111603,-0.016814709,0.0,0.0,0.0,0.0,0.0,0.0,0.0,0.0,0.29405212,0.0,0.0,nan,0.0,0.0,0.017151356,0.001597926,-0.000246346,-0.004787922,0.0,0.0,0.0,0.0,0.0,0.0
21742660000,21742580000,-0.020362139,-0.058793545,0.0073947906,0.0006008148,-0.027521133,0.0,0.0,0.0,0.0,0.0,0.0,0.0,0.0,0.17199707,0.0,0.0,nan,0.0,0.0,0.017151356,0.0011592582,-0.0011657625,5.2005053e-05,0.0,0.0,0.0,0.0,0.0,0.0
21743164000,21743084000,-0.008327484,-0.039529324,-0.03893757,0.008472919,-0.049173355,0.0,0.0,0.0,0.0,0.0,0.0,0.0,0.0,0.13768005,0.0,0.0,nan,0.0,0.0,0.017151356,-0.0060791746,-0.0017519444,-0.00018712878,0.0,0.0,0.0,0.0,0.0,0.0
21743660000,21743580000,-0.019863367,-0.052196026,-0.06252432,0.012274742,-0.0325737,0.0,0.0,0.0,0.0,0.0,0.0,0.0,0.0,0.09550476,0.0,0.0,nan,0.0,0.0,0.017151356,0.0019225851,0.0003516972,-7.1913004e-05,0.0,0.0,0.0,0.0,0.0,0.0
21744164000,21744084000,0.0353508,-0.036441326,0.033721447,0.026438713,-0.03763008,0.0,0.0,0.0,0.0,0.0,0.0,0.0,0.0,0.1388092,0.0,0.0,nan,0.0,0.0,0.017151356,0.0022495687,-0.004508391,-0.0020636916,0.0,0.0,0.0,0.0,0.0,0.0
21744660000,21744580000,0.009156942,-0.031024456,-0.011854172,0.030522346,-0.060268402,0.0,0.0,0.0,0.0,0.0,0.0,0.0,0.0,0.13816833,0.0,0.0,nan,0.0,0.0,0.017151356,0.0014738515,-0.0011908263,-0.001285106,0.0,0.0,0.0,0.0,0.0,0.0
21745164000,21745084000,0.014615536,-0.026589394,-0.039197445,0.020069122,-0.027772903,0.0,0.0,0.0,0.0,0.0,0.0,0.0,0.0,0.15687561,0.0,0.0,nan,0.0,0.0,0.017151356,-8.070469e-05,-0.0049175173,-0.004186392,0.0,0.0,0.0,0.0,0.0,0.0
21745660000,21745580000,0.018627167,-0.059332848,-0.08033848,0.03062725,-0.037805557,0.0,0.0,0.0,0.0,0.0,0.0,0.0,0.0,0.044830322,0.0,0.0,nan,0.0,0.0,0.0143328905,-0.0013422295,0.001181528,-0.00040957332,0.0,0.0,0.0,0.0,0.0,0.0
21746164000,21746084000,0.028330803,-0.03298998,-0.047198772,0.058898926,-0.08601761,0.0,0.0,0.0,0.0,0.0,0.0,0.0,0.0,0.061401367,0.0,0.0,nan,0.0,0.0,0.004237771,-0.0013422295,0.001181528,-0.00040957332,0.0,0.0,0.0,0.0,0.0,0.0
21746660000,21746580000,0.0110964775,-0.028686047,-0.015804768,0.054166794,-0.0706234,0.0,0.0,0.0,0.0,0.0,0.0,0.0,0.0,0.06335449,0.0,0.0,nan,0.0,0.0,-0.010308504,-0.0013422295,0.001181528,-0.00040957332,0.0,0.0,0.0,0.0,0.0,0.0
21747164000,21747084000,0.017884016,-0.060165882,0.03465128,0.05624962,-0.07055855,0.0,0.0,0.0,0.0,0.0,0.0,0.0,0.0,0.1020813,0.0,0.0,nan,0.0,0.0,0.0015681982,-0.0013422295,0.001181528,-0.00040957332,0.0,0.0,0.0,0.0,0.0,0.0
21747660000,21747580000,0.045429945,-0.046801567,-0.08031607,0.05775261,-0.048892975,0.0,0.0,0.0,0.0,0.0,0.0,0.0,0.0,-0.009521484,0.0,0.0,nan,0.0,0.0,-0.022160769,-0.0013422295,0.001181528,-0.00040957332,0.0,0.0,0.0,0.0,0.0,0.0
21748164000,21748084000,0.045553923,-0.015910149,-0.0055890083,0.080862045,-0.09611893,0.0,0.0,0.0,0.0,0.0,0.0,0.0,0.0,-0.09777832,0.0,0.0,nan,0.0,0.0,-0.008526444,-0.0013422295,0.001181528,-0.00040957332,0.0,0.0,0.0,0.0,0.0,0.0
21748660000,21748580000,0.04876566,-0.014276028,-0.07159376,0.08452034,-0.105075836,0.0,0.0,0.0,0.0,0.0,0.0,0.0,0.0,0.03251648,0.0,0.0,nan,0.0,0.0,-0.0078015327,-0.0013422295,0.001181528,-0.00040957332,0.0,0.0,0.0,0.0,0.0,0.0
21749164000,21749084000,0.047906637,-0.011338711,-0.028850079,0.075120926,-0.081604004,0.0,0.0,0.0,0.0,0.0,0.0,0.0,0.0,0.024551392,0.0,0.0,nan,0.0,0.0,-0.009233713,-0.0013422295,0.001181528,-0.00040957332,0.0,0.0,0.0,0.0,0.0,0.0
21749660000,21749580000,0.0072448254,-0.023768425,-0.044967175,0.087091446,-0.093811035,0.0,0.0,0.0,0.0,0.0,0.0,0.0,0.0,-0.02029419,0.0,0.0,nan,0.0,0.0,0.0007059574,-0.0013422295,0.001181528,-0.00040957332,0.0,0.0,0.0,0.0,0.0,0.0
21750164000,21750084000,0.04996586,-0.026382923,-0.03508377,0.0894928,-0.08236694,0.0,0.0,0.0,0.0,0.0,0.0,0.0,0.0,-0.054519653,0.0,0.0,nan,0.0,0.0,-0.0076066256,-0.0013422295,0.001181528,-0.00040957332,0.0,0.0,0.0,0.0,0.0,0.0
21750660000,21750580000,0.021909237,-0.011019707,-0.051178932,0.05898285,-0.057498932,0.0,0.0,0.0,0.0,0.0,0.0,0.0,0.0,0.081207275,0.0,0.0,nan,0.0,0.0,-0.005978942,-0.0013422295,0.001181528,-0.00040957332,0.0,0.0,0.0,0.0,0.0,0.0
21751164000,21751084000,0.01778102,-0.02222395,-0.0030975342,0.08182335,-0.08152008,0.0,0.0,0.0,0.0,0.0,0.0,0.0,0.0,-0.00642395,0.0,0.0,nan,0.0,0.0,-0.004377246,-0.0013422295,0.001181528,-0.00040957332,0.0,0.0,0.0,0.0,0.0,0.0
21751660000,21751580000,-3.671646e-05,-0.009344578,-0.03390217,0.07486725,-0.07239914,0.0,0.0,0.0,0.0,0.0,0.0,0.0,0.0,0.042510986,0.0,0.0,nan,0.0,0.0,-0.0072155,-0.0013422295,0.001181528,-0.00040957332,0.0,0.0,0.0,0.0,0.0,0.0
21752164000,21752084000,0.010936499,-0.018023014,-0.0054211617,0.06908035,-0.07421112,0.0,0.0,0.0,0.0,0.0,0.0,0.0,0.0,-0.0026855469,0.0,0.0,nan,0.0,0.0,-0.013813496,-0.0013422295,0.001181528,-0.00040957332,0.0,0.0,0.0,0.0,0.0,0.0
21752660000,21752580000,-0.013665438,-0.017318249,-0.019217014,0.06439972,-0.07349777,0.0,0.0,0.0,0.0,0.0,0.0,0.0,0.0,-0.120651245,0.0,0.0,nan,0.0,0.0,-0.012537599,-0.0013422295,0.001181528,-0.00040957332,0.0,0.0,0.0,0.0,0.0,0.0
21753156000,21753076000,-0.012495518,-0.0068821907,0.03948784,0.047798157,-0.047008514,0.0,0.0,0.0,0.0,0.0,0.0,0.0,0.0,0.06719971,0.0,0.0,nan,0.0,0.0,-0.0088557005,-0.0013422295,0.001181528,-0.00040957332,0.0,0.0,0.0,0.0,0.0,0.0
21753660000,21753580000,-0.010166407,-0.0013451576,0.023750782,0.053806305,-0.049873352,0.0,0.0,0.0,0.0,0.0,0.0,0.0,0.0,0.030593872,0.0,0.0,nan,0.0,0.0,0.0005835295,-0.0013422295,0.001181528,-0.00040957332,0.0,0.0,0.0,0.0,0.0,0.0
21754164000,21754084000,-0.041236162,0.018878937,0.045042515,0.0649147,-0.09059143,0.0,0.0,0.0,0.0,0.0,0.0,0.0,0.0,0.11550903,0.0,0.0,nan,0.0,0.0,-0.0128234625,-0.0013422295,0.001181528,-0.00040957332,0.0,0.0,0.0,0.0,0.0,0.0
21754660000,21754580000,-0.008933783,0.03536558,-0.02376461,0.052444458,-0.056282043,0.0,0.0,0.0,0.0,0.0,0.0,0.0,0.0,-0.03717041,0.0,0.0,nan,0.0,0.0,-0.0073816776,-0.0013422295,0.001181528,-0.00040957332,0.0,0.0,0.0,0.0,0.0,0.0
21755156000,21755076000,-0.03362322,0.02601242,0.06426573,0.0666275,-0.07798767,0.0,0.0,0.0,0.0,0.0,0.0,0.0,0.0,0.0026397705,0.0,0.0,nan,0.0,0.0,-0.014888525,-0.0013422295,0.001181528,-0.00040957332,0.0,0.0,0.0,0.0,0.0,0.0
21755660000,21755580000,-0.055022717,0.043497562,0.036106586,0.022800446,-0.025260925,0.0,0.0,0.0,0.0,0.0,0.0,0.0,0.0,0.046203613,0.0,0.0,nan,0.0,0.0,-0.0056785345,-0.0013422295,0.001181528,-0.00040957332,0.0,0.0,0.0,0.0,0.0,0.0
21756164000,21756084000,-0.047781944,0.0341444,0.07870674,0.055179596,-0.07865906,0.0,0.0,0.0,0.0,0.0,0.0,0.0,0.0,0.032440186,0.0,0.0,nan,0.0,0.0,-0.005555749,-0.0013422295,0.001181528,-0.00040957332,0.0,0.0,0.0,0.0,0.0,0.0
21756660000,21756580000,-0.05025983,0.03329134,0.08026886,0.045799255,-0.075553894,0.0,0.0,0.0,0.0,0.0,0.0,0.0,0.0,0.044128418,0.0,0.0,nan,0.0,0.0,0.0011279583,-0.0013422295,0.001181528,-0.00040957332,0.0,0.0,0.0,0.0,0.0,0.0
21757164000,21757084000,-0.04621291,0.027900219,0.08448076,0.04944229,-0.06324768,0.0,0.0,0.0,0.0,0.0,0.0,0.0,0.0,0.0152282715,0.0,0.0,nan,0.0,0.0,-0.009173393,-0.0013422295,0.001181528,-0.00040957332,0.0,0.0,0.0,0.0,0.0,0.0
21757660000,21757580000,-0.034508467,0.025968552,0.092185974,0.04486847,-0.060203552,0.0,0.0,0.0,0.0,0.0,0.0,0.0,0.0,0.06466675,0.0,0.0,nan,0.0,0.0,-0.0070255995,-0.0013422295,0.001181528,-0.00040957332,0.0,0.0,0.0,0.0,0.0,0.0
21758164000,21758084000,-0.043325186,0.03420067,0.07977438,0.045398712,-0.059043884,0.0,0.0,0.0,0.0,0.0,0.0,0.0,0.0,0.16705322,0.0,0.0,nan,0.0,0.0,-0.012646675,-0.0013422295,0.001181528,-0.00040957332,0.0,0.0,0.0,0.0,0.0,0.0
21758660000,21758580000,-0.030526638,-0.0019545555,0.08703518,0.034168243,-0.0424881,0.0,0.0,0.0,0.0,0.0,0.0,0.0,0.0,0.028961182,0.0,0.0,nan,0.0,0.0,0.0075161457,-0.0013422295,0.001181528,-0.00040957332,0.0,0.0,0.0,0.0,0.0,0.0
21759156000,21759076000,-0.019026756,-0.017168522,0.03166008,0.035755157,-0.058410645,0.0,0.0,0.0,0.0,0.0,0.0,0.0,0.0,0.19836426,0.0,0.0,nan,0.0,0.0,-0.007047653,-0.0013422295,0.001181528,-0.00040957332,0.0,0.0,0.0,0.0,0.0,0.0
21759660000,21759580000,-0.026495457,0.003932476,0.08887386,0.047977448,-0.06285858,0.0,0.0,0.0,0.0,0.0,0.0,0.0,0.0,0.073135376,0.0,0.0,nan,0.0,0.0,-0.018396497,-0.0013422295,0.001181528,-0.00040957332,0.0,0.0,0.0,0.0,0.0,0.0
21760164000,21760084000,-0.0059888363,0.036305904,0.11245489,0.05450821,-0.07191467,0.0,0.0,0.0,0.0,0.0,0.0,0.0,0.0,0.067718506,0.0,0.0,nan,0.0,0.0,-0.011879683,-0.0013422295,0.001181528,-0.00040957332,0.0,0.0,0.0,0.0,0.0,0.0
21760660000,21760580000,-0.012762308,0.047258377,0.14398956,0.047805786,-0.067222595,0.0,0.0,0.0,0.0,0.0,0.0,0.0,0.0,0.07569885,0.0,0.0,nan,0.0,0.0,0.00053322315,-0.0013422295,0.001181528,-0.00040957332,0.0,0.0,0.0,0.0,0.0,0.0
21761164000,21761084000,0.011595011,0.03589773,0.08034611,0.02325821,-0.024269104,0.0,0.0,0.0,0.0,0.0,0.0,0.0,0.0,0.071258545,0.0,0.0,nan,0.0,0.0,-0.002003789,-0.0013422295,0.001181528,-0.00040957332,0.0,0.0,0.0,0.0,0.0,0.0
21761660000,21761580000,-0.007050991,0.029595375,0.06879902,0.045398712,-0.06638336,0.0,0.0,0.0,0.0,0.0,0.0,0.0,0.0,0.016479492,0.0,0.0,nan,0.0,0.0,0.00308609,-0.0013422295,0.001181528,-0.00040957332,0.0,0.0,0.0,0.0,0.0,0.0
21762164000,21762084000,-0.011578321,0.04373789,0.08868599,0.026283264,-0.04575348,0.0,0.0,0.0,0.0,0.0,0.0,0.0,0.0,0.20275879,0.0,0.0,nan,0.0,0.0,0.019333482,-0.0013422295,0.001181528,-0.00040957332,0.0,0.0,0.0,0.0,0.0,0.0
21762660000,21762580000,-0.023998022,0.057707787,0.07416201,0.008419037,-0.023727417,0.0,0.0,0.0,0.0,0.0,0.0,0.0,0.0,0.20588684,0.0,0.0,nan,0.0,0.0,-0.020994186,-0.0013422295,0.001181528,-0.00040957332,0.0,0.0,0.0,0.0,0.0,0.0
21763164000,21763084000,-0.007899046,0.016495228,0.017072678,0.05104828,-0.06943512,0.0,0.0,0.0,0.0,0.0,0.0,0.0,0.0,0.14787292,0.0,0.0,nan,0.0,0.0,-0.04016161,-0.0013422295,0.001181528,-0.00040957332,0.0,0.0,0.0,0.0,0.0,0.0
21763660000,21763580000,0.0077602863,0.04315996,0.05862093,0.038414,-0.02042389,0.0,0.0,0.0,0.0,0.0,0.0,0.0,0.0,0.20526123,0.0,0.0,nan,0.0,0.0,0.002741456,-0.0013422295,0.001181528,-0.00040957332,0.0,0.0,0.0,0.0,0.0,0.0
21764164000,21764084000,-0.0027034283,0.03257084,0.06621647,0.02773285,-0.02368927,0.0,0.0,0.0,0.0,0.0,0.0,0.0,0.0,0.11720276,0.0,0.0,nan,0.0,0.0,-0.0066666603,-0.0013422295,0.001181528,-0.00040957332,0.0,0.0,0.0,0.0,0.0,0.0
21764660000,21764580000,0.002547741,0.022262573,0.02396679,0.052383423,-0.03656006,0.0,0.0,0.0,0.0,0.0,0.0,0.0,0.0,0.07672119,0.0,0.0,nan,0.0,0.0,-0.0006455183,-0.0013422295,0.001181528,-0.00040957332,0.0,0.0,0.0,0.0,0.0,0.0
21765164000,21765084000,0.02664113,0.010175228,0.045866013,0.05280304,-0.03617859,0.0,0.0,0.0,0.0,0.0,0.0,0.0,0.0,0.20568848,0.0,0.0,nan,0.0,0.0,-0.013469219,-0.0013422295,0.001181528,-0.00040957332,0.0,0.0,0.0,0.0,0.0,0.0
21765660000,21765580000,-0.008583307,0.032365322,0.060263157,0.053756714,-0.029891968,0.0,0.0,0.0,0.0,0.0,0.0,0.0,0.0,0.09623718,0.0,0.0,nan,0.0,0.0,-0.0084759,-0.0013422295,0.001181528,-0.00040957332,0.0,0.0,0.0,0.0,0.0,0.0
21766164000,21766084000,0.006786108,0.026454449,0.014507771,0.060897827,-0.025817871,0.0,0.0,0.0,0.0,0.0,0.0,0.0,0.0,0.16970825,0.0,0.0,nan,0.0,0.0,0.002741456,-0.0013422295,0.001181528,-0.00040957332,0.0,0.0,0.0,0.0,0.0,0.0
21766660000,21766580000,0.002026558,0.002960205,0.054605484,0.042266846,-0.033554077,0.0,0.0,0.0,0.0,0.0,0.0,0.0,0.0,0.14805603,0.0,0.0,nan,0.0,0.0,-2.1576881e-05,-0.0013422295,0.001181528,-0.00040957332,0.0,0.0,0.0,0.0,0.0,0.0
21767164000,21767084000,-0.0019922256,0.033210278,-0.001853466,0.04349518,-0.040405273,0.0,0.0,0.0,0.0,0.0,0.0,0.0,0.0,0.12719727,0.0,0.0,nan,0.0,0.0,-0.023891449,-0.0013422295,0.001181528,-0.00040957332,0.0,0.0,0.0,0.0,0.0,0.0
21767660000,21767580000,-0.004234791,0.00077819824,0.078914165,0.04032135,-0.029418945,0.0,0.0,0.0,0.0,0.0,0.0,0.0,0.0,0.08363342,0.0,0.0,nan,0.0,0.0,-0.009502053,-0.0013422295,0.001181528,-0.00040957332,0.0,0.0,0.0,0.0,0.0,0.0
21768164000,21768084000,-0.008647919,0.00081682205,0.017744541,0.0647583,-0.082107544,0.0,0.0,0.0,0.0,0.0,0.0,0.0,0.0,0.12840271,0.0,0.0,nan,0.0,0.0,0.002942443,-0.0013422295,0.001181528,-0.00040957332,0.0,0.0,0.0,0.0,0.0,0.0
21768660000,21768580000,-0.0031485558,-0.011811256,0.08847761,0.050987244,-0.0665741,0.0,0.0,0.0,0.0,0.0,0.0,0.0,0.0,0.101745605,0.0,0.0,nan,0.0,0.0,-0.016116142,-0.0013422295,0.001181528,-0.00040957332,0.0,0.0,0.0,0.0,0.0,0.0
21769164000,21769084000,-0.017762184,-0.026890755,0.016651154,0.041549683,-0.06777954,0.0,0.0,0.0,0.0,0.0,0.0,0.0,0.0,0.12258911,0.0,0.0,nan,0.0,0.0,0.0024659634,-0.0013422295,0.001181528,-0.00040957332,0.0,0.0,0.0,0.0,0.0,0.0
21769660000,21769580000,-0.014894009,-0.01137352,0.05259466,0.066215515,-0.08528137,0.0,0.0,0.0,0.0,0.0,0.0,0.0,0.0,0.006713867,0.0,0.0,nan,0.0,0.0,-0.011517763,-0.0013422295,0.001181528,-0.00040957332,0.0,0.0,0.0,0.0,0.0,0.0
21770164000,21770084000,-0.0046145916,0.006963253,0.048756123,0.04563141,-0.05480957,0.0,0.0,0.0,0.0,0.0,0.0,0.0,0.0,0.12109375,0.0,0.0,nan,0.0,0.0,0.010222435,-0.0013422295,0.001181528,-0.00040957332,0.0,0.0,0.0,0.0,0.0,0.0
21770660000,21770580000,-0.003412962,-0.030341625,0.03840065,0.04484558,-0.059280396,0.0,0.0,0.0,0.0,0.0,0.0,0.0,0.0,0.04182434,0.0,0.0,nan,0.0,0.0,-0.00067973137,-0.0013422295,0.001181528,-0.00040957332,0.0,0.0,0.0,0.0,0.0,0.0
21771164000,21771084000,0.018238306,-0.021618366,-0.0039863586,0.04158783,-0.057006836,0.0,0.0,0.0,0.0,0.0,0.0,0.0,0.0,0.058059692,0.0,0.0,nan,0.0,0.0,0.011566281,-0.0013422295,0.001181528,-0.00040957332,0.0,0.0,0.0,0.0,0.0,0.0
21771660000,21771580000,0.015049458,-0.040017605,0.027876854,0.048095703,-0.080566406,0.0,0.0,0.0,0.0,0.0,0.0,0.0,0.0,0.10336304,0.0,0.0,nan,0.0,0.0,0.015172243,-0.0013422295,0.001181528,-0.00040957332,0.0,0.0,0.0,0.0,0.0,0.0
21772164000,21772084000,0.028342962,-0.027352333,-0.008811951,0.061546326,-0.101745605,0.0,0.0,0.0,0.0,0.0,0.0,0.0,0.0,0.0753479,0.0,0.0,nan,0.0,0.0,-0.013168216,-0.0013422295,0.001181528,-0.00040957332,0.0,0.0,0.0,0.0,0.0,0.0
21772660000,21772580000,0.005987644,-0.046604156,-0.0051412582,0.024848938,-0.045669556,0.0,0.0,0.0,0.0,0.0,0.0,0.0,0.0,0.03881836,0.0,0.0,nan,0.0,0.0,-0.0029135942,-0.0013422295,0.001181528,-0.00040957332,0.0,0.0,0.0,0.0,0.0,0.0
21773164000,21773084000,0.007831097,-0.025552273,0.034464836,0.037574768,-0.061584473,0.0,0.0,0.0,0.0,0.0,0.0,0.0,0.0,0.013320923,0.0,0.0,nan,0.0,0.0,0.017785072,-0.0013422295,0.001181528,-0.00040957332,0.0,0.0,0.0,0.0,0.0,0.0
21773660000,21773580000,-0.02819705,-0.038868904,-0.00995636,0.050994873,-0.09762573,0.0,0.0,0.0,0.0,0.0,0.0,0.0,0.0,0.07366943,0.0,0.0,nan,0.0,0.0,-0.0070660114,-0.0013422295,0.001181528,-0.00040957332,0.0,0.0,0.0,0.0,0.0,0.0
21774164000,21774084000,0.004303694,-0.010853767,-0.007996559,0.05229187,-0.07846069,0.0,0.0,0.0,0.0,0.0,0.0,0.0,0.0,0.045562744,0.0,0.0,nan,0.0,0.0,0.013846517,-0.0013422295,0.001181528,-0.00040957332,0.0,0.0,0.0,0.0,0.0,0.0
21774660000,21774580000,0.0018811226,-0.012336254,-0.024428844,0.03753662,-0.055145264,0.0,0.0,0.0,0.0,0.0,0.0,0.0,0.0,-0.015167236,0.0,0.0,nan,0.0,0.0,-0.0144149065,-0.0013422295,0.001181528,-0.00040957332,0.0,0.0,0.0,0.0,0.0,0.0
21775164000,21775084000,0.015547991,-0.059741974,-0.03743601,0.036605835,-0.066589355,0.0,0.0,0.0,0.0,0.0,0.0,0.0,0.0,0.028549194,0.0,0.0,nan,0.0,0.0,0.009099841,-0.0013422295,0.001181528,-0.00040957332,0.0,0.0,0.0,0.0,0.0,0.0
21775660000,21775580000,0.008030415,-0.022423744,-0.021073818,0.03740692,-0.057891846,0.0,0.0,0.0,0.0,0.0,0.0,0.0,0.0,-0.028533936,0.0,0.0,nan,0.0,0.0,0.00032365322,-0.0013422295,0.001181528,-0.00040957332,0.0,0.0,0.0,0.0,0.0,0.0
21776164000,21776084000,-0.005218506,-0.030953407,-0.05339575,0.05808258,-0.11143494,0.0,0.0,0.0,0.0,0.0,0.0,0.0,0.0,-0.022598267,0.0,0.0,nan,0.0,0.0,-0.001128912,-0.0013422295,0.001181528,-0.00040957332,0.0,0.0,0.0,0.0,0.0,0.0
21776660000,21776580000,-0.021150827,-0.0151696205,-0.059449673,0.046073914,-0.07447815,0.0,0.0,0.0,0.0,0.0,0.0,0.0,0.0,-0.07527161,0.0,0.0,nan,0.0,0.0,0.009280682,-0.0013422295,0.001181528,-0.00040957332,0.0,0.0,0.0,0.0,0.0,0.0
21777164000,21777084000,-0.01824236,-0.019000053,-0.02118826,0.060905457,-0.09893799,0.0,0.0,0.0,0.0,0.0,0.0,0.0,0.0,0.046432495,0.0,0.0,nan,0.0,0.0,-0.008652568,-0.0013422295,0.001181528,-0.00040957332,0.0,0.0,0.0,0.0,0.0,0.0
21777660000,21777580000,-0.0015752316,-0.038847923,-0.08895302,0.046279907,-0.10121155,0.0,0.0,0.0,0.0,0.0,0.0,0.0,0.0,-0.10517883,0.0,0.0,nan,0.0,0.0,0.0028384924,-0.0013422295,0.001181528,-0.00040957332,0.0,0.0,0.0,0.0,0.0,0.0
21778164000,21778084000,-0.026278973,-0.040740013,-0.052975178,0.034843445,-0.09832764,0.0,0.0,0.0,0.0,0.0,0.0,0.0,0.0,0.037902832,0.0,0.0,nan,0.0,0.0,-0.0053634644,-0.0013422295,0.001181528,-0.00040957332,0.0,0.0,0.0,0.0,0.0,0.0
21778660000,21778580000,0.004037857,-0.035236835,-0.014734268,0.036239624,-0.07060242,0.0,0.0,0.0,0.0,0.0,0.0,0.0,0.0,0.06359863,0.0,0.0,nan,0.0,0.0,-0.019416928,-0.0013422295,0.001181528,-0.00040957332,0.0,0.0,0.0,0.0,0.0,0.0
21779164000,21779084000,-0.022859812,-0.06898737,-0.044879436,0.035560608,-0.09851074,0.0,0.0,0.0,0.0,0.0,0.0,0.0,0.0,-0.08956909,0.0,0.0,nan,0.0,0.0,-0.0006765127,-0.0013422295,0.001181528,-0.00040957332,0.0,0.0,0.0,0.0,0.0,0.0
21779660000,21779580000,-0.0125525,0.000831604,-0.09226513,0.03652954,-0.07865906,0.0,0.0,0.0,0.0,0.0,0.0,0.0,0.0,-0.034820557,0.0,0.0,nan,0.0,0.0,-0.009247541,-0.0013422295,0.001181528,-0.00040957332,0.0,0.0,0.0,0.0,0.0,0.0
21780164000,21780084000,0.013414621,-0.03366232,-0.07861233,0.061424255,-0.12992859,0.0,0.0,0.0,0.0,0.0,0.0,0.0,0.0,-0.08030701,0.0,0.0,nan,0.0,0.0,-0.008142471,-0.0013422295,0.001181528,-0.00040957332,0.0,0.0,0.0,0.0,0.0,0.0
21780660000,21780580000,-0.02505207,-0.019129276,-0.06251192,0.007446289,-0.041778564,0.0,0.0,0.0,0.0,0.0,0.0,0.0,0.0,-0.0017242432,0.0,0.0,nan,0.0,0.0,-0.038868904,-0.0013422295,0.001181528,-0.00040957332,0.0,0.0,0.0,0.0,0.0,0.0
21781164000,21781084000,-0.037077427,-0.052317142,-0.06714344,0.029724121,-0.08721924,0.0,0.0,0.0,0.0,0.0,0.0,0.0,0.0,-0.028305054,0.0,0.0,nan,0.0,0.0,-0.012040138,-0.0013422295,0.001181528,-0.00040957332,0.0,0.0,0.0,0.0,0.0,0.0
21781660000,21781580000,-0.03790474,-0.00467968,-0.025847435,0.05064392,-0.107437134,0.0,0.0,0.0,0.0,0.0,0.0,0.0,0.0,0.010421753,0.0,0.0,nan,0.0,0.0,0.0024718046,-0.0013422295,0.001181528,-0.00040957332,0.0,0.0,0.0,0.0,0.0,0.0
21782164000,21782084000,0.018142462,-0.033468246,-0.0016393661,0.043029785,-0.07644653,0.0,0.0,0.0,0.0,0.0,0.0,0.0,0.0,-0.10702515,0.0,0.0,nan,0.0,0.0,-0.008880377,-0.0013422295,0.001181528,-0.00040957332,0.0,0.0,0.0,0.0,0.0,0.0
21782660000,21782580000,-0.026875973,-0.041278362,-0.032681942,0.017364502,-0.061050415,0.0,0.0,0.0,0.0,0.0,0.0,0.0,0.0,-0.05319214,0.0,0.0,nan,0.0,0.0,-0.020617962,-0.0013422295,0.001181528,-0.00040957332,0.0,0.0,0.0,0.0,0.0,0.0
21783164000,21783084000,-0.030455112,-0.013951778,-0.030875206,0.012496948,-0.052871704,0.0,0.0,0.0,0.0,0.0,0.0,0.0,0.0,-0.082595825,0.0,0.0,nan,0.0,0.0,-0.013123393,-0.0013422295,0.001181528,-0.00040957332,0.0,0.0,0.0,0.0,0.0,0.0
21783660000,21783580000,0.016750574,0.003267765,0.0038790703,0.03817749,-0.07821655,0.0,0.0,0.0,0.0,0.0,0.0,0.0,0.0,0.016616821,0.0,0.0,nan,0.0,0.0,-0.001647234,-0.0013422295,0.001181528,-0.00040957332,0.0,0.0,0.0,0.0,0.0,0.0
21784164000,21784084000,-0.030177355,-0.005217552,0.04709053,0.03492737,-0.0730896,0.0,0.0,0.0,0.0,0.0,0.0,0.0,0.0,0.0052337646,0.0,0.0,nan,0.0,0.0,-0.0056898594,-0.0013422295,0.001181528,-0.00040957332,0.0,0.0,0.0,0.0,0.0,0.0
21784660000,21784580000,-0.020233393,0.0033540726,0.012456894,0.044174194,-0.08215332,0.0,0.0,0.0,0.0,0.0,0.0,0.0,0.0,-0.08061218,0.0,0.0,nan,0.0,0.0,-0.005190015,-0.0013422295,0.001181528,-0.00040957332,0.0,0.0,0.0,0.0,0.0,0.0
21785164000,21785084000,-0.04873991,-0.021450043,0.032862663,0.023422241,-0.045410156,0.0,0.0,0.0,0.0,0.0,0.0,0.0,0.0,-0.052597046,0.0,0.0,nan,0.0,0.0,-0.008738399,-0.0013422295,0.001181528,-0.00040957332,0.0,0.0,0.0,0.0,0.0,0.0
21785660000,21785580000,-0.0131213665,0.0010123253,0.09899092,0.04524231,-0.07400513,0.0,0.0,0.0,0.0,0.0,0.0,0.0,0.0,0.07922363,0.0,0.0,nan,0.0,0.0,-0.016335726,-0.0013422295,0.001181528,-0.00040957332,0.0,0.0,0.0,0.0,0.0,0.0
21786164000,21786084000,-0.0048377514,0.031544685,0.060277462,0.04168701,-0.07249451,0.0,0.0,0.0,0.0,0.0,0.0,0.0,0.0,0.011138916,0.0,0.0,nan,0.0,0.0,-0.017547965,-0.0013422295,0.001181528,-0.00040957332,0.0,0.0,0.0,0.0,0.0,0.0
21786660000,21786580000,-0.007889032,-0.008254528,0.052609444,0.03413391,-0.07647705,0.0,0.0,0.0,0.0,0.0,0.0,0.0,0.0,0.072387695,0.0,0.0,nan,0.0,0.0,-0.005417824,-0.0013422295,0.001181528,-0.00040957332,0.0,0.0,0.0,0.0,0.0,0.0
21787164000,21787084000,-0.02056837,0.010494709,0.074486256,0.030014038,-0.07246399,0.0,0.0,0.0,0.0,0.0,0.0,0.0,0.0,0.022644043,0.0,0.0,nan,0.0,0.0,0.0011746883,-0.0013422295,0.001181528,-0.00040957332,0.0,0.0,0.0,0.0,0.0,0.0
21787660000,21787580000,0.037056446,0.0089674,0.089437485,0.04537964,-0.07356262,0.0,0.0,0.0,0.0,0.0,0.0,0.0,0.0,0.0904541,0.0,0.0,nan,0.0,0.0,-0.00476861,-0.0013422295,0.001181528,-0.00040957332,0.0,0.0,0.0,0.0,0.0,0.0
21788164000,21788084000,-0.017142773,0.034383297,0.05554104,0.05117798,-0.11230469,0.0,0.0,0.0,0.0,0.0,0.0,0.0,0.0,0.10006714,0.0,0.0,nan,0.0,0.0,-0.028644443,-0.0013422295,0.001181528,-0.00040957332,0.0,0.0,0.0,0.0,0.0,0.0
21788660000,21788580000,0.020544767,0.017098427,0.064900875,0.013687134,-0.051437378,0.0,0.0,0.0,0.0,0.0,0.0,0.0,0.0,0.019317627,0.0,0.0,nan,0.0,0.0,-0.00205338,-0.0013422295,0.001181528,-0.00040957332,0.0,0.0,0.0,0.0,0.0,0.0
21789164000,21789084000,-0.013238668,0.0075540543,0.08568621,0.031433105,-0.07368469,0.0,0.0,0.0,0.0,0.0,0.0,0.0,0.0,0.1232605,0.0,0.0,nan,0.0,0.0,-0.0025969744,-0.0013422295,0.001181528,-0.00040957332,0.0,0.0,0.0,0.0,0.0,0.0
21789660000,21789580000,0.025568247,0.0034241676,0.123351574,0.044418335,-0.07121277,0.0,0.0,0.0,0.0,0.0,0.0,0.0,0.0,0.069610596,0.0,0.0,nan,0.0,0.0,-0.010305405,-0.0013422295,0.001181528,-0.00040957332,0.0,0.0,0.0,0.0,0.0,0.0
21790164000,21790084000,0.022025824,0.0052161217,0.058450222,0.050613403,-0.092315674,0.0,0.0,0.0,0.0,0.0,0.0,0.0,0.0,0.13970947,0.0,0.0,nan,0.0,0.0,-0.010676503,-0.0013422295,0.001181528,-0.00040957332,0.0,0.0,0.0,0.0,0.0,0.0
21790660000,21790580000,0.0072903633,0.007422447,0.046682358,0.052444458,-0.09118652,0.0,0.0,0.0,0.0,0.0,0.0,0.0,0.0,0.1402893,0.0,0.0,nan,0.0,0.0,-0.011855483,-0.0013422295,0.001181528,-0.00040957332,0.0,0.0,0.0,0.0,0.0,0.0
21791156000,21791076000,0.023259401,0.018383026,0.07087135,0.023635864,-0.050964355,0.0,0.0,0.0,0.0,0.0,0.0,0.0,0.0,0.08547974,0.0,0.0,nan,0.0,0.0,-0.0119383335,-0.0013422295,0.001181528,-0.00040957332,0.0,0.0,0.0,0.0,0.0,0.0
21791660000,21791580000,-0.0114068985,0.011154175,0.10851526,0.051498413,-0.09375,0.0,0.0,0.0,0.0,0.0,0.0,0.0,0.0,0.057922363,0.0,0.0,nan,0.0,0.0,0.0021953583,-0.0013422295,0.001181528,-0.00040957332,0.0,0.0,0.0,0.0,0.0,0.0
21792164000,21792084000,0.00079512596,0.003818512,0.014364719,0.016647339,-0.04623413,0.0,0.0,0.0,0.0,0.0,0.0,0.0,0.0,0.098724365,0.0,0.0,nan,0.0,0.0,-0.0012046099,-0.0013422295,0.001181528,-0.00040957332,0.0,0.0,0.0,0.0,0.0,0.0
21792660000,21792580000,-0.02282548,-0.014076233,0.08606672,0.016983032,-0.050689697,0.0,0.0,0.0,0.0,0.0,0.0,0.0,0.0,0.18972778,0.0,0.0,nan,0.0,0.0,-0.022359014,-0.0013422295,0.001181528,-0.00040957332,0.0,0.0,0.0,0.0,0.0,0.0
21793164000,21793084000,-0.012756348,-0.029895782,0.043912888,0.018356323,-0.043670654,0.0,0.0,0.0,0.0,0.0,0.0,0.0,0.0,0.11279297,0.0,0.0,nan,0.0,0.0,-0.0035277605,-0.0013422295,0.001181528,-0.00040957332,0.0,0.0,0.0,0.0,0.0,0.0
21793660000,21793580000,1.4305115e-05,-0.0048923492,0.0876503,0.02458191,-0.05078125,0.0,0.0,0.0,0.0,0.0,0.0,0.0,0.0,0.07879639,0.0,0.0,nan,0.0,0.0,0.013214827,-0.0013422295,0.001181528,-0.00040957332,0.0,0.0,0.0,0.0,0.0,0.0
21794164000,21794084000,-0.01492095,-0.016724586,0.086615086,0.041748047,-0.08047485,0.0,0.0,0.0,0.0,0.0,0.0,0.0,0.0,0.15023804,0.0,0.0,nan,0.0,0.0,-0.002178073,-0.0013422295,0.001181528,-0.00040957332,0.0,0.0,0.0,0.0,0.0,0.0
21794660000,21794580000,-0.022239685,-0.012845993,0.042977333,0.03303528,-0.06375122,0.0,0.0,0.0,0.0,0.0,0.0,0.0,0.0,0.11242676,0.0,0.0,nan,0.0,0.0,-0.009577751,-0.0013422295,0.001181528,-0.00040957332,0.0,0.0,0.0,0.0,0.0,0.0
21795164000,21795084000,-0.013607502,-0.024748325,0.069937706,0.026794434,-0.06741333,0.0,0.0,0.0,0.0,0.0,0.0,0.0,0.0,0.14242554,0.0,0.0,nan,0.0,0.0,0.010261536,-0.0013422295,0.001181528,-0.00040957332,0.0,0.0,0.0,0.0,0.0,0.0
21795660000,21795580000,-0.02775073,-0.03011179,0.07520485,0.029174805,-0.06982422,0.0,0.0,0.0,0.0,0.0,0.0,0.0,0.0,0.045654297,0.0,0.0,nan,0.0,0.0,0.014545202,-0.0013422295,0.001181528,-0.00040957332,0.0,0.0,0.0,0.0,0.0,0.0
21796156000,21796076000,-0.04129672,-0.041315556,0.013435364,0.020126343,-0.05532837,0.0,0.0,0.0,0.0,0.0,0.0,0.0,0.0,0.035095215,0.0,0.0,nan,0.0,0.0,0.004876375,-0.0013422295,0.001181528,-0.00040957332,0.0,0.0,0.0,0.0,0.0,0.0
21796660000,21796580000,-0.032761574,-0.0352726,0.02312088,0.025299072,-0.067840576,0.0,0.0,0.0,0.0,0.0,0.0,0.0,0.0,0.03756714,0.0,0.0,nan,0.0,0.0,-0.009584665,-0.0013422295,0.001181528,-0.00040957332,0.0,0.0,0.0,0.0,0.0,0.0
21797164000,21797084000,-0.051711082,-0.038577557,0.03230524,0.03227234,-0.078552246,0.0,0.0,0.0,0.0,0.0,0.0,0.0,0.0,0.13769531,0.0,0.0,nan,0.0,0.0,-0.011460781,-0.0013422295,0.001181528,-0.00040957332,0.0,0.0,0.0,0.0,0.0,0.0
21797660000,21797580000,-0.05250454,-0.019276619,0.016469955,0.028793335,-0.09088135,0.0,0.0,0.0,0.0,0.0,0.0,0.0,0.0,0.15740967,0.0,0.0,nan,0.0,0.0,-0.006329775,-0.0013422295,0.001181528,-0.00040957332,0.0,0.0,0.0,0.0,0.0,0.0
21798164000,21798084000,-0.05036831,-0.0349617,0.03449917,0.014389038,-0.07928467,0.0,0.0,0.0,0.0,0.0,0.0,0.0,0.0,0.19534302,0.0,0.0,nan,0.0,0.0,-0.0039149523,-0.0013422295,0.001181528,-0.00040957332,0.0,0.0,0.0,0.0,0.0,0.0
21798660000,21798580000,-0.012953043,-0.030739784,0.030463219,0.007583618,-0.04824829,0.0,0.0,0.0,0.0,0.0,0.0,0.0,0.0,0.1053772,0.0,0.0,nan,0.0,0.0,-0.010403752,-0.0013422295,0.001181528,-0.00040957332,0.0,0.0,0.0,0.0,0.0,0.0
21799164000,21799084000,-0.051621914,-0.045268536,0.0063529015,0.006958008,-0.053833008,0.0,0.0,0.0,0.0,0.0,0.0,0.0,0.0,0.10534668,0.0,0.0,nan,0.0,0.0,0.0027107,-0.0013422295,0.001181528,-0.00040957332,0.0,0.0,0.0,0.0,0.0,0.0
21799660000,21799580000,-0.044389963,-0.034914494,0.0076231956,0.02305603,-0.083618164,0.0,0.0,0.0,0.0,0.0,0.0,0.0,0.0,0.171875,0.0,0.0,nan,0.0,0.0,-0.014672875,-0.0013422295,0.001181528,-0.00040957332,0.0,0.0,0.0,0.0,0.0,0.0
21800164000,21800084000,-0.013453484,-0.07073593,0.0033888817,0.02619934,-0.078704834,0.0,0.0,0.0,0.0,0.0,0.0,0.0,0.0,0.054107666,0.0,0.0,nan,0.0,0.0,-0.0050079823,-0.0013422295,0.001181528,-0.00040957332,0.0,0.0,0.0,0.0,0.0,0.0
21800660000,21800580000,-0.039212465,-0.03238249,-0.013799667,0.0063934326,-0.0748291,0.0,0.0,0.0,0.0,0.0,0.0,0.0,0.0,0.14273071,0.0,0.0,nan,0.0,0.0,-0.0015136003,-0.0013422295,0.001181528,-0.00040957332,0.0,0.0,0.0,0.0,0.0,0.0
21801164000,21801084000,-0.00069618225,-0.06781244,0.0244236,0.032791138,-0.09753418,0.0,0.0,0.0,0.0,0.0,0.0,0.0,0.0,0.08642578,0.0,0.0,nan,0.0,0.0,0.0012176037,-0.0013422295,0.001181528,-0.00040957332,0.0,0.0,0.0,0.0,0.0,0.0
21801660000,21801580000,-0.025191545,-0.07814264,-0.033298016,0.032180786,-0.10229492,0.0,0.0,0.0,0.0,0.0,0.0,0.0,0.0,-0.09899902,0.0,0.0,nan,0.0,0.0,-0.007230401,-0.0013422295,0.001181528,-0.00040957332,0.0,0.0,0.0,0.0,0.0,0.0
21802164000,21802084000,-0.034514427,-0.066131115,0.013435841,0.026489258,-0.11102295,0.0,0.0,0.0,0.0,0.0,0.0,0.0,0.0,0.08065796,0.0,0.0,nan,0.0,0.0,-0.0096668005,-0.0013422295,0.001181528,-0.00040957332,0.0,0.0,0.0,0.0,0.0,0.0
21802660000,21802580000,-0.00684309,-0.05708933,-0.036916256,0.04296875,-0.1111145,0.0,0.0,0.0,0.0,0.0,0.0,0.0,0.0,0.012084961,0.0,0.0,nan,0.0,0.0,0.009262085,-0.0013422295,0.001181528,-0.00040957332,0.0,0.0,0.0,0.0,0.0,0.0
21803164000,21803084000,-0.004455328,-0.081726074,-0.020933151,0.03529358,-0.107299805,0.0,0.0,0.0,0.0,0.0,0.0,0.0,0.0,-0.05029297,0.0,0.0,nan,0.0,0.0,-0.0053788424,-0.0013422295,0.001181528,-0.00040957332,0.0,0.0,0.0,0.0,0.0,0.0
21803660000,21803580000,-0.014539003,-0.048716545,-0.05251789,0.02079773,-0.09213257,0.0,0.0,0.0,0.0,0.0,0.0,0.0,0.0,-0.028747559,0.0,0.0,nan,0.0,0.0,-0.004933119,-0.0013422295,0.001181528,-0.00040957332,0.0,0.0,0.0,0.0,0.0,0.0
21804164000,21804084000,-0.037627935,-0.06494045,-0.0116119385,0.024047852,-0.09100342,0.0,0.0,0.0,0.0,0.0,0.0,0.0,0.0,0.069244385,0.0,0.0,nan,0.0,0.0,0.0055332184,-0.0013422295,0.001181528,-0.00040957332,0.0,0.0,0.0,0.0,0.0,0.0
21804660000,21804580000,-0.012598276,-0.04639435,-0.045320034,0.039993286,-0.11288452,0.0,0.0,0.0,0.0,0.0,0.0,0.0,0.0,0.04284668,0.0,0.0,nan,0.0,0.0,-0.01868403,-0.0013422295,0.001181528,-0.00040957332,0.0,0.0,0.0,0.0,0.0,0.0
21805164000,21805084000,-0.0050742626,-0.047747135,-0.053158283,0.043685913,-0.1335144,0.0,0.0,0.0,0.0,0.0,0.0,0.0,0.0,0.029663086,0.0,0.0,nan,0.0,0.0,-0.018567681,-0.0013422295,0.001181528,-0.00040957332,0.0,0.0,0.0,0.0,0.0,0.0
21805660000,21805580000,-0.01734209,-0.054174423,-0.008439541,0.043655396,-0.12472534,0.0,0.0,0.0,0.0,0.0,0.0,0.0,0.0,-0.0513916,0.0,0.0,nan,0.0,0.0,-0.008794904,-0.0013422295,0.001181528,-0.00040957332,0.0,0.0,0.0,0.0,0.0,0.0
21806164000,21806084000,-0.023569822,-0.034383774,-0.037485123,0.017456055,-0.07861328,0.0,0.0,0.0,0.0,0.0,0.0,0.0,0.0,0.13168335,0.0,0.0,nan,0.0,0.0,-0.0013773441,-0.0013422295,0.001181528,-0.00040957332,0.0,0.0,0.0,0.0,0.0,0.0
21806660000,21806580000,0.06384516,-0.118059635,0.30211782,0.025466919,-0.097839355,0.0,0.0,0.0,0.0,0.0,0.0,0.0,0.0,-0.08807373,0.0,0.0,nan,0.0,0.0,-0.02544403,-0.0013422295,0.001181528,-0.00040957332,0.0,0.0,0.0,0.0,0.0,0.0
21807164000,21807084000,0.1314944,-0.23261881,0.09192538,0.06541443,-0.16369629,0.0,0.0,0.0,0.0,0.0,0.0,0.0,0.0,-0.08773804,0.0,0.0,nan,0.0,0.0,-0.0028824806,-0.0058285594,-0.005925186,0.0047290325,0.0,0.0,0.0,0.0,0.0,0.0
21807660000,21807580000,0.09423041,-0.058755517,-0.002546072,0.051513672,-0.12194824,0.0,0.0,0.0,0.0,0.0,0.0,0.0,0.0,-0.08999634,0.0,0.0,nan,0.0,0.0,-0.0028824806,-0.004400894,-0.00057286024,-0.0012696683,0.0,0.0,0.0,0.0,0.0,0.0
21808164000,21808084000,0.047423214,0.05391738,-0.069895685,0.058166504,-0.08917236,0.0,0.0,0.0,0.0,0.0,0.0,0.0,0.0,-0.09359741,0.0,0.0,nan,0.0,0.0,-0.0028824806,-0.0034757555,-0.0018006563,-0.0048969984,0.0,0.0,0.0,0.0,0.0,0.0
21808660000,21808580000,0.05664838,0.0013679862,0.02160719,0.052108765,-0.07556152,0.0,0.0,0.0,0.0,0.0,0.0,0.0,0.0,0.0,0.0,0.0,nan,0.0,0.0,-0.0028824806,-0.0015648752,4.8577785e-06,0.001085639,0.0,0.0,0.0,0.0,0.0,0.0
21809164000,21809084000,0.02828461,0.024466038,0.006575566,0.03843689,-0.05886841,0.0,0.0,0.0,0.0,0.0,0.0,0.0,0.0,0.0,0.0,0.0,nan,0.0,0.0,-0.0028824806,-0.0032013655,0.0023499578,0.006497532,0.0,0.0,0.0,0.0,0.0,0.0
21809660000,21809580000,0.00652653,0.08060491,0.036151707,0.03189087,-0.044128418,0.0,0.0,0.0,0.0,0.0,0.0,0.0,0.0,0.0,0.0,0.0,nan,0.0,0.0,-0.0028824806,-0.00068444014,-0.00024807453,0.00096574426,0.0,0.0,0.0,0.0,0.0,0.0
21810164000,21810084000,-0.0024703145,0.07381904,0.044856906,0.010848999,-0.034851074,0.0,0.0,0.0,0.0,0.0,0.0,0.0,0.0,0.0,0.0,0.0,nan,0.0,0.0,-0.0028824806,-0.0036300719,0.0014260411,0.000213027,0.0,0.0,0.0,0.0,0.0,0.0
21810660000,21810580000,-0.05704254,0.08214784,0.06621534,-0.0049591064,-0.0113220215,0.0,0.0,0.0,0.0,0.0,0.0,0.0,0.0,0.0,0.0,0.0,nan,0.0,0.0,-0.0028824806,0.0011073351,-0.002113536,-0.00258407,0.0,0.0,0.0,0.0,0.0,0.0
21811164000,21811084000,-0.091032505,0.058152676,0.079241574,-0.017349243,-0.0025024414,0.0,0.0,0.0,0.0,0.0,0.0,0.0,0.0,0.0,0.0,0.0,nan,0.0,0.0,-0.0028824806,0.0009723604,0.0004886538,-0.0047963858,0.0,0.0,0.0,0.0,0.0,0.0
21811660000,21811580000,-0.070479095,0.017355025,0.14367461,-0.01512146,-0.009765625,0.0,0.0,0.0,0.0,0.0,0.0,0.0,0.0,0.0,0.0,0.0,nan,0.0,0.0,-0.0028824806,0.0006057471,-0.0007365793,-0.0031255484,0.0,0.0,0.0,0.0,0.0,0.0
21812164000,21812084000,-0.07163459,0.017892838,0.11430925,-0.023483276,-0.0015563965,0.0,0.0,0.0,0.0,0.0,0.0,0.0,0.0,0.0,0.0,0.0,nan,0.0,0.0,-0.0028824806,-0.0035670102,-0.0019155145,-0.0028086305,0.0,0.0,0.0,0.0,0.0,0.0
21812660000,21812580000,-0.068295956,-0.02398923,0.18093908,-0.0337677,-0.007080078,0.0,0.0,0.0,0.0,0.0,0.0,0.0,0.0,0.0,0.0,0.0,nan,0.0,0.0,-0.0022566319,0.000516966,-0.0008916706,-0.004857123,0.0,0.0,0.0,0.0,0.0,0.0
21813164000,21813084000,-0.049903717,-0.024027139,0.17358232,-0.02532959,-0.0036010742,0.0,0.0,0.0,0.0,0.0,0.0,0.0,0.0,0.0,0.0,0.0,nan,0.0,0.0,-0.0066810846,0.000516966,-0.0008916706,-0.004857123,0.0,0.0,0.0,0.0,0.0,0.0
21813660000,21813580000,-0.04896816,-0.030915093,0.16836047,-0.026504517,-0.010803223,0.0,0.0,0.0,0.0,0.0,0.0,0.0,0.0,0.0,0.0,0.0,nan,0.0,0.0,-0.0007967949,0.000516966,-0.0008916706,-0.004857123,0.0,0.0,0.0,0.0,0.0,0.0
21814164000,21814084000,-0.033218786,-0.021476464,0.10538751,-0.020843506,-0.01361084,0.0,0.0,0.0,0.0,0.0,0.0,0.0,0.0,0.0,0.0,0.0,nan,0.0,0.0,-0.014762759,0.000516966,-0.0008916706,-0.004857123,0.0,0.0,0.0,0.0,0.0,0.0
21814660000,21814580000,0.016721591,-0.034130074,0.10417634,-0.01864624,-0.02279663,0.0,0.0,0.0,0.0,0.0,0.0,0.0,0.0,0.0,0.0,0.0,nan,0.0,0.0,-0.005902052,0.000516966,-0.0008916706,-0.004857123,0.0,0.0,0.0,0.0,0.0,0.0
21815164000,21815084000,0.0244281,-0.010720895,0.11642009,-0.017333984,-0.02218628,0.0,0.0,0.0,0.0,0.0,0.0,0.0,0.0,0.072631836,0.0,0.0,nan,0.0,0.0,-0.0011005402,0.000516966,-0.0008916706,-0.004857123,0.0,0.0,0.0,0.0,0.0,0.0
21815660000,21815580000,0.008573804,-0.018711785,0.13819629,-0.007385254,-0.019714355,0.0,0.0,0.0,0.0,0.0,0.0,0.0,0.0,0.24441528,0.0,0.0,nan,0.0,0.0,-0.012976527,0.000516966,-0.0008916706,-0.004857123,0.0,0.0,0.0,0.0,0.0,0.0
21816164000,21816084000,0.023751028,0.0012860652,0.06597352,-0.01133728,-0.012512207,0.0,0.0,0.0,0.0,0.0,0.0,0.0,0.0,0.06729126,0.0,0.0,nan,0.0,0.0,-0.016089201,0.000516966,-0.0008916706,-0.004857123,0.0,0.0,0.0,0.0,0.0,0.0
21816660000,21816580000,0.028170275,-0.0017359611,0.06509364,-0.0046691895,-0.0014648438,0.0,0.0,0.0,0.0,0.0,0.0,0.0,0.0,0.0,0.0,0.0,nan,0.0,0.0,0.003958106,0.000516966,-0.0008916706,-0.004857123,0.0,0.0,0.0,0.0,0.0,0.0
21817164000,21817084000,0.014915997,0.008997746,0.10049516,-0.013427734,0.0027160645,0.0,0.0,0.0,0.0,0.0,0.0,0.0,0.0,0.019104004,0.0,0.0,nan,0.0,0.0,0.0025510788,0.000516966,-0.0008916706,-0.004857123,0.0,0.0,0.0,0.0,0.0,0.0
21817660000,21817580000,0.0075888503,0.031806864,-0.0022697449,-0.014709473,0.010101318,0.0,0.0,0.0,0.0,0.0,0.0,0.0,0.0,0.103302,0.0,0.0,nan,0.0,0.0,-0.011163354,0.000516966,-0.0008916706,-0.004857123,0.0,0.0,0.0,0.0,0.0,0.0
21818164000,21818084000,-0.0057860427,0.021222096,0.02449119,-0.014144897,0.004638672,0.0,0.0,0.0,0.0,0.0,0.0,0.0,0.0,0.09524536,0.0,0.0,nan,0.0,0.0,-0.002504468,0.000516966,-0.0008916706,-0.004857123,0.0,0.0,0.0,0.0,0.0,0.0
21818660000,21818580000,-0.0018032081,0.047668252,0.048314035,-0.011871338,0.008514404,0.0,0.0,0.0,0.0,0.0,0.0,0.0,0.0,0.052947998,0.0,0.0,nan,0.0,0.0,-0.02062726,0.000516966,-0.0008916706,-0.004857123,0.0,0.0,0.0,0.0,0.0,0.0
21819164000,21819084000,-0.016279345,0.022962455,0.02750194,-0.010391235,0.00680542,0.0,0.0,0.0,0.0,0.0,0.0,0.0,0.0,0.099243164,0.0,0.0,nan,0.0,0.0,-0.007529855,0.000516966,-0.0008916706,-0.004857123,0.0,0.0,0.0,0.0,0.0,0.0
21819660000,21819580000,-0.04369204,0.034419157,0.038101196,-0.011352539,0.0060424805,0.0,0.0,0.0,0.0,0.0,0.0,0.0,0.0,0.028564453,0.0,0.0,nan,0.0,0.0,-0.0073451996,0.000516966,-0.0008916706,-0.004857123,0.0,0.0,0.0,0.0,0.0,0.0
21820164000,21820084000,-0.042894498,0.016640957,0.057006896,-0.01625061,0.008728027,0.0,0.0,0.0,0.0,0.0,0.0,0.0,0.0,0.0843811,0.0,0.0,nan,0.0,0.0,-0.0042818785,0.000516966,-0.0008916706,-0.004857123,0.0,0.0,0.0,0.0,0.0,0.0
21820660000,21820580000,-0.04958286,0.031057954,0.0632177,-0.010574341,0.017303467,0.0,0.0,0.0,0.0,0.0,0.0,0.0,0.0,0.006134033,0.0,0.0,nan,0.0,0.0,-0.006093979,0.000516966,-0.0008916706,-0.004857123,0.0,0.0,0.0,0.0,0.0,0.0
21821164000,21821084000,-0.020183807,0.019160194,0.0040329695,-0.017471313,0.018737793,0.0,0.0,0.0,0.0,0.0,0.0,0.0,0.0,0.0345459,0.0,0.0,nan,0.0,0.0,-0.0050923824,0.000516966,-0.0008916706,-0.004857123,0.0,0.0,0.0,0.0,0.0,0.0
21821660000,21821580000,-0.048176758,0.017143019,0.053616226,-0.023773193,0.018981934,0.0,0.0,0.0,0.0,0.0,0.0,0.0,0.0,0.11651611,0.0,0.0,nan,0.0,0.0,-0.004963517,0.000516966,-0.0008916706,-0.004857123,0.0,0.0,0.0,0.0,0.0,0.0
21822164000,21822084000,-0.040771864,0.01858683,0.0063152313,-0.019546509,0.011260986,0.0,0.0,0.0,0.0,0.0,0.0,0.0,0.0,0.078125,0.0,0.0,nan,0.0,0.0,-0.013792038,0.000516966,-0.0008916706,-0.004857123,0.0,0.0,0.0,0.0,0.0,0.0
21822660000,21822580000,-0.057377134,0.01466575,-0.018987775,-0.030578613,0.02029419,0.0,0.0,0.0,0.0,0.0,0.0,0.0,0.0,0.064819336,0.0,0.0,nan,0.0,0.0,-0.024240375,0.000516966,-0.0008916706,-0.004857123,0.0,0.0,0.0,0.0,0.0,0.0
21823164000,21823084000,-0.034903795,0.011724338,0.029583812,-0.023529053,0.017700195,0.0,0.0,0.0,0.0,0.0,0.0,0.0,0.0,0.073394775,0.0,0.0,nan,0.0,0.0,-0.012249589,0.000516966,-0.0008916706,-0.004857123,0.0,0.0,0.0,0.0,0.0,0.0
21823660000,21823580000,-0.03614106,0.0041040992,0.02286768,-0.021438599,0.0113220215,0.0,0.0,0.0,0.0,0.0,0.0,0.0,0.0,0.01876831,0.0,0.0,nan,0.0,0.0,-0.022901058,0.000516966,-0.0008916706,-0.004857123,0.0,0.0,0.0,0.0,0.0,0.0
21824164000,21824084000,-0.025975863,0.016952913,-0.023345232,-0.02670288,0.015380859,0.0,0.0,0.0,0.0,0.0,0.0,0.0,0.0,0.0,0.0,0.0,nan,0.0,0.0,-0.009261727,0.000516966,-0.0008916706,-0.004857123,0.0,0.0,0.0,0.0,0.0,0.0
21824660000,21824580000,-0.018768359,-0.0053749094,0.0038690567,-0.0030975342,0.001739502,0.0,0.0,0.0,0.0,0.0,0.0,0.0,0.0,0.0,0.0,0.0,nan,0.0,0.0,-0.01316309,0.000516966,-0.0008916706,-0.004857123,0.0,0.0,0.0,0.0,0.0,0.0
21825164000,21825084000,-0.017699797,0.017269569,-0.034193277,-0.0071868896,0.0057373047,0.0,0.0,0.0,0.0,0.0,0.0,0.0,0.0,0.04119873,0.0,0.0,nan,0.0,0.0,-0.004478812,0.000516966,-0.0008916706,-0.004857123,0.0,0.0,0.0,0.0,0.0,0.0
21825660000,21825580000,-0.008263119,0.01127116,-0.0044145584,-0.014892578,0.009918213,0.0,0.0,0.0,0.0,0.0,0.0,0.0,0.0,0.02279663,0.0,0.0,nan,0.0,0.0,-0.018143177,0.000516966,-0.0008916706,-0.004857123,0.0,0.0,0.0,0.0,0.0,0.0
21826164000,21826084000,0.0037842207,0.027579319,-0.03905368,0.0016479492,0.013427734,0.0,0.0,0.0,0.0,0.0,0.0,0.0,0.0,0.0,0.0,0.0,nan,0.0,0.0,-0.028814197,0.000516966,-0.0008916706,-0.004857123,0.0,0.0,0.0,0.0,0.0,0.0
21826660000,21826580000,-0.009622779,0.044058606,-0.025332093,-0.009414673,0.019042969,0.0,0.0,0.0,0.0,0.0,0.0,0.0,0.0,0.04244995,0.0,0.0,nan,0.0,0.0,-0.0037833452,0.000516966,-0.0008916706,-0.004857123,0.0,0.0,0.0,0.0,0.0,0.0
21827164000,21827084000,-0.0029885757,0.030220589,-0.04901606,-0.011474609,0.012359619,0.0,0.0,0.0,0.0,0.0,0.0,0.0,0.0,0.01449585,0.0,0.0,nan,0.0,0.0,-0.0049464703,0.000516966,-0.0008916706,-0.004857123,0.0,0.0,0.0,0.0,0.0,0.0
21827660000,21827580000,0.018978229,0.044857003,-0.019367278,-0.0004272461,0.018310547,0.0,0.0,0.0,0.0,0.0,0.0,0.0,0.0,0.0,0.0,0.0,nan,0.0,0.0,-0.008193016,0.000516966,-0.0008916706,-0.004857123,0.0,0.0,0.0,0.0,0.0,0.0
21828164000,21828084000,0.0048488183,0.05163013,0.014835119,-0.010025024,0.021148682,0.0,0.0,0.0,0.0,0.0,0.0,0.0,0.0,0.0018005371,0.0,0.0,nan,0.0,0.0,-0.0023578405,0.000516966,-0.0008916706,-0.004857123,0.0,0.0,0.0,0.0,0.0,0.0
21828660000,21828580000,-0.019235384,0.035326585,0.015118778,-0.0063476562,0.029449463,0.0,0.0,0.0,0.0,0.0,0.0,0.0,0.0,0.0,0.0,0.0,nan,0.0,0.0,-0.0056961775,0.000516966,-0.0008916706,-0.004857123,0.0,0.0,0.0,0.0,0.0,0.0
21829164000,21829084000,-0.017844772,0.03797194,-0.0810377,-0.002090454,0.037078857,0.0,0.0,0.0,0.0,0.0,0.0,0.0,0.0,0.0,0.0,0.0,nan,0.0,0.0,-0.0052894354,0.000516966,-0.0008916706,-0.004857123,0.0,0.0,0.0,0.0,0.0,0.0
21829660000,21829580000,0.006145725,0.03868972,-0.05083275,-0.00038146973,0.042419434,0.0,0.0,0.0,0.0,0.0,0.0,0.0,0.0,0.0,0.0,0.0,nan,0.0,0.0,0.0034552813,0.000516966,-0.0008916706,-0.004857123,0.0,0.0,0.0,0.0,0.0,0.0
21830164000,21830084000,-0.005407468,0.044457734,-0.018826783,-0.002456665,0.045043945,0.0,0.0,0.0,0.0,0.0,0.0,0.0,0.0,0.0,0.0,0.0,nan,0.0,0.0,-0.010180712,0.000516966,-0.0008916706,-0.004857123,0.0,0.0,0.0,0.0,0.0,0.0
21830660000,21830580000,-0.013855396,0.016629597,-0.08195275,-0.004562378,0.041015625,0.0,0.0,0.0,0.0,0.0,0.0,0.0,0.0,0.0,0.0,0.0,nan,0.0,0.0,-0.0023466349,0.000516966,-0.0008916706,-0.004857123,0.0,0.0,0.0,0.0,0.0,0.0
21831164000,21831084000,0.002741532,0.018509857,-0.010950744,-0.010635376,0.034088135,0.0,0.0,0.0,0.0,0.0,0.0,0.0,0.0,0.0,0.0,0.0,nan,0.0,0.0,-0.0036320686,0.000516966,-0.0008916706,-0.004857123,0.0,0.0,0.0,0.0,0.0,0.0
21831660000,21831580000,-0.0003097383,0.008899385,-0.007856786,-0.009674072,0.029174805,0.0,0.0,0.0,0.0,0.0,0.0,0.0,0.0,0.0,0.0,0.0,nan,0.0,0.0,0.013710856,0.000516966,-0.0008916706,-0.004857123,0.0,0.0,0.0,0.0,0.0,0.0
21832164000,21832084000,-0.00801931,0.037354708,0.0082194805,0.0050811768,0.034454346,0.0,0.0,0.0,0.0,0.0,0.0,0.0,0.0,0.0,0.0,0.0,nan,0.0,0.0,0.00645411,0.000516966,-0.0008916706,-0.004857123,0.0,0.0,0.0,0.0,0.0,0.0
21832660000,21832580000,-0.029791504,0.015781717,-0.0008736849,-0.016418457,0.024841309,0.0,0.0,0.0,0.0,0.0,0.0,0.0,0.0,0.0,0.0,0.0,nan,0.0,0.0,0.010338187,0.000516966,-0.0008916706,-0.004857123,0.0,0.0,0.0,0.0,0.0,0.0
21833164000,21833084000,-0.031165022,0.017557234,-0.055533767,-0.013504028,0.02142334,0.0,0.0,0.0,0.0,0.0,0.0,0.0,0.0,0.0,0.0,0.0,nan,0.0,0.0,0.0012419224,0.000516966,-0.0008916706,-0.004857123,0.0,0.0,0.0,0.0,0.0,0.0
21833660000,21833580000,-0.03112889,0.02514158,0.001236856,-0.013473511,0.0134887695,0.0,0.0,0.0,0.0,0.0,0.0,0.0,0.0,0.0,0.0,0.0,nan,0.0,0.0,0.007984281,0.000516966,-0.0008916706,-0.004857123,0.0,0.0,0.0,0.0,0.0,0.0
21834164000,21834084000,-0.034838356,0.00785714,0.03092426,-0.0055999756,0.0140686035,0.0,0.0,0.0,0.0,0.0,0.0,0.0,0.0,0.0,0.0,0.0,nan,0.0,0.0,-0.002705574,0.000516966,-0.0008916706,-0.004857123,0.0,0.0,0.0,0.0,0.0,0.0
21834660000,21834580000,-0.02661432,-0.0026941746,0.044484556,-0.017044067,0.011352539,0.0,0.0,0.0,0.0,0.0,0.0,0.0,0.0,0.0,0.0,0.0,nan,0.0,0.0,0.0062298775,0.000516966,-0.0008916706,-0.004857123,0.0,0.0,0.0,0.0,0.0,0.0
21835164000,21835084000,-0.008584544,0.01409572,0.015756786,-0.0093688965,0.01373291,0.0,0.0,0.0,0.0,0.0,0.0,0.0,0.0,0.0,0.0,0.0,nan,0.0,0.0,-0.0018241405,0.000516966,-0.0008916706,-0.004857123,0.0,0.0,0.0,0.0,0.0,0.0
21835660000,21835580000,-0.016810596,0.007652955,0.02516681,-0.016845703,0.004699707,0.0,0.0,0.0,0.0,0.0,0.0,0.0,0.0,0.0,0.0,0.0,nan,0.0,0.0,0.04264629,0.000516966,-0.0008916706,-0.004857123,0.0,0.0,0.0,0.0,0.0,0.0
21836164000,21836084000,-0.019765249,0.012833287,0.009004116,-0.016326904,0.012756348,0.0,0.0,0.0,0.0,0.0,0.0,0.0,0.0,0.0,0.0,0.0,nan,0.0,0.0,0.0022366047,0.000516966,-0.0008916706,-0.004857123,0.0,0.0,0.0,0.0,0.0,0.0
21836660000,21836580000,-0.019186616,-0.008226776,0.03064078,-0.014678955,0.0032653809,0.0,0.0,0.0,0.0,0.0,0.0,0.0,0.0,0.0,0.0,0.0,nan,0.0,0.0,-0.00023937225,0.000516966,-0.0008916706,-0.004857123,0.0,0.0,0.0,0.0,0.0,0.0
21837164000,21837084000,-0.010708513,0.0187399,0.007003069,-0.028656006,0.0099487305,0.0,0.0,0.0,0.0,0.0,0.0,0.0,0.0,0.0,0.0,0.0,nan,0.0,0.0,0.023663402,0.000516966,-0.0008916706,-0.004857123,0.0,0.0,0.0,0.0,0.0,0.0
21837660000,21837580000,-0.020937933,0.038719833,-0.023928761,-0.01651001,0.019104004,0.0,0.0,0.0,0.0,0.0,0.0,0.0,0.0,0.025421143,0.0,0.0,nan,0.0,0.0,0.00010204315,0.000516966,-0.0008916706,-0.004857123,0.0,0.0,0.0,0.0,0.0,0.0
21838164000,21838084000,-0.018305847,0.017496627,-0.033146262,-0.026641846,0.012237549,0.0,0.0,0.0,0.0,0.0,0.0,0.0,0.0,0.0,0.0,0.0,nan,0.0,0.0,-0.029794335,0.000516966,-0.0008916706,-0.004857123,0.0,0.0,0.0,0.0,0.0,0.0
21838660000,21838580000,-0.037813585,0.013038459,0.00011861324,-0.03201294,0.025482178,0.0,0.0,0.0,0.0,0.0,0.0,0.0,0.0,0.0,0.0,0.0,nan,0.0,0.0,-0.01189065,0.000516966,-0.0008916706,-0.004857123,0.0,0.0,0.0,0.0,0.0,0.0
21839164000,21839084000,-0.021267224,0.031362638,0.027025223,-0.023345947,0.02822876,0.0,0.0,0.0,0.0,0.0,0.0,0.0,0.0,0.0,0.0,0.0,nan,0.0,0.0,-0.0074813366,0.000516966,-0.0008916706,-0.004857123,0.0,0.0,0.0,0.0,0.0,0.0
21839660000,21839580000,-0.030005258,0.039057687,-0.046323955,-0.027145386,0.037261963,0.0,0.0,0.0,0.0,0.0,0.0,0.0,0.0,0.0,0.0,0.0,nan,0.0,0.0,-0.00648582,0.000516966,-0.0008916706,-0.004857123,0.0,0.0,0.0,0.0,0.0,0.0
21840164000,21840084000,-0.02849957,0.027153695,-0.004061699,-0.013977051,0.027160645,0.0,0.0,0.0,0.0,0.0,0.0,0.0,0.0,0.0,0.0,0.0,nan,0.0,0.0,-0.007866383,0.000516966,-0.0008916706,-0.004857123,0.0,0.0,0.0,0.0,0.0,0.0
21840660000,21840580000,-0.01893938,0.051568378,-0.030555904,-0.015167236,0.032348633,0.0,0.0,0.0,0.0,0.0,0.0,0.0,0.0,0.0,0.0,0.0,nan,0.0,0.0,-0.0035245419,0.000516966,-0.0008916706,-0.004857123,0.0,0.0,0.0,0.0,0.0,0.0
21841164000,21841084000,-0.025202384,0.015943833,-0.065502346,-0.015182495,0.03036499,0.0,0.0,0.0,0.0,0.0,0.0,0.0,0.0,0.0,0.0,0.0,nan,0.0,0.0,0.001054883,0.000516966,-0.0008916706,-0.004857123,0.0,0.0,0.0,0.0,0.0,0.0
21841660000,21841580000,-0.01866156,0.006188603,3.963709e-05,-0.019454956,0.021575928,0.0,0.0,0.0,0.0,0.0,0.0,0.0,0.0,0.0,0.0,0.0,nan,0.0,0.0,0.00081026554,0.000516966,-0.0008916706,-0.004857123,0.0,0.0,0.0,0.0,0.0,0.0
21842164000,21842084000,-0.028457072,0.017942034,0.02459699,-0.020584106,0.026672363,0.0,0.0,0.0,0.0,0.0,0.0,0.0,0.0,0.0,0.0,0.0,nan,0.0,0.0,0.0058835745,0.000516966,-0.0008916706,-0.004857123,0.0,0.0,0.0,0.0,0.0,0.0
21842660000,21842580000,-0.04993671,0.0029005352,-0.009433091,-0.0234375,0.023925781,0.0,0.0,0.0,0.0,0.0,0.0,0.0,0.0,0.0,0.0,0.0,nan,0.0,0.0,0.008413196,0.000516966,-0.0008916706,-0.004857123,0.0,0.0,0.0,0.0,0.0,0.0
21843164000,21843084000,-0.071216665,0.00030153058,0.025045574,-0.032043457,0.024810791,0.0,0.0,0.0,0.0,0.0,0.0,0.0,0.0,0.0,0.0,0.0,nan,0.0,0.0,0.040688157,0.000516966,-0.0008916706,-0.004857123,0.0,0.0,0.0,0.0,0.0,0.0
21843660000,21843580000,-0.05248699,0.02087491,0.0012354851,-0.02999878,0.016235352,0.0,0.0,0.0,0.0,0.0,0.0,0.0,0.0,0.0,0.0,0.0,nan,0.0,0.0,0.010168076,0.000516966,-0.0008916706,-0.004857123,0.0,0.0,0.0,0.0,0.0,0.0
21844164000,21844084000,-0.05852485,0.0041076327,-0.03708768,-0.03276062,0.014343262,0.0,0.0,0.0,0.0,0.0,0.0,0.0,0.0,0.0,0.0,0.0,nan,0.0,0.0,-0.024297237,0.000516966,-0.0008916706,-0.004857123,0.0,0.0,0.0,0.0,0.0,0.0
21844660000,21844580000,-0.047811937,0.013300937,-0.016574264,-0.027786255,0.008605957,0.0,0.0,0.0,0.0,0.0,0.0,0.0,0.0,0.0,0.0,0.0,nan,0.0,0.0,0.0014317036,0.000516966,-0.0008916706,-0.004857123,0.0,0.0,0.0,0.0,0.0,0.0
21845164000,21845084000,-0.02809477,0.009407101,0.021042466,-0.01890564,0.009124756,0.0,0.0,0.0,0.0,0.0,0.0,0.0,0.0,0.0,0.0,0.0,nan,0.0,0.0,-0.0025494099,0.000516966,-0.0008916706,-0.004857123,0.0,0.0,0.0,0.0,0.0,0.0
21845660000,21845580000,-0.04510715,0.011002201,0.027579844,-0.01675415,-0.007232666,0.0,0.0,0.0,0.0,0.0,0.0,0.0,0.0,0.0,0.0,0.0,nan,0.0,0.0,0.00076162815,0.000516966,-0.0008916706,-0.004857123,0.0,0.0,0.0,0.0,0.0,0.0
21846164000,21846084000,-0.0117327515,0.01189219,0.058461368,-0.02268982,-0.0045166016,0.0,0.0,0.0,0.0,0.0,0.0,0.0,0.0,0.0,0.0,0.0,nan,0.0,0.0,-0.002057314,0.000516966,-0.0008916706,-0.004857123,0.0,0.0,0.0,0.0,0.0,0.0
21846660000,21846580000,-0.028055089,0.014606093,-0.0018600225,-0.022155762,-0.0008544922,0.0,0.0,0.0,0.0,0.0,0.0,0.0,0.0,0.0,0.0,0.0,nan,0.0,0.0,-0.00946331,0.000516966,-0.0008916706,-0.004857123,0.0,0.0,0.0,0.0,0.0,0.0
21847164000,21847084000,-0.009632602,0.0063329604,-0.052266717,-0.013092041,0.0012817383,0.0,0.0,0.0,0.0,0.0,0.0,0.0,0.0,0.0,0.0,0.0,nan,0.0,0.0,0.0049893856,0.000516966,-0.0008916706,-0.004857123,0.0,0.0,0.0,0.0,0.0,0.0
21847660000,21847580000,-0.027822712,-0.0009927856,0.05538255,-0.011260986,0.0006713867,0.0,0.0,0.0,0.0,0.0,0.0,0.0,0.0,0.0,0.0,0.0,nan,0.0,0.0,-0.012589812,0.000516966,-0.0008916706,-0.004857123,0.0,0.0,0.0,0.0,0.0,0.0
21848164000,21848084000,0.0045848144,0.022185575,-0.013568759,-0.009155273,0.0011901855,0.0,0.0,0.0,0.0,0.0,0.0,0.0,0.0,0.0,0.0,0.0,nan,0.0,0.0,-0.004385829,0.000516966,-0.0008916706,-0.004857123,0.0,0.0,0.0,0.0,0.0,0.0
21848660000,21848580000,-0.01852256,0.011488274,0.016987741,-0.016326904,0.013763428,0.0,0.0,0.0,0.0,0.0,0.0,0.0,0.0,0.0,0.0,0.0,nan,0.0,0.0,-0.009774685,0.000516966,-0.0008916706,-0.004857123,0.0,0.0,0.0,0.0,0.0,0.0
21849164000,21849084000,-0.014409092,0.03253748,0.007626176,-0.0055236816,0.010528564,0.0,0.0,0.0,0.0,0.0,0.0,0.0,0.0,0.0,0.0,0.0,nan,0.0,0.0,-0.00366354,0.000516966,-0.0008916706,-0.004857123,0.0,0.0,0.0,0.0,0.0,0.0
21849660000,21849580000,0.0072816936,0.020123813,0.045746386,-0.009475708,0.0050964355,0.0,0.0,0.0,0.0,0.0,0.0,0.0,0.0,0.0,0.0,0.0,nan,0.0,0.0,-0.0148227215,0.000516966,-0.0008916706,-0.004857123,0.0,0.0,0.0,0.0,0.0,0.0
21850164000,21850084000,-0.0094778035,0.014478361,0.031230986,-0.0033111572,0.013244629,0.0,0.0,0.0,0.0,0.0,0.0,0.0,0.0,0.0,0.0,0.0,nan,0.0,0.0,0.013780832,0.000516966,-0.0008916706,-0.004857123,0.0,0.0,0.0,0.0,0.0,0.0
21850660000,21850580000,0.00397929,0.020412147,0.060019076,-0.014633179,0.023773193,0.0,0.0,0.0,0.0,0.0,0.0,0.0,0.0,0.0,0.0,0.0,nan,0.0,0.0,0.0001283884,0.000516966,-0.0008916706,-0.004857123,0.0,0.0,0.0,0.0,0.0,0.0
21851164000,21851084000,0.011227585,0.035942055,0.05701548,-0.004760742,0.023132324,0.0,0.0,0.0,0.0,0.0,0.0,0.0,0.0,0.0,0.0,0.0,nan,0.0,0.0,0.0046049356,0.000516966,-0.0008916706,-0.004857123,0.0,0.0,0.0,0.0,0.0,0.0
