timestamp,x,y,z,yaw,yawspeed,vx,vy,vz,acceleration[0],acceleration[1],acceleration[2],jerk[0],jerk[1],jerk[2],thrust[0],thrust[1],thrust[2]
21726348000,-0.66821414,-1.1525092,0.14349216,-1.0712854,-0.0004735618,0.0005119673,-0.0005119673,0.69948804,0.063997954,-0.063997954,-0.063997954,4.0,-4.0,-4.0,nan,nan,nan
21726372000,-0.6682398,-1.1525602,0.14905725,nan,0.0,-0.0010339567,0.0010334858,0.6988481,-0.06528211,0.06522083,-0.0959942,0.0,0.0,-4.0,nan,nan,nan
21726548000,-0.6681994,-1.1535504,0.14296894,nan,0.0,0.00051193807,-0.00051193807,0.69948804,0.06399613,-0.06399613,-0.06399613,4.0,-4.0,-4.0,nan,nan,nan
21726748000,-0.6675635,-1.154804,0.14244412,nan,0.0,0.00051195204,-0.00051195204,0.69948804,0.063997,-0.063997,-0.063997,4.0,-4.0,-4.0,nan,nan,nan
21726948000,-0.66719234,-1.1554554,0.14226358,nan,0.0,0.0005119756,0.0,0.699488,0.063998476,0.0,-0.063998476,4.0,0.0,-4.0,nan,nan,nan
21727148000,-0.6666018,-1.1552886,0.14236602,nan,0.0,0.00051198323,0.0,0.699488,0.06399895,0.0,-0.06399895,4.0,0.0,-4.0,nan,nan,nan
21727348000,-0.6664735,-1.1551691,0.1423899,nan,0.0,0.0005119898,0.0,0.699488,0.06399936,0.0,-0.06399936,4.0,0.0,-4.0,nan,nan,nan
21727548000,-0.6663771,-1.1550868,0.14236163,nan,0.0,0.00051197957,0.0,0.699488,0.06399872,0.0,-0.06399872,4.0,0.0,-4.0,nan,nan,nan
21727748000,-0.66619194,-1.1552774,0.14288843,nan,0.0,0.00051199587,0.0,0.699488,0.06399974,0.0,-0.06399974,4.0,0.0,-4.0,nan,nan,nan
21727948000,-0.6662509,-1.1548103,0.14285965,nan,0.0,0.00051196903,0.0,0.69948804,0.063998066,0.0,-0.063998066,4.0,0.0,-4.0,nan,nan,nan
21728148000,-0.66585034,-1.1543374,0.14310142,nan,0.0,0.0005119888,0.0,0.699488,0.0639993,0.0,-0.0639993,4.0,0.0,-4.0,nan,nan,nan
21728348000,-0.6658553,-1.1544323,0.1430796,nan,0.0,0.0005119861,0.0,0.699488,0.06399913,0.0,-0.06399913,4.0,0.0,-4.0,nan,nan,nan
21728548000,-0.6659467,-1.15475,0.14310534,nan,0.0,0.0005119729,0.0,0.69948804,0.063998304,0.0,-0.063998304,4.0,0.0,-4.0,nan,nan,nan
21728748000,-0.6661923,-1.1549822,0.14313798,nan,0.0,0.0005119756,0.0,0.699488,0.063998476,0.0,-0.063998476,4.0,0.0,-4.0,nan,nan,nan
21728948000,-0.6664884,-1.1549004,0.1431306,nan,0.0,0.00051199633,0.0,0.699488,0.06399977,0.0,-0.06399977,4.0,0.0,-4.0,nan,nan,nan
21729148000,-0.6662841,-1.1548077,0.14361209,nan,0.0,0.0005119923,0.0,0.699488,0.06399952,0.0,-0.06399952,4.0,0.0,-4.0,nan,nan,nan
21729348000,-0.6658904,-1.1547135,0.14382344,nan,0.0,0.00051198184,0.0,0.699488,0.06399886,0.0,-0.06399886,4.0,0.0,-4.0,nan,nan,nan
21729548000,-0.665681,-1.1545523,0.14354171,nan,0.0,0.0,0.0,0.699488,0.0,0.0,-0.063999504,0.0,0.0,-4.0,nan,nan,nan
21729748000,-0.6657321,-1.1548487,0.14334728,nan,0.0,0.0,0.0,0.699488,0.0,0.0,-0.06399887,0.0,0.0,-4.0,nan,nan,nan
21729948000,-0.665474,-1.1551436,0.14245895,nan,0.0,0.0,0.0,0.699488,0.0,0.0,-0.06399894,0.0,0.0,-4.0,nan,nan,nan
21730148000,-0.66503876,-1.1553394,0.1415305,nan,0.0,0.0,0.0,0.699488,0.0,0.0,-0.06399929,0.0,0.0,-4.0,nan,nan,nan
21730324000,nan,nan,nan,nan,nan,0.0,0.0,-0.0,nan,nan,nan,0.0,0.0,0.0,nan,nan,nan
21730528000,nan,nan,nan,nan,nan,0.0,0.0,-0.0,nan,nan,nan,0.0,0.0,0.0,nan,nan,nan
21730728000,nan,nan,nan,nan,nan,0.0,0.0,-0.0,nan,nan,nan,0.0,0.0,0.0,nan,nan,nan
21730932000,nan,nan,nan,nan,nan,0.0,0.0,-0.0,nan,nan,nan,0.0,0.0,0.0,nan,nan,nan
21731136000,nan,nan,nan,nan,nan,0.0,0.0,-0.0,nan,nan,nan,0.0,0.0,0.0,nan,nan,nan
21731328000,nan,nan,nan,nan,nan,0.0,0.0,-0.0,nan,nan,nan,0.0,0.0,0.0,nan,nan,nan
21731552000,nan,nan,nan,nan,nan,0.0,0.0,-0.0,nan,nan,nan,0.0,0.0,0.0,nan,nan,nan
21731756000,nan,nan,nan,nan,nan,0.0,0.0,-0.0,nan,nan,nan,0.0,0.0,0.0,nan,nan,nan
21731956000,nan,nan,nan,nan,nan,0.0,0.0,-0.0,nan,nan,nan,0.0,0.0,0.0,nan,nan,nan
21732120000,nan,nan,nan,nan,nan,0.0,0.0,-0.0,nan,nan,nan,0.0,0.0,0.0,nan,nan,nan
21732328000,-0.67828894,-1.1473696,0.13194275,-1.0715431,0.0,nan,nan,nan,nan,nan,nan,0.0,0.0,0.0,nan,nan,nan
21732524000,-0.66716945,-1.1473696,0.12284851,-1.0712239,0.0,nan,nan,nan,nan,nan,nan,0.0,0.0,0.0,nan,nan,nan
21732720000,-0.67828894,-1.1473696,0.07522583,-1.071031,0.0,nan,nan,nan,nan,nan,nan,0.0,0.0,0.0,nan,nan,nan
21732924000,-0.66716945,-1.1473696,-0.04321289,-1.0708911,0.0,nan,nan,nan,nan,nan,nan,0.0,0.0,0.0,nan,nan,nan
21733128000,-0.66716945,-1.1473696,-0.24900818,-1.0708346,0.0,nan,nan,nan,nan,nan,nan,0.0,0.0,0.0,nan,nan,nan
21733332000,-0.67828894,-1.1473696,-0.51841736,-1.070449,0.0,nan,nan,nan,nan,nan,nan,0.0,0.0,0.0,nan,nan,nan
21733528000,-0.66716945,-1.1473696,-0.8138733,-1.0697807,0.0,nan,nan,nan,nan,nan,nan,0.0,0.0,0.0,nan,nan,nan
21733728000,-0.67828894,-1.1473696,-1.1150665,-1.0698116,0.0,nan,nan,nan,nan,nan,nan,0.0,0.0,0.0,nan,nan,nan
21733932000,-0.66716945,-1.1473696,-1.4177704,-1.0695982,0.0,nan,nan,nan,nan,nan,nan,0.0,0.0,0.0,nan,nan,nan
21734132000,-0.67828894,-1.1473696,-1.7135468,-1.0711727,0.0,nan,nan,nan,nan,nan,nan,0.0,0.0,0.0,nan,nan,nan
21734332000,-0.67828894,-1.1473696,-1.9837646,-1.0710325,0.0,nan,nan,nan,nan,nan,nan,0.0,0.0,0.0,nan,nan,nan
21734536000,-0.67828894,-1.1473696,-2.1895752,-1.0708872,0.0,nan,nan,nan,nan,nan,nan,0.0,0.0,0.0,nan,nan,nan
21734736000,-0.67828894,-1.1473696,-2.309906,-1.0708416,0.0,nan,nan,nan,nan,nan,nan,0.0,0.0,0.0,nan,nan,nan
21734936000,-0.67828894,-1.1473696,-2.35849,-1.0708218,0.0,nan,nan,nan,nan,nan,nan,0.0,0.0,0.0,nan,nan,nan
21735136000,-0.67828894,-1.1473696,-2.3679657,-1.0706986,0.0,nan,nan,nan,nan,nan,nan,0.0,0.0,0.0,nan,nan,nan
21735340000,-0.67828894,-1.1473696,-2.3680115,-1.0704452,0.0,nan,nan,nan,nan,nan,nan,0.0,0.0,0.0,nan,nan,nan
21735536000,-0.67828894,-1.1473696,-2.3680115,-1.0706649,0.0,nan,nan,nan,nan,nan,nan,0.0,0.0,0.0,nan,nan,nan
21735740000,-0.67828894,-1.1473696,-2.3680115,-0.9999669,0.0,nan,nan,nan,nan,nan,nan,0.0,0.0,0.0,nan,nan,nan
21735936000,-0.67828894,-1.1473696,-2.3680115,-1.0127057,0.0,nan,nan,nan,nan,nan,nan,0.0,0.0,0.0,nan,nan,nan
21736136000,-0.67828894,-1.1473696,-2.3680115,-1.0206215,0.0,nan,nan,nan,nan,nan,nan,0.0,0.0,0.0,nan,nan,nan
21736340000,-0.67828894,-1.1473696,-2.3680115,-1.0254232,0.0,nan,nan,nan,nan,nan,nan,0.0,0.0,0.0,nan,nan,nan
21736536000,-0.67828894,-1.1473696,-2.3680115,-1.0299108,0.0,nan,nan,nan,nan,nan,nan,0.0,0.0,0.0,nan,nan,nan
21736736000,-0.67828894,-1.1473696,-2.3680115,-1.0343803,0.0,nan,nan,nan,nan,nan,nan,0.0,0.0,0.0,nan,nan,nan
21736940000,-0.67828894,-1.1473696,-2.3680115,-1.0376682,0.0,nan,nan,nan,nan,nan,nan,0.0,0.0,0.0,nan,nan,nan
21737144000,-0.67828894,-1.1473696,-2.3680115,-1.0396527,0.0,nan,nan,nan,nan,nan,nan,0.0,0.0,0.0,nan,nan,nan
21737336000,nan,nan,nan,nan,nan,0.0,0.0,-0.0,nan,nan,nan,0.0,0.0,0.0,nan,nan,nan
21737540000,-0.67828894,-1.1473696,-2.146347,-1.0432129,0.0,nan,nan,nan,nan,nan,nan,0.0,0.0,0.0,nan,nan,nan
21737740000,-0.67828894,-1.1390553,-2.1607056,-1.0453674,0.0,nan,nan,nan,nan,nan,nan,0.0,0.0,0.0,nan,nan,nan
21737940000,-0.678289,-1.0808554,-2.2200775,-1.0503021,0.0,nan,nan,nan,nan,nan,nan,0.0,0.0,0.0,nan,nan,nan
21738136000,-0.678289,-0.9395128,-2.3349762,-1.0534041,0.0,nan,nan,nan,nan,nan,nan,0.0,0.0,0.0,nan,nan,nan
21738332000,-0.678289,-0.6983989,-2.475586,-1.0517156,0.0,nan,nan,nan,nan,nan,nan,0.0,0.0,0.0,nan,nan,nan
21738536000,-0.67828906,-0.34088516,-2.619873,-1.0521852,0.0,nan,nan,nan,nan,nan,nan,0.0,0.0,0.0,nan,nan,nan
21738736000,-0.67828906,0.09977127,-2.76297,-1.053673,0.0,nan,nan,nan,nan,nan,nan,0.0,0.0,0.0,nan,nan,nan
21738936000,-0.67828906,0.58199906,-2.9066315,-1.0503047,0.0,nan,nan,nan,nan,nan,nan,0.0,0.0,0.0,nan,nan,nan
21739140000,-0.678289,1.0891696,-3.0518494,-1.0507793,0.0,nan,nan,nan,nan,nan,nan,0.0,0.0,0.0,nan,nan,nan
21806348000,-193.08409,344.7286,-372.8276,-0.9698207,nan,-2.9183922,5.2181616,-5.7430058,0.0,0.0,0.0,0.0,0.0,0.0,nan,nan,nan
21806372000,-193.15411,344.85382,-372.9654,-0.98867023,-0.08414981,-2.915567,5.2153363,-5.7401805,0.23544002,-0.23544002,0.23544002,9.81,-9.81,9.81,nan,nan,nan
21806548000,-193.65477,345.75912,-373.9631,-1.0495211,-0.2521668,-2.7221918,5.0219626,-5.546807,1.9620001,-1.9620001,1.9620001,9.81,-9.81,9.81,nan,nan,nan
21806748000,-194.15517,346.7112,-375.0201,-1.0495211,-0.097382076,-2.2777975,4.4333634,-4.9582076,2.2419457,-3.9240003,3.9240003,0.0,-9.81,9.81,nan,nan,nan
21806948000,-194.56592,347.50684,-375.92023,-1.0495211,-0.03760712,-1.8294084,3.473842,-3.9772081,2.2419457,-5.236846,5.885999,0.0,0.0,9.81,nan,nan,nan
21807148000,-194.88567,348.09467,-376.5825,-1.0495211,-0.014523161,-1.3831156,2.4313693,-2.6224391,2.2419457,-5.2368464,7.173023,0.0,0.0,-9.81,nan,nan,nan
21807348000,-195.1155,348.4733,-376.97357,-1.0495211,-0.0056085703,-0.9395048,1.3951614,-1.3951626,2.2419457,-5.2368464,5.231932,0.0,0.0,-9.81,nan,nan,nan
21807548000,-195.25862,348.66068,-377.16107,-1.0495211,-0.002165924,-0.49111545,0.5439919,-0.54497576,2.2419457,-3.274847,3.2699327,0.0,9.81,-9.81,nan,nan,nan
21807748000,-195.31279,348.717,-377.2178,-1.0495211,-0.0008364389,-0.07411829,0.085222565,-0.08718926,1.4571457,-1.3128469,1.3079326,-9.81,9.81,-9.81,nan,nan,nan
21807948000,-195.31186,348.72043,-377.2217,-1.0495211,-0.00032301695,0.027678844,-0.0016223872,1.0803733e-06,-0.35498434,0.020101946,-1.3223731e-05,-9.81,0.0,0.0,nan,nan,nan
21808148000,-195.31145,348.71967,-377.221,-1.0495211,-0.00012474305,-0.0019834053,-0.019735,0.021514386,0.18069205,-0.39477676,0.4148655,4.0,-4.0,4.0,nan,nan,nan
21808348000,-195.30724,348.70966,-377.2106,-1.0495211,-4.8173406e-05,0.0728084,-0.12737021,0.12556294,0.79434496,-1.0084296,0.7977618,4.0,-4.0,0.0,nan,nan,nan
21808548000,-195.28621,348.67792,-377.18344,-1.0495211,-1.8603658e-05,0.21795759,-0.31913638,0.24322242,1.0354971,-1.5972039,0.8012301,0.0,-4.0,0.0,nan,nan,nan
21808748000,-195.24408,348.6134,-377.14008,-1.0495211,-7.1843824e-06,0.36705408,-0.5905741,0.35921106,1.0354971,-2.1731458,0.810256,0.0,-4.0,0.0,nan,nan,nan
21808948000,-195.18054,348.50394,-377.07983,-1.0495211,-2.774473e-06,0.5160633,-0.94470733,0.477246,1.0354971,-2.7487504,0.8309102,0.0,-4.0,0.0,nan,nan,nan
21809148000,-195.09428,348.33752,-377.00137,-1.0495211,-1.071449e-06,0.6670172,-1.3255132,0.5992857,1.0354971,-2.332602,0.837504,0.0,4.0,0.0,nan,nan,nan
21809348000,-194.98361,348.11685,-376.90305,-1.0495211,-4.1377336e-07,0.82099795,-1.6281517,0.7238243,1.0354971,-1.7377933,0.837504,0.0,4.0,0.0,nan,nan,nan
21809548000,-194.8478,347.85248,-376.78372,-1.0495211,-1.5979148e-07,0.9612641,-1.8455667,0.85073864,0.67051226,-1.1316385,0.837504,-4.0,4.0,0.0,nan,nan,nan
21809748000,-194.69412,347.557,-376.64294,-1.0495211,-6.1708455e-08,1.0170969,-1.972465,0.96878654,0.05406113,-0.51518744,0.5405576,-4.0,4.0,-4.0,nan,nan,nan
21809948000,-194.53601,347.24402,-376.48697,-1.0495211,-2.383064e-08,0.99277985,-2.0040774,1.005161,-0.23058954,0.11188787,-0.0072853304,0.0,4.0,0.0,nan,nan,nan
21810148000,-194.38057,346.92767,-376.32632,-1.0495211,-9.202943e-09,0.9491295,-1.9350575,1.0039961,-0.30842856,0.75145245,-0.0072853304,0.0,4.0,0.0,nan,nan,nan
21810348000,-194.22968,346.62366,-376.16196,-1.0495211,-3.5540029e-09,0.8912758,-1.7582943,1.0028026,-0.391345,1.4066944,-0.0072853304,0.0,4.0,0.0,nan,nan,nan
21810548000,-194.08524,346.34995,-375.99274,-1.0495211,-1.372489e-09,0.81652474,-1.4648248,1.0015723,-0.48813048,1.9535266,-0.0072853304,0.0,-4.0,0.0,nan,nan,nan
21810748000,-193.9504,346.12164,-375.81754,-1.0495211,-5.3002935e-10,0.72055703,-1.1569713,1.0002972,-0.5985053,1.5413092,-0.0072853304,0.0,-4.0,0.0,nan,nan,nan
21810948000,-193.82973,345.93448,-375.6355,-1.0495211,-2.0468731e-10,0.60159135,-0.91203874,0.99991566,-0.6906793,1.1285748,0.00036128983,0.0,-4.0,0.0,nan,nan,nan
21811148000,-193.72841,345.77997,-375.44632,-1.0495211,-7.904638e-11,0.46955281,-0.73287684,0.99998397,-0.69840115,0.74882984,0.00036128983,0.0,-4.0,0.0,nan,nan,nan
21811348000,-193.64745,345.6488,-375.24976,-1.0495211,-3.052622e-11,0.36747468,-0.61197186,1.0000025,-0.32051277,0.4760428,-3.1594187e-05,4.0,0.0,0.0,nan,nan,nan
21811548000,-193.579,345.5349,-375.04987,-1.0495211,-1.178865e-11,0.32231608,-0.53078073,0.99999994,-0.19251275,0.33164743,6.0610473e-06,0.0,-4.0,0.0,nan,nan,nan
21811748000,-193.51842,345.4353,-374.84998,-1.0495211,-4.552554e-12,0.28381342,-0.46628365,1.0000001,-0.19251275,0.2788931,-1.3895333e-06,0.0,-4.0,0.0,nan,nan,nan
21811948000,-193.46498,345.3478,-374.6501,-1.0495211,-1.7581105e-12,0.25350282,-0.4101386,1.0000001,-0.12851274,0.24343562,-1.5385449e-06,0.0,-4.0,0.0,nan,nan,nan
21812148000,-193.41731,345.2708,-374.4502,-1.0495211,-6.7894914e-13,0.22271007,-0.36049736,1.0000001,-0.15585421,0.21353143,-1.7173588e-06,0.0,-4.0,0.0,nan,nan,nan
21812348000,-193.37587,345.20303,-374.2503,-1.0495211,-2.6219733e-13,0.19205123,-0.31676072,1.0000001,-0.09185421,0.18715662,-1.8663704e-06,4.0,0.0,0.0,nan,nan,nan
21812548000,-193.33942,345.1436,-374.0504,-1.0495211,-1.0125567e-13,0.17174675,-0.27764308,1.0000001,-0.11591061,0.16254246,-2.104789e-06,0.0,-4.0,0.0,nan,nan,nan
21812748000,-193.30737,345.09152,-373.85052,-1.0495211,-3.9103022e-14,0.14856464,-0.24343409,1.0000001,-0.11591061,0.14066455,-2.3283064e-06,0.0,-4.0,0.0,nan,nan,nan
21812948000,-193.27934,345.04575,-373.65063,-1.0495211,-1.510085e-14,0.13170017,-0.2132401,0.99999994,-0.09125637,0.122184485,-2.514571e-06,0.0,-4.0,0.0,nan,nan,nan
21813148000,-193.25488,345.0056,-373.45074,-1.0495211,-5.831663e-15,0.11396088,-0.18664949,1.0,-0.02725637,0.10548608,1.3075769e-06,4.0,-4.0,0.0,nan,nan,nan
21813348000,-193.2333,344.97055,-373.25085,-1.0495211,-2.252078e-15,0.1006672,-0.16331342,1.0,-0.07335026,0.09037819,1.3075769e-06,0.0,-4.0,0.0,nan,nan,nan
21813548000,-193.21448,344.93985,-373.05096,-1.0495211,-8.697101e-16,0.08831967,-0.142828,1.0,-0.060971234,0.07742275,1.3075769e-06,0.0,-4.0,0.0,nan,nan,nan
21813748000,-193.19806,344.913,-372.85107,-1.0495211,-3.3586564e-16,0.07663741,-0.124825746,1.0,0.003028769,0.06580591,1.3075769e-06,4.0,-4.0,0.0,nan,nan,nan
21813948000,-193.18362,344.8896,-372.65118,-1.0495211,-1.2970495e-16,0.06701074,-0.10914316,1.0,-0.05059273,0.056367204,1.3075769e-06,0.0,-4.0,0.0,nan,nan,nan
21814148000,-193.17102,344.86908,-372.4513,-1.0495211,-5.0089604e-17,0.058924995,-0.09535299,1.0,-0.041230366,0.047447655,1.3075769e-06,0.0,-4.0,0.0,nan,nan,nan
21814348000,-193.15997,344.8512,-372.2514,-1.0495211,-1.9343657e-17,0.051574465,-0.083280385,1.0,-0.03143941,0.039821204,1.3075769e-06,0.0,-4.0,0.0,nan,nan,nan
21814548000,-193.15028,344.8355,-372.0515,-1.0495211,-7.470155e-18,0.045075346,-0.072705425,1.0,-0.026243333,0.034796096,1.3075769e-06,0.0,-4.0,0.0,nan,nan,nan
21814748000,-193.14185,344.82184,-371.85162,-1.0495211,-2.8848327e-18,0.039344516,-0.063475445,1.0,-0.02246128,0.03054015,1.3075769e-06,0.0,-4.0,0.0,nan,nan,nan
21814948000,-193.13446,344.81,-371.65173,-1.0495211,-1.1140679e-18,0.034351107,-0.055435676,1.0,-0.01945319,0.026908757,1.3075769e-06,0.0,-4.0,0.0,nan,nan,nan
21815148000,-193.12802,344.7996,-371.45184,-1.0495211,-4.30232e-19,0.02997945,-0.04842759,1.0,-0.017615499,0.02650602,1.3075769e-06,0.0,-4.0,0.0,nan,nan,nan
21815348000,-193.12242,344.79056,-371.25186,-1.0495211,-1.6614748e-19,0.026160523,-0.04227787,1.0,-0.016712781,0.02018392,0.0,0.0,-4.0,0.0,nan,nan,nan
21815548000,-193.11757,344.7827,-371.05276,-1.0495211,-6.416303e-20,0.02285373,-0.03692589,1.0,-0.0155668575,0.016732521,0.0,0.0,-4.0,0.0,nan,nan,nan
21815748000,-193.11331,344.77582,-370.85437,-1.0495211,-2.4778549e-20,0.019939803,-0.032227375,1.0,-0.010688633,0.010688633,0.0,4.0,-4.0,0.0,nan,nan,nan
21815948000,-193.1096,344.7698,-370.65674,-1.0495211,-9.569008e-21,0.017407553,-0.028120581,1.0,-0.0064580683,0.0064580664,0.0,4.0,-4.0,0.0,nan,nan,nan
21816148000,-193.10638,344.76468,-370.45953,-1.0495211,-3.6953704e-21,0.015220429,-0.024620155,1.0,-0.0017358661,0.0017358661,0.0,4.0,-4.0,0.0,nan,nan,nan
21816348000,-193.10356,344.76007,-370.2625,-1.0495211,-1.4270822e-21,0.013298877,-0.02150543,1.0,0.0,0.0,0.0,0.0,0.0,0.0,nan,nan,nan
21816548000,-193.10112,344.75604,-370.06577,-1.0495211,-5.5111236e-22,0.011639364,-0.018752873,1.0,0.0,0.0,0.0,0.0,0.0,0.0,nan,nan,nan
21816748000,-193.09892,344.75253,-369.86942,-1.0495211,-2.1282922e-22,0.010140771,-0.016383586,1.0,0.0,0.0,0.0,0.0,0.0,0.0,nan,nan,nan
21816948000,-193.09709,344.74948,-369.67313,-1.0495211,-8.219062e-23,0.0088843405,-0.014296172,1.0,0.0,0.0,0.0,0.0,0.0,0.0,nan,nan,nan
21817148000,-193.09544,344.74673,-369.47665,-1.0495211,-3.1740472e-23,0.0077692447,-0.0124104805,1.0,0.0,0.0,0.0,0.0,0.0,0.0,nan,nan,nan
21817348000,-193.09406,344.7444,-369.27985,-1.0495211,-1.2257572e-23,0.0068160025,-0.010787773,1.0,0.0,0.0,0.0,0.0,0.0,0.0,nan,nan,nan
21817548000,-193.09277,344.7423,-369.0826,-1.0495211,-4.7336427e-24,0.005953709,-0.0093877595,1.0,0.0,0.0,0.0,0.0,0.0,0.0,nan,nan,nan
21817748000,-193.09163,344.74054,-368.88495,-1.0495211,-1.8280435e-24,0.0051620686,-0.0081698885,1.0,0.0,0.0,0.0,0.0,0.0,0.0,nan,nan,nan
21817948000,-193.0906,344.739,-368.6869,-1.0495211,-7.059559e-25,0.0044616656,-0.007114273,1.0,0.0,0.0,0.0,0.0,0.0,0.0,nan,nan,nan
21818148000,-193.08974,344.73767,-368.4876,-1.0495211,-2.7262683e-25,0.0038625274,-0.006220701,1.0,0.0,0.0,0.0,0.0,0.0,0.0,nan,nan,nan
21818348000,-193.08908,344.73645,-368.28766,-1.0495211,-1.0528334e-25,0.0034055263,-0.0053675165,1.0,0.0,0.0,0.0,0.0,0.0,0.0,nan,nan,nan
21818548000,-193.08853,344.73535,-368.08762,-1.0495211,-4.065844e-26,0.003029564,-0.0046358425,1.0,0.0,0.0,0.0,0.0,0.0,0.0,nan,nan,nan
21818748000,-193.08803,344.73428,-367.88773,-1.0495211,-1.5701524e-26,0.0026840852,-0.003924458,1.0,0.0,0.0,0.0,0.0,0.0,0.0,nan,nan,nan
21818948000,-193.08762,344.73352,-367.68768,-1.0495211,-6.063633e-27,0.0023996758,-0.003375815,1.0,0.0,0.0,0.0,0.0,0.0,0.0,nan,nan,nan
21819148000,-193.08723,344.73306,-367.48773,-1.0495211,-2.3416606e-27,0.0021456897,-0.0030304054,1.0,0.0,0.0,0.0,0.0,0.0,0.0,nan,nan,nan
21819348000,-193.08693,344.7326,-367.2877,-1.0495211,-9.04305e-28,0.0019217652,-0.0027250426,1.0,0.0,0.0,0.0,0.0,0.0,0.0,nan,nan,nan
21819548000,-193.08665,344.7322,-367.08755,-1.0495211,-3.492256e-28,0.0017490968,-0.0024406002,1.0,0.0,0.0,0.0,0.0,0.0,0.0,nan,nan,nan
21819748000,-193.08643,344.73187,-366.88745,-1.0495211,-1.3486434e-28,0.001586424,-0.0022169258,1.0,0.0,0.0,0.0,0.0,0.0,0.0,nan,nan,nan
21819948000,-193.0862,344.73157,-366.68738,-1.0495211,-5.208206e-29,0.001433889,-0.0020135464,1.0,0.0,0.0,0.0,0.0,0.0,0.0,nan,nan,nan
21820148000,-193.08597,344.73126,-366.48724,-1.0495211,-2.011311e-29,0.001281345,-0.001810154,1.0,0.0,0.0,0.0,0.0,0.0,0.0,nan,nan,nan
21820348000,-193.08577,344.73096,-366.28717,-1.0495211,-7.767303e-30,0.0011391513,-0.0016070169,1.0,0.0,0.0,0.0,0.0,0.0,0.0,nan,nan,nan
21820548000,-193.08562,344.73065,-366.08704,-1.0495211,-2.9995862e-30,0.0010373455,-0.0014034674,1.0,0.0,0.0,0.0,0.0,0.0,0.0,nan,nan,nan
21820748000,-193.08546,344.7304,-365.88696,-1.0495211,-1.1583837e-30,0.0009356586,-0.0012407647,1.0,0.0,0.0,0.0,0.0,0.0,0.0,nan,nan,nan
21820948000,-193.08531,344.73026,-365.68692,-1.0495211,-4.47346e-31,0.0008341627,-0.0011189986,1.0,0.0,0.0,0.0,0.0,0.0,0.0,nan,nan,nan
21821148000,-193.08516,344.7301,-365.48682,-1.0495211,-1.727566e-31,0.0007324873,-0.0010173435,1.0,0.0,0.0,0.0,0.0,0.0,0.0,nan,nan,nan
21821348000,-193.085,344.72995,-365.28677,-1.0495211,-6.671534e-32,0.00063056394,-0.00091533473,1.0,0.0,0.0,0.0,0.0,0.0,0.0,nan,nan,nan
21821548000,-193.08488,344.7298,-365.0868,-1.0495211,-2.5764206e-32,0.00054929475,-0.00081377005,1.0,0.0,0.0,0.0,0.0,0.0,0.0,nan,nan,nan
21821748000,-193.08478,344.7297,-364.88684,-1.0495211,-9.9496494e-33,0.0004677304,-0.00075243576,1.0,0.0,0.0,0.0,0.0,0.0,0.0,nan,nan,nan
21821948000,-193.0847,344.7297,-364.6869,-1.0495211,-3.842367e-33,0.0004169368,-0.0007321817,1.0,0.0,0.0,0.0,0.0,0.0,0.0,nan,nan,nan
21822148000,-193.08464,344.7297,-364.48694,-1.0495211,-1.4838496e-33,0.00036614694,-0.0007322939,1.0,0.0,0.0,0.0,0.0,0.0,0.0,nan,nan,nan
21822348000,-193.0846,344.7296,-364.28702,-1.0495211,-5.7303467e-34,0.00034588834,-0.0006917767,1.0,0.0,0.0,0.0,0.0,0.0,0.0,nan,nan,nan
21822548000,-193.08456,344.72955,-364.0871,-1.0495211,-2.2129515e-34,0.0003153939,-0.0006307878,1.0,0.0,0.0,0.0,0.0,0.0,0.0,nan,nan,nan
21822748000,-193.08456,344.72955,-363.8872,-1.0495211,-8.546001e-35,0.0003153939,-0.0006307878,1.0,0.0,0.0,0.0,0.0,0.0,0.0,nan,nan,nan
21822948000,-193.08456,344.72955,-363.68732,-1.0495211,-3.300304e-35,0.0003153939,-0.0006307878,1.0,0.0,0.0,0.0,0.0,0.0,0.0,nan,nan,nan
21823148000,-193.08456,344.72955,-363.48743,-1.0495211,-1.2745153e-35,0.0003153939,-0.0006307878,1.0,0.0,0.0,0.0,0.0,0.0,0.0,nan,nan,nan
21823348000,-193.08456,344.72955,-363.28754,-1.0495211,-4.921937e-36,0.0003153939,-0.0006307878,1.0,0.0,0.0,0.0,0.0,0.0,0.0,nan,nan,nan
21823548000,-193.08456,344.72955,-363.08765,-1.0495211,-1.900759e-36,0.0003153939,-0.0006307878,1.0,0.0,0.0,0.0,0.0,0.0,0.0,nan,nan,nan
21823748000,-193.08456,344.72955,-362.88776,-1.0495211,-7.340373e-37,0.0003153939,-0.0006307878,1.0,0.0,0.0,0.0,0.0,0.0,0.0,nan,nan,nan
21823948000,-193.08456,344.72955,-362.68787,-1.0495211,-2.8347136e-37,0.0003153939,-0.0006307878,1.0,0.0,0.0,0.0,0.0,0.0,0.0,nan,nan,nan
21824148000,-193.08456,344.72955,-362.48798,-1.0495211,-1.0947135e-37,0.0003153939,-0.0006307878,1.0,0.0,0.0,0.0,0.0,0.0,0.0,nan,nan,nan
21824348000,-193.08456,344.72955,-362.2881,-1.0495211,-4.227586e-38,0.0003153939,-0.0006307878,1.0,0.0,0.0,0.0,0.0,0.0,0.0,nan,nan,nan
21824548000,-193.08456,344.72955,-362.0882,-1.0495211,-1.6326002e-38,0.0003153939,-0.0006307878,1.0,0.0,0.0,0.0,0.0,0.0,0.0,nan,nan,nan
21824748000,-193.08456,344.72955,-361.8883,-1.0495211,-6.304792e-39,0.0003153939,-0.0006307878,1.0,0.0,0.0,0.0,0.0,0.0,0.0,nan,nan,nan
21824948000,-193.08456,344.72955,-361.68842,-1.0495211,-2.434756e-39,0.0003153939,-0.0006307878,1.0,0.0,0.0,0.0,0.0,0.0,0.0,nan,nan,nan
21825148000,-193.08456,344.72955,-361.48853,-1.0495211,-9.40183e-40,0.0003153939,-0.0006307878,1.0,0.0,0.0,0.0,0.0,0.0,0.0,nan,nan,nan
21825348000,-193.08456,344.72955,-361.28864,-1.0495211,-3.63111e-40,0.0003153939,-0.0006307878,1.0,0.0,0.0,0.0,0.0,0.0,0.0,nan,nan,nan
21825548000,-193.08456,344.72955,-361.08875,-1.0495211,-1.40217e-40,0.0003153939,-0.0006307878,1.0,0.0,0.0,0.0,0.0,0.0,0.0,nan,nan,nan
21825748000,-193.08456,344.72955,-360.88885,-1.0495211,-5.4212e-41,0.0003153939,-0.0006307878,1.0,0.0,0.0,0.0,0.0,0.0,0.0,nan,nan,nan
21825948000,-193.08456,344.72955,-360.68896,-1.0495211,-2.0931e-41,0.0003153939,-0.0006307878,1.0,0.0,0.0,0.0,0.0,0.0,0.0,nan,nan,nan
21826148000,-193.08456,344.72955,-360.48907,-1.0495211,-8.144e-42,0.0003153939,-0.0006307878,1.0,0.0,0.0,0.0,0.0,0.0,0.0,nan,nan,nan
21826348000,-193.08456,344.72955,-360.28918,-1.0495211,-3.153e-42,0.0003153939,-0.0006307878,1.0,0.0,0.0,0.0,0.0,0.0,0.0,nan,nan,nan
21826548000,-193.08456,344.72955,-360.0893,-1.0495211,-1.226e-42,0.0003153939,-0.0006307878,1.0,0.0,0.0,0.0,0.0,0.0,0.0,nan,nan,nan
21826748000,-193.08456,344.72955,-359.8894,-1.0495211,-4.37e-43,0.0003153939,-0.0006307878,1.0,0.0,0.0,0.0,0.0,0.0,0.0,nan,nan,nan
21826948000,-193.08456,344.72955,-359.6895,-1.0495211,-3.5e-43,0.0003153939,-0.0006307878,1.0,0.0,0.0,0.0,0.0,0.0,0.0,nan,nan,nan
21827148000,-193.08456,344.72955,-359.48962,-1.0495211,-3.5e-43,0.0003153939,-0.0006307878,1.0,0.0,0.0,0.0,0.0,0.0,0.0,nan,nan,nan
21827348000,-193.08456,344.72955,-359.28973,-1.0495211,-3.5e-43,0.0003153939,-0.0006307878,1.0,0.0,0.0,0.0,0.0,0.0,0.0,nan,nan,nan
21827548000,-193.08456,344.72955,-359.08984,-1.0495211,-3.5e-43,0.0003153939,-0.0006307878,1.0,0.0,0.0,0.0,0.0,0.0,0.0,nan,nan,nan
21827748000,-193.08456,344.72955,-358.88995,-1.0495211,-3.5e-43,0.0003153939,-0.0006307878,1.0,0.0,0.0,0.0,0.0,0.0,0.0,nan,nan,nan
21827948000,-193.08456,344.72955,-358.69006,-1.0495211,-3.5e-43,0.0003153939,-0.0006307878,1.0,0.0,0.0,0.0,0.0,0.0,0.0,nan,nan,nan
21828148000,-193.08456,344.72955,-358.49017,-1.0495211,-3.5e-43,0.0003153939,-0.0006307878,1.0,0.0,0.0,0.0,0.0,0.0,0.0,nan,nan,nan
21828348000,-193.08456,344.72955,-358.29028,-1.0495211,-3.5e-43,0.0003153939,-0.0006307878,1.0,0.0,0.0,0.0,0.0,0.0,0.0,nan,nan,nan
21828548000,-193.08456,344.72955,-358.0904,-1.0495211,-3.5e-43,0.0003153939,-0.0006307878,1.0,0.0,0.0,0.0,0.0,0.0,0.0,nan,nan,nan
21828748000,-193.08456,344.72955,-357.8905,-1.0495211,-3.5e-43,0.0003153939,-0.0006307878,1.0,0.0,0.0,0.0,0.0,0.0,0.0,nan,nan,nan
21828948000,-193.08456,344.72955,-357.6906,-1.0495211,-3.5e-43,0.0003153939,-0.0006307878,1.0,0.0,0.0,0.0,0.0,0.0,0.0,nan,nan,nan
21829148000,-193.08456,344.72955,-357.49072,-1.0495211,-3.5e-43,0.0003153939,-0.0006307878,1.0,0.0,0.0,0.0,0.0,0.0,0.0,nan,nan,nan
21829348000,-193.08456,344.72955,-357.29083,-1.0495211,-3.5e-43,0.0003153939,-0.0006307878,1.0,0.0,0.0,0.0,0.0,0.0,0.0,nan,nan,nan
21829548000,-193.08456,344.72955,-357.09094,-1.0495211,-3.5e-43,0.0003153939,-0.0006307878,1.0,0.0,0.0,0.0,0.0,0.0,0.0,nan,nan,nan
21829748000,-193.08456,344.72955,-356.89105,-1.0495211,-3.5e-43,0.0003153939,-0.0006307878,1.0,0.0,0.0,0.0,0.0,0.0,0.0,nan,nan,nan
21829948000,-193.08456,344.72955,-356.69116,-1.0495211,-3.5e-43,0.0003153939,-0.0006307878,1.0,0.0,0.0,0.0,0.0,0.0,0.0,nan,nan,nan
21830148000,-193.08456,344.72955,-356.49127,-1.0495211,-3.5e-43,0.0003153939,-0.0006307878,1.0,0.0,0.0,0.0,0.0,0.0,0.0,nan,nan,nan
21830348000,-193.08456,344.72955,-356.29138,-1.0495211,-3.5e-43,0.0003153939,-0.0006307878,1.0,0.0,0.0,0.0,0.0,0.0,0.0,nan,nan,nan
21830548000,-193.08456,344.72955,-356.0915,-1.0495211,-3.5e-43,0.0003153939,-0.0006307878,1.0,0.0,0.0,0.0,0.0,0.0,0.0,nan,nan,nan
21830748000,-193.08456,344.72955,-355.8916,-1.0495211,-3.5e-43,0.0003153939,-0.0006307878,1.0,0.0,0.0,0.0,0.0,0.0,0.0,nan,nan,nan
21830948000,-193.08456,344.72955,-355.6917,-1.0495211,-3.5e-43,0.0003153939,-0.0006307878,1.0,0.0,0.0,0.0,0.0,0.0,0.0,nan,nan,nan
21831148000,-193.08456,344.72955,-355.49182,-1.0495211,-3.5e-43,0.0003153939,-0.0006307878,1.0,0.0,0.0,0.0,0.0,0.0,0.0,nan,nan,nan
21831348000,-193.08456,344.72955,-355.29193,-1.0495211,-3.5e-43,0.0003153939,-0.0006307878,1.0,0.0,0.0,0.0,0.0,0.0,0.0,nan,nan,nan
21831548000,-193.08456,344.72955,-355.09204,-1.0495211,-3.5e-43,0.0003153939,-0.0006307878,1.0,0.0,0.0,0.0,0.0,0.0,0.0,nan,nan,nan
21831748000,-193.08456,344.72955,-354.89215,-1.0495211,-3.5e-43,0.0003153939,-0.0006307878,1.0,0.0,0.0,0.0,0.0,0.0,0.0,nan,nan,nan
21831948000,-193.08456,344.72955,-354.69226,-1.0495211,-3.5e-43,0.0003153939,-0.0006307878,1.0,0.0,0.0,0.0,0.0,0.0,0.0,nan,nan,nan
21832148000,-193.08456,344.72955,-354.49237,-1.0495211,-3.5e-43,0.0003153939,-0.0006307878,1.0,0.0,0.0,0.0,0.0,0.0,0.0,nan,nan,nan
21832348000,-193.08456,344.72955,-354.29248,-1.0495211,-3.5e-43,0.0003153939,-0.0006307878,1.0,0.0,0.0,0.0,0.0,0.0,0.0,nan,nan,nan
21832548000,-193.08456,344.72955,-354.0926,-1.0495211,-3.5e-43,0.0003153939,-0.0006307878,1.0,0.0,0.0,0.0,0.0,0.0,0.0,nan,nan,nan
21832748000,-193.08456,344.72955,-353.8927,-1.0495211,-3.5e-43,0.0003153939,-0.0006307878,1.0,0.0,0.0,0.0,0.0,0.0,0.0,nan,nan,nan
21832948000,-193.08456,344.72955,-353.6928,-1.0495211,-3.5e-43,0.0003153939,-0.0006307878,1.0,0.0,0.0,0.0,0.0,0.0,0.0,nan,nan,nan
21833148000,-193.08456,344.72955,-353.49292,-1.0495211,-3.5e-43,0.0003153939,-0.0006307878,1.0,0.0,0.0,0.0,0.0,0.0,0.0,nan,nan,nan
21833348000,-193.08456,344.72955,-353.29303,-1.0495211,-3.5e-43,0.0003153939,-0.0006307878,1.0,0.0,0.0,0.0,0.0,0.0,0.0,nan,nan,nan
21833548000,-193.08456,344.72955,-353.09314,-1.0495211,-3.5e-43,0.0003153939,-0.0006307878,1.0,0.0,0.0,0.0,0.0,0.0,0.0,nan,nan,nan
21833748000,-193.08456,344.72955,-352.89325,-1.0495211,-3.5e-43,0.0003153939,-0.0006307878,1.0,0.0,0.0,0.0,0.0,0.0,0.0,nan,nan,nan
21833948000,-193.08456,344.72955,-352.69336,-1.0495211,-3.5e-43,0.0003153939,-0.0006307878,1.0,0.0,0.0,0.0,0.0,0.0,0.0,nan,nan,nan
21834148000,-193.08456,344.72955,-352.49347,-1.0495211,-3.5e-43,0.0003153939,-0.0006307878,1.0,0.0,0.0,0.0,0.0,0.0,0.0,nan,nan,nan
21834348000,-193.08456,344.72955,-352.29358,-1.0495211,-3.5e-43,0.0003153939,-0.0006307878,1.0,0.0,0.0,0.0,0.0,0.0,0.0,nan,nan,nan
21834548000,-193.08456,344.72955,-352.0937,-1.0495211,-3.5e-43,0.0003153939,-0.0006307878,1.0,0.0,0.0,0.0,0.0,0.0,0.0,nan,nan,nan
21834748000,-193.08456,344.72955,-351.8938,-1.0495211,-3.5e-43,0.0003153939,-0.0006307878,1.0,0.0,0.0,0.0,0.0,0.0,0.0,nan,nan,nan
21834948000,-193.08456,344.72955,-351.6939,-1.0495211,-3.5e-43,0.0003153939,-0.0006307878,1.0,0.0,0.0,0.0,0.0,0.0,0.0,nan,nan,nan
21835148000,-193.08456,344.72955,-351.49402,-1.0495211,-3.5e-43,0.0003153939,-0.0006307878,1.0,0.0,0.0,0.0,0.0,0.0,0.0,nan,nan,nan
21835348000,-193.08456,344.72955,-351.29413,-1.0495211,-3.5e-43,0.0003153939,-0.0006307878,1.0,0.0,0.0,0.0,0.0,0.0,0.0,nan,nan,nan
21835548000,-193.08456,344.72955,-351.09424,-1.0495211,-3.5e-43,0.0003153939,-0.0006307878,1.0,0.0,0.0,0.0,0.0,0.0,0.0,nan,nan,nan
21835748000,-193.08456,344.72955,-350.89435,-1.0495211,-3.5e-43,0.0003153939,-0.0006307878,1.0,0.0,0.0,0.0,0.0,0.0,0.0,nan,nan,nan
21835948000,-193.08456,344.72955,-350.69446,-1.0495211,-3.5e-43,0.0003153939,-0.0006307878,1.0,0.0,0.0,0.0,0.0,0.0,0.0,nan,nan,nan
21836148000,-193.08456,344.72955,-350.49457,-1.0495211,-3.5e-43,0.0003153939,-0.0006307878,1.0,0.0,0.0,0.0,0.0,0.0,0.0,nan,nan,nan
21836348000,-193.08456,344.72955,-350.29468,-1.0495211,-3.5e-43,0.0003153939,-0.0006307878,1.0,0.0,0.0,0.0,0.0,0.0,0.0,nan,nan,nan
21836548000,-193.08456,344.72955,-350.0948,-1.0495211,-3.5e-43,0.0003153939,-0.0006307878,1.0,0.0,0.0,0.0,0.0,0.0,0.0,nan,nan,nan
21836748000,-193.08456,344.72955,-349.8949,-1.0495211,-3.5e-43,0.0003153939,-0.0006307878,1.0,0.0,0.0,0.0,0.0,0.0,0.0,nan,nan,nan
21836948000,-193.08456,344.72955,-349.695,-1.0495211,-3.5e-43,0.0003153939,-0.0006307878,1.0,0.0,0.0,0.0,0.0,0.0,0.0,nan,nan,nan
21837148000,-193.08456,344.72955,-349.49512,-1.0495211,-3.5e-43,0.0003153939,-0.0006307878,1.0,0.0,0.0,0.0,0.0,0.0,0.0,nan,nan,nan
21837348000,-193.08456,344.72955,-349.29523,-1.0495211,-3.5e-43,0.0003153939,-0.0006307878,1.0,0.0,0.0,0.0,0.0,0.0,0.0,nan,nan,nan
21837548000,-193.08456,344.72955,-349.09534,-1.0495211,-3.5e-43,0.0003153939,-0.0006307878,1.0,0.0,0.0,0.0,0.0,0.0,0.0,nan,nan,nan
21837748000,-193.08456,344.72955,-348.89545,-1.0495211,-3.5e-43,0.0003153939,-0.0006307878,1.0,0.0,0.0,0.0,0.0,0.0,0.0,nan,nan,nan
21837948000,-193.08456,344.72955,-348.69556,-1.0495211,-3.5e-43,0.0003153939,-0.0006307878,1.0,0.0,0.0,0.0,0.0,0.0,0.0,nan,nan,nan
21838148000,-193.08456,344.72955,-348.49567,-1.0495211,-3.5e-43,0.0003153939,-0.0006307878,1.0,0.0,0.0,0.0,0.0,0.0,0.0,nan,nan,nan
21838348000,-193.08456,344.72955,-348.29578,-1.0495211,-3.5e-43,0.0003153939,-0.0006307878,1.0,0.0,0.0,0.0,0.0,0.0,0.0,nan,nan,nan
21838548000,-193.08456,344.72955,-348.0959,-1.0495211,-3.5e-43,0.0003153939,-0.0006307878,1.0,0.0,0.0,0.0,0.0,0.0,0.0,nan,nan,nan
21838748000,-193.08456,344.72955,-347.896,-1.0495211,-3.5e-43,0.0003153939,-0.0006307878,1.0,0.0,0.0,0.0,0.0,0.0,0.0,nan,nan,nan
21838948000,-193.08456,344.72955,-347.6961,-1.0495211,-3.5e-43,0.0003153939,-0.0006307878,1.0,0.0,0.0,0.0,0.0,0.0,0.0,nan,nan,nan
21839148000,-193.08456,344.72955,-347.49622,-1.0495211,-3.5e-43,0.0003153939,-0.0006307878,1.0,0.0,0.0,0.0,0.0,0.0,0.0,nan,nan,nan
21839348000,-193.08456,344.72955,-347.29633,-1.0495211,-3.5e-43,0.0003153939,-0.0006307878,1.0,0.0,0.0,0.0,0.0,0.0,0.0,nan,nan,nan
21839548000,-193.08456,344.72955,-347.09644,-1.0495211,-3.5e-43,0.0003153939,-0.0006307878,1.0,0.0,0.0,0.0,0.0,0.0,0.0,nan,nan,nan
21839748000,-193.08456,344.72955,-346.89655,-1.0495211,-3.5e-43,0.0003153939,-0.0006307878,1.0,0.0,0.0,0.0,0.0,0.0,0.0,nan,nan,nan
21839948000,-193.08456,344.72955,-346.69666,-1.0495211,-3.5e-43,0.0003153939,-0.0006307878,1.0,0.0,0.0,0.0,0.0,0.0,0.0,nan,nan,nan
21840148000,-193.08456,344.72955,-346.49677,-1.0495211,-3.5e-43,0.0003153939,-0.0006307878,1.0,0.0,0.0,0.0,0.0,0.0,0.0,nan,nan,nan
21840348000,-193.08456,344.72955,-346.29688,-1.0495211,-3.5e-43,0.0003153939,-0.0006307878,1.0,0.0,0.0,0.0,0.0,0.0,0.0,nan,nan,nan
21840548000,-193.08456,344.72955,-346.097,-1.0495211,-3.5e-43,0.0003153939,-0.0006307878,1.0,0.0,0.0,0.0,0.0,0.0,0.0,nan,nan,nan
21840748000,-193.08456,344.72955,-345.8971,-1.0495211,-3.5e-43,0.0003153939,-0.0006307878,1.0,0.0,0.0,0.0,0.0,0.0,0.0,nan,nan,nan
21840948000,-193.08456,344.72955,-345.6972,-1.0495211,-3.5e-43,0.0003153939,-0.0006307878,1.0,0.0,0.0,0.0,0.0,0.0,0.0,nan,nan,nan
21841148000,-193.08456,344.72955,-345.4973,-1.0495211,-3.5e-43,0.0003153939,-0.0006307878,1.0,0.0,0.0,0.0,0.0,0.0,0.0,nan,nan,nan
21841348000,-193.08456,344.72955,-345.29742,-1.0495211,-3.5e-43,0.0003153939,-0.0006307878,1.0,0.0,0.0,0.0,0.0,0.0,0.0,nan,nan,nan
21841548000,-193.08456,344.72955,-345.09753,-1.0495211,-3.5e-43,0.0003153939,-0.0006307878,1.0,0.0,0.0,0.0,0.0,0.0,0.0,nan,nan,nan
21841748000,-193.08456,344.72955,-344.89764,-1.0495211,-3.5e-43,0.0003153939,-0.0006307878,1.0,0.0,0.0,0.0,0.0,0.0,0.0,nan,nan,nan
21841948000,-193.08456,344.72955,-344.69775,-1.0495211,-3.5e-43,0.0003153939,-0.0006307878,1.0,0.0,0.0,0.0,0.0,0.0,0.0,nan,nan,nan
21842148000,-193.08456,344.72955,-344.49786,-1.0495211,-3.5e-43,0.0003153939,-0.0006307878,1.0,0.0,0.0,0.0,0.0,0.0,0.0,nan,nan,nan
21842348000,-193.08456,344.72955,-344.29797,-1.0495211,-3.5e-43,0.0003153939,-0.0006307878,1.0,0.0,0.0,0.0,0.0,0.0,0.0,nan,nan,nan
21842548000,-193.08456,344.72955,-344.09808,-1.0495211,-3.5e-43,0.0003153939,-0.0006307878,1.0,0.0,0.0,0.0,0.0,0.0,0.0,nan,nan,nan
21842748000,-193.08456,344.72955,-343.8982,-1.0495211,-3.5e-43,0.0003153939,-0.0006307878,1.0,0.0,0.0,0.0,0.0,0.0,0.0,nan,nan,nan
21842948000,-193.08456,344.72955,-343.6983,-1.0495211,-3.5e-43,0.0003153939,-0.0006307878,1.0,0.0,0.0,0.0,0.0,0.0,0.0,nan,nan,nan
21843148000,-193.08456,344.72955,-343.4984,-1.0495211,-3.5e-43,0.0003153939,-0.0006307878,1.0,0.0,0.0,0.0,0.0,0.0,0.0,nan,nan,nan
21843348000,-193.08456,344.72955,-343.29852,-1.0495211,-3.5e-43,0.0003153939,-0.0006307878,1.0,0.0,0.0,0.0,0.0,0.0,0.0,nan,nan,nan
21843548000,-193.08456,344.72955,-343.09863,-1.0495211,-3.5e-43,0.0003153939,-0.0006307878,1.0,0.0,0.0,0.0,0.0,0.0,0.0,nan,nan,nan
21843748000,-193.08456,344.72955,-342.89874,-1.0495211,-3.5e-43,0.0003153939,-0.0006307878,1.0,0.0,0.0,0.0,0.0,0.0,0.0,nan,nan,nan
21843948000,-193.08456,344.72955,-342.69885,-1.0495211,-3.5e-43,0.0003153939,-0.0006307878,1.0,0.0,0.0,0.0,0.0,0.0,0.0,nan,nan,nan
21844148000,-193.08456,344.72955,-342.49896,-1.0495211,-3.5e-43,0.0003153939,-0.0006307878,1.0,0.0,0.0,0.0,0.0,0.0,0.0,nan,nan,nan
21844348000,-193.08456,344.72955,-342.29907,-1.0495211,-3.5e-43,0.0003153939,-0.0006307878,1.0,0.0,0.0,0.0,0.0,0.0,0.0,nan,nan,nan
21844548000,-193.08456,344.72955,-342.09918,-1.0495211,-3.5e-43,0.0003153939,-0.0006307878,1.0,0.0,0.0,0.0,0.0,0.0,0.0,nan,nan,nan
21844748000,-193.08456,344.72955,-341.8993,-1.0495211,-3.5e-43,0.0003153939,-0.0006307878,1.0,0.0,0.0,0.0,0.0,0.0,0.0,nan,nan,nan
21844948000,-193.08456,344.72955,-341.6994,-1.0495211,-3.5e-43,0.0003153939,-0.0006307878,1.0,0.0,0.0,0.0,0.0,0.0,0.0,nan,nan,nan
21845148000,-193.08456,344.72955,-341.4995,-1.0495211,-3.5e-43,0.0003153939,-0.0006307878,1.0,0.0,0.0,0.0,0.0,0.0,0.0,nan,nan,nan
21845348000,-193.08456,344.72955,-341.29962,-1.0495211,-3.5e-43,0.0003153939,-0.0006307878,1.0,0.0,0.0,0.0,0.0,0.0,0.0,nan,nan,nan
21845548000,-193.08456,344.72955,-341.09973,-1.0495211,-3.5e-43,0.0003153939,-0.0006307878,1.0,0.0,0.0,0.0,0.0,0.0,0.0,nan,nan,nan
21845748000,-193.08456,344.72955,-340.89984,-1.0495211,-3.5e-43,0.0003153939,-0.0006307878,1.0,0.0,0.0,0.0,0.0,0.0,0.0,nan,nan,nan
21845948000,-193.08456,344.72955,-340.69995,-1.0495211,-3.5e-43,0.0003153939,-0.0006307878,1.0,0.0,0.0,0.0,0.0,0.0,0.0,nan,nan,nan
21846148000,-193.08456,344.72955,-340.50006,-1.0495211,-3.5e-43,0.0003153939,-0.0006307878,1.0,0.0,0.0,0.0,0.0,0.0,0.0,nan,nan,nan
21846348000,-193.08456,344.72955,-340.30017,-1.0495211,-3.5e-43,0.0003153939,-0.0006307878,1.0,0.0,0.0,0.0,0.0,0.0,0.0,nan,nan,nan
21846548000,-193.08456,344.72955,-340.10028,-1.0495211,-3.5e-43,0.0003153939,-0.0006307878,1.0,0.0,0.0,0.0,0.0,0.0,0.0,nan,nan,nan
21846748000,-193.08456,344.72955,-339.9004,-1.0495211,-3.5e-43,0.0003153939,-0.0006307878,1.0,0.0,0.0,0.0,0.0,0.0,0.0,nan,nan,nan
21846948000,-193.08456,344.72955,-339.7005,-1.0495211,-3.5e-43,0.0003153939,-0.0006307878,1.0,0.0,0.0,0.0,0.0,0.0,0.0,nan,nan,nan
21847148000,-193.08456,344.72955,-339.5006,-1.0495211,-3.5e-43,0.0003153939,-0.0006307878,1.0,0.0,0.0,0.0,0.0,0.0,0.0,nan,nan,nan
21847348000,-193.08456,344.72955,-339.30072,-1.0495211,-3.5e-43,0.0003153939,-0.0006307878,1.0,0.0,0.0,0.0,0.0,0.0,0.0,nan,nan,nan
21847548000,-193.08456,344.72955,-339.10083,-1.0495211,-3.5e-43,0.0003153939,-0.0006307878,1.0,0.0,0.0,0.0,0.0,0.0,0.0,nan,nan,nan
21847748000,-193.08456,344.72955,-338.90094,-1.0495211,-3.5e-43,0.0003153939,-0.0006307878,1.0,0.0,0.0,0.0,0.0,0.0,0.0,nan,nan,nan
21847948000,-193.08456,344.72955,-338.70105,-1.0495211,-3.5e-43,0.0003153939,-0.0006307878,1.0,0.0,0.0,0.0,0.0,0.0,0.0,nan,nan,nan
21848148000,-193.08456,344.72955,-338.50116,-1.0495211,-3.5e-43,0.0003153939,-0.0006307878,1.0,0.0,0.0,0.0,0.0,0.0,0.0,nan,nan,nan
21848348000,-193.08456,344.72955,-338.30127,-1.0495211,-3.5e-43,0.0003153939,-0.0006307878,1.0,0.0,0.0,0.0,0.0,0.0,0.0,nan,nan,nan
21848548000,-193.08456,344.72955,-338.10138,-1.0495211,-3.5e-43,0.0003153939,-0.0006307878,1.0,0.0,0.0,0.0,0.0,0.0,0.0,nan,nan,nan
21848748000,-193.08456,344.72955,-337.9015,-1.0495211,-3.5e-43,0.0003153939,-0.0006307878,1.0,0.0,0.0,0.0,0.0,0.0,0.0,nan,nan,nan
21848948000,-193.08456,344.72955,-337.7016,-1.0495211,-3.5e-43,0.0003153939,-0.0006307878,1.0,0.0,0.0,0.0,0.0,0.0,0.0,nan,nan,nan
21849148000,-193.08456,344.72955,-337.5017,-1.0495211,-3.5e-43,0.0003153939,-0.0006307878,1.0,0.0,0.0,0.0,0.0,0.0,0.0,nan,nan,nan
21849348000,-193.08456,344.72955,-337.30182,-1.0495211,-3.5e-43,0.0003153939,-0.0006307878,1.0,0.0,0.0,0.0,0.0,0.0,0.0,nan,nan,nan
21849548000,-193.08456,344.72955,-337.10193,-1.0495211,-3.5e-43,0.0003153939,-0.0006307878,1.0,0.0,0.0,0.0,0.0,0.0,0.0,nan,nan,nan
21849748000,-193.08456,344.72955,-336.90204,-1.0495211,-3.5e-43,0.0003153939,-0.0006307878,1.0,0.0,0.0,0.0,0.0,0.0,0.0,nan,nan,nan
21849948000,-193.08456,344.72955,-336.70215,-1.0495211,-3.5e-43,0.0003153939,-0.0006307878,1.0,0.0,0.0,0.0,0.0,0.0,0.0,nan,nan,nan
21850148000,-193.08456,344.72955,-336.50226,-1.0495211,-3.5e-43,0.0003153939,-0.0006307878,1.0,0.0,0.0,0.0,0.0,0.0,0.0,nan,nan,nan
21850348000,-193.08456,344.72955,-336.30237,-1.0495211,-3.5e-43,0.0003153939,-0.0006307878,1.0,0.0,0.0,0.0,0.0,0.0,0.0,nan,nan,nan
21850548000,-193.08456,344.72955,-336.10248,-1.0495211,-3.5e-43,0.0003153939,-0.0006307878,1.0,0.0,0.0,0.0,0.0,0.0,0.0,nan,nan,nan
21850748000,-193.08456,344.72955,-335.9026,-1.0495211,-3.5e-43,0.0003153939,-0.0006307878,1.0,0.0,0.0,0.0,0.0,0.0,0.0,nan,nan,nan
21850948000,-193.08456,344.72955,-335.7027,-1.0495211,-3.5e-43,0.0003153939,-0.0006307878,1.0,0.0,0.0,0.0,0.0,0.0,0.0,nan,nan,nan
21851148000,-193.08456,344.72955,-335.5028,-1.0495211,-3.5e-43,0.0003153939,-0.0006307878,1.0,0.0,0.0,0.0,0.0,0.0,0.0,nan,nan,nan
