timestamp,time_utc_usec,lat,lon,alt,alt_ellipsoid,s_variance_m_s,c_variance_rad,eph,epv,hdop,vdop,noise_per_ms,jamming_indicator,vel_m_s,vel_n_m_s,vel_e_m_s,vel_d_m_s,cog_rad,timestamp_time_relative,heading,heading_offset,fix_type,jamming_state,vel_ned_valid,satellites_used,selected
21726240000,1694492998302077,416066980,-863556160,229268,229268,0.25,0.5,1.0,1.0,0.0,0.0,0,0,0.0,0.0,-0.01,-0.01,5.042431,0,nan,nan,3,0,1,10,0
21726604000,1694492998666077,416066980,-863556160,229273,229273,0.25,0.5,1.0,1.0,0.0,0.0,0,0,0.0,0.0,0.0,0.0,3.367089,0,nan,nan,3,0,1,10,0
21726812000,1694492998874077,416066981,-863556160,229256,229256,0.25,0.5,1.0,1.0,0.0,0.0,0,0,0.0,0.01,0.0,0.0,5.9590774,0,nan,nan,3,0,1,10,0
21727024000,1694492999082077,416066981,-863556160,229259,229259,0.25,0.5,1.0,1.0,0.0,0.0,0,0,0.0,0.0,0.0,0.0,2.4326396,0,nan,nan,3,0,1,10,0
21727228000,1694492999290077,416066981,-863556160,229263,229263,0.25,0.5,1.0,1.0,0.0,0.0,0,0,0.0,0.0,0.0,0.0,5.071927,0,nan,nan,3,0,1,10,0
21727440000,1694492999498077,416066981,-863556160,229254,229254,0.25,0.5,1.0,1.0,0.0,0.0,0,0,0.0,0.0,0.0,-0.01,2.0343556,0,nan,nan,3,0,1,10,0
21727800000,1694492999858077,416066981,-863556160,229263,229263,0.25,0.5,1.0,1.0,0.0,0.0,0,0,0.0,0.0,-0.02,0.01,4.6553164,0,nan,nan,3,0,1,10,0
21728008000,1694493000066077,416066980,-863556160,229268,229268,0.25,0.5,1.0,1.0,0.0,0.0,0,0,0.0,0.01,0.0,0.0,0.45186573,0,nan,nan,3,0,1,10,0
21728216000,1694493000274077,416066980,-863556159,229267,229267,0.25,0.5,1.0,1.0,0.0,0.0,0,0,0.0,-0.01,-0.02,0.01,4.1767473,0,nan,nan,3,0,1,10,0
21728424000,1694493000482077,416066981,-863556160,229270,229270,0.25,0.5,1.0,1.0,0.0,0.0,0,0,0.0,0.0,0.0,0.0,0.4303982,0,nan,nan,3,0,1,10,0
21728632000,1694493000690077,416066981,-863556159,229270,229270,0.25,0.5,1.0,1.0,0.0,0.0,0,0,0.0,0.0,-0.01,0.01,4.6087165,0,nan,nan,3,0,1,10,0
21728836000,1694493000902077,416066980,-863556159,229269,229269,0.25,0.5,1.0,1.0,0.0,0.0,0,0,0.0,0.0,0.0,0.02,4.2523203,0,nan,nan,3,0,1,10,0
21729204000,1694493001262077,416066980,-863556159,229272,229272,0.25,0.5,1.0,1.0,0.0,0.0,0,0,0.0,0.0,-0.01,0.0,4.501902,0,nan,nan,3,0,1,10,0
21729412000,1694493001474077,416066980,-863556159,229267,229267,0.25,0.5,1.0,1.0,0.0,0.0,0,0,0.0,0.0,0.02,0.02,1.3809044,0,nan,nan,3,0,1,10,0
21729616000,1694493001678077,416066980,-863556160,229270,229270,0.25,0.5,1.0,1.0,0.0,0.0,0,0,0.0,0.0,0.0,0.0,1.9244,0,nan,nan,3,0,1,10,0
21729828000,1694493001890077,416066980,-863556160,229273,229273,0.25,0.5,1.0,1.0,0.0,0.0,0,0,0.0,0.0,0.01,0.0,1.34338,0,nan,nan,3,0,1,10,0
21730036000,1694493002094077,416066980,-863556160,229274,229274,0.25,0.5,1.0,1.0,0.0,0.0,0,0,0.0,-0.02,0.0,-0.04,3.5529666,0,nan,nan,3,0,1,10,0
21730400000,1694493002462077,416066980,-863556160,229277,229277,0.25,0.5,1.0,1.0,0.0,0.0,0,0,0.0,0.01,-0.02,0.02,5.106484,0,nan,nan,3,0,1,10,0
21730608000,1694493002670077,416066981,-863556160,229276,229276,0.25,0.5,1.0,1.0,0.0,0.0,0,0,0.0,0.0,-0.01,0.01,4.183554,0,nan,nan,3,0,1,10,0
21730816000,1694493002878077,416066981,-863556160,229266,229266,0.25,0.5,1.0,1.0,0.0,0.0,0,0,0.0,0.0,0.02,-0.02,1.8353882,0,nan,nan,3,0,1,10,0
21731024000,1694493003086077,416066980,-863556160,229260,229260,0.25,0.5,1.0,1.0,0.0,0.0,0,0,0.0,0.01,0.01,-0.01,0.8023278,0,nan,nan,3,0,1,10,0
21731232000,1694493003294077,416066980,-863556160,229268,229268,0.25,0.5,1.0,1.0,0.0,0.0,0,0,0.0,0.02,0.0,0.0,6.0744433,0,nan,nan,3,0,1,10,0
21731440000,1694493003502077,416066980,-863556160,229276,229276,0.25,0.5,1.0,1.0,0.0,0.0,0,0,0.0,0.0,-0.01,0.04,3.9751618,0,nan,nan,3,0,1,10,0
21731804000,1694493003862077,416066980,-863556160,229281,229281,0.25,0.5,1.0,1.0,0.0,0.0,0,0,0.0,0.0,0.0,-0.01,4.0824995,0,nan,nan,3,0,1,10,0
21732008000,1694493004070077,416066980,-863556160,229275,229275,0.25,0.5,1.0,1.0,0.0,0.0,0,0,0.0,0.01,0.0,-0.049999997,0.15620697,0,nan,nan,3,0,1,10,0
21732220000,1694493004278077,416066980,-863556160,229269,229269,0.25,0.5,1.0,1.0,0.0,0.0,0,0,0.0,0.0,0.0,0.02,0.79936075,0,nan,nan,3,0,1,10,0
21732428000,1694493004486077,416066981,-863556160,229264,229264,0.25,0.5,1.0,1.0,0.0,0.0,0,0,0.0,0.01,-0.01,0.04,5.4792867,0,nan,nan,3,0,1,10,0
21732632000,1694493004690077,416066980,-863556159,229272,229272,0.25,0.5,1.0,1.0,0.0,0.0,0,0,0.0,0.0,-0.01,0.0,4.7092476,0,nan,nan,3,0,1,10,0
21733000000,1694493005062077,416066981,-863556160,229274,229274,0.25,0.5,1.0,1.0,0.0,0.0,0,0,0.0,-0.01,0.0,0.01,3.6048028,0,nan,nan,3,0,1,10,0
21733212000,1694493005266077,416066981,-863556159,229273,229273,0.25,0.5,1.0,1.0,0.0,0.0,0,0,0.0,-0.02,0.0,0.0,3.041585,0,nan,nan,3,0,1,10,0
21733412000,1694493005474077,416066981,-863556160,229269,229269,0.25,0.5,1.0,1.0,0.0,0.0,0,0,0.0,0.0,-0.01,0.0,4.94731,0,nan,nan,3,0,1,10,0
21733624000,1694493005682077,416066980,-863556160,229255,229255,0.25,0.5,1.0,1.0,0.0,0.0,0,0,0.0,-0.02,0.02,0.03,2.4757493,0,nan,nan,3,0,1,10,0
21733832000,1694493005894077,416066980,-863556160,229269,229269,0.25,0.5,1.0,1.0,0.0,0.0,0,0,0.0,0.0,-0.01,-0.049999997,4.167148,0,nan,nan,3,0,1,10,0
21734040000,1694493006098077,416066980,-863556160,229265,229265,0.25,0.5,1.0,1.0,0.0,0.0,0,0,0.0,0.0,0.01,0.0,2.3270476,0,nan,nan,3,0,1,10,0
21734404000,1694493006466077,416066980,-863556159,229326,229326,0.25,0.5,1.0,1.0,0.0,0.0,0,0,0.02,-0.03,0.0,-0.48999998,3.0216882,0,nan,nan,3,0,1,10,0
21734612000,1694493006674077,416066979,-863556160,229466,229466,0.25,0.5,1.0,1.0,0.0,0.0,0,0,0.02,-0.02,0.01,-0.84999996,2.5827382,0,nan,nan,3,0,1,10,0
21734820000,1694493006882077,416066979,-863556160,229709,229709,0.25,0.5,1.0,1.0,0.0,0.0,0,0,0.01,-0.02,-0.01,-1.29,3.6709511,0,nan,nan,3,0,1,10,0
21735028000,1694493007090077,416066979,-863556160,230023,230023,0.25,0.5,1.0,1.0,0.0,0.0,0,0,0.02,0.01,0.0,-1.5799999,0.24294983,0,nan,nan,3,0,1,10,0
21735236000,1694493007298077,416066979,-863556161,230332,230332,0.25,0.5,1.0,1.0,0.0,0.0,0,0,0.03,0.0,-0.02,-1.42,4.6872563,0,nan,nan,3,0,1,10,0
21735600000,1694493007658077,416066979,-863556162,230753,230753,0.25,0.5,1.0,1.0,0.0,0.0,0,0,0.03,0.04,-0.04,-0.96,5.533566,0,nan,nan,3,0,1,10,0
21735808000,1694493007870077,416066980,-863556162,230958,230958,0.25,0.5,1.0,1.0,0.0,0.0,0,0,0.03,0.01,-0.02,-0.81,5.1426125,0,nan,nan,3,0,1,10,0
21736016000,1694493008074077,416066981,-863556163,231094,231094,0.25,0.5,1.0,1.0,0.0,0.0,0,0,0.03,0.04,-0.03,-0.71,5.641602,0,nan,nan,3,0,1,10,0
21736224000,1694493008286077,416066981,-863556164,231225,231225,0.25,0.5,1.0,1.0,0.0,0.0,0,0,0.02,0.03,0.0,-0.47,0.0006981317,0,nan,nan,3,0,1,10,0
21736432000,1694493008490077,416066982,-863556164,231321,231321,0.25,0.5,1.0,1.0,0.0,0.0,0,0,0.02,0.02,0.01,-0.47,0.35133475,0,nan,nan,3,0,1,10,0
21736640000,1694493008702077,416066982,-863556164,231401,231401,0.25,0.5,1.0,1.0,0.0,0.0,0,0,0.01,0.03,0.0,-0.34,6.1357045,0,nan,nan,3,0,1,10,0
21737004000,1694493009066077,416066982,-863556164,231498,231498,0.25,0.5,1.0,1.0,0.0,0.0,0,0,0.01,-0.02,0.0,-0.28,2.9510026,0,nan,nan,3,0,1,10,0
21737212000,1694493009266077,416066982,-863556164,231543,231543,0.25,0.5,1.0,1.0,0.0,0.0,0,0,0.01,0.02,0.01,-0.21,0.54785883,0,nan,nan,3,0,1,10,0
21737420000,1694493009482077,416066983,-863556163,231584,231584,0.25,0.5,1.0,1.0,0.0,0.0,0,0,0.01,0.0,0.0,-0.14,0.55501467,0,nan,nan,3,0,1,10,0
21737628000,1694493009686077,416066983,-863556163,231604,231604,0.25,0.5,1.0,1.0,0.0,0.0,0,0,0.01,-0.01,0.02,0.049999997,2.0504127,0,nan,nan,3,0,1,10,0
21737836000,1694493009894077,416066983,-863556162,231599,231599,0.25,0.5,1.0,1.0,0.0,0.0,0,0,0.02,0.0,0.01,0.08,2.072404,0,nan,nan,3,0,1,10,0
21738196000,1694493010258077,416066983,-863556161,231592,231592,0.25,0.5,1.0,1.0,0.0,0.0,0,0,0.049999997,0.0,0.04,-0.049999997,1.5990705,0,nan,nan,3,0,1,10,0
21738408000,1694493010470077,416066983,-863556159,231607,231607,0.25,0.5,1.0,1.0,0.0,0.0,0,0,0.12,-0.02,0.12,-0.13,1.7545794,0,nan,nan,3,0,1,10,0
21738616000,1694493010678077,416066983,-863556154,231652,231652,0.25,0.5,1.0,1.0,0.0,0.0,0,0,0.26,0.0,0.26999998,-0.32,1.5831882,0,nan,nan,3,0,1,10,0
21738824000,1694493010886077,416066983,-863556144,231729,231729,0.25,0.5,1.0,1.0,0.0,0.0,0,0,0.48999998,0.03,0.52,-0.45999998,1.5102334,0,nan,nan,3,0,1,10,0
21739028000,1694493011086077,416066984,-863556129,231834,231834,0.25,0.5,1.0,1.0,0.0,0.0,0,0,0.77,0.0,0.77,-0.55,1.5591025,0,nan,nan,3,0,1,10,0
21739236000,1694493011302077,416066984,-863556104,231950,231950,0.25,0.5,1.0,1.0,0.0,0.0,0,0,1.11,0.03,1.11,-0.59,1.5407766,0,nan,nan,3,0,1,10,0
21739600000,1694493011662077,416066979,-863556039,232255,232255,0.25,0.5,1.0,1.0,0.0,0.0,0,0,1.9499999,-0.45999998,1.87,-1.13,1.8146188,0,nan,nan,3,0,1,10,0
21739812000,1694493011874077,416066966,-863555986,232539,232539,0.25,0.5,1.0,1.0,0.0,0.0,0,0,2.45,-0.87,2.29,-1.5,1.9367919,0,nan,nan,3,0,1,10,0
21740020000,1694493012078077,416066948,-863555926,232884,232884,0.25,0.5,1.0,1.0,0.0,0.0,0,0,2.83,-1.15,2.58,-1.78,1.9901989,0,nan,nan,3,0,1,10,0
21740228000,1694493012290077,416066923,-863555856,233296,233296,0.25,0.5,1.0,1.0,0.0,0.0,0,0,3.1299999,-1.35,2.82,-2.12,2.0198696,0,nan,nan,3,0,1,10,0
21740436000,1694493012498077,416066896,-863555783,233774,233774,0.25,0.5,1.0,1.0,0.0,0.0,0,0,3.36,-1.5,3.0,-2.45,2.0359263,0,nan,nan,3,0,1,10,0
21740800000,1694493012858077,416066844,-863555647,234739,234739,0.25,0.5,1.0,1.0,0.0,0.0,0,0,3.6799998,-1.6899999,3.29,-2.8799999,2.0462239,0,nan,nan,3,0,1,10,0
21741008000,1694493013070077,416066811,-863555560,235396,235396,0.25,0.5,1.0,1.0,0.0,0.0,0,0,3.84,-1.77,3.3999999,-3.1599998,2.0504127,0,nan,nan,3,0,1,10,0
21741216000,1694493013274077,416066777,-863555476,236063,236063,0.25,0.5,1.0,1.0,0.0,0.0,0,0,3.99,-1.86,3.52,-3.32,2.0565214,0,nan,nan,3,0,1,10,0
21741424000,1694493013486077,416066740,-863555383,236801,236801,0.25,0.5,1.0,1.0,0.0,0.0,0,0,4.12,-1.93,3.6499999,-3.58,2.057394,0,nan,nan,3,0,1,10,0
21741632000,1694493013690077,416066705,-863555293,237547,237547,0.25,0.5,1.0,1.0,0.0,0.0,0,0,4.24,-1.99,3.74,-3.7099998,2.0605357,0,nan,nan,3,0,1,10,0
21741840000,1694493013898077,416066666,-863555198,238356,238356,0.25,0.5,1.0,1.0,0.0,0.0,0,0,4.36,-2.08,3.83,-3.9299998,2.0692623,0,nan,nan,3,0,1,10,0
21742204000,1694493014266077,416066595,-863555023,239841,239841,0.25,0.5,1.0,1.0,0.0,0.0,0,0,4.54,-2.18,4.0299997,-4.15,2.066819,0,nan,nan,3,0,1,10,0
21742408000,1694493014474077,416066555,-863554922,240730,240730,0.25,0.5,1.0,1.0,0.0,0.0,0,0,4.64,-2.22,4.0499997,-4.2999997,2.0722294,0,nan,nan,3,0,1,10,0
21742616000,1694493014674077,416066514,-863554823,241612,241612,0.25,0.5,1.0,1.0,0.0,0.0,0,0,4.72,-2.25,4.17,-4.45,2.0661206,0,nan,nan,3,0,1,10,0
21742828000,1694493014890077,416066470,-863554714,242577,242577,0.25,0.5,1.0,1.0,0.0,0.0,0,0,4.81,-2.32,4.2,-4.54,2.0764182,0,nan,nan,3,0,1,10,0
21743036000,1694493015094077,416066427,-863554609,243508,243508,0.25,0.5,1.0,1.0,0.0,0.0,0,0,4.89,-2.35,4.29,-4.61,2.072404,0,nan,nan,3,0,1,10,0
21743400000,1694493015462077,416066347,-863554416,245239,245239,0.25,0.5,1.0,1.0,0.0,0.0,0,0,5.0099998,-2.4199998,4.4,-4.77,2.0741491,0,nan,nan,3,0,1,10,0
21743604000,1694493015666077,416066302,-863554308,246225,246225,0.25,0.5,1.0,1.0,0.0,0.0,0,0,5.08,-2.4299998,4.46,-4.81,2.0692623,0,nan,nan,3,0,1,10,0
21743812000,1694493015874077,416066256,-863554195,247240,247240,0.25,0.5,1.0,1.0,0.0,0.0,0,0,5.14,-2.49,4.48,-4.93,2.0786872,0,nan,nan,3,0,1,10,0
21744024000,1694493016082077,416066208,-863554082,248265,248265,0.25,0.5,1.0,1.0,0.0,0.0,0,0,5.2,-2.54,4.54,-5.0299997,2.0811305,0,nan,nan,3,0,1,10,0
21744232000,1694493016290077,416066161,-863553967,249316,249316,0.25,0.5,1.0,1.0,0.0,0.0,0,0,5.25,-2.54,4.6,-5.0499997,2.0764182,0,nan,nan,3,0,1,10,0
21744436000,1694493016502077,416066112,-863553849,250392,250392,0.25,0.5,1.0,1.0,0.0,0.0,0,0,5.2999997,-2.56,4.63,-5.1,2.076069,0,nan,nan,3,0,1,10,0
21744800000,1694493016862077,416066027,-863553646,252236,252236,0.25,0.5,1.0,1.0,0.0,0.0,0,0,5.38,-2.62,4.7,-5.18,2.0793853,0,nan,nan,3,0,1,10,0
21745012000,1694493017070077,416065978,-863553528,253325,253325,0.25,0.5,1.0,1.0,0.0,0.0,0,0,5.42,-2.6299999,4.73,-5.19,2.0786872,0,nan,nan,3,0,1,10,0
21745216000,1694493017278077,416065928,-863553409,254409,254409,0.25,0.5,1.0,1.0,0.0,0.0,0,0,5.46,-2.6499999,4.7599998,-5.27,2.0786872,0,nan,nan,3,0,1,10,0
21745428000,1694493017486077,416065878,-863553289,255500,255500,0.25,0.5,1.0,1.0,0.0,0.0,0,0,5.5,-2.69,4.77,-5.27,2.083574,0,nan,nan,3,0,1,10,0
21745636000,1694493017694077,416065827,-863553168,256611,256611,0.25,0.5,1.0,1.0,0.0,0.0,0,0,5.5299997,-2.69,4.85,-5.25,2.0772908,0,nan,nan,3,0,1,10,0
21745996000,1694493018062077,416065737,-863552952,258568,258568,0.25,0.5,1.0,1.0,0.0,0.0,0,0,5.5899997,-2.73,4.87,-5.33,2.082527,0,nan,nan,3,0,1,10,0
21746208000,1694493018270077,416065685,-863552830,259690,259690,0.25,0.5,1.0,1.0,0.0,0.0,0,0,5.62,-2.74,4.89,-5.38,2.0820034,0,nan,nan,3,0,1,10,0
21746416000,1694493018478077,416065633,-863552706,260809,260809,0.25,0.5,1.0,1.0,0.0,0.0,0,0,5.65,-2.76,4.91,-5.43,2.082876,0,nan,nan,3,0,1,10,0
21746624000,1694493018682077,416065582,-863552584,261911,261911,0.25,0.5,1.0,1.0,0.0,0.0,0,0,5.68,-2.76,4.94,-5.43,2.0811305,0,nan,nan,3,0,1,10,0
21746832000,1694493018894077,416065529,-863552457,263054,263054,0.25,0.5,1.0,1.0,0.0,0.0,0,0,5.7,-2.8,4.95,-5.43,2.0867157,0,nan,nan,3,0,1,10,0
21747040000,1694493019098077,416065477,-863552335,264165,264165,0.25,0.5,1.0,1.0,0.0,0.0,0,0,5.73,-2.79,5.0099998,-5.52,2.079036,0,nan,nan,3,0,1,10,0
21747400000,1694493019462077,416065384,-863552116,266164,266164,0.25,0.5,1.0,1.0,0.0,0.0,0,0,5.7599998,-2.82,5.0299997,-5.5,2.0818286,0,nan,nan,3,0,1,10,0
21747612000,1694493019670077,416065331,-863551989,267309,267309,0.25,0.5,1.0,1.0,0.0,0.0,0,0,5.7799997,-2.84,5.0499997,-5.46,2.083923,0,nan,nan,3,0,1,10,0
21747820000,1694493019878077,416065278,-863551863,268460,268460,0.25,0.5,1.0,1.0,0.0,0.0,0,0,5.7999997,-2.84,5.0299997,-5.5699997,2.0847957,0,nan,nan,3,0,1,10,0
21748024000,1694493020086077,416065224,-863551735,269620,269620,0.25,0.5,1.0,1.0,0.0,0.0,0,0,5.81,-2.86,5.0499997,-5.56,2.0860174,0,nan,nan,3,0,1,10,0
21748236000,1694493020294077,416065170,-863551608,270770,270770,0.25,0.5,1.0,1.0,0.0,0.0,0,0,5.83,-2.87,5.0699997,-5.5099998,2.0868902,0,nan,nan,3,0,1,10,0
21748600000,1694493020662077,416065075,-863551382,272809,272809,0.25,0.5,1.0,1.0,0.0,0.0,0,0,5.8599997,-2.8799999,5.08,-5.5299997,2.0861921,0,nan,nan,3,0,1,10,0
21748808000,1694493020870077,416065021,-863551254,273973,273973,0.25,0.5,1.0,1.0,0.0,0.0,0,0,5.87,-2.8799999,5.1099997,-5.5499997,2.0844467,0,nan,nan,3,0,1,10,0
21749016000,1694493021074077,416064967,-863551128,275107,275107,0.25,0.5,1.0,1.0,0.0,0.0,0,0,5.8799996,-2.8999999,5.1,-5.5899997,2.0874138,0,nan,nan,3,0,1,10,0
21749224000,1694493021286077,416064912,-863550997,276281,276281,0.25,0.5,1.0,1.0,0.0,0.0,0,0,5.89,-2.9099998,5.14,-5.58,2.0867157,0,nan,nan,3,0,1,10,0
21749432000,1694493021490077,416064859,-863550870,277432,277432,0.25,0.5,1.0,1.0,0.0,0.0,0,0,5.91,-2.8899999,5.16,-5.5499997,2.0821776,0,nan,nan,3,0,1,10,0
21749640000,1694493021702077,416064802,-863550739,278623,278623,0.25,0.5,1.0,1.0,0.0,0.0,0,0,5.92,-2.8799999,5.15,-5.6,2.0811305,0,nan,nan,3,0,1,10,0
21750004000,1694493022066077,416064706,-863550512,280656,280656,0.25,0.5,1.0,1.0,0.0,0.0,0,0,5.93,-2.9299998,5.16,-5.62,2.088461,0,nan,nan,3,0,1,10,0
21750212000,1694493022270077,416064653,-863550384,281805,281805,0.25,0.5,1.0,1.0,0.0,0.0,0,0,5.94,-2.9399998,5.17,-5.58,2.0879374,0,nan,nan,3,0,1,10,0
21750420000,1694493022478077,416064598,-863550255,282967,282967,0.25,0.5,1.0,1.0,0.0,0.0,0,0,5.94,-2.9199998,5.18,-5.6099997,2.0844467,0,nan,nan,3,0,1,10,0
21750628000,1694493022686077,416064543,-863550125,284140,284140,0.25,0.5,1.0,1.0,0.0,0.0,0,0,5.95,-2.9199998,5.18,-5.6099997,2.083574,0,nan,nan,3,0,1,10,0
21750836000,1694493022898077,416064486,-863549992,285335,285335,0.25,0.5,1.0,1.0,0.0,0.0,0,0,5.96,-2.9199998,5.2,-5.66,2.0827012,0,nan,nan,3,0,1,10,0
21751200000,1694493023258077,416064392,-863549767,287377,287377,0.25,0.5,1.0,1.0,0.0,0.0,0,0,5.97,-2.9399998,5.19,-5.6,2.086541,0,nan,nan,3,0,1,10,0
21751408000,1694493023470077,416064336,-863549634,288570,288570,0.25,0.5,1.0,1.0,0.0,0.0,0,0,5.97,-2.9299998,5.2,-5.64,2.0842721,0,nan,nan,3,0,1,10,0
21751616000,1694493023674077,416064281,-863549506,289726,289726,0.25,0.5,1.0,1.0,0.0,0.0,0,0,5.98,-2.9199998,5.21,-5.6299996,2.0821776,0,nan,nan,3,0,1,10,0
21751824000,1694493023882077,416064226,-863549374,290899,290899,0.25,0.5,1.0,1.0,0.0,0.0,0,0,5.98,-2.9399998,5.2,-5.65,2.0856683,0,nan,nan,3,0,1,10,0
21752032000,1694493024090077,416064171,-863549244,292070,292070,0.25,0.5,1.0,1.0,0.0,0.0,0,0,5.99,-2.9399998,5.23,-5.66,2.083923,0,nan,nan,3,0,1,10,0
21752240000,1694493024302077,416064115,-863549110,293277,293277,0.25,0.5,1.0,1.0,0.0,0.0,0,0,5.99,-2.95,5.21,-5.65,2.0858428,0,nan,nan,3,0,1,10,0
21752604000,1694493024666077,416064018,-863548881,295332,295332,0.25,0.5,1.0,1.0,0.0,0.0,0,0,6.0,-2.9299998,5.24,-5.65,2.081305,0,nan,nan,3,0,1,10,0
21752812000,1694493024874077,416063963,-863548750,296506,296506,0.25,0.5,1.0,1.0,0.0,0.0,0,0,6.0,-2.9299998,5.23,-5.66,2.082527,0,nan,nan,3,0,1,10,0
21753020000,1694493025078077,416063909,-863548621,297668,297668,0.25,0.5,1.0,1.0,0.0,0.0,0,0,6.0,-2.9399998,5.24,-5.7,2.082527,0,nan,nan,3,0,1,10,0
21753228000,1694493025290077,416063852,-863548488,298876,298876,0.25,0.5,1.0,1.0,0.0,0.0,0,0,6.0,-2.9199998,5.22,-5.69,2.0814795,0,nan,nan,3,0,1,10,0
21753436000,1694493025494077,416063798,-863548358,300039,300039,0.25,0.5,1.0,1.0,0.0,0.0,0,0,6.0,-2.95,5.24,-5.69,2.083225,0,nan,nan,3,0,1,10,0
21753800000,1694493025862077,416063700,-863548125,302112,302112,0.25,0.5,1.0,1.0,0.0,0.0,0,0,6.0099998,-2.96,5.23,-5.6299996,2.086541,0,nan,nan,3,0,1,10,0
21754008000,1694493026070077,416063645,-863547994,303296,303296,0.25,0.5,1.0,1.0,0.0,0.0,0,0,6.0099998,-2.9299998,5.23,-5.7,2.0820034,0,nan,nan,3,0,1,10,0
21754216000,1694493026274077,416063590,-863547865,304452,304452,0.25,0.5,1.0,1.0,0.0,0.0,0,0,6.0099998,-2.95,5.24,-5.65,2.0830505,0,nan,nan,3,0,1,10,0
21754424000,1694493026486077,416063534,-863547731,305649,305649,0.25,0.5,1.0,1.0,0.0,0.0,0,0,6.0099998,-2.9299998,5.23,-5.68,2.0818286,0,nan,nan,3,0,1,10,0
21754632000,1694493026690077,416063480,-863547603,306810,306810,0.25,0.5,1.0,1.0,0.0,0.0,0,0,6.02,-2.96,5.23,-5.62,2.0868902,0,nan,nan,3,0,1,10,0
21754840000,1694493026902077,416063423,-863547469,308017,308017,0.25,0.5,1.0,1.0,0.0,0.0,0,0,6.02,-2.9399998,5.24,-5.7,2.083225,0,nan,nan,3,0,1,10,0
21755204000,1694493027262077,416063327,-863547240,310059,310059,0.25,0.5,1.0,1.0,0.0,0.0,0,0,6.02,-2.96,5.23,-5.71,2.0856683,0,nan,nan,3,0,1,10,0
21755412000,1694493027470077,416063272,-863547108,311249,311249,0.25,0.5,1.0,1.0,0.0,0.0,0,0,6.02,-2.97,5.25,-5.65,2.0853193,0,nan,nan,3,0,1,10,0
21755620000,1694493027674077,416063217,-863546979,312402,312402,0.25,0.5,1.0,1.0,0.0,0.0,0,0,6.02,-2.9399998,5.23,-5.67,2.0823522,0,nan,nan,3,0,1,10,0
21755828000,1694493027886077,416063160,-863546844,313599,313599,0.25,0.5,1.0,1.0,0.0,0.0,0,0,6.0299997,-2.96,5.23,-5.6299996,2.0854938,0,nan,nan,3,0,1,10,0
21756036000,1694493028098077,416063103,-863546710,314813,314813,0.25,0.5,1.0,1.0,0.0,0.0,0,0,6.0299997,-2.96,5.24,-5.71,2.0853193,0,nan,nan,3,0,1,10,0
21756400000,1694493028462077,416063006,-863546480,316897,316897,0.25,0.5,1.0,1.0,0.0,0.0,0,0,6.0299997,-2.97,5.24,-5.62,2.0863667,0,nan,nan,3,0,1,10,0
21756608000,1694493028666077,416062951,-863546350,318058,318058,0.25,0.5,1.0,1.0,0.0,0.0,0,0,6.04,-2.96,5.25,-5.7,2.0847957,0,nan,nan,3,0,1,10,0
21756816000,1694493028878077,416062894,-863546216,319255,319255,0.25,0.5,1.0,1.0,0.0,0.0,0,0,6.04,-2.97,5.2599998,-5.65,2.0856683,0,nan,nan,3,0,1,10,0
21757024000,1694493029082077,416062839,-863546087,320408,320408,0.25,0.5,1.0,1.0,0.0,0.0,0,0,6.04,-2.96,5.2599998,-5.7,2.083574,0,nan,nan,3,0,1,10,0
21757232000,1694493029294077,416062782,-863545952,321618,321618,0.25,0.5,1.0,1.0,0.0,0.0,0,0,6.04,-2.95,5.25,-5.7,2.0827012,0,nan,nan,3,0,1,10,0
21757440000,1694493029498077,416062728,-863545823,322777,322777,0.25,0.5,1.0,1.0,0.0,0.0,0,0,6.04,-2.97,5.2599998,-5.71,2.0856683,0,nan,nan,3,0,1,10,0
21757800000,1694493029862077,416062630,-863545592,324856,324856,0.25,0.5,1.0,1.0,0.0,0.0,0,0,6.0499997,-2.96,5.2599998,-5.6299996,2.083923,0,nan,nan,3,0,1,10,0
21758012000,1694493030074077,416062573,-863545457,326053,326053,0.25,0.5,1.0,1.0,0.0,0.0,0,0,6.0499997,-2.96,5.25,-5.69,2.0847957,0,nan,nan,3,0,1,10,0
21758220000,1694493030278077,416062518,-863545327,327217,327217,0.25,0.5,1.0,1.0,0.0,0.0,0,0,6.0499997,-2.97,5.27,-5.69,2.0847957,0,nan,nan,3,0,1,10,0
21758424000,1694493030486077,416062462,-863545194,328406,328406,0.25,0.5,1.0,1.0,0.0,0.0,0,0,6.0499997,-2.99,5.27,-5.71,2.0870645,0,nan,nan,3,0,1,10,0
21758636000,1694493030694077,416062406,-863545062,329585,329585,0.25,0.5,1.0,1.0,0.0,0.0,0,0,6.0499997,-2.97,5.2799997,-5.69,2.0837486,0,nan,nan,3,0,1,10,0
21759000000,1694493031058077,416062309,-863544831,331648,331648,0.25,0.5,1.0,1.0,0.0,0.0,0,0,6.06,-2.98,5.2999997,-5.6299996,2.083574,0,nan,nan,3,0,1,10,0
21759208000,1694493031266077,416062252,-863544698,332841,332841,0.25,0.5,1.0,1.0,0.0,0.0,0,0,6.0499997,-2.98,5.25,-5.68,2.0868902,0,nan,nan,3,0,1,10,0
21759416000,1694493031474077,416062196,-863544566,334021,334021,0.25,0.5,1.0,1.0,0.0,0.0,0,0,6.06,-2.97,5.27,-5.67,2.0851448,0,nan,nan,3,0,1,10,0
21759624000,1694493031682077,416062140,-863544433,335205,335205,0.25,0.5,1.0,1.0,0.0,0.0,0,0,6.06,-2.97,5.29,-5.68,2.0830505,0,nan,nan,3,0,1,10,0
21759832000,1694493031890077,416062085,-863544300,336388,336388,0.25,0.5,1.0,1.0,0.0,0.0,0,0,6.06,-3.01,5.29,-5.69,2.0886354,0,nan,nan,3,0,1,10,0
21760040000,1694493032102077,416062027,-863544166,337601,337601,0.25,0.5,1.0,1.0,0.0,0.0,0,0,6.06,-2.99,5.27,-5.7,2.0874138,0,nan,nan,3,0,1,10,0
21760404000,1694493032466077,416061929,-863543934,339675,339675,0.25,0.5,1.0,1.0,0.0,0.0,0,0,6.06,-3.0,5.29,-5.71,2.0868902,0,nan,nan,3,0,1,10,0
21760612000,1694493032670077,416061874,-863543804,340827,340827,0.25,0.5,1.0,1.0,0.0,0.0,0,0,6.06,-2.98,5.27,-5.73,2.0858428,0,nan,nan,3,0,1,10,0
21760816000,1694493032878077,416061818,-863543671,342003,342003,0.25,0.5,1.0,1.0,0.0,0.0,0,0,6.06,-2.98,5.27,-5.69,2.086541,0,nan,nan,3,0,1,10,0
21761028000,1694493033086077,416061762,-863543539,343182,343182,0.25,0.5,1.0,1.0,0.0,0.0,0,0,6.06,-3.0,5.2799997,-5.68,2.0872393,0,nan,nan,3,0,1,10,0
21761236000,1694493033298077,416061705,-863543405,344403,344403,0.25,0.5,1.0,1.0,0.0,0.0,0,0,6.06,-2.98,5.27,-5.71,2.0853193,0,nan,nan,3,0,1,10,0
21761600000,1694493033662077,416061607,-863543172,346479,346479,0.25,0.5,1.0,1.0,0.0,0.0,0,0,6.0699997,-2.98,5.29,-5.67,2.083923,0,nan,nan,3,0,1,10,0
21761808000,1694493033870077,416061550,-863543039,347669,347669,0.25,0.5,1.0,1.0,0.0,0.0,0,0,6.0699997,-3.01,5.27,-5.68,2.089159,0,nan,nan,3,0,1,10,0
21762012000,1694493034074077,416061496,-863542909,348823,348823,0.25,0.5,1.0,1.0,0.0,0.0,0,0,6.0699997,-2.98,5.2799997,-5.69,2.0851448,0,nan,nan,3,0,1,10,0
21762224000,1694493034286077,416061438,-863542774,350027,350027,0.25,0.5,1.0,1.0,0.0,0.0,0,0,6.0699997,-3.0,5.2799997,-5.7,2.0882864,0,nan,nan,3,0,1,10,0
21762432000,1694493034494077,416061382,-863542642,351219,351219,0.25,0.5,1.0,1.0,0.0,0.0,0,0,6.0699997,-3.0,5.2599998,-5.75,2.089508,0,nan,nan,3,0,1,10,0
21762636000,1694493034694077,416061329,-863542514,352363,352363,0.25,0.5,1.0,1.0,0.0,0.0,0,0,6.0699997,-2.96,5.27,-5.69,2.083574,0,nan,nan,3,0,1,10,0
21763000000,1694493035062077,416061229,-863542279,354452,354452,0.25,0.5,1.0,1.0,0.0,0.0,0,0,6.08,-2.97,5.31,-5.6299996,2.0814795,0,nan,nan,3,0,1,10,0
21763212000,1694493035270077,416061173,-863542146,355635,355635,0.25,0.5,1.0,1.0,0.0,0.0,0,0,6.08,-2.99,5.31,-5.69,2.0842721,0,nan,nan,3,0,1,10,0
21763420000,1694493035478077,416061117,-863542012,356816,356816,0.25,0.5,1.0,1.0,0.0,0.0,0,0,6.08,-2.99,5.31,-5.7,2.0842721,0,nan,nan,3,0,1,10,0
21763628000,1694493035686077,416061060,-863541880,358000,358000,0.25,0.5,1.0,1.0,0.0,0.0,0,0,6.08,-2.98,5.29,-5.68,2.0837486,0,nan,nan,3,0,1,10,0
21763836000,1694493035894077,416061005,-863541747,359184,359184,0.25,0.5,1.0,1.0,0.0,0.0,0,0,6.08,-2.97,5.2999997,-5.69,2.082527,0,nan,nan,3,0,1,10,0
21764200000,1694493036258077,416060907,-863541514,361273,361273,0.25,0.5,1.0,1.0,0.0,0.0,0,0,6.08,-2.99,5.3199997,-5.71,2.083225,0,nan,nan,3,0,1,10,0
21764408000,1694493036470077,416060849,-863541378,362480,362480,0.25,0.5,1.0,1.0,0.0,0.0,0,0,6.0899997,-2.98,5.31,-5.72,2.0833995,0,nan,nan,3,0,1,10,0
21764616000,1694493036674077,416060794,-863541248,363635,363635,0.25,0.5,1.0,1.0,0.0,0.0,0,0,6.0899997,-2.98,5.3199997,-5.66,2.0821776,0,nan,nan,3,0,1,10,0
21764824000,1694493036886077,416060737,-863541112,364841,364841,0.25,0.5,1.0,1.0,0.0,0.0,0,0,6.0899997,-2.97,5.3199997,-5.7,2.0804324,0,nan,nan,3,0,1,10,0
21765032000,1694493037090077,416060682,-863540981,366001,366001,0.25,0.5,1.0,1.0,0.0,0.0,0,0,6.0899997,-3.0,5.33,-5.68,2.083225,0,nan,nan,3,0,1,10,0
21765240000,1694493037302077,416060625,-863540846,367216,367216,0.25,0.5,1.0,1.0,0.0,0.0,0,0,6.0899997,-2.95,5.3199997,-5.7,2.0779889,0,nan,nan,3,0,1,10,0
21765604000,1694493037666077,416060527,-863540612,369279,369279,0.25,0.5,1.0,1.0,0.0,0.0,0,0,6.1,-2.97,5.2999997,-5.7,2.082527,0,nan,nan,3,0,1,10,0
21765808000,1694493037874077,416060471,-863540479,370471,370471,0.25,0.5,1.0,1.0,0.0,0.0,0,0,6.1,-2.99,5.3199997,-5.71,2.082876,0,nan,nan,3,0,1,10,0
21766020000,1694493038082077,416060414,-863540346,371652,371652,0.25,0.5,1.0,1.0,0.0,0.0,0,0,6.1,-2.99,5.2999997,-5.66,2.0840976,0,nan,nan,3,0,1,10,0
21766228000,1694493038290077,416060359,-863540212,372831,372831,0.25,0.5,1.0,1.0,0.0,0.0,0,0,6.1,-2.99,5.2999997,-5.69,2.0854938,0,nan,nan,3,0,1,10,0
21766436000,1694493038498077,416060303,-863540079,374019,374019,0.25,0.5,1.0,1.0,0.0,0.0,0,0,6.1,-2.99,5.3199997,-5.7,2.082527,0,nan,nan,3,0,1,10,0
21766800000,1694493038858077,416060206,-863539847,376072,376072,0.25,0.5,1.0,1.0,0.0,0.0,0,0,6.1,-2.97,5.3199997,-5.72,2.0811305,0,nan,nan,3,0,1,10,0
21767008000,1694493039066077,416060150,-863539714,377259,377259,0.25,0.5,1.0,1.0,0.0,0.0,0,0,6.1,-2.99,5.29,-5.65,2.0858428,0,nan,nan,3,0,1,10,0
21767216000,1694493039274077,416060094,-863539580,378450,378450,0.25,0.5,1.0,1.0,0.0,0.0,0,0,6.1,-2.98,5.3199997,-5.68,2.0820034,0,nan,nan,3,0,1,10,0
21767424000,1694493039482077,416060038,-863539447,379636,379636,0.25,0.5,1.0,1.0,0.0,0.0,0,0,6.1,-2.98,5.2999997,-5.75,2.0830505,0,nan,nan,3,0,1,10,0
21767632000,1694493039694077,416059980,-863539311,380838,380838,0.25,0.5,1.0,1.0,0.0,0.0,0,0,6.1,-2.98,5.3199997,-5.73,2.0820034,0,nan,nan,3,0,1,10,0
21768000000,1694493040062077,416059881,-863539074,382935,382935,0.25,0.5,1.0,1.0,0.0,0.0,0,0,6.1,-2.98,5.3199997,-5.67,2.0818286,0,nan,nan,3,0,1,10,0
21768208000,1694493040266077,416059827,-863538944,384101,384101,0.25,0.5,1.0,1.0,0.0,0.0,0,0,6.1,-2.99,5.2999997,-5.72,2.0840976,0,nan,nan,3,0,1,10,0
21768416000,1694493040478077,416059769,-863538807,385313,385313,0.25,0.5,1.0,1.0,0.0,0.0,0,0,6.1,-2.97,5.29,-5.7,2.083225,0,nan,nan,3,0,1,10,0
21768624000,1694493040682077,416059714,-863538676,386489,386489,0.25,0.5,1.0,1.0,0.0,0.0,0,0,6.1,-2.98,5.33,-5.74,2.0799088,0,nan,nan,3,0,1,10,0
21768832000,1694493040894077,416059657,-863538540,387686,387686,0.25,0.5,1.0,1.0,0.0,0.0,0,0,6.1,-3.02,5.33,-5.72,2.0872393,0,nan,nan,3,0,1,10,0
21769040000,1694493041098077,416059602,-863538408,388845,388845,0.25,0.5,1.0,1.0,0.0,0.0,0,0,6.1099997,-2.97,5.35,-5.67,2.07764,0,nan,nan,3,0,1,10,0
21769404000,1694493041462077,416059504,-863538176,390923,390923,0.25,0.5,1.0,1.0,0.0,0.0,0,0,6.1099997,-2.99,5.3199997,-5.7,2.083574,0,nan,nan,3,0,1,10,0
21769608000,1694493041670077,416059447,-863538041,392109,392109,0.25,0.5,1.0,1.0,0.0,0.0,0,0,6.1099997,-2.97,5.33,-5.71,2.0792108,0,nan,nan,3,0,1,10,0
21769816000,1694493041882077,416059390,-863537905,393317,393317,0.25,0.5,1.0,1.0,0.0,0.0,0,0,6.1099997,-3.01,5.35,-5.68,2.083923,0,nan,nan,3,0,1,10,0
21770028000,1694493042090077,416059334,-863537771,394490,394490,0.25,0.5,1.0,1.0,0.0,0.0,0,0,6.1099997,-2.98,5.31,-5.71,2.0823522,0,nan,nan,3,0,1,10,0
21770236000,1694493042298077,416059278,-863537637,395669,395669,0.25,0.5,1.0,1.0,0.0,0.0,0,0,6.1099997,-2.99,5.33,-5.69,2.082527,0,nan,nan,3,0,1,10,0
21770600000,1694493042658077,416059181,-863537406,397722,397722,0.25,0.5,1.0,1.0,0.0,0.0,0,0,6.1099997,-2.98,5.3399997,-5.71,2.0795596,0,nan,nan,3,0,1,10,0
21770808000,1694493042870077,416059124,-863537269,398935,398935,0.25,0.5,1.0,1.0,0.0,0.0,0,0,6.1099997,-2.99,5.3399997,-5.71,2.0821776,0,nan,nan,3,0,1,10,0
21771016000,1694493043074077,416059069,-863537138,400097,400097,0.25,0.5,1.0,1.0,0.0,0.0,0,0,6.1099997,-3.0,5.33,-5.68,2.0833995,0,nan,nan,3,0,1,10,0
21771220000,1694493043286077,416059012,-863537002,401307,401307,0.25,0.5,1.0,1.0,0.0,0.0,0,0,6.1099997,-2.99,5.3199997,-5.71,2.0823522,0,nan,nan,3,0,1,10,0
21771432000,1694493043490077,416058957,-863536870,402464,402464,0.25,0.5,1.0,1.0,0.0,0.0,0,0,6.1099997,-2.98,5.33,-5.68,2.0804324,0,nan,nan,3,0,1,10,0
21771640000,1694493043702077,416058900,-863536734,403677,403677,0.25,0.5,1.0,1.0,0.0,0.0,0,0,6.1099997,-2.99,5.35,-5.72,2.080956,0,nan,nan,3,0,1,10,0
21772000000,1694493044066077,416058802,-863536500,405756,405756,0.25,0.5,1.0,1.0,0.0,0.0,0,0,6.1099997,-3.0,5.3399997,-5.69,2.083225,0,nan,nan,3,0,1,10,0
21772208000,1694493044266077,416058748,-863536371,406893,406893,0.25,0.5,1.0,1.0,0.0,0.0,0,0,6.1099997,-3.0,5.33,-5.72,2.083923,0,nan,nan,3,0,1,10,0
21772420000,1694493044482077,416058690,-863536231,408122,408122,0.25,0.5,1.0,1.0,0.0,0.0,0,0,6.1099997,-2.95,5.3199997,-5.71,2.07764,0,nan,nan,3,0,1,10,0
21772628000,1694493044686077,416058635,-863536100,409288,409288,0.25,0.5,1.0,1.0,0.0,0.0,0,0,6.1099997,-2.98,5.35,-5.7,2.0788617,0,nan,nan,3,0,1,10,0
21772836000,1694493044898077,416058578,-863535964,410495,410495,0.25,0.5,1.0,1.0,0.0,0.0,0,0,6.1099997,-2.98,5.33,-5.74,2.0807815,0,nan,nan,3,0,1,10,0
21773196000,1694493045254077,416058483,-863535735,412524,412524,0.25,0.5,1.0,1.0,0.0,0.0,0,0,6.1099997,-2.99,5.3199997,-5.69,2.0827012,0,nan,nan,3,0,1,10,0
21773408000,1694493045466077,416058426,-863535599,413743,413743,0.25,0.5,1.0,1.0,0.0,0.0,0,0,6.1,-2.9399998,5.3199997,-5.7,2.076069,0,nan,nan,3,0,1,10,0
21773616000,1694493045678077,416058369,-863535462,414949,414949,0.25,0.5,1.0,1.0,0.0,0.0,0,0,6.1,-2.9399998,5.3399997,-5.7,2.0746727,0,nan,nan,3,0,1,10,0
21773824000,1694493045886077,416058313,-863535328,416144,416144,0.25,0.5,1.0,1.0,0.0,0.0,0,0,6.1,-2.95,5.33,-5.72,2.0765927,0,nan,nan,3,0,1,10,0
21774028000,1694493046090077,416058258,-863535196,417304,417304,0.25,0.5,1.0,1.0,0.0,0.0,0,0,6.1,-2.97,5.31,-5.71,2.0807815,0,nan,nan,3,0,1,10,0
21774240000,1694493046302077,416058201,-863535061,418509,418509,0.25,0.5,1.0,1.0,0.0,0.0,0,0,6.1,-2.96,5.3199997,-5.73,2.0792108,0,nan,nan,3,0,1,10,0
21774604000,1694493046662077,416058105,-863534830,420565,420565,0.25,0.5,1.0,1.0,0.0,0.0,0,0,6.1,-2.97,5.2999997,-5.71,2.082527,0,nan,nan,3,0,1,10,0
21774812000,1694493046874077,416058048,-863534693,421775,421775,0.25,0.5,1.0,1.0,0.0,0.0,0,0,6.1,-2.99,5.3199997,-5.68,2.0823522,0,nan,nan,3,0,1,10,0
21775020000,1694493047078077,416057993,-863534562,422935,422935,0.25,0.5,1.0,1.0,0.0,0.0,0,0,6.1,-2.99,5.3399997,-5.7,2.0820034,0,nan,nan,3,0,1,10,0
21775224000,1694493047290077,416057936,-863534426,424140,424140,0.25,0.5,1.0,1.0,0.0,0.0,0,0,6.1,-2.96,5.3199997,-5.71,2.0788617,0,nan,nan,3,0,1,10,0
21775436000,1694493047494077,416057881,-863534295,425308,425308,0.25,0.5,1.0,1.0,0.0,0.0,0,0,6.0899997,-2.98,5.31,-5.72,2.0830505,0,nan,nan,3,0,1,10,0
21775800000,1694493047858077,416057783,-863534061,427390,427390,0.25,0.5,1.0,1.0,0.0,0.0,0,0,6.0899997,-2.95,5.3199997,-5.66,2.0764182,0,nan,nan,3,0,1,10,0
21776008000,1694493048070077,416057727,-863533925,428597,428597,0.25,0.5,1.0,1.0,0.0,0.0,0,0,6.0899997,-2.97,5.31,-5.69,2.0804324,0,nan,nan,3,0,1,10,0
21776216000,1694493048274077,416057672,-863533794,429759,429759,0.25,0.5,1.0,1.0,0.0,0.0,0,0,6.0899997,-2.97,5.33,-5.69,2.0793853,0,nan,nan,3,0,1,10,0
21776424000,1694493048486077,416057615,-863533658,430962,430962,0.25,0.5,1.0,1.0,0.0,0.0,0,0,6.0899997,-2.99,5.3199997,-5.7,2.0837486,0,nan,nan,3,0,1,10,0
21776632000,1694493048690077,416057560,-863533528,432126,432126,0.25,0.5,1.0,1.0,0.0,0.0,0,0,6.0899997,-2.96,5.2999997,-5.69,2.0804324,0,nan,nan,3,0,1,10,0
21776840000,1694493048902077,416057503,-863533392,433337,433337,0.25,0.5,1.0,1.0,0.0,0.0,0,0,6.0899997,-2.96,5.2999997,-5.73,2.080258,0,nan,nan,3,0,1,10,0
21777204000,1694493049262077,416057407,-863533161,435393,435393,0.25,0.5,1.0,1.0,0.0,0.0,0,0,6.08,-2.99,5.29,-5.68,2.0854938,0,nan,nan,3,0,1,10,0
21777412000,1694493049470077,416057351,-863533028,436594,436594,0.25,0.5,1.0,1.0,0.0,0.0,0,0,6.08,-2.96,5.2999997,-5.71,2.080258,0,nan,nan,3,0,1,10,0
21777620000,1694493049682077,416057294,-863532891,437790,437790,0.25,0.5,1.0,1.0,0.0,0.0,0,0,6.08,-2.98,5.31,-5.67,2.0823522,0,nan,nan,3,0,1,10,0
21777828000,1694493049890077,416057238,-863532758,438976,438976,0.25,0.5,1.0,1.0,0.0,0.0,0,0,6.08,-2.98,5.2799997,-5.66,2.0844467,0,nan,nan,3,0,1,10,0
21778036000,1694493050098077,416057183,-863532625,440159,440159,0.25,0.5,1.0,1.0,0.0,0.0,0,0,6.08,-2.95,5.31,-5.7,2.0788617,0,nan,nan,3,0,1,10,0
21778400000,1694493050462077,416057085,-863532392,442245,442245,0.25,0.5,1.0,1.0,0.0,0.0,0,0,6.08,-2.96,5.2999997,-5.75,2.080607,0,nan,nan,3,0,1,10,0
21778608000,1694493050662077,416057031,-863532265,443378,443378,0.25,0.5,1.0,1.0,0.0,0.0,0,0,6.08,-2.98,5.2999997,-5.74,2.083574,0,nan,nan,3,0,1,10,0
21778812000,1694493050874077,416056974,-863532128,444592,444592,0.25,0.5,1.0,1.0,0.0,0.0,0,0,6.0699997,-2.98,5.31,-5.69,2.0830505,0,nan,nan,3,0,1,10,0
21779020000,1694493051082077,416056919,-863531995,445776,445776,0.25,0.5,1.0,1.0,0.0,0.0,0,0,6.0699997,-2.96,5.33,-5.71,2.0778143,0,nan,nan,3,0,1,10,0
21779228000,1694493051294077,416056862,-863531860,446982,446982,0.25,0.5,1.0,1.0,0.0,0.0,0,0,6.0699997,-2.9399998,5.2999997,-5.67,2.0769417,0,nan,nan,3,0,1,10,0
21779440000,1694493051498077,416056808,-863531730,448151,448151,0.25,0.5,1.0,1.0,0.0,0.0,0,0,6.06,-2.96,5.27,-5.66,2.082527,0,nan,nan,3,0,1,10,0
21779804000,1694493051862077,416056711,-863531497,450214,450214,0.25,0.5,1.0,1.0,0.0,0.0,0,0,6.06,-2.96,5.2999997,-5.75,2.0799088,0,nan,nan,3,0,1,10,0
21780012000,1694493052074077,416056654,-863531362,451432,451432,0.25,0.5,1.0,1.0,0.0,0.0,0,0,6.06,-2.99,5.2999997,-5.68,2.0840976,0,nan,nan,3,0,1,10,0
21780216000,1694493052278077,416056599,-863531231,452605,452605,0.25,0.5,1.0,1.0,0.0,0.0,0,0,6.06,-2.95,5.2799997,-5.73,2.080258,0,nan,nan,3,0,1,10,0
21780428000,1694493052490077,416056543,-863531096,453809,453809,0.25,0.5,1.0,1.0,0.0,0.0,0,0,6.06,-2.98,5.2999997,-5.68,2.082527,0,nan,nan,3,0,1,10,0
21780636000,1694493052690077,416056489,-863530968,454943,454943,0.25,0.5,1.0,1.0,0.0,0.0,0,0,6.06,-2.95,5.2799997,-5.69,2.081305,0,nan,nan,3,0,1,10,0
21781000000,1694493053058077,416056391,-863530734,457053,457053,0.25,0.5,1.0,1.0,0.0,0.0,0,0,6.06,-2.9399998,5.31,-5.68,2.0772908,0,nan,nan,3,0,1,10,0
21781204000,1694493053266077,416056336,-863530600,458240,458240,0.25,0.5,1.0,1.0,0.0,0.0,0,0,6.06,-2.95,5.2799997,-5.7,2.0799088,0,nan,nan,3,0,1,10,0
21781416000,1694493053474077,416056280,-863530467,459429,459429,0.25,0.5,1.0,1.0,0.0,0.0,0,0,6.06,-2.96,5.2999997,-5.65,2.080607,0,nan,nan,3,0,1,10,0
21781624000,1694493053686077,416056223,-863530332,460642,460642,0.25,0.5,1.0,1.0,0.0,0.0,0,0,6.0499997,-2.9299998,5.27,-5.71,2.0786872,0,nan,nan,3,0,1,10,0
21781832000,1694493053894077,416056167,-863530200,461816,461816,0.25,0.5,1.0,1.0,0.0,0.0,0,0,6.0499997,-2.95,5.29,-5.74,2.0799088,0,nan,nan,3,0,1,10,0
21782040000,1694493054098077,416056113,-863530070,462981,462981,0.25,0.5,1.0,1.0,0.0,0.0,0,0,6.0499997,-2.98,5.2999997,-5.73,2.082876,0,nan,nan,3,0,1,10,0
21782404000,1694493054466077,416056015,-863529835,465089,465089,0.25,0.5,1.0,1.0,0.0,0.0,0,0,6.0499997,-2.96,5.27,-5.67,2.0823522,0,nan,nan,3,0,1,10,0
21782612000,1694493054670077,416055961,-863529705,466251,466251,0.25,0.5,1.0,1.0,0.0,0.0,0,0,6.0499997,-2.9399998,5.2999997,-5.69,2.0785124,0,nan,nan,3,0,1,10,0
21782820000,1694493054882077,416055905,-863529570,467461,467461,0.25,0.5,1.0,1.0,0.0,0.0,0,0,6.04,-2.95,5.29,-5.74,2.0800834,0,nan,nan,3,0,1,10,0
21783028000,1694493055086077,416055851,-863529440,468616,468616,0.25,0.5,1.0,1.0,0.0,0.0,0,0,6.04,-2.9299998,5.2799997,-5.68,2.0778143,0,nan,nan,3,0,1,10,0
21783232000,1694493055290077,416055796,-863529310,469775,469775,0.25,0.5,1.0,1.0,0.0,0.0,0,0,6.04,-2.9399998,5.31,-5.69,2.07572,0,nan,nan,3,0,1,10,0
21783596000,1694493055658077,416055698,-863529075,471880,471880,0.25,0.5,1.0,1.0,0.0,0.0,0,0,6.04,-2.98,5.2599998,-5.7,2.0858428,0,nan,nan,3,0,1,10,0
21783808000,1694493055870077,416055642,-863528941,473079,473079,0.25,0.5,1.0,1.0,0.0,0.0,0,0,6.04,-2.9399998,5.2599998,-5.69,2.0807815,0,nan,nan,3,0,1,10,0
21784016000,1694493056074077,416055587,-863528811,474251,474251,0.25,0.5,1.0,1.0,0.0,0.0,0,0,6.04,-2.9399998,5.27,-5.73,2.0804324,0,nan,nan,3,0,1,10,0
21784224000,1694493056286077,416055531,-863528677,475456,475456,0.25,0.5,1.0,1.0,0.0,0.0,0,0,6.04,-2.95,5.2799997,-5.68,2.0807815,0,nan,nan,3,0,1,10,0
21784432000,1694493056494077,416055475,-863528544,476636,476636,0.25,0.5,1.0,1.0,0.0,0.0,0,0,6.04,-2.95,5.2799997,-5.68,2.0807815,0,nan,nan,3,0,1,10,0
21784640000,1694493056702077,416055420,-863528412,477824,477824,0.25,0.5,1.0,1.0,0.0,0.0,0,0,6.04,-2.9399998,5.2599998,-5.67,2.0807815,0,nan,nan,3,0,1,10,0
21785004000,1694493057062077,416055324,-863528183,479885,479885,0.25,0.5,1.0,1.0,0.0,0.0,0,0,6.0299997,-2.9099998,5.2799997,-5.68,2.075371,0,nan,nan,3,0,1,10,0
21785208000,1694493057270077,416055269,-863528050,481069,481069,0.25,0.5,1.0,1.0,0.0,0.0,0,0,6.0299997,-2.9399998,5.24,-5.69,2.0814795,0,nan,nan,3,0,1,10,0
21785420000,1694493057482077,416055212,-863527915,482274,482274,0.25,0.5,1.0,1.0,0.0,0.0,0,0,6.0299997,-2.9299998,5.2599998,-5.71,2.0795596,0,nan,nan,3,0,1,10,0
21785628000,1694493057690077,416055157,-863527783,483460,483460,0.25,0.5,1.0,1.0,0.0,0.0,0,0,6.0299997,-2.9399998,5.2599998,-5.73,2.080956,0,nan,nan,3,0,1,10,0
21785836000,1694493057898077,416055102,-863527651,484643,484643,0.25,0.5,1.0,1.0,0.0,0.0,0,0,6.0299997,-2.95,5.23,-5.69,2.0840976,0,nan,nan,3,0,1,10,0
21786200000,1694493058258077,416055006,-863527423,486692,486692,0.25,0.5,1.0,1.0,0.0,0.0,0,0,6.0299997,-2.96,5.2599998,-5.73,2.0833995,0,nan,nan,3,0,1,10,0
21786408000,1694493058470077,416054950,-863527288,487906,487906,0.25,0.5,1.0,1.0,0.0,0.0,0,0,6.0299997,-2.9399998,5.27,-5.69,2.0793853,0,nan,nan,3,0,1,10,0
21786616000,1694493058674077,416054896,-863527158,489065,489065,0.25,0.5,1.0,1.0,0.0,0.0,0,0,6.0299997,-2.9399998,5.27,-5.67,2.0793853,0,nan,nan,3,0,1,10,0
21786824000,1694493058886077,416054840,-863527024,490272,490272,0.25,0.5,1.0,1.0,0.0,0.0,0,0,6.0299997,-2.9299998,5.25,-5.7,2.0795596,0,nan,nan,3,0,1,10,0
21787032000,1694493059090077,416054786,-863526894,491432,491432,0.25,0.5,1.0,1.0,0.0,0.0,0,0,6.0299997,-2.9299998,5.25,-5.69,2.0804324,0,nan,nan,3,0,1,10,0
21787240000,1694493059298077,416054730,-863526762,492624,492624,0.25,0.5,1.0,1.0,0.0,0.0,0,0,6.0299997,-2.9399998,5.24,-5.71,2.082527,0,nan,nan,3,0,1,10,0
21787604000,1694493059666077,416054632,-863526529,494709,494709,0.25,0.5,1.0,1.0,0.0,0.0,0,0,6.0299997,-2.98,5.25,-5.7,2.086541,0,nan,nan,3,0,1,10,0
21787812000,1694493059874077,416054577,-863526398,495892,495892,0.25,0.5,1.0,1.0,0.0,0.0,0,0,6.0299997,-2.96,5.27,-5.74,2.0830505,0,nan,nan,3,0,1,10,0
21788016000,1694493060082077,416054522,-863526265,497076,497076,0.25,0.5,1.0,1.0,0.0,0.0,0,0,6.0299997,-2.9299998,5.23,-5.67,2.082527,0,nan,nan,3,0,1,10,0
21788228000,1694493060290077,416054467,-863526133,498261,498261,0.25,0.5,1.0,1.0,0.0,0.0,0,0,6.0299997,-2.9399998,5.27,-5.73,2.080258,0,nan,nan,3,0,1,10,0
21788436000,1694493060494077,416054413,-863526003,499437,499437,0.25,0.5,1.0,1.0,0.0,0.0,0,0,6.0299997,-2.96,5.25,-5.68,2.0840976,0,nan,nan,3,0,1,10,0
21788800000,1694493060858077,416054316,-863525772,501514,501514,0.25,0.5,1.0,1.0,0.0,0.0,0,0,6.0299997,-2.9199998,5.2599998,-5.68,2.0774653,0,nan,nan,3,0,1,10,0
21789008000,1694493061066077,416054261,-863525640,502689,502689,0.25,0.5,1.0,1.0,0.0,0.0,0,0,6.0299997,-2.9199998,5.2599998,-5.7,2.0771163,0,nan,nan,3,0,1,10,0
21789216000,1694493061278077,416054204,-863525505,503898,503898,0.25,0.5,1.0,1.0,0.0,0.0,0,0,6.0299997,-2.9299998,5.2599998,-5.7,2.0795596,0,nan,nan,3,0,1,10,0
21789424000,1694493061486077,416054149,-863525373,505090,505090,0.25,0.5,1.0,1.0,0.0,0.0,0,0,6.0299997,-2.9199998,5.27,-5.67,2.07764,0,nan,nan,3,0,1,10,0
21789632000,1694493061690077,416054095,-863525243,506244,506244,0.25,0.5,1.0,1.0,0.0,0.0,0,0,6.0299997,-2.95,5.27,-5.74,2.0821776,0,nan,nan,3,0,1,10,0
21789840000,1694493061902077,416054039,-863525108,507468,507468,0.25,0.5,1.0,1.0,0.0,0.0,0,0,6.0299997,-2.95,5.27,-5.68,2.0811305,0,nan,nan,3,0,1,10,0
21790204000,1694493062262077,416053943,-863524879,509503,509503,0.25,0.5,1.0,1.0,0.0,0.0,0,0,6.0299997,-2.9299998,5.27,-5.68,2.0785124,0,nan,nan,3,0,1,10,0
21790412000,1694493062474077,416053887,-863524745,510702,510702,0.25,0.5,1.0,1.0,0.0,0.0,0,0,6.0299997,-2.9399998,5.25,-5.69,2.081305,0,nan,nan,3,0,1,10,0
21790616000,1694493062678077,416053833,-863524615,511874,511874,0.25,0.5,1.0,1.0,0.0,0.0,0,0,6.0299997,-2.9399998,5.2599998,-5.66,2.080956,0,nan,nan,3,0,1,10,0
21790828000,1694493062886077,416053778,-863524483,513060,513060,0.25,0.5,1.0,1.0,0.0,0.0,0,0,6.0299997,-2.9399998,5.2799997,-5.69,2.0788617,0,nan,nan,3,0,1,10,0
21791036000,1694493063094077,416053723,-863524350,514236,514236,0.25,0.5,1.0,1.0,0.0,0.0,0,0,6.0299997,-2.96,5.25,-5.69,2.0840976,0,nan,nan,3,0,1,10,0
21791400000,1694493063458077,416053627,-863524119,516317,516317,0.25,0.5,1.0,1.0,0.0,0.0,0,0,6.0299997,-2.9199998,5.2799997,-5.69,2.0769417,0,nan,nan,3,0,1,10,0
21791604000,1694493063670077,416053570,-863523984,517519,517519,0.25,0.5,1.0,1.0,0.0,0.0,0,0,6.0299997,-2.9299998,5.2599998,-5.73,2.0795596,0,nan,nan,3,0,1,10,0
21791816000,1694493063878077,416053516,-863523851,518707,518707,0.25,0.5,1.0,1.0,0.0,0.0,0,0,6.0299997,-2.9199998,5.2999997,-5.7,2.0743237,0,nan,nan,3,0,1,10,0
21792020000,1694493064078077,416053463,-863523724,519847,519847,0.25,0.5,1.0,1.0,0.0,0.0,0,0,6.0299997,-2.95,5.27,-5.64,2.080956,0,nan,nan,3,0,1,10,0
21792232000,1694493064294077,416053406,-863523586,521080,521080,0.25,0.5,1.0,1.0,0.0,0.0,0,0,6.0299997,-2.9099998,5.2599998,-5.68,2.0769417,0,nan,nan,3,0,1,10,0
21792436000,1694493064494077,416053353,-863523459,522214,522214,0.25,0.5,1.0,1.0,0.0,0.0,0,0,6.0299997,-2.9199998,5.2799997,-5.71,2.0765927,0,nan,nan,3,0,1,10,0
21792804000,1694493064862077,416053256,-863523226,524307,524307,0.25,0.5,1.0,1.0,0.0,0.0,0,0,6.0299997,-2.9099998,5.29,-5.67,2.0741491,0,nan,nan,3,0,1,10,0
21793012000,1694493065070077,416053201,-863523093,525488,525488,0.25,0.5,1.0,1.0,0.0,0.0,0,0,6.0299997,-2.9299998,5.2999997,-5.67,2.0762436,0,nan,nan,3,0,1,10,0
21793220000,1694493065278077,416053146,-863522961,526666,526666,0.25,0.5,1.0,1.0,0.0,0.0,0,0,6.0299997,-2.9199998,5.2799997,-5.71,2.07572,0,nan,nan,3,0,1,10,0
21793428000,1694493065490077,416053090,-863522825,527875,527875,0.25,0.5,1.0,1.0,0.0,0.0,0,0,6.0299997,-2.9199998,5.2999997,-5.69,2.075022,0,nan,nan,3,0,1,10,0
21793632000,1694493065690077,416053038,-863522699,529023,529023,0.25,0.5,1.0,1.0,0.0,0.0,0,0,6.0299997,-2.9399998,5.27,-5.71,2.080258,0,nan,nan,3,0,1,10,0
21794000000,1694493066062077,416052939,-863522462,531139,531139,0.25,0.5,1.0,1.0,0.0,0.0,0,0,6.0299997,-2.9199998,5.2799997,-5.71,2.075371,0,nan,nan,3,0,1,10,0
21794208000,1694493066266077,416052885,-863522332,532308,532308,0.25,0.5,1.0,1.0,0.0,0.0,0,0,6.04,-2.9099998,5.27,-5.68,2.0751963,0,nan,nan,3,0,1,10,0
21794416000,1694493066478077,416052829,-863522196,533517,533517,0.25,0.5,1.0,1.0,0.0,0.0,0,0,6.0299997,-2.9399998,5.29,-5.69,2.0788617,0,nan,nan,3,0,1,10,0
21794624000,1694493066682077,416052775,-863522066,534684,534684,0.25,0.5,1.0,1.0,0.0,0.0,0,0,6.0299997,-2.9099998,5.27,-5.67,2.07572,0,nan,nan,3,0,1,10,0
21794832000,1694493066890077,416052720,-863521934,535864,535864,0.25,0.5,1.0,1.0,0.0,0.0,0,0,6.0299997,-2.9199998,5.27,-5.69,2.0779889,0,nan,nan,3,0,1,10,0
21795040000,1694493067098077,416052666,-863521801,537053,537053,0.25,0.5,1.0,1.0,0.0,0.0,0,0,6.04,-2.9199998,5.2799997,-5.7,2.0755455,0,nan,nan,3,0,1,10,0
21795404000,1694493067466077,416052568,-863521567,539140,539140,0.25,0.5,1.0,1.0,0.0,0.0,0,0,6.04,-2.9099998,5.2999997,-5.7,2.073451,0,nan,nan,3,0,1,10,0
21795612000,1694493067674077,416052514,-863521434,540324,540324,0.25,0.5,1.0,1.0,0.0,0.0,0,0,6.04,-2.9099998,5.2799997,-5.72,2.0739746,0,nan,nan,3,0,1,10,0
21795820000,1694493067878077,416052460,-863521303,541498,541498,0.25,0.5,1.0,1.0,0.0,0.0,0,0,6.04,-2.9399998,5.31,-5.66,2.0764182,0,nan,nan,3,0,1,10,0
21796028000,1694493068086077,416052405,-863521170,542680,542680,0.25,0.5,1.0,1.0,0.0,0.0,0,0,6.0299997,-2.8999999,5.29,-5.67,2.0729275,0,nan,nan,3,0,1,10,0
21796236000,1694493068298077,416052350,-863521036,543890,543890,0.25,0.5,1.0,1.0,0.0,0.0,0,0,6.0299997,-2.9099998,5.2999997,-5.71,2.072753,0,nan,nan,3,0,1,10,0
21796600000,1694493068658077,416052255,-863520807,545939,545939,0.25,0.5,1.0,1.0,0.0,0.0,0,0,6.0299997,-2.9199998,5.2799997,-5.69,2.0767672,0,nan,nan,3,0,1,10,0
21796808000,1694493068870077,416052199,-863520671,547133,547133,0.25,0.5,1.0,1.0,0.0,0.0,0,0,6.0299997,-2.8999999,5.29,-5.65,2.0718803,0,nan,nan,3,0,1,10,0
21797016000,1694493069074077,416052145,-863520540,548295,548295,0.25,0.5,1.0,1.0,0.0,0.0,0,0,6.0299997,-2.8999999,5.29,-5.7,2.0720549,0,nan,nan,3,0,1,10,0
21797224000,1694493069286077,416052090,-863520406,549506,549506,0.25,0.5,1.0,1.0,0.0,0.0,0,0,6.0299997,-2.9099998,5.2999997,-5.71,2.073102,0,nan,nan,3,0,1,10,0
21797432000,1694493069490077,416052036,-863520276,550669,550669,0.25,0.5,1.0,1.0,0.0,0.0,0,0,6.0299997,-2.9199998,5.2799997,-5.65,2.0758946,0,nan,nan,3,0,1,10,0
21797640000,1694493069702077,416051981,-863520140,551875,551875,0.25,0.5,1.0,1.0,0.0,0.0,0,0,6.0299997,-2.9099998,5.27,-5.69,2.075022,0,nan,nan,3,0,1,10,0
21798004000,1694493070066077,416051885,-863519908,553949,553949,0.25,0.5,1.0,1.0,0.0,0.0,0,0,6.04,-2.9099998,5.2799997,-5.71,2.0751963,0,nan,nan,3,0,1,10,0
21798208000,1694493070270077,416051831,-863519778,555115,555115,0.25,0.5,1.0,1.0,0.0,0.0,0,0,6.04,-2.8999999,5.29,-5.7,2.0722294,0,nan,nan,3,0,1,10,0
21798420000,1694493070478077,416051777,-863519645,556299,556299,0.25,0.5,1.0,1.0,0.0,0.0,0,0,6.0299997,-2.9099998,5.2999997,-5.71,2.073102,0,nan,nan,3,0,1,10,0
21798628000,1694493070686077,416051722,-863519513,557482,557482,0.25,0.5,1.0,1.0,0.0,0.0,0,0,6.0299997,-2.9399998,5.2799997,-5.71,2.0786872,0,nan,nan,3,0,1,10,0
21798836000,1694493070894077,416051667,-863519380,558672,558672,0.25,0.5,1.0,1.0,0.0,0.0,0,0,6.0299997,-2.8999999,5.29,-5.69,2.0725784,0,nan,nan,3,0,1,10,0
21799196000,1694493071258077,416051572,-863519148,560742,560742,0.25,0.5,1.0,1.0,0.0,0.0,0,0,6.04,-2.8899999,5.29,-5.7,2.0710075,0,nan,nan,3,0,1,10,0
21799408000,1694493071470077,416051516,-863519012,561951,561951,0.25,0.5,1.0,1.0,0.0,0.0,0,0,6.04,-2.9099998,5.29,-5.68,2.0746727,0,nan,nan,3,0,1,10,0
21799616000,1694493071674077,416051462,-863518882,563109,563109,0.25,0.5,1.0,1.0,0.0,0.0,0,0,6.0299997,-2.8999999,5.27,-5.7,2.0743237,0,nan,nan,3,0,1,10,0
21799824000,1694493071886077,416051407,-863518746,564326,564326,0.25,0.5,1.0,1.0,0.0,0.0,0,0,6.0299997,-2.8899999,5.29,-5.65,2.0715313,0,nan,nan,3,0,1,10,0
21800032000,1694493072090077,416051353,-863518617,565480,565480,0.25,0.5,1.0,1.0,0.0,0.0,0,0,6.0299997,-2.9199998,5.31,-5.7,2.073451,0,nan,nan,3,0,1,10,0
21800240000,1694493072302077,416051298,-863518481,566680,566680,0.25,0.5,1.0,1.0,0.0,0.0,0,0,6.04,-2.9099998,5.27,-5.7,2.0751963,0,nan,nan,3,0,1,10,0
21800604000,1694493072662077,416051203,-863518251,568732,568732,0.25,0.5,1.0,1.0,0.0,0.0,0,0,6.04,-2.8999999,5.2599998,-5.68,2.0755455,0,nan,nan,3,0,1,10,0
21800812000,1694493072870077,416051148,-863518118,569912,569912,0.25,0.5,1.0,1.0,0.0,0.0,0,0,6.04,-2.8999999,5.2599998,-5.72,2.0744984,0,nan,nan,3,0,1,10,0
21801020000,1694493073082077,416051092,-863517984,571119,571119,0.25,0.5,1.0,1.0,0.0,0.0,0,0,6.04,-2.9299998,5.29,-5.72,2.0772908,0,nan,nan,3,0,1,10,0
21801224000,1694493073290077,416051037,-863517851,572304,572304,0.25,0.5,1.0,1.0,0.0,0.0,0,0,6.0299997,-2.9199998,5.2599998,-5.73,2.0774653,0,nan,nan,3,0,1,10,0
21801436000,1694493073498077,416050982,-863517718,573493,573493,0.25,0.5,1.0,1.0,0.0,0.0,0,0,6.0299997,-2.9099998,5.29,-5.67,2.0732765,0,nan,nan,3,0,1,10,0
21801800000,1694493073858077,416050888,-863517489,575544,575544,0.25,0.5,1.0,1.0,0.0,0.0,0,0,6.0299997,-2.9199998,5.27,-5.6299996,2.0762436,0,nan,nan,3,0,1,10,0
21802008000,1694493074066077,416050833,-863517356,576734,576734,0.25,0.5,1.0,1.0,0.0,0.0,0,0,6.0299997,-2.8899999,5.2799997,-5.72,2.0722294,0,nan,nan,3,0,1,10,0
21802212000,1694493074270077,416050779,-863517227,577898,577898,0.25,0.5,1.0,1.0,0.0,0.0,0,0,6.0299997,-2.9199998,5.27,-5.71,2.0769417,0,nan,nan,3,0,1,10,0
21802424000,1694493074482077,416050723,-863517091,579101,579101,0.25,0.5,1.0,1.0,0.0,0.0,0,0,6.0299997,-2.8999999,5.2799997,-5.77,2.0736256,0,nan,nan,3,0,1,10,0
21802632000,1694493074690077,416050668,-863516958,580279,580279,0.25,0.5,1.0,1.0,0.0,0.0,0,0,6.0299997,-2.9099998,5.27,-5.68,2.0762436,0,nan,nan,3,0,1,10,0
21802836000,1694493074898077,416050614,-863516826,581465,581465,0.25,0.5,1.0,1.0,0.0,0.0,0,0,6.0299997,-2.9099998,5.29,-5.7,2.0744984,0,nan,nan,3,0,1,10,0
21803204000,1694493075266077,416050517,-863516591,583575,583575,0.25,0.5,1.0,1.0,0.0,0.0,0,0,6.0299997,-2.9299998,5.27,-5.71,2.0785124,0,nan,nan,3,0,1,10,0
21803412000,1694493075474077,416050462,-863516460,584754,584754,0.25,0.5,1.0,1.0,0.0,0.0,0,0,6.0299997,-2.9099998,5.2799997,-5.71,2.075022,0,nan,nan,3,0,1,10,0
21803620000,1694493075678077,416050409,-863516329,585915,585915,0.25,0.5,1.0,1.0,0.0,0.0,0,0,6.0299997,-2.8999999,5.2599998,-5.67,2.07572,0,nan,nan,3,0,1,10,0
21803828000,1694493075890077,416050353,-863516194,587120,587120,0.25,0.5,1.0,1.0,0.0,0.0,0,0,6.0299997,-2.9399998,5.29,-5.71,2.0785124,0,nan,nan,3,0,1,10,0
21804036000,1694493076094077,416050299,-863516064,588281,588281,0.25,0.5,1.0,1.0,0.0,0.0,0,0,6.02,-2.8899999,5.27,-5.71,2.073451,0,nan,nan,3,0,1,10,0
21804396000,1694493076462077,416050203,-863515831,590385,590385,0.25,0.5,1.0,1.0,0.0,0.0,0,0,6.02,-2.8899999,5.27,-5.72,2.0729275,0,nan,nan,3,0,1,10,0
21804608000,1694493076666077,416050149,-863515701,591545,591545,0.25,0.5,1.0,1.0,0.0,0.0,0,0,6.0099998,-2.8999999,5.25,-5.68,2.0755455,0,nan,nan,3,0,1,10,0
21804816000,1694493076874077,416050094,-863515569,592732,592732,0.25,0.5,1.0,1.0,0.0,0.0,0,0,6.0099998,-2.9299998,5.2599998,-5.67,2.0788617,0,nan,nan,3,0,1,10,0
21805024000,1694493077086077,416050039,-863515434,593943,593943,0.25,0.5,1.0,1.0,0.0,0.0,0,0,6.0099998,-2.9199998,5.25,-5.67,2.0785124,0,nan,nan,3,0,1,10,0
21805228000,1694493077290077,416049984,-863515305,595110,595110,0.25,0.5,1.0,1.0,0.0,0.0,0,0,6.0099998,-2.9299998,5.2799997,-5.73,2.0772908,0,nan,nan,3,0,1,10,0
21805440000,1694493077502077,416049929,-863515170,596309,596309,0.25,0.5,1.0,1.0,0.0,0.0,0,0,6.0099998,-2.9099998,5.27,-5.72,2.0762436,0,nan,nan,3,0,1,10,0
21805804000,1694493077862077,416049835,-863514941,598355,598355,0.25,0.5,1.0,1.0,0.0,0.0,0,0,6.0099998,-2.9099998,5.27,-5.74,2.0764182,0,nan,nan,3,0,1,10,0
21806012000,1694493078070077,416049780,-863514810,599554,599554,0.25,0.5,1.0,1.0,0.0,0.0,0,0,6.0,-2.8999999,5.25,-5.7,2.076069,0,nan,nan,3,0,1,10,0
21806220000,1694493078278077,416049726,-863514678,600736,600736,0.25,0.5,1.0,1.0,0.0,0.0,0,0,6.0099998,-2.8899999,5.25,-5.69,2.0744984,0,nan,nan,3,0,1,10,0
21806424000,1694493078482077,416049673,-863514548,601894,601894,0.25,0.5,1.0,1.0,0.0,0.0,0,0,6.0,-2.9099998,5.25,-5.69,2.0778143,0,nan,nan,3,0,1,10,0
21806636000,1694493078694077,416049618,-863514415,603030,603030,0.25,0.5,1.0,1.0,0.0,0.0,0,0,5.72,-2.75,5.0299997,-4.64,2.0717058,0,nan,nan,3,0,1,10,0
21807000000,1694493079062077,416049542,-863514216,604194,604194,0.25,0.5,1.0,1.0,0.0,0.0,0,0,4.0299997,-1.64,3.6799998,-2.1299999,1.9896753,0,nan,nan,3,0,1,10,0
21807208000,1694493079266077,416049519,-863514139,604563,604563,0.25,0.5,1.0,1.0,0.0,0.0,0,0,2.82,-1.05,2.6299999,-1.54,1.9497073,0,nan,nan,3,0,1,10,0
21807416000,1694493079478077,416049499,-863514084,604856,604856,0.25,0.5,1.0,1.0,0.0,0.0,0,0,1.9599999,-1.09,1.65,-1.36,2.1572268,0,nan,nan,3,0,1,10,0
21807624000,1694493079682077,416049480,-863514054,605150,605150,0.25,0.5,1.0,1.0,0.0,0.0,0,0,1.26,-0.91999996,0.87,-1.42,2.3848178,0,nan,nan,3,0,1,10,0
21807832000,1694493079894077,416049465,-863514038,605410,605410,0.25,0.5,1.0,1.0,0.0,0.0,0,0,0.74,-0.59999996,0.41,-1.0699999,2.5411992,0,nan,nan,3,0,1,10,0
21808036000,1694493080094077,416049456,-863514032,605610,605610,0.25,0.5,1.0,1.0,0.0,0.0,0,0,0.41,-0.32999998,0.22999999,-0.97999996,2.5286329,0,nan,nan,3,0,1,10,0
21808404000,1694493080462077,416049447,-863514024,605940,605940,0.25,0.5,1.0,1.0,0.0,0.0,0,0,0.26999998,-0.25,0.13,-0.65999997,2.6584854,0,nan,nan,3,0,1,10,0
21808612000,1694493080670077,416049444,-863514023,606048,606048,0.25,0.5,1.0,1.0,0.0,0.0,0,0,0.13,-0.049999997,-0.13,-0.38,4.3123593,0,nan,nan,3,0,1,10,0
21808820000,1694493080882077,416049445,-863514030,606105,606105,0.25,0.5,1.0,1.0,0.0,0.0,0,0,0.5,0.17999999,-0.45,-0.13,5.1071825,0,nan,nan,3,0,1,10,0
21809024000,1694493081086077,416049451,-863514046,606111,606111,0.25,0.5,1.0,1.0,0.0,0.0,0,0,0.89,0.39999998,-0.81,0.02,5.169316,0,nan,nan,3,0,1,10,0
21809236000,1694493081298077,416049460,-863514071,606088,606088,0.25,0.5,1.0,1.0,0.0,0.0,0,0,1.28,0.53,-1.16,0.13,5.144183,0,nan,nan,3,0,1,10,0
21809600000,1694493081658077,416049482,-863514131,605971,605971,0.25,0.5,1.0,1.0,0.0,0.0,0,0,1.74,0.78999996,-1.5699999,0.5,5.1768208,0,nan,nan,3,0,1,10,0
21809808000,1694493081870077,416049498,-863514172,605835,605835,0.25,0.5,1.0,1.0,0.0,0.0,0,0,1.88,0.89,-1.65,0.71,5.2087607,0,nan,nan,3,0,1,10,0
21810016000,1694493082074077,416049516,-863514214,605685,605685,0.25,0.5,1.0,1.0,0.0,0.0,0,0,1.9399999,0.9,-1.7199999,0.75,5.1974163,0,nan,nan,3,0,1,10,0
21810220000,1694493082286077,416049533,-863514260,605521,605521,0.25,0.5,1.0,1.0,0.0,0.0,0,0,1.9599999,0.94,-1.73,0.71999997,5.209633,0,nan,nan,3,0,1,10,0
21810432000,1694493082486077,416049550,-863514300,605375,605375,0.25,0.5,1.0,1.0,0.0,0.0,0,0,1.91,0.9,-1.67,0.81,5.209982,0,nan,nan,3,0,1,10,0
21810640000,1694493082702077,416049568,-863514342,605210,605210,0.25,0.5,1.0,1.0,0.0,0.0,0,0,1.78,0.90999997,-1.54,0.88,5.2469835,0,nan,nan,3,0,1,10,0
21811004000,1694493083062077,416049597,-863514402,604879,604879,0.25,0.5,1.0,1.0,0.0,0.0,0,0,1.4599999,0.84999996,-1.1899999,0.93,5.3319807,0,nan,nan,3,0,1,10,0
21811212000,1694493083270077,416049612,-863514430,604701,604701,0.25,0.5,1.0,1.0,0.0,0.0,0,0,1.3,0.76,-1.04,0.88,5.347863,0,nan,nan,3,0,1,10,0
21811416000,1694493083482077,416049626,-863514455,604512,604512,0.25,0.5,1.0,1.0,0.0,0.0,0,0,1.15,0.65999997,-0.94,0.88,5.323254,0,nan,nan,3,0,1,10,0
21811628000,1694493083686077,416049637,-863514476,604310,604310,0.25,0.5,1.0,1.0,0.0,0.0,0,0,1.02,0.58,-0.82,0.89,5.32849,0,nan,nan,3,0,1,10,0
21811836000,1694493083894077,416049648,-863514496,604119,604119,0.25,0.5,1.0,1.0,0.0,0.0,0,0,0.88,0.52,-0.71,0.94,5.3440237,0,nan,nan,3,0,1,10,0
21812200000,1694493084258077,416049663,-863514523,603788,603788,0.25,0.5,1.0,1.0,0.0,0.0,0,0,0.63,0.38,-0.53,0.90999997,5.3429766,0,nan,nan,3,0,1,10,0
21812408000,1694493084466077,416049670,-863514534,603593,603593,0.25,0.5,1.0,1.0,0.0,0.0,0,0,0.48999998,0.32,-0.39999998,0.94,5.3888783,0,nan,nan,3,0,1,10,0
21812616000,1694493084674077,416049675,-863514542,603393,603393,0.25,0.5,1.0,1.0,0.0,0.0,0,0,0.35999998,0.24,-0.26,0.88,5.463404,0,nan,nan,3,0,1,10,0
21812824000,1694493084886077,416049679,-863514547,603203,603203,0.25,0.5,1.0,1.0,0.0,0.0,0,0,0.24,0.16,-0.17,0.91999996,5.4557247,0,nan,nan,3,0,1,10,0
21813028000,1694493085090077,416049681,-863514551,603018,603018,0.25,0.5,1.0,1.0,0.0,0.0,0,0,0.14,0.11,-0.099999994,0.89,5.5532885,0,nan,nan,3,0,1,10,0
21813240000,1694493085302077,416049683,-863514552,602805,602805,0.25,0.5,1.0,1.0,0.0,0.0,0,0,0.07,0.04,-0.04,0.93,5.476145,0,nan,nan,3,0,1,10,0
21813604000,1694493085662077,416049683,-863514553,602468,602468,0.25,0.5,1.0,1.0,0.0,0.0,0,0,0.01,0.01,0.01,0.91999996,0.94230324,0,nan,nan,3,0,1,10,0
21813812000,1694493085870077,416049683,-863514553,602272,602272,0.25,0.5,1.0,1.0,0.0,0.0,0,0,0.04,-0.04,0.0,0.95,3.0707324,0,nan,nan,3,0,1,10,0
21814020000,1694493086078077,416049682,-863514552,602087,602087,0.25,0.5,1.0,1.0,0.0,0.0,0,0,0.06,-0.03,0.02,0.96999997,2.548006,0,nan,nan,3,0,1,10,0
21814228000,1694493086290077,416049681,-863514551,601888,601888,0.25,0.5,1.0,1.0,0.0,0.0,0,0,0.07,-0.08,0.01,0.94,2.959031,0,nan,nan,3,0,1,10,0
21814432000,1694493086490077,416049680,-863514550,601693,601693,0.25,0.5,1.0,1.0,0.0,0.0,0,0,0.07,-0.08,0.03,0.96999997,2.771059,0,nan,nan,3,0,1,10,0
21814800000,1694493086858077,416049677,-863514549,601339,601339,0.25,0.5,1.0,1.0,0.0,0.0,0,0,0.07,-0.089999996,0.01,1.0,3.027797,0,nan,nan,3,0,1,10,0
21815008000,1694493087070077,416049676,-863514549,601140,601140,0.25,0.5,1.0,1.0,0.0,0.0,0,0,0.07,-0.08,0.0,0.96,3.2210052,0,nan,nan,3,0,1,10,0
21815216000,1694493087274077,416049674,-863514548,600941,600941,0.25,0.5,1.0,1.0,0.0,0.0,0,0,0.06,-0.089999996,0.01,0.96999997,2.9415777,0,nan,nan,3,0,1,10,0
21815424000,1694493087486077,416049673,-863514548,600736,600736,0.25,0.5,1.0,1.0,0.0,0.0,0,0,0.049999997,-0.03,-0.01,0.96,3.5578535,0,nan,nan,3,0,1,10,0
21815632000,1694493087690077,416049672,-863514549,600543,600543,0.25,0.5,1.0,1.0,0.0,0.0,0,0,0.04,-0.03,-0.01,0.93,3.661177,0,nan,nan,3,0,1,10,0
21815840000,1694493087902077,416049672,-863514550,600337,600337,0.25,0.5,1.0,1.0,0.0,0.0,0,0,0.03,-0.03,-0.03,1.0,3.918613,0,nan,nan,3,0,1,10,0
21816204000,1694493088262077,416049672,-863514551,599983,599983,0.25,0.5,1.0,1.0,0.0,0.0,0,0,0.03,-0.02,-0.01,0.95,3.6871824,0,nan,nan,3,0,1,10,0
21816408000,1694493088470077,416049671,-863514551,599779,599779,0.25,0.5,1.0,1.0,0.0,0.0,0,0,0.04,0.0,-0.01,0.96,4.1345105,0,nan,nan,3,0,1,10,0
21816620000,1694493088682077,416049671,-863514553,599557,599557,0.25,0.5,1.0,1.0,0.0,0.0,0,0,0.04,-0.01,-0.03,1.0,4.344997,0,nan,nan,3,0,1,10,0
21816828000,1694493088890077,416049672,-863514554,599356,599356,0.25,0.5,1.0,1.0,0.0,0.0,0,0,0.04,0.01,-0.03,1.01,5.1160836,0,nan,nan,3,0,1,10,0
21817036000,1694493089098077,416049672,-863514555,599155,599155,0.25,0.5,1.0,1.0,0.0,0.0,0,0,0.049999997,0.01,-0.04,0.96,5.098281,0,nan,nan,3,0,1,10,0
21817400000,1694493089462077,416049672,-863514557,598793,598793,0.25,0.5,1.0,1.0,0.0,0.0,0,0,0.049999997,0.01,-0.06,1.02,4.963891,0,nan,nan,3,0,1,10,0
21817608000,1694493089666077,416049673,-863514559,598578,598578,0.25,0.5,1.0,1.0,0.0,0.0,0,0,0.049999997,0.02,-0.06,1.06,5.095663,0,nan,nan,3,0,1,10,0
21817816000,1694493089878077,416049673,-863514560,598370,598370,0.25,0.5,1.0,1.0,0.0,0.0,0,0,0.049999997,0.03,-0.049999997,1.03,5.216789,0,nan,nan,3,0,1,10,0
21818024000,1694493090082077,416049674,-863514561,598168,598168,0.25,0.5,1.0,1.0,0.0,0.0,0,0,0.049999997,0.03,-0.04,1.02,5.3850384,0,nan,nan,3,0,1,10,0
21818232000,1694493090294077,416049675,-863514562,597962,597962,0.25,0.5,1.0,1.0,0.0,0.0,0,0,0.04,0.03,-0.03,0.95,5.473527,0,nan,nan,3,0,1,10,0
21818440000,1694493090498077,416049675,-863514563,597764,597764,0.25,0.5,1.0,1.0,0.0,0.0,0,0,0.04,0.02,-0.049999997,0.97999996,5.0918236,0,nan,nan,3,0,1,10,0
21818804000,1694493090862077,416049676,-863514564,597400,597400,0.25,0.5,1.0,1.0,0.0,0.0,0,0,0.03,0.03,-0.01,1.0,5.8039174,0,nan,nan,3,0,1,10,0
21819012000,1694493091074077,416049676,-863514564,597192,597192,0.25,0.5,1.0,1.0,0.0,0.0,0,0,0.02,0.02,-0.01,1.01,5.627814,0,nan,nan,3,0,1,10,0
21819220000,1694493091278077,416049677,-863514564,596994,596994,0.25,0.5,1.0,1.0,0.0,0.0,0,0,0.02,0.03,0.0,0.97999996,0.30089477,0,nan,nan,3,0,1,10,0
21819428000,1694493091490077,416049678,-863514564,596776,596776,0.25,0.5,1.0,1.0,0.0,0.0,0,0,0.02,0.049999997,0.0,1.0,0.14346607,0,nan,nan,3,0,1,10,0
