timestamp,timestamp_sample,q[0],q[1],q[2],q[3],delta_q_reset[0],delta_q_reset[1],delta_q_reset[2],delta_q_reset[3],quat_reset_counter
21726804000,21726804000,0.8612564,0.0005019974,-0.0031042723,-0.508161,0.9995024,1.4824115e-09,-2.0456684e-10,0.031543788,47
21727300000,21727300000,0.861298,0.0005254819,-0.0030562913,-0.5080907,0.9995024,1.4824115e-09,-2.0456684e-10,0.031543788,47
21727804000,21727804000,0.8613036,0.00056086975,-0.0031896413,-0.5080804,0.9995024,1.4824115e-09,-2.0456684e-10,0.031543788,47
21728304000,21728304000,0.86133325,0.0005608212,-0.003228322,-0.5080299,0.9995024,1.4824115e-09,-2.0456684e-10,0.031543788,47
21728804000,21728804000,0.8613393,0.0006316897,-0.003393283,-0.5080186,0.9995024,1.4824115e-09,-2.0456684e-10,0.031543788,47
21729304000,21729304000,0.8612432,0.0007817041,-0.0035339703,-0.50818026,0.9995024,1.4824115e-09,-2.0456684e-10,0.031543788,47
21729804000,21729804000,0.86122864,0.00095817074,-0.0034421727,-0.5082051,0.9995024,1.4824115e-09,-2.0456684e-10,0.031543788,47
21730300000,21730300000,0.8612091,0.0011537898,-0.003282612,-0.508239,0.9995024,1.4824115e-09,-2.0456684e-10,0.031543788,47
21730800000,21730800000,0.8612885,0.0012408667,-0.0032946155,-0.50810426,0.9995024,1.4824115e-09,-2.0456684e-10,0.031543788,47
21731300000,21731300000,0.86127603,0.0011943829,-0.0033754671,-0.5081248,0.9995024,1.4824115e-09,-2.0456684e-10,0.031543788,47
21731804000,21731804000,0.86122257,0.0013659718,-0.0031564443,-0.5082163,0.9995024,1.4824115e-09,-2.0456684e-10,0.031543788,47
21732300000,21732300000,0.8611055,0.0011782396,-0.0030849911,-0.5084156,0.9995024,1.4824115e-09,-2.0456684e-10,0.031543788,47
21732804000,21732804000,0.86130476,0.0012691951,-0.0031608343,-0.5080772,0.9995024,1.4824115e-09,-2.0456684e-10,0.031543788,47
21733300000,21733300000,0.86141795,0.0012352562,-0.0031899686,-0.5078853,0.9995024,1.4824115e-09,-2.0456684e-10,0.031543788,47
21733804000,21733804000,0.8618013,0.0015256326,-0.0026511191,-0.50723684,0.9995024,1.4824115e-09,-2.0456684e-10,0.031543788,47
21734304000,21734304000,0.8613935,0.00089158176,0.0021478317,-0.5079329,0.9995024,1.4824115e-09,-2.0456684e-10,0.031543788,47
21734800000,21734800000,0.8614203,0.0021365639,-0.0038814866,-0.5078736,0.9995024,1.4824115e-09,-2.0456684e-10,0.031543788,47
21735300000,21735300000,0.8615328,0.002755481,-0.0039818143,-0.5076788,0.9995024,1.4824115e-09,-2.0456684e-10,0.031543788,47
21735804000,21735804000,0.87463576,0.0021554776,-0.0019009336,-0.48477212,0.999355,-1.96083e-10,1.3569713e-10,0.035911392,48
21736300000,21736300000,0.870454,0.0038584922,-0.0009149182,-0.4922338,0.999355,-1.96083e-10,1.3569713e-10,0.035911392,48
21736804000,21736804000,0.867845,0.00381304,0.0005239328,-0.4968201,0.999355,-1.96083e-10,1.3569713e-10,0.035911392,48
21737300000,21737300000,0.86683476,0.0044763857,0.00014458793,-0.49857542,0.999355,-1.96083e-10,1.3569713e-10,0.035911392,48
21737800000,21737800000,0.8660767,0.0060953856,0.0018760165,-0.49987063,0.999355,-1.96083e-10,1.3569713e-10,0.035911392,48
21738300000,21738300000,0.86414635,0.02985777,0.015262835,-0.50212234,0.999355,-1.96083e-10,1.3569713e-10,0.035911392,48
21738804000,21738804000,0.85813916,0.09130811,0.05148285,-0.5026028,0.999355,-1.96083e-10,1.3569713e-10,0.035911392,48
21739300000,21739300000,0.8496826,0.107563816,0.15250097,-0.49316618,0.999355,-1.96083e-10,1.3569713e-10,0.035911392,48
21739804000,21739804000,0.8487914,0.09615036,0.16987613,-0.4913762,0.999355,-1.96083e-10,1.3569713e-10,0.035911392,48
21740304000,21740304000,0.8486371,0.09735158,0.16278617,-0.4938,0.999355,-1.96083e-10,1.3569713e-10,0.035911392,48
21740800000,21740800000,0.84857935,0.09970389,0.16421157,-0.4929574,0.999355,-1.96083e-10,1.3569713e-10,0.035911392,48
21741300000,21741300000,0.8481281,0.101302214,0.16785671,-0.4921797,0.999355,-1.96083e-10,1.3569713e-10,0.035911392,48
21741804000,21741804000,0.84780926,0.10329778,0.17087303,-0.4912754,0.999355,-1.96083e-10,1.3569713e-10,0.035911392,48
21742300000,21742300000,0.84746635,0.10454506,0.17427869,-0.49040627,0.999355,-1.96083e-10,1.3569713e-10,0.035911392,48
21742804000,21742804000,0.8470307,0.105718404,0.17728685,-0.4898285,0.999355,-1.96083e-10,1.3569713e-10,0.035911392,48
21743300000,21743300000,0.84661734,0.1073438,0.17900951,-0.48956317,0.999355,-1.96083e-10,1.3569713e-10,0.035911392,48
21743804000,21743804000,0.84629565,0.10776762,0.18176892,-0.48900908,0.999355,-1.96083e-10,1.3569713e-10,0.035911392,48
21744300000,21744300000,0.8457748,0.10956603,0.18304169,-0.48903587,0.999355,-1.96083e-10,1.3569713e-10,0.035911392,48
21744804000,21744804000,0.8454704,0.10970362,0.18508682,-0.4887615,0.999355,-1.96083e-10,1.3569713e-10,0.035911392,48
21745304000,21745304000,0.84508926,0.11055499,0.18652162,-0.4886833,0.999355,-1.96083e-10,1.3569713e-10,0.035911392,48
21745804000,21745804000,0.8448582,0.11081356,0.18797144,-0.4884687,0.999355,-1.96083e-10,1.3569713e-10,0.035911392,48
21746304000,21746304000,0.84467626,0.11141528,0.18916687,-0.48818514,0.999355,-1.96083e-10,1.3569713e-10,0.035911392,48
21746804000,21746804000,0.844606,0.11198379,0.18983491,-0.4879171,0.999355,-1.96083e-10,1.3569713e-10,0.035911392,48
21747300000,21747300000,0.84442055,0.112571545,0.19073501,-0.4877517,0.999355,-1.96083e-10,1.3569713e-10,0.035911392,48
21747804000,21747804000,0.8445643,0.11206049,0.19182569,-0.48719236,0.999355,-1.96083e-10,1.3569713e-10,0.035911392,48
21748304000,21748304000,0.8442393,0.11286823,0.19247295,-0.48731408,0.999355,-1.96083e-10,1.3569713e-10,0.035911392,48
21748804000,21748804000,0.84416795,0.11306153,0.1927951,-0.48726553,0.999355,-1.96083e-10,1.3569713e-10,0.035911392,48
21749304000,21749304000,0.84416074,0.11353071,0.19329293,-0.4869717,0.999355,-1.96083e-10,1.3569713e-10,0.035911392,48
21749804000,21749804000,0.8441659,0.11279975,0.19416438,-0.48678562,0.999355,-1.96083e-10,1.3569713e-10,0.035911392,48
21750300000,21750300000,0.8439985,0.11407123,0.19388245,-0.48689228,0.999355,-1.96083e-10,1.3569713e-10,0.035911392,48
21750804000,21750804000,0.84398806,0.11367716,0.19449382,-0.48675865,0.999355,-1.96083e-10,1.3569713e-10,0.035911392,48
21751300000,21751300000,0.8438727,0.1131205,0.19519284,-0.48680845,0.999355,-1.96083e-10,1.3569713e-10,0.035911392,48
21751800000,21751800000,0.8436323,0.11406229,0.19513713,-0.48702776,0.999355,-1.96083e-10,1.3569713e-10,0.035911392,48
21752300000,21752300000,0.84375346,0.11376158,0.19538902,-0.48678696,0.999355,-1.96083e-10,1.3569713e-10,0.035911392,48
21752800000,21752800000,0.8437187,0.114010185,0.19554059,-0.48672834,0.999355,-1.96083e-10,1.3569713e-10,0.035911392,48
21753300000,21753300000,0.8436653,0.114250764,0.19535568,-0.48683855,0.999355,-1.96083e-10,1.3569713e-10,0.035911392,48
21753804000,21753804000,0.84358174,0.11431119,0.1956791,-0.48683923,0.999355,-1.96083e-10,1.3569713e-10,0.035911392,48
21754304000,21754304000,0.8434645,0.11452655,0.19564994,-0.48700356,0.999355,-1.96083e-10,1.3569713e-10,0.035911392,48
21754800000,21754800000,0.8434567,0.113972455,0.19607724,-0.4869753,0.999355,-1.96083e-10,1.3569713e-10,0.035911392,48
21755304000,21755304000,0.8434692,0.11429424,0.19554411,-0.4870924,0.999355,-1.96083e-10,1.3569713e-10,0.035911392,48
21755804000,21755804000,0.8434251,0.113793045,0.19624224,-0.48700538,0.999355,-1.96083e-10,1.3569713e-10,0.035911392,48
21756300000,21756300000,0.8432583,0.11442321,0.19602276,-0.48723507,0.999355,-1.96083e-10,1.3569713e-10,0.035911392,48
21756800000,21756800000,0.8432697,0.11481269,0.19565451,-0.48727173,0.999355,-1.96083e-10,1.3569713e-10,0.035911392,48
21757300000,21757300000,0.8432708,0.11445613,0.19607502,-0.48718455,0.999355,-1.96083e-10,1.3569713e-10,0.035911392,48
21757800000,21757800000,0.84318274,0.114773035,0.1957852,-0.4873788,0.999355,-1.96083e-10,1.3569713e-10,0.035911392,48
21758304000,21758304000,0.84327954,0.11455057,0.19580187,-0.4872571,0.999355,-1.96083e-10,1.3569713e-10,0.035911392,48
21758804000,21758804000,0.8431821,0.114527166,0.19597064,-0.48736346,0.999355,-1.96083e-10,1.3569713e-10,0.035911392,48
21759304000,21759304000,0.8431131,0.11465098,0.19589704,-0.48748314,0.999355,-1.96083e-10,1.3569713e-10,0.035911392,48
21759804000,21759804000,0.8431235,0.11502822,0.19588722,-0.4873804,0.999355,-1.96083e-10,1.3569713e-10,0.035911392,48
21760304000,21760304000,0.8432314,0.11408974,0.19620214,-0.48728767,0.999355,-1.96083e-10,1.3569713e-10,0.035911392,48
21760804000,21760804000,0.8431522,0.11453543,0.19605203,-0.4873804,0.999355,-1.96083e-10,1.3569713e-10,0.035911392,48
21761300000,21761300000,0.84308445,0.11487543,0.19613208,-0.48738536,0.999355,-1.96083e-10,1.3569713e-10,0.035911392,48
21761800000,21761800000,0.84301364,0.11494282,0.19606054,-0.48752075,0.999355,-1.96083e-10,1.3569713e-10,0.035911392,48
21762300000,21762300000,0.8430277,0.11512195,0.19588058,-0.48752645,0.999355,-1.96083e-10,1.3569713e-10,0.035911392,48
21762804000,21762804000,0.84304285,0.11471459,0.19626752,-0.4874407,0.999355,-1.96083e-10,1.3569713e-10,0.035911392,48
21763300000,21763300000,0.84309864,0.1147344,0.1960529,-0.4874259,0.999355,-1.96083e-10,1.3569713e-10,0.035911392,48
21763804000,21763804000,0.842965,0.11482475,0.19613615,-0.48760232,0.999355,-1.96083e-10,1.3569713e-10,0.035911392,48
21764300000,21764300000,0.8429017,0.11502738,0.1961884,-0.487643,0.999355,-1.96083e-10,1.3569713e-10,0.035911392,48
21764804000,21764804000,0.8429397,0.11476133,0.19593489,-0.4877417,0.999355,-1.96083e-10,1.3569713e-10,0.035911392,48
21765300000,21765300000,0.8429851,0.11476788,0.19591853,-0.4876685,0.999355,-1.96083e-10,1.3569713e-10,0.035911392,48
21765804000,21765804000,0.84305114,0.11464389,0.19601355,-0.48754516,0.999355,-1.96083e-10,1.3569713e-10,0.035911392,48
21766304000,21766304000,0.84274995,0.11556124,0.19599542,-0.48785645,0.999355,-1.96083e-10,1.3569713e-10,0.035911392,48
21766800000,21766800000,0.84300405,0.11470697,0.19608489,-0.48758304,0.999355,-1.96083e-10,1.3569713e-10,0.035911392,48
21767300000,21767300000,0.84278613,0.11550761,0.19583799,-0.48787,0.999355,-1.96083e-10,1.3569713e-10,0.035911392,48
21767804000,21767804000,0.84289396,0.11479983,0.19654569,-0.4875662,0.999355,-1.96083e-10,1.3569713e-10,0.035911392,48
21768300000,21768300000,0.8427843,0.1153394,0.19614446,-0.48778978,0.999355,-1.96083e-10,1.3569713e-10,0.035911392,48
21768804000,21768804000,0.84288603,0.11526916,0.19624126,-0.48759162,0.999355,-1.96083e-10,1.3569713e-10,0.035911392,48
21769300000,21769300000,0.8429197,0.115248114,0.19600265,-0.4876345,0.999355,-1.96083e-10,1.3569713e-10,0.035911392,48
21769804000,21769804000,0.8430055,0.11448794,0.19639327,-0.48750782,0.999355,-1.96083e-10,1.3569713e-10,0.035911392,48
21770304000,21770304000,0.84290916,0.114933014,0.19637328,-0.48757777,0.999355,-1.96083e-10,1.3569713e-10,0.035911392,48
21770804000,21770804000,0.8429978,0.11480347,0.19608861,-0.48756972,0.999355,-1.96083e-10,1.3569713e-10,0.035911392,48
21771304000,21771304000,0.8429344,0.115064405,0.19614075,-0.48759675,0.999355,-1.96083e-10,1.3569713e-10,0.035911392,48
21771804000,21771804000,0.8428954,0.11504712,0.19625466,-0.48762268,0.999355,-1.96083e-10,1.3569713e-10,0.035911392,48
21772304000,21772304000,0.84283185,0.115222745,0.19628188,-0.48767978,0.999355,-1.96083e-10,1.3569713e-10,0.035911392,48
21772804000,21772804000,0.8428743,0.114920765,0.19631605,-0.48766395,0.999355,-1.96083e-10,1.3569713e-10,0.035911392,48
21773304000,21773304000,0.8427189,0.11549804,0.19615932,-0.48785916,0.999355,-1.96083e-10,1.3569713e-10,0.035911392,48
21773804000,21773804000,0.84278274,0.114784524,0.19642739,-0.48780948,0.999355,-1.96083e-10,1.3569713e-10,0.035911392,48
21774300000,21774300000,0.84281105,0.1150534,0.19619851,-0.4877892,0.999355,-1.96083e-10,1.3569713e-10,0.035911392,48
21774800000,21774800000,0.8429232,0.1147139,0.19641756,-0.48758745,0.999355,-1.96083e-10,1.3569713e-10,0.035911392,48
21775300000,21775300000,0.8427187,0.11554369,0.19609825,-0.48787326,0.999355,-1.96083e-10,1.3569713e-10,0.035911392,48
21775804000,21775804000,0.84277153,0.114852816,0.19654919,-0.48776373,0.999355,-1.96083e-10,1.3569713e-10,0.035911392,48
21776300000,21776300000,0.8428105,0.11492037,0.19643766,-0.48772538,0.999355,-1.96083e-10,1.3569713e-10,0.035911392,48
21776804000,21776804000,0.84286183,0.11537854,0.19619794,-0.48762488,0.999355,-1.96083e-10,1.3569713e-10,0.035911392,48
21777300000,21777300000,0.8426996,0.11548932,0.19652605,-0.48774695,0.999355,-1.96083e-10,1.3569713e-10,0.035911392,48
21777800000,21777800000,0.84275824,0.115693934,0.19612545,-0.48775864,0.999355,-1.96083e-10,1.3569713e-10,0.035911392,48
21778300000,21778300000,0.8428291,0.11530759,0.19619828,-0.48769817,0.999355,-1.96083e-10,1.3569713e-10,0.035911392,48
21778804000,21778804000,0.8429852,0.11479662,0.19651365,-0.48742193,0.999355,-1.96083e-10,1.3569713e-10,0.035911392,48
21779300000,21779300000,0.84270793,0.11569676,0.19622953,-0.48780295,0.999355,-1.96083e-10,1.3569713e-10,0.035911392,48
21779800000,21779800000,0.8427301,0.11500932,0.19663872,-0.4877623,0.999355,-1.96083e-10,1.3569713e-10,0.035911392,48
21780304000,21780304000,0.8427,0.115423664,0.19623709,-0.4878783,0.999355,-1.96083e-10,1.3569713e-10,0.035911392,48
21780800000,21780800000,0.8427257,0.1149855,0.19661994,-0.48778325,0.999355,-1.96083e-10,1.3569713e-10,0.035911392,48
21781304000,21781304000,0.8426329,0.115901254,0.19605194,-0.48795527,0.999355,-1.96083e-10,1.3569713e-10,0.035911392,48
21781804000,21781804000,0.8426712,0.11547351,0.19616306,-0.48794594,0.999355,-1.96083e-10,1.3569713e-10,0.035911392,48
21782304000,21782304000,0.8428866,0.114227034,0.19686304,-0.48758504,0.999355,-1.96083e-10,1.3569713e-10,0.035911392,48
21782804000,21782804000,0.84262156,0.115546204,0.19627695,-0.48796856,0.999355,-1.96083e-10,1.3569713e-10,0.035911392,48
21783304000,21783304000,0.8426752,0.115257256,0.19655375,-0.48783308,0.999355,-1.96083e-10,1.3569713e-10,0.035911392,48
21783804000,21783804000,0.84263384,0.115314215,0.19648619,-0.48791826,0.999355,-1.96083e-10,1.3569713e-10,0.035911392,48
21784304000,21784304000,0.8425625,0.115833275,0.19609483,-0.4880759,0.999355,-1.96083e-10,1.3569713e-10,0.035911392,48
21784800000,21784800000,0.84268093,0.115416326,0.19635183,-0.48786673,0.999355,-1.96083e-10,1.3569713e-10,0.035911392,48
21785300000,21785300000,0.84264237,0.115503736,0.19629915,-0.48793387,0.999355,-1.96083e-10,1.3569713e-10,0.035911392,48
21785800000,21785800000,0.8425736,0.11605509,0.19612956,-0.48798996,0.999355,-1.96083e-10,1.3569713e-10,0.035911392,48
21786304000,21786304000,0.84260106,0.11599588,0.19588384,-0.48805544,0.999355,-1.96083e-10,1.3569713e-10,0.035911392,48
21786804000,21786804000,0.8427516,0.11539681,0.19638778,-0.48773485,0.999355,-1.96083e-10,1.3569713e-10,0.035911392,48
21787304000,21787304000,0.8426937,0.115527414,0.19622621,-0.48786893,0.999355,-1.96083e-10,1.3569713e-10,0.035911392,48
21787804000,21787804000,0.8426321,0.11566491,0.19626933,-0.4879254,0.999355,-1.96083e-10,1.3569713e-10,0.035911392,48
21788304000,21788304000,0.84264934,0.11566666,0.19608817,-0.4879681,0.999355,-1.96083e-10,1.3569713e-10,0.035911392,48
21788804000,21788804000,0.8427072,0.1152813,0.19611044,-0.48795033,0.999355,-1.96083e-10,1.3569713e-10,0.035911392,48
21789304000,21789304000,0.8426742,0.11525502,0.19638632,-0.48790276,0.999355,-1.96083e-10,1.3569713e-10,0.035911392,48
21789804000,21789804000,0.8426788,0.114867285,0.19630978,-0.48801672,0.999355,-1.96083e-10,1.3569713e-10,0.035911392,48
21790304000,21790304000,0.8426446,0.11511363,0.19618279,-0.4880689,0.999355,-1.96083e-10,1.3569713e-10,0.035911392,48
21790800000,21790800000,0.8427339,0.1152334,0.19616507,-0.48789358,0.999355,-1.96083e-10,1.3569713e-10,0.035911392,48
21791304000,21791304000,0.842564,0.11537486,0.19624771,-0.4881202,0.999355,-1.96083e-10,1.3569713e-10,0.035911392,48
21791800000,21791800000,0.84267074,0.11515067,0.19657438,-0.48785734,0.999355,-1.96083e-10,1.3569713e-10,0.035911392,48
21792304000,21792304000,0.84271187,0.11474074,0.19646102,-0.48792878,0.999355,-1.96083e-10,1.3569713e-10,0.035911392,48
21792800000,21792800000,0.8425086,0.11527651,0.19619118,-0.48826167,0.999355,-1.96083e-10,1.3569713e-10,0.035911392,48
21793304000,21793304000,0.8426819,0.11517538,0.19629814,-0.4879437,0.999355,-1.96083e-10,1.3569713e-10,0.035911392,48
21793804000,21793804000,0.84267056,0.11554564,0.19624504,-0.48789695,0.999355,-1.96083e-10,1.3569713e-10,0.035911392,48
21794304000,21794304000,0.8426637,0.11520623,0.19616507,-0.48802125,0.999355,-1.96083e-10,1.3569713e-10,0.035911392,48
21794804000,21794804000,0.8426266,0.11535829,0.19645461,-0.48793292,0.999355,-1.96083e-10,1.3569713e-10,0.035911392,48
21795300000,21795300000,0.842643,0.115324095,0.19612513,-0.4880451,0.999355,-1.96083e-10,1.3569713e-10,0.035911392,48
21795804000,21795804000,0.8425779,0.115227014,0.19612189,-0.48818186,0.999355,-1.96083e-10,1.3569713e-10,0.035911392,48
21796304000,21796304000,0.84254515,0.11487799,0.19654174,-0.48815164,0.999355,-1.96083e-10,1.3569713e-10,0.035911392,48
21796800000,21796800000,0.8426053,0.11546291,0.19610323,-0.4880864,0.999355,-1.96083e-10,1.3569713e-10,0.035911392,48
21797304000,21797304000,0.8425652,0.115552664,0.1963642,-0.4880294,0.999355,-1.96083e-10,1.3569713e-10,0.035911392,48
21797804000,21797804000,0.8425735,0.11535693,0.19611035,-0.48816347,0.999355,-1.96083e-10,1.3569713e-10,0.035911392,48
21798304000,21798304000,0.8425667,0.11532264,0.19607516,-0.48819715,0.999355,-1.96083e-10,1.3569713e-10,0.035911392,48
21798804000,21798804000,0.8426533,0.1150022,0.19643727,-0.4879777,0.999355,-1.96083e-10,1.3569713e-10,0.035911392,48
21799304000,21799304000,0.84256744,0.11477447,0.19643341,-0.48818132,0.999355,-1.96083e-10,1.3569713e-10,0.035911392,48
21799804000,21799804000,0.8425324,0.11579417,0.19586319,-0.48822993,0.999355,-1.96083e-10,1.3569713e-10,0.035911392,48
21800304000,21800304000,0.84261566,0.11522532,0.19642086,-0.48799688,0.999355,-1.96083e-10,1.3569713e-10,0.035911392,48
21800804000,21800804000,0.8425379,0.115885444,0.19598128,-0.48815158,0.999355,-1.96083e-10,1.3569713e-10,0.035911392,48
21801304000,21801304000,0.84266067,0.114959985,0.19651543,-0.48794365,0.999355,-1.96083e-10,1.3569713e-10,0.035911392,48
21801804000,21801804000,0.8425413,0.11625984,0.19571264,-0.48816445,0.999355,-1.96083e-10,1.3569713e-10,0.035911392,48
21802300000,21802300000,0.8425818,0.11543437,0.19650005,-0.48797396,0.999355,-1.96083e-10,1.3569713e-10,0.035911392,48
21802804000,21802804000,0.8425565,0.11530507,0.19633266,-0.4881157,0.999355,-1.96083e-10,1.3569713e-10,0.035911392,48
21803300000,21803300000,0.8424715,0.115852475,0.1963886,-0.48811013,0.999355,-1.96083e-10,1.3569713e-10,0.035911392,48
21803804000,21803804000,0.842783,0.11449338,0.19651197,-0.48784348,0.999355,-1.96083e-10,1.3569713e-10,0.035911392,48
21804304000,21804304000,0.84264326,0.11541172,0.19632187,-0.48794508,0.999355,-1.96083e-10,1.3569713e-10,0.035911392,48
21804800000,21804800000,0.84262884,0.11479958,0.19697668,-0.48785028,0.999355,-1.96083e-10,1.3569713e-10,0.035911392,48
21805304000,21805304000,0.8424573,0.11598185,0.19653441,-0.48804536,0.999355,-1.96083e-10,1.3569713e-10,0.035911392,48
21805800000,21805800000,0.84255,0.115750566,0.19615063,-0.4880944,0.999355,-1.96083e-10,1.3569713e-10,0.035911392,48
21806300000,21806300000,0.84251946,0.11545284,0.1963993,-0.4881177,0.999355,-1.96083e-10,1.3569713e-10,0.035911392,48
21806804000,21806804000,0.8462946,0.010317578,-0.30353633,-0.4376583,0.999355,-1.96083e-10,1.3569713e-10,0.035911392,48
21807300000,21807300000,0.8555792,-0.09933532,0.0020849314,-0.50804776,0.999355,-1.96083e-10,1.3569713e-10,0.035911392,48
21807804000,21807804000,0.86163026,0.0127676055,-0.05650487,-0.50421983,0.999355,-1.96083e-10,1.3569713e-10,0.035911392,48
21808304000,21808304000,0.86174524,-0.021547228,-0.043041315,-0.50505275,0.999355,-1.96083e-10,1.3569713e-10,0.035911392,48
21808804000,21808804000,0.8541134,-0.06703573,-0.12725025,-0.49980378,0.999355,-1.96083e-10,1.3569713e-10,0.035911392,48
21809304000,21809304000,0.8502957,-0.08030872,-0.1481953,-0.49858388,0.999355,-1.96083e-10,1.3569713e-10,0.035911392,48
21809804000,21809804000,0.85583866,-0.069793426,-0.12694916,-0.49654093,0.999355,-1.96083e-10,1.3569713e-10,0.035911392,48
21810300000,21810300000,0.8597441,-0.041334756,-0.103553094,-0.49840584,0.999355,-1.96083e-10,1.3569713e-10,0.035911392,48
21810804000,21810804000,0.86577153,-0.0022270912,-0.061654065,-0.49662212,0.999355,-1.96083e-10,1.3569713e-10,0.035911392,48
21811304000,21811304000,0.8646078,-0.0154786995,-0.035640623,-0.50094265,0.999355,-1.96083e-10,1.3569713e-10,0.035911392,48
21811800000,21811800000,0.8650078,0.0022397854,-0.019488867,-0.50137484,0.999355,-1.96083e-10,1.3569713e-10,0.035911392,48
21812300000,21812300000,0.86481535,0.010706943,0.0034253995,-0.50196415,0.999355,-1.96083e-10,1.3569713e-10,0.035911392,48
21812804000,21812804000,0.8646474,0.012573153,0.014572109,-0.5020105,0.999355,-1.96083e-10,1.3569713e-10,0.035911392,48
21813304000,21813304000,0.8648081,0.010187697,0.014641343,-0.5017857,0.999355,-1.96083e-10,1.3569713e-10,0.035911392,48
21813804000,21813804000,0.86514586,0.006520176,0.0115135,-0.5013458,0.999355,-1.96083e-10,1.3569713e-10,0.035911392,48
21814304000,21814304000,0.8654423,0.0049064425,0.009657281,-0.50089145,0.999355,-1.96083e-10,1.3569713e-10,0.035911392,48
21814804000,21814804000,0.8655685,0.0046538175,0.0047398447,-0.5007466,0.999355,-1.96083e-10,1.3569713e-10,0.035911392,48
21815304000,21815304000,0.8655586,0.0064592464,0.00049737154,-0.5007658,0.999355,-1.96083e-10,1.3569713e-10,0.035911392,48
21815800000,21815800000,0.865654,0.005789298,-0.0014907259,-0.50060713,0.999355,-1.96083e-10,1.3569713e-10,0.035911392,48
21816304000,21816304000,0.8655441,0.0062343027,-0.00084377226,-0.5007934,0.999355,-1.96083e-10,1.3569713e-10,0.035911392,48
21816804000,21816804000,0.8654764,0.006536872,-0.0027920462,-0.5008994,0.999355,-1.96083e-10,1.3569713e-10,0.035911392,48
21817300000,21817300000,0.8654443,0.0076950802,-0.0019518539,-0.5009423,0.999355,-1.96083e-10,1.3569713e-10,0.035911392,48
21817804000,21817804000,0.8655441,0.008168364,-5.54953e-05,-0.5007663,0.999355,-1.96083e-10,1.3569713e-10,0.035911392,48
21818304000,21818304000,0.8654914,0.010093519,0.0011097917,-0.50082076,0.999355,-1.96083e-10,1.3569713e-10,0.035911392,48
21818800000,21818800000,0.86537945,0.010064323,0.0017551805,-0.50101316,0.999355,-1.96083e-10,1.3569713e-10,0.035911392,48
21819300000,21819300000,0.86532086,0.010410032,0.001817803,-0.5011069,0.999355,-1.96083e-10,1.3569713e-10,0.035911392,48
21819804000,21819804000,0.86542434,0.009263842,0.003325547,-0.5009431,0.999355,-1.96083e-10,1.3569713e-10,0.035911392,48
21820304000,21820304000,0.8654228,0.009333628,0.0027148766,-0.500948,0.999355,-1.96083e-10,1.3569713e-10,0.035911392,48
21820800000,21820800000,0.8654695,0.008259543,0.002151865,-0.50088894,0.999355,-1.96083e-10,1.3569713e-10,0.035911392,48
21821304000,21821304000,0.86543757,0.009442993,0.0024633405,-0.5009218,0.999355,-1.96083e-10,1.3569713e-10,0.035911392,48
21821804000,21821804000,0.86547667,0.009142716,0.0011691599,-0.5008645,0.999355,-1.96083e-10,1.3569713e-10,0.035911392,48
21822304000,21822304000,0.8654763,0.009630054,0.0027079305,-0.5008502,0.999355,-1.96083e-10,1.3569713e-10,0.035911392,48
21822804000,21822804000,0.8654849,0.009630572,0.0027766589,-0.50083476,0.999355,-1.96083e-10,1.3569713e-10,0.035911392,48
21823300000,21823300000,0.8654932,0.0095292395,0.004248299,-0.50081205,0.999355,-1.96083e-10,1.3569713e-10,0.035911392,48
21823804000,21823804000,0.8654593,0.009241847,0.004836385,-0.5008706,0.999355,-1.96083e-10,1.3569713e-10,0.035911392,48
21824300000,21824300000,0.8655044,0.009305159,0.004461077,-0.5007951,0.999355,-1.96083e-10,1.3569713e-10,0.035911392,48
21824804000,21824804000,0.865541,0.008504825,0.0034406267,-0.5007541,0.999355,-1.96083e-10,1.3569713e-10,0.035911392,48
21825304000,21825304000,0.86551535,0.006584264,0.0015098954,-0.50083685,0.999355,-1.96083e-10,1.3569713e-10,0.035911392,48
21825800000,21825800000,0.86557543,0.0071426253,0.0009047518,-0.50072676,0.999355,-1.96083e-10,1.3569713e-10,0.035911392,48
21826300000,21826300000,0.8655548,0.008198578,0.00037694856,-0.50074714,0.999355,-1.96083e-10,1.3569713e-10,0.035911392,48
21826804000,21826804000,0.8654781,0.007786797,0.00021673685,-0.5008864,0.999355,-1.96083e-10,1.3569713e-10,0.035911392,48
21827300000,21827300000,0.865508,0.008982657,0.00044080536,-0.5008145,0.999355,-1.96083e-10,1.3569713e-10,0.035911392,48
21827804000,21827804000,0.86548805,0.01037492,-7.21885e-05,-0.50082237,0.999355,-1.96083e-10,1.3569713e-10,0.035911392,48
21828304000,21828304000,0.86548436,0.009515119,0.0015642166,-0.5008431,0.999355,-1.96083e-10,1.3569713e-10,0.035911392,48
21828800000,21828800000,0.8655342,0.010300442,0.0011727229,-0.5007428,0.999355,-1.96083e-10,1.3569713e-10,0.035911392,48
21829304000,21829304000,0.86544627,0.009113789,0.0020237174,-0.50091475,0.999355,-1.96083e-10,1.3569713e-10,0.035911392,48
21829804000,21829804000,0.8654448,0.010798919,0.0016116973,-0.5008854,0.999355,-1.96083e-10,1.3569713e-10,0.035911392,48
21830304000,21830304000,0.8654558,0.011647338,0.0012263949,-0.5008484,0.999355,-1.96083e-10,1.3569713e-10,0.035911392,48
21830800000,21830800000,0.86543596,0.010653871,0.001427257,-0.5009043,0.999355,-1.96083e-10,1.3569713e-10,0.035911392,48
21831304000,21831304000,0.86543965,0.010914054,0.0018991298,-0.50089073,0.999355,-1.96083e-10,1.3569713e-10,0.035911392,48
21831804000,21831804000,0.8653625,0.010562634,0.0010516552,-0.50103396,0.999355,-1.96083e-10,1.3569713e-10,0.035911392,48
21832304000,21832304000,0.8653505,0.011714931,0.0007650291,-0.5010296,0.999355,-1.96083e-10,1.3569713e-10,0.035911392,48
21832804000,21832804000,0.86533505,0.011989246,0.00086049014,-0.50104964,0.999355,-1.96083e-10,1.3569713e-10,0.035911392,48
21833304000,21833304000,0.8653853,0.011292483,0.0013154114,-0.50097805,0.999355,-1.96083e-10,1.3569713e-10,0.035911392,48
21833800000,21833800000,0.86542463,0.010495738,0.0009773073,-0.5009282,0.999355,-1.96083e-10,1.3569713e-10,0.035911392,48
21834304000,21834304000,0.86538845,0.010402715,0.0024898725,-0.50098747,0.999355,-1.96083e-10,1.3569713e-10,0.035911392,48
21834804000,21834804000,0.86553043,0.009607046,0.0009955354,-0.50076324,0.999355,-1.96083e-10,1.3569713e-10,0.035911392,48
21835300000,21835300000,0.86551094,0.009827034,0.00059422903,-0.50079334,0.999355,-1.96083e-10,1.3569713e-10,0.035911392,48
21835800000,21835800000,0.86538094,0.010821451,0.00022606167,-0.5009976,0.999355,-1.96083e-10,1.3569713e-10,0.035911392,48
21836300000,21836300000,0.86540765,0.009718244,0.00022930103,-0.5009741,0.999355,-1.96083e-10,1.3569713e-10,0.035911392,48
21836800000,21836800000,0.86540765,0.008857906,-0.0001394719,-0.5009903,0.999355,-1.96083e-10,1.3569713e-10,0.035911392,48
21837304000,21837304000,0.8654038,0.008720367,-0.0019391759,-0.5009956,0.999355,-1.96083e-10,1.3569713e-10,0.035911392,48
21837804000,21837804000,0.8654151,0.008092533,-0.00045156424,-0.5009901,0.999355,-1.96083e-10,1.3569713e-10,0.035911392,48
21838300000,21838300000,0.86540264,0.008882815,-0.0012487865,-0.500997,0.999355,-1.96083e-10,1.3569713e-10,0.035911392,48
21838804000,21838804000,0.86543465,0.009387696,0.0006514857,-0.5009334,0.999355,-1.96083e-10,1.3569713e-10,0.035911392,48
21839300000,21839300000,0.8653966,0.009658684,0.0007679057,-0.50099385,0.999355,-1.96083e-10,1.3569713e-10,0.035911392,48
21839804000,21839804000,0.86541134,0.0098804515,0.00057788286,-0.5009644,0.999355,-1.96083e-10,1.3569713e-10,0.035911392,48
21840304000,21840304000,0.865392,0.010574703,0.0015710116,-0.5009815,0.999355,-1.96083e-10,1.3569713e-10,0.035911392,48
21840804000,21840804000,0.8653722,0.012647814,0.0014323398,-0.5009682,0.999355,-1.96083e-10,1.3569713e-10,0.035911392,48
21841304000,21841304000,0.86534226,0.012923385,-0.00066973397,-0.50101423,0.999355,-1.96083e-10,1.3569713e-10,0.035911392,48
21841804000,21841804000,0.8652615,0.013796143,-0.00083254225,-0.50113046,0.999355,-1.96083e-10,1.3569713e-10,0.035911392,48
21842304000,21842304000,0.86528623,0.013621163,-0.002666484,-0.5010859,0.999355,-1.96083e-10,1.3569713e-10,0.035911392,48
21842804000,21842804000,0.8652642,0.01276709,-0.001801284,-0.5011504,0.999355,-1.96083e-10,1.3569713e-10,0.035911392,48
21843300000,21843300000,0.86522794,0.011064518,-0.00044770024,-0.5012566,0.999355,-1.96083e-10,1.3569713e-10,0.035911392,48
21843804000,21843804000,0.8653513,0.01061414,0.0001834007,-0.5010533,0.999355,-1.96083e-10,1.3569713e-10,0.035911392,48
21844300000,21844300000,0.865336,0.010821709,0.0017238572,-0.50107235,0.999355,-1.96083e-10,1.3569713e-10,0.035911392,48
21844804000,21844804000,0.8654002,0.011088918,0.0011666423,-0.50095737,0.999355,-1.96083e-10,1.3569713e-10,0.035911392,48
21845304000,21845304000,0.8654324,0.011826074,0.00020994288,-0.5008862,0.999355,-1.96083e-10,1.3569713e-10,0.035911392,48
21845804000,21845804000,0.8654721,0.011510942,0.00017335021,-0.5008248,0.999355,-1.96083e-10,1.3569713e-10,0.035911392,48
21846300000,21846300000,0.86552984,0.011254314,-0.0005509985,-0.50073063,0.999355,-1.96083e-10,1.3569713e-10,0.035911392,48
21846804000,21846804000,0.86555886,0.0096581755,-0.0018291585,-0.50071067,0.999355,-1.96083e-10,1.3569713e-10,0.035911392,48
21847304000,21847304000,0.8655642,0.010454915,-0.0021955522,-0.50068414,0.999355,-1.96083e-10,1.3569713e-10,0.035911392,48
21847804000,21847804000,0.8655654,0.009970338,-0.0026632894,-0.5006895,0.999355,-1.96083e-10,1.3569713e-10,0.035911392,48
21848304000,21848304000,0.86546093,0.009619956,-0.0025914207,-0.5008775,0.999355,-1.96083e-10,1.3569713e-10,0.035911392,48
21848804000,21848804000,0.8655174,0.009482065,-0.0029902405,-0.5007803,0.999355,-1.96083e-10,1.3569713e-10,0.035911392,48
21849300000,21849300000,0.8655163,0.0099579515,-0.002197428,-0.50077707,0.999355,-1.96083e-10,1.3569713e-10,0.035911392,48
21849804000,21849804000,0.86550677,0.011563038,-0.0020772424,-0.5007596,0.999355,-1.96083e-10,1.3569713e-10,0.035911392,48
21850304000,21850304000,0.86545384,0.0103529105,-0.002703861,-0.5008744,0.999355,-1.96083e-10,1.3569713e-10,0.035911392,48
21850800000,21850800000,0.8654837,0.010666433,-0.0032417246,-0.5008131,0.999355,-1.96083e-10,1.3569713e-10,0.035911392,48
