timestamp,noutputs,output[0],output[1],output[2],output[3],output[4],output[5],output[6],output[7],output[8],output[9],output[10],output[11],output[12],output[13],output[14],output[15]
1743177449813379,16,900.0,900.0,900.0,900.0,900.0,900.0,900.0,900.0,900.0,900.0,900.0,900.0,900.0,900.0,900.0,900.0
1743177449817379,16,900.0,900.0,900.0,900.0,900.0,900.0,900.0,900.0,900.0,900.0,900.0,900.0,900.0,900.0,900.0,900.0
1743177449913379,16,900.0,900.0,900.0,900.0,900.0,900.0,900.0,900.0,900.0,900.0,900.0,900.0,900.0,900.0,900.0,900.0
1743177450013379,16,900.0,900.0,900.0,900.0,900.0,900.0,900.0,900.0,900.0,900.0,900.0,900.0,900.0,900.0,900.0,900.0
1743177450113379,16,900.0,900.0,900.0,900.0,900.0,900.0,900.0,900.0,900.0,900.0,900.0,900.0,900.0,900.0,900.0,900.0
1743177450213379,16,900.0,900.0,900.0,900.0,900.0,900.0,900.0,900.0,900.0,900.0,900.0,900.0,900.0,900.0,900.0,900.0
1743177450313379,16,900.0,900.0,900.0,900.0,900.0,900.0,900.0,900.0,900.0,900.0,900.0,900.0,900.0,900.0,900.0,900.0
1743177450413379,16,900.0,900.0,900.0,900.0,900.0,900.0,900.0,900.0,900.0,900.0,900.0,900.0,900.0,900.0,900.0,900.0
1743177450513379,16,900.0,900.0,900.0,900.0,900.0,900.0,900.0,900.0,900.0,900.0,900.0,900.0,900.0,900.0,900.0,900.0
1743177450613379,16,900.0,900.0,900.0,900.0,900.0,900.0,900.0,900.0,900.0,900.0,900.0,900.0,900.0,900.0,900.0,900.0
1743177450713379,16,900.0,900.0,900.0,900.0,900.0,900.0,900.0,900.0,900.0,900.0,900.0,900.0,900.0,900.0,900.0,900.0
1743177450813379,16,900.0,900.0,900.0,900.0,900.0,900.0,900.0,900.0,900.0,900.0,900.0,900.0,900.0,900.0,900.0,900.0
1743177450913379,16,900.0,900.0,900.0,900.0,900.0,900.0,900.0,900.0,900.0,900.0,900.0,900.0,900.0,900.0,900.0,900.0
1743177451013379,16,900.0,900.0,900.0,900.0,900.0,900.0,900.0,900.0,900.0,900.0,900.0,900.0,900.0,900.0,900.0,900.0
1743177451113379,16,900.0,900.0,900.0,900.0,900.0,900.0,900.0,900.0,900.0,900.0,900.0,900.0,900.0,900.0,900.0,900.0
1743177451213379,16,900.0,900.0,900.0,900.0,900.0,900.0,900.0,900.0,900.0,900.0,900.0,900.0,900.0,900.0,900.0,900.0
1743177451313379,16,900.0,900.0,900.0,900.0,900.0,900.0,900.0,900.0,900.0,900.0,900.0,900.0,900.0,900.0,900.0,900.0
1743177451413379,16,900.0,900.0,900.0,900.0,900.0,900.0,900.0,900.0,900.0,900.0,900.0,900.0,900.0,900.0,900.0,900.0
1743177451513379,16,900.0,900.0,900.0,900.0,900.0,900.0,900.0,900.0,900.0,900.0,900.0,900.0,900.0,900.0,900.0,900.0
1743177451613379,16,900.0,900.0,900.0,900.0,900.0,900.0,900.0,900.0,900.0,900.0,900.0,900.0,900.0,900.0,900.0,900.0
1743177451713379,16,900.0,900.0,900.0,900.0,900.0,900.0,900.0,900.0,900.0,900.0,900.0,900.0,900.0,900.0,900.0,900.0
1743177451813379,16,900.0,900.0,900.0,900.0,900.0,900.0,900.0,900.0,900.0,900.0,900.0,900.0,900.0,900.0,900.0,900.0
1743177451913379,16,900.0,900.0,900.0,900.0,900.0,900.0,900.0,900.0,900.0,900.0,900.0,900.0,900.0,900.0,900.0,900.0
1743177452013379,16,900.0,900.0,900.0,900.0,900.0,900.0,900.0,900.0,900.0,900.0,900.0,900.0,900.0,900.0,900.0,900.0
1743177452113379,16,900.0,900.0,900.0,900.0,900.0,900.0,900.0,900.0,900.0,900.0,900.0,900.0,900.0,900.0,900.0,900.0
1743177452213379,16,900.0,900.0,900.0,900.0,900.0,900.0,900.0,900.0,900.0,900.0,900.0,900.0,900.0,900.0,900.0,900.0
1743177452313379,16,900.0,900.0,900.0,900.0,900.0,900.0,900.0,900.0,900.0,900.0,900.0,900.0,900.0,900.0,900.0,900.0
1743177452413379,16,900.0,900.0,900.0,900.0,900.0,900.0,900.0,900.0,900.0,900.0,900.0,900.0,900.0,900.0,900.0,900.0
1743177452513379,16,900.0,900.0,900.0,900.0,900.0,900.0,900.0,900.0,900.0,900.0,900.0,900.0,900.0,900.0,900.0,900.0
1743177452613379,16,900.0,900.0,900.0,900.0,900.0,900.0,900.0,900.0,900.0,900.0,900.0,900.0,900.0,900.0,900.0,900.0
1743177452713379,16,900.0,900.0,900.0,900.0,900.0,900.0,900.0,900.0,900.0,900.0,900.0,900.0,900.0,900.0,900.0,900.0
1743177452813379,16,900.0,900.0,900.0,900.0,900.0,900.0,900.0,900.0,900.0,900.0,900.0,900.0,900.0,900.0,900.0,900.0
1743177452913379,16,900.0,900.0,900.0,900.0,900.0,900.0,900.0,900.0,900.0,900.0,900.0,900.0,900.0,900.0,900.0,900.0
1743177453013379,16,900.0,900.0,900.0,900.0,900.0,900.0,900.0,900.0,900.0,900.0,900.0,900.0,900.0,900.0,900.0,900.0
1743177453113379,16,900.0,900.0,900.0,900.0,900.0,900.0,900.0,900.0,900.0,900.0,900.0,900.0,900.0,900.0,900.0,900.0
1743177453213379,16,900.0,900.0,900.0,900.0,900.0,900.0,900.0,900.0,900.0,900.0,900.0,900.0,900.0,900.0,900.0,900.0
1743177453313379,16,900.0,900.0,900.0,900.0,900.0,900.0,900.0,900.0,900.0,900.0,900.0,900.0,900.0,900.0,900.0,900.0
1743177453413379,16,900.0,900.0,900.0,900.0,900.0,900.0,900.0,900.0,900.0,900.0,900.0,900.0,900.0,900.0,900.0,900.0
1743177453509379,16,900.0,900.0,900.0,900.0,900.0,900.0,900.0,900.0,900.0,900.0,900.0,900.0,900.0,900.0,900.0,900.0
1743177453613379,16,900.0,900.0,900.0,900.0,900.0,900.0,900.0,900.0,900.0,900.0,900.0,900.0,900.0,900.0,900.0,900.0
1743177453713379,16,900.0,900.0,900.0,900.0,900.0,900.0,900.0,900.0,900.0,900.0,900.0,900.0,900.0,900.0,900.0,900.0
1743177453813379,16,900.0,900.0,900.0,900.0,900.0,900.0,900.0,900.0,900.0,900.0,900.0,900.0,900.0,900.0,900.0,900.0
1743177453913379,16,900.0,900.0,900.0,900.0,900.0,900.0,900.0,900.0,900.0,900.0,900.0,900.0,900.0,900.0,900.0,900.0
1743177454013379,16,900.0,900.0,900.0,900.0,900.0,900.0,900.0,900.0,900.0,900.0,900.0,900.0,900.0,900.0,900.0,900.0
1743177454113379,16,900.0,900.0,900.0,900.0,900.0,900.0,900.0,900.0,900.0,900.0,900.0,900.0,900.0,900.0,900.0,900.0
1743177454213379,16,900.0,900.0,900.0,900.0,900.0,900.0,900.0,900.0,900.0,900.0,900.0,900.0,900.0,900.0,900.0,900.0
1743177454313379,16,900.0,900.0,900.0,900.0,900.0,900.0,900.0,900.0,900.0,900.0,900.0,900.0,900.0,900.0,900.0,900.0
1743177454413379,16,900.0,900.0,900.0,900.0,900.0,900.0,900.0,900.0,900.0,900.0,900.0,900.0,900.0,900.0,900.0,900.0
1743177454513379,16,900.0,900.0,900.0,900.0,900.0,900.0,900.0,900.0,900.0,900.0,900.0,900.0,900.0,900.0,900.0,900.0
1743177454613379,16,1002.0,1000.0,1002.0,1000.0,900.0,900.0,900.0,900.0,900.0,900.0,900.0,900.0,900.0,900.0,900.0,900.0
1743177454713379,16,1000.0,1002.0,1000.0,1002.0,900.0,900.0,900.0,900.0,900.0,900.0,900.0,900.0,900.0,900.0,900.0,900.0
1743177454813379,16,1001.0,1001.0,1000.0,1002.0,900.0,900.0,900.0,900.0,900.0,900.0,900.0,900.0,900.0,900.0,900.0,900.0
1743177454913379,16,1000.0,1002.0,1000.0,1002.0,900.0,900.0,900.0,900.0,900.0,900.0,900.0,900.0,900.0,900.0,900.0,900.0
1743177455013379,16,1001.0,1001.0,1002.0,1000.0,900.0,900.0,900.0,900.0,900.0,900.0,900.0,900.0,900.0,900.0,900.0,900.0
1743177455113379,16,1002.0,1001.0,1000.0,1001.0,900.0,900.0,900.0,900.0,900.0,900.0,900.0,900.0,900.0,900.0,900.0,900.0
1743177455213379,16,1000.0,1002.0,1000.0,1002.0,900.0,900.0,900.0,900.0,900.0,900.0,900.0,900.0,900.0,900.0,900.0,900.0
1743177455313379,16,1002.0,1001.0,1001.0,1000.0,900.0,900.0,900.0,900.0,900.0,900.0,900.0,900.0,900.0,900.0,900.0,900.0
1743177455413379,16,1002.0,1000.0,1002.0,1000.0,900.0,900.0,900.0,900.0,900.0,900.0,900.0,900.0,900.0,900.0,900.0,900.0
1743177455513379,16,1002.0,1000.0,1002.0,1000.0,900.0,900.0,900.0,900.0,900.0,900.0,900.0,900.0,900.0,900.0,900.0,900.0
1743177455613379,16,1018.0,1014.0,1015.0,1016.0,900.0,900.0,900.0,900.0,900.0,900.0,900.0,900.0,900.0,900.0,900.0,900.0
1743177455713379,16,1036.0,1029.0,1030.0,1033.0,900.0,900.0,900.0,900.0,900.0,900.0,900.0,900.0,900.0,900.0,900.0,900.0
1743177455813379,16,1056.0,1048.0,1053.0,1052.0,900.0,900.0,900.0,900.0,900.0,900.0,900.0,900.0,900.0,900.0,900.0,900.0
1743177455913379,16,1073.0,1073.0,1070.0,1078.0,900.0,900.0,900.0,900.0,900.0,900.0,900.0,900.0,900.0,900.0,900.0,900.0
1743177456013379,16,1096.0,1100.0,1099.0,1098.0,900.0,900.0,900.0,900.0,900.0,900.0,900.0,900.0,900.0,900.0,900.0,900.0
1743177456113379,16,1124.0,1124.0,1123.0,1123.0,900.0,900.0,900.0,900.0,900.0,900.0,900.0,900.0,900.0,900.0,900.0,900.0
1743177456213379,16,1155.0,1150.0,1154.0,1152.0,900.0,900.0,900.0,900.0,900.0,900.0,900.0,900.0,900.0,900.0,900.0,900.0
1743177456313379,16,1184.0,1185.0,1185.0,1184.0,900.0,900.0,900.0,900.0,900.0,900.0,900.0,900.0,900.0,900.0,900.0,900.0
1743177456413379,16,1210.0,1221.0,1214.0,1219.0,900.0,900.0,900.0,900.0,900.0,900.0,900.0,900.0,900.0,900.0,900.0,900.0
1743177456513379,16,1248.0,1250.0,1247.0,1251.0,900.0,900.0,900.0,900.0,900.0,900.0,900.0,900.0,900.0,900.0,900.0,900.0
1743177456613379,16,1289.0,1286.0,1285.0,1289.0,900.0,900.0,900.0,900.0,900.0,900.0,900.0,900.0,900.0,900.0,900.0,900.0
1743177456713379,16,1326.0,1324.0,1328.0,1323.0,900.0,900.0,900.0,900.0,900.0,900.0,900.0,900.0,900.0,900.0,900.0,900.0
1743177456813379,16,1367.0,1369.0,1368.0,1369.0,900.0,900.0,900.0,900.0,900.0,900.0,900.0,900.0,900.0,900.0,900.0,900.0
1743177456913379,16,1385.0,1385.0,1384.0,1387.0,900.0,900.0,900.0,900.0,900.0,900.0,900.0,900.0,900.0,900.0,900.0,900.0
1743177457013379,16,1399.0,1398.0,1398.0,1397.0,900.0,900.0,900.0,900.0,900.0,900.0,900.0,900.0,900.0,900.0,900.0,900.0
1743177457113379,16,1411.0,1410.0,1410.0,1410.0,900.0,900.0,900.0,900.0,900.0,900.0,900.0,900.0,900.0,900.0,900.0,900.0
1743177457213379,16,1424.0,1424.0,1423.0,1425.0,900.0,900.0,900.0,900.0,900.0,900.0,900.0,900.0,900.0,900.0,900.0,900.0
1743177457313379,16,1435.0,1440.0,1438.0,1436.0,900.0,900.0,900.0,900.0,900.0,900.0,900.0,900.0,900.0,900.0,900.0,900.0
1743177457413379,16,1451.0,1456.0,1453.0,1454.0,900.0,900.0,900.0,900.0,900.0,900.0,900.0,900.0,900.0,900.0,900.0,900.0
1743177457513379,16,1470.0,1465.0,1472.0,1463.0,900.0,900.0,900.0,900.0,900.0,900.0,900.0,900.0,900.0,900.0,900.0,900.0
1743177457613379,16,1484.0,1483.0,1483.0,1485.0,900.0,900.0,900.0,900.0,900.0,900.0,900.0,900.0,900.0,900.0,900.0,900.0
1743177457713379,16,1501.0,1497.0,1501.0,1498.0,900.0,900.0,900.0,900.0,900.0,900.0,900.0,900.0,900.0,900.0,900.0,900.0
1743177457813379,16,1515.0,1519.0,1517.0,1518.0,900.0,900.0,900.0,900.0,900.0,900.0,900.0,900.0,900.0,900.0,900.0,900.0
1743177457913379,16,1532.0,1535.0,1532.0,1535.0,900.0,900.0,900.0,900.0,900.0,900.0,900.0,900.0,900.0,900.0,900.0,900.0
1743177458013379,16,1561.0,1526.0,1549.0,1538.0,900.0,900.0,900.0,900.0,900.0,900.0,900.0,900.0,900.0,900.0,900.0,900.0
1743177458113379,16,1547.0,1529.0,1528.0,1549.0,900.0,900.0,900.0,900.0,900.0,900.0,900.0,900.0,900.0,900.0,900.0,900.0
1743177458213379,16,1537.0,1537.0,1536.0,1539.0,900.0,900.0,900.0,900.0,900.0,900.0,900.0,900.0,900.0,900.0,900.0,900.0
1743177458313379,16,1530.0,1541.0,1535.0,1535.0,900.0,900.0,900.0,900.0,900.0,900.0,900.0,900.0,900.0,900.0,900.0,900.0
1743177458413379,16,1537.0,1536.0,1535.0,1537.0,900.0,900.0,900.0,900.0,900.0,900.0,900.0,900.0,900.0,900.0,900.0,900.0
1743177458513379,16,1535.0,1535.0,1533.0,1535.0,900.0,900.0,900.0,900.0,900.0,900.0,900.0,900.0,900.0,900.0,900.0,900.0
1743177458613379,16,1577.0,1579.0,1578.0,1575.0,900.0,900.0,900.0,900.0,900.0,900.0,900.0,900.0,900.0,900.0,900.0,900.0
1743177458713379,16,1585.0,1587.0,1587.0,1586.0,900.0,900.0,900.0,900.0,900.0,900.0,900.0,900.0,900.0,900.0,900.0,900.0
1743177458813379,16,1591.0,1588.0,1590.0,1590.0,900.0,900.0,900.0,900.0,900.0,900.0,900.0,900.0,900.0,900.0,900.0,900.0
1743177458913379,16,1592.0,1598.0,1594.0,1596.0,900.0,900.0,900.0,900.0,900.0,900.0,900.0,900.0,900.0,900.0,900.0,900.0
1743177459013379,16,1607.0,1600.0,1606.0,1601.0,900.0,900.0,900.0,900.0,900.0,900.0,900.0,900.0,900.0,900.0,900.0,900.0
1743177459113379,16,1615.0,1610.0,1614.0,1610.0,900.0,900.0,900.0,900.0,900.0,900.0,900.0,900.0,900.0,900.0,900.0,900.0
1743177459213379,16,1614.0,1619.0,1616.0,1614.0,900.0,900.0,900.0,900.0,900.0,900.0,900.0,900.0,900.0,900.0,900.0,900.0
1743177459313379,16,1576.0,1578.0,1575.0,1579.0,900.0,900.0,900.0,900.0,900.0,900.0,900.0,900.0,900.0,900.0,900.0,900.0
1743177459413379,16,1553.0,1549.0,1553.0,1549.0,900.0,900.0,900.0,900.0,900.0,900.0,900.0,900.0,900.0,900.0,900.0,900.0
1743177459513379,16,1537.0,1543.0,1541.0,1540.0,900.0,900.0,900.0,900.0,900.0,900.0,900.0,900.0,900.0,900.0,900.0,900.0
1743177459613379,16,1531.0,1535.0,1531.0,1536.0,900.0,900.0,900.0,900.0,900.0,900.0,900.0,900.0,900.0,900.0,900.0,900.0
1743177459713379,16,1528.0,1525.0,1528.0,1527.0,900.0,900.0,900.0,900.0,900.0,900.0,900.0,900.0,900.0,900.0,900.0,900.0
1743177459813379,16,1517.0,1521.0,1516.0,1522.0,900.0,900.0,900.0,900.0,900.0,900.0,900.0,900.0,900.0,900.0,900.0,900.0
1743177459913379,16,1509.0,1512.0,1512.0,1510.0,900.0,900.0,900.0,900.0,900.0,900.0,900.0,900.0,900.0,900.0,900.0,900.0
1743177460013379,16,1520.0,1516.0,1517.0,1517.0,900.0,900.0,900.0,900.0,900.0,900.0,900.0,900.0,900.0,900.0,900.0,900.0
1743177460109379,16,1530.0,1531.0,1529.0,1531.0,900.0,900.0,900.0,900.0,900.0,900.0,900.0,900.0,900.0,900.0,900.0,900.0
1743177460213379,16,1531.0,1539.0,1534.0,1536.0,900.0,900.0,900.0,900.0,900.0,900.0,900.0,900.0,900.0,900.0,900.0,900.0
1743177460313379,16,1540.0,1523.0,1536.0,1528.0,900.0,900.0,900.0,900.0,900.0,900.0,900.0,900.0,900.0,900.0,900.0,900.0
1743177460413379,16,1529.0,1529.0,1529.0,1529.0,900.0,900.0,900.0,900.0,900.0,900.0,900.0,900.0,900.0,900.0,900.0,900.0
1743177460513379,16,1530.0,1526.0,1529.0,1528.0,900.0,900.0,900.0,900.0,900.0,900.0,900.0,900.0,900.0,900.0,900.0,900.0
1743177460613379,16,1528.0,1528.0,1529.0,1525.0,900.0,900.0,900.0,900.0,900.0,900.0,900.0,900.0,900.0,900.0,900.0,900.0
1743177460713379,16,1529.0,1528.0,1525.0,1528.0,900.0,900.0,900.0,900.0,900.0,900.0,900.0,900.0,900.0,900.0,900.0,900.0
1743177460813379,16,1528.0,1526.0,1530.0,1526.0,900.0,900.0,900.0,900.0,900.0,900.0,900.0,900.0,900.0,900.0,900.0,900.0
1743177460913379,16,1524.0,1531.0,1523.0,1533.0,900.0,900.0,900.0,900.0,900.0,900.0,900.0,900.0,900.0,900.0,900.0,900.0
1743177461013379,16,1528.0,1529.0,1527.0,1529.0,900.0,900.0,900.0,900.0,900.0,900.0,900.0,900.0,900.0,900.0,900.0,900.0
1743177461113379,16,1525.0,1531.0,1529.0,1528.0,900.0,900.0,900.0,900.0,900.0,900.0,900.0,900.0,900.0,900.0,900.0,900.0
1743177461213379,16,1526.0,1530.0,1529.0,1529.0,900.0,900.0,900.0,900.0,900.0,900.0,900.0,900.0,900.0,900.0,900.0,900.0
1743177461313379,16,1529.0,1529.0,1529.0,1529.0,900.0,900.0,900.0,900.0,900.0,900.0,900.0,900.0,900.0,900.0,900.0,900.0
1743177461413379,16,1526.0,1530.0,1529.0,1530.0,900.0,900.0,900.0,900.0,900.0,900.0,900.0,900.0,900.0,900.0,900.0,900.0
1743177461513379,16,1531.0,1527.0,1530.0,1531.0,900.0,900.0,900.0,900.0,900.0,900.0,900.0,900.0,900.0,900.0,900.0,900.0
1743177461613379,16,1530.0,1530.0,1532.0,1530.0,900.0,900.0,900.0,900.0,900.0,900.0,900.0,900.0,900.0,900.0,900.0,900.0
1743177461713379,16,1533.0,1527.0,1535.0,1529.0,900.0,900.0,900.0,900.0,900.0,900.0,900.0,900.0,900.0,900.0,900.0,900.0
1743177461813379,16,1530.0,1531.0,1533.0,1533.0,900.0,900.0,900.0,900.0,900.0,900.0,900.0,900.0,900.0,900.0,900.0,900.0
1743177461913379,16,1533.0,1528.0,1536.0,1532.0,900.0,900.0,900.0,900.0,900.0,900.0,900.0,900.0,900.0,900.0,900.0,900.0
1743177462013379,16,1533.0,1529.0,1536.0,1534.0,900.0,900.0,900.0,900.0,900.0,900.0,900.0,900.0,900.0,900.0,900.0,900.0
1743177462113379,16,1535.0,1529.0,1537.0,1534.0,900.0,900.0,900.0,900.0,900.0,900.0,900.0,900.0,900.0,900.0,900.0,900.0
1743177462213379,16,1533.0,1531.0,1536.0,1535.0,900.0,900.0,900.0,900.0,900.0,900.0,900.0,900.0,900.0,900.0,900.0,900.0
1743177462313379,16,1534.0,1532.0,1537.0,1532.0,900.0,900.0,900.0,900.0,900.0,900.0,900.0,900.0,900.0,900.0,900.0,900.0
1743177462413379,16,1531.0,1537.0,1531.0,1538.0,900.0,900.0,900.0,900.0,900.0,900.0,900.0,900.0,900.0,900.0,900.0,900.0
1743177462513379,16,1538.0,1532.0,1536.0,1531.0,900.0,900.0,900.0,900.0,900.0,900.0,900.0,900.0,900.0,900.0,900.0,900.0
1743177462613379,16,1535.0,1538.0,1533.0,1533.0,900.0,900.0,900.0,900.0,900.0,900.0,900.0,900.0,900.0,900.0,900.0,900.0
1743177462713379,16,1536.0,1539.0,1529.0,1533.0,900.0,900.0,900.0,900.0,900.0,900.0,900.0,900.0,900.0,900.0,900.0,900.0
1743177462813379,16,1539.0,1537.0,1530.0,1531.0,900.0,900.0,900.0,900.0,900.0,900.0,900.0,900.0,900.0,900.0,900.0,900.0
1743177462913379,16,1540.0,1536.0,1529.0,1531.0,900.0,900.0,900.0,900.0,900.0,900.0,900.0,900.0,900.0,900.0,900.0,900.0
1743177463013379,16,1540.0,1537.0,1529.0,1530.0,900.0,900.0,900.0,900.0,900.0,900.0,900.0,900.0,900.0,900.0,900.0,900.0
1743177463113379,16,1542.0,1536.0,1534.0,1526.0,900.0,900.0,900.0,900.0,900.0,900.0,900.0,900.0,900.0,900.0,900.0,900.0
1743177463213379,16,1539.0,1537.0,1532.0,1529.0,900.0,900.0,900.0,900.0,900.0,900.0,900.0,900.0,900.0,900.0,900.0,900.0
1743177463313379,16,1539.0,1535.0,1533.0,1529.0,900.0,900.0,900.0,900.0,900.0,900.0,900.0,900.0,900.0,900.0,900.0,900.0
1743177463413379,16,1537.0,1535.0,1532.0,1528.0,900.0,900.0,900.0,900.0,900.0,900.0,900.0,900.0,900.0,900.0,900.0,900.0
1743177463513379,16,1535.0,1535.0,1531.0,1532.0,900.0,900.0,900.0,900.0,900.0,900.0,900.0,900.0,900.0,900.0,900.0,900.0
1743177463613379,16,1532.0,1534.0,1532.0,1535.0,900.0,900.0,900.0,900.0,900.0,900.0,900.0,900.0,900.0,900.0,900.0,900.0
1743177463713379,16,1530.0,1534.0,1533.0,1534.0,900.0,900.0,900.0,900.0,900.0,900.0,900.0,900.0,900.0,900.0,900.0,900.0
1743177463813379,16,1531.0,1532.0,1534.0,1536.0,900.0,900.0,900.0,900.0,900.0,900.0,900.0,900.0,900.0,900.0,900.0,900.0
1743177463913379,16,1531.0,1530.0,1535.0,1537.0,900.0,900.0,900.0,900.0,900.0,900.0,900.0,900.0,900.0,900.0,900.0,900.0
1743177464013379,16,1528.0,1533.0,1533.0,1538.0,900.0,900.0,900.0,900.0,900.0,900.0,900.0,900.0,900.0,900.0,900.0,900.0
1743177464113379,16,1532.0,1529.0,1536.0,1535.0,900.0,900.0,900.0,900.0,900.0,900.0,900.0,900.0,900.0,900.0,900.0,900.0
1743177464213379,16,1531.0,1532.0,1535.0,1536.0,900.0,900.0,900.0,900.0,900.0,900.0,900.0,900.0,900.0,900.0,900.0,900.0
1743177464313379,16,1532.0,1530.0,1536.0,1534.0,900.0,900.0,900.0,900.0,900.0,900.0,900.0,900.0,900.0,900.0,900.0,900.0
1743177464413379,16,1534.0,1530.0,1538.0,1530.0,900.0,900.0,900.0,900.0,900.0,900.0,900.0,900.0,900.0,900.0,900.0,900.0
1743177464513379,16,1535.0,1530.0,1534.0,1534.0,900.0,900.0,900.0,900.0,900.0,900.0,900.0,900.0,900.0,900.0,900.0,900.0
1743177464613379,16,1533.0,1531.0,1536.0,1531.0,900.0,900.0,900.0,900.0,900.0,900.0,900.0,900.0,900.0,900.0,900.0,900.0
1743177464713379,16,1532.0,1534.0,1533.0,1534.0,900.0,900.0,900.0,900.0,900.0,900.0,900.0,900.0,900.0,900.0,900.0,900.0
1743177464813379,16,1532.0,1534.0,1532.0,1532.0,900.0,900.0,900.0,900.0,900.0,900.0,900.0,900.0,900.0,900.0,900.0,900.0
1743177464913379,16,1531.0,1536.0,1529.0,1533.0,900.0,900.0,900.0,900.0,900.0,900.0,900.0,900.0,900.0,900.0,900.0,900.0
1743177465013379,16,1530.0,1521.0,1523.0,1522.0,900.0,900.0,900.0,900.0,900.0,900.0,900.0,900.0,900.0,900.0,900.0,900.0
1743177465113379,16,1510.0,1512.0,1509.0,1506.0,900.0,900.0,900.0,900.0,900.0,900.0,900.0,900.0,900.0,900.0,900.0,900.0
1743177465213379,16,1503.0,1505.0,1502.0,1501.0,900.0,900.0,900.0,900.0,900.0,900.0,900.0,900.0,900.0,900.0,900.0,900.0
1743177465313379,16,1515.0,1519.0,1517.0,1514.0,900.0,900.0,900.0,900.0,900.0,900.0,900.0,900.0,900.0,900.0,900.0,900.0
1743177465413379,16,1531.0,1528.0,1531.0,1530.0,900.0,900.0,900.0,900.0,900.0,900.0,900.0,900.0,900.0,900.0,900.0,900.0
1743177465513379,16,1537.0,1533.0,1534.0,1537.0,900.0,900.0,900.0,900.0,900.0,900.0,900.0,900.0,900.0,900.0,900.0,900.0
1743177465613379,16,1525.0,1526.0,1528.0,1530.0,900.0,900.0,900.0,900.0,900.0,900.0,900.0,900.0,900.0,900.0,900.0,900.0
1743177465713379,16,1501.0,1503.0,1508.0,1505.0,900.0,900.0,900.0,900.0,900.0,900.0,900.0,900.0,900.0,900.0,900.0,900.0
1743177465813379,16,1491.0,1489.0,1494.0,1495.0,900.0,900.0,900.0,900.0,900.0,900.0,900.0,900.0,900.0,900.0,900.0,900.0
1743177465913379,16,1485.0,1490.0,1488.0,1493.0,900.0,900.0,900.0,900.0,900.0,900.0,900.0,900.0,900.0,900.0,900.0,900.0
1743177466013379,16,1487.0,1489.0,1487.0,1492.0,900.0,900.0,900.0,900.0,900.0,900.0,900.0,900.0,900.0,900.0,900.0,900.0
1743177466113379,16,1490.0,1489.0,1489.0,1492.0,900.0,900.0,900.0,900.0,900.0,900.0,900.0,900.0,900.0,900.0,900.0,900.0
1743177466213379,16,1494.0,1488.0,1492.0,1491.0,900.0,900.0,900.0,900.0,900.0,900.0,900.0,900.0,900.0,900.0,900.0,900.0
1743177466313379,16,1494.0,1491.0,1493.0,1491.0,900.0,900.0,900.0,900.0,900.0,900.0,900.0,900.0,900.0,900.0,900.0,900.0
1743177466413379,16,1497.0,1491.0,1495.0,1494.0,900.0,900.0,900.0,900.0,900.0,900.0,900.0,900.0,900.0,900.0,900.0,900.0
1743177466513379,16,1497.0,1494.0,1493.0,1496.0,900.0,900.0,900.0,900.0,900.0,900.0,900.0,900.0,900.0,900.0,900.0,900.0
1743177466613379,16,1494.0,1499.0,1493.0,1498.0,900.0,900.0,900.0,900.0,900.0,900.0,900.0,900.0,900.0,900.0,900.0,900.0
1743177466713379,16,1495.0,1498.0,1497.0,1496.0,900.0,900.0,900.0,900.0,900.0,900.0,900.0,900.0,900.0,900.0,900.0,900.0
1743177466813379,16,1497.0,1496.0,1496.0,1498.0,900.0,900.0,900.0,900.0,900.0,900.0,900.0,900.0,900.0,900.0,900.0,900.0
1743177466913379,16,1498.0,1498.0,1497.0,1499.0,900.0,900.0,900.0,900.0,900.0,900.0,900.0,900.0,900.0,900.0,900.0,900.0
1743177467013379,16,1499.0,1498.0,1499.0,1497.0,900.0,900.0,900.0,900.0,900.0,900.0,900.0,900.0,900.0,900.0,900.0,900.0
1743177467113379,16,1494.0,1504.0,1497.0,1501.0,900.0,900.0,900.0,900.0,900.0,900.0,900.0,900.0,900.0,900.0,900.0,900.0
1743177467213379,16,1499.0,1501.0,1498.0,1502.0,900.0,900.0,900.0,900.0,900.0,900.0,900.0,900.0,900.0,900.0,900.0,900.0
1743177467313379,16,1503.0,1499.0,1501.0,1499.0,900.0,900.0,900.0,900.0,900.0,900.0,900.0,900.0,900.0,900.0,900.0,900.0
1743177467413379,16,1504.0,1500.0,1501.0,1501.0,900.0,900.0,900.0,900.0,900.0,900.0,900.0,900.0,900.0,900.0,900.0,900.0
1743177467513379,16,1504.0,1498.0,1500.0,1501.0,900.0,900.0,900.0,900.0,900.0,900.0,900.0,900.0,900.0,900.0,900.0,900.0
1743177467613379,16,1499.0,1503.0,1498.0,1504.0,900.0,900.0,900.0,900.0,900.0,900.0,900.0,900.0,900.0,900.0,900.0,900.0
1743177467713379,16,1501.0,1502.0,1501.0,1502.0,900.0,900.0,900.0,900.0,900.0,900.0,900.0,900.0,900.0,900.0,900.0,900.0
1743177467813379,16,1507.0,1497.0,1504.0,1499.0,900.0,900.0,900.0,900.0,900.0,900.0,900.0,900.0,900.0,900.0,900.0,900.0
1743177467913379,16,1502.0,1503.0,1503.0,1501.0,900.0,900.0,900.0,900.0,900.0,900.0,900.0,900.0,900.0,900.0,900.0,900.0
1743177468013379,16,1501.0,1502.0,1504.0,1501.0,900.0,900.0,900.0,900.0,900.0,900.0,900.0,900.0,900.0,900.0,900.0,900.0
1743177468113379,16,1504.0,1499.0,1505.0,1503.0,900.0,900.0,900.0,900.0,900.0,900.0,900.0,900.0,900.0,900.0,900.0,900.0
1743177468213379,16,1502.0,1502.0,1505.0,1504.0,900.0,900.0,900.0,900.0,900.0,900.0,900.0,900.0,900.0,900.0,900.0,900.0
1743177468313379,16,1503.0,1503.0,1506.0,1503.0,900.0,900.0,900.0,900.0,900.0,900.0,900.0,900.0,900.0,900.0,900.0,900.0
1743177468413379,16,1504.0,1505.0,1501.0,1506.0,900.0,900.0,900.0,900.0,900.0,900.0,900.0,900.0,900.0,900.0,900.0,900.0
1743177468513379,16,1506.0,1504.0,1503.0,1503.0,900.0,900.0,900.0,900.0,900.0,900.0,900.0,900.0,900.0,900.0,900.0,900.0
1743177468613379,16,1504.0,1506.0,1505.0,1502.0,900.0,900.0,900.0,900.0,900.0,900.0,900.0,900.0,900.0,900.0,900.0,900.0
1743177468713379,16,1506.0,1504.0,1505.0,1503.0,900.0,900.0,900.0,900.0,900.0,900.0,900.0,900.0,900.0,900.0,900.0,900.0
1743177468813379,16,1507.0,1504.0,1507.0,1502.0,900.0,900.0,900.0,900.0,900.0,900.0,900.0,900.0,900.0,900.0,900.0,900.0
1743177468913379,16,1503.0,1508.0,1502.0,1506.0,900.0,900.0,900.0,900.0,900.0,900.0,900.0,900.0,900.0,900.0,900.0,900.0
1743177469013379,16,1504.0,1508.0,1501.0,1508.0,900.0,900.0,900.0,900.0,900.0,900.0,900.0,900.0,900.0,900.0,900.0,900.0
1743177469113379,16,1508.0,1505.0,1507.0,1503.0,900.0,900.0,900.0,900.0,900.0,900.0,900.0,900.0,900.0,900.0,900.0,900.0
1743177469213379,16,1502.0,1510.0,1506.0,1507.0,900.0,900.0,900.0,900.0,900.0,900.0,900.0,900.0,900.0,900.0,900.0,900.0
1743177469313379,16,1508.0,1505.0,1509.0,1505.0,900.0,900.0,900.0,900.0,900.0,900.0,900.0,900.0,900.0,900.0,900.0,900.0
1743177469413379,16,1508.0,1506.0,1507.0,1507.0,900.0,900.0,900.0,900.0,900.0,900.0,900.0,900.0,900.0,900.0,900.0,900.0
1743177469513379,16,1501.0,1514.0,1505.0,1512.0,900.0,900.0,900.0,900.0,900.0,900.0,900.0,900.0,900.0,900.0,900.0,900.0
1743177469613379,16,1508.0,1511.0,1510.0,1509.0,900.0,900.0,900.0,900.0,900.0,900.0,900.0,900.0,900.0,900.0,900.0,900.0
1743177469713379,16,1519.0,1488.0,1499.0,1509.0,900.0,900.0,900.0,900.0,900.0,900.0,900.0,900.0,900.0,900.0,900.0,900.0
1743177469813379,16,1504.0,1506.0,1510.0,1504.0,900.0,900.0,900.0,900.0,900.0,900.0,900.0,900.0,900.0,900.0,900.0,900.0
1743177469913379,16,1502.0,1512.0,1510.0,1506.0,900.0,900.0,900.0,900.0,900.0,900.0,900.0,900.0,900.0,900.0,900.0,900.0
1743177470013379,16,1506.0,1510.0,1514.0,1504.0,900.0,900.0,900.0,900.0,900.0,900.0,900.0,900.0,900.0,900.0,900.0,900.0
1743177470113379,16,1543.0,1559.0,1461.0,1476.0,900.0,900.0,900.0,900.0,900.0,900.0,900.0,900.0,900.0,900.0,900.0,900.0
1743177470213379,16,1563.0,1564.0,1452.0,1466.0,900.0,900.0,900.0,900.0,900.0,900.0,900.0,900.0,900.0,900.0,900.0,900.0
1743177470313379,16,1549.0,1547.0,1474.0,1480.0,900.0,900.0,900.0,900.0,900.0,900.0,900.0,900.0,900.0,900.0,900.0,900.0
1743177470413379,16,1528.0,1523.0,1504.0,1501.0,900.0,900.0,900.0,900.0,900.0,900.0,900.0,900.0,900.0,900.0,900.0,900.0
1743177470513379,16,1507.0,1504.0,1532.0,1523.0,900.0,900.0,900.0,900.0,900.0,900.0,900.0,900.0,900.0,900.0,900.0,900.0
1743177470613379,16,1498.0,1486.0,1552.0,1542.0,900.0,900.0,900.0,900.0,900.0,900.0,900.0,900.0,900.0,900.0,900.0,900.0
1743177470713379,16,1494.0,1484.0,1566.0,1558.0,900.0,900.0,900.0,900.0,900.0,900.0,900.0,900.0,900.0,900.0,900.0,900.0
1743177470813379,16,1494.0,1468.0,1574.0,1544.0,900.0,900.0,900.0,900.0,900.0,900.0,900.0,900.0,900.0,900.0,900.0,900.0
1743177470913379,16,1480.0,1472.0,1557.0,1545.0,900.0,900.0,900.0,900.0,900.0,900.0,900.0,900.0,900.0,900.0,900.0,900.0
1743177471013379,16,1479.0,1479.0,1545.0,1544.0,900.0,900.0,900.0,900.0,900.0,900.0,900.0,900.0,900.0,900.0,900.0,900.0
1743177471113379,16,1487.0,1485.0,1539.0,1533.0,900.0,900.0,900.0,900.0,900.0,900.0,900.0,900.0,900.0,900.0,900.0,900.0
1743177471213379,16,1499.0,1491.0,1524.0,1523.0,900.0,900.0,900.0,900.0,900.0,900.0,900.0,900.0,900.0,900.0,900.0,900.0
1743177471313379,16,1506.0,1503.0,1511.0,1513.0,900.0,900.0,900.0,900.0,900.0,900.0,900.0,900.0,900.0,900.0,900.0,900.0
1743177471413379,16,1515.0,1514.0,1503.0,1499.0,900.0,900.0,900.0,900.0,900.0,900.0,900.0,900.0,900.0,900.0,900.0,900.0
1743177471513379,16,1525.0,1521.0,1492.0,1493.0,900.0,900.0,900.0,900.0,900.0,900.0,900.0,900.0,900.0,900.0,900.0,900.0
1743177471613379,16,1527.0,1531.0,1485.0,1487.0,900.0,900.0,900.0,900.0,900.0,900.0,900.0,900.0,900.0,900.0,900.0,900.0
1743177471713379,16,1534.0,1533.0,1480.0,1484.0,900.0,900.0,900.0,900.0,900.0,900.0,900.0,900.0,900.0,900.0,900.0,900.0
1743177471813379,16,1535.0,1534.0,1483.0,1481.0,900.0,900.0,900.0,900.0,900.0,900.0,900.0,900.0,900.0,900.0,900.0,900.0
1743177471913379,16,1534.0,1533.0,1485.0,1485.0,900.0,900.0,900.0,900.0,900.0,900.0,900.0,900.0,900.0,900.0,900.0,900.0
1743177472013379,16,1522.0,1541.0,1479.0,1499.0,900.0,900.0,900.0,900.0,900.0,900.0,900.0,900.0,900.0,900.0,900.0,900.0
1743177472113379,16,1528.0,1533.0,1488.0,1498.0,900.0,900.0,900.0,900.0,900.0,900.0,900.0,900.0,900.0,900.0,900.0,900.0
1743177472213379,16,1524.0,1531.0,1497.0,1497.0,900.0,900.0,900.0,900.0,900.0,900.0,900.0,900.0,900.0,900.0,900.0,900.0
1743177472313379,16,1524.0,1520.0,1502.0,1505.0,900.0,900.0,900.0,900.0,900.0,900.0,900.0,900.0,900.0,900.0,900.0,900.0
1743177472413379,16,1513.0,1516.0,1512.0,1509.0,900.0,900.0,900.0,900.0,900.0,900.0,900.0,900.0,900.0,900.0,900.0,900.0
1743177472513379,16,1511.0,1502.0,1519.0,1515.0,900.0,900.0,900.0,900.0,900.0,900.0,900.0,900.0,900.0,900.0,900.0,900.0
1743177472613379,16,1505.0,1499.0,1526.0,1526.0,900.0,900.0,900.0,900.0,900.0,900.0,900.0,900.0,900.0,900.0,900.0,900.0
1743177472713379,16,1495.0,1496.0,1531.0,1529.0,900.0,900.0,900.0,900.0,900.0,900.0,900.0,900.0,900.0,900.0,900.0,900.0
1743177472813379,16,1489.0,1492.0,1529.0,1534.0,900.0,900.0,900.0,900.0,900.0,900.0,900.0,900.0,900.0,900.0,900.0,900.0
1743177472913379,16,1489.0,1486.0,1532.0,1530.0,900.0,900.0,900.0,900.0,900.0,900.0,900.0,900.0,900.0,900.0,900.0,900.0
1743177473013379,16,1486.0,1489.0,1528.0,1532.0,900.0,900.0,900.0,900.0,900.0,900.0,900.0,900.0,900.0,900.0,900.0,900.0
1743177473113379,16,1491.0,1490.0,1526.0,1529.0,900.0,900.0,900.0,900.0,900.0,900.0,900.0,900.0,900.0,900.0,900.0,900.0
1743177473213379,16,1497.0,1494.0,1525.0,1522.0,900.0,900.0,900.0,900.0,900.0,900.0,900.0,900.0,900.0,900.0,900.0,900.0
1743177473313379,16,1500.0,1503.0,1520.0,1518.0,900.0,900.0,900.0,900.0,900.0,900.0,900.0,900.0,900.0,900.0,900.0,900.0
1743177473413379,16,1502.0,1505.0,1512.0,1520.0,900.0,900.0,900.0,900.0,900.0,900.0,900.0,900.0,900.0,900.0,900.0,900.0
1743177473513379,16,1454.0,1433.0,1559.0,1571.0,900.0,900.0,900.0,900.0,900.0,900.0,900.0,900.0,900.0,900.0,900.0,900.0
1743177473613379,16,1382.0,1378.0,1626.0,1632.0,900.0,900.0,900.0,900.0,900.0,900.0,900.0,900.0,900.0,900.0,900.0,900.0
1743177473713379,16,1332.0,1342.0,1670.0,1667.0,900.0,900.0,900.0,900.0,900.0,900.0,900.0,900.0,900.0,900.0,900.0,900.0
1743177473813379,16,1304.0,1339.0,1690.0,1663.0,900.0,900.0,900.0,900.0,900.0,900.0,900.0,900.0,900.0,900.0,900.0,900.0
1743177473913379,16,1342.0,1344.0,1652.0,1678.0,900.0,900.0,900.0,900.0,900.0,900.0,900.0,900.0,900.0,900.0,900.0,900.0
1743177474013379,16,1386.0,1373.0,1621.0,1634.0,900.0,900.0,900.0,900.0,900.0,900.0,900.0,900.0,900.0,900.0,900.0,900.0
1743177474113379,16,1428.0,1434.0,1582.0,1586.0,900.0,900.0,900.0,900.0,900.0,900.0,900.0,900.0,900.0,900.0,900.0,900.0
1743177474213379,16,1480.0,1492.0,1545.0,1538.0,900.0,900.0,900.0,900.0,900.0,900.0,900.0,900.0,900.0,900.0,900.0,900.0
1743177474313379,16,1532.0,1542.0,1508.0,1500.0,900.0,900.0,900.0,900.0,900.0,900.0,900.0,900.0,900.0,900.0,900.0,900.0
1743177474413379,16,1568.0,1583.0,1486.0,1467.0,900.0,900.0,900.0,900.0,900.0,900.0,900.0,900.0,900.0,900.0,900.0,900.0
1743177474513379,16,1602.0,1610.0,1464.0,1443.0,900.0,900.0,900.0,900.0,900.0,900.0,900.0,900.0,900.0,900.0,900.0,900.0
1743177474613379,16,1677.0,1674.0,1396.0,1378.0,900.0,900.0,900.0,900.0,900.0,900.0,900.0,900.0,900.0,900.0,900.0,900.0
1743177474713379,16,1745.0,1730.0,1313.0,1322.0,900.0,900.0,900.0,900.0,900.0,900.0,900.0,900.0,900.0,900.0,900.0,900.0
1743177474813379,16,1765.0,1744.0,1264.0,1279.0,900.0,900.0,900.0,900.0,900.0,900.0,900.0,900.0,900.0,900.0,900.0,900.0
1743177474913379,16,1741.0,1736.0,1264.0,1276.0,900.0,900.0,900.0,900.0,900.0,900.0,900.0,900.0,900.0,900.0,900.0,900.0
1743177475013379,16,1697.0,1697.0,1306.0,1306.0,900.0,900.0,900.0,900.0,900.0,900.0,900.0,900.0,900.0,900.0,900.0,900.0
1743177475113379,16,1646.0,1632.0,1374.0,1363.0,900.0,900.0,900.0,900.0,900.0,900.0,900.0,900.0,900.0,900.0,900.0,900.0
1743177475213379,16,1578.0,1566.0,1447.0,1443.0,900.0,900.0,900.0,900.0,900.0,900.0,900.0,900.0,900.0,900.0,900.0,900.0
1743177475313379,16,1515.0,1504.0,1538.0,1510.0,900.0,900.0,900.0,900.0,900.0,900.0,900.0,900.0,900.0,900.0,900.0,900.0
1743177475413379,16,1456.0,1449.0,1601.0,1581.0,900.0,900.0,900.0,900.0,900.0,900.0,900.0,900.0,900.0,900.0,900.0,900.0
1743177475513379,16,1406.0,1407.0,1639.0,1634.0,900.0,900.0,900.0,900.0,900.0,900.0,900.0,900.0,900.0,900.0,900.0,900.0
1743177475613379,16,1379.0,1377.0,1657.0,1655.0,900.0,900.0,900.0,900.0,900.0,900.0,900.0,900.0,900.0,900.0,900.0,900.0
1743177475713379,16,1370.0,1366.0,1658.0,1653.0,900.0,900.0,900.0,900.0,900.0,900.0,900.0,900.0,900.0,900.0,900.0,900.0
1743177475813379,16,1376.0,1376.0,1642.0,1637.0,900.0,900.0,900.0,900.0,900.0,900.0,900.0,900.0,900.0,900.0,900.0,900.0
1743177475913379,16,1399.0,1397.0,1602.0,1620.0,900.0,900.0,900.0,900.0,900.0,900.0,900.0,900.0,900.0,900.0,900.0,900.0
1743177476013379,16,1415.0,1458.0,1564.0,1591.0,900.0,900.0,900.0,900.0,900.0,900.0,900.0,900.0,900.0,900.0,900.0,900.0
1743177476113379,16,1486.0,1482.0,1546.0,1526.0,900.0,900.0,900.0,900.0,900.0,900.0,900.0,900.0,900.0,900.0,900.0,900.0
1743177476213379,16,1526.0,1521.0,1500.0,1498.0,900.0,900.0,900.0,900.0,900.0,900.0,900.0,900.0,900.0,900.0,900.0,900.0
1743177476313379,16,1562.0,1547.0,1474.0,1464.0,900.0,900.0,900.0,900.0,900.0,900.0,900.0,900.0,900.0,900.0,900.0,900.0
1743177476413379,16,1574.0,1574.0,1450.0,1446.0,900.0,900.0,900.0,900.0,900.0,900.0,900.0,900.0,900.0,900.0,900.0,900.0
1743177476513379,16,1579.0,1584.0,1437.0,1439.0,900.0,900.0,900.0,900.0,900.0,900.0,900.0,900.0,900.0,900.0,900.0,900.0
1743177476613379,16,1589.0,1565.0,1453.0,1424.0,900.0,900.0,900.0,900.0,900.0,900.0,900.0,900.0,900.0,900.0,900.0,900.0
1743177476713379,16,1564.0,1562.0,1453.0,1453.0,900.0,900.0,900.0,900.0,900.0,900.0,900.0,900.0,900.0,900.0,900.0,900.0
1743177476813379,16,1545.0,1543.0,1474.0,1473.0,900.0,900.0,900.0,900.0,900.0,900.0,900.0,900.0,900.0,900.0,900.0,900.0
1743177476913379,16,1516.0,1538.0,1497.0,1495.0,900.0,900.0,900.0,900.0,900.0,900.0,900.0,900.0,900.0,900.0,900.0,900.0
1743177477013379,16,1512.0,1512.0,1512.0,1512.0,900.0,900.0,900.0,900.0,900.0,900.0,900.0,900.0,900.0,900.0,900.0,900.0
1743177477113379,16,1500.0,1502.0,1520.0,1527.0,900.0,900.0,900.0,900.0,900.0,900.0,900.0,900.0,900.0,900.0,900.0,900.0
1743177477213379,16,1496.0,1491.0,1533.0,1531.0,900.0,900.0,900.0,900.0,900.0,900.0,900.0,900.0,900.0,900.0,900.0,900.0
1743177477313379,16,1491.0,1488.0,1536.0,1536.0,900.0,900.0,900.0,900.0,900.0,900.0,900.0,900.0,900.0,900.0,900.0,900.0
1743177477413379,16,1495.0,1483.0,1539.0,1536.0,900.0,900.0,900.0,900.0,900.0,900.0,900.0,900.0,900.0,900.0,900.0,900.0
1743177477513379,16,1492.0,1491.0,1538.0,1535.0,900.0,900.0,900.0,900.0,900.0,900.0,900.0,900.0,900.0,900.0,900.0,900.0
1743177477613379,16,1496.0,1493.0,1534.0,1534.0,900.0,900.0,900.0,900.0,900.0,900.0,900.0,900.0,900.0,900.0,900.0,900.0
1743177477713379,16,1498.0,1499.0,1531.0,1529.0,900.0,900.0,900.0,900.0,900.0,900.0,900.0,900.0,900.0,900.0,900.0,900.0
1743177477813379,16,1503.0,1504.0,1527.0,1523.0,900.0,900.0,900.0,900.0,900.0,900.0,900.0,900.0,900.0,900.0,900.0,900.0
1743177477913379,16,1511.0,1507.0,1523.0,1521.0,900.0,900.0,900.0,900.0,900.0,900.0,900.0,900.0,900.0,900.0,900.0,900.0
1743177478013379,16,1514.0,1510.0,1520.0,1513.0,900.0,900.0,900.0,900.0,900.0,900.0,900.0,900.0,900.0,900.0,900.0,900.0
1743177478113379,16,1517.0,1515.0,1517.0,1510.0,900.0,900.0,900.0,900.0,900.0,900.0,900.0,900.0,900.0,900.0,900.0,900.0
1743177478213379,16,1516.0,1521.0,1508.0,1515.0,900.0,900.0,900.0,900.0,900.0,900.0,900.0,900.0,900.0,900.0,900.0,900.0
1743177478313379,16,1524.0,1515.0,1514.0,1508.0,900.0,900.0,900.0,900.0,900.0,900.0,900.0,900.0,900.0,900.0,900.0,900.0
1743177478413379,16,1520.0,1519.0,1511.0,1513.0,900.0,900.0,900.0,900.0,900.0,900.0,900.0,900.0,900.0,900.0,900.0,900.0
1743177478513379,16,1517.0,1518.0,1507.0,1519.0,900.0,900.0,900.0,900.0,900.0,900.0,900.0,900.0,900.0,900.0,900.0,900.0
1743177478613379,16,1516.0,1516.0,1514.0,1516.0,900.0,900.0,900.0,900.0,900.0,900.0,900.0,900.0,900.0,900.0,900.0,900.0
1743177478713379,16,1512.0,1516.0,1522.0,1514.0,900.0,900.0,900.0,900.0,900.0,900.0,900.0,900.0,900.0,900.0,900.0,900.0
1743177478813379,16,1510.0,1512.0,1519.0,1522.0,900.0,900.0,900.0,900.0,900.0,900.0,900.0,900.0,900.0,900.0,900.0,900.0
1743177478913379,16,1509.0,1508.0,1525.0,1520.0,900.0,900.0,900.0,900.0,900.0,900.0,900.0,900.0,900.0,900.0,900.0,900.0
1743177479013379,16,1505.0,1508.0,1527.0,1522.0,900.0,900.0,900.0,900.0,900.0,900.0,900.0,900.0,900.0,900.0,900.0,900.0
1743177479113379,16,1503.0,1510.0,1524.0,1528.0,900.0,900.0,900.0,900.0,900.0,900.0,900.0,900.0,900.0,900.0,900.0,900.0
1743177479213379,16,1508.0,1502.0,1529.0,1526.0,900.0,900.0,900.0,900.0,900.0,900.0,900.0,900.0,900.0,900.0,900.0,900.0
1743177479313379,16,1502.0,1506.0,1525.0,1529.0,900.0,900.0,900.0,900.0,900.0,900.0,900.0,900.0,900.0,900.0,900.0,900.0
1743177479413379,16,1506.0,1503.0,1532.0,1522.0,900.0,900.0,900.0,900.0,900.0,900.0,900.0,900.0,900.0,900.0,900.0,900.0
1743177479513379,16,1500.0,1508.0,1525.0,1529.0,900.0,900.0,900.0,900.0,900.0,900.0,900.0,900.0,900.0,900.0,900.0,900.0
1743177479613379,16,1508.0,1503.0,1530.0,1523.0,900.0,900.0,900.0,900.0,900.0,900.0,900.0,900.0,900.0,900.0,900.0,900.0
1743177479713379,16,1508.0,1503.0,1522.0,1528.0,900.0,900.0,900.0,900.0,900.0,900.0,900.0,900.0,900.0,900.0,900.0,900.0
1743177479813379,16,1510.0,1504.0,1524.0,1524.0,900.0,900.0,900.0,900.0,900.0,900.0,900.0,900.0,900.0,900.0,900.0,900.0
1743177479913379,16,1507.0,1507.0,1523.0,1524.0,900.0,900.0,900.0,900.0,900.0,900.0,900.0,900.0,900.0,900.0,900.0,900.0
1743177480013379,16,1506.0,1507.0,1528.0,1519.0,900.0,900.0,900.0,900.0,900.0,900.0,900.0,900.0,900.0,900.0,900.0,900.0
1743177480113379,16,1504.0,1507.0,1524.0,1524.0,900.0,900.0,900.0,900.0,900.0,900.0,900.0,900.0,900.0,900.0,900.0,900.0
1743177480213379,16,1511.0,1501.0,1528.0,1521.0,900.0,900.0,900.0,900.0,900.0,900.0,900.0,900.0,900.0,900.0,900.0,900.0
1743177480313379,16,1502.0,1509.0,1521.0,1528.0,900.0,900.0,900.0,900.0,900.0,900.0,900.0,900.0,900.0,900.0,900.0,900.0
1743177480413379,16,1505.0,1507.0,1526.0,1522.0,900.0,900.0,900.0,900.0,900.0,900.0,900.0,900.0,900.0,900.0,900.0,900.0
1743177480513379,16,1505.0,1508.0,1522.0,1525.0,900.0,900.0,900.0,900.0,900.0,900.0,900.0,900.0,900.0,900.0,900.0,900.0
1743177480613379,16,1503.0,1509.0,1524.0,1523.0,900.0,900.0,900.0,900.0,900.0,900.0,900.0,900.0,900.0,900.0,900.0,900.0
1743177480713379,16,1504.0,1508.0,1524.0,1524.0,900.0,900.0,900.0,900.0,900.0,900.0,900.0,900.0,900.0,900.0,900.0,900.0
1743177480813379,16,1504.0,1503.0,1525.0,1525.0,900.0,900.0,900.0,900.0,900.0,900.0,900.0,900.0,900.0,900.0,900.0,900.0
1743177480913379,16,1520.0,1518.0,1512.0,1507.0,900.0,900.0,900.0,900.0,900.0,900.0,900.0,900.0,900.0,900.0,900.0,900.0
1743177481013379,16,1557.0,1552.0,1475.0,1474.0,900.0,900.0,900.0,900.0,900.0,900.0,900.0,900.0,900.0,900.0,900.0,900.0
1743177481113379,16,1582.0,1586.0,1444.0,1446.0,900.0,900.0,900.0,900.0,900.0,900.0,900.0,900.0,900.0,900.0,900.0,900.0
1743177481213379,16,1600.0,1593.0,1431.0,1428.0,900.0,900.0,900.0,900.0,900.0,900.0,900.0,900.0,900.0,900.0,900.0,900.0
1743177481313379,16,1592.0,1597.0,1428.0,1429.0,900.0,900.0,900.0,900.0,900.0,900.0,900.0,900.0,900.0,900.0,900.0,900.0
1743177481413379,16,1606.0,1602.0,1433.0,1403.0,900.0,900.0,900.0,900.0,900.0,900.0,900.0,900.0,900.0,900.0,900.0,900.0
1743177481513379,16,1652.0,1659.0,1384.0,1354.0,900.0,900.0,900.0,900.0,900.0,900.0,900.0,900.0,900.0,900.0,900.0,900.0
1743177481613379,16,1688.0,1689.0,1315.0,1346.0,900.0,900.0,900.0,900.0,900.0,900.0,900.0,900.0,900.0,900.0,900.0,900.0
1743177481709379,16,1684.0,1691.0,1285.0,1343.0,900.0,900.0,900.0,900.0,900.0,900.0,900.0,900.0,900.0,900.0,900.0,900.0
1743177481813379,16,1659.0,1671.0,1326.0,1332.0,900.0,900.0,900.0,900.0,900.0,900.0,900.0,900.0,900.0,900.0,900.0,900.0
1743177481913379,16,1637.0,1628.0,1384.0,1352.0,900.0,900.0,900.0,900.0,900.0,900.0,900.0,900.0,900.0,900.0,900.0,900.0
1743177482013379,16,1591.0,1592.0,1431.0,1415.0,900.0,900.0,900.0,900.0,900.0,900.0,900.0,900.0,900.0,900.0,900.0,900.0
1743177482113379,16,1547.0,1551.0,1473.0,1488.0,900.0,900.0,900.0,900.0,900.0,900.0,900.0,900.0,900.0,900.0,900.0,900.0
1743177482213379,16,1513.0,1508.0,1527.0,1541.0,900.0,900.0,900.0,900.0,900.0,900.0,900.0,900.0,900.0,900.0,900.0,900.0
1743177482313379,16,1484.0,1477.0,1568.0,1581.0,900.0,900.0,900.0,900.0,900.0,900.0,900.0,900.0,900.0,900.0,900.0,900.0
1743177482413379,16,1472.0,1448.0,1603.0,1598.0,900.0,900.0,900.0,900.0,900.0,900.0,900.0,900.0,900.0,900.0,900.0,900.0
1743177482513379,16,1452.0,1436.0,1611.0,1609.0,900.0,900.0,900.0,900.0,900.0,900.0,900.0,900.0,900.0,900.0,900.0,900.0
1743177482613379,16,1447.0,1436.0,1614.0,1609.0,900.0,900.0,900.0,900.0,900.0,900.0,900.0,900.0,900.0,900.0,900.0,900.0
1743177482713379,16,1453.0,1449.0,1607.0,1600.0,900.0,900.0,900.0,900.0,900.0,900.0,900.0,900.0,900.0,900.0,900.0,900.0
1743177482813379,16,1467.0,1467.0,1590.0,1586.0,900.0,900.0,900.0,900.0,900.0,900.0,900.0,900.0,900.0,900.0,900.0,900.0
1743177482913379,16,1488.0,1490.0,1569.0,1568.0,900.0,900.0,900.0,900.0,900.0,900.0,900.0,900.0,900.0,900.0,900.0,900.0
1743177483013379,16,1489.0,1490.0,1567.0,1571.0,900.0,900.0,900.0,900.0,900.0,900.0,900.0,900.0,900.0,900.0,900.0,900.0
1743177483113379,16,1446.0,1440.0,1615.0,1615.0,900.0,900.0,900.0,900.0,900.0,900.0,900.0,900.0,900.0,900.0,900.0,900.0
1743177483213379,16,1403.0,1392.0,1661.0,1639.0,900.0,900.0,900.0,900.0,900.0,900.0,900.0,900.0,900.0,900.0,900.0,900.0
1743177483313379,16,1371.0,1374.0,1663.0,1655.0,900.0,900.0,900.0,900.0,900.0,900.0,900.0,900.0,900.0,900.0,900.0,900.0
1743177483413379,16,1373.0,1380.0,1645.0,1643.0,900.0,900.0,900.0,900.0,900.0,900.0,900.0,900.0,900.0,900.0,900.0,900.0
1743177483513379,16,1405.0,1400.0,1616.0,1612.0,900.0,900.0,900.0,900.0,900.0,900.0,900.0,900.0,900.0,900.0,900.0,900.0
1743177483613379,16,1446.0,1441.0,1571.0,1574.0,900.0,900.0,900.0,900.0,900.0,900.0,900.0,900.0,900.0,900.0,900.0,900.0
1743177483713379,16,1494.0,1486.0,1529.0,1528.0,900.0,900.0,900.0,900.0,900.0,900.0,900.0,900.0,900.0,900.0,900.0,900.0
1743177483813379,16,1535.0,1535.0,1485.0,1492.0,900.0,900.0,900.0,900.0,900.0,900.0,900.0,900.0,900.0,900.0,900.0,900.0
1743177483913379,16,1570.0,1565.0,1459.0,1453.0,900.0,900.0,900.0,900.0,900.0,900.0,900.0,900.0,900.0,900.0,900.0,900.0
1743177484013379,16,1585.0,1599.0,1427.0,1444.0,900.0,900.0,900.0,900.0,900.0,900.0,900.0,900.0,900.0,900.0,900.0,900.0
1743177484113379,16,1603.0,1601.0,1424.0,1426.0,900.0,900.0,900.0,900.0,900.0,900.0,900.0,900.0,900.0,900.0,900.0,900.0
1743177484213379,16,1600.0,1599.0,1425.0,1424.0,900.0,900.0,900.0,900.0,900.0,900.0,900.0,900.0,900.0,900.0,900.0,900.0
1743177484313379,16,1585.0,1589.0,1436.0,1432.0,900.0,900.0,900.0,900.0,900.0,900.0,900.0,900.0,900.0,900.0,900.0,900.0
1743177484413379,16,1572.0,1565.0,1455.0,1450.0,900.0,900.0,900.0,900.0,900.0,900.0,900.0,900.0,900.0,900.0,900.0,900.0
1743177484513379,16,1550.0,1543.0,1476.0,1476.0,900.0,900.0,900.0,900.0,900.0,900.0,900.0,900.0,900.0,900.0,900.0,900.0
1743177484613379,16,1524.0,1526.0,1500.0,1498.0,900.0,900.0,900.0,900.0,900.0,900.0,900.0,900.0,900.0,900.0,900.0,900.0
1743177484713379,16,1510.0,1498.0,1528.0,1514.0,900.0,900.0,900.0,900.0,900.0,900.0,900.0,900.0,900.0,900.0,900.0,900.0
1743177484813379,16,1489.0,1482.0,1543.0,1533.0,900.0,900.0,900.0,900.0,900.0,900.0,900.0,900.0,900.0,900.0,900.0,900.0
1743177484913379,16,1474.0,1474.0,1549.0,1551.0,900.0,900.0,900.0,900.0,900.0,900.0,900.0,900.0,900.0,900.0,900.0,900.0
1743177485013379,16,1471.0,1471.0,1557.0,1555.0,900.0,900.0,900.0,900.0,900.0,900.0,900.0,900.0,900.0,900.0,900.0,900.0
1743177485113379,16,1470.0,1476.0,1556.0,1558.0,900.0,900.0,900.0,900.0,900.0,900.0,900.0,900.0,900.0,900.0,900.0,900.0
1743177485213379,16,1474.0,1483.0,1546.0,1559.0,900.0,900.0,900.0,900.0,900.0,900.0,900.0,900.0,900.0,900.0,900.0,900.0
1743177485313379,16,1489.0,1487.0,1541.0,1548.0,900.0,900.0,900.0,900.0,900.0,900.0,900.0,900.0,900.0,900.0,900.0,900.0
1743177485413379,16,1501.0,1498.0,1537.0,1532.0,900.0,900.0,900.0,900.0,900.0,900.0,900.0,900.0,900.0,900.0,900.0,900.0
1743177485513379,16,1512.0,1509.0,1523.0,1524.0,900.0,900.0,900.0,900.0,900.0,900.0,900.0,900.0,900.0,900.0,900.0,900.0
1743177485613379,16,1520.0,1521.0,1516.0,1513.0,900.0,900.0,900.0,900.0,900.0,900.0,900.0,900.0,900.0,900.0,900.0,900.0
1743177485713379,16,1529.0,1528.0,1507.0,1506.0,900.0,900.0,900.0,900.0,900.0,900.0,900.0,900.0,900.0,900.0,900.0,900.0
1743177485813379,16,1534.0,1534.0,1502.0,1501.0,900.0,900.0,900.0,900.0,900.0,900.0,900.0,900.0,900.0,900.0,900.0,900.0
1743177485913379,16,1536.0,1535.0,1503.0,1496.0,900.0,900.0,900.0,900.0,900.0,900.0,900.0,900.0,900.0,900.0,900.0,900.0
1743177486013379,16,1535.0,1536.0,1499.0,1500.0,900.0,900.0,900.0,900.0,900.0,900.0,900.0,900.0,900.0,900.0,900.0,900.0
1743177486113379,16,1529.0,1537.0,1504.0,1500.0,900.0,900.0,900.0,900.0,900.0,900.0,900.0,900.0,900.0,900.0,900.0,900.0
1743177486213379,16,1528.0,1528.0,1508.0,1506.0,900.0,900.0,900.0,900.0,900.0,900.0,900.0,900.0,900.0,900.0,900.0,900.0
1743177486313379,16,1524.0,1522.0,1512.0,1512.0,900.0,900.0,900.0,900.0,900.0,900.0,900.0,900.0,900.0,900.0,900.0,900.0
1743177486413379,16,1517.0,1518.0,1514.0,1521.0,900.0,900.0,900.0,900.0,900.0,900.0,900.0,900.0,900.0,900.0,900.0,900.0
1743177486513379,16,1513.0,1512.0,1523.0,1520.0,900.0,900.0,900.0,900.0,900.0,900.0,900.0,900.0,900.0,900.0,900.0,900.0
1743177486613379,16,1511.0,1506.0,1528.0,1523.0,900.0,900.0,900.0,900.0,900.0,900.0,900.0,900.0,900.0,900.0,900.0,900.0
1743177486713379,16,1508.0,1504.0,1528.0,1528.0,900.0,900.0,900.0,900.0,900.0,900.0,900.0,900.0,900.0,900.0,900.0,900.0
1743177486813379,16,1505.0,1506.0,1527.0,1530.0,900.0,900.0,900.0,900.0,900.0,900.0,900.0,900.0,900.0,900.0,900.0,900.0
1743177486909379,16,1507.0,1505.0,1530.0,1526.0,900.0,900.0,900.0,900.0,900.0,900.0,900.0,900.0,900.0,900.0,900.0,900.0
1743177487013379,16,1508.0,1504.0,1529.0,1525.0,900.0,900.0,900.0,900.0,900.0,900.0,900.0,900.0,900.0,900.0,900.0,900.0
1743177487109379,16,1506.0,1510.0,1526.0,1524.0,900.0,900.0,900.0,900.0,900.0,900.0,900.0,900.0,900.0,900.0,900.0,900.0
1743177487213379,16,1513.0,1507.0,1527.0,1521.0,900.0,900.0,900.0,900.0,900.0,900.0,900.0,900.0,900.0,900.0,900.0,900.0
1743177487313379,16,1515.0,1509.0,1521.0,1522.0,900.0,900.0,900.0,900.0,900.0,900.0,900.0,900.0,900.0,900.0,900.0,900.0
1743177487413379,16,1511.0,1517.0,1516.0,1522.0,900.0,900.0,900.0,900.0,900.0,900.0,900.0,900.0,900.0,900.0,900.0,900.0
1743177487513379,16,1517.0,1513.0,1519.0,1515.0,900.0,900.0,900.0,900.0,900.0,900.0,900.0,900.0,900.0,900.0,900.0,900.0
1743177487613379,16,1519.0,1514.0,1515.0,1516.0,900.0,900.0,900.0,900.0,900.0,900.0,900.0,900.0,900.0,900.0,900.0,900.0
1743177487713379,16,1517.0,1517.0,1512.0,1518.0,900.0,900.0,900.0,900.0,900.0,900.0,900.0,900.0,900.0,900.0,900.0,900.0
1743177487813379,16,1517.0,1516.0,1513.0,1516.0,900.0,900.0,900.0,900.0,900.0,900.0,900.0,900.0,900.0,900.0,900.0,900.0
1743177487913379,16,1516.0,1516.0,1518.0,1513.0,900.0,900.0,900.0,900.0,900.0,900.0,900.0,900.0,900.0,900.0,900.0,900.0
1743177488013379,16,1516.0,1515.0,1517.0,1515.0,900.0,900.0,900.0,900.0,900.0,900.0,900.0,900.0,900.0,900.0,900.0,900.0
1743177488113379,16,1512.0,1516.0,1513.0,1521.0,900.0,900.0,900.0,900.0,900.0,900.0,900.0,900.0,900.0,900.0,900.0,900.0
1743177488213379,16,1509.0,1513.0,1523.0,1516.0,900.0,900.0,900.0,900.0,900.0,900.0,900.0,900.0,900.0,900.0,900.0,900.0
1743177488313379,16,1508.0,1511.0,1519.0,1523.0,900.0,900.0,900.0,900.0,900.0,900.0,900.0,900.0,900.0,900.0,900.0,900.0
1743177488413379,16,1510.0,1506.0,1522.0,1523.0,900.0,900.0,900.0,900.0,900.0,900.0,900.0,900.0,900.0,900.0,900.0,900.0
1743177488513379,16,1514.0,1508.0,1523.0,1517.0,900.0,900.0,900.0,900.0,900.0,900.0,900.0,900.0,900.0,900.0,900.0,900.0
1743177488613379,16,1522.0,1527.0,1506.0,1505.0,900.0,900.0,900.0,900.0,900.0,900.0,900.0,900.0,900.0,900.0,900.0,900.0
1743177488713379,16,1539.0,1537.0,1490.0,1494.0,900.0,900.0,900.0,900.0,900.0,900.0,900.0,900.0,900.0,900.0,900.0,900.0
1743177488813379,16,1550.0,1543.0,1487.0,1481.0,900.0,900.0,900.0,900.0,900.0,900.0,900.0,900.0,900.0,900.0,900.0,900.0
1743177488913379,16,1548.0,1547.0,1484.0,1479.0,900.0,900.0,900.0,900.0,900.0,900.0,900.0,900.0,900.0,900.0,900.0,900.0
1743177489013379,16,1534.0,1532.0,1487.0,1502.0,900.0,900.0,900.0,900.0,900.0,900.0,900.0,900.0,900.0,900.0,900.0,900.0
1743177489113379,16,1467.0,1454.0,1564.0,1576.0,900.0,900.0,900.0,900.0,900.0,900.0,900.0,900.0,900.0,900.0,900.0,900.0
1743177489213379,16,1385.0,1388.0,1639.0,1653.0,900.0,900.0,900.0,900.0,900.0,900.0,900.0,900.0,900.0,900.0,900.0,900.0
1743177489313379,16,1330.0,1336.0,1706.0,1680.0,900.0,900.0,900.0,900.0,900.0,900.0,900.0,900.0,900.0,900.0,900.0,900.0
1743177489413379,16,1289.0,1330.0,1699.0,1694.0,900.0,900.0,900.0,900.0,900.0,900.0,900.0,900.0,900.0,900.0,900.0,900.0
1743177489513379,16,1308.0,1329.0,1680.0,1676.0,900.0,900.0,900.0,900.0,900.0,900.0,900.0,900.0,900.0,900.0,900.0,900.0
1743177489613379,16,1359.0,1358.0,1644.0,1635.0,900.0,900.0,900.0,900.0,900.0,900.0,900.0,900.0,900.0,900.0,900.0,900.0
1743177489713379,16,1478.0,1473.0,1538.0,1529.0,900.0,900.0,900.0,900.0,900.0,900.0,900.0,900.0,900.0,900.0,900.0,900.0
1743177489813379,16,1617.0,1607.0,1423.0,1412.0,900.0,900.0,900.0,900.0,900.0,900.0,900.0,900.0,900.0,900.0,900.0,900.0
1743177489913379,16,1724.0,1707.0,1333.0,1316.0,900.0,900.0,900.0,900.0,900.0,900.0,900.0,900.0,900.0,900.0,900.0,900.0
1743177490013379,16,1780.0,1730.0,1268.0,1243.0,900.0,900.0,900.0,900.0,900.0,900.0,900.0,900.0,900.0,900.0,900.0,900.0
1743177490113379,16,1756.0,1743.0,1227.0,1235.0,900.0,900.0,900.0,900.0,900.0,900.0,900.0,900.0,900.0,900.0,900.0,900.0
1743177490213379,16,1713.0,1713.0,1248.0,1251.0,900.0,900.0,900.0,900.0,900.0,900.0,900.0,900.0,900.0,900.0,900.0,900.0
1743177490313379,16,1654.0,1662.0,1291.0,1316.0,900.0,900.0,900.0,900.0,900.0,900.0,900.0,900.0,900.0,900.0,900.0,900.0
1743177490413379,16,1594.0,1597.0,1381.0,1385.0,900.0,900.0,900.0,900.0,900.0,900.0,900.0,900.0,900.0,900.0,900.0,900.0
1743177490513379,16,1526.0,1533.0,1475.0,1475.0,900.0,900.0,900.0,900.0,900.0,900.0,900.0,900.0,900.0,900.0,900.0,900.0
1743177490613379,16,1465.0,1470.0,1564.0,1558.0,900.0,900.0,900.0,900.0,900.0,900.0,900.0,900.0,900.0,900.0,900.0,900.0
1743177490713379,16,1413.0,1415.0,1631.0,1621.0,900.0,900.0,900.0,900.0,900.0,900.0,900.0,900.0,900.0,900.0,900.0,900.0
1743177490813379,16,1353.0,1392.0,1660.0,1669.0,900.0,900.0,900.0,900.0,900.0,900.0,900.0,900.0,900.0,900.0,900.0,900.0
1743177490913379,16,1338.0,1364.0,1673.0,1678.0,900.0,900.0,900.0,900.0,900.0,900.0,900.0,900.0,900.0,900.0,900.0,900.0
1743177491013379,16,1355.0,1355.0,1662.0,1664.0,900.0,900.0,900.0,900.0,900.0,900.0,900.0,900.0,900.0,900.0,900.0,900.0
1743177491113379,16,1387.0,1377.0,1631.0,1634.0,900.0,900.0,900.0,900.0,900.0,900.0,900.0,900.0,900.0,900.0,900.0,900.0
1743177491213379,16,1430.0,1422.0,1589.0,1593.0,900.0,900.0,900.0,900.0,900.0,900.0,900.0,900.0,900.0,900.0,900.0,900.0
1743177491313379,16,1476.0,1476.0,1549.0,1544.0,900.0,900.0,900.0,900.0,900.0,900.0,900.0,900.0,900.0,900.0,900.0,900.0
1743177491413379,16,1522.0,1527.0,1510.0,1500.0,900.0,900.0,900.0,900.0,900.0,900.0,900.0,900.0,900.0,900.0,900.0,900.0
1743177491513379,16,1563.0,1570.0,1463.0,1470.0,900.0,900.0,900.0,900.0,900.0,900.0,900.0,900.0,900.0,900.0,900.0,900.0
1743177491613379,16,1595.0,1596.0,1437.0,1437.0,900.0,900.0,900.0,900.0,900.0,900.0,900.0,900.0,900.0,900.0,900.0,900.0
1743177491713379,16,1611.0,1608.0,1423.0,1419.0,900.0,900.0,900.0,900.0,900.0,900.0,900.0,900.0,900.0,900.0,900.0,900.0
1743177491813379,16,1610.0,1607.0,1417.0,1419.0,900.0,900.0,900.0,900.0,900.0,900.0,900.0,900.0,900.0,900.0,900.0,900.0
1743177491913379,16,1595.0,1603.0,1426.0,1425.0,900.0,900.0,900.0,900.0,900.0,900.0,900.0,900.0,900.0,900.0,900.0,900.0
1743177492013379,16,1630.0,1646.0,1401.0,1372.0,900.0,900.0,900.0,900.0,900.0,900.0,900.0,900.0,900.0,900.0,900.0,900.0
1743177492113379,16,1687.0,1679.0,1341.0,1337.0,900.0,900.0,900.0,900.0,900.0,900.0,900.0,900.0,900.0,900.0,900.0,900.0
1743177492213379,16,1702.0,1692.0,1281.0,1342.0,900.0,900.0,900.0,900.0,900.0,900.0,900.0,900.0,900.0,900.0,900.0,900.0
1743177492313379,16,1682.0,1689.0,1297.0,1335.0,900.0,900.0,900.0,900.0,900.0,900.0,900.0,900.0,900.0,900.0,900.0,900.0
1743177492413379,16,1652.0,1653.0,1361.0,1338.0,900.0,900.0,900.0,900.0,900.0,900.0,900.0,900.0,900.0,900.0,900.0,900.0
1743177492509379,16,1608.0,1615.0,1411.0,1388.0,900.0,900.0,900.0,900.0,900.0,900.0,900.0,900.0,900.0,900.0,900.0,900.0
1743177492613379,16,1565.0,1561.0,1461.0,1466.0,900.0,900.0,900.0,900.0,900.0,900.0,900.0,900.0,900.0,900.0,900.0,900.0
1743177492713379,16,1525.0,1515.0,1517.0,1527.0,900.0,900.0,900.0,900.0,900.0,900.0,900.0,900.0,900.0,900.0,900.0,900.0
1743177492813379,16,1487.0,1481.0,1569.0,1574.0,900.0,900.0,900.0,900.0,900.0,900.0,900.0,900.0,900.0,900.0,900.0,900.0
1743177492913379,16,1461.0,1451.0,1605.0,1602.0,900.0,900.0,900.0,900.0,900.0,900.0,900.0,900.0,900.0,900.0,900.0,900.0
1743177493013379,16,1407.0,1389.0,1657.0,1650.0,900.0,900.0,900.0,900.0,900.0,900.0,900.0,900.0,900.0,900.0,900.0,900.0
1743177493113379,16,1328.0,1319.0,1725.0,1715.0,900.0,900.0,900.0,900.0,900.0,900.0,900.0,900.0,900.0,900.0,900.0,900.0
1743177493213379,16,1277.0,1272.0,1757.0,1752.0,900.0,900.0,900.0,900.0,900.0,900.0,900.0,900.0,900.0,900.0,900.0,900.0
1743177493313379,16,1261.0,1261.0,1754.0,1745.0,900.0,900.0,900.0,900.0,900.0,900.0,900.0,900.0,900.0,900.0,900.0,900.0
1743177493413379,16,1274.0,1291.0,1714.0,1718.0,900.0,900.0,900.0,900.0,900.0,900.0,900.0,900.0,900.0,900.0,900.0,900.0
1743177493513379,16,1339.0,1334.0,1666.0,1663.0,900.0,900.0,900.0,900.0,900.0,900.0,900.0,900.0,900.0,900.0,900.0,900.0
1743177493613379,16,1412.0,1411.0,1608.0,1603.0,900.0,900.0,900.0,900.0,900.0,900.0,900.0,900.0,900.0,900.0,900.0,900.0
1743177493713379,16,1492.0,1490.0,1545.0,1545.0,900.0,900.0,900.0,900.0,900.0,900.0,900.0,900.0,900.0,900.0,900.0,900.0
1743177493813379,16,1564.0,1549.0,1491.0,1475.0,900.0,900.0,900.0,900.0,900.0,900.0,900.0,900.0,900.0,900.0,900.0,900.0
1743177493913379,16,1608.0,1604.0,1433.0,1432.0,900.0,900.0,900.0,900.0,900.0,900.0,900.0,900.0,900.0,900.0,900.0,900.0
1743177494013379,16,1634.0,1635.0,1396.0,1402.0,900.0,900.0,900.0,900.0,900.0,900.0,900.0,900.0,900.0,900.0,900.0,900.0
1743177494113379,16,1645.0,1642.0,1383.0,1380.0,900.0,900.0,900.0,900.0,900.0,900.0,900.0,900.0,900.0,900.0,900.0,900.0
1743177494213379,16,1639.0,1632.0,1381.0,1377.0,900.0,900.0,900.0,900.0,900.0,900.0,900.0,900.0,900.0,900.0,900.0,900.0
1743177494309379,16,1619.0,1614.0,1394.0,1391.0,900.0,900.0,900.0,900.0,900.0,900.0,900.0,900.0,900.0,900.0,900.0,900.0
1743177494413379,16,1589.0,1587.0,1422.0,1416.0,900.0,900.0,900.0,900.0,900.0,900.0,900.0,900.0,900.0,900.0,900.0,900.0
1743177494513379,16,1550.0,1564.0,1449.0,1458.0,900.0,900.0,900.0,900.0,900.0,900.0,900.0,900.0,900.0,900.0,900.0,900.0
1743177494613379,16,1520.0,1535.0,1488.0,1496.0,900.0,900.0,900.0,900.0,900.0,900.0,900.0,900.0,900.0,900.0,900.0,900.0
1743177494713379,16,1499.0,1500.0,1525.0,1525.0,900.0,900.0,900.0,900.0,900.0,900.0,900.0,900.0,900.0,900.0,900.0,900.0
1743177494813379,16,1482.0,1472.0,1552.0,1548.0,900.0,900.0,900.0,900.0,900.0,900.0,900.0,900.0,900.0,900.0,900.0,900.0
1743177494913379,16,1461.0,1462.0,1566.0,1565.0,900.0,900.0,900.0,900.0,900.0,900.0,900.0,900.0,900.0,900.0,900.0,900.0
1743177495013379,16,1455.0,1451.0,1575.0,1569.0,900.0,900.0,900.0,900.0,900.0,900.0,900.0,900.0,900.0,900.0,900.0,900.0
1743177495113379,16,1454.0,1453.0,1568.0,1571.0,900.0,900.0,900.0,900.0,900.0,900.0,900.0,900.0,900.0,900.0,900.0,900.0
1743177495213379,16,1462.0,1459.0,1559.0,1563.0,900.0,900.0,900.0,900.0,900.0,900.0,900.0,900.0,900.0,900.0,900.0,900.0
1743177495313379,16,1476.0,1469.0,1552.0,1547.0,900.0,900.0,900.0,900.0,900.0,900.0,900.0,900.0,900.0,900.0,900.0,900.0
1743177495413379,16,1487.0,1490.0,1535.0,1534.0,900.0,900.0,900.0,900.0,900.0,900.0,900.0,900.0,900.0,900.0,900.0,900.0
1743177495513379,16,1504.0,1503.0,1522.0,1517.0,900.0,900.0,900.0,900.0,900.0,900.0,900.0,900.0,900.0,900.0,900.0,900.0
1743177495613379,16,1514.0,1521.0,1505.0,1507.0,900.0,900.0,900.0,900.0,900.0,900.0,900.0,900.0,900.0,900.0,900.0,900.0
1743177495713379,16,1527.0,1528.0,1497.0,1493.0,900.0,900.0,900.0,900.0,900.0,900.0,900.0,900.0,900.0,900.0,900.0,900.0
1743177495813379,16,1537.0,1533.0,1491.0,1483.0,900.0,900.0,900.0,900.0,900.0,900.0,900.0,900.0,900.0,900.0,900.0,900.0
1743177495913379,16,1537.0,1538.0,1484.0,1485.0,900.0,900.0,900.0,900.0,900.0,900.0,900.0,900.0,900.0,900.0,900.0,900.0
1743177496013379,16,1538.0,1535.0,1488.0,1482.0,900.0,900.0,900.0,900.0,900.0,900.0,900.0,900.0,900.0,900.0,900.0,900.0
1743177496113379,16,1535.0,1532.0,1489.0,1488.0,900.0,900.0,900.0,900.0,900.0,900.0,900.0,900.0,900.0,900.0,900.0,900.0
1743177496213379,16,1529.0,1527.0,1492.0,1494.0,900.0,900.0,900.0,900.0,900.0,900.0,900.0,900.0,900.0,900.0,900.0,900.0
1743177496313379,16,1523.0,1520.0,1500.0,1498.0,900.0,900.0,900.0,900.0,900.0,900.0,900.0,900.0,900.0,900.0,900.0,900.0
1743177496413379,16,1518.0,1512.0,1507.0,1505.0,900.0,900.0,900.0,900.0,900.0,900.0,900.0,900.0,900.0,900.0,900.0,900.0
1743177496513379,16,1509.0,1509.0,1515.0,1512.0,900.0,900.0,900.0,900.0,900.0,900.0,900.0,900.0,900.0,900.0,900.0,900.0
1743177496613379,16,1509.0,1499.0,1519.0,1517.0,900.0,900.0,900.0,900.0,900.0,900.0,900.0,900.0,900.0,900.0,900.0,900.0
1743177496713379,16,1504.0,1495.0,1530.0,1512.0,900.0,900.0,900.0,900.0,900.0,900.0,900.0,900.0,900.0,900.0,900.0,900.0
1743177496813379,16,1500.0,1497.0,1527.0,1521.0,900.0,900.0,900.0,900.0,900.0,900.0,900.0,900.0,900.0,900.0,900.0,900.0
1743177496913379,16,1502.0,1495.0,1527.0,1518.0,900.0,900.0,900.0,900.0,900.0,900.0,900.0,900.0,900.0,900.0,900.0,900.0
1743177497013379,16,1505.0,1494.0,1524.0,1518.0,900.0,900.0,900.0,900.0,900.0,900.0,900.0,900.0,900.0,900.0,900.0,900.0
1743177497113379,16,1503.0,1500.0,1521.0,1519.0,900.0,900.0,900.0,900.0,900.0,900.0,900.0,900.0,900.0,900.0,900.0,900.0
1743177497213379,16,1506.0,1504.0,1516.0,1515.0,900.0,900.0,900.0,900.0,900.0,900.0,900.0,900.0,900.0,900.0,900.0,900.0
1743177497313379,16,1506.0,1510.0,1511.0,1514.0,900.0,900.0,900.0,900.0,900.0,900.0,900.0,900.0,900.0,900.0,900.0,900.0
1743177497413379,16,1509.0,1512.0,1510.0,1509.0,900.0,900.0,900.0,900.0,900.0,900.0,900.0,900.0,900.0,900.0,900.0,900.0
1743177497513379,16,1511.0,1516.0,1505.0,1510.0,900.0,900.0,900.0,900.0,900.0,900.0,900.0,900.0,900.0,900.0,900.0,900.0
1743177497613379,16,1518.0,1514.0,1505.0,1503.0,900.0,900.0,900.0,900.0,900.0,900.0,900.0,900.0,900.0,900.0,900.0,900.0
1743177497713379,16,1517.0,1515.0,1503.0,1504.0,900.0,900.0,900.0,900.0,900.0,900.0,900.0,900.0,900.0,900.0,900.0,900.0
1743177497813379,16,1515.0,1518.0,1500.0,1508.0,900.0,900.0,900.0,900.0,900.0,900.0,900.0,900.0,900.0,900.0,900.0,900.0
1743177497913379,16,1516.0,1516.0,1504.0,1506.0,900.0,900.0,900.0,900.0,900.0,900.0,900.0,900.0,900.0,900.0,900.0,900.0
1743177498013379,16,1524.0,1499.0,1512.0,1494.0,900.0,900.0,900.0,900.0,900.0,900.0,900.0,900.0,900.0,900.0,900.0,900.0
1743177498113379,16,1505.0,1509.0,1501.0,1503.0,900.0,900.0,900.0,900.0,900.0,900.0,900.0,900.0,900.0,900.0,900.0,900.0
1743177498213379,16,1507.0,1505.0,1506.0,1498.0,900.0,900.0,900.0,900.0,900.0,900.0,900.0,900.0,900.0,900.0,900.0,900.0
1743177498313379,16,1509.0,1503.0,1504.0,1503.0,900.0,900.0,900.0,900.0,900.0,900.0,900.0,900.0,900.0,900.0,900.0,900.0
1743177498413379,16,1505.0,1507.0,1506.0,1508.0,900.0,900.0,900.0,900.0,900.0,900.0,900.0,900.0,900.0,900.0,900.0,900.0
1743177498513379,16,1506.0,1510.0,1509.0,1512.0,900.0,900.0,900.0,900.0,900.0,900.0,900.0,900.0,900.0,900.0,900.0,900.0
1743177498613379,16,1508.0,1508.0,1512.0,1515.0,900.0,900.0,900.0,900.0,900.0,900.0,900.0,900.0,900.0,900.0,900.0,900.0
1743177498713379,16,1507.0,1509.0,1513.0,1516.0,900.0,900.0,900.0,900.0,900.0,900.0,900.0,900.0,900.0,900.0,900.0,900.0
1743177498813379,16,1507.0,1508.0,1510.0,1518.0,900.0,900.0,900.0,900.0,900.0,900.0,900.0,900.0,900.0,900.0,900.0,900.0
1743177498913379,16,1508.0,1509.0,1516.0,1513.0,900.0,900.0,900.0,900.0,900.0,900.0,900.0,900.0,900.0,900.0,900.0,900.0
1743177499013379,16,1511.0,1506.0,1515.0,1512.0,900.0,900.0,900.0,900.0,900.0,900.0,900.0,900.0,900.0,900.0,900.0,900.0
1743177499113379,16,1511.0,1509.0,1516.0,1511.0,900.0,900.0,900.0,900.0,900.0,900.0,900.0,900.0,900.0,900.0,900.0,900.0
1743177499213379,16,1510.0,1510.0,1515.0,1510.0,900.0,900.0,900.0,900.0,900.0,900.0,900.0,900.0,900.0,900.0,900.0,900.0
1743177499313379,16,1512.0,1510.0,1517.0,1507.0,900.0,900.0,900.0,900.0,900.0,900.0,900.0,900.0,900.0,900.0,900.0,900.0
1743177499413379,16,1512.0,1513.0,1514.0,1507.0,900.0,900.0,900.0,900.0,900.0,900.0,900.0,900.0,900.0,900.0,900.0,900.0
1743177499513379,16,1513.0,1513.0,1511.0,1508.0,900.0,900.0,900.0,900.0,900.0,900.0,900.0,900.0,900.0,900.0,900.0,900.0
1743177499613379,16,1515.0,1512.0,1512.0,1508.0,900.0,900.0,900.0,900.0,900.0,900.0,900.0,900.0,900.0,900.0,900.0,900.0
