timestamp,data_rate,rate_multiplier,tx_rate_avg,tx_error_rate_avg,tx_message_count,tx_buffer_overruns,rx_rate_avg,rx_message_count,rx_message_lost_count,rx_buffer_overruns,rx_parse_errors,rx_packet_drop_count,rx_message_lost_rate,type,mode,flow_control,forwarding,mavlink_v2,ftp,streams,heartbeat_type_antenna_tracker,heartbeat_type_gcs,heartbeat_type_onboard_controller,heartbeat_type_gimbal,heartbeat_type_adsb,heartbeat_type_camera,heartbeat_type_parachute,heartbeat_type_open_drone_id,heartbeat_component_telemetry_radio,heartbeat_component_log,heartbeat_component_osd,heartbeat_component_vio,heartbeat_component_pairing_manager,heartbeat_component_udp_bridge,heartbeat_component_uart_bridge,open_drone_id_system_healthy,parachute_system_healthy
1743177450597379,400000.0,1.0,0.0,0.0,37,0,0.0,0,0,0,0,0,0.0,0,10,0,1,1,1,5,0,0,0,0,0,0,0,0,0,0,0,0,0,0,0,0,0
1743177450857379,400000.0,1.0,1779.8806,0.0,43,0,0.0,0,0,0,0,0,0.0,0,10,0,1,1,1,5,0,0,0,0,0,0,0,0,0,0,0,0,0,0,0,0,0
1743177452129379,400000.0,1.0,1337.6494,0.0,70,0,0.0,0,0,0,0,0,0.0,0,10,0,1,1,1,5,0,0,0,0,0,0,0,0,0,0,0,0,0,0,0,0,0
1743177453393379,400000.0,1.0,1469.1235,0.0,103,0,0.0,0,0,0,0,0,0.0,0,10,0,1,1,1,5,0,0,0,0,0,0,0,0,0,0,0,0,0,0,0,0,0
1743177454645379,400000.0,1.0,1392.4303,0.0,134,0,0.0,0,0,0,0,0,0.0,0,10,0,1,1,1,5,0,0,0,0,0,0,0,0,0,0,0,0,0,0,0,0,0
1743177455645379,400000.0,1.0,1337.6494,0.0,155,0,0.0,0,0,0,0,0,0.0,0,10,0,1,1,1,5,0,0,0,0,0,0,0,0,0,0,0,0,0,0,0,0,0
1743177455897379,400000.0,1.0,1337.6494,0.0,162,0,0.0,0,0,0,0,0,0.0,0,10,0,1,1,1,5,0,0,0,0,0,0,0,0,0,0,0,0,0,0,0,0,0
1743177457149379,400000.0,1.0,1375.498,0.0,190,0,0.0,0,0,0,0,0,0.0,0,10,0,1,1,1,5,0,0,0,0,0,0,0,0,0,0,0,0,0,0,0,0,0
1743177458401379,400000.0,1.0,1337.6494,0.0,217,0,0.0,0,0,0,0,0,0.0,0,10,0,1,1,1,5,0,0,0,0,0,0,0,0,0,0,0,0,0,0,0,0,0
1743177459673379,400000.0,1.0,1350.5977,0.0,248,0,0.0,0,0,0,0,0,0.0,0,10,0,1,1,1,5,0,0,0,0,0,0,0,0,0,0,0,0,0,0,0,0,0
1743177460673379,400000.0,1.0,1337.6494,0.0,270,0,0.0,0,0,0,0,0,0.0,0,10,0,1,1,1,5,0,0,0,0,0,0,0,0,0,0,0,0,0,0,0,0,0
1743177460925379,400000.0,1.0,1337.6494,0.0,276,0,0.0,0,0,0,0,0,0.0,0,10,0,1,1,1,5,0,0,0,0,0,0,0,0,0,0,0,0,0,0,0,0,0
1743177462181379,400000.0,1.0,1402.3905,0.0,304,0,0.0,0,0,0,0,0,0.0,0,10,0,1,1,1,5,0,0,0,0,0,0,0,0,0,0,0,0,0,0,0,0,0
1743177463433379,400000.0,1.0,1350.5977,0.0,331,0,0.0,0,0,0,0,0,0.0,0,10,0,1,1,1,5,0,0,0,0,0,0,0,0,0,0,0,0,0,0,0,0,0
1743177464685379,400000.0,1.0,1337.6494,0.0,359,0,0.0,0,0,0,0,0,0.0,0,10,0,1,1,1,5,0,0,0,0,0,0,0,0,0,0,0,0,0,0,0,0,0
1743177465685379,400000.0,1.0,1350.5977,0.0,382,0,0.0,0,0,0,0,0,0.0,0,10,0,1,1,1,5,0,0,0,0,0,0,0,0,0,0,0,0,0,0,0,0,0
1743177465937379,400000.0,1.0,1350.5977,0.0,388,0,0.0,0,0,0,0,0,0.0,0,10,0,1,1,1,5,0,0,0,0,0,0,0,0,0,0,0,0,0,0,0,0,0
1743177467193379,400000.0,1.0,1337.6494,0.0,416,0,0.0,0,0,0,0,0,0.0,0,10,0,1,1,1,5,0,0,0,0,0,0,0,0,0,0,0,0,0,0,0,0,0
1743177468453379,400000.0,1.0,1337.6494,0.0,444,0,0.0,0,0,0,0,0,0.0,0,10,0,1,1,1,5,0,0,0,0,0,0,0,0,0,0,0,0,0,0,0,0,0
1743177469721379,400000.0,1.0,1337.6494,0.0,472,0,0.0,0,0,0,0,0,0.0,0,10,0,1,1,1,5,0,0,0,0,0,0,0,0,0,0,0,0,0,0,0,0,0
1743177470721379,400000.0,1.0,1350.5977,0.0,495,0,0.0,0,0,0,0,0,0.0,0,10,0,1,1,1,5,0,0,0,0,0,0,0,0,0,0,0,0,0,0,0,0,0
1743177470981379,400000.0,1.0,1350.5977,0.0,503,0,0.0,0,0,0,0,0,0.0,0,10,0,1,1,1,5,0,0,0,0,0,0,0,0,0,0,0,0,0,0,0,0,0
1743177472261379,400000.0,1.0,1363.5459,0.0,532,0,0.0,0,0,0,0,0,0.0,0,10,0,1,1,1,5,0,0,0,0,0,0,0,0,0,0,0,0,0,0,0,0,0
1743177473517379,400000.0,1.0,1350.5977,0.0,561,0,0.0,0,0,0,0,0,0.0,0,10,0,1,1,1,5,0,0,0,0,0,0,0,0,0,0,0,0,0,0,0,0,0
1743177474517379,400000.0,1.0,1428.2869,0.0,585,0,0.0,0,0,0,0,0,0.0,0,10,0,1,1,1,5,0,0,0,0,0,0,0,0,0,0,0,0,0,0,0,0,0
1743177474785379,400000.0,1.0,1363.5459,0.0,591,0,0.0,0,0,0,0,0,0.0,0,10,0,1,1,1,5,0,0,0,0,0,0,0,0,0,0,0,0,0,0,0,0,0
1743177476037379,400000.0,1.0,1350.5977,0.0,621,0,0.0,0,0,0,0,0,0.0,0,10,0,1,1,1,5,0,0,0,0,0,0,0,0,0,0,0,0,0,0,0,0,0
1743177477313379,400000.0,1.0,1350.5977,0.0,651,0,0.0,0,0,0,0,0,0.0,0,10,0,1,1,1,5,0,0,0,0,0,0,0,0,0,0,0,0,0,0,0,0,0
1743177478585379,400000.0,1.0,1363.5459,0.0,679,0,0.0,0,0,0,0,0,0.0,0,10,0,1,1,1,5,0,0,0,0,0,0,0,0,0,0,0,0,0,0,0,0,0
1743177479585379,400000.0,1.0,1350.5977,0.0,702,0,0.0,0,0,0,0,0,0.0,0,10,0,1,1,1,5,0,0,0,0,0,0,0,0,0,0,0,0,0,0,0,0,0
1743177479837379,400000.0,1.0,1350.5977,0.0,708,0,0.0,0,0,0,0,0,0.0,0,10,0,1,1,1,5,0,0,0,0,0,0,0,0,0,0,0,0,0,0,0,0,0
1743177481109379,400000.0,1.0,1363.5459,0.0,740,0,0.0,0,0,0,0,0,0.0,0,10,0,1,1,1,5,0,0,0,0,0,0,0,0,0,0,0,0,0,0,0,0,0
1743177482385379,400000.0,1.0,1385.4583,0.0,770,0,0.0,0,0,0,0,0,0.0,0,10,0,1,1,1,5,0,0,0,0,0,0,0,0,0,0,0,0,0,0,0,0,0
1743177483641379,400000.0,1.0,1350.5977,0.0,800,0,0.0,0,0,0,0,0,0.0,0,10,0,1,1,1,5,0,0,0,0,0,0,0,0,0,0,0,0,0,0,0,0,0
1743177484641379,400000.0,1.0,1363.5459,0.0,823,0,0.0,0,0,0,0,0,0.0,0,10,0,1,1,1,5,0,0,0,0,0,0,0,0,0,0,0,0,0,0,0,0,0
1743177484905379,400000.0,1.0,1350.5977,0.0,831,0,0.0,0,0,0,0,0,0.0,0,10,0,1,1,1,5,0,0,0,0,0,0,0,0,0,0,0,0,0,0,0,0,0
1743177486173379,400000.0,1.0,1350.5977,0.0,860,0,0.0,0,0,0,0,0,0.0,0,10,0,1,1,1,5,0,0,0,0,0,0,0,0,0,0,0,0,0,0,0,0,0
1743177487429379,400000.0,1.0,1428.2869,0.0,888,0,0.0,0,0,0,0,0,0.0,0,10,0,1,1,1,5,0,0,0,0,0,0,0,0,0,0,0,0,0,0,0,0,0
1743177488685379,400000.0,1.0,1350.5977,0.0,917,0,0.0,0,0,0,0,0,0.0,0,10,0,1,1,1,5,0,0,0,0,0,0,0,0,0,0,0,0,0,0,0,0,0
1743177489685379,400000.0,1.0,1350.5977,0.0,942,0,0.0,0,0,0,0,0,0.0,0,10,0,1,1,1,5,0,0,0,0,0,0,0,0,0,0,0,0,0,0,0,0,0
1743177489937379,400000.0,1.0,1376.4941,0.0,949,0,0.0,0,0,0,0,0,0.0,0,10,0,1,1,1,5,0,0,0,0,0,0,0,0,0,0,0,0,0,0,0,0,0
1743177491197379,400000.0,1.0,1350.5977,0.0,978,0,0.0,0,0,0,0,0,0.0,0,10,0,1,1,1,5,0,0,0,0,0,0,0,0,0,0,0,0,0,0,0,0,0
1743177492461379,400000.0,1.0,1350.5977,0.0,1009,0,0.0,0,0,0,0,0,0.0,0,10,0,1,1,1,5,0,0,0,0,0,0,0,0,0,0,0,0,0,0,0,0,0
1743177493713379,400000.0,1.0,1398.4065,0.0,1038,0,0.0,0,0,0,0,0,0.0,0,10,0,1,1,1,5,0,0,0,0,0,0,0,0,0,0,0,0,0,0,0,0,0
1743177494713379,400000.0,1.0,1350.5977,0.0,1061,0,0.0,0,0,0,0,0,0.0,0,10,0,1,1,1,5,0,0,0,0,0,0,0,0,0,0,0,0,0,0,0,0,0
1743177494989379,400000.0,1.0,1350.5977,0.0,1069,0,0.0,0,0,0,0,0,0.0,0,10,0,1,1,1,5,0,0,0,0,0,0,0,0,0,0,0,0,0,0,0,0,0
1743177496241379,400000.0,1.0,1363.5459,0.0,1097,0,0.0,0,0,0,0,0,0.0,0,10,0,1,1,1,5,0,0,0,0,0,0,0,0,0,0,0,0,0,0,0,0,0
1743177497513379,400000.0,1.0,1350.5977,0.0,1126,0,0.0,0,0,0,0,0,0.0,0,10,0,1,1,1,5,0,0,0,0,0,0,0,0,0,0,0,0,0,0,0,0,0
1743177498513379,400000.0,1.0,1350.5977,0.0,1150,0,0.0,0,0,0,0,0,0.0,0,10,0,1,1,1,5,0,0,0,0,0,0,0,0,0,0,0,0,0,0,0,0,0
1743177498789379,400000.0,1.0,1350.5977,0.0,1156,0,0.0,0,0,0,0,0,0.0,0,10,0,1,1,1,5,0,0,0,0,0,0,0,0,0,0,0,0,0,0,0,0,0
1743177500065379,400000.0,1.0,1350.5977,0.0,1187,0,0.0,0,0,0,0,0,0.0,0,10,0,1,1,1,5,0,0,0,0,0,0,0,0,0,0,0,0,0,0,0,0,0
1743177501313379,400000.0,1.0,1350.5977,0.0,1216,0,0.0,0,0,0,0,0,0.0,0,10,0,1,1,1,5,0,0,0,0,0,0,0,0,0,0,0,0,0,0,0,0,0
1743177502585379,400000.0,1.0,1363.5459,0.0,1244,0,0.0,0,0,0,0,0,0.0,0,10,0,1,1,1,5,0,0,0,0,0,0,0,0,0,0,0,0,0,0,0,0,0
1743177503585379,400000.0,1.0,1350.5977,0.0,1267,0,0.0,0,0,0,0,0,0.0,0,10,0,1,1,1,5,0,0,0,0,0,0,0,0,0,0,0,0,0,0,0,0,0
1743177503837379,400000.0,1.0,1350.5977,0.0,1273,0,0.0,0,0,0,0,0,0.0,0,10,0,1,1,1,5,0,0,0,0,0,0,0,0,0,0,0,0,0,0,0,0,0
1743177505117379,400000.0,1.0,1363.5459,0.0,1305,0,0.0,0,0,0,0,0,0.0,0,10,0,1,1,1,5,0,0,0,0,0,0,0,0,0,0,0,0,0,0,0,0,0
1743177506381379,400000.0,1.0,1350.5977,0.0,1333,0,0.0,0,0,0,0,0,0.0,0,10,0,1,1,1,5,0,0,0,0,0,0,0,0,0,0,0,0,0,0,0,0,0
1743177507637379,400000.0,1.0,1350.5977,0.0,1363,0,0.0,0,0,0,0,0,0.0,0,10,0,1,1,1,5,0,0,0,0,0,0,0,0,0,0,0,0,0,0,0,0,0
1743177508637379,400000.0,1.0,1363.5459,0.0,1386,0,0.0,0,0,0,0,0,0.0,0,10,0,1,1,1,5,0,0,0,0,0,0,0,0,0,0,0,0,0,0,0,0,0
1743177508897379,400000.0,1.0,1350.5977,0.0,1392,0,0.0,0,0,0,0,0,0.0,0,10,0,1,1,1,5,0,0,0,0,0,0,0,0,0,0,0,0,0,0,0,0,0
1743177510177379,400000.0,1.0,1385.4583,0.0,1425,0,0.0,0,0,0,0,0,0.0,0,10,0,1,1,1,5,0,0,0,0,0,0,0,0,0,0,0,0,0,0,0,0,0
1743177511429379,400000.0,1.0,1363.5459,0.0,1453,0,0.0,0,0,0,0,0,0.0,0,10,0,1,1,1,5,0,0,0,0,0,0,0,0,0,0,0,0,0,0,0,0,0
1743177512685379,400000.0,1.0,1415.3387,0.0,1482,0,0.0,0,0,0,0,0,0.0,0,10,0,1,1,1,5,0,0,0,0,0,0,0,0,0,0,0,0,0,0,0,0,0
1743177513685379,400000.0,1.0,1350.5977,0.0,1508,0,0.0,0,0,0,0,0,0.0,0,10,0,1,1,1,5,0,0,0,0,0,0,0,0,0,0,0,0,0,0,0,0,0
1743177513945379,400000.0,1.0,1398.4065,0.0,1514,0,0.0,0,0,0,0,0,0.0,0,10,0,1,1,1,5,0,0,0,0,0,0,0,0,0,0,0,0,0,0,0,0,0
1743177515221379,400000.0,1.0,1350.5977,0.0,1544,0,0.0,0,0,0,0,0,0.0,0,10,0,1,1,1,5,0,0,0,0,0,0,0,0,0,0,0,0,0,0,0,0,0
1743177516497379,400000.0,1.0,1350.5977,0.0,1575,0,0.0,0,0,0,0,0,0.0,0,10,0,1,1,1,5,0,0,0,0,0,0,0,0,0,0,0,0,0,0,0,0,0
1743177517497379,400000.0,1.0,1376.4941,0.0,1598,0,0.0,0,0,0,0,0,0.0,0,10,0,1,1,1,5,0,0,0,0,0,0,0,0,0,0,0,0,0,0,0,0,0
1743177517769379,400000.0,1.0,1376.4941,0.0,1604,0,0.0,0,0,0,0,0,0.0,0,10,0,1,1,1,5,0,0,0,0,0,0,0,0,0,0,0,0,0,0,0,0,0
1743177519021379,400000.0,1.0,1350.5977,0.0,1633,0,0.0,0,0,0,0,0,0.0,0,10,0,1,1,1,5,0,0,0,0,0,0,0,0,0,0,0,0,0,0,0,0,0
1743177520273379,400000.0,1.0,1363.5459,0.0,1663,0,0.0,0,0,0,0,0,0.0,0,10,0,1,1,1,5,0,0,0,0,0,0,0,0,0,0,0,0,0,0,0,0,0
1743177521529379,400000.0,1.0,1350.5977,0.0,1691,0,0.0,0,0,0,0,0,0.0,0,10,0,1,1,1,5,0,0,0,0,0,0,0,0,0,0,0,0,0,0,0,0,0
1743177522529379,400000.0,1.0,1350.5977,0.0,1715,0,0.0,0,0,0,0,0,0.0,0,10,0,1,1,1,5,0,0,0,0,0,0,0,0,0,0,0,0,0,0,0,0,0
1743177522809379,400000.0,1.0,1350.5977,0.0,1722,0,0.0,0,0,0,0,0,0.0,0,10,0,1,1,1,5,0,0,0,0,0,0,0,0,0,0,0,0,0,0,0,0,0
1743177524061379,400000.0,1.0,1415.3387,0.0,1750,0,0.0,0,0,0,0,0,0.0,0,10,0,1,1,1,5,0,0,0,0,0,0,0,0,0,0,0,0,0,0,0,0,0
1743177525329379,400000.0,1.0,1350.5977,0.0,1781,0,0.0,0,0,0,0,0,0.0,0,10,0,1,1,1,5,0,0,0,0,0,0,0,0,0,0,0,0,0,0,0,0,0
1743177526605379,400000.0,1.0,1363.5459,0.0,1811,0,0.0,0,0,0,0,0,0.0,0,10,0,1,1,1,5,0,0,0,0,0,0,0,0,0,0,0,0,0,0,0,0,0
1743177527605379,400000.0,1.0,1350.5977,0.0,1834,0,0.0,0,0,0,0,0,0.0,0,10,0,1,1,1,5,0,0,0,0,0,0,0,0,0,0,0,0,0,0,0,0,0
1743177527857379,400000.0,1.0,1350.5977,0.0,1839,0,0.0,0,0,0,0,0,0.0,0,10,0,1,1,1,5,0,0,0,0,0,0,0,0,0,0,0,0,0,0,0,0,0
1743177529129379,400000.0,1.0,1363.5459,0.0,1868,0,0.0,0,0,0,0,0,0.0,0,10,0,1,1,1,5,0,0,0,0,0,0,0,0,0,0,0,0,0,0,0,0,0
1743177530401379,400000.0,1.0,1350.5977,0.0,1900,0,0.0,0,0,0,0,0,0.0,0,10,0,1,1,1,5,0,0,0,0,0,0,0,0,0,0,0,0,0,0,0,0,0
1743177531653379,400000.0,1.0,1376.4941,0.0,1930,0,0.0,0,0,0,0,0,0.0,0,10,0,1,1,1,5,0,0,0,0,0,0,0,0,0,0,0,0,0,0,0,0,0
1743177532653379,400000.0,1.0,1350.5977,0.0,1953,0,0.0,0,0,0,0,0,0.0,0,10,0,1,1,1,5,0,0,0,0,0,0,0,0,0,0,0,0,0,0,0,0,0
1743177532905379,400000.0,1.0,1350.5977,0.0,1958,0,0.0,0,0,0,0,0,0.0,0,10,0,1,1,1,5,0,0,0,0,0,0,0,0,0,0,0,0,0,0,0,0,0
1743177534161379,400000.0,1.0,1376.4941,0.0,1988,0,0.0,0,0,0,0,0,0.0,0,10,0,1,1,1,5,0,0,0,0,0,0,0,0,0,0,0,0,0,0,0,0,0
1743177535421379,400000.0,1.0,1363.5459,0.0,2019,0,0.0,0,0,0,0,0,0.0,0,10,0,1,1,1,5,0,0,0,0,0,0,0,0,0,0,0,0,0,0,0,0,0
1743177536697379,400000.0,1.0,1350.5977,0.0,2049,0,0.0,0,0,0,0,0,0.0,0,10,0,1,1,1,5,0,0,0,0,0,0,0,0,0,0,0,0,0,0,0,0,0
1743177537697379,400000.0,1.0,1428.2869,0.0,2075,0,0.0,0,0,0,0,0,0.0,0,10,0,1,1,1,5,0,0,0,0,0,0,0,0,0,0,0,0,0,0,0,0,0
1743177537973379,400000.0,1.0,1385.4583,0.0,2080,0,0.0,0,0,0,0,0,0.0,0,10,0,1,1,1,5,0,0,0,0,0,0,0,0,0,0,0,0,0,0,0,0,0
1743177539245379,400000.0,1.0,1350.5977,0.0,2109,0,0.0,0,0,0,0,0,0.0,0,10,0,1,1,1,5,0,0,0,0,0,0,0,0,0,0,0,0,0,0,0,0,0
1743177540521379,400000.0,1.0,1363.5459,0.0,2141,0,0.0,0,0,0,0,0,0.0,0,10,0,1,1,1,5,0,0,0,0,0,0,0,0,0,0,0,0,0,0,0,0,0
1743177541521379,400000.0,1.0,1363.5459,0.0,2164,0,0.0,0,0,0,0,0,0.0,0,10,0,1,1,1,5,0,0,0,0,0,0,0,0,0,0,0,0,0,0,0,0,0
1743177541781379,400000.0,1.0,1363.5459,0.0,2170,0,0.0,0,0,0,0,0,0.0,0,10,0,1,1,1,5,0,0,0,0,0,0,0,0,0,0,0,0,0,0,0,0,0
1743177543041379,400000.0,1.0,1363.5459,0.0,2199,0,0.0,0,0,0,0,0,0.0,0,10,0,1,1,1,5,0,0,0,0,0,0,0,0,0,0,0,0,0,0,0,0,0
1743177544305379,400000.0,1.0,1350.5977,0.0,2228,0,0.0,0,0,0,0,0,0.0,0,10,0,1,1,1,5,0,0,0,0,0,0,0,0,0,0,0,0,0,0,0,0,0
1743177545557379,400000.0,1.0,1363.5459,0.0,2259,0,0.0,0,0,0,0,0,0.0,0,10,0,1,1,1,5,0,0,0,0,0,0,0,0,0,0,0,0,0,0,0,0,0
1743177546557379,400000.0,1.0,1363.5459,0.0,2283,0,0.0,0,0,0,0,0,0.0,0,10,0,1,1,1,5,0,0,0,0,0,0,0,0,0,0,0,0,0,0,0,0,0
1743177546805379,400000.0,1.0,1363.5459,0.0,2290,0,0.0,0,0,0,0,0,0.0,0,10,0,1,1,1,5,0,0,0,0,0,0,0,0,0,0,0,0,0,0,0,0,0
1743177548061379,400000.0,1.0,1350.5977,0.0,2318,0,0.0,0,0,0,0,0,0.0,0,10,0,1,1,1,5,0,0,0,0,0,0,0,0,0,0,0,0,0,0,0,0,0
1743177549333379,400000.0,1.0,1428.2869,0.0,2347,0,0.0,0,0,0,0,0,0.0,0,10,0,1,1,1,5,0,0,0,0,0,0,0,0,0,0,0,0,0,0,0,0,0
1743177550589379,400000.0,1.0,1350.5977,0.0,2377,0,0.0,0,0,0,0,0,0.0,0,10,0,1,1,1,5,0,0,0,0,0,0,0,0,0,0,0,0,0,0,0,0,0
1743177551589379,400000.0,1.0,1350.5977,0.0,2400,0,0.0,0,0,0,0,0,0.0,0,10,0,1,1,1,5,0,0,0,0,0,0,0,0,0,0,0,0,0,0,0,0,0
1743177551857379,400000.0,1.0,1350.5977,0.0,2407,0,0.0,0,0,0,0,0,0.0,0,10,0,1,1,1,5,0,0,0,0,0,0,0,0,0,0,0,0,0,0,0,0,0
1743177553113379,400000.0,1.0,1350.5977,0.0,2436,0,0.0,0,0,0,0,0,0.0,0,10,0,1,1,1,5,0,0,0,0,0,0,0,0,0,0,0,0,0,0,0,0,0
1743177554365379,400000.0,1.0,1350.5977,0.0,2464,0,0.0,0,0,0,0,0,0.0,0,10,0,1,1,1,5,0,0,0,0,0,0,0,0,0,0,0,0,0,0,0,0,0
1743177555617379,400000.0,1.0,1363.5459,0.0,2497,0,0.0,0,0,0,0,0,0.0,0,10,0,1,1,1,5,0,0,0,0,0,0,0,0,0,0,0,0,0,0,0,0,0
1743177556617379,400000.0,1.0,1363.5459,0.0,2520,0,0.0,0,0,0,0,0,0.0,0,10,0,1,1,1,5,0,0,0,0,0,0,0,0,0,0,0,0,0,0,0,0,0
1743177556869379,400000.0,1.0,1363.5459,0.0,2525,0,0.0,0,0,0,0,0,0.0,0,10,0,1,1,1,5,0,0,0,0,0,0,0,0,0,0,0,0,0,0,0,0,0
1743177558121379,400000.0,1.0,1363.5459,0.0,2554,0,0.0,0,0,0,0,0,0.0,0,10,0,1,1,1,5,0,0,0,0,0,0,0,0,0,0,0,0,0,0,0,0,0
1743177559377379,400000.0,1.0,1350.5977,0.0,2582,0,0.0,0,0,0,0,0,0.0,0,10,0,1,1,1,5,0,0,0,0,0,0,0,0,0,0,0,0,0,0,0,0,0
1743177560633379,400000.0,1.0,1350.5977,0.0,2613,0,0.0,0,0,0,0,0,0.0,0,10,0,1,1,1,5,0,0,0,0,0,0,0,0,0,0,0,0,0,0,0,0,0
1743177561633379,400000.0,1.0,1363.5459,0.0,2637,0,0.0,0,0,0,0,0,0.0,0,10,0,1,1,1,5,0,0,0,0,0,0,0,0,0,0,0,0,0,0,0,0,0
1743177561909379,400000.0,1.0,1363.5459,0.0,2643,0,0.0,0,0,0,0,0,0.0,0,10,0,1,1,1,5,0,0,0,0,0,0,0,0,0,0,0,0,0,0,0,0,0
1743177563165379,400000.0,1.0,1350.5977,0.0,2671,0,0.0,0,0,0,0,0,0.0,0,10,0,1,1,1,5,0,0,0,0,0,0,0,0,0,0,0,0,0,0,0,0,0
1743177564433379,400000.0,1.0,1363.5459,0.0,2700,0,0.0,0,0,0,0,0,0.0,0,10,0,1,1,1,5,0,0,0,0,0,0,0,0,0,0,0,0,0,0,0,0,0
1743177565713379,400000.0,1.0,1350.5977,0.0,2731,0,0.0,0,0,0,0,0,0.0,0,10,0,1,1,1,5,0,0,0,0,0,0,0,0,0,0,0,0,0,0,0,0,0
1743177566713379,400000.0,1.0,1337.6494,0.0,2753,0,0.0,0,0,0,0,0,0.0,0,10,0,1,1,1,5,0,0,0,0,0,0,0,0,0,0,0,0,0,0,0,0,0
1743177566989379,400000.0,1.0,1337.6494,0.0,2759,0,0.0,0,0,0,0,0,0.0,0,10,0,1,1,1,5,0,0,0,0,0,0,0,0,0,0,0,0,0,0,0,0,0
1743177568261379,400000.0,1.0,1337.6494,0.0,2787,0,0.0,0,0,0,0,0,0.0,0,10,0,1,1,1,5,0,0,0,0,0,0,0,0,0,0,0,0,0,0,0,0,0
1743177569533379,400000.0,1.0,1337.6494,0.0,2814,0,0.0,0,0,0,0,0,0.0,0,10,0,1,1,1,5,0,0,0,0,0,0,0,0,0,0,0,0,0,0,0,0,0
1743177570533379,400000.0,1.0,1350.5977,0.0,2837,0,0.0,0,0,0,0,0,0.0,0,10,0,1,1,1,5,0,0,0,0,0,0,0,0,0,0,0,0,0,0,0,0,0
1743177570789379,400000.0,1.0,1350.5977,0.0,2844,0,0.0,0,0,0,0,0,0.0,0,10,0,1,1,1,5,0,0,0,0,0,0,0,0,0,0,0,0,0,0,0,0,0
1743177572057379,400000.0,1.0,1337.6494,0.0,2881,0,0.0,0,0,0,0,0,0.0,0,10,0,1,1,1,5,0,0,0,0,0,0,0,0,0,0,0,0,0,0,0,0,0
1743177573337379,400000.0,1.0,1485.0598,0.0,2914,0,0.0,0,0,0,0,0,0.0,0,10,0,1,1,1,5,0,0,0,0,0,0,0,0,0,0,0,0,0,0,0,0,0
1743177574605379,400000.0,1.0,1536.8527,0.0,2944,0,0.0,0,0,0,0,0,0.0,0,10,0,1,1,1,5,0,0,0,0,0,0,0,0,0,0,0,0,0,0,0,0,0
1743177575605379,400000.0,1.0,1337.6494,0.0,2966,0,0.0,0,0,0,0,0,0.0,0,10,0,1,1,1,5,0,0,0,0,0,0,0,0,0,0,0,0,0,0,0,0,0
1743177575857379,400000.0,1.0,1337.6494,0.0,2972,0,0.0,0,0,0,0,0,0.0,0,10,0,1,1,1,5,0,0,0,0,0,0,0,0,0,0,0,0,0,0,0,0,0
1743177577109379,400000.0,1.0,1337.6494,0.0,3000,0,0.0,0,0,0,0,0,0.0,0,10,0,1,1,1,5,0,0,0,0,0,0,0,0,0,0,0,0,0,0,0,0,0
1743177578373379,400000.0,1.0,1337.6494,0.0,3027,0,0.0,0,0,0,0,0,0.0,0,10,0,1,1,1,5,0,0,0,0,0,0,0,0,0,0,0,0,0,0,0,0,0
1743177579645379,400000.0,1.0,1350.5977,0.0,3057,0,0.0,0,0,0,0,0,0.0,0,10,0,1,1,1,5,0,0,0,0,0,0,0,0,0,0,0,0,0,0,0,0,0
1743177580645379,400000.0,1.0,1337.6494,0.0,3079,0,0.0,0,0,0,0,0,0.0,0,10,0,1,1,1,5,0,0,0,0,0,0,0,0,0,0,0,0,0,0,0,0,0
1743177580897379,400000.0,1.0,1337.6494,0.0,3085,0,0.0,0,0,0,0,0,0.0,0,10,0,1,1,1,5,0,0,0,0,0,0,0,0,0,0,0,0,0,0,0,0,0
1743177582153379,400000.0,1.0,1350.5977,0.0,3113,0,0.0,0,0,0,0,0,0.0,0,10,0,1,1,1,5,0,0,0,0,0,0,0,0,0,0,0,0,0,0,0,0,0
1743177583413379,400000.0,1.0,1337.6494,0.0,3140,0,0.0,0,0,0,0,0,0.0,0,10,0,1,1,1,5,0,0,0,0,0,0,0,0,0,0,0,0,0,0,0,0,0
1743177584665379,400000.0,1.0,1337.6494,0.0,3168,0,0.0,0,0,0,0,0,0.0,0,10,0,1,1,1,5,0,0,0,0,0,0,0,0,0,0,0,0,0,0,0,0,0
1743177585665379,400000.0,1.0,1350.5977,0.0,3191,0,0.0,0,0,0,0,0,0.0,0,10,0,1,1,1,5,0,0,0,0,0,0,0,0,0,0,0,0,0,0,0,0,0
1743177585941379,400000.0,1.0,1350.5977,0.0,3197,0,0.0,0,0,0,0,0,0.0,0,10,0,1,1,1,5,0,0,0,0,0,0,0,0,0,0,0,0,0,0,0,0,0
1743177587217379,400000.0,1.0,1402.3905,0.0,3225,0,0.0,0,0,0,0,0,0.0,0,10,0,1,1,1,5,0,0,0,0,0,0,0,0,0,0,0,0,0,0,0,0,0
1743177588473379,400000.0,1.0,1350.5977,0.0,3253,0,0.0,0,0,0,0,0,0.0,0,10,0,1,1,1,5,0,0,0,0,0,0,0,0,0,0,0,0,0,0,0,0,0
1743177589725379,400000.0,1.0,1337.6494,0.0,3281,0,0.0,0,0,0,0,0,0.0,0,10,0,1,1,1,5,0,0,0,0,0,0,0,0,0,0,0,0,0,0,0,0,0
1743177590725379,400000.0,1.0,1337.6494,0.0,3303,0,0.0,0,0,0,0,0,0.0,0,10,0,1,1,1,5,0,0,0,0,0,0,0,0,0,0,0,0,0,0,0,0,0
1743177590985379,400000.0,1.0,1337.6494,0.0,3309,0,0.0,0,0,0,0,0,0.0,0,10,0,1,1,1,5,0,0,0,0,0,0,0,0,0,0,0,0,0,0,0,0,0
1743177592253379,400000.0,1.0,1337.6494,0.0,3338,0,0.0,0,0,0,0,0,0.0,0,10,0,1,1,1,5,0,0,0,0,0,0,0,0,0,0,0,0,0,0,0,0,0
1743177593529379,400000.0,1.0,1337.6494,0.0,3365,0,0.0,0,0,0,0,0,0.0,0,10,0,1,1,1,5,0,0,0,0,0,0,0,0,0,0,0,0,0,0,0,0,0
1743177594529379,400000.0,1.0,1350.5977,0.0,3388,0,0.0,0,0,0,0,0,0.0,0,10,0,1,1,1,5,0,0,0,0,0,0,0,0,0,0,0,0,0,0,0,0,0
1743177594781379,400000.0,1.0,1350.5977,0.0,3394,0,0.0,0,0,0,0,0,0.0,0,10,0,1,1,1,5,0,0,0,0,0,0,0,0,0,0,0,0,0,0,0,0,0
