timestamp,timestamp_sample,time_last_fuse,device_id,observation[0],observation[1],observation[2],observation_variance[0],observation_variance[1],observation_variance[2],innovation[0],innovation[1],innovation[2],innovation_filtered[0],innovation_filtered[1],innovation_filtered[2],innovation_variance[0],innovation_variance[1],innovation_variance[2],test_ratio[0],test_ratio[1],test_ratio[2],test_ratio_filtered[0],test_ratio_filtered[1],test_ratio_filtered[2],estimator_instance,innovation_rejected,fused
1743177449781379,1743177449627190,0,0,-0.013737973,0.19509938,0.45991093,0.0025000002,0.0025000002,0.0025000002,0.013737973,-0.19509938,-0.45991093,0.0147251515,-0.1841943,-0.45606285,0.0075000003,0.0075000003,0.0075000003,0.002796028,0.5639077,3.1336007,0.0032607077,-0.43492824,-2.6615095,0,1,0
1743177449853379,1743177449695218,0,0,-0.013745659,0.18245655,0.45558128,0.0025000002,0.0025000002,0.0025000002,0.013745659,-0.18245655,-0.45558128,0.014607846,-0.18398619,-0.4560052,0.0075000003,0.0075000008,0.0075000008,0.0027991575,0.49319094,3.074878,0.0032054316,-0.4419059,-2.7110152,0,1,0
1743177449917379,1743177449763220,0,0,-0.017705493,0.18043289,0.45893693,0.0025000002,0.0025000002,0.0025000002,0.017705493,-0.18043289,-0.45893693,0.0149787,-0.18356077,-0.45635617,0.0075000003,0.0075000003,0.0075000003,0.004644214,0.4823115,3.120342,0.0033776846,-0.4467433,-2.7600205,0,1,0
1743177449989379,1743177449831244,0,0,-0.01611636,0.18321607,0.45612773,0.0025000002,0.0025000002,0.0025000002,0.01611636,-0.18321607,-0.45612773,0.015114942,-0.1835195,-0.4563288,0.0075000008,0.0075000003,0.0075000008,0.0038479562,0.49730554,3.082259,0.0034340022,-0.45279843,-2.7986102,0,1,0
1743177450053379,1743177449899245,1743177449901379,0,-0.013920728,0.18106657,0.45713514,0.0025000002,0.0025000002,0.0025000002,0.0,0.0,0.0,0.0,0.0,0.0,0.0025000002,0.0025000002,0.0025000002,0.0,0.0,0.0,0.0,0.0,0.0,0,0,1
1743177450125379,1743177449967265,1743177449973379,0,-0.016210482,0.18340248,0.45656714,0.0025000002,0.0025000002,0.0025000002,0.0008205697,0.0038485825,0.0064270794,9.826265e-05,0.0004633026,0.00076962763,0.010769952,0.0076109176,0.0075157657,6.946638e-06,0.00021834411,0.0006106602,8.318551e-07,2.6146556e-05,7.312613e-05,0,0,1
1743177450189379,1743177450035266,1743177450037379,0,-0.018421177,0.17678367,0.44916397,0.0025000002,0.0025000002,0.0025000002,0.0022483403,0.007996365,0.009494305,0.00035566962,0.0013664893,0.0018160696,0.004392057,0.0041798106,0.0041684015,0.00012788322,0.001704444,0.0024109469,1.6042426e-05,0.00022707209,0.0003530097,0,0,1
1743177450261379,1743177450103283,1743177450109379,0,-0.016566489,0.18323049,0.4552287,0.0025000002,0.0025000002,0.0025000002,-0.000410566,-0.0016465634,-0.000341475,0.000263917,0.0010056046,0.0015573751,0.0035651978,0.0035050716,0.0035006122,5.2533915e-06,8.602056e-05,3.7629522e-06,1.3492366e-05,0.00018958091,0.00031028807,0,0,1
1743177450325379,1743177450171284,1743177450173379,0,-0.018342836,0.17773041,0.4561328,0.0025000002,0.0025000002,0.0025000002,0.0013221474,0.004369691,-0.0011819601,0.00039060818,0.0014084928,0.0012301613,0.0032457928,0.0032170163,0.0032146296,5.9840673e-05,0.0006598391,4.7784313e-05,1.9041177e-05,0.00024588016,0.0002674197,0,0,1
1743177450397379,1743177450239298,1743177450245379,0,-0.014304978,0.18497787,0.45749372,0.0025000002,0.0025000002,0.0025000002,-0.0029465756,-0.0037864447,-0.0022914708,-8.986215e-06,0.00078635325,0.0008079429,0.0030723633,0.0030574051,0.0030557823,0.00031399314,0.0005212604,0.00019167543,-2.0836356e-05,0.00015402274,0.00021244765,0,0,1
1743177450461379,1743177450307299,1743177450309379,0,-0.011611624,0.18624508,0.45463437,0.0025000002,0.0025000002,0.0025000002,-0.005120062,-0.00433518,0.0009716749,-0.0006208834,0.00017327728,0.0008269672,0.0029660114,0.0029559124,0.0029547312,0.0009820533,0.0007062486,3.5152632e-05,-0.00013591311,5.1031173e-05,0.00019122192,0,0,1
1743177450533379,1743177450375311,1743177450381379,0,-0.016395178,0.18402854,0.4564904,0.0025000002,0.0025000002,0.0025000002,0.0005106549,-0.0014013797,-0.0010556877,-0.00048539654,-1.528606e-05,0.0006014075,0.0028932348,0.002885746,0.0028847826,1.0014489e-05,7.563247e-05,4.301825e-05,-0.00011844019,3.586486e-05,0.00016317473,0,0,1
1743177450597379,1743177450443312,1743177450445379,0,-0.011611616,0.18204015,0.4558462,0.0025000002,0.0025000002,0.0025000002,-0.0044026533,0.0006696433,-0.00023266673,-0.00095436996,6.693145e-05,0.0005015364,0.0028398342,0.0028343399,0.0028334854,0.0007583916,1.7674614e-05,2.1251958e-06,-0.00019505508,3.3687127e-05,0.00014338504,0,0,1
1743177450669379,1743177450511322,1743177450517379,0,-0.015488866,0.1837068,0.45558128,0.0025000002,0.0025000002,0.0025000002,-0.00020976606,-0.0011028647,6.482005e-05,-0.00086521567,-7.311803e-05,0.00044914312,0.0027991934,0.0027951268,0.0027942748,1.7466064e-06,4.833971e-05,1.6264431e-07,-0.00017190952,2.3865741e-05,0.00012623648,0,0,1
1743177450733379,1743177450579322,1743177450581379,0,-0.016843732,0.18709663,0.46123433,0.0025000002,0.0025000002,0.0025000002,0.0013294802,-0.004411474,-0.0055738688,-0.0006024704,-0.00059257995,-0.00027216919,0.0027674069,0.0027641712,0.0027633184,7.096566e-05,0.00078251725,0.0012501508,-0.00014283291,-7.267305e-05,-3.854226e-05,0,0,1
1743177450805379,1743177450647331,1743177450653379,0,-0.015689198,0.18266347,0.45570993,0.0025000002,0.0025000002,0.0025000002,-3.734661e-05,0.00037442148,0.0005031228,-0.00053480687,-0.00047679452,-0.00017932222,0.0027419173,0.0027391312,0.0027382616,5.6520438e-08,5.6878384e-06,1.0278082e-05,-0.00012573798,-6.3290725e-05,-3.269689e-05,0,0,1
1743177450869379,1743177450715331,1743177450717379,0,-0.012458338,0.19101322,0.4625736,0.0025000002,0.0025000002,0.0025000002,-0.0033015276,-0.007953525,-0.00642398,-0.00086603395,-0.0013716455,-0.00092741725,0.0027207593,0.0027184945,0.0027175702,0.00044514067,0.0025841633,0.0016894464,-0.00016397632,-0.0003650853,-0.00023104012,0,0,1
1743177450941379,1743177450783338,1743177450789379,0,-0.015104533,0.18245523,0.45666194,0.0025000002,0.0025000002,0.0025000002,-0.0003819249,0.0013064146,-2.8550625e-05,-0.000808072,-0.0010509723,-0.0008197541,0.002703444,0.0027012182,0.0027001996,5.9950953e-06,7.023182e-05,3.2711583e-08,-0.00014506136,-0.00031296513,-0.00020338179,0,0,1
1743177451005379,1743177450851339,1743177450853379,0,-0.015782971,0.18626985,0.45691806,0.0025000002,0.0025000002,0.0025000002,0.00046083418,-0.002561897,-0.00029411912,-0.0006561587,-0.0012318923,-0.0007569043,0.002688278,0.0026864174,0.0026853876,8.777538e-06,0.00027151825,3.5954045e-06,-0.00012664379,-0.0003080031,-0.00017946339,0,0,1
1743177451077379,1743177450919345,1743177450925379,0,-0.014590565,0.1827182,0.4565869,0.0025000002,0.0025000002,0.0025000002,-0.00084833,0.0011976957,4.0739775e-05,-0.00067916693,-0.0009409287,-0.0006613995,0.0026755075,0.0026737915,0.002672642,2.9886907e-05,5.9672762e-05,6.913651e-08,-0.000115059316,-0.00026398216,-0.00015796839,0,0,1
1743177451141379,1743177450987345,1743177450989379,0,-0.011583192,0.18500662,0.45371276,0.0025000002,0.0025000002,0.0025000002,-0.003836876,-0.0011808425,0.0029168427,-0.0010572025,-0.00096929446,-0.00023319712,0.0026642845,0.0026627886,0.0026615383,0.0006139492,5.7891248e-05,0.0003548186,-0.00017478556,-0.0002393093,-9.6578406e-05,0,0,1
1743177451213379,1743177451055350,1743177451061379,0,-0.014560862,0.18374081,0.45573708,0.0025000002,0.0025000002,0.0025000002,-0.00061842543,-1.8507242e-05,0.0007863939,-0.0010046695,-0.0008554022,-0.00011115087,0.0026544267,0.0026530663,0.0026517718,1.6008898e-05,1.360068e-08,2.5898087e-05,-0.00015577585,-0.00021065937,-8.1914775e-05,0,0,1
1743177451277379,1743177451123351,1743177451125379,0,-0.01773097,0.18556613,0.45524764,0.0025000002,0.0025000002,0.0025000002,0.0025951744,-0.0018437058,0.0012319386,-0.0005736967,-0.00097396836,4.9695627e-05,0.0026457876,0.002644541,0.0026431358,0.0002828366,0.00014313987,6.384436e-05,-0.00010326523,-0.00020257595,-6.446451e-05,0,0,1
1743177451349379,1743177451191355,1743177451197379,0,-0.014437272,0.18401778,0.455232,0.0025000002,0.0025000002,0.0025000002,-0.00076278683,-0.00019229949,0.0011819005,-0.0005963354,-0.00088030595,0.00018520775,0.0026381968,0.002636998,0.002635444,2.4505112e-05,1.5476605e-06,5.8859525e-05,-9.383571e-05,-0.00017850794,-4.9699604e-05,0,0,1
1743177451413379,1743177451259355,1743177451261379,0,-0.01399429,0.1785118,0.4611153,0.0025000002,0.0025000002,0.0025000002,-0.001127376,0.0054449737,-0.004810661,-0.0006599107,-0.0001229404,-0.0004128411,0.002631181,0.0026300799,0.0026285176,5.3671578e-05,0.001252945,0.0009781008,-8.902733e-05,-7.136812e-06,-0.00016084622,0,0,1
1743177451485379,1743177451327359,1743177451333379,0,-0.014862027,0.18193285,0.4548678,0.0025000002,0.0025000002,0.0025000002,-0.00020119979,0.0017769188,0.0016646683,-0.00060499174,0.00010453806,-0.00016409476,0.0026249762,0.0026240163,0.0026222942,1.713512e-06,0.00013372206,0.00011743785,-7.857373e-05,9.727446e-06,-0.0001275288,0,0,1
1743177451549379,1743177451395359,1743177451397379,0,-0.018269643,0.18202847,0.45516297,0.0025000002,0.0025000002,0.0025000002,0.0032658267,0.0014555007,0.0013516843,-0.00014158394,0.00026591014,1.7530532e-05,0.0026193946,0.0026184965,0.0026166462,0.00045242108,8.951999e-05,7.773473e-05,-1.5003934e-05,1.9280073e-05,-0.000102955,0,0,1
1743177451621379,1743177451463362,1743177451469379,0,-0.01571858,0.18451956,0.4541619,0.0025000002,0.0025000002,0.0025000002,0.00050112326,-0.001155749,0.002312988,-6.4637126e-05,9.5653755e-05,0.00029235415,0.0026142225,0.002613379,0.0026114867,1.0673432e-05,5.683338e-05,0.00022763092,-1.1929764e-05,1.0167544e-05,-6.337627e-05,0,0,1
1743177451685379,1743177451531362,1743177451533379,0,-0.012653207,0.18658683,0.45617086,0.0025000002,0.0025000002,0.0025000002,-0.0026907993,-0.003154248,0.00019437075,-0.00037903682,-0.00029311219,0.00028045278,0.002609637,0.002608803,0.0026067845,0.0003082762,0.0004230604,1.5867503e-06,-4.7407855e-05,-4.169777e-05,-5.5599005e-05,0,0,1
1743177451757379,1743177451599365,1743177451605379,0,-0.015738174,0.18421207,0.45577422,0.0025000002,0.0025000002,0.0025000002,0.00049504923,-0.0006440282,0.000579685,-0.00027438864,-0.00033518075,0.00031629732,0.002605536,0.0026046687,0.0026024764,1.04509845e-05,1.7719205e-05,1.4354886e-05,-4.0480823e-05,-3.8826987e-05,-4.722392e-05,0,0,1
1743177451821379,1743177451667365,1743177451669379,0,-0.015831172,0.17815804,0.44917467,0.0025000002,0.0025000002,0.0025000002,0.000619079,0.0053788275,0.0071803033,-0.00016742421,0.0003488134,0.0011381414,0.0026015034,0.0026006775,0.002598477,1.6369115e-05,0.0012357839,0.0022050694,-3.3674845e-05,0.000113767266,0.00022241681,0,0,1
1743177451893379,1743177451735367,1743177451741379,0,-0.0140811615,0.18542281,0.45624053,0.0025000002,0.0025000002,0.0025000002,-0.0011108431,-0.0022696108,-8.1151724e-05,-0.00028037166,3.547399e-05,0.0009920725,0.0025979555,0.0025971762,0.0025948093,5.2775365e-05,0.00022014316,2.874427e-07,-3.5961588e-05,7.379104e-05,0.00019575434,0,0,1
1743177451957379,1743177451803367,1743177451805379,0,-0.017348694,0.18609251,0.45509773,0.0025000002,0.0025000002,0.0025000002,0.0021868532,-0.0029247105,0.0010915995,1.5000289e-05,-0.00031919664,0.0010040653,0.0025947194,0.0025939126,0.0025914062,0.00020478887,0.0003670022,5.115221e-05,-7.1393515e-06,2.102002e-05,0.00017844282,0,0,1
1743177452029379,1743177451871369,1743177451877379,0,-0.015133589,0.18442424,0.45526093,0.0025000002,0.0025000002,0.0025000002,-8.152377e-05,-0.0011471063,0.0008880198,3.444292e-06,-0.0004183062,0.0009901524,0.0025915941,0.002590777,0.002588226,2.8494367e-07,5.6425935e-05,3.384069e-05,-6.318732e-06,1.174808e-05,0.00016113085,0,0,1
1743177452093379,1743177451939369,1743177451941379,0,-0.0118358135,0.1860025,0.45912105,0.0025000002,0.0025000002,0.0025000002,-0.0032506904,-0.0026769936,-0.00300166,-0.0003861352,-0.0006882748,0.00051204395,0.0025887918,0.0025879575,0.0025852772,0.00045353582,0.0003068377,0.0003876984,-5.98588e-05,-2.6392467e-05,9.542595e-05,0,0,1
1743177452165379,1743177452007371,1743177452013379,0,-0.015685676,0.18232387,0.45741364,0.0025000002,0.0025000002,0.0025000002,0.00065111055,0.0010668933,-0.0011889935,-0.00026195467,-0.00047822754,0.00030843978,0.0025860802,0.0025852332,0.0025825081,1.8214823e-05,4.8857273e-05,6.078431e-05,-5.0511717e-05,-1.7383461e-05,7.672424e-05,0,0,1
1743177452229379,1743177452075371,1743177452077379,0,-0.013841262,0.18205518,0.46194443,0.0025000002,0.0025000002,0.0025000002,-0.0011550889,0.0013414025,-0.005696088,-0.00036887918,-0.00026023126,-0.00041046302,0.0025836434,0.0025827945,0.002579933,5.7379362e-05,7.755595e-05,0.0013975506,-5.13339e-05,-6.017476e-06,-9.9773424e-05,0,0,1
1743177452301379,1743177452143372,1743177452149379,0,-0.014682865,0.18531354,0.4565542,0.0025000002,0.0025000002,0.0025000002,-0.0002728905,-0.001924023,-0.00014388561,-0.0003573874,-0.0004593812,-0.00037859284,0.0025814192,0.0025805577,0.0025775256,3.2053522e-06,0.00015933758,8.970711e-07,-4.5571956e-05,-2.4372937e-05,-8.7935965e-05,0,0,1
1743177452365379,1743177452211372,1743177452213379,0,-0.00816404,0.17978108,0.4577179,0.0025000002,0.0025000002,0.0025000002,-0.006729567,0.0036217868,-0.0012844503,-0.0011202539,3.0158146e-05,-0.00048736425,0.0025791163,0.0025782592,0.002575229,0.0019510159,0.0005677747,7.148301e-05,-0.00027368846,4.651797e-05,-8.596625e-05,0,0,1
1743177452437379,1743177452279373,1743177452285379,0,-0.016353976,0.18199535,0.45783216,0.0025000002,0.0025000002,0.0025000002,0.0017202689,0.0013216883,-0.0013667345,-0.00078018697,0.00018452844,-0.0005925268,0.00257717,0.0025763132,0.002573101,0.00012758719,7.5099284e-05,8.0548176e-05,-0.0002256478,4.993972e-05,-8.5317595e-05,0,0,1
1743177452501379,1743177452347373,1743177452349379,0,-0.009326325,0.18241894,0.44484758,0.0025000002,0.0025000002,0.0025000002,-0.005396675,0.0008586049,0.011655986,-0.0013328651,0.000266041,0.00087352184,0.0025752825,0.0025744175,0.002571084,0.0012565654,3.2322947e-05,0.0058686556,-0.0003490675,4.7830672e-05,0.00062748196,0,0,1
1743177452573379,1743177452415374,1743177452421379,0,-0.017137323,0.18460599,0.45767355,0.0025000002,0.0025000002,0.0025000002,0.0024775527,-0.0013257712,-0.0015024543,-0.00087668246,7.510575e-05,0.0005891884,0.0025733812,0.0025725279,0.0025691618,0.00026503252,7.626466e-05,9.749854e-05,-0.00027554753,3.2973996e-05,0.0005406874,0,0,1
1743177452637379,1743177452483374,1743177452485379,0,-0.019469917,0.1809757,0.45493162,0.0025000002,0.0025000002,0.0025000002,0.0047011096,0.002509579,0.0012090504,-0.0002089187,0.00036583992,0.0006637268,0.00257174,0.0025708603,0.0025673634,0.0009548413,0.00027089854,6.355282e-05,-0.00012824747,6.145792e-05,0.00048356567,0,0,1
1743177452709379,1743177452551375,1743177452557379,0,-0.014704556,0.1835331,0.4548506,0.0025000002,0.0025000002,0.0025000002,-9.67189e-05,-0.00012552738,0.0012671053,-0.00019548617,0.00030702775,0.0007359482,0.0025702107,0.0025693132,0.002565663,4.0440025e-07,6.8013395e-07,6.951804e-05,-0.000112942114,5.401876e-05,0.00043399594,0,0,1
1743177452773379,1743177452619375,1743177452621379,0,-0.013187896,0.17898756,0.45186555,0.0025000002,0.0025000002,0.0025000002,-0.0016072113,0.0042884946,0.0042737424,-0.0003644955,0.00078393135,0.0011594691,0.0025685395,0.0025676554,0.0025640156,0.0001117422,0.00079662254,0.0007914499,-0.000112798465,0.00014292201,0.00047678972,0,0,1
1743177452845379,1743177452687376,1743177452693379,0,-0.015604379,0.1828913,0.45604816,0.0025000002,0.0025000002,0.0025000002,0.0007967829,0.0002528429,-4.917383e-06,-0.0002254674,0.00072022417,0.0010201273,0.0025671946,0.0025662987,0.0025624868,2.7477596e-05,2.7450424e-06,8.509753e-10,-9.600463e-05,0.00012614005,0.00041970843,0,0,1
1743177452909379,1743177452755376,1743177452757379,0,-0.013795572,0.17828572,0.46323615,0.0025000002,0.0025000002,0.0025000002,-0.0011502153,0.00476563,-0.0071626306,-0.00033617666,0.0012047264,4.0536514e-05,0.002565885,0.0025649685,0.002561025,5.728997e-05,0.0009844893,0.0022256332,-9.136978e-05,0.00022890016,0.00010301263,0,0,1
1743177452981379,1743177452823376,1743177452829379,0,-0.014024561,0.18423893,0.45385495,0.0025000002,0.0025000002,0.0025000002,-0.0008425962,-0.0013060868,0.0023926497,-0.00039680433,0.000904274,0.00032204017,0.0025644372,0.0025635504,0.002559606,3.076128e-05,7.380643e-05,0.0002483579,-8.411383e-05,0.00019266063,0.00012041312,0,0,1
1743177453045379,1743177452891376,1743177452893379,0,-0.010477893,0.18371162,0.45997214,0.0025000002,0.0025000002,0.0025000002,-0.0044983504,-0.00090046227,-0.0037228465,-0.00088783447,0.00068895967,-0.00016252743,0.0025632624,0.0025623483,0.0025582782,0.0008771442,3.4675508e-05,0.000602816,-0.00017905407,0.00016544433,3.3829354e-05,0,0,1
1743177453117379,1743177452959377,1743177452965379,0,-0.016336847,0.18350075,0.45539778,0.0025000002,0.0025000002,0.0025000002,0.0014410685,-0.00060491264,0.0009085536,-0.00060901855,0.00053381245,-3.4224402e-05,0.0025622125,0.00256126,0.0025570209,9.005578e-05,1.5981726e-05,3.5917845e-05,-0.00014683628,0.00014372403,3.407939e-05,0,0,1
1743177453181379,1743177453027377,1743177453029379,0,-0.016589867,0.18515977,0.4641255,0.0025000002,0.0025000002,0.0025000002,0.0016856412,-0.0021730661,-0.007869363,-0.00033430578,0.00020946821,-0.000972173,0.0025608942,0.0025599548,0.0025557764,0.000123281,0.00020540485,0.0026918934,-0.000114498296,0.00010192691,-0.00029226943,0,0,1
1743177453253379,1743177453095377,1743177453101379,0,-0.01571608,0.1829073,0.4548892,0.0025000002,0.0025000002,0.0025000002,0.0009583527,4.8056245e-05,0.0015732944,-0.0001795509,0.00018998254,-0.00066737365,0.002559948,0.0025589669,0.0025546257,3.986365e-05,9.47178e-08,0.00010772795,-9.6018346e-05,8.973573e-05,-0.00024438242,0,0,1
1743177453317379,1743177453163377,1743177453165379,0,-0.019541375,0.18496893,0.46066836,0.0025000002,0.0025000002,0.0025000002,0.0047635213,-0.0021086484,-0.0042007267,0.00041222532,-8.603129e-05,-0.0010900993,0.0025589801,0.002557975,0.0025535165,0.0009852508,0.00019440465,0.0007669764,3.342935e-05,5.571893e-05,-0.0003069465,0,0,1
1743177453389379,1743177453231378,1743177453237379,0,-0.015352947,0.1834994,0.45656067,0.0025000002,0.0025000002,0.0025000002,0.0005341716,-0.00058089197,-1.0788441e-05,0.0004268247,-0.00014536842,-0.0009608638,0.0025578681,0.0025568567,0.0025524267,1.239484e-05,1.4702704e-05,4.9063362e-09,3.0911102e-05,4.7288064e-05,-0.0002701995,0,0,1
1743177453453379,1743177453299378,1743177453301379,0,-0.012644558,0.18166341,0.45753598,0.0025000002,0.0025000002,0.0025000002,-0.0022051593,0.0012912601,-0.0009967983,0.00011172806,2.7008442e-05,-0.000965286,0.0025569831,0.0025559443,0.0025514069,0.0002113049,7.284529e-05,4.3357795e-05,1.913415e-06,5.034773e-05,-0.00024304239,0,0,1
1743177453525379,1743177453367378,1743177453373379,0,-0.015043308,0.18444641,0.4551933,0.0025000002,0.0025000002,0.0025000002,0.00023481908,-0.0014670342,0.0013459027,0.0001264643,-0.00015189464,-0.0006886119,0.002556192,0.0025551203,0.0025504362,2.3967943e-06,9.3630995e-05,7.889987e-05,1.9712843e-06,3.3110842e-05,-0.00020450001,0,0,1
1743177453589379,1743177453435378,1743177453437379,0,-0.015711818,0.18465754,0.45154065,0.0025000002,0.0025000002,0.0025000002,0.0009119975,-0.0016207397,0.0049612224,0.000220507,-0.00032790186,-1.22044585e-05,0.0025551827,0.002554118,0.002549469,3.616786e-05,0.000114461196,0.0010727857,6.0652405e-06,1.544377e-05,-5.1585535e-05,0,0,1
1743177453661379,1743177453503378,1743177453509379,0,-0.015854908,0.18312606,0.45697305,0.0025000002,0.0025000002,0.0025000002,0.00094999885,4.6998262e-05,-0.00061148405,0.00030784053,-0.0002831834,-8.3877836e-05,0.0025544036,0.0025532984,0.0025485635,3.925673e-05,9.060125e-08,1.6269923e-05,1.003887e-05,1.3605714e-05,-4.735761e-05,0,0,1
1743177453725379,1743177453571378,1743177453573379,0,-0.017334338,0.1846238,0.45942214,0.0025000002,0.0025000002,0.0025000002,0.00237472,-0.001482904,-0.0030373633,0.00055528386,-0.00042723684,-0.00043733558,0.00255365,0.0025525196,0.0025476916,0.00024536974,9.6181575e-05,0.00040206613,3.821228e-05,4.62167e-07,-8.9822715e-05,0,0,1
1743177453797379,1743177453639378,1743177453645379,0,-0.0149856545,0.18352199,0.45533508,0.0025000002,0.0025000002,0.0025000002,-2.3581262e-05,-0.000497669,0.0011628568,0.0004859831,-0.00043566417,-0.00024578127,0.0025527945,0.0025516646,0.0025468331,2.4203363e-08,1.0783201e-05,5.8979007e-05,3.3634675e-05,-8.8410934e-07,-7.200843e-05,0,0,1
1743177453861379,1743177453707378,1743177453709379,0,-0.014051922,0.18641204,0.44904256,0.0025000002,0.0025000002,0.0025000002,-0.00091005943,-0.003397137,0.0074441433,0.00031885126,-0.0007900427,0.0006746699,0.0025520287,0.0025508725,0.0025460122,3.6058813e-05,0.0005022796,0.002417451,2.5291089e-05,-6.0910323e-05,0.00022602541,0,0,1
1743177453933379,1743177453775379,1743177453781379,0,-0.014859734,0.18348473,0.45718068,0.0025000002,0.0025000002,0.0025000002,-1.3617973e-06,-0.00046305358,-0.0008023679,0.0002805154,-0.0007508971,0.0004978195,0.002551419,0.0025502208,0.002545239,8.076081e-11,9.34259e-06,2.8116041e-05,2.2263233e-05,-5.473664e-05,0.00019559963,0,0,1
1743177453997379,1743177453843379,1743177453845379,0,-0.016427794,0.18176973,0.4582457,0.0025000002,0.0025000002,0.0025000002,0.0014569964,0.0013901442,-0.0019099712,0.0004213617,-0.0004948304,0.00020971493,0.0025505845,0.0025493982,0.0025444624,9.247722e-05,8.396683e-05,0.00015908809,3.0669133e-05,-3.8131297e-05,0.00015313702,0,0,1
1743177454069379,1743177453911379,1743177453917379,0,-0.017051293,0.18367797,0.455256,0.0025000002,0.0025000002,0.0025000002,0.0021706077,-0.0005774051,0.0011311173,0.00063077844,-0.0005050925,0.00032016114,0.0025499247,0.0025487083,0.0025437272,0.00020530184,1.4693177e-05,5.5999484e-05,5.1575862e-05,-3.5325324e-05,0.00014150789,0,0,1
1743177454133379,1743177453979379,1743177453981379,0,-0.012513248,0.18268888,0.46061373,0.0025000002,0.0025000002,0.0025000002,-0.0024057005,0.00045771897,-0.00426054,0.00026725634,-0.00038939976,-0.00022839263,0.0025493181,0.0025480716,0.002543023,0.0002522415,9.278551e-06,0.00079361384,1.52033645e-05,-2.9985424e-05,2.9556708e-05,0,0,1
1743177454205379,1743177454047379,1743177454053379,0,-0.015050388,0.18419133,0.4569914,0.0025000002,0.0025000002,0.0025000002,0.00019848085,-0.0009431094,-0.0006105304,0.00025902266,-0.0004557257,-0.00027415596,0.0025486052,0.0025473658,0.0025423283,1.7174817e-06,3.882165e-05,1.6297176e-05,1.3588858e-05,-3.104328e-05,2.4067158e-05,0,0,1
1743177454269379,1743177454115379,1743177454117379,0,-0.016751241,0.17597584,0.45247424,0.0025000002,0.0025000002,0.0025000002,0.0019721356,0.007270694,0.0039237738,0.00046411363,0.0004689254,0.00022878408,0.0025479468,0.0025466783,0.0025416543,0.00016960582,0.0023045917,0.0006741169,3.2266944e-05,0.00024857497,0.00010189,0,0,1
1743177454341379,1743177454183379,1743177454189379,0,-0.015134304,0.18390587,0.4578306,0.0025000002,0.0025000002,0.0025000002,0.00035010139,-0.00074467063,-0.0015047491,0.0004504643,0.0003235708,2.1242056e-05,0.0025474306,0.002546137,0.0025410214,5.3461704e-06,2.4234712e-05,9.90167e-05,2.9044035e-05,0.00021591465,7.783779e-05,0,0,1
1743177454405379,1743177454251379,1743177454253379,0,-0.012756611,0.17635202,0.4593529,0.0025000002,0.0025000002,0.0025000002,-0.0020336849,0.0068585128,-0.0030207634,0.00015306618,0.001106272,-0.00034284726,0.0025467284,0.002545445,0.0025403823,0.0001804439,0.0020550562,0.00039890135,3.9644965e-06,0.00043609354,2.076339e-05,0,0,1
1743177454477379,1743177454319379,1743177454325379,0,-0.015374799,0.18413447,0.45554373,0.0025000002,0.0025000002,0.0025000002,0.0007493521,-0.00090040267,0.00078958273,0.00022445252,0.00086591084,-0.00020725763,0.0025461437,0.002544836,0.002539773,2.4504534e-05,3.5479912e-05,2.728442e-05,6.4235146e-06,0.00037963758,2.1544076e-05,0,0,1
1743177454541379,1743177454387379,1743177454389379,0,-0.018482536,0.17844248,0.4598594,0.0025000002,0.0025000002,0.0025000002,0.0038940455,0.0047998577,-0.0035360754,0.00066376996,0.001336217,-0.0006053464,0.0025456343,0.002544297,0.00253919,0.00066185603,0.0010038074,0.0005460339,8.489078e-05,0.00045436213,-4.6405396e-05,0,0,1
1743177454613379,1743177454455379,1743177454461379,0,-0.0138824135,0.18218096,0.4544618,0.0025000002,0.0025000002,0.0025000002,-0.0007578637,0.0010262728,0.0019011497,0.0004935744,0.0012992417,-0.00030529714,0.002545029,0.002543698,0.0025386123,2.507535e-05,4.610429e-05,0.0001581619,7.172582e-05,0.0004054862,-2.1914946e-05,0,0,1
1743177454677379,1743177454523379,1743177454525379,0,-0.019241633,0.17849392,0.45874912,0.0025000002,0.0025000002,0.0025000002,0.004602088,0.0046743006,-0.00240615,0.0009854387,0.0017025328,-0.00055633846,0.0025445432,0.0025431865,0.0025380624,0.0009248207,0.00095197355,0.00025262998,0.0001738569,0.00047091075,-4.9535756e-05,0,0,1
1743177454749379,1743177454591379,1743177454597379,0,-0.015178692,0.1819421,0.4576199,0.0025000002,0.0025000002,0.0025000002,0.0004371389,0.0012218952,-0.0012676418,0.00091979717,0.0016449207,-0.000641425,0.002544003,0.002542612,0.002537518,8.346007e-06,6.5181506e-05,7.029822e-05,0.00015404221,0.00042233753,-5.20214e-05,0,0,1
1743177454813379,1743177454659379,1743177454661379,0,-0.013082219,0.18276072,0.46401584,0.0025000002,0.0025000002,0.0025000002,-0.0014985125,0.0005322099,-0.007698834,0.0006302813,0.0015119499,-0.0014864105,0.002543402,0.0025420208,0.0025369835,9.80987e-05,1.2474586e-05,0.0025963883,0.00012385633,0.00037326943,-0.0003566287,0,0,1
1743177454885379,1743177454727379,1743177454733379,0,-0.016306179,0.18560708,0.45608038,0.0025000002,0.0025000002,0.0025000002,0.0016068218,-0.002143681,0.00027027726,0.000747191,0.0010740468,-0.0012760778,0.0025430007,0.00254158,0.0025364878,0.0001128097,0.00020130054,3.2049097e-06,0.00012253385,0.00030448288,-0.00031355003,0,0,1
1743177454949379,1743177454795379,1743177454797379,0,-0.013936947,0.18102747,0.4638347,0.0025000002,0.0025000002,0.0025000002,-0.0007716096,0.002579838,-0.007534921,0.0005653628,0.0012544448,-0.0020253377,0.00254245,0.0025409937,0.0025359797,2.601958e-05,0.0002912711,0.0024873258,0.000104749284,0.0003029012,-0.00057379075,0,0,1
1743177455021379,1743177454863379,1743177454869379,0,-0.016474515,0.18363297,0.45483288,0.0025000002,0.0025000002,0.0025000002,0.0017353116,-9.5650554e-05,0.0015842617,0.0007054271,0.0010925442,-0.0015930958,0.0025419353,0.0025404824,0.0025354915,0.0001316279,4.1920202e-07,0.00011011293,0.00010796715,0.0002665882,-0.000491915,0,0,1
1743177455085379,1743177454931379,1743177454933379,0,-0.010868136,0.18164039,0.45774946,0.0025000002,0.0025000002,0.0025000002,-0.0039161015,0.002001822,-0.0013971329,0.00015214557,0.0012020144,-0.0015698079,0.0025415148,0.002540032,0.0025350275,0.00067045976,0.00017619305,8.57325e-05,1.4775207e-05,0.00025576624,-0.0004432875,0,0,1
1743177455157379,1743177454999379,1743177455005379,0,-0.014792573,0.18290934,0.45623904,0.0025000002,0.0025000002,0.0025000002,0.00017483287,0.0007727891,0.000109136105,0.00015486166,0.0011506004,-0.0013687745,0.0025410303,0.002539507,0.0025345609,1.3365765e-06,2.6113754e-05,5.2479845e-07,1.3166357e-05,0.00022827263,-0.00039015507,0,0,1
1743177455221379,1743177455067379,1743177455069379,0,-0.0138471555,0.18843898,0.45752662,0.0025000002,0.0025000002,0.0025000002,-0.000650087,-0.004882008,-0.0011278093,5.8494574e-05,0.0004284844,-0.0013401376,0.0025405076,0.0025389951,0.0025341029,1.848332e-05,0.001042673,5.5944995e-05,9.377312e-06,7.611718e-05,-0.000350144,0,0,1
1743177455293379,1743177455135379,1743177455141379,0,-0.016337434,0.18293035,0.45649126,0.0025000002,0.0025000002,0.0025000002,0.0019500246,0.00077562034,-0.00011062622,0.00028494533,0.00046975396,-0.0011928001,0.0025401632,0.0025386042,0.0025336796,0.00016633209,2.6167027e-05,5.2520875e-07,2.8167671e-05,7.0137234e-05,-0.00030828823,0,0,1
1743177455357379,1743177455203379,1743177455205379,0,-0.009166462,0.18305573,0.4571349,0.0025000002,0.0025000002,0.0025000002,-0.0052554426,0.00065772235,-0.00076022744,-0.00037834045,0.0004930415,-0.0011413051,0.0025397805,0.0025381895,0.002533259,0.0012083143,1.9316454e-05,2.551208e-05,-0.00011986185,6.4053056e-05,-0.00027443474,0,0,1
1743177455429379,1743177455271379,1743177455277379,0,-0.014547575,0.18366571,0.4561958,0.0025000002,0.0025000002,0.0025000002,8.379284e-06,9.183586e-05,0.0001616776,-0.00033204304,0.00044501,-0.0009853108,0.0025392137,0.0025376214,0.0025328228,3.0723595e-09,3.6929129e-07,1.1471108e-06,-0.00010551183,5.6428944e-05,-0.00024144255,0,0,1
1743177455493379,1743177455339379,1743177455341379,0,-0.014072555,0.17949617,0.45756567,0.0025000002,0.0025000002,0.0025000002,-0.0005162811,0.0042612255,-0.0012134016,-0.0003540997,0.0009019539,-0.0010125007,0.0025388433,0.002537219,0.0025324218,1.166525e-05,0.0007954148,6.449599e-05,-9.427668e-05,0.00014489907,-0.00022025881,0,0,1
1743177455565379,1743177455407379,1743177455413379,0,-0.015007998,0.18439415,0.45647192,0.0025000002,0.0025000002,0.0025000002,0.00041576306,-0.0006760508,-0.000109016895,-0.00026193302,0.00071298354,-0.0009043361,0.0025384105,0.0025367944,0.002532026,7.5663675e-06,2.0045369e-05,5.214429e-07,-8.20842e-05,0.0001251522,-0.00019395222,0,0,1
1743177455629379,1743177455475379,1743177455477379,0,-0.0112875365,0.18480854,0.4569198,0.0025000002,0.0025000002,0.0025000002,-0.0033806707,-0.0011185259,-0.0005430281,-0.000635303,0.00049418374,-0.00086130423,0.0025379413,0.002536286,0.0025316232,0.00050035893,5.442868e-05,1.3031107e-05,-0.00013215934,0.00010365309,-0.00017229265,0,0,1
1743177455701379,1743177455543379,1743177455549379,0,-0.015953839,0.18366098,0.4568752,0.0025000002,0.0025000002,0.0025000002,0.0013758527,0.000128299,-0.00052529573,-0.00039453083,0.00045019528,-0.00082099944,0.0025376354,0.0025359355,0.0025312565,8.288428e-05,7.0391536e-07,1.2082192e-05,-0.000106414685,9.132819e-05,-0.00015311253,0,0,1
1743177455765379,1743177455611379,1743177455613379,0,-0.018795405,0.18843836,0.45518512,0.0025000002,0.0025000002,0.0025000002,0.004141322,-0.004611805,0.0011548102,0.00014849374,-0.00015637185,-0.0005843882,0.0025371986,0.0025355082,0.0025308833,0.000751071,0.00093390915,5.8607155e-05,-3.7579593e-06,-3.141148e-05,-0.00012776582,0,0,1
1743177455837379,1743177455679379,1743177455685379,0,-0.016843555,0.1821914,0.4572163,0.0025000002,0.0025000002,0.0025000002,0.0019442734,0.001663059,-0.00088739395,0.0003634814,6.11921e-05,-0.0006205045,0.0025367944,0.002535047,0.002530512,0.000165572,0.00012091306,3.447317e-05,1.6513935e-05,-1.3175448e-05,-0.00011659698,0,0,1
1743177455901379,1743177455747379,1743177455749379,0,-0.013236911,0.18205488,0.45949602,0.0025000002,0.0025000002,0.0025000002,-0.0018345567,0.001551792,-0.0030691028,0.00010033601,0.00023987933,-0.0009136967,0.002536468,0.0025346887,0.0025301597,0.00014743154,0.00010582765,0.0004137628,-3.1133368e-06,1.0714002e-06,-0.00015217316,0,0,1
1743177455973379,1743177455815379,1743177455821379,0,-0.0140032265,0.1843943,0.45692497,0.0025000002,0.0025000002,0.0025000002,-0.0010579673,-0.0010047853,-0.00038170815,-3.8334096e-05,9.100689e-05,-0.00085009704,0.002536088,0.0025343185,0.002529814,4.9038554e-05,4.4162713e-05,6.4242695e-06,-8.611426e-06,-4.343951e-06,-0.00013472435,0,0,1
1743177456037379,1743177455883379,1743177455885379,0,-0.020320566,0.17585851,0.45372728,0.0025000002,0.0025000002,0.0025000002,0.0051825433,0.0071976483,0.0029543638,0.00058670045,0.0009411593,-0.0003941494,0.0025356666,0.002533856,0.0025294584,0.0011769315,0.0022683463,0.0003844556,0.00013331976,0.00026773865,-7.256901e-05,0,0,1
1743177456109379,1743177455951379,1743177455957379,0,-0.018716082,0.18243666,0.4558685,0.0025000002,0.0025000002,0.0025000002,0.003198724,7.867813e-05,0.0009556711,0.00089940743,0.0008375122,-0.00023238185,0.0025353918,0.0025335476,0.0025291364,0.00044840036,2.4933368e-07,4.0242692e-05,0.00017104068,0.00023571528,-5.9063386e-05,0,0,1
1743177456173379,1743177456019379,1743177456021379,0,-0.018409343,0.17280638,0.45483306,0.0025000002,0.0025000002,0.0025000002,0.0027527928,0.009378731,0.0021066666,0.0011212915,0.0018597201,4.808033e-05,0.0025349953,0.002533175,0.0025288123,0.00033214473,0.003855884,0.00019567285,0.00019032779,0.00066911575,-2.85668e-05,0,0,1
1743177456245379,1743177456087379,1743177456093379,0,-0.016814368,0.18169412,0.45688003,0.0025000002,0.0025000002,0.0025000002,0.0009082661,9.030104e-06,0.00018283725,0.0010957886,0.0016380548,6.4251464e-05,0.002534619,0.0025327594,0.0025284884,3.6163547e-05,2.9230978e-09,1.4741561e-06,0.0001718715,0.0005890107,-2.4970348e-05,0,0,1
1743177456309379,1743177456155379,1743177456157379,0,-0.014393069,0.18196143,0.45465055,0.0025000002,0.0025000002,0.0025000002,-0.0016469762,-0.00061421096,0.002548337,0.0007674294,0.0013686093,0.00036153832,0.0025343336,0.0025324451,0.0025281871,0.00011892369,1.6465847e-05,0.00028521154,0.000137058,0.0005165241,1.2164102e-05,0,0,1
1743177456381379,1743177456223379,1743177456229379,0,-0.016014839,0.1801638,0.4563896,0.0025000002,0.0025000002,0.0025000002,7.4806274e-05,0.000988841,0.00086447597,0.00068450975,0.0013231359,0.00042178418,0.0025339997,0.0025321236,0.0025278884,2.4537312e-07,4.2900887e-05,3.2869983e-05,0.000120679026,0.0004598227,1.4642976e-05,0,0,1
1743177456445379,1743177456291379,1743177456293379,0,-0.013021674,0.18020472,0.45896217,0.0025000002,0.0025000002,0.0025000002,-0.0029050692,0.000802964,-0.0016633272,0.00025477147,0.0012611911,0.00017204933,0.0025337231,0.0025318153,0.0025275964,0.00037009336,2.84897e-05,0.000121753124,6.19246e-05,0.00040818425,-1.686134e-06,0,0,1
1743177456517379,1743177456359379,1743177456365379,0,-0.017726136,0.18091592,0.45596462,0.0025000002,0.0025000002,0.0025000002,0.0016798067,-3.5881996e-05,0.0013941228,0.00042537425,0.0011057281,0.0003184274,0.0025333867,0.002531424,0.0025273003,0.0001237584,6.133831e-08,8.552344e-05,6.932724e-05,0.00035930978,8.754448e-06,0,0,1
1743177456581379,1743177456427379,1743177456429379,0,-0.021308219,0.17980406,0.45117438,0.0025000002,0.0025000002,0.0025000002,0.0050189667,0.0008880347,0.006236315,0.0009753113,0.0010791237,0.0010271617,0.0025331294,0.0025311322,0.0025270286,0.0011049147,3.426569e-05,0.001711198,0.00019330601,0.00032039607,0.00021256809,0,0,1
1743177456653379,1743177456495379,1743177456501379,0,-0.018025912,0.17981592,0.4599001,0.0025000002,0.0025000002,0.0025000002,0.001524939,0.0003989935,-0.0023741424,0.0010411118,0.0009975362,0.0006200373,0.0025329033,0.0025308747,0.0025267699,0.00010201024,6.941328e-06,0.0002477305,0.00018237624,0.0002828698,0.00015746192,0,0,1
1743177456717379,1743177456563379,1743177456565379,0,-0.021778338,0.17694628,0.4507473,0.0025000002,0.0025000002,0.0025000002,0.005040337,0.0028445423,0.0069604516,0.0015198921,0.0012181351,0.0013794077,0.0025325513,0.0025304868,0.0025264968,0.0011145982,0.00035419886,0.0021322276,0.00029398027,0.00029140917,0.0003938775,0,0,1
1743177456789379,1743177456631379,1743177456637379,0,-0.01718162,0.17786764,0.45625198,0.0025000002,0.0025000002,0.0025000002,0.0005245334,0.0015694052,0.0015181303,0.0014007295,0.0012601366,0.0013960883,0.0025323243,0.0025302365,0.0025262407,1.2072145e-05,0.00010810025,0.000101449405,0.0002602307,0.00026946375,0.0003588685,0,0,1
1743177456853379,1743177456699379,1743177456701379,0,-0.021997154,0.17405143,0.45915577,0.0025000002,0.0025000002,0.0025000002,0.00550221,0.0052666515,-0.00135535,0.0018917518,0.0017392418,0.0010670791,0.0025320784,0.0025299622,0.0025259815,0.0013284789,0.0012160678,8.041722e-05,0.00038811954,0.00038278959,0.00030627797,0,0,1
1743177456925379,1743177456767379,1743177456773379,0,-0.016684512,0.17846453,0.4582561,0.0025000002,0.0025000002,0.0025000002,0.00014425183,0.0006620139,-0.00038588047,0.001682544,0.0016102628,0.0008931486,0.0025317678,0.0025296027,0.002525717,9.1322175e-07,1.9243073e-05,6.5462236e-06,0.00034176387,0.0003392664,0.0002688272,0,0,1
1743177456989379,1743177456835379,1743177456837379,0,-0.0154903885,0.17718199,0.45607603,0.0025000002,0.0025000002,0.0025000002,-0.001095813,0.0018889755,0.0018153489,0.0013499239,0.0016437379,0.0010035625,0.0025315387,0.002529336,0.0025254707,5.270427e-05,0.00015689866,0.000145002,0.0002945388,0.00031743365,0.00025400304,0,0,1
1743177457061379,1743177456903379,1743177456909379,0,-0.01712477,0.1769373,0.45783937,0.0025000002,0.0025000002,0.0025000002,0.0003763573,0.0018327385,0.00013890862,0.0012333702,0.0016663331,0.0009001144,0.0025313422,0.0025291045,0.0025252432,6.217378e-06,0.00014752528,8.55846e-07,0.00026002145,0.0002970925,0.0002236967,0,0,1
1743177457125379,1743177456971379,1743177456973379,0,-0.015352643,0.17633791,0.4573053,0.0025000002,0.0025000002,0.0025000002,-0.00137395,0.0023330748,0.0007043779,0.0009212262,0.0017462829,0.00087668793,0.0025311175,0.0025288472,0.0025250046,8.286804e-05,0.00023938264,2.1836182e-05,0.00021897131,0.00029018358,0.0001995303,0,0,1
1743177457197379,1743177457039379,1743177457045379,0,-0.016778963,0.1773773,0.4569087,0.0025000002,0.0025000002,0.0025000002,8.374498e-05,0.0012512654,0.0011029243,0.0008209644,0.001687014,0.00090380944,0.0025308297,0.0025285021,0.0025247538,3.079017e-07,6.879502e-05,5.3563937e-05,0.0001927933,0.0002636793,0.00018205546,0,0,1
1743177457261379,1743177457107379,1743177457109379,0,-0.01588696,0.17444703,0.4595421,0.0025000002,0.0025000002,0.0025000002,-0.000571447,0.0042767674,-0.0015751421,0.00065426726,0.001997106,0.00060712954,0.0025306102,0.002528243,0.0025245126,1.4337855e-05,0.00080400147,0.0001090882,0.00016799591,0.00032836577,0.00014720023,0,0,1
1743177457333379,1743177457175379,1743177457181379,0,-0.017502237,0.17671627,0.45797497,0.0025000002,0.0025000002,0.0025000002,0.0010990887,0.0019832999,2.771616e-06,0.0007075205,0.001995357,0.0005348742,0.002530429,0.0025280146,0.002524286,5.3043088e-05,0.00017274416,5.65681e-10,0.00015423396,0.000309735,0.00012957773,0,0,1
1743177457397379,1743177457243379,1743177457245379,0,-0.018683527,0.18195958,0.4604331,0.0025000002,0.0025000002,0.0025000002,0.002254338,-0.003252685,-0.0024650097,0.0008927029,0.0013668789,0.00017573591,0.0025301308,0.0025276663,0.002524047,0.00022317862,0.00046553146,0.00026747896,0.0001624879,0.00021692144,8.204278e-05,0,0,1
1743177457469379,1743177457311379,1743177457317379,0,-0.016656624,0.17806178,0.45723873,0.0025000002,0.0025000002,0.0025000002,0.00020584869,0.00061808527,0.0007737279,0.00081047387,0.0012772182,0.00024735916,0.0025299645,0.0025274467,0.0025238323,1.8609695e-06,1.678731e-05,2.6374235e-05,0.00014325792,0.00019296173,7.537824e-05,0,0,1
1743177457533379,1743177457379379,1743177457381379,0,-0.02270241,0.17941403,0.4580319,0.0025000002,0.0025000002,0.0025000002,0.0062286523,-0.0006801039,-5.0604343e-05,0.0014591289,0.0010423802,0.0002118934,0.0025297683,0.0025272078,0.0025236153,0.0017039817,2.0591982e-05,1.0521348e-07,0.0003301051,0.00016739544,6.634148e-05,0,0,1
1743177457605379,1743177457447379,1743177457453379,0,-0.017358802,0.17828043,0.45908162,0.0025000002,0.0025000002,0.0025000002,0.0010165143,0.00060626864,-0.0011509657,0.0014061398,0.0009900888,4.8784947e-05,0.0025295182,0.0025268893,0.0025233848,4.5388584e-05,1.6126227e-05,5.8288013e-05,0.00029601934,0.00014928574,5.142105e-05,0,0,1
1743177457669379,1743177457515379,1743177457517379,0,-0.019244265,0.17788973,0.4580281,0.0025000002,0.0025000002,0.0025000002,0.0028826462,0.0011176616,-0.0001372397,0.0015829046,0.0010051355,2.6645846e-05,0.0025293313,0.0025266558,0.0025231736,0.000365035,5.4747325e-05,8.161926e-07,0.00030428177,0.00013796776,4.5167297e-05,0,0,1
1743177457741379,1743177457583379,1743177457589379,0,-0.017297855,0.17805289,0.45686516,0.0025000002,0.0025000002,0.0025000002,0.0009408814,0.0010811985,0.0009743571,0.0015060427,0.0010141678,0.00014016363,0.0025291769,0.0025264448,0.0025229687,3.88909e-05,5.135272e-05,4.1852785e-05,0.00027250964,0.00012759835,4.4770488e-05,0,0,1
1743177457805379,1743177457651379,1743177457653379,0,-0.018361028,0.17280307,0.45699754,0.0025000002,0.0025000002,0.0025000002,0.0020004434,0.006365329,0.0008150935,0.0015652315,0.0016546487,0.00022118306,0.00252891,0.0025261294,0.0025227524,0.0001758234,0.0017814419,2.939246e-05,0.00026093452,0.0003255937,4.2929456e-05,0,0,1
1743177457877379,1743177457719379,1743177457725379,0,-0.018321184,0.17967685,0.45883957,0.0025000002,0.0025000002,0.0025000002,0.0019035176,-0.00048953295,-0.0010634959,0.0016057305,0.0013978111,6.7428526e-05,0.0025287573,0.002525927,0.002522556,0.00015920773,1.0591786e-05,4.978299e-05,0.00024875597,0.00028534615,3.183008e-05,0,0,1
1743177457941379,1743177457787379,1743177457789379,0,-0.015956858,0.18278773,0.4593526,0.0025000002,0.0025000002,0.0025000002,-0.0004885608,-0.0033963174,-0.0016457438,0.0013550055,0.00082390115,-0.00013777334,0.002528587,0.0025257072,0.0025223577,1.0488585e-05,0.00050736044,0.0001194353,0.00021771964,0.00019044467,1.3720846e-05,0,0,1
1743177458013379,1743177457855379,1743177457861379,0,-0.016599212,0.17957439,0.45634004,0.0025000002,0.0025000002,0.0025000002,0.00025582052,-0.00019435585,0.0013996363,0.001223413,0.00070197706,4.628724e-05,0.002528371,0.0025254278,0.0025221582,2.8759903e-06,1.664818e-06,8.630564e-05,0.00019199893,0.00016744564,2.2410575e-05,0,0,1
1743177458077379,1743177457923379,1743177457925379,0,-0.01816851,0.17814396,0.45743853,0.0025000002,0.0025000002,0.0025000002,0.0017165674,0.0012011379,0.00029945374,0.0012824526,0.00076161907,7.666994e-05,0.0025282141,0.002525228,0.0025219773,0.00012949869,6.337791e-05,3.967051e-06,0.00018451651,0.00015498683,2.0202548e-05,0,0,1
1743177458149379,1743177457991379,1743177457997379,0,-0.016125368,0.1835609,0.45514947,0.0025000002,0.0025000002,0.0025000002,0.00076312514,-0.0024082363,0.001904577,0.0012202796,0.0003820754,0.0002954744,0.0025280346,0.0025249897,0.0025217559,2.559564e-05,0.0002553047,0.00015978624,0.00016549077,0.000105867424,3.691327e-05,0,0,1
1743177458213379,1743177458059379,1743177458061379,0,-0.009157168,0.19156267,0.44308272,0.0025000002,0.0025000002,0.0025000002,-0.0007978126,0.0005582571,0.009589493,0.0009786771,0.00040320764,0.0014081288,0.0025280335,0.0025252812,0.0025224185,2.7975408e-05,1.37289335e-05,0.004050646,0.00014232933,9.483676e-05,0.0005174305,0,0,1
1743177458285379,1743177458127379,1743177458133379,0,-0.007473213,0.19888698,0.44716525,0.0025000002,0.0025000002,0.0025000002,-0.0005645305,0.002283886,0.0014923513,0.0007939269,0.0006283725,0.0014182507,0.0025279333,0.0025264928,0.0025240132,1.40076945e-05,0.0002294195,9.808389e-05,0.00012361293,0.00011094878,0.00046722702,0,0,1
1743177458349379,1743177458195379,1743177458197379,0,-0.0085480865,0.19913253,0.45238596,0.0025000002,0.0025000002,0.0025000002,-0.00028133433,0.0024414957,-0.0039454997,0.00066519843,0.0008454429,0.0007761517,0.0025276907,0.0025263515,0.0025238201,3.4791967e-06,0.00026217703,0.0006852195,0.000108397675,0.00012905357,0.0003292581,0,0,1
1743177458421379,1743177458263379,1743177458269379,0,-0.01037915,0.19769923,0.4497471,0.0025000002,0.0025000002,0.0025000002,0.000332765,0.00031758845,0.00028300285,0.00062540005,0.0007822416,0.0007171307,0.002527455,0.0025254341,0.002522757,4.867986e-06,4.4358912e-06,3.5312128e-06,9.600328e-05,0.00011413456,0.00029026263,0,0,1
1743177458485379,1743177458331379,1743177458333379,0,-0.0063942224,0.1900121,0.44316995,0.0025000002,0.0025000002,0.0025000002,-0.0041763247,0.004594207,0.0083372,5.054573e-05,0.0012387803,0.0016293824,0.0025271855,0.0025246115,0.0025219338,0.0007668473,0.00092952943,0.003062355,-7.2957264e-06,0.00021175224,0.0006221328,0,0,1
1743177458557379,1743177458399379,1743177458405379,0,-0.012092664,0.1934865,0.45342672,0.0025000002,0.0025000002,0.0025000002,0.0012246243,-0.0010674,-0.0010720491,0.00019110441,0.0009626314,0.0013059792,0.0025270623,0.0025241696,0.002521446,6.5939756e-05,5.019729e-05,5.063904e-05,1.4719008e-06,0.00018039209,0.0005415897,0,0,1
1743177458621379,1743177458467379,1743177458469379,0,-0.004143062,0.19263408,0.44415653,0.0025000002,0.0025000002,0.0025000002,-0.006799131,-0.00091321766,0.00850746,-0.0006457547,0.0007383685,0.0021679434,0.0025269152,0.002523907,0.0025211838,0.0020327019,3.6505826e-05,0.0031885658,-0.00024205593,0.00015442545,0.00085848116,0,0,1
1743177458693379,1743177458535379,1743177458541379,0,-0.012057183,0.19223438,0.4523991,0.0025000002,0.0025000002,0.0025000002,0.001086064,-0.00056372583,0.00021776557,-0.0004384243,0.0005824395,0.0019344857,0.0025267422,0.0025236479,0.0025209934,5.1868945e-05,1.4009966e-05,2.0923844e-06,-0.00020686774,0.00013426064,0.00075595576,0,0,1
1743177458757379,1743177458603379,1743177458605379,0,-0.013297148,0.19711414,0.45671892,0.0025000002,0.0025000002,0.0025000002,0.002027449,-0.0057284534,-0.003986925,-0.00014321413,-0.00017317629,0.0012255255,0.0025265994,0.0025234383,0.0025207791,0.00018076776,0.0014452705,0.00070081954,-0.00016046068,-5.4838136e-05,0.0005815531,0,0,1
1743177458829379,1743177458671379,1743177458677379,0,-0.013352998,0.19215514,0.45493627,0.0025000002,0.0025000002,0.0025000002,0.0017192314,-0.0014341921,-0.0018804073,7.975468e-05,-0.0003242197,0.0008536966,0.0025264833,0.00252321,0.0025205263,0.00012998994,9.06582e-05,0.00015586156,-0.00012568843,-5.9126454e-05,0.00049327104,0,0,1
1743177458893379,1743177458739379,1743177458741379,0,-0.016451772,0.19301897,0.45857885,0.0025000002,0.0025000002,0.0025000002,0.004399882,-0.0030479133,-0.0051970184,0.000596953,-0.00065049576,0.00012935529,0.0025263438,0.0025229738,0.002520276,0.00085142645,0.00040956828,0.0011905897,-8.709896e-06,-0.000101080754,0.00029168208,0,0,1
1743177458965379,1743177458807379,1743177458813379,0,-0.01366255,0.18934885,0.45301253,0.0025000002,0.0025000002,0.0025000002,0.0010974829,-0.0003298074,0.00080642104,0.00065687555,-0.0006121523,0.00021042465,0.0025261657,0.0025226648,0.0025200073,5.2977462e-05,4.8027578e-06,2.8680675e-05,-1.3247904e-06,-8.9554516e-05,0.000260196,0,0,1
1743177459029379,1743177458875379,1743177458877379,0,-0.015796993,0.18943788,0.46025428,0.0025000002,0.0025000002,0.0025000002,0.002798886,-0.0013970137,-0.006043911,0.00091331336,-0.00070624234,-0.00053829845,0.0025260393,0.0025224385,0.0025197733,0.00034457823,8.6099695e-05,0.0016106078,4.0086128e-05,-8.9140914e-05,3.6226542e-05,0,0,1
1743177459101379,1743177458943379,1743177458949379,0,-0.014395597,0.18662965,0.4541933,0.0025000002,0.0025000002,0.0025000002,0.0009983865,0.00056296587,0.00040841103,0.0009234982,-0.00055433804,-0.00042492303,0.0025259408,0.0025222455,0.002519569,4.3846176e-05,1.39437025e-05,7.3668625e-06,4.0536273e-05,-7.67998e-05,3.277151e-05,0,0,1
1743177459165379,1743177459011379,1743177459013379,0,-0.012628183,0.18542564,0.45807678,0.0025000002,0.0025000002,0.0025000002,-0.00092092,0.0009034276,-0.0031277537,0.00070268754,-0.00037977268,-0.0007485023,0.0025257643,0.0025219668,0.0025193633,3.730856e-05,3.5988123e-05,0.00043145358,3.1216823e-05,-6.329702e-05,-2.2804725e-05,0,0,1
1743177459237379,1743177459079379,1743177459085379,0,-0.0150318425,0.18438427,0.45530117,0.0025000002,0.0025000002,0.0025000002,0.0013789297,0.0012611002,-5.4240227e-05,0.00078364613,-0.00018338878,-0.00066533685,0.0025256763,0.0025217982,0.0025191957,8.364964e-05,7.001794e-05,1.2778509e-07,3.7493992e-05,-4.7336776e-05,-2.008988e-05,0,0,1
1743177459301379,1743177459147379,1743177459149379,0,-0.012867244,0.18738453,0.45740092,0.0025000002,0.0025000002,0.0025000002,-0.0011690854,-0.00241822,-0.0018902123,0.00054986845,-0.0004508904,-0.0008120379,0.002525564,0.002521624,0.0025190308,6.0130053e-05,0.00025758648,0.00015768106,2.5806607e-05,-7.2507515e-05,-3.656206e-05,0,0,1
1743177459373379,1743177459215379,1743177459221379,0,-0.01308878,0.18332121,0.4564121,0.0025000002,0.0025000002,0.0025000002,-0.0011976168,0.0009787977,-0.0006174147,0.0003406625,-0.00027968077,-0.00078874687,0.0025254218,0.0025213894,0.002518864,6.310435e-05,4.2254476e-05,1.6819442e-05,1.5162338e-05,-5.8768404e-05,-3.419851e-05,0,0,1
1743177459437379,1743177459283379,1743177459285379,0,-0.017490642,0.17894381,0.45470756,0.0025000002,0.0025000002,0.0025000002,0.0031544203,0.0049463958,0.001252681,0.00067752076,0.0003458546,-0.00054422114,0.0025253168,0.0025212294,0.002518721,0.00043780505,0.0010778157,6.934381e-05,6.57604e-05,7.7301505e-05,-2.18026e-05,0,0,1
1743177459509379,1743177459351379,1743177459357379,0,-0.01711022,0.1844461,0.45580608,0.0025000002,0.0025000002,0.0025000002,0.002615555,-0.00089752674,0.00026538968,0.00090953894,0.00019689657,-0.000447259,0.0025252383,0.0025210865,0.0025185847,0.0003010113,3.5570763e-05,3.114421e-06,9.3924245e-05,6.3788626e-05,-1.8819577e-05,0,0,1
1743177459573379,1743177459419379,1743177459421379,0,-0.018236391,0.17851077,0.45400685,0.0025000002,0.0025000002,0.0025000002,0.0036263845,0.0047051166,0.0021965823,0.0012347951,0.000736613,-0.00013074282,0.002525082,0.0025208567,0.0025184378,0.0005786683,0.0009757759,0.0002128733,0.00015195698,0.00017297019,8.918301e-06,0,0,0
1743177459645379,1743177459487379,1743177459493379,0,-0.014560342,0.18340544,0.45620206,0.0025000002,0.0025000002,0.0025000002,-0.00013502594,0.0017199069,0.003571242,0.0010708024,0.00085401017,0.00031237758,0.008286152,0.0062641017,0.0062487694,2.4447758e-07,5.2278105e-05,0.00022669882,0.00013373568,0.00015852114,3.499061e-05,0,0,1
1743177459709379,1743177459555379,1743177459557379,0,-0.018772872,0.18220091,0.4585868,0.0025000002,0.0025000002,0.0025000002,0.0040567364,0.001679346,-0.00088116527,0.0014282734,0.0009553698,0.00016945647,0.0042420444,0.0040021553,0.003999807,0.00043105814,8.029514e-05,2.158233e-05,0.00016933063,0.00014915605,2.8217795e-05,0,0,1
1743177459781379,1743177459623379,1743177459629379,0,-0.016856432,0.18269534,0.45519686,0.0025000002,0.0025000002,0.0025000002,0.00048240786,0.00042067468,0.002893716,0.001315036,0.0008915001,0.000495592,0.0035255693,0.003438622,0.0034374297,7.3342717e-06,5.7507873e-06,0.0002706544,0.00014993669,0.00013198782,5.7241894e-05,0,0,1
1743177459845379,1743177459691379,1743177459693379,0,-0.014188383,0.18586656,0.45701614,0.0025000002,0.0025000002,0.0025000002,-0.0023600834,-0.0027625859,0.00024437904,0.00087505695,0.00045367188,0.0004655189,0.0032271466,0.003182458,0.0031817872,0.00019177567,0.0002670481,2.085762e-06,0.00010902747,8.421592e-05,5.0638697e-05,0,0,1
1743177459917379,1743177459759379,1743177459765379,0,-0.015091449,0.18408127,0.4558195,0.0025000002,0.0025000002,0.0025000002,-0.00094832317,-0.00039868057,0.0013938546,0.00065676495,0.0003515394,0.0005766556,0.0030639982,0.0030360941,0.0030357025,3.261232e-05,5.83893e-06,7.110867e-05,9.207059e-05,7.3434705e-05,5.3089327e-05,0,0,1
1743177459981379,1743177459827379,1743177459829379,0,-0.012759886,0.1811742,0.45744565,0.0025000002,0.0025000002,0.0025000002,-0.0032313939,0.0024707764,-0.00043821335,0.0001912812,0.00060506415,0.0004551392,0.0029603057,0.002941452,0.0029411747,0.00039192298,0.0002303107,7.259487e-06,3.412771e-05,9.221563e-05,4.5864468e-05,0,0,1
1743177460053379,1743177459895379,1743177459901379,0,-0.015464627,0.1816658,0.45471194,0.0025000002,0.0025000002,0.0025000002,3.9711835e-05,0.001609087,0.0023633838,0.00017313557,0.0007252674,0.00068358966,0.0028885314,0.0028752119,0.0028750051,6.06625e-08,0.00010006028,0.00021586553,3.004926e-05,9.315478e-05,6.621671e-05,0,0,1
1743177460117379,1743177459963379,1743177459965379,0,-0.015602324,0.18159297,0.45380276,0.0025000002,0.0025000002,0.0025000002,0.00015001523,0.0013335049,0.0030192733,0.00017036764,0.00079808943,0.0009632129,0.002836199,0.0028262802,0.0028260967,8.816404e-07,6.991302e-05,0.0003584045,2.6557362e-05,9.037231e-05,0.00010119693,0,0,1
1743177460189379,1743177460031379,1743177460037379,0,-0.014691078,0.1825522,0.45673177,0.0025000002,0.0025000002,0.0025000002,-0.00065090356,0.00030633807,-0.00028809905,7.2046445e-05,0.0007392039,0.00081340445,0.0027963244,0.002788654,0.0027884757,1.6834616e-05,3.7362477e-06,3.3079893e-06,2.1362548e-05,8.000039e-05,8.8685774e-05,0,0,1
1743177460253379,1743177460099379,1743177460101379,0,-0.0095436815,0.17885318,0.45662767,0.0025000002,0.0025000002,0.0025000002,-0.0055555794,0.0041839033,-0.0002323091,-0.0006016834,0.0011515077,0.000688217,0.0027649736,0.002758807,0.0027586385,0.0012402957,0.00070476416,2.1731157e-06,-0.00012968104,0.00015479606,7.7808305e-05,0,0,1
1743177460325379,1743177460167379,1743177460173379,0,-0.015913846,0.1819877,0.45523852,0.0025000002,0.0025000002,0.0025000002,0.0013648982,0.0008800328,0.0010898709,-0.00036624758,0.0011190253,0.0007362906,0.0027394646,0.002734555,0.002734396,7.5560056e-05,3.1478765e-05,4.8257887e-05,-0.000105109924,0.00014003272,7.427058e-05,0,0,1
1743177460389379,1743177460235379,1743177460237379,0,-0.012123426,0.18269512,0.45697945,0.0025000002,0.0025000002,0.0025000002,-0.0025729109,0.00022906065,-0.0007982552,-0.0006304255,0.0010124552,0.00055257796,0.002718548,0.0027144717,0.0027143096,0.000270564,2.1437788e-06,2.608414e-05,-0.0001249178,0.0001235249,6.225629e-05,0,0,1
1743177460461379,1743177460303379,1743177460309379,0,-0.0138817355,0.18244031,0.45555502,0.0025000002,0.0025000002,0.0025000002,-0.0004558821,0.00073091686,0.0005876422,-0.0006095295,0.0009787448,0.00055677036,0.0027010383,0.0026975614,0.002697396,8.549325e-06,2.2002485e-05,1.4222357e-05,-0.000110986366,0.0001113708,5.650575e-05,0,0,1
1743177460525379,1743177460371379,1743177460373379,0,-0.014019387,0.18366055,0.45165342,0.0025000002,0.0025000002,0.0025000002,2.4807377e-05,-0.00033283234,0.0043714345,-0.00053358776,0.000821725,0.0010134537,0.0026861092,0.0026831268,0.0026829594,2.5456316e-08,4.587417e-06,0.000791386,-9.769622e-05,9.7488475e-05,0.00014448437,0,0,1
1743177460597379,1743177460439379,1743177460445379,0,-0.012729052,0.18309231,0.4571542,0.0025000002,0.0025000002,0.0025000002,-0.0011583124,0.00027352571,-0.0014300942,-0.00060837873,0.0007560885,0.00072091346,0.0026732855,0.0026706671,0.0026704904,5.5765242e-05,3.111344e-06,8.509621e-05,-9.267632e-05,8.618981e-05,0.00011699937,0,0,1
1743177460661379,1743177460507379,1743177460509379,0,-0.008449629,0.18421453,0.45707494,0.0025000002,0.0025000002,0.0025000002,-0.0050571957,-0.00059866905,-0.001358211,-0.0011409835,0.0005938865,0.0004720184,0.0026621039,0.002659797,0.0026596165,0.001067461,1.4977425e-05,7.705436e-05,-0.00020937588,7.407824e-05,9.376759e-05,0,0,1
1743177460733379,1743177460575379,1743177460581379,0,-0.0136251515,0.18354186,0.4552866,0.0025000002,0.0025000002,0.0025000002,0.00093209994,0.00062413514,0.00031858683,-0.0008927975,0.0005975141,0.00045364207,0.002652317,0.0026502395,0.002650056,3.639628e-05,1.6334376e-05,4.253838e-06,-0.00017995246,6.7165245e-05,8.3051156e-05,0,0,1
1743177460797379,1743177460643379,1743177460645379,0,-0.011611475,0.18300976,0.46309787,0.0025000002,0.0025000002,0.0025000002,-0.0005721429,0.0016611367,-0.0077140033,-0.00085440924,0.0007248492,-0.00052418234,0.0026436115,0.002641762,0.0026415861,1.375843e-05,0.00011605783,0.0025029937,-0.00016005599,7.3018586e-05,-0.00022654573,0,0,1
1743177460869379,1743177460711379,1743177460717379,0,-0.010779977,0.18497913,0.4532709,0.0025000002,0.0025000002,0.0025000002,-0.0005818888,0.00052924454,0.002169907,-0.00082178356,0.0007014304,-0.00020165156,0.0026358536,0.0026342086,0.0026340464,1.4273029e-05,1.1814158e-05,0.00019861541,-0.00014260311,6.5691296e-05,-0.00017564616,0,0,1
1743177460933379,1743177460779379,1743177460781379,0,-0.0139848925,0.18937054,0.45725864,0.0025000002,0.0025000002,0.0025000002,0.0035080572,-0.0029690713,-0.00228405,-0.0003034224,0.00026202126,-0.00045098347,0.0026289234,0.0026274247,0.0026272838,0.0005201312,0.00037275782,0.0002206781,-6.326169e-05,1.3200915e-05,-0.0001810373,0,0,1
1743177461005379,1743177460847379,1743177460853379,0,-0.00943186,0.1860583,0.45379773,0.0025000002,0.0025000002,0.0025000002,2.9881005e-05,0.0019305646,0.00071915984,-0.00026351988,0.0004617718,-0.0003109068,0.0026227236,0.0026213266,0.0026212328,3.782643e-08,0.00015797476,2.1917589e-05,-5.5683577e-05,3.0532996e-05,-0.00015673989,0,0,1
1743177461069379,1743177460915379,1743177460917379,0,-0.004777386,0.19543597,0.45628244,0.0025000002,0.0025000002,0.0025000002,-0.0034600585,-0.0059708953,-0.002428323,-0.00064620405,-0.00030835607,-0.00056431704,0.0026170507,0.0026158062,0.0026157761,0.0005082908,0.0015144503,0.00025033474,-0.00010986894,-0.00015442976,-0.0001679449,0,0,1
1743177461141379,1743177460983379,1743177460989379,0,-0.00828613,0.19029711,0.45342016,0.0025000002,0.0025000002,0.0025000002,0.0019824463,0.0014054626,-0.0002643168,-0.0003315065,-0.000103162645,-0.000528445,0.0026119992,0.0026108243,0.0026109132,0.00016718116,8.408358e-05,2.9813107e-06,-7.670098e-05,-0.00012587535,-0.00014819574,0,0,1
1743177461205379,1743177461051379,1743177461053379,0,-0.0068233944,0.19588822,0.45324028,0.0025000002,0.0025000002,0.0025000002,0.0023795536,-0.0021195859,-0.0009584427,-6.9429807e-06,-0.00034453,-0.0005799868,0.0026073365,0.0026062927,0.0026065547,0.0002412967,0.00019147636,3.920135e-05,-3.8630835e-05,-0.00013372899,-0.00013514711,0,0,1
1743177461277379,1743177461119379,1743177461125379,0,-0.002157572,0.196017,0.4518565,0.0025000002,0.0025000002,0.0025000002,-2.7715752e-05,0.00024269521,-0.00056004524,-9.429861e-06,-0.00027422898,-0.0005775996,0.0026031365,0.0026021856,0.002602707,3.2787923e-08,2.5149245e-06,1.339001e-05,-3.4009943e-05,-0.000117418094,-0.00012057056,0,0,1
1743177461341379,1743177461187379,1743177461189379,0,-0.004673644,0.1947494,0.44630718,0.0025000002,0.0025000002,0.0025000002,0.004685699,0.0038424283,0.0039859116,0.00055266294,0.00021874678,-3.142038e-05,0.002599244,0.0025984284,0.0025992151,0.00093855395,0.0006317076,0.00067871204,8.242375e-05,-2.7734037e-05,-2.488181e-05,0,0,1
1743177461413379,1743177461255379,1743177461261379,0,0.0031830212,0.20114426,0.44825813,0.0025000002,0.0025000002,0.0025000002,-0.0006435037,0.00028312206,0.00053849816,0.00040945993,0.00022643319,3.682544e-05,0.0025957609,0.0025950777,0.0025962447,1.7725353e-05,3.4279092e-06,1.2416459e-05,7.043407e-05,-2.4003382e-05,-2.0416526e-05,0,0,1
1743177461477379,1743177461323379,1743177461325379,0,0.0029043318,0.20244011,0.4476303,0.0025000002,0.0025000002,0.0025000002,0.0021692086,0.001654461,-9.897351e-05,0.00062013406,0.00039750463,2.0481077e-05,0.0025925664,0.0025919843,0.002593548,0.00020166485,0.00011746868,4.2583048e-07,8.614479e-05,-7.0665883e-06,-1.8023275e-05,0,0,1
1743177461549379,1743177461391379,1743177461397379,0,0.0064417967,0.2056545,0.4455885,0.0025000002,0.0025000002,0.0025000002,0.0013641953,0.0013325065,0.000513494,0.0007092118,0.0005095315,7.945447e-05,0.0025896719,0.0025892388,0.0025911995,7.984832e-05,7.628065e-05,1.1288356e-05,8.539099e-05,2.9116018e-06,-1.4514136e-05,0,0,1
1743177461613379,1743177461459379,1743177461461379,0,0.013808794,0.21238813,0.44243202,0.0025000002,0.0025000002,0.0025000002,-0.00353431,-0.0029945672,0.002429217,0.0002011846,8.974693e-05,0.00036088462,0.0025869948,0.0025866267,0.0025890025,0.0005365019,0.0003858065,0.00025346476,1.0939031e-05,-4.3625067e-05,1.7567843e-05,0,0,1
1743177461685379,1743177461527379,1743177461533379,0,0.012025447,0.21048293,0.44343847,0.0025000002,0.0025000002,0.0025000002,0.0009680169,0.0017473847,-5.733967e-05,0.00029298846,0.0002882872,0.00031079474,0.0025846062,0.0025843016,0.002587115,4.0283667e-05,0.0001313916,1.4206124e-07,1.4452121e-05,-2.2672368e-05,1.5447644e-05,0,0,1
1743177461749379,1743177461595379,1743177461597379,0,0.02050586,0.21900377,0.4446394,0.0025000002,0.0025000002,0.0025000002,-0.005192728,-0.004289463,-0.0025788844,-0.00036375216,-0.00026033047,-3.4962402e-05,0.0025823088,0.0025820911,0.0025853345,0.0011602202,0.00079353707,0.00028547546,-0.00012617766,-0.00011495898,-2.0578358e-05,0,0,1
1743177461821379,1743177461663379,1743177461669379,0,0.01820639,0.21737981,0.44172207,0.0025000002,0.0025000002,0.0025000002,-3.3845427e-05,4.374981e-05,-0.000974983,-0.00032425628,-0.00022393047,-0.00014750357,0.0025802788,0.002580085,0.0025838027,4.9327696e-08,8.230314e-08,4.088069e-05,-0.000111077796,-0.00010118644,-2.3008919e-05,0,0,1
