timestamp,gyro_rad[0],gyro_rad[1],gyro_rad[2],gyro_integral_dt,accelerometer_timestamp_relative,accelerometer_m_s2[0],accelerometer_m_s2[1],accelerometer_m_s2[2],accelerometer_integral_dt,accelerometer_clipping,gyro_clipping,accel_calibration_count,gyro_calibration_count
1743177449813379,0.0018642179,0.013049481,-0.006125288,4000,0,-0.02633622,-0.01316794,-9.775527,4000,0,0,0,1
1743177449817379,0.010386346,0.010918942,-0.001597935,4000,0,0.0035913028,-0.050278075,-9.782707,4000,0,0,0,1
1743177449821379,0.009321089,0.0053262967,0.006125256,4000,0,0.01436521,-0.029927354,-9.767147,4000,0,0,0,1
1743177449825379,-0.0045273635,0.0029294393,0.009321082,4000,0,0.0035913025,-0.016759245,-9.776724,4000,0,0,0,1
1743177449829379,-0.012783159,-0.0034621393,0.006924237,4000,0,0.0,-0.03112445,-9.79827,4000,0,0,0,1
1743177449837379,-0.00079895626,0.0005326426,0.0034621065,4000,0,0.0011971011,0.013168281,-9.783907,4000,0,0,0,1
1743177449841379,0.005592644,-0.0047936845,-0.0015978968,4000,0,-0.020350715,0.0035914732,-9.782707,4000,0,0,0,1
1743177449845379,-0.0010652649,-0.013315798,-0.0042610844,4000,0,-0.011971009,0.016759584,-9.77313,4000,0,0,0,1
1743177449849379,-0.00079895963,-0.009587379,-0.00053263264,4000,0,0.03711013,-0.013167939,-9.770737,4000,0,0,0,1
1743177449853379,0.0047936607,-0.0066579017,0.009054766,4000,0,0.06703766,-0.05746067,-9.783907,4000,0,0,0,1
1743177449857379,-0.0034621365,-0.0029295138,0.015978957,4000,0,0.044292733,-0.055066474,-9.788693,4000,0,0,0,1
1743177449861379,-0.009853699,-0.00079899275,0.007190527,4000,0,0.0023942022,-0.02873025,-9.783907,4000,0,0,0,1
1743177449865379,-0.0034620939,-0.006125298,-0.005326303,4000,0,-0.020350715,-0.022744747,-9.816229,4000,0,0,0,1
1743177449869379,0.0050600013,-0.005326334,-0.0018641964,4000,0,-0.027533323,-0.013167939,-9.822214,4000,0,0,0,1
1743177449873379,0.0053263144,-0.0005326437,0.0047936994,4000,0,-0.0023942024,0.008379877,-9.785104,4000,0,0,0,1
1743177449877379,0.0007989452,0.0021305326,-0.0013315764,4000,0,0.04668694,0.025139293,-9.776724,4000,0,0,0,1
1743177449881379,-0.005326329,-0.00026631125,-0.009054745,4000,0,0.056263745,0.06584072,-9.78989,4000,0,0,0,1
1743177449885379,-0.010918978,-0.0058589354,-0.007190526,4000,0,0.04548984,0.07900883,-9.813835,4000,0,0,0,1
1743177449889379,-0.007989481,-0.0045273826,-0.007456851,4000,0,0.043095633,0.035913195,-9.848549,4000,0,0,0,1
1743177449893379,-0.005059996,-0.0010652754,-0.0087884385,4000,0,0.02274492,0.003591475,-9.868902,4000,0,0,0,1
1743177449897379,-0.007456854,-0.0010652489,-0.003728427,4000,0,0.0011971011,0.028730594,-9.866506,4000,0,0,0,1
1743177449901379,-0.0034621102,-0.0018642197,-0.0045273714,4000,0,0.0011971011,0.058658123,-9.859325,4000,0,0,0,1
1743177449905379,-0.0015978899,0.0021305245,-0.006125275,4000,0,0.016759416,0.038307402,-9.841368,4000,0,0,0,1
1743177449909379,-0.0053263167,0.0026631725,0.0010652669,4000,0,0.02873042,0.0083798785,-9.817425,4000,0,0,0,1
1743177449913379,-0.0050600017,-0.0005326266,0.0042610634,4000,0,0.039504327,1.7109566e-07,-9.803061,4000,0,0,0,1
1743177449917379,-0.003462119,0.005858957,0.0037284156,4000,0,0.028730419,0.0143653825,-9.807848,4000,0,0,0,1
1743177449921379,-0.0013315707,0.0021305347,0.0063915877,4000,0,0.023942016,0.035913195,-9.824609,4000,0,0,0,1
1743177449925379,-0.002130508,-0.00852212,0.00452738,4000,0,0.038307235,0.0323219,-9.829395,4000,0,0,0,1
1743177449929379,-0.004527351,-0.0042610695,-0.006125281,4000,0,0.017956512,0.023942187,-9.838972,4000,0,0,0,1
1743177449933379,0.0005326482,-0.0023968683,-0.014647383,4000,0,-0.008379708,0.0395045,-9.824608,4000,0,0,0,1
1743177449937379,0.006924201,-0.005592671,-0.011717905,4000,0,-0.019153617,0.04908131,-9.779117,4000,0,0,0,1
1743177449941379,0.006391609,0.0021305205,-0.006924202,4000,0,-0.020350713,0.037110306,-9.767147,4000,0,0,0,1
1743177449949379,-0.0013315909,-0.0018642072,-0.0031957924,4000,0,0.008379708,0.016759586,-9.794681,4000,0,0,0,1
1743177449953379,-0.0039947494,-0.0077231633,-0.0005326314,4000,0,0.035913024,0.029927697,-9.836577,4000,0,0,0,1
1743177449957379,-0.003195799,-0.0053263204,0.0015978955,4000,0,0.013168109,0.047884203,-9.874886,4000,0,0,0,1
1743177449961379,0.0018642081,0.00026631996,0.0026631642,4000,0,-0.041898537,0.0395045,-9.858126,4000,0,0,0,1
1743177449965379,0.002663157,0.005592639,0.004793694,4000,0,-0.043095633,0.0083798785,-9.829395,4000,0,0,0,1
1743177449969379,-0.0018642272,0.010120008,0.0010652773,4000,0,0.0035913028,-0.019153446,-9.78989,4000,0,0,0,1
1743177449973379,0.002663143,0.009853695,-0.004261073,4000,0,-0.0011971008,-0.035912853,-9.746797,4000,0,0,0,1
1743177449981379,0.00026632976,0.009587386,-0.003195778,4000,0,0.01316811,-0.021547649,-9.740809,4000,0,0,0,1
1743177449985379,-0.0021304986,0.015180022,0.0045273826,4000,0,0.067037664,0.007182776,-9.759963,4000,0,0,0,1
1743177449989379,-0.0026631572,0.014114756,0.00506001,4000,0,0.062249243,-0.01795634,-9.794682,4000,0,0,0,1
1743177449993379,0.002929459,0.0066579073,-0.0015979165,4000,0,0.037110135,-0.070628785,-9.827002,4000,0,0,0,1
1743177449997379,0.0055926386,0.0026631595,-0.0010652745,4000,0,0.016759416,-0.055066474,-9.844959,4000,0,0,0,1
1743177450001379,-0.0034621053,0.002663155,0.00399475,4000,0,0.005985504,-0.02633605,-9.806652,4000,0,0,0,1
1743177450005379,-0.0082558,-0.0013315927,-0.0007989396,4000,0,0.0011971011,-0.015562142,-9.750386,4000,0,0,0,1
1743177450009379,-0.0010652599,-0.0031958285,-0.012783166,4000,0,-0.020350715,0.02513929,-9.756373,4000,0,0,0,1
1743177450013379,0.007190539,-0.003728463,-0.018642118,4000,0,-0.04548984,0.033519,-9.7803135,4000,0,0,0,1
1743177450021379,0.005592632,-0.006657914,-0.008522115,4000,0,-0.05267244,0.025139293,-9.815031,4000,0,0,0,1
1743177450025379,0.010652663,0.0005326151,-0.006924195,4000,0,-0.021547817,0.034716096,-9.816229,4000,0,0,0,1
1743177450029379,0.0045273863,0.0055926475,-0.005326303,4000,0,-0.002394202,-0.010773739,-9.788693,4000,0,0,0,1
1743177450033379,-0.002929478,0.0021305378,-0.0021305208,4000,0,-0.016759414,-0.034715753,-9.786301,4000,0,0,0,1
1743177450037379,0.002663159,-0.0034621113,1.4289847e-09,4000,0,-0.025139121,-0.004788233,-9.793484,4000,0,0,0,1
1743177450041379,0.008788434,0.0021305294,-0.00026630412,4000,0,-0.02274492,0.007182777,-9.800665,4000,0,0,0,1
1743177450045379,0.005060007,0.0026631607,4.2546553e-09,4000,0,0.0011971008,0.0011972722,-9.815032,4000,0,0,0,1
1743177450049379,-0.0013315756,-0.0042610676,0.0055926335,4000,0,0.025139121,0.0035914741,-9.815032,4000,0,0,0,1
1743177450053379,-0.0066579143,-0.0015979052,0.009321054,4000,0,0.05746084,-0.0011969294,-9.838972,4000,0,0,0,1
1743177450057379,-0.007989477,-0.0023968702,1.0220311e-09,4000,0,0.06823475,0.021547988,-9.855732,4000,0,0,0,1
1743177450061379,-0.0042610504,-0.010120039,-0.009587358,4000,0,0.03232173,0.0323219,-9.810242,4000,0,0,0,1
1743177450065379,-0.0058589657,-0.0101200035,-0.0063915933,4000,0,0.023942016,0.0071827765,-9.764753,4000,0,0,0,1
1743177450069379,-0.0053263395,-0.005059992,0.0015978888,4000,0,0.019153617,0.009576978,-9.752781,4000,0,0,0,1
1743177450073379,0.001331581,-0.005858952,0.0015979095,4000,0,-0.027533323,0.008379877,-9.762358,4000,0,0,0,1
1743177450077379,-0.001065255,-0.010386329,-0.002130536,4000,0,-0.040701427,-0.0035911317,-9.806652,4000,0,0,0,1
1743177450081379,-0.0061252876,-0.00719053,0.0031957752,4000,0,0.0071826056,-0.0011969289,-9.856928,4000,0,0,0,1
1743177450085379,-0.002929504,0.00079896685,0.010652637,4000,0,0.049081136,-0.020350544,-9.841368,4000,0,0,0,1
1743177450089379,0.006391576,0.0039947727,0.008255796,4000,0,0.039504327,-0.055066474,-9.799467,4000,0,0,0,1
1743177450093379,0.0074568624,-0.001597886,0.004527362,4000,0,0.007182605,-0.06464328,-9.807847,4000,0,0,0,1
1743177450097379,-0.00026630663,-0.0074568596,0.003195775,4000,0,0.016759416,-0.019153446,-9.815031,4000,0,0,0,1
1743177450101379,-0.0037284296,-0.0050600097,0.0037284172,4000,0,0.031124622,0.029927697,-9.818621,4000,0,0,0,1
1743177450109379,0.001597906,-0.005059994,0.005326332,4000,0,0.050278246,-0.023941847,-9.79827,4000,0,0,0,1
1743177450117379,0.009587399,0.015180035,-0.006924161,4000,0,-0.011971008,-0.008379535,-9.79827,4000,0,0,0,1
1743177450121379,0.007456899,0.022370541,-0.00079891423,4000,0,-0.041898537,0.019153785,-9.758768,4000,0,0,0,1
1743177450125379,0.006391654,0.015978947,0.008255794,4000,0,-0.0047884043,0.0011972726,-9.797075,4000,0,0,0,1
1743177450129379,0.0037284684,0.0066578896,0.011451589,4000,0,0.0,-0.022744747,-9.854535,4000,0,0,0,1
1743177450133379,0.0026631765,0.0013315795,0.009054745,4000,0,-0.01316811,0.007182777,-9.844959,4000,0,0,0,1
1743177450141379,-0.004527389,0.009321057,-0.0029294752,4000,0,0.0011971008,-0.0047882325,-9.816229,4000,0,0,0,1
1743177450145379,-1.7494652e-09,0.0015978952,-0.0010652669,4000,0,-0.027533323,0.0011972722,-9.795878,4000,0,0,0,1
1743177450149379,0.004793691,-0.003462111,0.0039947396,4000,0,-0.031124622,0.034716096,-9.811439,4000,0,0,0,1
1743177450153379,0.0069242185,-0.002130525,0.0031957985,4000,0,0.028730422,0.013168282,-9.848549,4000,0,0,0,1
1743177450157379,-0.0010652646,-0.00079895207,0.0010652619,4000,0,0.071826056,-0.04668677,-9.817425,4000,0,0,0,1
1743177450161379,-0.012783174,0.0021305222,-0.006125276,4000,0,0.02873042,-0.05147517,-9.797075,4000,0,0,0,1
1743177450165379,-0.010386324,0.007456809,-0.015180045,4000,0,-0.010773908,-0.03351866,-9.794682,4000,0,0,0,1
1743177450169379,-0.001597887,0.007190507,-0.010652667,4000,0,0.016759414,-0.017956343,-9.764753,4000,0,0,0,1
1743177450173379,0.001331575,-5.96309e-09,-0.0023968485,4000,0,0.021547817,1.7071957e-07,-9.781511,4000,0,0,0,1
1743177450177379,0.003728423,-0.0037284275,-0.0037284277,4000,0,-0.017956512,0.02394219,-9.793484,4000,0,0,0,1
1743177450181379,0.0069242306,-0.00053262914,-0.009321055,4000,0,-0.035913024,0.047884203,-9.770737,4000,0,0,0,1
1743177450185379,0.0031958069,0.0037284335,-0.007456843,4000,0,-0.027533323,0.034716096,-9.78989,4000,0,0,0,1
1743177450189379,-0.0026631367,0.008788437,0.002396858,4000,0,0.005985504,0.020350888,-9.812637,4000,0,0,0,1
1743177450193379,-0.00026630022,0.01225055,0.008788422,4000,0,0.017956512,0.047884203,-9.783907,4000,0,0,0,1
1743177450197379,0.0005326477,0.003994744,0.0066579003,4000,0,-0.015562311,0.071826234,-9.759963,4000,0,0,0,1
1743177450201379,-0.0005326168,-0.005858957,0.0018642126,4000,0,-0.027533323,0.074220434,-9.779117,4000,0,0,0,1
1743177450205379,0.0013315759,-0.006657901,0.004527379,4000,0,-0.0011971008,0.06224942,-9.787498,4000,0,0,0,1
1743177450213379,0.0010652846,-0.007989483,-0.0002663225,4000,0,0.039504327,0.021547988,-9.844959,4000,0,0,0,1
1743177450217379,-0.0029294703,-0.0026631602,-0.0029294863,4000,0,0.02633622,0.005985677,-9.837775,4000,0,0,0,1
1743177450221379,-0.0023968497,-0.0015978913,0.0031957934,4000,0,0.01316811,-0.021547647,-9.797075,4000,0,0,0,1
1743177450225379,-9.929398e-10,-0.002130524,0.006125273,4000,0,0.027533324,-0.01795634,-9.76595,4000,0,0,0,1
1743177450229379,0.0013315806,-0.0018642102,0.005326323,4000,0,0.033518832,0.025139293,-9.788693,4000,0,0,0,1
1743177450233379,0.00053263287,-0.002396847,0.0058589545,4000,0,0.019153617,0.031124793,-9.842566,4000,0,0,0,1
1743177450237379,0.0042610625,-0.0037284186,0.004527378,4000,0,0.039504327,-0.011970838,-9.830592,4000,0,0,0,1
1743177450241379,0.0045273798,-0.0018642043,-0.0013315778,4000,0,0.07541737,-0.026336052,-9.76116,4000,0,0,0,1
1743177450245379,-0.0023968443,0.00026631844,-0.00079894956,4000,0,0.033518832,0.009576978,-9.744401,4000,0,0,0,1
1743177450253379,0.0021305217,-0.0021305168,0.009321069,4000,0,-0.015562311,0.002394373,-9.791088,4000,0,0,0,1
1743177450261379,0.009054745,0.011451598,0.004527377,4000,0,-0.02274492,-0.04429256,-9.822214,4000,0,0,0,1
1743177450265379,0.0061252774,0.0143810585,0.0071905563,4000,0,0.005985504,-0.055066474,-9.812637,4000,0,0,0,1
1743177450269379,-0.0023968718,0.011717904,0.00026635177,4000,0,0.037110135,-0.027533151,-9.779117,4000,0,0,0,1
1743177450273379,-0.0042610816,0.008522113,-0.005592629,4000,0,0.02274492,-0.039504156,-9.763555,4000,0,0,0,1
1743177450277379,0.0018642339,0.0063915886,0.0031957799,4000,0,0.0011971011,-0.055066474,-9.786301,4000,0,0,0,1
1743177450281379,0.0039947676,0.007456846,0.015978966,4000,0,-0.011971008,-0.041898366,-9.822214,4000,0,0,0,1
1743177450285379,-0.0015979088,0.009054721,0.014647403,4000,0,-0.01316811,-0.020350544,-9.831791,4000,0,0,0,1
1743177450289379,0.0010652728,0.0015979046,0.005326319,4000,0,0.01316811,-0.004788233,-9.804258,4000,0,0,0,1
1743177450293379,0.008255815,-0.0069242073,0.004793683,4000,0,0.008379708,-0.007182434,-9.785104,4000,0,0,0,1
1743177450297379,0.0066579054,-0.0037284205,0.001864218,4000,0,-0.039504327,-0.02633605,-9.786301,4000,0,0,0,1
1743177450301379,-0.0021305212,-0.0010652521,-0.0061252764,4000,0,-0.02873042,-0.03112445,-9.788693,4000,0,0,0,1
1743177450305379,-0.010918978,-0.009321047,-0.007989482,4000,0,0.029927524,-0.011970838,-9.812637,4000,0,0,0,1
1743177450309379,-0.0066579254,-0.012783171,-0.0039947163,4000,0,0.016759414,-0.0071824337,-9.827002,4000,0,0,0,1
1743177450313379,-0.0007989851,-0.009587366,0.0055926573,4000,0,-0.034715924,-0.038307063,-9.806652,4000,0,0,0,1
1743177450321379,-0.0015978969,-0.00053263607,0.0007989458,4000,0,-0.007182605,-0.027533151,-9.829395,4000,0,0,0,1
1743177450325379,0.0058589536,0.002663165,0.0037284256,4000,0,0.021547817,0.0035914744,-9.827002,4000,0,0,0,1
1743177450333379,0.008255807,-0.00053263135,0.005326312,4000,0,0.019153617,-0.0011969309,-9.762358,4000,0,0,0,1
1743177450337379,0.0037284233,0.0010652578,0.0047936942,4000,0,-0.002394202,0.029927693,-9.722853,4000,0,0,0,1
1743177450341379,0.003728416,0.0069242204,0.003195801,4000,0,-0.0071826046,0.015562482,-9.744401,4000,0,0,0,1
1743177450345379,0.0013315812,0.0034621088,0.0018642143,4000,0,0.0,-0.00119693,-9.818621,4000,0,0,0,1
1743177450349379,-0.001597893,-0.0023968474,0.00213053,4000,0,-0.023942016,0.037110306,-9.830592,4000,0,0,0,1
1743177450353379,-0.006391589,0.0002663123,0.0013315754,4000,0,-0.033518832,0.017956687,-9.809044,4000,0,0,0,1
1743177450357379,-0.004527376,0.0031958013,0.004527368,4000,0,0.015562311,-0.022744747,-9.823412,4000,0,0,0,1
1743177450361379,0.0045273798,-0.0029294703,0.00026631568,4000,0,0.03232173,-0.004788233,-9.801862,4000,0,0,0,1
1743177450365379,0.010652655,-0.005592622,-0.010120011,4000,0,0.008379708,0.010774079,-9.76954,4000,0,0,0,1
1743177450369379,0.011717908,-0.0055926465,-0.008788432,4000,0,0.005985504,0.015562482,-9.788693,4000,0,0,0,1
1743177450373379,0.00026629586,-0.006657906,0.0005326066,4000,0,0.0047884043,0.002394373,-9.815032,4000,0,0,0,1
1743177450377379,-0.010918973,-0.0015978996,0.0058589308,4000,0,-0.02274492,-0.05027807,-9.828198,4000,0,0,0,1
1743177450381379,-0.0074568684,0.007989474,0.0010652317,4000,0,-0.02873042,-0.0885853,-9.822214,4000,0,0,0,1
1743177450385379,-0.009321077,0.013582113,-0.0026631702,4000,0,0.009576809,-0.052672267,-9.813835,4000,0,0,0,1
1743177450389379,-0.011984223,0.00559265,3.697824e-08,4000,0,0.025139123,1.7105388e-07,-9.800665,4000,0,0,0,1
1743177450393379,-0.003994742,-0.0021305282,0.0002663321,4000,0,0.02633622,0.013168281,-9.781511,4000,0,0,0,1
1743177450397379,-0.0066579026,0.0015978955,-0.0005326392,4000,0,0.043095633,1.7084494e-07,-9.788693,4000,0,0,0,1
1743177450401379,-0.010386327,0.008255803,-0.00026632877,4000,0,0.02274492,-0.016759245,-9.794681,4000,0,0,0,1
1743177450405379,-0.0037284305,0.003994737,-0.0018642164,4000,0,-0.035913028,0.01197118,-9.795877,4000,0,0,0,1
1743177450409379,-0.0018642207,-0.005060009,-0.0034621006,4000,0,-0.05626375,0.014365382,-9.799467,4000,0,0,0,1
1743177450413379,0.0013315803,-0.0007989501,-0.0002663134,4000,0,0.014365211,-0.01795634,-9.795877,4000,0,0,0,1
1743177450417379,0.0010652645,0.0039947415,0.0021305312,4000,0,0.08738837,1.7130459e-07,-9.815031,4000,0,0,0,1
1743177450421379,-0.0066579077,0.0053263186,-0.00026630535,4000,0,0.056263745,0.009576979,-9.831791,4000,0,0,0,1
1743177450425379,-0.0058589564,0.006391586,-0.0007989522,4000,0,0.009576809,-0.0011969298,-9.810242,4000,0,0,0,1
1743177450429379,-0.0018642042,-0.0029294684,0.004527384,4000,0,0.021547817,0.013168282,-9.792285,4000,0,0,0,1
1743177450433379,-0.0013315743,-0.008255799,0.006125275,4000,0,0.028730419,0.028730594,-9.794682,4000,0,0,0,1
1743177450437379,0.00026631315,-0.0021305275,0.0026631628,4000,0,0.009576809,0.038307402,-9.815032,4000,0,0,0,1
1743177450441379,0.0023968406,0.0023968471,0.003728428,4000,0,0.021547817,0.043095805,-9.834186,4000,0,0,0,1
1743177450445379,-0.00026632228,0.0055926377,0.0010652695,4000,0,0.053869545,0.025139295,-9.818621,4000,0,0,0,1
1743177450449379,-0.0039947587,0.009853695,-0.006924213,4000,0,0.043095633,-0.0011969297,-9.805455,4000,0,0,0,1
1743177450453379,-0.0018642035,0.011717908,-0.0053263325,4000,0,0.029927524,-0.013167939,-9.810242,4000,0,0,0,1
1743177450457379,0.00079896266,0.010386327,-0.001065274,4000,0,0.04668694,-0.0023940306,-9.822214,4000,0,0,0,1
1743177450461379,0.0039947266,0.0047936905,-0.004793702,4000,0,0.055066645,-0.008379536,-9.817425,4000,0,0,0,1
1743177450465379,0.0069242236,0.0029294665,-7.112225e-09,4000,0,0.037110135,-0.052672267,-9.791088,4000,0,0,0,1
1743177450469379,0.0015979024,0.009853683,0.00559266,4000,0,0.0035913023,-0.057460666,-9.806652,4000,0,0,0,1
1743177450473379,-0.0023968797,0.010386326,-0.0045273616,4000,0,-0.020350715,-0.01795634,-9.825806,4000,0,0,0,1
1743177450477379,-0.0026631742,0.0042610583,-0.005592633,4000,0,-0.010773908,-0.009576637,-9.816229,4000,0,0,0,1
1743177450481379,-0.004261055,1.0261181e-08,0.0026631677,4000,0,-0.019153617,-0.016759245,-9.844959,4000,0,0,0,1
1743177450485379,-0.0034621074,-0.0029294793,0.0010652689,4000,0,-0.06943185,-0.019153446,-9.860521,4000,0,0,0,1
1743177450489379,-0.008255796,-0.0010652732,-0.0050600134,4000,0,-0.06344634,-0.01795634,-9.799467,4000,0,0,0,1
1743177450493379,-0.011984219,0.0031957894,-0.009054762,4000,0,-0.005985504,0.01556248,-9.721657,4000,0,0,0,1
1743177450501379,-0.0034621092,0.00372842,-0.00452738,4000,0,0.01436521,0.027533494,-9.773131,4000,0,0,0,1
1743177450505379,0.0013315723,0.003728411,-0.011185284,4000,0,0.007182605,0.0143653825,-9.815032,4000,0,0,0,1
1743177450509379,0.0037284384,0.0053263116,-0.0061252736,4000,0,0.015562311,0.004788576,-9.832989,4000,0,0,0,1
1743177450513379,0.0069242446,0.007723147,0.0053263204,4000,0,0.020350713,0.010774082,-9.848549,4000,0,0,0,1
1743177450517379,0.0063915947,0.0010652681,0.0034620955,4000,0,0.008379708,0.004788576,-9.834186,4000,0,0,0,1
1743177450525379,-0.0007989446,-0.010918959,-0.0037284377,4000,0,-0.019153617,-0.0059853336,-9.787498,4000,0,0,0,1
1743177450529379,-0.0047937143,-0.009054742,0.0034620946,4000,0,-0.009576809,0.008379878,-9.788693,4000,0,0,0,1
1743177450533379,-0.004793704,-0.006657898,0.007190532,4000,0,0.01316811,-0.009576637,-9.801862,4000,0,0,0,1
1743177450537379,-0.0010652548,-0.0026631665,-0.0015978948,4000,0,0.008379708,-0.01436504,-9.804258,4000,0,0,0,1
1743177450541379,0.0023968453,-0.0037284282,-0.0023968415,4000,0,-0.007182605,-0.003591132,-9.787498,4000,0,0,0,1
1743177450545379,-0.0013315888,-0.0063915886,0.0023968385,4000,0,-0.0011971011,-0.015562142,-9.775527,4000,0,0,0,1
1743177450549379,-0.005326322,-0.0047936942,0.0015978876,4000,0,0.011971008,-0.03112445,-9.77433,4000,0,0,0,1
1743177450553379,-0.0029294828,-0.0015978913,0.0039947405,4000,0,0.053869545,-0.021547647,-9.803061,4000,0,0,0,1
1743177450557379,-0.0042610606,-0.0005326333,0.004793688,4000,0,0.077811554,-0.01795634,-9.827002,4000,0,0,0,1
1743177450561379,-0.0042610574,-0.000798956,-0.00053263194,4000,0,0.043095633,-0.022744747,-9.800665,4000,0,0,0,1
1743177450565379,0.0010652633,-0.0037284228,0.0023968508,4000,0,0.0023942024,-0.0071824337,-9.813835,4000,0,0,0,1
1743177450569379,0.0045273714,-0.007456851,0.0074568554,4000,0,-0.0035913023,0.008379879,-9.877279,4000,0,0,0,1
1743177450573379,0.0013316079,-0.009054743,-0.0018642235,4000,0,-0.0059855045,0.0035914755,-9.897632,4000,0,0,0,1
1743177450577379,-0.0042610248,-0.0074568437,-0.012516876,4000,0,-0.0059855045,-0.0047882316,-9.861719,4000,0,0,0,1
1743177450581379,-0.00053261785,-0.002396857,-0.009853695,4000,0,-0.019153617,-0.010773738,-9.831791,4000,0,0,0,1
1743177450585379,0.0034621202,0.0031957822,-0.00026631393,4000,0,-0.051475346,-0.02873025,-9.825806,4000,0,0,0,1
1743177450589379,0.0007989533,0.006657899,0.0039947485,4000,0,-0.004788405,-0.039504156,-9.811439,4000,0,0,0,1
1743177450593379,0.001065261,0.0013315822,-0.0007989504,4000,0,0.065840565,-0.019153446,-9.792284,4000,0,0,0,1
1743177450597379,-0.0013315828,0.0010652669,-0.0053263213,4000,0,0.04548984,0.004788575,-9.794681,4000,0,0,0,1
1743177450601379,-0.008255776,0.015180033,-0.0061252746,4000,0,-0.016759414,-0.0071824347,-9.823412,4000,0,0,0,1
1743177450605379,-0.00772317,0.015712649,-0.0066579073,4000,0,-0.008379707,-0.017956343,-9.843762,4000,0,0,0,1
1743177450609379,-0.0015979263,-1.0753806e-08,-0.005592631,4000,0,0.035913028,0.013168282,-9.848549,4000,0,0,0,1
1743177450613379,-0.004527386,-0.0063915793,-0.0010652612,4000,0,0.034715924,0.017956685,-9.829395,4000,0,0,0,1
1743177450617379,-0.013315798,-0.0026631632,-0.0045274,4000,0,0.009576809,0.0011972715,-9.77433,4000,0,0,0,1
1743177450621379,-0.012250537,-0.0037284617,-0.012250538,4000,0,-0.015562311,0.0071827755,-9.763554,4000,0,0,0,1
1743177450625379,-0.0039947405,-0.0021305475,-0.008522114,4000,0,0.0035913028,0.001197272,-9.811439,4000,0,0,0,1
1743177450629379,0.00026632848,0.0039947396,-0.0013315856,4000,0,0.034715924,-0.01436504,-9.831791,4000,0,0,0,1
1743177450637379,-0.009321054,-0.009853706,0.0007989506,4000,0,0.016759416,0.010774082,-9.861719,4000,0,0,0,1
1743177450641379,-0.0053263092,-0.0042610713,-0.00372843,4000,0,0.008379708,0.01197118,-9.827002,4000,0,0,0,1
1743177450645379,0.0029294863,0.003994734,-0.0026631642,4000,0,0.0047884043,0.027533494,-9.810242,4000,0,0,0,1
1743177450649379,0.0074568633,0.011717903,0.00079895015,4000,0,0.01316811,0.01077408,-9.831791,4000,0,0,0,1
1743177450653379,0.0050600045,0.009587381,0.00026632036,4000,0,0.0011971012,-0.005985333,-9.799467,4000,0,0,0,1
1743177450657379,-0.0010652813,0.007723177,-0.0050599896,4000,0,-0.016759416,-0.023941848,-9.7803135,4000,0,0,0,1
1743177450661379,-0.0023968504,0.007989487,-0.0071905325,4000,0,-0.020350713,-0.034715753,-9.837774,4000,0,0,0,1
1743177450669379,-0.0085221315,-0.006657892,-0.004527363,4000,0,-0.01436521,0.005985676,-9.812637,4000,0,0,0,1
1743177450673379,-0.006391591,-0.011451601,-0.0063915695,4000,0,0.0071826046,0.02394219,-9.792285,4000,0,0,0,1
1743177450677379,-0.00079893536,-0.0077231824,-0.0077231554,4000,0,0.019153617,0.0047885766,-9.825806,4000,0,0,0,1
1743177450681379,0.001331589,-0.0007989528,-0.0039947387,4000,0,0.0071826056,-0.011970838,-9.84017,4000,0,0,0,1
1743177450685379,0.0047936942,0.0023968406,-0.0037284237,4000,0,-0.04548984,0.031124793,-9.842566,4000,0,0,0,1
1743177450689379,0.0061252713,0.0023968439,-0.0039947433,4000,0,-0.07541737,0.01197118,-9.832989,4000,0,0,0,1
1743177450693379,-0.0007989523,1.093508e-08,-0.0047936896,4000,0,-0.03711013,-0.058657777,-9.801862,4000,0,0,0,1
1743177450701379,0.007456836,-0.007190552,0.000798954,4000,0,0.01436521,-0.022744747,-9.803061,4000,0,0,0,1
1743177450705379,0.009853683,-0.00932108,0.006924219,4000,0,0.0,0.0083798785,-9.798271,4000,0,0,0,1
1743177450709379,0.010918966,0.00053266436,-0.002130493,4000,0,0.0023942022,-0.009576637,-9.797075,4000,0,0,0,1
1743177450713379,0.008255806,0.009054773,-0.008255768,4000,0,0.0023942022,-0.01436504,-9.816229,4000,0,0,0,1
1743177450717379,0.002130558,0.010386323,2.233329e-08,4000,0,0.011971008,1.7069868e-07,-9.7803135,4000,0,0,0,1
1743177450725379,0.0018641779,0.008788433,-0.007190546,4000,0,0.02274492,0.020350885,-9.764753,4000,0,0,0,1
1743177450729379,0.010386312,0.0034620904,-0.008788461,4000,0,0.0059855045,0.009576978,-9.785104,4000,0,0,0,1
1743177450733379,0.013315806,0.00026628087,-0.0010652791,4000,0,-0.02633622,-0.008379537,-9.76116,4000,0,0,0,1
1743177450737379,0.012250541,-0.0061252876,0.002663133,4000,0,-0.01436521,-0.008379537,-9.738417,4000,0,0,0,1
1743177450741379,0.0058589554,-0.009054761,0.0039947173,4000,0,0.0047884043,0.02513929,-9.7324295,4000,0,0,0,1
1743177450745379,-0.009321071,-0.0039947624,0.0039947056,4000,0,-0.017956512,0.04668711,-9.756374,4000,0,0,0,1
1743177450749379,-0.0114516,0.0018642069,0.0029294565,4000,0,-0.029927524,0.035913195,-9.816229,4000,0,0,0,1
1743177450753379,-0.0021305287,0.0021305443,0.0045273677,4000,0,-0.021547817,0.017956685,-9.834186,4000,0,0,0,1
1743177450757379,-0.0005326276,-0.0005326292,0.0055926405,4000,0,-0.02873042,0.021547988,-9.817425,4000,0,0,0,1
1743177450761379,-0.0007989486,-0.00026631707,0.0034621095,4000,0,-0.01316811,0.02633639,-9.8281975,4000,0,0,0,1
1743177450765379,0.0015978962,0.00053263403,-0.00026631617,4000,0,0.01436521,0.0071827774,-9.831791,4000,0,0,0,1
1743177450769379,0.0071905362,0.0013315788,0.0023968446,4000,0,0.020350713,0.0143653825,-9.805455,4000,0,0,0,1
1743177450773379,0.013049493,-3.7193977e-09,0.0058589494,4000,0,-0.009576809,0.027533494,-9.792285,4000,0,0,0,1
1743177450777379,0.0077231727,-0.0023968518,0.005059996,4000,0,-0.06823475,0.029927695,-9.812637,4000,0,0,0,1
1743177450781379,-0.0007989536,0.00026629958,0.0058589554,4000,0,-0.05267244,0.020350887,-9.811439,4000,0,0,0,1
1743177450785379,-0.0066579096,0.003195781,0.0018642128,4000,0,0.0047884043,0.025139293,-9.79827,4000,0,0,0,1
1743177450789379,-0.010120016,0.0013315692,-0.0023968376,4000,0,0.0035913023,0.04908131,-9.793484,4000,0,0,0,1
1743177450793379,-0.0050600087,-0.004527364,0.0018642304,4000,0,-0.02633622,0.021547986,-9.762358,4000,0,0,0,1
1743177450797379,-2.4587092e-09,-0.0109189525,0.0061252895,4000,0,-0.02633622,0.01316828,-9.75757,4000,0,0,0,1
1743177450801379,3.82991e-09,-0.0085221175,0.0037284258,4000,0,0.0011971012,0.05027841,-9.78989,4000,0,0,0,1
1743177450805379,-0.006391587,-0.00079895643,0.000266298,4000,0,0.02633622,0.038307402,-9.835382,4000,0,0,0,1
1743177450809379,-0.008255801,-0.0023968446,0.0005326352,4000,0,0.02274492,-0.0011969293,-9.855732,4000,0,0,0,1
1743177450813379,-0.0042610588,-0.010120007,0.0023968697,4000,0,-0.011971009,-0.010773738,-9.794682,4000,0,0,0,1
1743177450817379,-0.0005326319,-0.009587377,0.002130541,4000,0,-0.023942018,-0.009576638,-9.751583,4000,0,0,0,1
1743177450821379,0.0045273695,-0.0002663127,0.0015979115,4000,0,-0.011971008,0.0059856754,-9.791088,4000,0,0,0,1
1743177450825379,0.002929475,0.004527372,0.0029294847,4000,0,-0.02274492,0.028730594,-9.859325,4000,0,0,0,1
1743177450829379,0.0026631607,-0.0010652608,-0.0013315857,4000,0,-0.029927524,0.010774082,-9.878479,4000,0,0,0,1
1743177450833379,0.0015978973,-0.0021305266,-0.0037284275,4000,0,-0.0071826046,0.0047885757,-9.806652,4000,0,0,0,1
1743177450837379,0.0007989508,0.001864212,1.5928711e-09,4000,0,0.009576809,0.027533492,-9.751583,4000,0,0,0,1
1743177450841379,0.008522115,-0.0007989474,-0.0037284314,4000,0,-0.010773908,0.038307402,-9.795877,4000,0,0,0,1
1743177450845379,0.013848432,-0.00612528,-0.002663175,4000,0,-0.03232173,0.0407016,-9.844959,4000,0,0,0,1
1743177450849379,0.011185258,-0.007989522,0.0058589405,4000,0,-0.03232173,0.01077408,-9.823412,4000,0,0,0,1
1743177450853379,-0.00053264125,-0.0039947657,0.006125255,4000,0,-0.02633622,-0.03112445,-9.801862,4000,0,0,0,1
1743177450857379,-0.0077231745,0.00079893315,0.0031957831,4000,0,-0.02633622,-0.022744747,-9.818621,4000,0,0,0,1
1743177450861379,-0.0021305312,0.0010652549,-0.00292948,4000,0,-0.035913028,0.005985676,-9.823412,4000,0,0,0,1
1743177450865379,-0.0029294803,0.00079894374,-0.010918962,4000,0,-0.015562313,-0.01795634,-9.803061,4000,0,0,0,1
1743177450869379,-0.011984203,0.0066579385,-0.008255806,4000,0,0.034715924,-0.041898362,-9.804258,4000,0,0,0,1
1743177450877379,-0.0047937003,0.005858937,-0.0058589657,4000,0,0.07661447,0.0023943745,-9.842566,4000,0,0,0,1
1743177450881379,0.0069242185,-1.43646925e-08,-0.0005326458,4000,0,0.041898537,-0.008379535,-9.838972,4000,0,0,0,1
1743177450885379,0.011451594,-0.005858963,0.002663148,4000,0,-0.008379708,0.037110303,-9.803061,4000,0,0,0,1
1743177450889379,0.011185281,-0.007989486,0.0029294689,4000,0,-0.011971009,0.06105232,-9.788693,4000,0,0,0,1
1743177450897379,0.0015979047,0.005060025,-0.00878842,4000,0,0.031124622,-0.041898366,-9.824609,4000,0,0,0,1
1743177450901379,0.0069242306,0.007989467,-0.0074568586,4000,0,0.044292733,-0.007182435,-9.783907,4000,0,0,0,1
1743177450905379,0.009054765,0.005326298,0.0010652528,4000,0,0.016759416,0.029927697,-9.77433,4000,0,0,0,1
1743177450909379,-0.0013315697,-0.0010652828,0.0058589545,4000,0,-0.020350713,0.031124793,-9.804258,4000,0,0,0,1
1743177450913379,-0.0063915937,0.0013315724,0.009853694,4000,0,-0.039504327,0.02394219,-9.777922,4000,0,0,0,1
1743177450917379,-0.003462137,0.009853711,0.01171789,4000,0,-0.019153617,-0.008379536,-9.750386,4000,0,0,0,1
1743177450921379,0.001864209,0.009321084,0.009853681,4000,0,-0.015562311,-0.023941848,-9.747993,4000,0,0,0,1
1743177450925379,0.011451596,0.0029295126,0.0037283923,4000,0,-0.04668694,-0.03112445,-9.782708,4000,0,0,0,1
1743177450929379,0.0055926368,-0.00026629798,-0.0029294838,4000,0,-0.043095633,-0.035912856,-9.837775,4000,0,0,0,1
1743177450933379,-0.0114515945,-0.00026630444,-0.00026631763,4000,0,-0.029927526,-0.02873025,-9.846155,4000,0,0,0,1
1743177450937379,-0.010918962,0.0010652656,-5.017032e-09,4000,0,-0.025139121,-0.011970837,-9.846155,4000,0,0,0,1
1743177450941379,-0.00026631873,0.0029294514,-0.007190546,4000,0,-0.011971008,0.013168283,-9.849747,4000,0,0,0,1
1743177450945379,0.003462117,0.005858945,-0.007190539,4000,0,0.016759416,-0.0035911314,-9.836578,4000,0,0,0,1
1743177450949379,0.0034621356,0.011185271,-0.00053262594,4000,0,0.020350715,-0.027533151,-9.797075,4000,0,0,0,1
1743177450953379,0.006657928,0.00905474,0.0061252574,4000,0,0.0035913025,-0.034715753,-9.787498,4000,0,0,0,1
1743177450957379,0.0013316065,-0.0007989636,0.00798948,4000,0,0.027533323,-0.022744747,-9.809044,4000,0,0,0,1
1743177450961379,-0.009321058,-0.0029295066,0.00878843,4000,0,0.038307235,-0.0059853327,-9.815032,4000,0,0,0,1
1743177450965379,-0.0031957899,-0.003462098,0.0069242273,4000,0,0.011971009,-0.019153446,-9.804258,4000,0,0,0,1
1743177450973379,-0.004261058,-0.0034621104,-1.6703991e-08,4000,0,-0.011971008,0.011971179,-9.752781,4000,0,0,0,1
1743177450981379,0.0007989466,0.0053263227,-1.3973689e-08,4000,0,-0.025139121,0.038307402,-9.781511,4000,0,0,0,1
1743177450985379,0.0045273723,0.0005326327,-0.0013315886,4000,0,-0.027533323,0.016759584,-9.794681,4000,0,0,0,1
1743177450989379,0.0050600073,0.0031957917,-0.00026631216,4000,0,-0.034715924,-0.009576637,-9.800665,4000,0,0,0,1
1743177450993379,0.003994744,0.0034621065,0.0018642145,4000,0,-0.043095633,0.0011972719,-9.805455,4000,0,0,0,1
1743177450997379,-0.004527376,0.00026631437,-0.0007989428,4000,0,0.026336217,0.0143653825,-9.799467,4000,0,0,0,1
1743177451001379,-0.013582121,0.0037284307,0.0010652604,4000,0,0.056263745,0.017956687,-9.783907,4000,0,0,0,1
1743177451005379,-0.010386324,0.0042610806,0.005592633,4000,0,0.011971009,0.033519,-9.783907,4000,0,0,0,1
1743177451009379,-0.0042610415,-0.0071905344,0.0026631919,4000,0,0.019153617,0.047884203,-9.795877,4000,0,0,0,1
1743177451013379,0.0007989628,-0.013315807,-0.001065244,4000,0,0.017956514,0.057461016,-9.803061,4000,0,0,0,1
1743177451017379,0.0029294915,-1.3335452e-10,-0.0031957806,4000,0,-0.03950433,0.038307402,-9.818621,4000,0,0,0,1
1743177451021379,-0.00532631,0.01171792,-0.0034620983,4000,0,-0.06105215,0.0143653825,-9.836578,4000,0,0,0,1
1743177451025379,-0.0109189395,0.0045273947,0.003994777,4000,0,-0.03351883,0.0011972721,-9.816229,4000,0,0,0,1
1743177451029379,-0.0074568386,0.0010652886,0.009321072,4000,0,-0.02873042,-0.032321554,-9.775528,4000,0,0,0,1
1743177451033379,-0.0069242325,0.0045273653,0.005059998,4000,0,-0.025139121,-0.055066474,-9.76116,4000,0,0,0,1
1743177451037379,-0.010652637,0.0023968467,0.008522127,4000,0,-0.01436521,-0.026336048,-9.777922,4000,0,0,0,1
1743177451041379,-0.006657903,0.0031958134,0.010918956,4000,0,-0.011971009,0.025139293,-9.803061,4000,0,0,0,1
1743177451045379,0.0015978811,0.0047937003,0.0015978847,4000,0,-0.008379708,0.025139293,-9.834186,4000,0,0,0,1
1743177451049379,0.00026631542,-0.0026631607,-0.0013315825,4000,0,-0.009576809,-0.0011969288,-9.864112,4000,0,0,0,1
1743177451053379,-0.0095873885,-0.004793687,0.00559263,4000,0,-0.015562311,0.014365383,-9.837774,4000,0,0,0,1
1743177451057379,-0.013049505,0.004527362,0.0034620743,4000,0,-0.028730419,-0.0023940303,-9.799467,4000,0,0,0,1
1743177451061379,-0.0018642306,0.0037283858,-0.008788445,4000,0,0.0,-0.058657777,-9.812637,4000,0,0,0,1
1743177451065379,0.007989465,-0.0034621374,-0.006924227,4000,0,0.043095633,-0.05386937,-9.818622,4000,0,0,0,1
1743177451069379,0.0037284156,-0.0029294954,0.0034621065,4000,0,0.053869545,-0.0023940313,-9.8114395,4000,0,0,0,1
1743177451073379,0.0010652604,0.0021305282,0.0018642166,4000,0,0.034715924,0.047884203,-9.805455,4000,0,0,0,1
1743177451077379,0.0034621037,0.0039947457,-0.005060007,4000,0,0.009576809,0.055066817,-9.788693,4000,0,0,0,1
1743177451081379,0.002929477,0.0047936933,-0.006657901,4000,0,0.020350715,0.01077408,-9.803061,4000,0,0,0,1
1743177451085379,0.0010652872,0.011717911,-0.0021305194,4000,0,0.020350715,-0.038307063,-9.853339,4000,0,0,0,1
1743177451089379,-0.0055926237,0.007989487,0.0023968702,4000,0,0.007182605,-0.06823458,-9.864112,4000,0,0,0,1
1743177451093379,-0.010120004,-0.0023968494,0.0021305606,4000,0,0.009576809,-0.049080964,-9.844959,4000,0,0,0,1
1743177451097379,-0.005592639,-0.0010652667,0.0005326314,4000,0,0.0035913023,-0.005985332,-9.837775,4000,0,0,0,1
1743177451101379,0.0037284244,0.0010652737,0.0045273746,4000,0,-0.0011971011,0.013168282,-9.824609,4000,0,0,0,1
1743177451105379,0.00532633,-0.0018642202,0.012250539,4000,0,-0.005985504,1.7157622e-07,-9.830592,4000,0,0,0,1
1743177451109379,-0.0029294658,-0.004793724,0.012516849,4000,0,-0.02633622,-0.01436504,-9.837774,4000,0,0,0,1
1743177451113379,-0.0058589564,-0.0031958094,0.009054743,4000,0,-0.027533323,0.004788576,-9.836578,4000,0,0,0,1
1743177451117379,0.0002663128,-0.0013315664,0.0069242218,4000,0,-0.01436521,-0.008379535,-9.849747,4000,0,0,0,1
1743177451121379,0.0007989453,0.00026631742,0.00559264,4000,0,-0.0035913023,-0.03351866,-9.8198185,4000,0,0,0,1
1743177451125379,-0.0077231796,0.0069242036,0.0055926414,4000,0,-0.009576809,-0.010773739,-9.783907,4000,0,0,0,1
1743177451129379,-0.0050600255,0.012250537,0.001331561,4000,0,-0.017956512,-0.011970838,-9.813835,4000,0,0,0,1
1743177451133379,0.0071905307,0.010918965,-4.758876e-08,4000,0,0.02274492,-0.02633605,-9.855732,4000,0,0,0,1
1743177451137379,0.005326349,0.0031957764,0.007190523,4000,0,0.05267244,-0.022744747,-9.847351,4000,0,0,0,1
1743177451141379,-0.0071905158,-0.0029295168,0.012250545,4000,0,0.04908113,-0.029927352,-9.795877,4000,0,0,0,1
1743177451145379,-0.005326292,-0.009587381,0.008522134,4000,0,0.047884032,-0.021547647,-9.767147,4000,0,0,0,1
1743177451149379,0.008255845,-0.016511578,0.00053268776,4000,0,0.020350715,1.7107476e-07,-9.801862,4000,0,0,0,1
1743177451153379,0.01225054,-0.010386329,0.00079898705,4000,0,-0.007182605,-0.021547647,-9.847351,4000,0,0,0,1
1743177451157379,0.003994719,-2.623998e-08,0.0066579175,4000,0,-0.01316811,-0.05386937,-9.860521,4000,0,0,0,1
1743177451165379,-0.010918956,-0.0010652811,0.0045273867,4000,0,-0.019153617,0.0359132,-9.832989,4000,0,0,0,1
1743177451169379,-0.003994728,-0.008522128,-0.0015978673,4000,0,0.0023942017,0.020350888,-9.7719345,4000,0,0,0,1
1743177451173379,0.0015979138,-0.012516871,-0.00825578,4000,0,0.019153617,-0.03351866,-9.756374,4000,0,0,0,1
1743177451177379,-0.00079889165,-0.0039947303,-0.016245289,4000,0,-0.0023942017,-0.05027807,-9.803061,4000,0,0,0,1
1743177451181379,-0.004793652,0.003462132,-0.014647395,4000,0,0.0011971008,-0.038307063,-9.832989,4000,0,0,0,1
1743177451185379,-0.002396833,0.0015979143,0.0037284268,4000,0,0.023942016,-0.035912856,-9.835382,4000,0,0,0,1
1743177451189379,0.0015979047,-0.00026630296,0.014381072,4000,0,0.013168109,0.0059856763,-9.846155,4000,0,0,0,1
1743177451193379,0.0023968534,-0.0018642042,0.0047936896,4000,0,0.035913024,0.038307402,-9.837774,4000,0,0,0,1
1743177451197379,0.0023968394,0.006657913,-0.007456845,4000,0,0.07302317,-0.020350542,-9.834186,4000,0,0,0,1
1743177451201379,0.0007989729,0.014114756,-0.004793681,4000,0,0.04668694,-0.06464328,-9.849747,4000,0,0,0,1
1743177451205379,-0.002396825,0.002396848,0.0034621214,4000,0,-0.005985504,-0.016759245,-9.84017,4000,0,0,0,1
1743177451209379,-0.0015978884,-0.0071905376,0.00026632304,4000,0,-0.05267244,0.029927695,-9.816229,4000,0,0,0,1
1743177451213379,0.0010652734,0.0023968432,-0.0037284247,4000,0,-0.05865795,0.029927695,-9.805455,4000,0,0,0,1
1743177451217379,0.0045273895,0.010120005,0.0031957943,4000,0,-0.021547817,0.01077408,-9.806652,4000,0,0,0,1
1743177451221379,0.0029295096,-0.002396856,0.008788419,4000,0,0.0071826056,0.015562484,-9.830592,4000,0,0,0,1
1743177451225379,-0.00399472,-0.010652669,0.010918949,4000,0,0.033518832,0.047884203,-9.852142,4000,0,0,0,1
1743177451229379,-0.001864258,-0.0037284105,0.016511602,4000,0,0.044292733,0.0407016,-9.838972,4000,0,0,0,1
1743177451233379,0.00026630252,-0.00053262286,0.013315807,4000,0,0.010773908,0.028730594,-9.809044,4000,0,0,0,1
1743177451237379,0.0005326437,-0.0026631593,0.0021305291,4000,0,-0.027533323,0.038307402,-9.7803135,4000,0,0,0,1
1743177451241379,0.0066579073,-0.0015978913,-0.0034621041,4000,0,-0.009576809,0.015562482,-9.767147,4000,0,0,0,1
1743177451245379,0.009054755,0.0031957913,-0.0037284142,4000,0,0.02274492,0.0011972715,-9.773131,4000,0,0,0,1
1743177451249379,0.009321073,0.0055926247,0.00079895544,4000,0,0.02873042,-0.0011969304,-9.765951,4000,0,0,0,1
1743177451253379,0.009321075,0.0005326173,0.005592623,4000,0,0.043095633,-0.0059853336,-9.762358,4000,0,0,0,1
1743177451257379,0.005592652,-0.0066579063,0.004261037,4000,0,0.053869545,-0.0011969302,-9.788693,4000,0,0,0,1
1743177451261379,0.003462125,-0.007456843,-0.0021305354,4000,0,0.029927526,-0.023941848,-9.787498,4000,0,0,0,1
1743177451265379,0.00213055,0.0002663243,-0.008255796,4000,0,-0.016759416,-0.008379537,-9.747993,4000,0,0,0,1
1743177451269379,0.00079898094,0.011984229,-0.006125262,4000,0,-0.028730422,0.013168281,-9.743204,4000,0,0,0,1
1743177451273379,0.0018642471,0.014647385,0.0010652612,4000,0,-0.0059855045,-0.020350544,-9.7719345,4000,0,0,0,1
1743177451277379,0.0029294945,0.007723166,0.003994732,4000,0,-0.015562311,-0.019153446,-9.794681,4000,0,0,0,1
1743177451281379,0.005060006,0.0015979029,0.000798937,4000,0,-0.020350713,-0.015562142,-9.788693,4000,0,0,0,1
1743177451285379,0.0023968432,-0.0007989415,-0.0037284286,4000,0,0.021547817,-0.022744747,-9.785105,4000,0,0,0,1
1743177451289379,-0.004261063,-0.004793682,-0.0039947466,4000,0,0.038307235,-0.0035911314,-9.817425,4000,0,0,0,1
1743177451293379,-0.0021305378,-0.0034621037,0.002396847,4000,0,0.008379708,0.003591474,-9.799467,4000,0,0,0,1
1743177451297379,0.0063915774,0.0042610676,0.006125276,4000,0,-0.02633622,0.014365382,-9.750386,4000,0,0,0,1
1743177451301379,0.005592641,7.986555e-09,0.001597889,4000,0,-0.020350715,0.0323219,-9.767147,4000,0,0,0,1
1743177451305379,-0.006125268,-0.006125273,-0.0007989599,4000,0,0.0035913025,0.028730592,-9.791088,4000,0,0,0,1
1743177451309379,-0.012516867,-0.0053263125,0.003462095,4000,0,0.02633622,0.023942187,-9.798271,4000,0,0,0,1
1743177451313379,-0.009321074,-0.0058589294,0.008788442,4000,0,0.035913028,0.038307402,-9.818622,4000,0,0,0,1
1743177451317379,-0.0023968494,-0.0021305198,0.005326324,4000,0,-0.0047884034,0.04549001,-9.799467,4000,0,0,0,1
1743177451321379,0.0047936914,-0.00079894054,-0.00079894444,4000,0,-0.021547817,0.0083798785,-9.752781,4000,0,0,0,1
1743177451325379,0.005592637,-0.0034621179,0.003994738,4000,0,0.017956512,-0.010773739,-9.753978,4000,0,0,0,1
1743177451329379,0.0015978887,-1.14024585e-08,0.0071905376,4000,0,0.034715924,0.015562482,-9.793484,4000,0,0,0,1
1743177451333379,-0.00079894846,-3.6729157e-09,0.0031957938,4000,0,-0.01316811,-0.0011969291,-9.835382,4000,0,0,0,1
1743177451337379,0.0005326352,-0.00266316,0.0039947433,4000,0,-0.047884032,-0.01556214,-9.859325,4000,0,0,0,1
1743177451341379,-0.000532641,0.0010652622,0.008255801,4000,0,-0.03232173,0.014365383,-9.854535,4000,0,0,0,1
1743177451345379,-0.009321068,0.002396821,0.0093210675,4000,0,-0.02633622,0.034716096,-9.843762,4000,0,0,0,1
1743177451349379,-0.009054749,0.0013315714,0.0061252746,4000,0,-0.027533323,0.028730595,-9.847351,4000,0,0,0,1
1743177451353379,0.00106526,0.0023968492,0.00053262466,4000,0,-0.017956512,0.025139295,-9.8677025,4000,0,0,0,1
1743177451357379,0.00026631134,-0.0015978946,-0.0063915886,4000,0,-0.0035913023,0.044292904,-9.859325,4000,0,0,0,1
1743177451365379,-0.009321091,-0.0055926037,0.0077231606,4000,0,-0.0011971011,-0.010773738,-9.803061,4000,0,0,0,1
1743177451369379,-0.006391593,-0.0021305284,0.005592634,4000,0,0.0023942022,-0.028730253,-9.801861,4000,0,0,0,1
1743177451373379,-0.007723151,-0.007456874,-0.0034620995,4000,0,0.023942016,-0.035912856,-9.811439,4000,0,0,0,1
1743177451377379,-0.005326341,-0.011451582,0.002130545,4000,0,0.04668694,-0.029927354,-9.853339,4000,0,0,0,1
1743177451381379,-0.004793714,-0.006125261,0.0071905283,4000,0,0.04548984,-0.01436504,-9.835382,4000,0,0,0,1
1743177451385379,-0.007989512,0.009853681,0.0013315488,4000,0,0.037110135,0.007182776,-9.755177,4000,0,0,0,1
1743177451393379,-0.006125295,0.003994735,-0.0045273486,4000,0,0.0011971012,-0.032321554,-9.786301,4000,0,0,0,1
1743177451397379,-0.0047937064,-0.007723168,-0.003462088,4000,0,-0.009576809,-0.029927354,-9.801862,4000,0,0,0,1
1743177451401379,-0.0029294877,-0.007456848,0.00053263654,4000,0,-0.0023942022,0.01077408,-9.806652,4000,0,0,0,1
1743177451405379,-0.002663157,0.0002663139,-0.0018642198,4000,0,0.016759416,0.047884203,-9.785105,4000,0,0,0,1
1743177451409379,-0.00053262577,0.010652644,-0.001597906,4000,0,0.039504327,0.044292904,-9.776724,4000,0,0,0,1
1743177451413379,0.0023968706,0.010918962,0.0055926284,4000,0,0.04668694,0.004788576,-9.785104,4000,0,0,0,1
1743177451417379,-0.00079891953,0.0031957845,0.009587387,4000,0,0.050278243,-0.01795634,-9.793484,4000,0,0,0,1
1743177451421379,-0.0029294696,0.002130523,0.014114757,4000,0,0.02274492,0.0083798785,-9.809044,4000,0,0,0,1
1743177451425379,-0.00079896476,0.005326331,0.012250539,4000,0,-0.027533323,0.0323219,-9.803061,4000,0,0,0,1
1743177451429379,0.00026629536,0.007989487,0.0066579003,4000,0,-0.016759416,0.05027841,-9.805454,4000,0,0,0,1
1743177451433379,-0.00426105,0.010120003,0.011451605,4000,0,0.010773908,0.049081307,-9.801862,4000,0,0,0,1
1743177451437379,-0.010120014,0.008788406,0.009587402,4000,0,0.011971008,0.015562484,-9.773131,4000,0,0,0,1
1743177451441379,-0.006391611,0.007723149,0.0005326251,4000,0,0.031124622,-0.0035911321,-9.7803135,4000,0,0,0,1
1743177451445379,-0.002130543,0.005592627,-0.005060013,4000,0,0.041898534,-0.00119693,-9.801862,4000,0,0,0,1
1743177451449379,-0.0026631646,0.001864215,-0.003462106,4000,0,0.008379707,-0.021547647,-9.788693,4000,0,0,0,1
1743177451453379,-0.002130529,-0.0023968383,0.00506001,4000,0,0.0011971008,-0.034715753,-9.770737,4000,0,0,0,1
1743177451457379,-0.0023968357,-0.008255802,0.00585896,4000,0,0.039504327,-0.009576637,-9.794682,4000,0,0,0,1
1743177451461379,-0.0042610434,-0.008522125,0.0005326272,4000,0,0.03232173,-0.016759245,-9.834186,4000,0,0,0,1
1743177451465379,-0.0037284286,-0.0021305284,0.0010652569,4000,0,-0.0011971011,-0.022744747,-9.871296,4000,0,0,0,1
1743177451469379,0.00053262926,0.0015979012,0.0034621083,4000,0,-0.0023942022,0.010774082,-9.888055,4000,0,0,0,1
1743177451473379,0.0058589554,-0.0013315735,-0.0026631646,4000,0,-0.008379707,0.029927697,-9.848549,4000,0,0,0,1
1743177451477379,0.009587379,-0.003728423,-0.0058589587,4000,0,-0.01436521,0.0323219,-9.788694,4000,0,0,0,1
1743177451481379,0.0101200165,-0.0010652671,-0.005326314,4000,0,-0.0023942022,0.0059856763,-9.787498,4000,0,0,0,1
1743177451485379,0.008788432,-0.0023968255,-0.010386334,4000,0,-0.025139121,0.002394374,-9.822214,4000,0,0,0,1
1743177451489379,0.0050600003,-0.003728419,-0.008255808,4000,0,-0.031124622,0.04189871,-9.815032,4000,0,0,0,1
1743177451493379,-0.0010652608,0.00026632313,-0.0023968462,4000,0,0.016759414,0.035913195,-9.813835,4000,0,0,0,1
1743177451497379,-0.005858956,-0.00053262815,-0.0018642123,4000,0,0.02274492,0.038307402,-9.8281975,4000,0,0,0,1
1743177451501379,-0.006391586,0.0023968497,0.00026631035,4000,0,0.0011971011,0.050278414,-9.792285,4000,0,0,0,1
1743177451505379,-0.0074568517,0.011717915,0.0021305105,4000,0,0.008379708,0.010774079,-9.765951,4000,0,0,0,1
1743177451509379,-0.008522129,0.010918953,-0.0013315744,4000,0,0.025139123,-0.014365041,-9.791088,4000,0,0,0,1
1743177451513379,-0.0055926414,0.0007989487,-0.0007989304,4000,0,0.010773908,0.004788575,-9.804258,4000,0,0,0,1
1743177451521379,0.0013315813,0.003195792,-0.0023968471,4000,0,-0.035913028,-0.005985333,-9.782708,4000,0,0,0,1
1743177451525379,0.0029294828,0.008522116,-0.00133158,4000,0,-0.029927526,-0.009576637,-9.793484,4000,0,0,0,1
1743177451529379,0.00053263863,0.010918961,0.00053264166,4000,0,-0.008379708,0.014365382,-9.776724,4000,0,0,0,1
1743177451537379,0.004261034,0.0037284195,-0.009054764,4000,0,-0.005985504,0.014365382,-9.777922,4000,0,0,0,1
1743177451541379,0.012250518,-0.0023968606,-0.014913721,4000,0,-0.0035913025,-0.007182434,-9.801862,4000,0,0,0,1
1743177451545379,0.009054731,-0.005858943,-0.013848457,4000,0,0.01316811,-0.014365039,-9.825806,4000,0,0,0,1
1743177451549379,-0.0005326313,-0.003728395,-0.009321078,4000,0,0.03232173,0.0011972729,-9.8509445,4000,0,0,0,1
1743177451553379,-0.0061252653,-0.0005326141,-0.0055926465,4000,0,0.050278243,-0.004788232,-9.836578,4000,0,0,0,1
1743177451557379,-0.0077231643,0.0023968662,0.0031957875,4000,0,0.041898537,-0.022744747,-9.815032,4000,0,0,0,1
1743177451565379,-0.0050600157,0.002396836,-0.0058589517,4000,0,-0.044292733,-0.02633605,-9.84017,4000,0,0,0,1
1743177451573379,0.0031957997,0.013582125,0.0023968166,4000,0,0.0071826046,-0.021547647,-9.831791,4000,0,0,0,1
1743177451577379,0.0034621141,0.0066579035,0.0021305208,4000,0,-0.0035913028,-0.01436504,-9.813835,4000,0,0,0,1
1743177451581379,0.0023968585,-0.0010652696,0.005592633,4000,0,-0.02873042,0.013168282,-9.815032,4000,0,0,0,1
1743177451585379,-0.00079894357,-0.003728432,0.005858952,4000,0,-0.03232173,0.0359132,-9.844959,4000,0,0,0,1
1743177451589379,-0.009054733,-0.009321082,0.002663152,4000,0,-0.01436521,0.04908131,-9.824609,4000,0,0,0,1
1743177451597379,-0.0034621046,-0.01065265,-0.001597872,4000,0,-0.03232173,0.022745091,-9.823412,4000,0,0,0,1
1743177451601379,0.007723186,-0.004527386,-0.0061252387,4000,0,-0.017956514,0.02633639,-9.860521,4000,0,0,0,1
1743177451609379,-0.00026633046,-0.003994722,-0.006657915,4000,0,-0.021547817,-0.0035911326,-9.751583,4000,0,0,0,1
1743177451613379,-0.006657913,-0.0015978818,0.0042610494,4000,0,0.0035913025,-0.0035911333,-9.709686,4000,0,0,0,1
1743177451617379,-0.0034621123,5.6375598e-09,0.004793688,4000,0,0.0,-0.010773739,-9.747993,4000,0,0,0,1
1743177451621379,0.0031958013,-0.004793681,0.003994747,4000,0,0.0,-0.01795634,-9.834185,4000,0,0,0,1
1743177451625379,0.006657903,-0.003994737,0.0031958,4000,0,0.005985504,-0.0035911305,-9.864112,4000,0,0,0,1
1743177451629379,0.0050600134,-0.0029294658,-0.0029294775,4000,0,-0.0035913028,0.025139293,-9.822214,4000,0,0,0,1
1743177451633379,0.0010652647,-0.0031957896,-0.0031957983,4000,0,-0.02633622,0.010774079,-9.811439,4000,0,0,0,1
1743177451637379,-0.0047936863,0.003462115,-0.00026631998,4000,0,-0.020350713,-0.007182434,-9.822214,4000,0,0,0,1
1743177451641379,-0.009054754,0.0071905307,-0.003728427,4000,0,0.027533324,0.0143653825,-9.832989,4000,0,0,0,1
1743177451645379,-0.0034621193,0.006657885,-0.0074568638,4000,0,0.037110135,0.0023943747,-9.854535,4000,0,0,0,1
1743177451649379,-0.0010652528,0.006391588,-0.0018642177,4000,0,-0.009576809,-0.014365039,-9.830592,4000,0,0,0,1
1743177451653379,-0.006391572,-0.0010652579,0.0077231815,4000,0,0.0,0.007182776,-9.76116,4000,0,0,0,1
1743177451661379,0.0015979116,-0.0058589536,-0.0015978882,4000,0,0.04668694,-0.051475175,-9.744401,4000,0,0,0,1
1743177451665379,-0.008522114,0.0053263274,-0.00053264596,4000,0,0.008379707,-0.016759247,-9.742006,4000,0,0,0,1
1743177451669379,-0.013848441,0.007190531,-0.002396841,4000,0,-0.02274492,-0.014365043,-9.734824,4000,0,0,0,1
1743177451673379,-0.01544634,0.00053263357,-0.0023968108,4000,0,0.016759416,-0.02394185,-9.742006,4000,0,0,0,1
1743177451677379,-0.018375814,-0.0031957831,-0.0007989287,4000,0,0.04548984,0.020350887,-9.770737,4000,0,0,0,1
1743177451681379,-0.011451592,0.0005326142,-0.0034621253,4000,0,0.021547817,0.027533494,-9.835382,4000,0,0,0,1
1743177451685379,-0.0031957887,0.004527377,-0.000532649,4000,0,0.041898534,-0.004788232,-9.849746,4000,0,0,0,1
1743177451689379,0.00053263153,0.0047936887,-0.0010652705,4000,0,0.04908113,0.0035914732,-9.806652,4000,0,0,0,1
1743177451693379,-0.00026632956,0.0018642147,-0.008788433,4000,0,0.0059855045,0.034716096,-9.798271,4000,0,0,0,1
1743177451697379,-0.009054769,-0.0047936644,-0.00985369,4000,0,-0.011971008,0.031124793,-9.804258,4000,0,0,0,1
1743177451701379,-0.007989501,-0.008255793,-0.006125259,4000,0,-0.0047884043,0.007182777,-9.811439,4000,0,0,0,1
1743177451709379,0.005059997,-0.011451599,-0.0010652607,4000,0,0.019153617,-0.0059853327,-9.837775,4000,0,0,0,1
1743177451713379,-0.0007989572,-0.004793694,0.0018642017,4000,0,0.014365209,-0.008379536,-9.795878,4000,0,0,0,1
1743177451717379,-0.0037284286,-1.8529265e-09,0.0018642071,4000,0,-0.009576809,0.031124793,-9.787498,4000,0,0,0,1
1743177451721379,-0.005326323,0.0015978978,0.0034621079,4000,0,-0.021547817,0.073023334,-9.7803135,4000,0,0,0,1
1743177451725379,-0.009054749,0.0034621153,0.009054749,4000,0,-0.005985504,0.08260014,-9.7396145,4000,0,0,0,1
1743177451729379,-0.005858952,0.002663172,0.009587379,4000,0,-0.0035913025,0.04908131,-9.745598,4000,0,0,0,1
1743177451733379,-0.003994733,-0.0018642193,0.0031958008,4000,0,-0.02274492,0.009576979,-9.79827,4000,0,0,0,1
1743177451737379,-0.01198422,-0.0047937054,-0.0018642142,4000,0,-0.037110135,0.009576979,-9.812637,4000,0,0,0,1
1743177451741379,-0.007456841,0.0018641952,-0.005592659,4000,0,-0.044292733,0.02633639,-9.805454,4000,0,0,0,1
1743177451745379,0.0013315903,0.007989461,-0.008255821,4000,0,-0.031124622,0.038307402,-9.8198185,4000,0,0,0,1
1743177451749379,-9.1492325e-09,0.0007989503,-0.0042610583,4000,0,-0.0047884043,0.040701605,-9.817425,4000,0,0,0,1
1743177451753379,-0.0034621174,-0.004793685,-0.002396844,4000,0,0.0,0.017956687,-9.794682,4000,0,0,0,1
1743177451757379,-0.0010652593,-0.0007989519,-0.0037284268,4000,0,-0.0035913025,-0.014365039,-9.798271,4000,0,0,0,1
1743177451761379,0.0007989549,0.003994739,-0.005858957,4000,0,0.009576809,-0.014365039,-9.798271,4000,0,0,0,1
1743177451765379,-0.008788443,0.0031958146,-0.012250529,4000,0,0.0047884043,-0.01795634,-9.779117,4000,0,0,0,1
1743177451769379,-0.011717922,0.0005326375,-0.014647377,4000,0,-0.008379708,-0.019153446,-9.76954,4000,0,0,0,1
1743177451773379,-0.0013315727,0.0018641956,-0.006125279,4000,0,0.005985504,-0.008379537,-9.7719345,4000,0,0,0,1
1743177451777379,0.0021305457,0.007190533,0.002929473,4000,0,0.020350713,-0.023941847,-9.805454,4000,0,0,0,1
1743177451781379,-0.008255806,0.012516849,0.0031958227,4000,0,0.0023942017,-0.02873025,-9.853339,4000,0,0,0,1
1743177451785379,-0.008788428,0.0058589536,0.0026631816,4000,0,-0.015562311,-0.017956343,-9.84017,4000,0,0,0,1
1743177451789379,0.00026633297,-0.004261039,0.0066579157,4000,0,0.0059855045,-0.016759245,-9.806652,4000,0,0,0,1
1743177451793379,-0.0010652613,-0.008788438,0.011451592,4000,0,0.041898537,0.007182777,-9.836577,4000,0,0,0,1
1743177451797379,-0.0023968304,-0.010652651,0.00878843,4000,0,0.016759416,0.023942187,-9.865309,4000,0,0,0,1
1743177451801379,-0.0010652364,-0.0077231727,-0.0015978947,4000,0,-0.02873042,0.017956687,-9.84017,4000,0,0,0,1
1743177451805379,0.0005326428,-0.0071905376,-0.0055926354,4000,0,0.016759416,0.016759586,-9.829395,4000,0,0,0,1
1743177451809379,-0.0010652775,-0.0069242185,-3.9034793e-09,4000,0,0.050278246,0.0047885757,-9.806652,4000,0,0,0,1
1743177451813379,-0.009853697,0.00026631638,0.0005326094,4000,0,0.019153617,-0.010773739,-9.763555,4000,0,0,0,1
1743177451817379,-0.0071905376,0.008788421,-0.0029295057,4000,0,-0.0011971011,-0.017956343,-9.818621,4000,0,0,0,1
1743177451821379,0.0058589587,0.008522106,-0.0018642505,4000,0,-0.015562311,-0.009576636,-9.88207,4000,0,0,0,1
1743177451829379,0.000532628,0.00053265365,-0.009054748,4000,0,0.0047884043,0.027533494,-9.837774,4000,0,0,0,1
1743177451833379,-0.006657899,0.0018642347,-0.009054747,4000,0,0.01436521,0.01197118,-9.810242,4000,0,0,0,1
1743177451837379,-0.009054755,-0.00026630113,-0.005592633,4000,0,-0.004788404,-0.01795634,-9.786301,4000,0,0,0,1
1743177451841379,-0.0026631637,-0.0015979054,-0.00452737,4000,0,-0.039504327,-0.014365039,-9.793484,4000,0,0,0,1
1743177451845379,-0.002929479,6.275077e-09,0.0021305275,4000,0,-0.034715924,-0.0035911317,-9.800665,4000,0,0,0,1
1743177451853379,-0.006657899,-0.0015978996,0.004261065,4000,0,0.0035913025,-0.03112445,-9.832989,4000,0,0,0,1
1743177451861379,-0.0034621083,-0.0063915877,0.0023968474,4000,0,0.019153617,-0.023941848,-9.791088,4000,0,0,0,1
1743177451865379,-0.0037284275,-0.010386327,0.0045273793,4000,0,-0.0035913023,-0.004788233,-9.800665,4000,0,0,0,1
1743177451869379,0.0002663001,-0.0015978902,0.005326325,4000,0,-0.021547817,-0.013167939,-9.803061,4000,0,0,0,1
1743177451877379,-0.003195778,-0.0010652808,0.012250545,4000,0,0.005985504,0.043095805,-9.791088,4000,0,0,0,1
1743177451881379,-0.003728412,-0.0039947494,0.0069242218,4000,0,0.029927526,0.027533494,-9.809044,4000,0,0,0,1
1743177451885379,0.0021305424,-0.009321051,0.0061252853,4000,0,0.027533323,0.016759584,-9.791088,4000,0,0,0,1
1743177451889379,0.006924248,-0.015978957,0.0013315905,4000,0,0.021547817,0.009576978,-9.775527,4000,0,0,0,1
1743177451893379,0.006125301,-0.014114743,-0.0045273756,4000,0,0.016759416,0.010774079,-9.78989,4000,0,0,0,1
1743177451901379,0.002130526,0.013049489,0.00026632627,4000,0,-0.067037664,-0.015562142,-9.751583,4000,0,0,0,1
1743177451905379,0.0013315419,0.005060013,-0.008788436,4000,0,-0.023942018,0.019153785,-9.756374,4000,0,0,0,1
1743177451909379,0.0021304986,-0.0077231736,-0.0047936975,4000,0,0.034715924,0.037110306,-9.765951,4000,0,0,0,1
1743177451913379,0.004793664,-0.014114763,0.0013315828,4000,0,0.053869545,0.02633639,-9.797075,4000,0,0,0,1
1743177451921379,-0.0037284172,0.006125275,-0.0021305352,4000,0,-0.025139121,-0.055066478,-9.800665,4000,0,0,0,1
1743177451925379,-0.009853688,0.013315814,-0.0007989447,4000,0,-0.05985505,-0.07661429,-9.806652,4000,0,0,0,1
1743177451929379,-0.006924208,0.0061252806,0.002396856,4000,0,-0.077811554,-0.038307063,-9.8198185,4000,0,0,0,1
1743177451933379,0.002130549,-0.010918948,0.0053263432,4000,0,-0.06703766,0.020350888,-9.801862,4000,0,0,0,1
1743177451937379,-0.0013315523,-0.018109504,0.0010652464,4000,0,-0.019153617,0.021547988,-9.776724,4000,0,0,0,1
1743177451945379,-0.0090547325,-0.003462119,-0.006924236,4000,0,-0.01436521,-0.013167938,-9.858126,4000,0,0,0,1
1743177451949379,-0.0079895,-0.008255791,-0.0026631462,4000,0,-0.0035913023,0.0323219,-9.838972,4000,0,0,0,1
1743177451953379,-0.0053263507,-0.011185256,0.006391602,4000,0,0.005985504,0.037110306,-9.79827,4000,0,0,0,1
1743177451957379,-0.0005326307,-0.009587372,0.0050600213,4000,0,-0.011971008,0.009576979,-9.827002,4000,0,0,0,1
1743177451965379,-0.0015978948,-0.0018642134,-0.000798952,4000,0,0.01316811,0.02274509,-9.824609,4000,0,0,0,1
1743177451969379,-0.0026631572,0.007723167,-0.0037284314,4000,0,-0.0011971011,0.04549001,-9.858126,4000,0,0,0,1
1743177451973379,-0.003728433,0.01091896,-0.007989485,4000,0,-0.015562311,-0.0035911307,-9.8677025,4000,0,0,0,1
1743177451981379,0.009853685,0.004527357,-0.0109189795,4000,0,0.01436521,-0.034715753,-9.779117,4000,0,0,0,1
1743177451985379,0.0077231554,0.0007989564,-0.01091897,4000,0,-0.025139121,-0.032321554,-9.78989,4000,0,0,0,1
1743177451989379,-0.002663181,-0.005059981,-0.0063915993,4000,0,-0.06943185,-0.043095466,-9.810242,4000,0,0,0,1
1743177451993379,-0.013848436,-0.001597871,-0.0042610806,4000,0,-0.038307235,-0.037109964,-9.795878,4000,0,0,0,1
1743177451997379,-0.009321051,0.008522125,-0.0013316248,4000,0,0.02633622,1.7084494e-07,-9.788693,4000,0,0,0,1
1743177452001379,0.0013316028,0.008788452,0.006391557,4000,0,0.055066645,0.025139293,-9.797075,4000,0,0,0,1
1743177452005379,-0.0015978782,0.0010652578,0.0071905404,4000,0,0.029927526,0.008379878,-9.810242,4000,0,0,0,1
1743177452009379,-0.003994738,-0.0018642233,-0.0013315784,4000,0,0.0035913025,0.0071827765,-9.825806,4000,0,0,0,1
1743177452013379,0.0013315822,-0.0013315857,-0.0034621074,4000,0,0.0023942022,0.029927697,-9.821015,4000,0,0,0,1
1743177452021379,-0.0045273798,-0.013848446,0.0077231517,4000,0,-0.0011971011,0.06105232,-9.804258,4000,0,0,0,1
1743177452025379,-0.006125277,-0.009853702,0.0066578905,4000,0,0.011971008,0.071826234,-9.783907,4000,0,0,0,1
1743177452029379,-0.0023968488,-0.0031957924,0.0031957922,4000,0,0.015562311,0.021547988,-9.792285,4000,0,0,0,1
1743177452033379,-0.0034621083,-0.0013315846,-0.00026631882,4000,0,-0.007182605,-0.03112445,-9.835382,4000,0,0,0,1
1743177452037379,-0.0029294756,0.0010652598,-0.004527378,4000,0,-0.023942018,-0.02633605,-9.852142,4000,0,0,0,1
1743177452041379,-0.0007989508,-0.00053263525,-0.004261058,4000,0,-0.03232173,-0.005985332,-9.843762,4000,0,0,0,1
1743177452045379,-0.0026631663,-0.0034621065,-0.0010652643,4000,0,0.0071826056,-0.023941847,-9.817424,4000,0,0,0,1
1743177452049379,3.0733857e-10,-0.0069242213,-0.0023968394,4000,0,-0.0011970999,-0.022744747,-9.79827,4000,0,0,0,1
1743177452053379,0.0061252797,-0.0074568572,-0.0061252574,4000,0,-0.059855048,0.009576979,-9.817425,4000,0,0,0,1
1743177452057379,0.0063916007,0.00026631405,-0.005326306,4000,0,-0.03351883,0.020350887,-9.830593,4000,0,0,0,1
1743177452061379,0.0045273853,0.006391591,-0.0053263092,4000,0,0.0035913025,-0.01436504,-9.7803135,4000,0,0,0,1
1743177452065379,0.0066578994,0.0023968392,-0.0037284365,4000,0,0.005985504,-0.06823458,-9.747993,4000,0,0,0,1
1743177452069379,0.006391593,0.0013315632,0.0042610564,4000,0,0.023942016,-0.043095466,-9.7803135,4000,0,0,0,1
1743177452073379,0.0021305252,0.005858937,0.010120026,4000,0,0.043095633,0.022745091,-9.794682,4000,0,0,0,1
1743177452077379,-1.3475612e-08,0.006924216,0.005060012,4000,0,0.035913024,0.047884203,-9.770737,4000,0,0,0,1
1743177452081379,0.00053261215,0.0071905367,-0.0034621104,4000,0,0.0023942017,0.056263916,-9.758768,4000,0,0,0,1
1743177452085379,0.00079893885,0.0005326322,-0.0042610606,4000,0,-0.023942016,0.043095805,-9.767147,4000,0,0,0,1
1743177452089379,-0.001065276,-0.007723165,-0.0029294798,4000,0,0.0035913019,0.023942187,-9.7803135,4000,0,0,0,1
1743177452097379,-0.00026630214,0.0042610536,-0.005858959,4000,0,0.0023942017,0.019153787,-9.787498,4000,0,0,0,1
1743177452101379,0.0029294752,0.0053263167,-0.009054755,4000,0,-0.01436521,0.029927695,-9.793484,4000,0,0,0,1
1743177452105379,0.0034620876,-0.0023968471,-0.008522125,4000,0,0.015562313,0.06105232,-9.8198185,4000,0,0,0,1
1743177452109379,0.00026629696,-0.00639159,0.0013315735,4000,0,0.035913028,0.038307402,-9.812637,4000,0,0,0,1
1743177452113379,-0.0023968685,-0.0053263246,0.011984222,4000,0,0.0035913028,-0.0023940313,-9.782708,4000,0,0,0,1
1743177452117379,-0.002130541,-0.0037284226,0.01518002,4000,0,-0.02633622,0.003591474,-9.805455,4000,0,0,0,1
1743177452125379,-0.0007989745,0.009054747,0.0029294763,4000,0,-0.010773908,-0.06464328,-9.849746,4000,0,0,0,1
1743177452133379,0.0021305098,0.011451594,-0.003994754,4000,0,-0.019153617,0.057461016,-9.843762,4000,0,0,0,1
1743177452141379,0.004793678,-0.004793706,0.0007989294,4000,0,-0.0035913023,-0.010773738,-9.781511,4000,0,0,0,1
1743177452145379,0.003994722,-0.010918985,0.014647377,4000,0,0.0035913025,-0.027533151,-9.813835,4000,0,0,0,1
