timestamp,timestamp_sample,gps_hvel[0],gps_hvel[1],gps_vvel,gps_hpos[0],gps_hpos[1],gps_vpos,ev_hvel[0],ev_hvel[1],ev_vvel,ev_hpos[0],ev_hpos[1],ev_vpos,rng_vpos,baro_vpos,aux_hvel[0],aux_hvel[1],aux_vvel,flow[0],flow[1],heading,mag_field[0],mag_field[1],mag_field[2],drag[0],drag[1],airspeed,beta,hagl,hagl_rate
21726688000,21726608000,4.62862e-06,0.0,5.0634674e-07,1.5820693e-07,0.0,0.0,0.0,0.0,0.0,0.0,0.0,0.0,0.0,2.8523918e-05,0.0,0.0,nan,0.0,0.0,0.0005511935,0.0,0.0,0.0,0.0,0.0,0.0,0.0,0.0,0.0
21727184000,21727104000,5.5266863e-08,0.0,3.0327286e-08,3.865748e-06,0.0,0.0,0.0,0.0,0.0,0.0,0.0,0.0,0.0,3.113698e-06,0.0,0.0,nan,0.0,0.0,0.00057174684,0.0,0.0,0.0,0.0,0.0,0.0,0.0,0.0,0.0
21727688000,21727608000,1.7086988e-06,0.0,1.6887103e-05,3.825382e-06,0.0,0.0,0.0,0.0,0.0,0.0,0.0,0.0,0.0,2.6721334e-06,0.0,0.0,nan,0.0,0.0,0.0013916371,0.0,0.0,0.0,0.0,0.0,0.0,0.0,0.0,0.0
21728184000,21728104000,2.8706634e-05,0.0,6.1768924e-07,1.780116e-07,0.0,0.0,0.0,0.0,0.0,0.0,0.0,0.0,0.0,2.703579e-06,0.0,0.0,nan,0.0,0.0,3.014384e-05,0.0,0.0,0.0,0.0,0.0,0.0,0.0,0.0,0.0
21728688000,21728608000,4.3965818e-05,0.0,1.7800683e-05,3.548145e-06,0.0,0.0,0.0,0.0,0.0,0.0,0.0,0.0,0.0,3.4221654e-07,0.0,0.0,nan,0.0,0.0,0.00074736914,0.0,0.0,0.0,0.0,0.0,0.0,0.0,0.0,0.0
21729192000,21729112000,3.6974532e-06,0.0,8.2015926e-05,1.4847863e-06,0.0,0.0,0.0,0.0,0.0,0.0,0.0,0.0,0.0,1.787885e-05,0.0,0.0,nan,0.0,0.0,4.5344896e-05,0.0,0.0,0.0,0.0,0.0,0.0,0.0,0.0,0.0
21729688000,21729608000,7.087479e-08,0.0,2.5460253e-07,1.7031614e-07,0.0,0.0,0.0,0.0,0.0,0.0,0.0,0.0,0.0,1.3140903e-05,0.0,0.0,nan,0.0,0.0,0.001008526,0.0,0.0,0.0,0.0,0.0,0.0,0.0,0.0,0.0
21730192000,21730112000,0.00017487562,0.0,0.00030951397,1.6642511e-07,0.0,0.0,0.0,0.0,0.0,0.0,0.0,0.0,0.0,4.4284006e-05,0.0,0.0,nan,0.0,0.0,4.404216e-06,0.0,0.0,0.0,0.0,0.0,0.0,0.0,0.0,0.0
21730688000,21730608000,6.885345e-05,0.0,2.0929994e-05,3.6158435e-06,0.0,0.0,0.0,0.0,0.0,0.0,0.0,0.0,0.0,5.43998e-07,0.0,0.0,nan,0.0,0.0,2.3926252e-06,0.0,0.0,0.0,0.0,0.0,0.0,0.0,0.0,0.0
21731192000,21731112000,4.5669847e-05,0.0,2.483233e-05,1.215371e-07,0.0,0.0,0.0,0.0,0.0,0.0,0.0,0.0,0.0,2.314449e-06,0.0,0.0,nan,0.0,0.0,0.00012339976,0.0,0.0,0.0,0.0,0.0,0.0,0.0,0.0,0.0
21731688000,21731608000,3.3758857e-05,0.0,0.00033125246,1.614953e-07,0.0,0.0,0.0,0.0,0.0,0.0,0.0,0.0,0.0,1.1331521e-06,0.0,0.0,nan,0.0,0.0,0.00012468109,0.0,0.0,0.0,0.0,0.0,0.0,0.0,0.0,0.0
21732192000,21732112000,5.1203944e-05,0.0,0.0005136631,1.9477714e-07,0.0,0.0,0.0,0.0,0.0,0.0,0.0,0.0,0.0,1.4601031e-06,0.0,0.0,nan,0.0,0.0,1.3763789e-08,0.0,0.0,0.0,0.0,0.0,0.0,0.0,0.0,0.0
21732688000,21732608000,5.4613396e-05,0.0,4.7578098e-08,1.5067714e-06,0.0,0.0,0.0,0.0,0.0,0.0,0.0,0.0,0.0,8.079315e-07,0.0,0.0,nan,0.0,0.0,8.142461e-06,0.0,0.0,0.0,0.0,0.0,0.0,0.0,0.0,0.0
21733192000,21733112000,4.600417e-05,0.0,6.89251e-06,3.7324678e-06,0.0,0.0,0.0,0.0,0.0,0.0,0.0,0.0,0.0,0.0,0.0,0.0,nan,0.0,0.0,5.1282943e-05,0.0,0.0,0.0,0.0,0.0,0.0,0.0,0.0,0.0
21733688000,21733608000,0.00016285985,0.0,9.424434e-05,8.833493e-07,0.0,0.0,0.0,0.0,0.0,0.0,0.0,0.0,0.0,0.0,0.0,0.0,nan,0.0,0.0,0.0009231421,0.0,0.0,0.0,0.0,0.0,0.0,0.0,0.0,0.0
21734184000,21734104000,7.819534e-05,0.0,1.750501e-05,3.2136559e-06,0.0,0.0,0.0,0.0,0.0,0.0,0.0,0.0,0.0,4.450921e-06,0.0,0.0,nan,0.0,0.0,3.4577937e-05,0.0,0.0,0.0,0.0,0.0,0.0,0.0,0.0,0.0
21734688000,21734608000,8.529492e-05,0.0,0.0017651288,1.3449505e-05,0.0,0.0,0.0,0.0,0.0,0.0,0.0,0.0,0.0,2.7841063e-05,0.0,0.0,nan,0.0,0.0,3.5170706e-05,0.0,0.0,0.0,0.0,0.0,0.0,0.0,0.0,0.0
21735192000,21735112000,0.00018085132,0.0,9.923178e-05,1.4998954e-05,0.0,0.0,0.0,0.0,0.0,0.0,0.0,0.0,0.0,5.719363e-06,0.0,0.0,nan,0.0,0.0,1.0606158e-05,0.0,0.0,0.0,0.0,0.0,0.0,0.0,0.0,0.0
21735688000,21735608000,0.00061866257,0.0,0.0005170824,3.4272056e-05,0.0,0.0,0.0,0.0,0.0,0.0,0.0,0.0,0.0,2.4363877e-05,0.0,0.0,nan,0.0,0.0,0.0036556392,0.0,0.0,0.0,0.0,0.0,0.0,0.0,0.0,0.0
21736192000,21736112000,0.0006062452,0.0,0.002504224,3.6305646e-05,0.0,0.0,0.0,0.0,0.0,0.0,0.0,0.0,0.0,5.1764273e-05,0.0,0.0,nan,0.0,0.0,0.0017574256,0.0,0.0,0.0,0.0,0.0,0.0,0.0,0.0,0.0
21736688000,21736608000,0.00042269897,0.0,0.000102008504,4.067276e-05,0.0,0.0,0.0,0.0,0.0,0.0,0.0,0.0,0.0,5.099431e-06,0.0,0.0,nan,0.0,0.0,0.00033793677,0.0,0.0,0.0,0.0,0.0,0.0,0.0,0.0,0.0
21737192000,21737112000,6.303292e-05,0.0,0.00060403533,3.8898044e-05,0.0,0.0,0.0,0.0,0.0,0.0,0.0,0.0,0.0,8.184804e-09,0.0,0.0,nan,0.0,0.0,0.001153689,0.0,0.0,0.0,0.0,0.0,0.0,0.0,0.0,0.0
21737688000,21737608000,0.00021061333,0.0,7.109902e-05,5.03755e-05,0.0,0.0,0.0,0.0,0.0,0.0,0.0,0.0,0.0,4.0442297e-05,0.0,0.0,nan,0.0,0.0,9.09138e-06,0.0,0.0,0.0,0.0,0.0,0.0,0.0,0.0,0.0
21738192000,21738112000,5.0605115e-05,0.0,2.5084499e-05,5.2099887e-05,0.0,0.0,0.0,0.0,0.0,0.0,0.0,0.0,0.0,2.7258176e-05,0.0,0.0,nan,0.0,0.0,0.00052276585,0.0,0.0,0.0,0.0,0.0,0.0,0.0,0.0,0.0
21738688000,21738608000,9.1761525e-05,0.0,1.5100122e-05,5.7526933e-05,0.0,0.0,0.0,0.0,0.0,0.0,0.0,0.0,0.0,1.40986795e-05,0.0,0.0,nan,0.0,0.0,7.103577e-05,0.0,0.0,0.0,0.0,0.0,0.0,0.0,0.0,0.0
21739192000,21739112000,0.00023964581,0.0,0.00012818114,5.8493442e-05,0.0,0.0,0.0,0.0,0.0,0.0,0.0,0.0,0.0,3.172336e-07,0.0,0.0,nan,0.0,0.0,0.00021363089,0.0,0.0,0.0,0.0,0.0,0.0,0.0,0.0,0.0
21739688000,21739608000,0.008755204,0.0,0.0010567751,0.00014109063,0.0,0.0,0.0,0.0,0.0,0.0,0.0,0.0,0.0,0.00010275426,0.0,0.0,nan,0.0,0.0,0.0,0.00012733425,0.0,0.0,0.0,0.0,0.0,0.0,0.0,0.0
21740192000,21740112000,0.0021992722,0.0,0.0013373777,9.527107e-05,0.0,0.0,0.0,0.0,0.0,0.0,0.0,0.0,0.0,0.00019879267,0.0,0.0,nan,0.0,0.0,0.0,8.7012624e-05,0.0,0.0,0.0,0.0,0.0,0.0,0.0,0.0
21740688000,21740608000,0.0012384541,0.0,0.000228648,1.5924317e-05,0.0,0.0,0.0,0.0,0.0,0.0,0.0,0.0,0.0,5.084303e-05,0.0,0.0,nan,0.0,0.0,0.0,0.00022769585,0.0,0.0,0.0,0.0,0.0,0.0,0.0,0.0
21741192000,21741112000,0.0009720927,0.0,0.00026711577,2.0596248e-05,0.0,0.0,0.0,0.0,0.0,0.0,0.0,0.0,0.0,2.4860738e-05,0.0,0.0,nan,0.0,0.0,0.0,0.0007284775,0.0,0.0,0.0,0.0,0.0,0.0,0.0,0.0
21741688000,21741608000,0.0005120882,0.0,0.0012070726,1.6275124e-05,0.0,0.0,0.0,0.0,0.0,0.0,0.0,0.0,0.0,0.00017720374,0.0,0.0,nan,0.0,0.0,0.0,6.3889405e-05,0.0,0.0,0.0,0.0,0.0,0.0,0.0,0.0
21742192000,21742112000,0.00024317241,0.0,7.8964826e-05,1.4199759e-06,0.0,0.0,0.0,0.0,0.0,0.0,0.0,0.0,0.0,4.564018e-05,0.0,0.0,nan,0.0,0.0,0.0,0.0009814033,0.0,0.0,0.0,0.0,0.0,0.0,0.0,0.0
21742688000,21742608000,0.001001717,0.0,1.7565952e-05,5.1747447e-06,0.0,0.0,0.0,0.0,0.0,0.0,0.0,0.0,0.0,7.983214e-05,0.0,0.0,nan,0.0,0.0,0.0,7.224585e-05,0.0,0.0,0.0,0.0,0.0,0.0,0.0,0.0
21743192000,21743112000,0.00031969076,0.0,0.00026906378,3.8635444e-05,0.0,0.0,0.0,0.0,0.0,0.0,0.0,0.0,0.0,7.9341604e-05,0.0,0.0,nan,0.0,0.0,0.0,0.0018022432,0.0,0.0,0.0,0.0,0.0,0.0,0.0,0.0
21743688000,21743608000,0.000634459,0.0,0.0006159746,9.6356125e-05,0.0,0.0,0.0,0.0,0.0,0.0,0.0,0.0,0.0,3.8503826e-05,0.0,0.0,nan,0.0,0.0,0.0,0.000837717,0.0,0.0,0.0,0.0,0.0,0.0,0.0,0.0
21744192000,21744112000,0.0003273267,0.0,0.00026238055,1.0603019e-05,0.0,0.0,0.0,0.0,0.0,0.0,0.0,0.0,0.0,8.597065e-05,0.0,0.0,nan,0.0,0.0,0.0,0.0002360006,0.0,0.0,0.0,0.0,0.0,0.0,0.0,0.0
21744688000,21744608000,8.645241e-05,0.0,9.220512e-06,0.00022797681,0.0,0.0,0.0,0.0,0.0,0.0,0.0,0.0,0.0,2.5269426e-05,0.0,0.0,nan,0.0,0.0,0.0,0.0012451307,0.0,0.0,0.0,0.0,0.0,0.0,0.0,0.0
21745192000,21745112000,1.9230854e-05,0.0,0.00021807311,6.782347e-05,0.0,0.0,0.0,0.0,0.0,0.0,0.0,0.0,0.0,4.828221e-05,0.0,0.0,nan,0.0,0.0,0.0,0.00014572032,0.0,0.0,0.0,0.0,0.0,0.0,0.0,0.0
21745688000,21745608000,0.0005887109,0.0,0.0010411394,9.906907e-05,0.0,0.0,0.0,0.0,0.0,0.0,0.0,0.0,0.0,7.1875234e-05,0.0,0.0,nan,0.0,0.0,3.8248167e-05,0.0,0.0,0.0,0.0,0.0,0.0,0.0,0.0,0.0
21746192000,21746112000,6.3717234e-05,0.0,0.0003244595,0.0003348485,0.0,0.0,0.0,0.0,0.0,0.0,0.0,0.0,0.0,2.6150654e-05,0.0,0.0,nan,0.0,0.0,1.801255e-05,0.0,0.0,0.0,0.0,0.0,0.0,0.0,0.0,0.0
21746688000,21746608000,1.4392627e-05,0.0,2.2609067e-05,6.8131485e-05,0.0,0.0,0.0,0.0,0.0,0.0,0.0,0.0,0.0,3.7271675e-05,0.0,0.0,nan,0.0,0.0,0.00013031246,0.0,0.0,0.0,0.0,0.0,0.0,0.0,0.0,0.0
21747184000,21747104000,0.0005725723,0.0,0.00027737365,7.5907126e-05,0.0,0.0,0.0,0.0,0.0,0.0,0.0,0.0,0.0,2.483741e-05,0.0,0.0,nan,0.0,0.0,2.8026006e-06,0.0,0.0,0.0,0.0,0.0,0.0,0.0,0.0,0.0
21747688000,21747608000,0.00028553916,0.0,0.0010255196,0.00015214214,0.0,0.0,0.0,0.0,0.0,0.0,0.0,0.0,0.0,1.4525656e-06,0.0,0.0,nan,0.0,0.0,0.000787239,0.0,0.0,0.0,0.0,0.0,0.0,0.0,0.0,0.0
21748192000,21748112000,0.00027565108,0.0,5.862064e-10,0.00016854193,0.0,0.0,0.0,0.0,0.0,0.0,0.0,0.0,0.0,3.9389935e-05,0.0,0.0,nan,0.0,0.0,9.7491946e-05,0.0,0.0,0.0,0.0,0.0,0.0,0.0,0.0,0.0
21748688000,21748608000,0.00031217933,0.0,0.000752944,0.0001966187,0.0,0.0,0.0,0.0,0.0,0.0,0.0,0.0,0.0,1.247337e-06,0.0,0.0,nan,0.0,0.0,7.555854e-05,0.0,0.0,0.0,0.0,0.0,0.0,0.0,0.0,0.0
21749192000,21749112000,0.00032239375,0.0,9.9052486e-05,0.000119027834,0.0,0.0,0.0,0.0,0.0,0.0,0.0,0.0,0.0,9.350926e-07,0.0,0.0,nan,0.0,0.0,9.8298355e-05,0.0,0.0,0.0,0.0,0.0,0.0,0.0,0.0,0.0
21749688000,21749608000,4.610884e-05,0.0,0.00030007304,0.00018760502,0.0,0.0,0.0,0.0,0.0,0.0,0.0,0.0,0.0,1.620638e-07,0.0,0.0,nan,0.0,0.0,2.0826443e-05,0.0,0.0,0.0,0.0,0.0,0.0,0.0,0.0,0.0
21750184000,21750104000,0.0003836484,0.0,0.00017842662,0.00036090479,0.0,0.0,0.0,0.0,0.0,0.0,0.0,0.0,0.0,1.8709106e-06,0.0,0.0,nan,0.0,0.0,4.9495888e-05,0.0,0.0,0.0,0.0,0.0,0.0,0.0,0.0,0.0
21750688000,21750608000,9.482318e-06,0.0,0.00037640875,0.00018511906,0.0,0.0,0.0,0.0,0.0,0.0,0.0,0.0,0.0,1.5466725e-05,0.0,0.0,nan,0.0,0.0,2.0983502e-05,0.0,0.0,0.0,0.0,0.0,0.0,0.0,0.0,0.0
21751192000,21751112000,4.5298304e-05,0.0,1.4175951e-06,0.00032611215,0.0,0.0,0.0,0.0,0.0,0.0,0.0,0.0,0.0,2.5146992e-05,0.0,0.0,nan,0.0,0.0,5.507005e-06,0.0,0.0,0.0,0.0,0.0,0.0,0.0,0.0,0.0
21751688000,21751608000,0.00010490364,0.0,0.00015585327,0.000108072745,0.0,0.0,0.0,0.0,0.0,0.0,0.0,0.0,0.0,1.8605684e-05,0.0,0.0,nan,0.0,0.0,3.2010015e-05,0.0,0.0,0.0,0.0,0.0,0.0,0.0,0.0,0.0
21752192000,21752112000,6.772085e-05,0.0,1.0812005e-08,9.4953655e-05,0.0,0.0,0.0,0.0,0.0,0.0,0.0,0.0,0.0,3.0254046e-06,0.0,0.0,nan,0.0,0.0,0.000190107,0.0,0.0,0.0,0.0,0.0,0.0,0.0,0.0,0.0
21752688000,21752608000,0.00029550263,0.0,3.687563e-05,0.00032606663,0.0,0.0,0.0,0.0,0.0,0.0,0.0,0.0,0.0,1.7702462e-07,0.0,0.0,nan,0.0,0.0,0.00014973589,0.0,0.0,0.0,0.0,0.0,0.0,0.0,0.0,0.0
21753192000,21753112000,0.00025223274,0.0,0.00036601888,0.00015504046,0.0,0.0,0.0,0.0,0.0,0.0,0.0,0.0,0.0,3.2501095e-05,0.0,0.0,nan,0.0,0.0,5.1286333e-05,0.0,0.0,0.0,0.0,0.0,0.0,0.0,0.0,0.0
21753688000,21753608000,0.00019445855,0.0,0.00014840969,0.00015868145,0.0,0.0,0.0,0.0,0.0,0.0,0.0,0.0,0.0,5.3742653e-05,0.0,0.0,nan,0.0,0.0,2.4565783e-05,0.0,0.0,0.0,0.0,0.0,0.0,0.0,0.0,0.0
21754192000,21754112000,0.0010983661,0.0,0.0004587208,0.00015788006,0.0,0.0,0.0,0.0,0.0,0.0,0.0,0.0,0.0,7.0837246e-05,0.0,0.0,nan,0.0,0.0,0.00013807003,0.0,0.0,0.0,0.0,0.0,0.0,0.0,0.0,0.0
21754688000,21754608000,0.00036477414,0.0,7.402184e-05,4.8627822e-05,0.0,0.0,0.0,0.0,0.0,0.0,0.0,0.0,0.0,1.9954517e-07,0.0,0.0,nan,0.0,0.0,2.3002354e-05,0.0,0.0,0.0,0.0,0.0,0.0,0.0,0.0,0.0
21755184000,21755104000,0.00070391013,0.0,0.0008755106,0.00013188281,0.0,0.0,0.0,0.0,0.0,0.0,0.0,0.0,0.0,3.224685e-07,0.0,0.0,nan,0.0,0.0,0.0001992914,0.0,0.0,0.0,0.0,0.0,0.0,0.0,0.0,0.0
21755688000,21755608000,0.0015279402,0.0,0.00032447928,8.6412045e-05,0.0,0.0,0.0,0.0,0.0,0.0,0.0,0.0,0.0,1.9331066e-05,0.0,0.0,nan,0.0,0.0,1.4366435e-06,0.0,0.0,0.0,0.0,0.0,0.0,0.0,0.0,0.0
21756192000,21756112000,0.0012259092,0.0,0.0012416999,0.00036499766,0.0,0.0,0.0,0.0,0.0,0.0,0.0,0.0,0.0,0.000101881174,0.0,0.0,nan,0.0,0.0,0.00021172868,0.0,0.0,0.0,0.0,0.0,0.0,0.0,0.0,0.0
21756688000,21756608000,0.0012905928,0.0,0.001291183,0.00011483991,0.0,0.0,0.0,0.0,0.0,0.0,0.0,0.0,0.0,2.726191e-06,0.0,0.0,nan,0.0,0.0,3.7818347e-05,0.0,0.0,0.0,0.0,0.0,0.0,0.0,0.0,0.0
21757192000,21757112000,0.0010484337,0.0,0.0014109401,8.022524e-05,0.0,0.0,0.0,0.0,0.0,0.0,0.0,0.0,0.0,3.6730324e-11,0.0,0.0,nan,0.0,0.0,5.6496145e-05,0.0,0.0,0.0,0.0,0.0,0.0,0.0,0.0,0.0
21757688000,21757608000,0.00061781827,0.0,0.0016491903,7.957639e-05,0.0,0.0,0.0,0.0,0.0,0.0,0.0,0.0,0.0,2.8918193e-05,0.0,0.0,nan,0.0,0.0,1.4091906e-05,0.0,0.0,0.0,0.0,0.0,0.0,0.0,0.0,0.0
21758192000,21758112000,0.0008689033,0.0,0.0012388766,0.000312039,0.0,0.0,0.0,0.0,0.0,0.0,0.0,0.0,0.0,4.536027e-06,0.0,0.0,nan,0.0,0.0,3.279052e-05,0.0,0.0,0.0,0.0,0.0,0.0,0.0,0.0,0.0
21758688000,21758608000,0.00044001435,0.0,0.0014692405,0.00020935274,0.0,0.0,0.0,0.0,0.0,0.0,0.0,0.0,0.0,2.2254577e-05,0.0,0.0,nan,0.0,0.0,0.00036051785,0.0,0.0,0.0,0.0,0.0,0.0,0.0,0.0,0.0
21759184000,21759104000,0.00035345252,0.0,0.00020271765,8.834605e-05,0.0,0.0,0.0,0.0,0.0,0.0,0.0,0.0,0.0,0.000107413245,0.0,0.0,nan,0.0,0.0,2.3815117e-05,0.0,0.0,0.0,0.0,0.0,0.0,0.0,0.0,0.0
21759688000,21759608000,0.00031646743,0.0,0.0015129059,0.00011543104,0.0,0.0,0.0,0.0,0.0,0.0,0.0,0.0,0.0,3.8590104e-05,0.0,0.0,nan,0.0,0.0,8.159683e-05,0.0,0.0,0.0,0.0,0.0,0.0,0.0,0.0,0.0
21760184000,21760104000,0.00020654224,0.0,0.0024842292,0.00016357203,0.0,0.0,0.0,0.0,0.0,0.0,0.0,0.0,0.0,2.9241397e-05,0.0,0.0,nan,0.0,0.0,6.265034e-05,0.0,0.0,0.0,0.0,0.0,0.0,0.0,0.0,0.0
21760688000,21760608000,0.00050272176,0.0,0.003867102,0.00013913857,0.0,0.0,0.0,0.0,0.0,0.0,0.0,0.0,0.0,7.086239e-05,0.0,0.0,nan,0.0,0.0,0.00017987043,0.0,0.0,0.0,0.0,0.0,0.0,0.0,0.0,0.0
21761192000,21761112000,0.00022866396,0.0,0.0012065184,0.0001434133,0.0,0.0,0.0,0.0,0.0,0.0,0.0,0.0,0.0,9.20519e-06,0.0,0.0,nan,0.0,0.0,4.5070652e-07,0.0,0.0,0.0,0.0,0.0,0.0,0.0,0.0,0.0
21761688000,21761608000,0.00013952127,0.0,0.0009031506,0.00012872803,0.0,0.0,0.0,0.0,0.0,0.0,0.0,0.0,0.0,7.1849245e-05,0.0,0.0,nan,0.0,0.0,4.9146285e-05,0.0,0.0,0.0,0.0,0.0,0.0,0.0,0.0,0.0
21762184000,21762104000,0.00042036216,0.0,0.001464035,0.000251662,0.0,0.0,0.0,0.0,0.0,0.0,0.0,0.0,0.0,0.00015730434,0.0,0.0,nan,0.0,0.0,0.0007713306,0.0,0.0,0.0,0.0,0.0,0.0,0.0,0.0,0.0
21762688000,21762608000,0.000897159,0.0,0.0010228938,0.00013184673,0.0,0.0,0.0,0.0,0.0,0.0,0.0,0.0,0.0,9.89647e-05,0.0,0.0,nan,0.0,0.0,9.162967e-05,0.0,0.0,0.0,0.0,0.0,0.0,0.0,0.0,0.0
21763192000,21763112000,2.2477829e-05,0.0,5.212013e-05,0.00014291424,0.0,0.0,0.0,0.0,0.0,0.0,0.0,0.0,0.0,5.1862306e-05,0.0,0.0,nan,0.0,0.0,2.2871542e-05,0.0,0.0,0.0,0.0,0.0,0.0,0.0,0.0,0.0
21763688000,21763608000,0.0004766346,0.0,0.0006222597,9.986621e-05,0.0,0.0,0.0,0.0,0.0,0.0,0.0,0.0,0.0,0.00010970683,0.0,0.0,nan,0.0,0.0,5.8649635e-05,0.0,0.0,0.0,0.0,0.0,0.0,0.0,0.0,0.0
21764192000,21764112000,0.00024085215,0.0,0.0007963222,0.0001053229,0.0,0.0,0.0,0.0,0.0,0.0,0.0,0.0,0.0,6.663208e-05,0.0,0.0,nan,0.0,0.0,0.00014911225,0.0,0.0,0.0,0.0,0.0,0.0,0.0,0.0,0.0
21764688000,21764608000,6.8908616e-05,0.0,0.00011904159,6.3603904e-05,0.0,0.0,0.0,0.0,0.0,0.0,0.0,0.0,0.0,0.00036325233,0.0,0.0,nan,0.0,0.0,0.00044716115,0.0,0.0,0.0,0.0,0.0,0.0,0.0,0.0,0.0
21765192000,21765112000,0.00031405635,0.0,0.00036704313,6.973473e-05,0.0,0.0,0.0,0.0,0.0,0.0,0.0,0.0,0.0,0.00025790432,0.0,0.0,nan,0.0,0.0,0.00019344484,0.0,0.0,0.0,0.0,0.0,0.0,0.0,0.0,0.0
21765688000,21765608000,0.00022264165,0.0,0.0006476861,0.00018096657,0.0,0.0,0.0,0.0,0.0,0.0,0.0,0.0,0.0,4.5729706e-05,0.0,0.0,nan,0.0,0.0,0.00061250175,0.0,0.0,0.0,0.0,0.0,0.0,0.0,0.0,0.0
21766192000,21766112000,0.00016409314,0.0,2.0608624e-05,0.00021831128,0.0,0.0,0.0,0.0,0.0,0.0,0.0,0.0,0.0,2.3315126e-05,0.0,0.0,nan,0.0,0.0,1.0709969e-05,0.0,0.0,0.0,0.0,0.0,0.0,0.0,0.0,0.0
21766688000,21766608000,6.857358e-06,0.0,0.0005318988,0.00016484619,0.0,0.0,0.0,0.0,0.0,0.0,0.0,0.0,0.0,5.062744e-05,0.0,0.0,nan,0.0,0.0,0.00042138447,0.0,0.0,0.0,0.0,0.0,0.0,0.0,0.0,0.0
21767184000,21767104000,0.00027228476,0.0,1.7094111e-06,4.5533423e-05,0.0,0.0,0.0,0.0,0.0,0.0,0.0,0.0,0.0,1.4587331e-06,0.0,0.0,nan,0.0,0.0,0.00012820975,0.0,0.0,0.0,0.0,0.0,0.0,0.0,0.0,0.0
21767688000,21767608000,1.2249723e-05,0.0,0.0011306318,0.00015310272,0.0,0.0,0.0,0.0,0.0,0.0,0.0,0.0,0.0,6.0237704e-05,0.0,0.0,nan,0.0,0.0,0.00044518246,0.0,0.0,0.0,0.0,0.0,0.0,0.0,0.0,0.0
21768184000,21768104000,1.2059584e-05,0.0,5.088801e-05,0.00019786984,0.0,0.0,0.0,0.0,0.0,0.0,0.0,0.0,0.0,7.3157855e-05,0.0,0.0,nan,0.0,0.0,1.6792754e-05,0.0,0.0,0.0,0.0,0.0,0.0,0.0,0.0,0.0
21768688000,21768608000,0.0001112123,0.0,0.0014046952,0.00010727832,0.0,0.0,0.0,0.0,0.0,0.0,0.0,0.0,0.0,4.941627e-05,0.0,0.0,nan,0.0,0.0,0.0006637688,0.0,0.0,0.0,0.0,0.0,0.0,0.0,0.0,0.0
21769192000,21769112000,0.00039127757,0.0,4.0261817e-05,0.00011932237,0.0,0.0,0.0,0.0,0.0,0.0,0.0,0.0,0.0,1.1703663e-05,0.0,0.0,nan,0.0,0.0,2.442246e-05,0.0,0.0,0.0,0.0,0.0,0.0,0.0,0.0,0.0
21769688000,21769608000,0.000102295475,0.0,0.0004889528,0.00020105042,0.0,0.0,0.0,0.0,0.0,0.0,0.0,0.0,0.0,9.743973e-07,0.0,0.0,nan,0.0,0.0,8.069154e-06,0.0,0.0,0.0,0.0,0.0,0.0,0.0,0.0,0.0
21770192000,21770112000,1.6807719e-06,0.0,0.00041817586,0.00028445554,0.0,0.0,0.0,0.0,0.0,0.0,0.0,0.0,0.0,6.582953e-05,0.0,0.0,nan,0.0,0.0,0.00022541666,0.0,0.0,0.0,0.0,0.0,0.0,0.0,0.0,0.0
21770688000,21770608000,0.00054586557,0.0,0.0002839215,8.903575e-05,0.0,0.0,0.0,0.0,0.0,0.0,0.0,0.0,0.0,1.2956338e-05,0.0,0.0,nan,0.0,0.0,1.9013454e-06,0.0,0.0,0.0,0.0,0.0,0.0,0.0,0.0,0.0
21771184000,21771104000,0.0002835543,0.0,5.4572342e-06,8.5961394e-05,0.0,0.0,0.0,0.0,0.0,0.0,0.0,0.0,0.0,4.2103366e-05,0.0,0.0,nan,0.0,0.0,0.00027973848,0.0,0.0,0.0,0.0,0.0,0.0,0.0,0.0,0.0
21771688000,21771608000,0.0007870938,0.0,0.00012338921,0.0001881065,0.0,0.0,0.0,0.0,0.0,0.0,0.0,0.0,0.0,9.055737e-06,0.0,0.0,nan,0.0,0.0,0.00052146736,0.0,0.0,0.0,0.0,0.0,0.0,0.0,0.0,0.0
21772192000,21772112000,0.00043623883,0.0,1.4316911e-05,0.00032812057,0.0,0.0,0.0,0.0,0.0,0.0,0.0,0.0,0.0,8.804911e-06,0.0,0.0,nan,0.0,0.0,0.00022680726,0.0,0.0,0.0,0.0,0.0,0.0,0.0,0.0,0.0
21772688000,21772608000,0.001062793,0.0,7.392746e-06,0.00023379589,0.0,0.0,0.0,0.0,0.0,0.0,0.0,0.0,0.0,2.2601334e-07,0.0,0.0,nan,0.0,0.0,3.9652473e-06,0.0,0.0,0.0,0.0,0.0,0.0,0.0,0.0,0.0
21773184000,21773104000,0.00036174487,0.0,0.0002047713,0.00032275388,0.0,0.0,0.0,0.0,0.0,0.0,0.0,0.0,0.0,4.0002847e-06,0.0,0.0,nan,0.0,0.0,0.00062324957,0.0,0.0,0.0,0.0,0.0,0.0,0.0,0.0,0.0
21773688000,21773608000,0.0007477947,0.0,2.865855e-05,0.00026477783,0.0,0.0,0.0,0.0,0.0,0.0,0.0,0.0,0.0,1.6825006e-05,0.0,0.0,nan,0.0,0.0,6.64795e-06,0.0,0.0,0.0,0.0,0.0,0.0,0.0,0.0,0.0
21774192000,21774112000,0.00010850997,0.0,1.6448565e-05,0.000448829,0.0,0.0,0.0,0.0,0.0,0.0,0.0,0.0,0.0,1.4821701e-06,0.0,0.0,nan,0.0,0.0,1.9903373e-05,0.0,0.0,0.0,0.0,0.0,0.0,0.0,0.0,0.0
21774688000,21774608000,0.0001360486,0.0,0.00012462423,0.00027690237,0.0,0.0,0.0,0.0,0.0,0.0,0.0,0.0,0.0,5.0137987e-06,0.0,0.0,nan,0.0,0.0,0.00032445378,0.0,0.0,0.0,0.0,0.0,0.0,0.0,0.0,0.0
21775192000,21775112000,0.0016984883,0.0,0.00027801102,0.00032758166,0.0,0.0,0.0,0.0,0.0,0.0,0.0,0.0,0.0,1.1827224e-05,0.0,0.0,nan,0.0,0.0,0.00025580713,0.0,0.0,0.0,0.0,0.0,0.0,0.0,0.0,0.0
21775688000,21775608000,0.0003245438,0.0,9.545704e-05,0.0002679093,0.0,0.0,0.0,0.0,0.0,0.0,0.0,0.0,0.0,1.5045433e-07,0.0,0.0,nan,0.0,0.0,6.6046305e-06,0.0,0.0,0.0,0.0,0.0,0.0,0.0,0.0,0.0
21776184000,21776104000,0.0005744004,0.0,0.0005594629,0.00034770602,0.0,0.0,0.0,0.0,0.0,0.0,0.0,0.0,0.0,6.151539e-05,0.0,0.0,nan,0.0,0.0,9.560584e-07,0.0,0.0,0.0,0.0,0.0,0.0,0.0,0.0,0.0
21776688000,21776608000,0.0002074685,0.0,0.0006973102,0.0001485347,0.0,0.0,0.0,0.0,0.0,0.0,0.0,0.0,0.0,9.045077e-06,0.0,0.0,nan,0.0,0.0,0.00020216424,0.0,0.0,0.0,0.0,0.0,0.0,0.0,0.0,0.0
21777192000,21777112000,0.00029888534,0.0,9.476094e-05,0.00029383405,0.0,0.0,0.0,0.0,0.0,0.0,0.0,0.0,0.0,1.460696e-06,0.0,0.0,nan,0.0,0.0,7.576242e-05,0.0,0.0,0.0,0.0,0.0,0.0,0.0,0.0,0.0
21777688000,21777608000,0.00090976234,0.0,0.0014517438,0.0006421394,0.0,0.0,0.0,0.0,0.0,0.0,0.0,0.0,0.0,5.4400527e-05,0.0,0.0,nan,0.0,0.0,3.1023756e-05,0.0,0.0,0.0,0.0,0.0,0.0,0.0,0.0,0.0
21778192000,21778112000,0.0009047491,0.0,0.00055409956,0.0005800469,0.0,0.0,0.0,0.0,0.0,0.0,0.0,0.0,0.0,5.3280525e-07,0.0,0.0,nan,0.0,0.0,2.41385e-05,0.0,0.0,0.0,0.0,0.0,0.0,0.0,0.0,0.0
21778688000,21778608000,0.00073092745,0.0,4.876627e-05,0.00011475431,0.0,0.0,0.0,0.0,0.0,0.0,0.0,0.0,0.0,5.5140354e-06,0.0,0.0,nan,0.0,0.0,0.0005323577,0.0,0.0,0.0,0.0,0.0,0.0,0.0,0.0,0.0
21779192000,21779112000,0.0023155801,0.0,0.00040526388,0.0005833631,0.0,0.0,0.0,0.0,0.0,0.0,0.0,0.0,0.0,2.2325527e-05,0.0,0.0,nan,0.0,0.0,6.473886e-07,0.0,0.0,0.0,0.0,0.0,0.0,0.0,0.0,0.0
21779688000,21779608000,4.2108277e-05,0.0,0.0016530276,0.0001470538,0.0,0.0,0.0,0.0,0.0,0.0,0.0,0.0,0.0,5.4425175e-07,0.0,0.0,nan,0.0,0.0,0.00010152533,0.0,0.0,0.0,0.0,0.0,0.0,0.0,0.0,0.0
21780184000,21780104000,0.00068249396,0.0,0.0011937121,0.00049085944,0.0,0.0,0.0,0.0,0.0,0.0,0.0,0.0,0.0,2.3885377e-06,0.0,0.0,nan,0.0,0.0,7.7863726e-05,0.0,0.0,0.0,0.0,0.0,0.0,0.0,0.0,0.0
21780688000,21780608000,0.00027352938,0.0,0.00075597817,0.00017736001,0.0,0.0,0.0,0.0,0.0,0.0,0.0,0.0,0.0,2.257267e-06,0.0,0.0,nan,0.0,0.0,0.0022190502,0.0,0.0,0.0,0.0,0.0,0.0,0.0,0.0,0.0
21781184000,21781104000,0.0013960616,0.0,0.00089879305,0.00019160494,0.0,0.0,0.0,0.0,0.0,0.0,0.0,0.0,0.0,9.093479e-06,0.0,0.0,nan,0.0,0.0,0.00018815475,0.0,0.0,0.0,0.0,0.0,0.0,0.0,0.0,0.0
21781688000,21781608000,0.00049255166,0.0,0.00013648137,0.0003193297,0.0,0.0,0.0,0.0,0.0,0.0,0.0,0.0,0.0,4.765307e-06,0.0,0.0,nan,0.0,0.0,2.1211115e-05,0.0,0.0,0.0,0.0,0.0,0.0,0.0,0.0,0.0
21782192000,21782112000,0.00071130425,0.0,1.6286594e-07,0.00015182103,0.0,0.0,0.0,0.0,0.0,0.0,0.0,0.0,0.0,5.594421e-05,0.0,0.0,nan,0.0,0.0,0.000103991944,0.0,0.0,0.0,0.0,0.0,0.0,0.0,0.0,0.0
21782688000,21782608000,0.00092308334,0.0,0.00021460335,0.00030300516,0.0,0.0,0.0,0.0,0.0,0.0,0.0,0.0,0.0,2.8153987e-05,0.0,0.0,nan,0.0,0.0,0.0006397201,0.0,0.0,0.0,0.0,0.0,0.0,0.0,0.0,0.0
21783184000,21783104000,0.00031528785,0.0,0.00019639601,0.00022940192,0.0,0.0,0.0,0.0,0.0,0.0,0.0,0.0,0.0,3.6956095e-05,0.0,0.0,nan,0.0,0.0,0.00025006858,0.0,0.0,0.0,0.0,0.0,0.0,0.0,0.0,0.0
21783688000,21783608000,0.0001441729,0.0,9.798123e-07,0.00040560233,0.0,0.0,0.0,0.0,0.0,0.0,0.0,0.0,0.0,1.9883397e-07,0.0,0.0,nan,0.0,0.0,2.008109e-06,0.0,0.0,0.0,0.0,0.0,0.0,0.0,0.0,0.0
21784192000,21784112000,0.00031147123,0.0,0.0003854487,0.000119266246,0.0,0.0,0.0,0.0,0.0,0.0,0.0,0.0,0.0,2.8416753e-05,0.0,0.0,nan,0.0,0.0,1.9096053e-05,0.0,0.0,0.0,0.0,0.0,0.0,0.0,0.0,0.0
21784688000,21784608000,0.00012521027,0.0,2.4370533e-05,0.00017852258,0.0,0.0,0.0,0.0,0.0,0.0,0.0,0.0,0.0,1.1410963e-05,0.0,0.0,nan,0.0,0.0,3.490716e-05,0.0,0.0,0.0,0.0,0.0,0.0,0.0,0.0,0.0
21785192000,21785112000,0.00082793547,0.0,0.00018848301,0.00021751011,0.0,0.0,0.0,0.0,0.0,0.0,0.0,0.0,0.0,3.242965e-06,0.0,0.0,nan,0.0,0.0,0.00010926607,0.0,0.0,0.0,0.0,0.0,0.0,0.0,0.0,0.0
21785688000,21785608000,4.8122805e-05,0.0,0.0017834153,0.00038591697,0.0,0.0,0.0,0.0,0.0,0.0,0.0,0.0,0.0,9.658328e-07,0.0,0.0,nan,0.0,0.0,0.0004296919,0.0,0.0,0.0,0.0,0.0,0.0,0.0,0.0,0.0
21786192000,21786112000,0.00030814926,0.0,0.0006505179,0.00036209516,0.0,0.0,0.0,0.0,0.0,0.0,0.0,0.0,0.0,3.3053705e-06,0.0,0.0,nan,0.0,0.0,0.00049566024,0.0,0.0,0.0,0.0,0.0,0.0,0.0,0.0,0.0
21786688000,21786608000,6.9592956e-05,0.0,0.0005339034,0.00014204324,0.0,0.0,0.0,0.0,0.0,0.0,0.0,0.0,0.0,6.040557e-05,0.0,0.0,nan,0.0,0.0,4.119982e-05,0.0,0.0,0.0,0.0,0.0,0.0,0.0,0.0,0.0
21787192000,21787112000,0.00013133383,0.0,0.0009899243,0.00013224366,0.0,0.0,0.0,0.0,0.0,0.0,0.0,0.0,0.0,5.9367358e-06,0.0,0.0,nan,0.0,0.0,3.4026696e-06,0.0,0.0,0.0,0.0,0.0,0.0,0.0,0.0,0.0
21787688000,21787608000,0.0006126959,0.0,0.0014384448,0.0004121816,0.0,0.0,0.0,0.0,0.0,0.0,0.0,0.0,0.0,3.9558618e-05,0.0,0.0,nan,0.0,0.0,0.00022011655,0.0,0.0,0.0,0.0,0.0,0.0,0.0,0.0,0.0
21788184000,21788104000,0.00038594168,0.0,0.00057001895,0.00035562602,0.0,0.0,0.0,0.0,0.0,0.0,0.0,0.0,0.0,1.3950658e-05,0.0,0.0,nan,0.0,0.0,0.0013298362,0.0,0.0,0.0,0.0,0.0,0.0,0.0,0.0,0.0
21788688000,21788608000,0.00019689288,0.0,0.0007563204,0.0002276983,0.0,0.0,0.0,0.0,0.0,0.0,0.0,0.0,0.0,1.00412066e-07,0.0,0.0,nan,0.0,0.0,7.373541e-05,0.0,0.0,0.0,0.0,0.0,0.0,0.0,0.0,0.0
21789184000,21789104000,5.1655334e-05,0.0,0.0013343222,0.00012634374,0.0,0.0,0.0,0.0,0.0,0.0,0.0,0.0,0.0,3.1145817e-05,0.0,0.0,nan,0.0,0.0,8.62059e-06,0.0,0.0,0.0,0.0,0.0,0.0,0.0,0.0,0.0
21789688000,21789608000,0.0002784778,0.0,0.002767339,0.0001292736,0.0,0.0,0.0,0.0,0.0,0.0,0.0,0.0,0.0,1.8153015e-06,0.0,0.0,nan,0.0,0.0,0.00016091103,0.0,0.0,0.0,0.0,0.0,0.0,0.0,0.0,0.0
21790192000,21790112000,0.00022124386,0.0,0.00060595653,0.0002442868,0.0,0.0,0.0,0.0,0.0,0.0,0.0,0.0,0.0,4.2474738e-05,0.0,0.0,nan,0.0,0.0,0.00018205488,0.0,0.0,0.0,0.0,0.0,0.0,0.0,0.0,0.0
21790688000,21790608000,2.3064484e-05,0.0,0.00039015646,0.00022099022,0.0,0.0,0.0,0.0,0.0,0.0,0.0,0.0,0.0,1.6873517e-05,0.0,0.0,nan,0.0,0.0,0.00022469062,0.0,0.0,0.0,0.0,0.0,0.0,0.0,0.0,0.0
21791184000,21791104000,0.00022007874,0.0,0.00091590633,0.00022859056,0.0,0.0,0.0,0.0,0.0,0.0,0.0,0.0,0.0,3.5965404e-05,0.0,0.0,nan,0.0,0.0,0.00022935987,0.0,0.0,0.0,0.0,0.0,0.0,0.0,0.0,0.0
21791688000,21791608000,5.3473676e-05,0.0,0.002155889,0.0005485428,0.0,0.0,0.0,0.0,0.0,0.0,0.0,0.0,0.0,6.924034e-05,0.0,0.0,nan,0.0,0.0,4.856775e-05,0.0,0.0,0.0,0.0,0.0,0.0,0.0,0.0,0.0
21792192000,21792112000,5.125155e-07,0.0,3.2864384e-05,0.00019855774,0.0,0.0,0.0,0.0,0.0,0.0,0.0,0.0,0.0,0.00019192083,0.0,0.0,nan,0.0,0.0,0.0016276754,0.0,0.0,0.0,0.0,0.0,0.0,0.0,0.0,0.0
21792688000,21792608000,0.00021930854,0.0,0.0013566397,0.0002214408,0.0,0.0,0.0,0.0,0.0,0.0,0.0,0.0,0.0,7.590403e-06,0.0,0.0,nan,0.0,0.0,3.6398947e-07,0.0,0.0,0.0,0.0,0.0,0.0,0.0,0.0,0.0
21793192000,21793112000,0.00041627427,0.0,0.00034407532,0.000180873,0.0,0.0,0.0,0.0,0.0,0.0,0.0,0.0,0.0,5.7709665e-05,0.0,0.0,nan,0.0,0.0,0.0036007902,0.0,0.0,0.0,0.0,0.0,0.0,0.0,0.0,0.0
21793688000,21793608000,1.9960617e-05,0.0,0.0014190051,3.3361e-05,0.0,0.0,0.0,0.0,0.0,0.0,0.0,0.0,0.0,9.642545e-06,0.0,0.0,nan,0.0,0.0,0.0002938741,0.0,0.0,0.0,0.0,0.0,0.0,0.0,0.0,0.0
21794184000,21794104000,0.00013795182,0.0,0.0014180784,0.000140631,0.0,0.0,0.0,0.0,0.0,0.0,0.0,0.0,0.0,5.0994717e-05,0.0,0.0,nan,0.0,0.0,5.3776443e-05,0.0,0.0,0.0,0.0,0.0,0.0,0.0,0.0,0.0
21794688000,21794608000,0.00023205017,0.0,0.00033745117,8.774716e-05,0.0,0.0,0.0,0.0,0.0,0.0,0.0,0.0,0.0,6.7572255e-06,0.0,0.0,nan,0.0,0.0,0.0004052889,0.0,0.0,0.0,0.0,0.0,0.0,0.0,0.0,0.0
21795192000,21795112000,0.00033076663,0.0,0.00089982175,0.000110299596,0.0,0.0,0.0,0.0,0.0,0.0,0.0,0.0,0.0,4.5172805e-05,0.0,0.0,nan,0.0,0.0,0.0005038165,0.0,0.0,0.0,0.0,0.0,0.0,0.0,0.0,0.0
21795688000,21795608000,0.00045086924,0.0,0.0010414217,0.0003605458,0.0,0.0,0.0,0.0,0.0,0.0,0.0,0.0,0.0,5.2548654e-05,0.0,0.0,nan,0.0,0.0,4.043963e-05,0.0,0.0,0.0,0.0,0.0,0.0,0.0,0.0,0.0
21796184000,21796104000,0.0007787464,0.0,2.8902221e-05,0.00023907257,0.0,0.0,0.0,0.0,0.0,0.0,0.0,0.0,0.0,2.6256568e-05,0.0,0.0,nan,0.0,0.0,0.00025739972,0.0,0.0,0.0,0.0,0.0,0.0,0.0,0.0,0.0
21796688000,21796608000,0.00057091046,0.0,9.726324e-05,8.4219595e-05,0.0,0.0,0.0,0.0,0.0,0.0,0.0,0.0,0.0,1.8811169e-06,0.0,0.0,nan,0.0,0.0,0.0003321685,0.0,0.0,0.0,0.0,0.0,0.0,0.0,0.0,0.0
21797192000,21797112000,0.001198808,0.0,0.0001790173,0.00014063995,0.0,0.0,0.0,0.0,0.0,0.0,0.0,0.0,0.0,4.2350828e-05,0.0,0.0,nan,0.0,0.0,0.00023065806,0.0,0.0,0.0,0.0,0.0,0.0,0.0,0.0,0.0
21797688000,21797608000,0.0012284182,0.0,4.910507e-05,0.00022315877,0.0,0.0,0.0,0.0,0.0,0.0,0.0,0.0,0.0,2.2915046e-05,0.0,0.0,nan,0.0,0.0,6.143742e-06,0.0,0.0,0.0,0.0,0.0,0.0,0.0,0.0,0.0
21798184000,21798104000,0.0010981451,0.0,0.0002160998,0.00044525487,0.0,0.0,0.0,0.0,0.0,0.0,0.0,0.0,0.0,9.5275114e-05,0.0,0.0,nan,0.0,0.0,2.356165e-05,0.0,0.0,0.0,0.0,0.0,0.0,0.0,0.0,0.0
21798688000,21798608000,0.00047944256,0.0,0.00016929685,0.00021350717,0.0,0.0,0.0,0.0,0.0,0.0,0.0,0.0,0.0,2.1016358e-05,0.0,0.0,nan,0.0,0.0,0.00017509627,0.0,0.0,0.0,0.0,0.0,0.0,0.0,0.0,0.0
21799192000,21799112000,0.001166012,0.0,5.8010487e-06,0.00023633259,0.0,0.0,0.0,0.0,0.0,0.0,0.0,0.0,0.0,5.1987885e-05,0.0,0.0,nan,0.0,0.0,1.2372519e-05,0.0,0.0,0.0,0.0,0.0,0.0,0.0,0.0,0.0
21799688000,21799608000,0.00086170173,0.0,9.928366e-06,0.0001636172,0.0,0.0,0.0,0.0,0.0,0.0,0.0,0.0,0.0,5.303146e-05,0.0,0.0,nan,0.0,0.0,0.00035745953,0.0,0.0,0.0,0.0,0.0,0.0,0.0,0.0,0.0
21800192000,21800112000,0.002197766,0.0,1.7093753e-06,0.00015157422,0.0,0.0,0.0,0.0,0.0,0.0,0.0,0.0,0.0,1.8714072e-05,0.0,0.0,nan,0.0,0.0,2.9019706e-05,0.0,0.0,0.0,0.0,0.0,0.0,0.0,0.0,0.0
21800688000,21800608000,0.00063985906,0.0,3.9557952e-05,0.0004065675,0.0,0.0,0.0,0.0,0.0,0.0,0.0,0.0,0.0,8.744912e-05,0.0,0.0,nan,0.0,0.0,3.6395228e-05,0.0,0.0,0.0,0.0,0.0,0.0,0.0,0.0,0.0
21801184000,21801104000,0.0019877597,0.0,0.00010621788,0.00056814216,0.0,0.0,0.0,0.0,0.0,0.0,0.0,0.0,0.0,1.2676093e-05,0.0,0.0,nan,0.0,0.0,2.1911596e-06,0.0,0.0,0.0,0.0,0.0,0.0,0.0,0.0,0.0
21801688000,21801608000,0.0025951688,0.0,0.00021462057,0.00060768286,0.0,0.0,0.0,0.0,0.0,0.0,0.0,0.0,0.0,2.6778437e-06,0.0,0.0,nan,0.0,0.0,8.92893e-05,0.0,0.0,0.0,0.0,0.0,0.0,0.0,0.0,0.0
21802192000,21802112000,0.0018662274,0.0,2.8792212e-05,0.00031382844,0.0,0.0,0.0,0.0,0.0,0.0,0.0,0.0,0.0,1.0284631e-05,0.0,0.0,nan,0.0,0.0,0.00015193573,0.0,0.0,0.0,0.0,0.0,0.0,0.0,0.0,0.0
21802688000,21802608000,0.0014787038,0.0,0.00024060013,0.0003226426,0.0,0.0,0.0,0.0,0.0,0.0,0.0,0.0,0.0,2.7233878e-06,0.0,0.0,nan,0.0,0.0,0.00014039327,0.0,0.0,0.0,0.0,0.0,0.0,0.0,0.0,0.0
21803192000,21803112000,0.0028143018,0.0,8.65087e-05,0.00064886763,0.0,0.0,0.0,0.0,0.0,0.0,0.0,0.0,0.0,2.5933061e-06,0.0,0.0,nan,0.0,0.0,6.472949e-05,0.0,0.0,0.0,0.0,0.0,0.0,0.0,0.0,0.0
21803688000,21803608000,0.0009944995,0.0,0.0005267327,0.00047341306,0.0,0.0,0.0,0.0,0.0,0.0,0.0,0.0,0.0,1.5319303e-07,0.0,0.0,nan,0.0,0.0,4.241967e-05,0.0,0.0,0.0,0.0,0.0,0.0,0.0,0.0,0.0
21804192000,21804112000,0.0016643888,0.0,3.9702343e-05,0.00044552164,0.0,0.0,0.0,0.0,0.0,0.0,0.0,0.0,0.0,2.8839886e-05,0.0,0.0,nan,0.0,0.0,4.9048347e-05,0.0,0.0,0.0,0.0,0.0,0.0,0.0,0.0,0.0
21804688000,21804608000,0.00088448613,0.0,0.00039443024,0.0002856495,0.0,0.0,0.0,0.0,0.0,0.0,0.0,0.0,0.0,1.1677798e-06,0.0,0.0,nan,0.0,0.0,0.00060742727,0.0,0.0,0.0,0.0,0.0,0.0,0.0,0.0,0.0
21805192000,21805112000,0.00096597837,0.0,0.0005388999,0.00046541958,0.0,0.0,0.0,0.0,0.0,0.0,0.0,0.0,0.0,2.0271784e-05,0.0,0.0,nan,0.0,0.0,0.00040121382,0.0,0.0,0.0,0.0,0.0,0.0,0.0,0.0,0.0
21805688000,21805608000,0.0012443443,0.0,1.1280586e-05,0.000395766,0.0,0.0,0.0,0.0,0.0,0.0,0.0,0.0,0.0,2.7062956e-06,0.0,0.0,nan,0.0,0.0,0.0002143645,0.0,0.0,0.0,0.0,0.0,0.0,0.0,0.0,0.0
21806192000,21806112000,0.000501331,0.0,0.00026358053,0.000365027,0.0,0.0,0.0,0.0,0.0,0.0,0.0,0.0,0.0,8.767553e-06,0.0,0.0,nan,0.0,0.0,4.506276e-05,0.0,0.0,0.0,0.0,0.0,0.0,0.0,0.0,0.0
21806688000,21806608000,0.0052932706,0.0,0.015152198,0.00050840736,0.0,0.0,0.0,0.0,0.0,0.0,0.0,0.0,0.0,3.226992e-05,0.0,0.0,nan,0.0,0.0,0.0011799852,0.0,0.0,0.0,0.0,0.0,0.0,0.0,0.0,0.0
21807192000,21807112000,0.028699484,0.0,0.002673755,0.0008571386,0.0,0.0,0.0,0.0,0.0,0.0,0.0,0.0,0.0,5.1693907e-05,0.0,0.0,nan,0.0,0.0,0.0,0.0016201086,0.0,0.0,0.0,0.0,0.0,0.0,0.0,0.0
21807688000,21807608000,0.004466158,0.0,3.053634e-06,0.000457903,0.0,0.0,0.0,0.0,0.0,0.0,0.0,0.0,0.0,2.0921692e-05,0.0,0.0,nan,0.0,0.0,0.0,0.00048769204,0.0,0.0,0.0,0.0,0.0,0.0,0.0,0.0
21808192000,21808112000,0.0016250019,0.0,0.0010472139,0.00024236183,0.0,0.0,0.0,0.0,0.0,0.0,0.0,0.0,0.0,2.7484288e-05,0.0,0.0,nan,0.0,0.0,0.0,0.0010479183,0.0,0.0,0.0,0.0,0.0,0.0,0.0,0.0
21808688000,21808608000,0.0013903016,0.0,3.488272e-05,0.00016208972,0.0,0.0,0.0,0.0,0.0,0.0,0.0,0.0,0.0,0.0,0.0,0.0,nan,0.0,0.0,0.0,2.5661493e-05,0.0,0.0,0.0,0.0,0.0,0.0,0.0,0.0
21809184000,21809104000,0.0005868983,0.0,5.653788e-06,0.00012074623,0.0,0.0,0.0,0.0,0.0,0.0,0.0,0.0,0.0,0.0,0.0,0.0,nan,0.0,0.0,0.0,0.0015458149,0.0,0.0,0.0,0.0,0.0,0.0,0.0,0.0
21809688000,21809608000,0.0030059463,0.0,0.00014170476,3.9866718e-05,0.0,0.0,0.0,0.0,0.0,0.0,0.0,0.0,0.0,0.0,0.0,0.0,nan,0.0,0.0,0.0,3.918748e-05,0.0,0.0,0.0,0.0,0.0,0.0,0.0,0.0
21810192000,21810112000,0.0023562275,0.0,0.00024910437,5.4572305e-05,0.0,0.0,0.0,0.0,0.0,0.0,0.0,0.0,0.0,0.0,0.0,0.0,nan,0.0,0.0,0.0,0.0005796895,0.0,0.0,0.0,0.0,0.0,0.0,0.0,0.0
21810688000,21810608000,0.0033752543,0.0,0.0006836432,7.1916884e-06,0.0,0.0,0.0,0.0,0.0,0.0,0.0,0.0,0.0,0.0,0.0,0.0,nan,0.0,0.0,0.0,0.00033168876,0.0,0.0,0.0,0.0,0.0,0.0,0.0,0.0
21811192000,21811112000,0.0031080255,0.0,0.0009334896,1.307863e-05,0.0,0.0,0.0,0.0,0.0,0.0,0.0,0.0,0.0,0.0,0.0,0.0,nan,0.0,0.0,0.0,0.0005032727,0.0,0.0,0.0,0.0,0.0,0.0,0.0,0.0
21811688000,21811608000,0.0019989172,0.0,0.0034092697,9.567351e-06,0.0,0.0,0.0,0.0,0.0,0.0,0.0,0.0,0.0,0.0,0.0,0.0,nan,0.0,0.0,0.0,0.0020595624,0.0,0.0,0.0,0.0,0.0,0.0,0.0,0.0
21812184000,21812104000,0.0021268232,0.0,0.0020990514,2.234437e-05,0.0,0.0,0.0,0.0,0.0,0.0,0.0,0.0,0.0,0.0,0.0,0.0,nan,0.0,0.0,0.0,0.00079250656,0.0,0.0,0.0,0.0,0.0,0.0,0.0,0.0
21812688000,21812608000,0.0022813622,0.0,0.005611947,4.11907e-05,0.0,0.0,0.0,0.0,0.0,0.0,0.0,0.0,0.0,0.0,0.0,0.0,nan,0.0,0.0,0.00022410155,0.0,0.0,0.0,0.0,0.0,0.0,0.0,0.0,0.0
21813192000,21813112000,0.0014068682,0.0,0.005190898,2.3550483e-05,0.0,0.0,0.0,0.0,0.0,0.0,0.0,0.0,0.0,0.0,0.0,0.0,nan,0.0,0.0,0.00012509277,0.0,0.0,0.0,0.0,0.0,0.0,0.0,0.0,0.0
21813688000,21813608000,0.0013716592,0.0,0.004845232,2.9950717e-05,0.0,0.0,0.0,0.0,0.0,0.0,0.0,0.0,0.0,0.0,0.0,0.0,nan,0.0,0.0,7.7190025e-06,0.0,0.0,0.0,0.0,0.0,0.0,0.0,0.0,0.0
21814192000,21814112000,0.0007392225,0.0,0.001815625,1.8984723e-05,0.0,0.0,0.0,0.0,0.0,0.0,0.0,0.0,0.0,0.0,0.0,0.0,nan,0.0,0.0,0.00039014278,0.0,0.0,0.0,0.0,0.0,0.0,0.0,0.0,0.0
21814688000,21814608000,0.00025049844,0.0,0.0018000259,1.6407132e-05,0.0,0.0,0.0,0.0,0.0,0.0,0.0,0.0,0.0,0.0,0.0,0.0,nan,0.0,0.0,8.1556216e-05,0.0,0.0,0.0,0.0,0.0,0.0,0.0,0.0,0.0
21815184000,21815104000,0.00010134779,0.0,0.00250976,1.6072507e-05,0.0,0.0,0.0,0.0,0.0,0.0,0.0,0.0,0.0,9.912839e-06,0.0,0.0,nan,0.0,0.0,1.9687166e-06,0.0,0.0,0.0,0.0,0.0,0.0,0.0,0.0,0.0
21815688000,21815608000,9.942532e-05,0.0,0.0032898283,9.49734e-06,0.0,0.0,0.0,0.0,0.0,0.0,0.0,0.0,0.0,8.394843e-07,0.0,0.0,nan,0.0,0.0,0.00025713022,0.0,0.0,0.0,0.0,0.0,0.0,0.0,0.0,0.0
21816192000,21816112000,0.00018357394,0.0,0.00070122577,6.706215e-06,0.0,0.0,0.0,0.0,0.0,0.0,0.0,0.0,0.0,8.103758e-06,0.0,0.0,nan,0.0,0.0,0.00040549517,0.0,0.0,0.0,0.0,0.0,0.0,0.0,0.0,0.0
21816688000,21816608000,0.00031016077,0.0,0.0006893284,1.6772844e-06,0.0,0.0,0.0,0.0,0.0,0.0,0.0,0.0,0.0,1.259245e-06,0.0,0.0,nan,0.0,0.0,3.031528e-05,0.0,0.0,0.0,0.0,0.0,0.0,0.0,0.0,0.0
21817192000,21817112000,0.000104000486,0.0,0.0017389944,8.406017e-06,0.0,0.0,0.0,0.0,0.0,0.0,0.0,0.0,0.0,3.0591362e-08,0.0,0.0,nan,0.0,0.0,1.2518279e-05,0.0,0.0,0.0,0.0,0.0,0.0,0.0,0.0,0.0
21817688000,21817608000,0.00035463404,0.0,4.293113e-06,8.813672e-06,0.0,0.0,0.0,0.0,0.0,0.0,0.0,0.0,0.0,2.4579234e-05,0.0,0.0,nan,0.0,0.0,0.000252843,0.0,0.0,0.0,0.0,0.0,0.0,0.0,0.0,0.0
21818184000,21818104000,0.00013683342,0.0,8.0562524e-05,8.328895e-06,0.0,0.0,0.0,0.0,0.0,0.0,0.0,0.0,0.0,2.492187e-05,0.0,0.0,nan,0.0,0.0,1.1928949e-05,0.0,0.0,0.0,0.0,0.0,0.0,0.0,0.0,0.0
21818688000,21818608000,0.00086054066,0.0,0.00039847527,5.7217585e-06,0.0,0.0,0.0,0.0,0.0,0.0,0.0,0.0,0.0,7.2952316e-05,0.0,0.0,nan,0.0,0.0,0.00074189284,0.0,0.0,0.0,0.0,0.0,0.0,0.0,0.0,0.0
21819192000,21819112000,0.00018705091,0.0,0.00011875094,3.8924577e-06,0.0,0.0,0.0,0.0,0.0,0.0,0.0,0.0,0.0,0.0,0.0,0.0,nan,0.0,0.0,0.00010285384,0.0,0.0,0.0,0.0,0.0,0.0,0.0,0.0,0.0
21819688000,21819608000,0.0006671005,0.0,0.0002501209,4.722845e-06,0.0,0.0,0.0,0.0,0.0,0.0,0.0,0.0,0.0,7.662975e-05,0.0,0.0,nan,0.0,0.0,0.0001050621,0.0,0.0,0.0,0.0,0.0,0.0,0.0,0.0,0.0
21820192000,21820112000,0.00063518476,0.0,0.0005762847,9.107819e-06,0.0,0.0,0.0,0.0,0.0,0.0,0.0,0.0,0.0,1.6343534e-05,0.0,0.0,nan,0.0,0.0,3.5109562e-05,0.0,0.0,0.0,0.0,0.0,0.0,0.0,0.0,0.0
21820688000,21820608000,0.0009243141,0.0,0.0006253663,1.1279312e-05,0.0,0.0,0.0,0.0,0.0,0.0,0.0,0.0,0.0,0.0,0.0,0.0,nan,0.0,0.0,6.441086e-05,0.0,0.0,0.0,0.0,0.0,0.0,0.0,0.0,0.0
21821184000,21821104000,0.00014328121,0.0,1.9748977e-06,1.3325094e-05,0.0,0.0,0.0,0.0,0.0,0.0,0.0,0.0,0.0,0.0,0.0,0.0,nan,0.0,0.0,5.062617e-05,0.0,0.0,0.0,0.0,0.0,0.0,0.0,0.0,0.0
21821688000,21821608000,0.0008516598,0.0,0.00053046114,1.977971e-05,0.0,0.0,0.0,0.0,0.0,0.0,0.0,0.0,0.0,3.6498164e-05,0.0,0.0,nan,0.0,0.0,0.00063595356,0.0,0.0,0.0,0.0,0.0,0.0,0.0,0.0,0.0
21822184000,21822104000,0.00060210127,0.0,7.741123e-06,1.27988005e-05,0.0,0.0,0.0,0.0,0.0,0.0,0.0,0.0,0.0,2.6095067e-06,0.0,0.0,nan,0.0,0.0,0.00071885006,0.0,0.0,0.0,0.0,0.0,0.0,0.0,0.0,0.0
21822688000,21822608000,0.0012371609,0.0,7.003635e-05,3.298838e-05,0.0,0.0,0.0,0.0,0.0,0.0,0.0,0.0,0.0,1.347421e-05,0.0,0.0,nan,0.0,0.0,0.00028991833,0.0,0.0,0.0,0.0,0.0,0.0,0.0,0.0,0.0
21823192000,21823112000,0.00042770588,0.0,0.00017097766,1.9241437e-05,0.0,0.0,0.0,0.0,0.0,0.0,0.0,0.0,0.0,1.7382263e-05,0.0,0.0,nan,0.0,0.0,4.352238e-05,0.0,0.0,0.0,0.0,0.0,0.0,0.0,0.0,0.0
21823688000,21823608000,0.00046746642,0.0,0.00010573397,1.5501728e-05,0.0,0.0,0.0,0.0,0.0,0.0,0.0,0.0,0.0,1.1789033e-06,0.0,0.0,nan,0.0,0.0,3.4305795e-05,0.0,0.0,0.0,0.0,0.0,0.0,0.0,0.0,0.0
21824192000,21824112000,0.00022808496,0.0,9.373649e-05,2.423304e-05,0.0,0.0,0.0,0.0,0.0,0.0,0.0,0.0,0.0,1.0570772e-05,0.0,0.0,nan,0.0,0.0,0.00092775753,0.0,0.0,0.0,0.0,0.0,0.0,0.0,0.0,0.0
21824688000,21824608000,0.00011994166,0.0,3.2669543e-06,1.707732e-07,0.0,0.0,0.0,0.0,0.0,0.0,0.0,0.0,0.0,7.073941e-06,0.0,0.0,nan,0.0,0.0,8.672844e-05,0.0,0.0,0.0,0.0,0.0,0.0,0.0,0.0,0.0
21825192000,21825112000,0.00011076735,0.0,0.00020858503,1.451442e-06,0.0,0.0,0.0,0.0,0.0,0.0,0.0,0.0,0.0,2.3027545e-05,0.0,0.0,nan,0.0,0.0,8.549705e-05,0.0,0.0,0.0,0.0,0.0,0.0,0.0,0.0,0.0
21825688000,21825608000,3.5292167e-05,0.0,1.883424e-06,7.0957294e-06,0.0,0.0,0.0,0.0,0.0,0.0,0.0,0.0,0.0,0.0,0.0,0.0,nan,0.0,0.0,0.0002865725,0.0,0.0,0.0,0.0,0.0,0.0,0.0,0.0,0.0
21826184000,21826104000,0.00025779827,0.0,0.00026898948,6.5369013e-06,0.0,0.0,0.0,0.0,0.0,0.0,0.0,0.0,0.0,0.0,0.0,0.0,nan,0.0,0.0,0.0013447675,0.0,0.0,0.0,0.0,0.0,0.0,0.0,0.0,0.0
21826688000,21826608000,0.00067830225,0.0,0.00010967713,1.3018511e-05,0.0,0.0,0.0,0.0,0.0,0.0,0.0,0.0,0.0,0.0,0.0,0.0,nan,0.0,0.0,1.829083e-05,0.0,0.0,0.0,0.0,0.0,0.0,0.0,0.0,0.0
21827184000,21827104000,0.00030166024,0.0,0.00043062025,5.882663e-06,0.0,0.0,0.0,0.0,0.0,0.0,0.0,0.0,0.0,9.167275e-07,0.0,0.0,nan,0.0,0.0,4.4011398e-05,0.0,0.0,0.0,0.0,0.0,0.0,0.0,0.0,0.0
21827688000,21827608000,0.0007326729,0.0,6.332114e-05,1.2640035e-05,0.0,0.0,0.0,0.0,0.0,0.0,0.0,0.0,0.0,0.0,0.0,0.0,nan,0.0,0.0,0.000126233,0.0,0.0,0.0,0.0,0.0,0.0,0.0,0.0,0.0
21828184000,21828104000,0.0010115564,0.0,4.2013715e-05,1.6991644e-05,0.0,0.0,0.0,0.0,0.0,0.0,0.0,0.0,0.0,7.0165434e-08,0.0,0.0,nan,0.0,0.0,1.0983146e-05,0.0,0.0,0.0,0.0,0.0,0.0,0.0,0.0,0.0
21828688000,21828608000,0.0004864092,0.0,4.6607864e-05,3.2737742e-05,0.0,0.0,0.0,0.0,0.0,0.0,0.0,0.0,0.0,0.0,0.0,0.0,nan,0.0,0.0,6.6643704e-05,0.0,0.0,0.0,0.0,0.0,0.0,0.0,0.0,0.0
21829192000,21829112000,0.000571439,0.0,0.0011867775,5.15902e-05,0.0,0.0,0.0,0.0,0.0,0.0,0.0,0.0,0.0,0.0,0.0,0.0,nan,0.0,0.0,5.868974e-05,0.0,0.0,0.0,0.0,0.0,0.0,0.0,0.0,0.0
21829688000,21829608000,0.00059596315,0.0,0.00036159545,6.7286215e-05,0.0,0.0,0.0,0.0,0.0,0.0,0.0,0.0,0.0,0.0,0.0,0.0,nan,0.0,0.0,1.2804267e-05,0.0,0.0,0.0,0.0,0.0,0.0,0.0,0.0,0.0
21830184000,21830104000,0.0008074922,0.0,6.5327156e-05,7.526698e-05,0.0,0.0,0.0,0.0,0.0,0.0,0.0,0.0,0.0,0.0,0.0,0.0,nan,0.0,0.0,0.00019836338,0.0,0.0,0.0,0.0,0.0,0.0,0.0,0.0,0.0
21830688000,21830608000,0.00012941942,0.0,0.0012365528,6.394533e-05,0.0,0.0,0.0,0.0,0.0,0.0,0.0,0.0,0.0,0.0,0.0,0.0,nan,0.0,0.0,1.6742528e-05,0.0,0.0,0.0,0.0,0.0,0.0,0.0,0.0,0.0
21831192000,21831112000,0.00014414561,0.0,5.396699e-06,4.3625074e-05,0.0,0.0,0.0,0.0,0.0,0.0,0.0,0.0,0.0,0.0,0.0,0.0,nan,0.0,0.0,3.4148405e-05,0.0,0.0,0.0,0.0,0.0,0.0,0.0,0.0,0.0
21831688000,21831608000,4.4553508e-05,0.0,1.35651335e-05,3.20283e-05,0.0,0.0,0.0,0.0,0.0,0.0,0.0,0.0,0.0,0.0,0.0,0.0,nan,0.0,0.0,0.0002787485,0.0,0.0,0.0,0.0,0.0,0.0,0.0,0.0,0.0
21832192000,21832112000,0.0006068576,0.0,1.0661001e-05,4.3334443e-05,0.0,0.0,0.0,0.0,0.0,0.0,0.0,0.0,0.0,0.0,0.0,0.0,nan,0.0,0.0,5.5933648e-05,0.0,0.0,0.0,0.0,0.0,0.0,0.0,0.0,0.0
21832688000,21832608000,0.00034886115,0.0,7.0379787e-07,2.414395e-05,0.0,0.0,0.0,0.0,0.0,0.0,0.0,0.0,0.0,0.0,0.0,0.0,nan,0.0,0.0,0.00014891995,0.0,0.0,0.0,0.0,0.0,0.0,0.0,0.0,0.0
21833192000,21833112000,0.00036220654,0.0,0.000574139,1.8415938e-05,0.0,0.0,0.0,0.0,0.0,0.0,0.0,0.0,0.0,0.0,0.0,0.0,nan,0.0,0.0,4.2507603e-05,0.0,0.0,0.0,0.0,0.0,0.0,0.0,0.0,0.0
21833688000,21833608000,0.0003752069,0.0,1.6806909e-07,7.371884e-06,0.0,0.0,0.0,0.0,0.0,0.0,0.0,0.0,0.0,0.0,0.0,0.0,nan,0.0,0.0,3.547963e-05,0.0,0.0,0.0,0.0,0.0,0.0,0.0,0.0,0.0
21834184000,21834104000,0.00045151854,0.0,0.00017456972,7.7086825e-06,0.0,0.0,0.0,0.0,0.0,0.0,0.0,0.0,0.0,0.0,0.0,0.0,nan,0.0,0.0,0.00031462696,0.0,0.0,0.0,0.0,0.0,0.0,0.0,0.0,0.0
21834688000,21834608000,0.00027086283,0.0,0.00036074044,9.977165e-06,0.0,0.0,0.0,0.0,0.0,0.0,0.0,0.0,0.0,0.0,0.0,0.0,nan,0.0,0.0,0.00012293263,0.0,0.0,0.0,0.0,0.0,0.0,0.0,0.0,0.0
21835192000,21835112000,0.00010288569,0.0,4.4078246e-05,7.2153566e-06,0.0,0.0,0.0,0.0,0.0,0.0,0.0,0.0,0.0,0.0,0.0,0.0,nan,0.0,0.0,6.6451707e-06,0.0,0.0,0.0,0.0,0.0,0.0,0.0,0.0,0.0
21835688000,21835608000,0.00011596604,0.0,0.00017536024,9.998951e-06,0.0,0.0,0.0,0.0,0.0,0.0,0.0,0.0,0.0,0.0,0.0,0.0,nan,0.0,0.0,2.4405002e-05,0.0,0.0,0.0,0.0,0.0,0.0,0.0,0.0,0.0
21836192000,21836112000,0.00013347756,0.0,1.40784e-05,9.1429865e-06,0.0,0.0,0.0,0.0,0.0,0.0,0.0,0.0,0.0,0.0,0.0,0.0,nan,0.0,0.0,4.944451e-06,0.0,0.0,0.0,0.0,0.0,0.0,0.0,0.0,0.0
21836688000,21836608000,0.00014267811,0.0,0.00011798474,7.3827955e-06,0.0,0.0,0.0,0.0,0.0,0.0,0.0,0.0,0.0,0.0,0.0,0.0,nan,0.0,0.0,1.269913e-06,0.0,0.0,0.0,0.0,0.0,0.0,0.0,0.0,0.0
21837192000,21837112000,0.00016667496,0.0,8.13842e-06,2.8563534e-05,0.0,0.0,0.0,0.0,0.0,0.0,0.0,0.0,0.0,0.0,0.0,0.0,nan,0.0,0.0,0.0009372289,0.0,0.0,0.0,0.0,0.0,0.0,0.0,0.0,0.0
21837688000,21837608000,0.000620058,0.0,0.00010407584,1.527471e-05,0.0,0.0,0.0,0.0,0.0,0.0,0.0,0.0,0.0,0.0,0.0,0.0,nan,0.0,0.0,1.2403135e-07,0.0,0.0,0.0,0.0,0.0,0.0,0.0,0.0,0.0
21838184000,21838104000,0.0001323245,0.0,0.00020116029,2.5438196e-05,0.0,0.0,0.0,0.0,0.0,0.0,0.0,0.0,0.0,0.0,0.0,0.0,nan,0.0,0.0,0.0014977659,0.0,0.0,0.0,0.0,0.0,0.0,0.0,0.0,0.0
21838688000,21838608000,0.0005692479,0.0,1.833407e-07,3.747085e-05,0.0,0.0,0.0,0.0,0.0,0.0,0.0,0.0,0.0,0.0,0.0,0.0,nan,0.0,0.0,0.00024695115,0.0,0.0,0.0,0.0,0.0,0.0,0.0,0.0,0.0
21839184000,21839104000,0.00041289252,0.0,0.0001384145,3.2200784e-05,0.0,0.0,0.0,0.0,0.0,0.0,0.0,0.0,0.0,0.0,0.0,0.0,nan,0.0,0.0,9.3207105e-05,0.0,0.0,0.0,0.0,0.0,0.0,0.0,0.0,0.0
21839688000,21839608000,0.00060720014,0.0,0.00039635447,5.3447966e-05,0.0,0.0,0.0,0.0,0.0,0.0,0.0,0.0,0.0,0.0,0.0,0.0,nan,0.0,0.0,8.547703e-05,0.0,0.0,0.0,0.0,0.0,0.0,0.0,0.0,0.0
21840192000,21840112000,0.0003381897,0.0,2.252093e-06,2.8650365e-05,0.0,0.0,0.0,0.0,0.0,0.0,0.0,0.0,0.0,0.0,0.0,0.0,nan,0.0,0.0,0.00010864795,0.0,0.0,0.0,0.0,0.0,0.0,0.0,0.0,0.0
21840688000,21840608000,0.0010837875,0.0,0.00017229564,4.1061714e-05,0.0,0.0,0.0,0.0,0.0,0.0,0.0,0.0,0.0,0.0,0.0,0.0,nan,0.0,0.0,2.758314e-05,0.0,0.0,0.0,0.0,0.0,0.0,0.0,0.0,0.0
21841192000,21841112000,0.00028720472,0.0,0.00078874576,3.6253547e-05,0.0,0.0,0.0,0.0,0.0,0.0,0.0,0.0,0.0,0.0,0.0,0.0,nan,0.0,0.0,5.9987303e-07,0.0,0.0,0.0,0.0,0.0,0.0,0.0,0.0,0.0
21841688000,21841608000,0.00013939911,0.0,4.9265967e-08,1.9041328e-05,0.0,0.0,0.0,0.0,0.0,0.0,0.0,0.0,0.0,0.0,0.0,0.0,nan,0.0,0.0,1.31307685e-08,0.0,0.0,0.0,0.0,0.0,0.0,0.0,0.0,0.0
21842184000,21842104000,0.0003179034,0.0,0.000113587244,2.9019962e-05,0.0,0.0,0.0,0.0,0.0,0.0,0.0,0.0,0.0,0.0,0.0,0.0,nan,0.0,0.0,4.832933e-05,0.0,0.0,0.0,0.0,0.0,0.0,0.0,0.0,0.0
21842688000,21842608000,0.0009306325,0.0,1.6124148e-05,2.3303053e-05,0.0,0.0,0.0,0.0,0.0,0.0,0.0,0.0,0.0,0.0,0.0,0.0,nan,0.0,0.0,0.000105499355,0.0,0.0,0.0,0.0,0.0,0.0,0.0,0.0,0.0
21843184000,21843104000,0.0019290493,0.0,0.000119057455,3.8417984e-05,0.0,0.0,0.0,0.0,0.0,0.0,0.0,0.0,0.0,0.0,0.0,0.0,nan,0.0,0.0,0.002714806,0.0,0.0,0.0,0.0,0.0,0.0,0.0,0.0,0.0
21843688000,21843608000,0.001035751,0.0,4.2403093e-07,3.3162458e-05,0.0,0.0,0.0,0.0,0.0,0.0,0.0,0.0,0.0,0.0,0.0,0.0,nan,0.0,0.0,0.00017231394,0.0,0.0,0.0,0.0,0.0,0.0,0.0,0.0,0.0
21844184000,21844104000,0.0012958286,0.0,0.00024496246,3.9702987e-05,0.0,0.0,0.0,0.0,0.0,0.0,0.0,0.0,0.0,0.0,0.0,0.0,nan,0.0,0.0,0.0009837103,0.0,0.0,0.0,0.0,0.0,0.0,0.0,0.0,0.0
21844688000,21844608000,0.0009163802,0.0,5.1313127e-05,2.8893513e-05,0.0,0.0,0.0,0.0,0.0,0.0,0.0,0.0,0.0,0.0,0.0,0.0,nan,0.0,0.0,3.267916e-06,0.0,0.0,0.0,0.0,0.0,0.0,0.0,0.0,0.0
21845184000,21845104000,0.0003127755,0.0,8.255709e-05,1.2715082e-05,0.0,0.0,0.0,0.0,0.0,0.0,0.0,0.0,0.0,0.0,0.0,0.0,nan,0.0,0.0,1.4184272e-05,0.0,0.0,0.0,0.0,0.0,0.0,0.0,0.0,0.0
21845688000,21845608000,0.00081409316,0.0,0.00014454074,1.0227639e-05,0.0,0.0,0.0,0.0,0.0,0.0,0.0,0.0,0.0,0.0,0.0,0.0,nan,0.0,0.0,8.238711e-07,0.0,0.0,0.0,0.0,0.0,0.0,0.0,0.0,0.0
21846184000,21846104000,5.9768776e-05,0.0,0.0006246615,1.9594087e-05,0.0,0.0,0.0,0.0,0.0,0.0,0.0,0.0,0.0,0.0,0.0,0.0,nan,0.0,0.0,1.0961927e-05,0.0,0.0,0.0,0.0,0.0,0.0,0.0,0.0,0.0
21846688000,21846608000,0.00032050326,0.0,7.936448e-07,1.8899038e-05,0.0,0.0,0.0,0.0,0.0,0.0,0.0,0.0,0.0,0.0,0.0,0.0,nan,0.0,0.0,0.00014088574,0.0,0.0,0.0,0.0,0.0,0.0,0.0,0.0,0.0
21847192000,21847112000,4.878569e-05,0.0,0.00039257552,6.8165955e-06,0.0,0.0,0.0,0.0,0.0,0.0,0.0,0.0,0.0,0.0,0.0,0.0,nan,0.0,0.0,4.9904484e-05,0.0,0.0,0.0,0.0,0.0,0.0,0.0,0.0,0.0
21847688000,21847608000,0.00030856783,0.0,0.0005636043,4.7378862e-06,0.0,0.0,0.0,0.0,0.0,0.0,0.0,0.0,0.0,0.0,0.0,0.0,nan,0.0,0.0,5.768653e-06,0.0,0.0,0.0,0.0,0.0,0.0,0.0,0.0,0.0
21848192000,21848112000,0.00016498833,0.0,3.6101414e-05,3.178949e-06,0.0,0.0,0.0,0.0,0.0,0.0,0.0,0.0,0.0,0.0,0.0,0.0,nan,0.0,0.0,2.8818129e-05,0.0,0.0,0.0,0.0,0.0,0.0,0.0,0.0,0.0
21848688000,21848608000,0.00013258244,0.0,5.5960834e-05,1.0168189e-05,0.0,0.0,0.0,0.0,0.0,0.0,0.0,0.0,0.0,0.0,0.0,0.0,nan,0.0,0.0,0.00013643944,0.0,0.0,0.0,0.0,0.0,0.0,0.0,0.0,0.0
21849184000,21849104000,0.00037800963,0.0,9.905149e-06,3.7223979e-06,0.0,0.0,0.0,0.0,0.0,0.0,0.0,0.0,0.0,0.0,0.0,0.0,nan,0.0,0.0,2.3548451e-05,0.0,0.0,0.0,0.0,0.0,0.0,0.0,0.0,0.0
21849688000,21849608000,0.00013635708,0.0,0.00039209943,3.5062537e-06,0.0,0.0,0.0,0.0,0.0,0.0,0.0,0.0,0.0,0.0,0.0,0.0,nan,0.0,0.0,0.00035207716,0.0,0.0,0.0,0.0,0.0,0.0,0.0,0.0,0.0
21850184000,21850104000,6.608476e-05,0.0,0.00017682154,5.9292124e-06,0.0,0.0,0.0,0.0,0.0,0.0,0.0,0.0,0.0,0.0,0.0,0.0,nan,0.0,0.0,0.00032715604,0.0,0.0,0.0,0.0,0.0,0.0,0.0,0.0,0.0
21850688000,21850608000,0.00014503991,0.0,0.0006633826,2.039831e-05,0.0,0.0,0.0,0.0,0.0,0.0,0.0,0.0,0.0,0.0,0.0,0.0,nan,0.0,0.0,1.4773866e-05,0.0,0.0,0.0,0.0,0.0,0.0,0.0,0.0,0.0
