timestamp,timestamp_sample,ref_timestamp,ref_lat,ref_lon,x,y,z,delta_xy[0],delta_xy[1],delta_z,vx,vy,vz,z_deriv,delta_vxy[0],delta_vxy[1],delta_vz,ax,ay,az,heading,delta_heading,ref_alt,dist_bottom,eph,epv,evh,evv,vxy_max,vz_max,hagl_min,hagl_max,xy_valid,z_valid,v_xy_valid,v_z_valid,xy_reset_counter,z_reset_counter,vxy_reset_counter,vz_reset_counter,heading_reset_counter,heading_good_for_control,xy_global,z_global,dist_bottom_valid,dist_bottom_sensor_bitfield
21726360000,0,0,0.0,0.0,6451297.0,-7249869.5,-229.26901,0.0,0.0,0.0,0.0,0.0,0.0,0.0,0.0,0.0,0.0,0.0,0.0,0.0,-1.0936121,0.0,0.0,0.0,0.0,0.0,0.0,0.0,inf,inf,inf,inf,1,1,1,1,0,0,0,0,0,0,1,1,0,0
21726364000,0,0,0.0,0.0,6451297.0,-7249869.5,-229.26901,0.0,0.0,0.0,0.0,0.0,0.0,0.0,0.0,0.0,0.0,0.0,0.0,0.0,-1.093612,0.0,0.0,0.0,0.0,0.0,0.0,0.0,inf,inf,inf,inf,1,1,1,1,0,0,0,0,0,0,1,1,0,0
21726380000,0,0,0.0,0.0,6451297.0,-7249869.5,-229.26901,0.0,0.0,0.0,0.0,0.0,0.0,0.0,0.0,0.0,0.0,0.0,0.0,-0.004,-1.0936117,0.0,0.0,0.0,0.0,0.0,0.0,0.0,inf,inf,inf,inf,1,1,1,1,0,0,0,0,0,0,1,1,0,0
21726400000,0,0,0.0,0.0,6451297.0,-7249869.5,-229.26901,0.0,0.0,0.0,0.0,0.0,0.0,0.0,0.0,0.0,0.0,0.0,0.0,0.0,-1.0936114,0.0,0.0,0.0,0.0,0.0,0.0,0.0,inf,inf,inf,inf,1,1,1,1,0,0,0,0,0,0,1,1,0,0
21726420000,0,0,0.0,0.0,6451297.0,-7249869.5,-229.26901,0.0,0.0,0.0,0.0,0.0,0.0,0.0,0.0,0.0,0.0,0.0,0.0,0.003,-1.0936105,0.0,0.0,0.0,0.0,0.0,0.0,0.0,inf,inf,inf,inf,1,1,1,1,0,0,0,0,0,0,1,1,0,0
21726440000,0,0,0.0,0.0,6451297.0,-7249869.5,-229.26901,0.0,0.0,0.0,0.0,0.0,0.0,0.0,0.0,0.0,0.0,0.0,0.0,0.001,-1.0936098,0.0,0.0,0.0,0.0,0.0,0.0,0.0,inf,inf,inf,inf,1,1,1,1,0,0,0,0,0,0,1,1,0,0
21726460000,0,0,0.0,0.0,6451297.0,-7249869.5,-229.26901,0.0,0.0,0.0,0.0,0.0,0.0,0.0,0.0,0.0,0.0,0.0,0.0,0.0,-1.093609,0.0,0.0,0.0,0.0,0.0,0.0,0.0,inf,inf,inf,inf,1,1,1,1,0,0,0,0,0,0,1,1,0,0
21726476000,0,0,0.0,0.0,6451297.0,-7249869.5,-229.26901,0.0,0.0,0.0,0.0,0.0,0.0,0.0,0.0,0.0,0.0,0.0,0.0,0.0,-1.0936085,0.0,0.0,0.0,0.0,0.0,0.0,0.0,inf,inf,inf,inf,1,1,1,1,0,0,0,0,0,0,1,1,0,0
21726496000,0,0,0.0,0.0,6451297.0,-7249869.5,-229.26901,0.0,0.0,0.0,0.0,0.0,0.0,0.0,0.0,0.0,0.0,0.0,0.0,0.0,-1.0936078,0.0,0.0,0.0,0.0,0.0,0.0,0.0,inf,inf,inf,inf,1,1,1,1,0,0,0,0,0,0,1,1,0,0
21726520000,0,0,0.0,0.0,6451297.0,-7249869.5,-229.26901,0.0,0.0,0.0,0.0,0.0,0.0,0.0,0.0,0.0,0.0,0.0,0.0,0.0,-1.093607,0.0,0.0,0.0,0.0,0.0,0.0,0.0,inf,inf,inf,inf,1,1,1,1,0,0,0,0,0,0,1,1,0,0
21726540000,0,0,0.0,0.0,6451297.0,-7249869.5,-229.26901,0.0,0.0,0.0,0.0,0.0,0.0,0.0,0.0,0.0,0.0,0.0,0.0,0.0,-1.0936062,0.0,0.0,0.0,0.0,0.0,0.0,0.0,inf,inf,inf,inf,1,1,1,1,0,0,0,0,0,0,1,1,0,0
21726560000,0,0,0.0,0.0,6451297.0,-7249869.5,-229.26901,0.0,0.0,0.0,0.0,0.0,0.0,0.0,0.0,0.0,0.0,0.0,0.0,0.0,-1.0936056,0.0,0.0,0.0,0.0,0.0,0.0,0.0,inf,inf,inf,inf,1,1,1,1,0,0,0,0,0,0,1,1,0,0
21726580000,0,0,0.0,0.0,6451297.0,-7249869.5,-229.26901,0.0,0.0,0.0,0.0,0.0,0.0,0.0,0.0,0.0,0.0,0.0,0.0,0.0,-1.093605,0.0,0.0,0.0,0.0,0.0,0.0,0.0,inf,inf,inf,inf,1,1,1,1,0,0,0,0,0,0,1,1,0,0
21726596000,0,0,0.0,0.0,6451297.0,-7249869.5,-229.26901,0.0,0.0,0.0,0.0,0.0,0.0,0.0,0.0,0.0,0.0,0.0,0.0,0.0,-1.0936044,0.0,0.0,0.0,0.0,0.0,0.0,0.0,inf,inf,inf,inf,1,1,1,1,0,0,0,0,0,0,1,1,0,0
21726616000,0,0,0.0,0.0,6451297.0,-7249869.5,-229.26901,0.0,0.0,0.0,0.0,0.0,0.0,0.0,0.0,0.0,0.0,0.0,0.0,0.0,-1.0936037,0.0,0.0,0.0,0.0,0.0,0.0,0.0,inf,inf,inf,inf,1,1,1,1,0,0,0,0,0,0,1,1,0,0
21726640000,0,0,0.0,0.0,6451297.0,-7249869.5,-229.26901,0.0,0.0,0.0,0.0,0.0,0.0,0.0,0.0,0.0,0.0,0.0,0.0,0.0,-1.093603,0.0,0.0,0.0,0.0,0.0,0.0,0.0,inf,inf,inf,inf,1,1,1,1,0,0,0,0,0,0,1,1,0,0
21726660000,0,0,0.0,0.0,6451297.0,-7249869.5,-229.26901,0.0,0.0,0.0,0.0,0.0,0.0,0.0,0.0,0.0,0.0,0.0,0.0,0.0,-1.0936023,0.0,0.0,0.0,0.0,0.0,0.0,0.0,inf,inf,inf,inf,1,1,1,1,0,0,0,0,0,0,1,1,0,0
21726676000,0,0,0.0,0.0,6451297.0,-7249869.5,-229.26901,0.0,0.0,0.0,0.0,0.0,0.0,0.0,0.0,0.0,0.0,0.0,0.0,0.0,-1.0936018,0.0,0.0,0.0,0.0,0.0,0.0,0.0,inf,inf,inf,inf,1,1,1,1,0,0,0,0,0,0,1,1,0,0
21726700000,0,0,0.0,0.0,6451297.0,-7249869.5,-229.26901,0.0,0.0,0.0,0.0,0.0,0.0,0.0,0.0,0.0,0.0,0.0,0.0,0.0,-1.0936012,0.0,0.0,0.0,0.0,0.0,0.0,0.0,inf,inf,inf,inf,1,1,1,1,0,0,0,0,0,0,1,1,0,0
21726720000,0,0,0.0,0.0,6451297.0,-7249869.5,-229.26901,0.0,0.0,0.0,0.0,0.0,0.0,0.0,0.0,0.0,0.0,0.0,0.0,0.0,-1.0936005,0.0,0.0,0.0,0.0,0.0,0.0,0.0,inf,inf,inf,inf,1,1,1,1,0,0,0,0,0,0,1,1,0,0
21726740000,0,0,0.0,0.0,6451297.0,-7249869.5,-229.26901,0.0,0.0,0.0,0.0,0.0,0.0,0.0,0.0,0.0,0.0,0.0,0.0,0.0,-1.0935999,0.0,0.0,0.0,0.0,0.0,0.0,0.0,inf,inf,inf,inf,1,1,1,1,0,0,0,0,0,0,1,1,0,0
21726760000,0,0,0.0,0.0,6451297.0,-7249869.5,-229.26901,0.0,0.0,0.0,0.0,0.0,0.0,0.0,0.0,0.0,0.0,0.0,0.0,0.0,-1.0935993,0.0,0.0,0.0,0.0,0.0,0.0,0.0,inf,inf,inf,inf,1,1,1,1,0,0,0,0,0,0,1,1,0,0
21726780000,0,0,0.0,0.0,6451297.0,-7249869.5,-229.26901,0.0,0.0,0.0,0.0,0.0,0.0,0.0,0.0,0.0,0.0,0.0,0.0,0.0,-1.0935987,0.0,0.0,0.0,0.0,0.0,0.0,0.0,inf,inf,inf,inf,1,1,1,1,0,0,0,0,0,0,1,1,0,0
21726796000,0,0,0.0,0.0,6451297.0,-7249869.5,-229.26901,0.0,0.0,0.0,0.0,0.0,0.0,0.0,0.0,0.0,0.0,0.0,0.0,0.0,-1.0935982,0.0,0.0,0.0,0.0,0.0,0.0,0.0,inf,inf,inf,inf,1,1,1,1,0,0,0,0,0,0,1,1,0,0
21726820000,0,0,0.0,0.0,6451297.0,-7249869.5,-229.26901,0.0,0.0,0.0,0.0,0.0,0.0,0.0,0.0,0.0,0.0,0.0,0.0,0.0,-1.0935975,0.0,0.0,0.0,0.0,0.0,0.0,0.0,inf,inf,inf,inf,1,1,1,1,0,0,0,0,0,0,1,1,0,0
21726840000,0,0,0.0,0.0,6451297.0,-7249869.5,-229.26901,0.0,0.0,0.0,0.0,0.0,0.0,0.0,0.0,0.0,0.0,0.0,0.0,0.0,-1.0935969,0.0,0.0,0.0,0.0,0.0,0.0,0.0,inf,inf,inf,inf,1,1,1,1,0,0,0,0,0,0,1,1,0,0
21726856000,0,0,0.0,0.0,6451297.0,-7249869.5,-229.26901,0.0,0.0,0.0,0.0,0.0,0.0,0.0,0.0,0.0,0.0,0.0,0.0,0.0,-1.0935965,0.0,0.0,0.0,0.0,0.0,0.0,0.0,inf,inf,inf,inf,1,1,1,1,0,0,0,0,0,0,1,1,0,0
21726876000,0,0,0.0,0.0,6451297.0,-7249869.5,-229.26901,0.0,0.0,0.0,0.0,0.0,0.0,0.0,0.0,0.0,0.0,0.0,0.0,0.0,-1.093596,0.0,0.0,0.0,0.0,0.0,0.0,0.0,inf,inf,inf,inf,1,1,1,1,0,0,0,0,0,0,1,1,0,0
21726900000,0,0,0.0,0.0,6451297.0,-7249869.5,-229.26901,0.0,0.0,0.0,0.0,0.0,0.0,0.0,0.0,0.0,0.0,0.0,0.0,0.0,-1.0935953,0.0,0.0,0.0,0.0,0.0,0.0,0.0,inf,inf,inf,inf,1,1,1,1,0,0,0,0,0,0,1,1,0,0
21726920000,0,0,0.0,0.0,6451297.0,-7249869.5,-229.26901,0.0,0.0,0.0,0.0,0.0,0.0,0.0,0.0,0.0,0.0,0.0,0.0,0.0,-1.0935947,0.0,0.0,0.0,0.0,0.0,0.0,0.0,inf,inf,inf,inf,1,1,1,1,0,0,0,0,0,0,1,1,0,0
21726936000,0,0,0.0,0.0,6451297.0,-7249869.5,-229.26901,0.0,0.0,0.0,0.0,0.0,0.0,0.0,0.0,0.0,0.0,0.0,0.0,0.0,-1.0935943,0.0,0.0,0.0,0.0,0.0,0.0,0.0,inf,inf,inf,inf,1,1,1,1,0,0,0,0,0,0,1,1,0,0
21726956000,0,0,0.0,0.0,6451297.0,-7249869.5,-229.26901,0.0,0.0,0.0,0.0,0.0,0.0,0.0,0.0,0.0,0.0,0.0,0.0,0.0,-1.0935937,0.0,0.0,0.0,0.0,0.0,0.0,0.0,inf,inf,inf,inf,1,1,1,1,0,0,0,0,0,0,1,1,0,0
21726980000,0,0,0.0,0.0,6451297.0,-7249869.5,-229.26901,0.0,0.0,0.0,0.0,0.0,0.0,0.0,0.0,0.0,0.0,0.0,0.0,0.0,-1.0935929,0.0,0.0,0.0,0.0,0.0,0.0,0.0,inf,inf,inf,inf,1,1,1,1,0,0,0,0,0,0,1,1,0,0
21727000000,0,0,0.0,0.0,6451297.0,-7249869.5,-229.26901,0.0,0.0,0.0,0.0,0.0,0.0,0.0,0.0,0.0,0.0,0.0,0.0,0.0,-1.0935925,0.0,0.0,0.0,0.0,0.0,0.0,0.0,inf,inf,inf,inf,1,1,1,1,0,0,0,0,0,0,1,1,0,0
21727020000,0,0,0.0,0.0,6451297.0,-7249869.5,-229.26901,0.0,0.0,0.0,0.0,0.0,0.0,0.0,0.0,0.0,0.0,0.0,0.0,0.0,-1.093592,0.0,0.0,0.0,0.0,0.0,0.0,0.0,inf,inf,inf,inf,1,1,1,1,0,0,0,0,0,0,1,1,0,0
21727040000,0,0,0.0,0.0,6451297.0,-7249869.5,-229.26901,0.0,0.0,0.0,0.0,0.0,0.0,0.0,0.0,0.0,0.0,0.0,0.0,0.0,-1.0935913,0.0,0.0,0.0,0.0,0.0,0.0,0.0,inf,inf,inf,inf,1,1,1,1,0,0,0,0,0,0,1,1,0,0
21727060000,0,0,0.0,0.0,6451297.0,-7249869.5,-229.26901,0.0,0.0,0.0,0.0,0.0,0.0,0.0,0.0,0.0,0.0,0.0,0.0,0.0,-1.0935909,0.0,0.0,0.0,0.0,0.0,0.0,0.0,inf,inf,inf,inf,1,1,1,1,0,0,0,0,0,0,1,1,0,0
21727080000,0,0,0.0,0.0,6451297.0,-7249869.5,-229.26901,0.0,0.0,0.0,0.0,0.0,0.0,0.0,0.0,0.0,0.0,0.0,0.0,0.0,-1.0935905,0.0,0.0,0.0,0.0,0.0,0.0,0.0,inf,inf,inf,inf,1,1,1,1,0,0,0,0,0,0,1,1,0,0
21727096000,0,0,0.0,0.0,6451297.0,-7249869.5,-229.26901,0.0,0.0,0.0,0.0,0.0,0.0,0.0,0.0,0.0,0.0,0.0,0.0,0.0,-1.09359,0.0,0.0,0.0,0.0,0.0,0.0,0.0,inf,inf,inf,inf,1,1,1,1,0,0,0,0,0,0,1,1,0,0
21727116000,0,0,0.0,0.0,6451297.0,-7249869.5,-229.26901,0.0,0.0,0.0,0.0,0.0,0.0,0.0,0.0,0.0,0.0,0.0,0.0,0.0,-1.0935895,0.0,0.0,0.0,0.0,0.0,0.0,0.0,inf,inf,inf,inf,1,1,1,1,0,0,0,0,0,0,1,1,0,0
21727136000,0,0,0.0,0.0,6451297.0,-7249869.5,-229.26901,0.0,0.0,0.0,0.0,0.0,0.0,0.0,0.0,0.0,0.0,0.0,0.0,0.0,-1.093589,0.0,0.0,0.0,0.0,0.0,0.0,0.0,inf,inf,inf,inf,1,1,1,1,0,0,0,0,0,0,1,1,0,0
21727156000,0,0,0.0,0.0,6451297.0,-7249869.5,-229.26901,0.0,0.0,0.0,0.0,0.0,0.0,0.0,0.0,0.0,0.0,0.0,0.0,0.0,-1.0935884,0.0,0.0,0.0,0.0,0.0,0.0,0.0,inf,inf,inf,inf,1,1,1,1,0,0,0,0,0,0,1,1,0,0
21727176000,0,0,0.0,0.0,6451297.0,-7249869.5,-229.26901,0.0,0.0,0.0,0.0,0.0,0.0,0.0,0.0,0.0,0.0,0.0,0.0,0.0,-1.0935879,0.0,0.0,0.0,0.0,0.0,0.0,0.0,inf,inf,inf,inf,1,1,1,1,0,0,0,0,0,0,1,1,0,0
21727200000,0,0,0.0,0.0,6451297.0,-7249869.5,-229.26901,0.0,0.0,0.0,0.0,0.0,0.0,0.0,0.0,0.0,0.0,0.0,0.0,0.0,-1.0935874,0.0,0.0,0.0,0.0,0.0,0.0,0.0,inf,inf,inf,inf,1,1,1,1,0,0,0,0,0,0,1,1,0,0
21727216000,0,0,0.0,0.0,6451297.0,-7249869.5,-229.26901,0.0,0.0,0.0,0.0,0.0,0.0,0.0,0.0,0.0,0.0,0.0,0.0,0.0,-1.0935869,0.0,0.0,0.0,0.0,0.0,0.0,0.0,inf,inf,inf,inf,1,1,1,1,0,0,0,0,0,0,1,1,0,0
21727240000,0,0,0.0,0.0,6451297.0,-7249869.5,-229.26901,0.0,0.0,0.0,0.0,0.0,0.0,0.0,0.0,0.0,0.0,0.0,0.0,0.0,-1.0935862,0.0,0.0,0.0,0.0,0.0,0.0,0.0,inf,inf,inf,inf,1,1,1,1,0,0,0,0,0,0,1,1,0,0
21727256000,0,0,0.0,0.0,6451297.0,-7249869.5,-229.26901,0.0,0.0,0.0,0.0,0.0,0.0,0.0,0.0,0.0,0.0,0.0,0.0,0.0,-1.093586,0.0,0.0,0.0,0.0,0.0,0.0,0.0,inf,inf,inf,inf,1,1,1,1,0,0,0,0,0,0,1,1,0,0
21727280000,0,0,0.0,0.0,6451297.0,-7249869.5,-229.26901,0.0,0.0,0.0,0.0,0.0,0.0,0.0,0.0,0.0,0.0,0.0,0.0,0.0,-1.0935853,0.0,0.0,0.0,0.0,0.0,0.0,0.0,inf,inf,inf,inf,1,1,1,1,0,0,0,0,0,0,1,1,0,0
21727300000,0,0,0.0,0.0,6451297.0,-7249869.5,-229.26901,0.0,0.0,0.0,0.0,0.0,0.0,0.0,0.0,0.0,0.0,0.0,0.0,0.0,-1.0935849,0.0,0.0,0.0,0.0,0.0,0.0,0.0,inf,inf,inf,inf,1,1,1,1,0,0,0,0,0,0,1,1,0,0
21727320000,0,0,0.0,0.0,6451297.0,-7249869.5,-229.26901,0.0,0.0,0.0,0.0,0.0,0.0,0.0,0.0,0.0,0.0,0.0,0.0,0.0,-1.0935843,0.0,0.0,0.0,0.0,0.0,0.0,0.0,inf,inf,inf,inf,1,1,1,1,0,0,0,0,0,0,1,1,0,0
21727340000,0,0,0.0,0.0,6451297.0,-7249869.5,-229.26901,0.0,0.0,0.0,0.0,0.0,0.0,0.0,0.0,0.0,0.0,0.0,0.0,0.0,-1.093584,0.0,0.0,0.0,0.0,0.0,0.0,0.0,inf,inf,inf,inf,1,1,1,1,0,0,0,0,0,0,1,1,0,0
21727360000,0,0,0.0,0.0,6451297.0,-7249869.5,-229.26901,0.0,0.0,0.0,0.0,0.0,0.0,0.0,0.0,0.0,0.0,0.0,0.0,0.0,-1.0935835,0.0,0.0,0.0,0.0,0.0,0.0,0.0,inf,inf,inf,inf,1,1,1,1,0,0,0,0,0,0,1,1,0,0
21727380000,0,0,0.0,0.0,6451297.0,-7249869.5,-229.26901,0.0,0.0,0.0,0.0,0.0,0.0,0.0,0.0,0.0,0.0,0.0,0.0,0.0,-1.0935829,0.0,0.0,0.0,0.0,0.0,0.0,0.0,inf,inf,inf,inf,1,1,1,1,0,0,0,0,0,0,1,1,0,0
21727400000,0,0,0.0,0.0,6451297.0,-7249869.5,-229.26901,0.0,0.0,0.0,0.0,0.0,0.0,0.0,0.0,0.0,0.0,0.0,0.0,0.0,-1.0935825,0.0,0.0,0.0,0.0,0.0,0.0,0.0,inf,inf,inf,inf,1,1,1,1,0,0,0,0,0,0,1,1,0,0
21727420000,0,0,0.0,0.0,6451297.0,-7249869.5,-229.26901,0.0,0.0,0.0,0.0,0.0,0.0,0.0,0.0,0.0,0.0,0.0,0.0,0.0,-1.0935819,0.0,0.0,0.0,0.0,0.0,0.0,0.0,inf,inf,inf,inf,1,1,1,1,0,0,0,0,0,0,1,1,0,0
21727440000,0,0,0.0,0.0,6451297.0,-7249869.5,-229.26901,0.0,0.0,0.0,0.0,0.0,0.0,0.0,0.0,0.0,0.0,0.0,0.0,0.0,-1.0935816,0.0,0.0,0.0,0.0,0.0,0.0,0.0,inf,inf,inf,inf,1,1,1,1,0,0,0,0,0,0,1,1,0,0
21727460000,0,0,0.0,0.0,6451297.0,-7249869.5,-229.26901,0.0,0.0,0.0,0.0,0.0,0.0,0.0,0.0,0.0,0.0,0.0,0.0,0.0,-1.0935811,0.0,0.0,0.0,0.0,0.0,0.0,0.0,inf,inf,inf,inf,1,1,1,1,0,0,0,0,0,0,1,1,0,0
21727480000,0,0,0.0,0.0,6451297.0,-7249869.5,-229.26901,0.0,0.0,0.0,0.0,0.0,0.0,0.0,0.0,0.0,0.0,0.0,0.0,0.0,-1.0935805,0.0,0.0,0.0,0.0,0.0,0.0,0.0,inf,inf,inf,inf,1,1,1,1,0,0,0,0,0,0,1,1,0,0
21727496000,0,0,0.0,0.0,6451297.0,-7249869.5,-229.26901,0.0,0.0,0.0,0.0,0.0,0.0,0.0,0.0,0.0,0.0,0.0,0.0,0.0,-1.0935802,0.0,0.0,0.0,0.0,0.0,0.0,0.0,inf,inf,inf,inf,1,1,1,1,0,0,0,0,0,0,1,1,0,0
21727516000,0,0,0.0,0.0,6451297.0,-7249869.5,-229.26901,0.0,0.0,0.0,0.0,0.0,0.0,0.0,0.0,0.0,0.0,0.0,0.0,0.0,-1.0935798,0.0,0.0,0.0,0.0,0.0,0.0,0.0,inf,inf,inf,inf,1,1,1,1,0,0,0,0,0,0,1,1,0,0
21727540000,0,0,0.0,0.0,6451297.0,-7249869.5,-229.26901,0.0,0.0,0.0,0.0,0.0,0.0,0.0,0.0,0.0,0.0,0.0,0.0,0.0,-1.0935793,0.0,0.0,0.0,0.0,0.0,0.0,0.0,inf,inf,inf,inf,1,1,1,1,0,0,0,0,0,0,1,1,0,0
21727560000,0,0,0.0,0.0,6451297.0,-7249869.5,-229.26901,0.0,0.0,0.0,0.0,0.0,0.0,0.0,0.0,0.0,0.0,0.0,0.0,0.0,-1.0935787,0.0,0.0,0.0,0.0,0.0,0.0,0.0,inf,inf,inf,inf,1,1,1,1,0,0,0,0,0,0,1,1,0,0
21727576000,0,0,0.0,0.0,6451297.0,-7249869.5,-229.26901,0.0,0.0,0.0,0.0,0.0,0.0,0.0,0.0,0.0,0.0,0.0,0.0,0.0,-1.0935785,0.0,0.0,0.0,0.0,0.0,0.0,0.0,inf,inf,inf,inf,1,1,1,1,0,0,0,0,0,0,1,1,0,0
21727600000,0,0,0.0,0.0,6451297.0,-7249869.5,-229.26901,0.0,0.0,0.0,0.0,0.0,0.0,0.0,0.0,0.0,0.0,0.0,0.0,0.0,-1.0935779,0.0,0.0,0.0,0.0,0.0,0.0,0.0,inf,inf,inf,inf,1,1,1,1,0,0,0,0,0,0,1,1,0,0
21727620000,0,0,0.0,0.0,6451297.0,-7249869.5,-229.26901,0.0,0.0,0.0,0.0,0.0,0.0,0.0,0.0,0.0,0.0,0.0,0.0,0.0,-1.0935774,0.0,0.0,0.0,0.0,0.0,0.0,0.0,inf,inf,inf,inf,1,1,1,1,0,0,0,0,0,0,1,1,0,0
21727640000,0,0,0.0,0.0,6451297.0,-7249869.5,-229.26901,0.0,0.0,0.0,0.0,0.0,0.0,0.0,0.0,0.0,0.0,0.0,0.0,0.0,-1.0935769,0.0,0.0,0.0,0.0,0.0,0.0,0.0,inf,inf,inf,inf,1,1,1,1,0,0,0,0,0,0,1,1,0,0
21727656000,0,0,0.0,0.0,6451297.0,-7249869.5,-229.26901,0.0,0.0,0.0,0.0,0.0,0.0,0.0,0.0,0.0,0.0,0.0,0.0,0.0,-1.0935767,0.0,0.0,0.0,0.0,0.0,0.0,0.0,inf,inf,inf,inf,1,1,1,1,0,0,0,0,0,0,1,1,0,0
21727676000,0,0,0.0,0.0,6451297.0,-7249869.5,-229.26901,0.0,0.0,0.0,0.0,0.0,0.0,0.0,0.0,0.0,0.0,0.0,0.0,0.0,-1.0935762,0.0,0.0,0.0,0.0,0.0,0.0,0.0,inf,inf,inf,inf,1,1,1,1,0,0,0,0,0,0,1,1,0,0
21727696000,0,0,0.0,0.0,6451297.0,-7249869.5,-229.26901,0.0,0.0,0.0,0.0,0.0,0.0,0.0,0.0,0.0,0.0,0.0,0.0,0.0,-1.0935757,0.0,0.0,0.0,0.0,0.0,0.0,0.0,inf,inf,inf,inf,1,1,1,1,0,0,0,0,0,0,1,1,0,0
21727720000,0,0,0.0,0.0,6451297.0,-7249869.5,-229.26901,0.0,0.0,0.0,0.0,0.0,0.0,0.0,0.0,0.0,0.0,0.0,0.0,0.0,-1.0935752,0.0,0.0,0.0,0.0,0.0,0.0,0.0,inf,inf,inf,inf,1,1,1,1,0,0,0,0,0,0,1,1,0,0
21727736000,0,0,0.0,0.0,6451297.0,-7249869.5,-229.26901,0.0,0.0,0.0,0.0,0.0,0.0,0.0,0.0,0.0,0.0,0.0,0.0,0.0,-1.0935748,0.0,0.0,0.0,0.0,0.0,0.0,0.0,inf,inf,inf,inf,1,1,1,1,0,0,0,0,0,0,1,1,0,0
21727756000,0,0,0.0,0.0,6451297.0,-7249869.5,-229.26901,0.0,0.0,0.0,0.0,0.0,0.0,0.0,0.0,0.0,0.0,0.0,0.0,0.0,-1.0935744,0.0,0.0,0.0,0.0,0.0,0.0,0.0,inf,inf,inf,inf,1,1,1,1,0,0,0,0,0,0,1,1,0,0
21727780000,0,0,0.0,0.0,6451297.0,-7249869.5,-229.26901,0.0,0.0,0.0,0.0,0.0,0.0,0.0,0.0,0.0,0.0,0.0,0.0,0.0,-1.0935738,0.0,0.0,0.0,0.0,0.0,0.0,0.0,inf,inf,inf,inf,1,1,1,1,0,0,0,0,0,0,1,1,0,0
21727796000,0,0,0.0,0.0,6451297.0,-7249869.5,-229.26901,0.0,0.0,0.0,0.0,0.0,0.0,0.0,0.0,0.0,0.0,0.0,0.0,0.0,-1.0935736,0.0,0.0,0.0,0.0,0.0,0.0,0.0,inf,inf,inf,inf,1,1,1,1,0,0,0,0,0,0,1,1,0,0
21727820000,0,0,0.0,0.0,6451297.0,-7249869.5,-229.26901,0.0,0.0,0.0,0.0,0.0,0.0,0.0,0.0,0.0,0.0,0.0,0.0,0.0,-1.093573,0.0,0.0,0.0,0.0,0.0,0.0,0.0,inf,inf,inf,inf,1,1,1,1,0,0,0,0,0,0,1,1,0,0
21727836000,0,0,0.0,0.0,6451297.0,-7249869.5,-229.26901,0.0,0.0,0.0,0.0,0.0,0.0,0.0,0.0,0.0,0.0,0.0,0.0,0.0,-1.0935727,0.0,0.0,0.0,0.0,0.0,0.0,0.0,inf,inf,inf,inf,1,1,1,1,0,0,0,0,0,0,1,1,0,0
21727860000,0,0,0.0,0.0,6451297.0,-7249869.5,-229.26901,0.0,0.0,0.0,0.0,0.0,0.0,0.0,0.0,0.0,0.0,0.0,0.0,0.0,-1.0935721,0.0,0.0,0.0,0.0,0.0,0.0,0.0,inf,inf,inf,inf,1,1,1,1,0,0,0,0,0,0,1,1,0,0
21727880000,0,0,0.0,0.0,6451297.0,-7249869.5,-229.26901,0.0,0.0,0.0,0.0,0.0,0.0,0.0,0.0,0.0,0.0,0.0,0.0,0.0,-1.0935715,0.0,0.0,0.0,0.0,0.0,0.0,0.0,inf,inf,inf,inf,1,1,1,1,0,0,0,0,0,0,1,1,0,0
21727896000,0,0,0.0,0.0,6451297.0,-7249869.5,-229.26901,0.0,0.0,0.0,0.0,0.0,0.0,0.0,0.0,0.0,0.0,0.0,0.0,0.0,-1.0935713,0.0,0.0,0.0,0.0,0.0,0.0,0.0,inf,inf,inf,inf,1,1,1,1,0,0,0,0,0,0,1,1,0,0
21727916000,0,0,0.0,0.0,6451297.0,-7249869.5,-229.26901,0.0,0.0,0.0,0.0,0.0,0.0,0.0,0.0,0.0,0.0,0.0,0.0,0.0,-1.093571,0.0,0.0,0.0,0.0,0.0,0.0,0.0,inf,inf,inf,inf,1,1,1,1,0,0,0,0,0,0,1,1,0,0
21727940000,0,0,0.0,0.0,6451297.0,-7249869.5,-229.26901,0.0,0.0,0.0,0.0,0.0,0.0,0.0,0.0,0.0,0.0,0.0,0.0,0.0,-1.0935704,0.0,0.0,0.0,0.0,0.0,0.0,0.0,inf,inf,inf,inf,1,1,1,1,0,0,0,0,0,0,1,1,0,0
21727960000,0,0,0.0,0.0,6451297.0,-7249869.5,-229.26901,0.0,0.0,0.0,0.0,0.0,0.0,0.0,0.0,0.0,0.0,0.0,0.0,0.0,-1.0935699,0.0,0.0,0.0,0.0,0.0,0.0,0.0,inf,inf,inf,inf,1,1,1,1,0,0,0,0,0,0,1,1,0,0
21727980000,0,0,0.0,0.0,6451297.0,-7249869.5,-229.26901,0.0,0.0,0.0,0.0,0.0,0.0,0.0,0.0,0.0,0.0,0.0,0.0,0.0,-1.0935695,0.0,0.0,0.0,0.0,0.0,0.0,0.0,inf,inf,inf,inf,1,1,1,1,0,0,0,0,0,0,1,1,0,0
21727996000,0,0,0.0,0.0,6451297.0,-7249869.5,-229.26901,0.0,0.0,0.0,0.0,0.0,0.0,0.0,0.0,0.0,0.0,0.0,0.0,0.0,-1.0935692,0.0,0.0,0.0,0.0,0.0,0.0,0.0,inf,inf,inf,inf,1,1,1,1,0,0,0,0,0,0,1,1,0,0
21728016000,0,0,0.0,0.0,6451297.0,-7249869.5,-229.26901,0.0,0.0,0.0,0.0,0.0,0.0,0.0,0.0,0.0,0.0,0.0,0.0,0.0,-1.0935687,0.0,0.0,0.0,0.0,0.0,0.0,0.0,inf,inf,inf,inf,1,1,1,1,0,0,0,0,0,0,1,1,0,0
21728036000,0,0,0.0,0.0,6451297.0,-7249869.5,-229.26901,0.0,0.0,0.0,0.0,0.0,0.0,0.0,0.0,0.0,0.0,0.0,0.0,0.0,-1.0935683,0.0,0.0,0.0,0.0,0.0,0.0,0.0,inf,inf,inf,inf,1,1,1,1,0,0,0,0,0,0,1,1,0,0
21728056000,0,0,0.0,0.0,6451297.0,-7249869.5,-229.26901,0.0,0.0,0.0,0.0,0.0,0.0,0.0,0.0,0.0,0.0,0.0,0.0,0.0,-1.0935678,0.0,0.0,0.0,0.0,0.0,0.0,0.0,inf,inf,inf,inf,1,1,1,1,0,0,0,0,0,0,1,1,0,0
21728076000,0,0,0.0,0.0,6451297.0,-7249869.5,-229.26901,0.0,0.0,0.0,0.0,0.0,0.0,0.0,0.0,0.0,0.0,0.0,0.0,0.0,-1.0935674,0.0,0.0,0.0,0.0,0.0,0.0,0.0,inf,inf,inf,inf,1,1,1,1,0,0,0,0,0,0,1,1,0,0
21728100000,0,0,0.0,0.0,6451297.0,-7249869.5,-229.26901,0.0,0.0,0.0,0.0,0.0,0.0,0.0,0.0,0.0,0.0,0.0,0.0,0.0,-1.0935669,0.0,0.0,0.0,0.0,0.0,0.0,0.0,inf,inf,inf,inf,1,1,1,1,0,0,0,0,0,0,1,1,0,0
21728116000,0,0,0.0,0.0,6451297.0,-7249869.5,-229.26901,0.0,0.0,0.0,0.0,0.0,0.0,0.0,0.0,0.0,0.0,0.0,0.0,0.0,-1.0935665,0.0,0.0,0.0,0.0,0.0,0.0,0.0,inf,inf,inf,inf,1,1,1,1,0,0,0,0,0,0,1,1,0,0
21728140000,0,0,0.0,0.0,6451297.0,-7249869.5,-229.26901,0.0,0.0,0.0,0.0,0.0,0.0,0.0,0.0,0.0,0.0,0.0,0.0,0.0,-1.0935661,0.0,0.0,0.0,0.0,0.0,0.0,0.0,inf,inf,inf,inf,1,1,1,1,0,0,0,0,0,0,1,1,0,0
21728156000,0,0,0.0,0.0,6451297.0,-7249869.5,-229.26901,0.0,0.0,0.0,0.0,0.0,0.0,0.0,0.0,0.0,0.0,0.0,0.0,0.0,-1.0935658,0.0,0.0,0.0,0.0,0.0,0.0,0.0,inf,inf,inf,inf,1,1,1,1,0,0,0,0,0,0,1,1,0,0
21728176000,0,0,0.0,0.0,6451297.0,-7249869.5,-229.26901,0.0,0.0,0.0,0.0,0.0,0.0,0.0,0.0,0.0,0.0,0.0,0.0,0.0,-1.0935653,0.0,0.0,0.0,0.0,0.0,0.0,0.0,inf,inf,inf,inf,1,1,1,1,0,0,0,0,0,0,1,1,0,0
21728200000,0,0,0.0,0.0,6451297.0,-7249869.5,-229.26901,0.0,0.0,0.0,0.0,0.0,0.0,0.0,0.0,0.0,0.0,0.0,0.0,0.0,-1.0935649,0.0,0.0,0.0,0.0,0.0,0.0,0.0,inf,inf,inf,inf,1,1,1,1,0,0,0,0,0,0,1,1,0,0
21728216000,0,0,0.0,0.0,6451297.0,-7249869.5,-229.26901,0.0,0.0,0.0,0.0,0.0,0.0,0.0,0.0,0.0,0.0,0.0,0.0,0.0,-1.0935645,0.0,0.0,0.0,0.0,0.0,0.0,0.0,inf,inf,inf,inf,1,1,1,1,0,0,0,0,0,0,1,1,0,0
21728240000,0,0,0.0,0.0,6451297.0,-7249869.5,-229.26901,0.0,0.0,0.0,0.0,0.0,0.0,0.0,0.0,0.0,0.0,0.0,0.0,0.0,-1.0935639,0.0,0.0,0.0,0.0,0.0,0.0,0.0,inf,inf,inf,inf,1,1,1,1,0,0,0,0,0,0,1,1,0,0
21728260000,0,0,0.0,0.0,6451297.0,-7249869.5,-229.26901,0.0,0.0,0.0,0.0,0.0,0.0,0.0,0.0,0.0,0.0,0.0,0.0,0.0,-1.0935636,0.0,0.0,0.0,0.0,0.0,0.0,0.0,inf,inf,inf,inf,1,1,1,1,0,0,0,0,0,0,1,1,0,0
21728280000,0,0,0.0,0.0,6451297.0,-7249869.5,-229.26901,0.0,0.0,0.0,0.0,0.0,0.0,0.0,0.0,0.0,0.0,0.0,0.0,0.0,-1.0935631,0.0,0.0,0.0,0.0,0.0,0.0,0.0,inf,inf,inf,inf,1,1,1,1,0,0,0,0,0,0,1,1,0,0
21728300000,0,0,0.0,0.0,6451297.0,-7249869.5,-229.26901,0.0,0.0,0.0,0.0,0.0,0.0,0.0,0.0,0.0,0.0,0.0,0.0,0.0,-1.0935627,0.0,0.0,0.0,0.0,0.0,0.0,0.0,inf,inf,inf,inf,1,1,1,1,0,0,0,0,0,0,1,1,0,0
21728316000,0,0,0.0,0.0,6451297.0,-7249869.5,-229.26901,0.0,0.0,0.0,0.0,0.0,0.0,0.0,0.0,0.0,0.0,0.0,0.0,0.0,-1.0935624,0.0,0.0,0.0,0.0,0.0,0.0,0.0,inf,inf,inf,inf,1,1,1,1,0,0,0,0,0,0,1,1,0,0
21728336000,0,0,0.0,0.0,6451297.0,-7249869.5,-229.26901,0.0,0.0,0.0,0.0,0.0,0.0,0.0,0.0,0.0,0.0,0.0,0.0,0.0,-1.0935619,0.0,0.0,0.0,0.0,0.0,0.0,0.0,inf,inf,inf,inf,1,1,1,1,0,0,0,0,0,0,1,1,0,0
21728356000,0,0,0.0,0.0,6451297.0,-7249869.5,-229.26901,0.0,0.0,0.0,0.0,0.0,0.0,0.0,0.0,0.0,0.0,0.0,0.0,0.0,-1.0935615,0.0,0.0,0.0,0.0,0.0,0.0,0.0,inf,inf,inf,inf,1,1,1,1,0,0,0,0,0,0,1,1,0,0
21728376000,0,0,0.0,0.0,6451297.0,-7249869.5,-229.26901,0.0,0.0,0.0,0.0,0.0,0.0,0.0,0.0,0.0,0.0,0.055000003,0.0,-0.61300004,-1.0935646,0.0,0.0,0.0,0.0,0.0,0.0,0.0,inf,inf,inf,inf,1,1,1,1,0,0,0,0,0,0,1,1,0,0
21728400000,0,0,0.0,0.0,6451297.0,-7249869.5,-229.26901,0.0,0.0,0.0,0.0,0.0,0.0,0.0,0.0,0.0,0.0,0.11800001,0.052,0.0,-1.0935642,0.0,0.0,0.0,0.0,0.0,0.0,0.0,inf,inf,inf,inf,1,1,1,1,0,0,0,0,0,0,1,1,0,0
21728420000,0,0,0.0,0.0,6451297.0,-7249869.5,-229.26901,0.0,0.0,0.0,0.0,0.0,0.0,0.0,0.0,0.0,0.0,-0.097,-0.040000003,0.009000001,-1.0935638,0.0,0.0,0.0,0.0,0.0,0.0,0.0,inf,inf,inf,inf,1,1,1,1,0,0,0,0,0,0,1,1,0,0
21728440000,0,0,0.0,0.0,6451297.0,-7249869.5,-229.26901,0.0,0.0,0.0,0.0,0.0,0.0,0.0,0.0,0.0,0.0,0.13100001,0.069000006,0.017,-1.0935644,0.0,0.0,0.0,0.0,0.0,0.0,0.0,inf,inf,inf,inf,1,1,1,1,0,0,0,0,0,0,1,1,0,0
21728460000,0,0,0.0,0.0,6451297.0,-7249869.5,-229.26901,0.0,0.0,0.0,0.0,0.0,0.0,0.0,0.0,0.0,0.0,-0.106000006,-0.044000003,0.012,-1.0935653,0.0,0.0,0.0,0.0,0.0,0.0,0.0,inf,inf,inf,inf,1,1,1,1,0,0,0,0,0,0,1,1,0,0
21728476000,0,0,0.0,0.0,6451297.0,-7249869.5,-229.26901,0.0,0.0,0.0,0.0,0.0,0.0,0.0,0.0,0.0,0.0,-0.097,-0.041,0.009000001,-1.0935646,0.0,0.0,0.0,0.0,0.0,0.0,0.0,inf,inf,inf,inf,1,1,1,1,0,0,0,0,0,0,1,1,0,0
21728500000,0,0,0.0,0.0,6451297.0,-7249869.5,-229.26901,0.0,0.0,0.0,0.0,0.0,0.0,0.0,0.0,0.0,0.0,-0.093,-0.039,0.117000006,-1.0935646,0.0,0.0,0.0,0.0,0.0,0.0,0.0,inf,inf,inf,inf,1,1,1,1,0,0,0,0,0,0,1,1,0,0
21728520000,0,0,0.0,0.0,6451297.0,-7249869.5,-229.26901,0.0,0.0,0.0,0.0,0.0,0.0,0.0,0.0,0.0,0.0,0.094000004,0.039,-0.002,-1.0935671,0.0,0.0,0.0,0.0,0.0,0.0,0.0,inf,inf,inf,inf,1,1,1,1,0,0,0,0,0,0,1,1,0,0
21728540000,0,0,0.0,0.0,6451297.0,-7249869.5,-229.26901,0.0,0.0,0.0,0.0,0.0,0.0,0.0,0.0,0.0,0.0,0.143,0.074,-0.048,-1.0935647,0.0,0.0,0.0,0.0,0.0,0.0,0.0,inf,inf,inf,inf,1,1,1,1,0,0,0,0,0,0,1,1,0,0
21728560000,0,0,0.0,0.0,6451297.0,-7249869.5,-229.26901,0.0,0.0,0.0,0.0,0.0,0.0,0.0,0.0,0.0,0.0,-0.11100001,-0.047000002,0.016,-1.0935652,0.0,0.0,0.0,0.0,0.0,0.0,0.0,inf,inf,inf,inf,1,1,1,1,0,0,0,0,0,0,1,1,0,0
21728580000,0,0,0.0,0.0,6451297.0,-7249869.5,-229.26901,0.0,0.0,0.0,0.0,0.0,0.0,0.0,0.0,0.0,0.0,0.026,0.007,-0.263,-1.0935646,0.0,0.0,0.0,0.0,0.0,0.0,0.0,inf,inf,inf,inf,1,1,1,1,0,0,0,0,0,0,1,1,0,0
21728596000,0,0,0.0,0.0,6451297.0,-7249869.5,-229.26901,0.0,0.0,0.0,0.0,0.0,0.0,0.0,0.0,0.0,0.0,0.095000006,0.038000003,0.012,-1.0935677,0.0,0.0,0.0,0.0,0.0,0.0,0.0,inf,inf,inf,inf,1,1,1,1,0,0,0,0,0,0,1,1,0,0
21728620000,0,0,0.0,0.0,6451297.0,-7249869.5,-229.26901,0.0,0.0,0.0,0.0,0.0,0.0,0.0,0.0,0.0,0.0,-0.027,0.002,0.726,-1.0935663,0.0,0.0,0.0,0.0,0.0,0.0,0.0,inf,inf,inf,inf,1,1,1,1,0,0,0,0,0,0,1,1,0,0
21728640000,0,0,0.0,0.0,6451297.0,-7249869.5,-229.26901,0.0,0.0,0.0,0.0,0.0,0.0,0.0,0.0,0.0,0.0,0.10300001,0.040000003,0.017,-1.0935681,0.0,0.0,0.0,0.0,0.0,0.0,0.0,inf,inf,inf,inf,1,1,1,1,0,0,0,0,0,0,1,1,0,0
21728660000,0,0,0.0,0.0,6451297.0,-7249869.5,-229.26901,0.0,0.0,0.0,0.0,0.0,0.0,0.0,0.0,0.0,0.0,-0.011000001,-0.021000002,-0.60700005,-1.0935632,0.0,0.0,0.0,0.0,0.0,0.0,0.0,inf,inf,inf,inf,1,1,1,1,0,0,0,0,0,0,1,1,0,0
21728680000,0,0,0.0,0.0,6451297.0,-7249869.5,-229.26901,0.0,0.0,0.0,0.0,0.0,0.0,0.0,0.0,0.0,0.0,0.093,0.037,0.013,-1.0935677,0.0,0.0,0.0,0.0,0.0,0.0,0.0,inf,inf,inf,inf,1,1,1,1,0,0,0,0,0,0,1,1,0,0
21728700000,0,0,0.0,0.0,6451297.0,-7249869.5,-229.26901,0.0,0.0,0.0,0.0,0.0,0.0,0.0,0.0,0.0,0.0,-0.102000006,-0.043,0.011000001,-1.093564,0.0,0.0,0.0,0.0,0.0,0.0,0.0,inf,inf,inf,inf,1,1,1,1,0,0,0,0,0,0,1,1,0,0
21728720000,0,0,0.0,0.0,6451297.0,-7249869.5,-229.26901,0.0,0.0,0.0,0.0,0.0,0.0,0.0,0.0,0.0,0.0,-0.086,-0.038000003,0.106000006,-1.0935646,0.0,0.0,0.0,0.0,0.0,0.0,0.0,inf,inf,inf,inf,1,1,1,1,0,0,0,0,0,0,1,1,0,0
21728740000,0,0,0.0,0.0,6451297.0,-7249869.5,-229.26901,0.0,0.0,0.0,0.0,0.0,0.0,0.0,0.0,0.0,0.0,-0.032,0.0,0.73600006,-1.0935664,0.0,0.0,0.0,0.0,0.0,0.0,0.0,inf,inf,inf,inf,1,1,1,1,0,0,0,0,0,0,1,1,0,0
21728760000,0,0,0.0,0.0,6451297.0,-7249869.5,-229.26901,0.0,0.0,0.0,0.0,0.0,0.0,0.0,0.0,0.0,0.0,0.095000006,0.036000002,0.020000001,-1.093568,0.0,0.0,0.0,0.0,0.0,0.0,0.0,inf,inf,inf,inf,1,1,1,1,0,0,0,0,0,0,1,1,0,0
21728780000,0,0,0.0,0.0,6451297.0,-7249869.5,-229.26901,0.0,0.0,0.0,0.0,0.0,0.0,0.0,0.0,0.0,0.0,-0.010000001,-0.020000001,-0.605,-1.0935627,0.0,0.0,0.0,0.0,0.0,0.0,0.0,inf,inf,inf,inf,1,1,1,1,0,0,0,0,0,0,1,1,0,0
21728796000,0,0,0.0,0.0,6451297.0,-7249869.5,-229.26901,0.0,0.0,0.0,0.0,0.0,0.0,0.0,0.0,0.0,0.0,0.095000006,0.037,0.020000001,-1.093568,0.0,0.0,0.0,0.0,0.0,0.0,0.0,inf,inf,inf,inf,1,1,1,1,0,0,0,0,0,0,1,1,0,0
21728820000,0,0,0.0,0.0,6451297.0,-7249869.5,-229.26901,0.0,0.0,0.0,0.0,0.0,0.0,0.0,0.0,0.0,0.0,0.025,0.006,-0.261,-1.0935643,0.0,0.0,0.0,0.0,0.0,0.0,0.0,inf,inf,inf,inf,1,1,1,1,0,0,0,0,0,0,1,1,0,0
21728840000,0,0,0.0,0.0,6451297.0,-7249869.5,-229.26901,0.0,0.0,0.0,0.0,0.0,0.0,0.0,0.0,0.0,0.0,-0.117000006,-0.05,0.018000001,-1.0935645,0.0,0.0,0.0,0.0,0.0,0.0,0.0,inf,inf,inf,inf,1,1,1,1,0,0,0,0,0,0,1,1,0,0
21728860000,0,0,0.0,0.0,6451297.0,-7249869.5,-229.26901,0.0,0.0,0.0,0.0,0.0,0.0,0.0,0.0,0.0,0.0,-0.027,0.001,0.725,-1.0935655,0.0,0.0,0.0,0.0,0.0,0.0,0.0,inf,inf,inf,inf,1,1,1,1,0,0,0,0,0,0,1,1,0,0
21728880000,0,0,0.0,0.0,6451297.0,-7249869.5,-229.26901,0.0,0.0,0.0,0.0,0.0,0.0,0.0,0.0,0.0,0.0,0.1,0.038000003,0.017,-1.0935673,0.0,0.0,0.0,0.0,0.0,0.0,0.0,inf,inf,inf,inf,1,1,1,1,0,0,0,0,0,0,1,1,0,0
21728900000,0,0,0.0,0.0,6451297.0,-7249869.5,-229.26901,0.0,0.0,0.0,0.0,0.0,0.0,0.0,0.0,0.0,0.0,-0.009000001,-0.019000001,-0.605,-1.093562,0.0,0.0,0.0,0.0,0.0,0.0,0.0,inf,inf,inf,inf,1,1,1,1,0,0,0,0,0,0,1,1,0,0
21728920000,0,0,0.0,0.0,6451297.0,-7249869.5,-229.26901,0.0,0.0,0.0,0.0,0.0,0.0,0.0,0.0,0.0,0.0,-0.120000005,-0.053000003,0.024,-1.0935644,0.0,0.0,0.0,0.0,0.0,0.0,0.0,inf,inf,inf,inf,1,1,1,1,0,0,0,0,0,0,1,1,0,0
21728940000,0,0,0.0,0.0,6451297.0,-7249869.5,-229.26901,0.0,0.0,0.0,0.0,0.0,0.0,0.0,0.0,0.0,0.0,0.025,0.007,-0.261,-1.0935634,0.0,0.0,0.0,0.0,0.0,0.0,0.0,inf,inf,inf,inf,1,1,1,1,0,0,0,0,0,0,1,1,0,0
21728960000,0,0,0.0,0.0,6451297.0,-7249869.5,-229.26901,0.0,0.0,0.0,0.0,0.0,0.0,0.0,0.0,0.0,0.0,0.093,0.039,0.0050000004,-1.0935663,0.0,0.0,0.0,0.0,0.0,0.0,0.0,inf,inf,inf,inf,1,1,1,1,0,0,0,0,0,0,1,1,0,0
21728980000,0,0,0.0,0.0,6451297.0,-7249869.5,-229.26901,0.0,0.0,0.0,0.0,0.0,0.0,0.0,0.0,0.0,0.0,0.142,0.074,-0.045,-1.0935636,0.0,0.0,0.0,0.0,0.0,0.0,0.0,inf,inf,inf,inf,1,1,1,1,0,0,0,0,0,0,1,1,0,0
21729000000,0,0,0.0,0.0,6451297.0,-7249869.5,-229.26901,0.0,0.0,0.0,0.0,0.0,0.0,0.0,0.0,0.0,0.0,-0.10700001,-0.046000004,0.017,-1.0935636,0.0,0.0,0.0,0.0,0.0,0.0,0.0,inf,inf,inf,inf,1,1,1,1,0,0,0,0,0,0,1,1,0,0
21729020000,0,0,0.0,0.0,6451297.0,-7249869.5,-229.26901,0.0,0.0,0.0,0.0,0.0,0.0,0.0,0.0,0.0,0.0,-0.089,-0.038000003,0.11000001,-1.0935638,0.0,0.0,0.0,0.0,0.0,0.0,0.0,inf,inf,inf,inf,1,1,1,1,0,0,0,0,0,0,1,1,0,0
21729040000,0,0,0.0,0.0,6451297.0,-7249869.5,-229.26901,0.0,0.0,0.0,0.0,0.0,0.0,0.0,0.0,0.0,0.0,-0.029000001,0.0,0.73300004,-1.0935655,0.0,0.0,0.0,0.0,0.0,0.0,0.0,inf,inf,inf,inf,1,1,1,1,0,0,0,0,0,0,1,1,0,0
21729060000,0,0,0.0,0.0,6451297.0,-7249869.5,-229.26901,0.0,0.0,0.0,0.0,0.0,0.0,0.0,0.0,0.0,0.0,0.094000004,0.036000002,0.019000001,-1.0935668,0.0,0.0,0.0,0.0,0.0,0.0,0.0,inf,inf,inf,inf,1,1,1,1,0,0,0,0,0,0,1,1,0,0
21729080000,0,0,0.0,0.0,6451297.0,-7249869.5,-229.26901,0.0,0.0,0.0,0.0,0.0,0.0,0.0,0.0,0.0,0.0,-0.010000001,-0.020000001,-0.60200006,-1.0935615,0.0,0.0,0.0,0.0,0.0,0.0,0.0,inf,inf,inf,inf,1,1,1,1,0,0,0,0,0,0,1,1,0,0
21729100000,0,0,0.0,0.0,6451297.0,-7249869.5,-229.26901,0.0,0.0,0.0,0.0,0.0,0.0,0.0,0.0,0.0,0.0,-0.115,-0.048,0.024,-1.0935638,0.0,0.0,0.0,0.0,0.0,0.0,0.0,inf,inf,inf,inf,1,1,1,1,0,0,0,0,0,0,1,1,0,0
21729120000,0,0,0.0,0.0,6451297.0,-7249869.5,-229.26901,0.0,0.0,0.0,0.0,0.0,0.0,0.0,0.0,0.0,0.0,-0.08800001,-0.037,0.112,-1.0935637,0.0,0.0,0.0,0.0,0.0,0.0,0.0,inf,inf,inf,inf,1,1,1,1,0,0,0,0,0,0,1,1,0,0
21729140000,0,0,0.0,0.0,6451297.0,-7249869.5,-229.26901,0.0,0.0,0.0,0.0,0.0,0.0,0.0,0.0,0.0,0.0,-0.030000001,0.0,0.73600006,-1.0935651,0.0,0.0,0.0,0.0,0.0,0.0,0.0,inf,inf,inf,inf,1,1,1,1,0,0,0,0,0,0,1,1,0,0
21729160000,0,0,0.0,0.0,6451297.0,-7249869.5,-229.26901,0.0,0.0,0.0,0.0,0.0,0.0,0.0,0.0,0.0,0.0,0.09900001,0.038000003,0.019000001,-1.0935665,0.0,0.0,0.0,0.0,0.0,0.0,0.0,inf,inf,inf,inf,1,1,1,1,0,0,0,0,0,0,1,1,0,0
21729180000,0,0,0.0,0.0,6451297.0,-7249869.5,-229.26901,0.0,0.0,0.0,0.0,0.0,0.0,0.0,0.0,0.0,0.0,-0.010000001,-0.020000001,-0.60200006,-1.093561,0.0,0.0,0.0,0.0,0.0,0.0,0.0,inf,inf,inf,inf,1,1,1,1,0,0,0,0,0,0,1,1,0,0
21729200000,0,0,0.0,0.0,6451297.0,-7249869.5,-229.26901,0.0,0.0,0.0,0.0,0.0,0.0,0.0,0.0,0.0,0.0,-0.117000006,-0.051000003,0.025,-1.0935634,0.0,0.0,0.0,0.0,0.0,0.0,0.0,inf,inf,inf,inf,1,1,1,1,0,0,0,0,0,0,1,1,0,0
21729220000,0,0,0.0,0.0,6451297.0,-7249869.5,-229.26901,0.0,0.0,0.0,0.0,0.0,0.0,0.0,0.0,0.0,0.0,-0.094000004,-0.041,0.11100001,-1.0935632,0.0,0.0,0.0,0.0,0.0,0.0,0.0,inf,inf,inf,inf,1,1,1,1,0,0,0,0,0,0,1,1,0,0
21729240000,0,0,0.0,0.0,6451297.0,-7249869.5,-229.26901,0.0,0.0,0.0,0.0,0.0,0.0,0.0,0.0,0.0,0.0,-0.030000001,0.0,0.735,-1.0935647,0.0,0.0,0.0,0.0,0.0,0.0,0.0,inf,inf,inf,inf,1,1,1,1,0,0,0,0,0,0,1,1,0,0
21729260000,0,0,0.0,0.0,6451297.0,-7249869.5,-229.26901,0.0,0.0,0.0,0.0,0.0,0.0,0.0,0.0,0.0,0.0,0.1,0.039,0.019000001,-1.0935662,0.0,0.0,0.0,0.0,0.0,0.0,0.0,inf,inf,inf,inf,1,1,1,1,0,0,0,0,0,0,1,1,0,0
21729280000,0,0,0.0,0.0,6451297.0,-7249869.5,-229.26901,0.0,0.0,0.0,0.0,0.0,0.0,0.0,0.0,0.0,0.0,-0.010000001,-0.020000001,-0.60200006,-1.0935607,0.0,0.0,0.0,0.0,0.0,0.0,0.0,inf,inf,inf,inf,1,1,1,1,0,0,0,0,0,0,1,1,0,0
21729300000,0,0,0.0,0.0,6451297.0,-7249869.5,-229.26901,0.0,0.0,0.0,0.0,0.0,0.0,0.0,0.0,0.0,0.0,-0.119,-0.052,0.025,-1.093563,0.0,0.0,0.0,0.0,0.0,0.0,0.0,inf,inf,inf,inf,1,1,1,1,0,0,0,0,0,0,1,1,0,0
21729320000,0,0,0.0,0.0,6451297.0,-7249869.5,-229.26901,0.0,0.0,0.0,0.0,0.0,0.0,0.0,0.0,0.0,0.0,-0.09200001,-0.040000003,0.112,-1.0935628,0.0,0.0,0.0,0.0,0.0,0.0,0.0,inf,inf,inf,inf,1,1,1,1,0,0,0,0,0,0,1,1,0,0
21729340000,0,0,0.0,0.0,6451297.0,-7249869.5,-229.26901,0.0,0.0,0.0,0.0,0.0,0.0,0.0,0.0,0.0,0.0,-0.030000001,0.0,0.735,-1.0935642,0.0,0.0,0.0,0.0,0.0,0.0,0.0,inf,inf,inf,inf,1,1,1,1,0,0,0,0,0,0,1,1,0,0
21729360000,0,0,0.0,0.0,6451297.0,-7249869.5,-229.26901,0.0,0.0,0.0,0.0,0.0,0.0,0.0,0.0,0.0,0.0,0.097,0.037,0.020000001,-1.0935656,0.0,0.0,0.0,0.0,0.0,0.0,0.0,inf,inf,inf,inf,1,1,1,1,0,0,0,0,0,0,1,1,0,0
21729380000,0,0,0.0,0.0,6451297.0,-7249869.5,-229.26901,0.0,0.0,0.0,0.0,0.0,0.0,0.0,0.0,0.0,0.0,0.13800001,0.071,-0.045,-1.0935622,0.0,0.0,0.0,0.0,0.0,0.0,0.0,inf,inf,inf,inf,1,1,1,1,0,0,0,0,0,0,1,1,0,0
21729396000,0,0,0.0,0.0,6451297.0,-7249869.5,-229.26901,0.0,0.0,0.0,0.0,0.0,0.0,0.0,0.0,0.0,0.0,0.08800001,0.036000002,0.006,-1.0935645,0.0,0.0,0.0,0.0,0.0,0.0,0.0,inf,inf,inf,inf,1,1,1,1,0,0,0,0,0,0,1,1,0,0
21729420000,0,0,0.0,0.0,6451297.0,-7249869.5,-229.26901,0.0,0.0,0.0,0.0,0.0,0.0,0.0,0.0,0.0,0.0,-0.087000005,-0.037,0.108,-1.0935621,0.0,0.0,0.0,0.0,0.0,0.0,0.0,inf,inf,inf,inf,1,1,1,1,0,0,0,0,0,0,1,1,0,0
21729436000,0,0,0.0,0.0,6451297.0,-7249869.5,-229.26901,0.0,0.0,0.0,0.0,0.0,0.0,0.0,0.0,0.0,0.0,-0.105000004,-0.043,0.017,-1.0935615,0.0,0.0,0.0,0.0,0.0,0.0,0.0,inf,inf,inf,inf,1,1,1,1,0,0,0,0,0,0,1,1,0,0
21729456000,0,0,0.0,0.0,6451297.0,-7249869.5,-229.26901,0.0,0.0,0.0,0.0,0.0,0.0,0.0,0.0,0.0,0.0,0.1,0.037,0.016,-1.0935657,0.0,0.0,0.0,0.0,0.0,0.0,0.0,inf,inf,inf,inf,1,1,1,1,0,0,0,0,0,0,1,1,0,0
21729480000,0,0,0.0,0.0,6451297.0,-7249869.5,-229.26901,0.0,0.0,0.0,0.0,0.0,0.0,0.0,0.0,0.0,0.0,-0.09200001,-0.040000003,0.115,-1.093562,0.0,0.0,0.0,0.0,0.0,0.0,0.0,inf,inf,inf,inf,1,1,1,1,0,0,0,0,0,0,1,1,0,0
21729496000,0,0,0.0,0.0,6451297.0,-7249869.5,-229.26901,0.0,0.0,0.0,0.0,0.0,0.0,0.0,0.0,0.0,0.0,-0.015000001,-0.023000002,-0.606,-1.0935605,0.0,0.0,0.0,0.0,0.0,0.0,0.0,inf,inf,inf,inf,1,1,1,1,0,0,0,0,0,0,1,1,0,0
21729520000,0,0,0.0,0.0,6451297.0,-7249869.5,-229.26901,0.0,0.0,0.0,0.0,0.0,0.0,0.0,0.0,0.0,0.0,-0.035,-0.002,0.74700004,-1.0935642,0.0,0.0,0.0,0.0,0.0,0.0,0.0,inf,inf,inf,inf,1,1,1,1,0,0,0,0,0,0,1,1,0,0
21729536000,0,0,0.0,0.0,6451297.0,-7249869.5,-229.26901,0.0,0.0,0.0,0.0,0.0,0.0,0.0,0.0,0.0,0.0,-0.093,-0.041,0.113000005,-1.093562,0.0,0.0,0.0,0.0,0.0,0.0,0.0,inf,inf,inf,inf,1,1,1,1,0,0,0,0,0,0,1,1,0,0
21729556000,0,0,0.0,0.0,6451297.0,-7249869.5,-229.26901,0.0,0.0,0.0,0.0,0.0,0.0,0.0,0.0,0.0,0.0,-0.030000001,0.0,0.734,-1.0935632,0.0,0.0,0.0,0.0,0.0,0.0,0.0,inf,inf,inf,inf,1,1,1,1,0,0,0,0,0,0,1,1,0,0
21729576000,0,0,0.0,0.0,6451297.0,-7249869.5,-229.26901,0.0,0.0,0.0,0.0,0.0,0.0,0.0,0.0,0.0,0.0,-0.116000004,-0.051000003,0.031000001,-1.0935625,0.0,0.0,0.0,0.0,0.0,0.0,0.0,inf,inf,inf,inf,1,1,1,1,0,0,0,0,0,0,1,1,0,0
21729600000,0,0,0.0,0.0,6451297.0,-7249869.5,-229.26901,0.0,0.0,0.0,0.0,0.0,0.0,0.0,0.0,0.0,0.0,0.09900001,0.039,0.022000002,-1.093565,0.0,0.0,0.0,0.0,0.0,0.0,0.0,inf,inf,inf,inf,1,1,1,1,0,0,0,0,0,0,1,1,0,0
21729616000,0,0,0.0,0.0,6451297.0,-7249869.5,-229.26901,0.0,0.0,0.0,0.0,0.0,0.0,0.0,0.0,0.0,0.0,0.022000002,0.0050000004,-0.259,-1.0935615,0.0,0.0,0.0,0.0,0.0,0.0,0.0,inf,inf,inf,inf,1,1,1,1,0,0,0,0,0,0,1,1,0,0
21729636000,0,0,0.0,0.0,6451297.0,-7249869.5,-229.26901,0.0,0.0,0.0,0.0,0.0,0.0,0.0,0.0,0.0,0.0,0.09200001,0.038000003,0.006,-1.0935638,0.0,0.0,0.0,0.0,0.0,0.0,0.0,inf,inf,inf,inf,1,1,1,1,0,0,0,0,0,0,1,1,0,0
21729660000,0,0,0.0,0.0,6451297.0,-7249869.5,-229.26901,0.0,0.0,0.0,0.0,0.0,0.0,0.0,0.0,0.0,0.0,0.102000006,0.040000003,0.016,-1.0935651,0.0,0.0,0.0,0.0,0.0,0.0,0.0,inf,inf,inf,inf,1,1,1,1,0,0,0,0,0,0,1,1,0,0
21729680000,0,0,0.0,0.0,6451297.0,-7249869.5,-229.26901,0.0,0.0,0.0,0.0,0.0,0.0,0.0,0.0,0.0,0.0,0.14,0.072000004,-0.041,-1.0935612,0.0,0.0,0.0,0.0,0.0,0.0,0.0,inf,inf,inf,inf,1,1,1,1,0,0,0,0,0,0,1,1,0,0
21729696000,0,0,0.0,0.0,6451297.0,-7249869.5,-229.26901,0.0,0.0,0.0,0.0,0.0,0.0,0.0,0.0,0.0,0.0,-0.035,-0.002,0.74700004,-1.0935636,0.0,0.0,0.0,0.0,0.0,0.0,0.0,inf,inf,inf,inf,1,1,1,1,0,0,0,0,0,0,1,1,0,0
21729720000,0,0,0.0,0.0,6451297.0,-7249869.5,-229.26901,0.0,0.0,0.0,0.0,0.0,0.0,0.0,0.0,0.0,0.0,-0.115,-0.05,0.026,-1.0935615,0.0,0.0,0.0,0.0,0.0,0.0,0.0,inf,inf,inf,inf,1,1,1,1,0,0,0,0,0,0,1,1,0,0
21729740000,0,0,0.0,0.0,6451297.0,-7249869.5,-229.26901,0.0,0.0,0.0,0.0,0.0,0.0,0.0,0.0,0.0,0.0,-0.087000005,-0.038000003,0.112,-1.0935612,0.0,0.0,0.0,0.0,0.0,0.0,0.0,inf,inf,inf,inf,1,1,1,1,0,0,0,0,0,0,1,1,0,0
21729756000,0,0,0.0,0.0,6451297.0,-7249869.5,-229.26901,0.0,0.0,0.0,0.0,0.0,0.0,0.0,0.0,0.0,0.0,-0.015000001,-0.022000002,-0.60400003,-1.0935595,0.0,0.0,0.0,0.0,0.0,0.0,0.0,inf,inf,inf,inf,1,1,1,1,0,0,0,0,0,0,1,1,0,0
21729780000,0,0,0.0,0.0,6451297.0,-7249869.5,-229.26901,0.0,0.0,0.0,0.0,0.0,0.0,0.0,0.0,0.0,0.0,-0.013,-0.022000002,-0.60400003,-1.09356,0.0,0.0,0.0,0.0,0.0,0.0,0.0,inf,inf,inf,inf,1,1,1,1,0,0,0,0,0,0,1,1,0,0
21729800000,0,0,0.0,0.0,6451297.0,-7249869.5,-229.26901,0.0,0.0,0.0,0.0,0.0,0.0,0.0,0.0,0.0,0.0,-0.117000006,-0.05,0.028,-1.0935615,0.0,0.0,0.0,0.0,0.0,0.0,0.0,inf,inf,inf,inf,1,1,1,1,0,0,0,0,0,0,1,1,0,0
21729820000,0,0,0.0,0.0,6451297.0,-7249869.5,-229.26901,0.0,0.0,0.0,0.0,0.0,0.0,0.0,0.0,0.0,0.0,0.105000004,0.040000003,0.018000001,-1.0935651,0.0,0.0,0.0,0.0,0.0,0.0,0.0,inf,inf,inf,inf,1,1,1,1,0,0,0,0,0,0,1,1,0,0
21729840000,0,0,0.0,0.0,6451297.0,-7249869.5,-229.26901,0.0,0.0,0.0,0.0,0.0,0.0,0.0,0.0,0.0,0.0,0.14,0.07300001,-0.039,-1.0935612,0.0,0.0,0.0,0.0,0.0,0.0,0.0,inf,inf,inf,inf,1,1,1,1,0,0,0,0,0,0,1,1,0,0
21729860000,0,0,0.0,0.0,6451297.0,-7249869.5,-229.26901,0.0,0.0,0.0,0.0,0.0,0.0,0.0,0.0,0.0,0.0,-0.015000001,-0.022000002,-0.60400003,-1.0935595,0.0,0.0,0.0,0.0,0.0,0.0,0.0,inf,inf,inf,inf,1,1,1,1,0,0,0,0,0,0,1,1,0,0
21729880000,0,0,0.0,0.0,6451297.0,-7249869.5,-229.26901,0.0,0.0,0.0,0.0,0.0,0.0,0.0,0.0,0.0,0.0,-0.119,-0.052,0.027,-1.0935613,0.0,0.0,0.0,0.0,0.0,0.0,0.0,inf,inf,inf,inf,1,1,1,1,0,0,0,0,0,0,1,1,0,0
21729900000,0,0,0.0,0.0,6451297.0,-7249869.5,-229.26901,0.0,0.0,0.0,0.0,0.0,0.0,0.0,0.0,0.0,0.0,0.104,0.040000003,0.018000001,-1.093565,0.0,0.0,0.0,0.0,0.0,0.0,0.0,inf,inf,inf,inf,1,1,1,1,0,0,0,0,0,0,1,1,0,0
21729920000,0,0,0.0,0.0,6451297.0,-7249869.5,-229.26901,0.0,0.0,0.0,0.0,0.0,0.0,0.0,0.0,0.0,0.0,0.142,0.074,-0.037,-1.0935609,0.0,0.0,0.0,0.0,0.0,0.0,0.0,inf,inf,inf,inf,1,1,1,1,0,0,0,0,0,0,1,1,0,0
21729936000,0,0,0.0,0.0,6451297.0,-7249869.5,-229.26901,0.0,0.0,0.0,0.0,0.0,0.0,0.0,0.0,0.0,0.0,-0.034,-0.002,0.74700004,-1.0935632,0.0,0.0,0.0,0.0,0.0,0.0,0.0,inf,inf,inf,inf,1,1,1,1,0,0,0,0,0,0,1,1,0,0
21729956000,0,0,0.0,0.0,6451297.0,-7249869.5,-229.26901,0.0,0.0,0.0,0.0,0.0,0.0,0.0,0.0,0.0,0.0,-0.116000004,-0.051000003,0.033,-1.0935619,0.0,0.0,0.0,0.0,0.0,0.0,0.0,inf,inf,inf,inf,1,1,1,1,0,0,0,0,0,0,1,1,0,0
21729980000,0,0,0.0,0.0,6451297.0,-7249869.5,-229.26901,0.0,0.0,0.0,0.0,0.0,0.0,0.0,0.0,0.0,0.0,0.097,0.038000003,0.024,-1.0935643,0.0,0.0,0.0,0.0,0.0,0.0,0.0,inf,inf,inf,inf,1,1,1,1,0,0,0,0,0,0,1,1,0,0
21729996000,0,0,0.0,0.0,6451297.0,-7249869.5,-229.26901,0.0,0.0,0.0,0.0,0.0,0.0,0.0,0.0,0.0,0.0,0.141,0.071,-0.26700002,-1.0935605,0.0,0.0,0.0,0.0,0.0,0.0,0.0,inf,inf,inf,inf,1,1,1,1,0,0,0,0,0,0,1,1,0,0
21730020000,0,0,0.0,0.0,6451297.0,-7249869.5,-229.26901,0.0,0.0,0.0,0.0,0.0,0.0,0.0,0.0,0.0,0.0,0.023000002,0.0050000004,-0.256,-1.0935608,0.0,0.0,0.0,0.0,0.0,0.0,0.0,inf,inf,inf,inf,1,1,1,1,0,0,0,0,0,0,1,1,0,0
21730040000,0,0,0.0,0.0,6451297.0,-7249869.5,-229.26901,0.0,0.0,0.0,0.0,0.0,0.0,0.0,0.0,0.0,0.0,-0.035,-0.002,0.74700004,-1.0935628,0.0,0.0,0.0,0.0,0.0,0.0,0.0,inf,inf,inf,inf,1,1,1,1,0,0,0,0,0,0,1,1,0,0
21730060000,0,0,0.0,0.0,6451297.0,-7249869.5,-229.26901,0.0,0.0,0.0,0.0,0.0,0.0,0.0,0.0,0.0,0.0,-0.112,-0.049000002,0.033,-1.0935614,0.0,0.0,0.0,0.0,0.0,0.0,0.0,inf,inf,inf,inf,1,1,1,1,0,0,0,0,0,0,1,1,0,0
21730080000,0,0,0.0,0.0,6451297.0,-7249869.5,-229.26901,0.0,0.0,0.0,0.0,0.0,0.0,0.0,0.0,0.0,0.0,-0.089,-0.038000003,0.115,-1.0935607,0.0,0.0,0.0,0.0,0.0,0.0,0.0,inf,inf,inf,inf,1,1,1,1,0,0,0,0,0,0,1,1,0,0
21730096000,0,0,0.0,0.0,6451297.0,-7249869.5,-229.26901,0.0,0.0,0.0,0.0,0.0,0.0,0.0,0.0,0.0,0.0,-0.015000001,-0.023000002,-0.60300004,-1.0935588,0.0,0.0,0.0,0.0,0.0,0.0,0.0,inf,inf,inf,inf,1,1,1,1,0,0,0,0,0,0,1,1,0,0
21730116000,0,0,0.0,0.0,6451297.0,-7249869.5,-229.26901,0.0,0.0,0.0,0.0,0.0,0.0,0.0,0.0,0.0,0.0,-0.033,-0.001,0.757,-1.0935631,0.0,0.0,0.0,0.0,0.0,0.0,0.0,inf,inf,inf,inf,1,1,1,1,0,0,0,0,0,0,1,1,0,0
21730136000,0,0,0.0,0.0,6451297.0,-7249869.5,-229.26901,0.0,0.0,0.0,0.0,0.0,0.0,0.0,0.0,0.0,0.0,0.098000005,0.037,0.024,-1.0935637,0.0,0.0,0.0,0.0,0.0,0.0,0.0,inf,inf,inf,inf,1,1,1,1,0,0,0,0,0,0,1,1,0,0
21730156000,0,0,0.0,0.0,6451297.0,-7249869.5,-229.26901,0.0,0.0,0.0,0.0,0.0,0.0,0.0,0.0,0.0,0.0,-0.086,-0.039,0.044000003,-1.0935612,0.0,0.0,0.0,0.0,0.0,0.0,0.0,inf,inf,inf,inf,1,1,1,1,0,0,0,0,0,0,1,1,0,0
21730176000,0,0,0.0,0.0,6451297.0,-7249869.5,-229.26901,0.0,0.0,0.0,0.0,0.0,0.0,0.0,0.0,0.0,0.0,0.023000002,0.006,-0.256,-1.0935602,0.0,0.0,0.0,0.0,0.0,0.0,0.0,inf,inf,inf,inf,1,1,1,1,0,0,0,0,0,0,1,1,0,0
21730196000,0,0,0.0,0.0,6451297.0,-7249869.5,-229.26901,0.0,0.0,0.0,0.0,0.0,0.0,0.0,0.0,0.0,0.0,-0.035,-0.002,0.74700004,-1.0935622,0.0,0.0,0.0,0.0,0.0,0.0,0.0,inf,inf,inf,inf,1,1,1,1,0,0,0,0,0,0,1,1,0,0
21730220000,0,0,0.0,0.0,6451297.0,-7249869.5,-229.26901,0.0,0.0,0.0,0.0,0.0,0.0,0.0,0.0,0.0,0.0,-0.032,-0.001,0.75500005,-1.0935626,0.0,0.0,0.0,0.0,0.0,0.0,0.0,inf,inf,inf,inf,1,1,1,1,0,0,0,0,0,0,1,1,0,0
21730236000,0,0,0.0,0.0,6451297.0,-7249869.5,-229.26901,0.0,0.0,0.0,0.0,0.0,0.0,0.0,0.0,0.0,0.0,-0.094000004,-0.041,0.115,-1.0935601,0.0,0.0,0.0,0.0,0.0,0.0,0.0,inf,inf,inf,inf,1,1,1,1,0,0,0,0,0,0,1,1,0,0
21730256000,0,0,0.0,0.0,6451297.0,-7249869.5,-229.26901,0.0,0.0,0.0,0.0,0.0,0.0,0.0,0.0,0.0,0.0,0.143,0.07300001,-0.266,-1.0935594,0.0,0.0,0.0,0.0,0.0,0.0,0.0,inf,inf,inf,inf,1,1,1,1,0,0,0,0,0,0,1,1,0,0
21730276000,0,0,0.0,0.0,6451297.0,-7249869.5,-229.26901,0.0,0.0,0.0,0.0,0.0,0.0,0.0,0.0,0.0,0.0,-0.014,-0.022000002,-0.60300004,-1.0935584,0.0,0.0,0.0,0.0,0.0,0.0,0.0,inf,inf,inf,inf,1,1,1,1,0,0,0,0,0,0,1,1,0,0
21730300000,0,0,0.0,0.0,6451297.0,-7249869.5,-229.26901,0.0,0.0,0.0,0.0,0.0,0.0,0.0,0.0,0.0,0.0,-0.034,-0.001,0.74600005,-1.0935618,0.0,0.0,0.0,0.0,0.0,0.0,0.0,inf,inf,inf,inf,1,1,1,1,0,0,0,0,0,0,1,1,0,0
21730320000,0,0,0.0,0.0,6451297.0,-7249869.5,-229.26901,0.0,0.0,0.0,0.0,0.0,0.0,0.0,0.0,0.0,0.0,-0.11400001,-0.05,0.033,-1.0935603,0.0,0.0,0.0,0.0,0.0,0.0,0.0,inf,inf,inf,inf,1,1,1,1,0,0,0,0,0,0,1,1,0,0
21730336000,0,0,0.0,0.0,6451297.0,-7249869.5,-229.26901,0.0,0.0,0.0,0.0,0.0,0.0,0.0,0.0,0.0,0.0,0.13900001,0.072000004,-0.040000003,-1.0935593,0.0,0.0,0.0,0.0,0.0,0.0,0.0,inf,inf,inf,inf,1,1,1,1,0,0,0,0,0,0,1,1,0,0
21730356000,0,0,0.0,0.0,6451297.0,-7249869.5,-229.26901,0.0,0.0,0.0,0.0,0.0,0.0,0.0,0.0,0.0,0.0,-0.015000001,-0.023000002,-0.60200006,-1.0935575,0.0,0.0,0.0,0.0,0.0,0.0,0.0,inf,inf,inf,inf,1,1,1,1,0,0,0,0,0,0,1,1,0,0
21730376000,0,0,0.0,0.0,6451297.0,-7249869.5,-229.26901,0.0,0.0,0.0,0.0,0.0,0.0,0.0,0.0,0.0,0.0,-0.031000001,0.0,0.75600004,-1.0935618,0.0,0.0,0.0,0.0,0.0,0.0,0.0,inf,inf,inf,inf,1,1,1,1,0,0,0,0,0,0,1,1,0,0
21730400000,0,0,0.0,0.0,6451297.0,-7249869.5,-229.26901,0.0,0.0,0.0,0.0,0.0,0.0,0.0,0.0,0.0,0.0,-0.115,-0.05,0.028,-1.0935593,0.0,0.0,0.0,0.0,0.0,0.0,0.0,inf,inf,inf,inf,1,1,1,1,0,0,0,0,0,0,1,1,0,0
21730420000,0,0,0.0,0.0,6451297.0,-7249869.5,-229.26901,0.0,0.0,0.0,0.0,0.0,0.0,0.0,0.0,0.0,0.0,0.1,0.039,0.019000001,-1.0935627,0.0,0.0,0.0,0.0,0.0,0.0,0.0,inf,inf,inf,inf,1,1,1,1,0,0,0,0,0,0,1,1,0,0
21730440000,0,0,0.0,0.0,6451297.0,-7249869.5,-229.26901,0.0,0.0,0.0,0.0,0.0,0.0,0.0,0.0,0.0,0.0,0.13800001,0.072000004,-0.041,-1.0935587,0.0,0.0,0.0,0.0,0.0,0.0,0.0,inf,inf,inf,inf,1,1,1,1,0,0,0,0,0,0,1,1,0,0
21730460000,0,0,0.0,0.0,6451297.0,-7249869.5,-229.26901,0.0,0.0,0.0,0.0,0.0,0.0,0.0,0.0,0.0,0.0,0.11100001,0.046000004,-0.65500003,-1.0935569,0.0,0.0,0.0,0.0,0.0,0.0,0.0,inf,inf,inf,inf,1,1,1,1,0,0,0,0,0,0,1,1,0,0
21730480000,0,0,0.0,0.0,6451297.0,-7249869.5,-229.26901,0.0,0.0,0.0,0.0,0.0,0.0,0.0,0.0,0.0,0.0,-0.015000001,-0.023000002,-0.59900004,-1.093559,0.0,0.0,0.0,0.0,0.0,0.0,0.0,inf,inf,inf,inf,1,1,1,1,0,0,0,0,0,0,1,1,0,0
21730500000,0,0,0.0,0.0,6451297.0,-7249869.5,-229.26901,0.0,0.0,0.0,0.0,0.0,0.0,0.0,0.0,0.0,0.0,-0.117000006,-0.051000003,0.030000001,-1.0935594,0.0,0.0,0.0,0.0,0.0,0.0,0.0,inf,inf,inf,inf,1,1,1,1,0,0,0,0,0,0,1,1,0,0
21730520000,0,0,0.0,0.0,6451297.0,-7249869.5,-229.26901,0.0,0.0,0.0,0.0,0.0,0.0,0.0,0.0,0.0,0.0,-0.09,-0.039,0.113000005,-1.0935583,0.0,0.0,0.0,0.0,0.0,0.0,0.0,inf,inf,inf,inf,1,1,1,1,0,0,0,0,0,0,1,1,0,0
21730540000,0,0,0.0,0.0,6451297.0,-7249869.5,-229.26901,0.0,0.0,0.0,0.0,0.0,0.0,0.0,0.0,0.0,0.0,0.143,0.07300001,-0.266,-1.0935577,0.0,0.0,0.0,0.0,0.0,0.0,0.0,inf,inf,inf,inf,1,1,1,1,0,0,0,0,0,0,1,1,0,0
21730560000,0,0,0.0,0.0,6451297.0,-7249869.5,-229.26901,0.0,0.0,0.0,0.0,0.0,0.0,0.0,0.0,0.0,0.0,-0.012,-0.021000002,-0.60200006,-1.0935566,0.0,0.0,0.0,0.0,0.0,0.0,0.0,inf,inf,inf,inf,1,1,1,1,0,0,0,0,0,0,1,1,0,0
21730580000,0,0,0.0,0.0,6451297.0,-7249869.5,-229.26901,0.0,0.0,0.0,0.0,0.0,0.0,0.0,0.0,0.0,0.0,-0.120000005,-0.051000003,0.028,-1.0935581,0.0,0.0,0.0,0.0,0.0,0.0,0.0,inf,inf,inf,inf,1,1,1,1,0,0,0,0,0,0,1,1,0,0
21730596000,0,0,0.0,0.0,6451297.0,-7249869.5,-229.26901,0.0,0.0,0.0,0.0,0.0,0.0,0.0,0.0,0.0,0.0,0.09900001,0.034,-0.040000003,-1.0935645,0.0,0.0,0.0,0.0,0.0,0.0,0.0,inf,inf,inf,inf,1,1,1,1,0,0,0,0,0,0,1,1,0,0
21730616000,0,0,0.0,0.0,6451297.0,-7249869.5,-229.26901,0.0,0.0,0.0,0.0,0.0,0.0,0.0,0.0,0.0,0.0,0.14,0.074,-0.035,-1.0935587,0.0,0.0,0.0,0.0,0.0,0.0,0.0,inf,inf,inf,inf,1,1,1,1,0,0,0,0,0,0,1,1,0,0
21730636000,0,0,0.0,0.0,6451297.0,-7249869.5,-229.26901,0.0,0.0,0.0,0.0,0.0,0.0,0.0,0.0,0.0,0.0,-0.015000001,-0.022000002,-0.60200006,-1.0935563,0.0,0.0,0.0,0.0,0.0,0.0,0.0,inf,inf,inf,inf,1,1,1,1,0,0,0,0,0,0,1,1,0,0
21730660000,0,0,0.0,0.0,6451297.0,-7249869.5,-229.26901,0.0,0.0,0.0,0.0,0.0,0.0,0.0,0.0,0.0,0.0,-0.035,-0.002,0.74500006,-1.0935594,0.0,0.0,0.0,0.0,0.0,0.0,0.0,inf,inf,inf,inf,1,1,1,1,0,0,0,0,0,0,1,1,0,0
21730676000,0,0,0.0,0.0,6451297.0,-7249869.5,-229.26901,0.0,0.0,0.0,0.0,0.0,0.0,0.0,0.0,0.0,0.0,-0.022000002,-0.031000001,-0.61600006,-1.0935599,0.0,0.0,0.0,0.0,0.0,0.0,0.0,inf,inf,inf,inf,1,1,1,1,0,0,0,0,0,0,1,1,0,0
21730696000,0,0,0.0,0.0,6451297.0,-7249869.5,-229.26901,0.0,0.0,0.0,0.0,0.0,0.0,0.0,0.0,0.0,0.0,-0.117000006,-0.05,0.034,-1.093559,0.0,0.0,0.0,0.0,0.0,0.0,0.0,inf,inf,inf,inf,1,1,1,1,0,0,0,0,0,0,1,1,0,0
21730716000,0,0,0.0,0.0,6451297.0,-7249869.5,-229.26901,0.0,0.0,0.0,0.0,0.0,0.0,0.0,0.0,0.0,0.0,-0.09,-0.038000003,0.116000004,-1.0935576,0.0,0.0,0.0,0.0,0.0,0.0,0.0,inf,inf,inf,inf,1,1,1,1,0,0,0,0,0,0,1,1,0,0
21730736000,0,0,0.0,0.0,6451297.0,-7249869.5,-229.26901,0.0,0.0,0.0,0.0,0.0,0.0,0.0,0.0,0.0,0.0,-0.059000004,-0.027,-0.141,-1.0935599,0.0,0.0,0.0,0.0,0.0,0.0,0.0,inf,inf,inf,inf,1,1,1,1,0,0,0,0,0,0,1,1,0,0
21730756000,0,0,0.0,0.0,6451297.0,-7249869.5,-229.26901,0.0,0.0,0.0,0.0,0.0,0.0,0.0,0.0,0.0,0.0,-0.09200001,-0.040000003,0.128,-1.0935595,0.0,0.0,0.0,0.0,0.0,0.0,0.0,inf,inf,inf,inf,1,1,1,1,0,0,0,0,0,0,1,1,0,0
21730776000,0,0,0.0,0.0,6451297.0,-7249869.5,-229.26901,0.0,0.0,0.0,0.0,0.0,0.0,0.0,0.0,0.0,0.0,0.022000002,0.006,-0.256,-1.0935577,0.0,0.0,0.0,0.0,0.0,0.0,0.0,inf,inf,inf,inf,1,1,1,1,0,0,0,0,0,0,1,1,0,0
21730796000,0,0,0.0,0.0,6451297.0,-7249869.5,-229.26901,0.0,0.0,0.0,0.0,0.0,0.0,0.0,0.0,0.0,0.0,-0.034,-0.002,0.74500006,-1.0935595,0.0,0.0,0.0,0.0,0.0,0.0,0.0,inf,inf,inf,inf,1,1,1,1,0,0,0,0,0,0,1,1,0,0
21730816000,0,0,0.0,0.0,6451297.0,-7249869.5,-229.26901,0.0,0.0,0.0,0.0,0.0,0.0,0.0,0.0,0.0,0.0,-0.033,-0.003,0.763,-1.0935621,0.0,0.0,0.0,0.0,0.0,0.0,0.0,inf,inf,inf,inf,1,1,1,1,0,0,0,0,0,0,1,1,0,0
21730840000,0,0,0.0,0.0,6451297.0,-7249869.5,-229.26901,0.0,0.0,0.0,0.0,0.0,0.0,0.0,0.0,0.0,0.0,-0.022000002,-0.027,-0.609,-1.0935569,0.0,0.0,0.0,0.0,0.0,0.0,0.0,inf,inf,inf,inf,1,1,1,1,0,0,0,0,0,0,1,1,0,0
21730860000,0,0,0.0,0.0,6451297.0,-7249869.5,-229.26901,0.0,0.0,0.0,0.0,0.0,0.0,0.0,0.0,0.0,0.0,-0.119,-0.052,0.030000001,-1.0935577,0.0,0.0,0.0,0.0,0.0,0.0,0.0,inf,inf,inf,inf,1,1,1,1,0,0,0,0,0,0,1,1,0,0
21730880000,0,0,0.0,0.0,6451297.0,-7249869.5,-229.26901,0.0,0.0,0.0,0.0,0.0,0.0,0.0,0.0,0.0,0.0,-0.12200001,-0.056,0.033,-1.0935608,0.0,0.0,0.0,0.0,0.0,0.0,0.0,inf,inf,inf,inf,1,1,1,1,0,0,0,0,0,0,1,1,0,0
21730900000,0,0,0.0,0.0,6451297.0,-7249869.5,-229.26901,0.0,0.0,0.0,0.0,0.0,0.0,0.0,0.0,0.0,0.0,-0.094000004,-0.040000003,0.11800001,-1.0935581,0.0,0.0,0.0,0.0,0.0,0.0,0.0,inf,inf,inf,inf,1,1,1,1,0,0,0,0,0,0,1,1,0,0
21730916000,0,0,0.0,0.0,6451297.0,-7249869.5,-229.26901,0.0,0.0,0.0,0.0,0.0,0.0,0.0,0.0,0.0,0.0,-0.015000001,-0.022000002,-0.60200006,-1.0935556,0.0,0.0,0.0,0.0,0.0,0.0,0.0,inf,inf,inf,inf,1,1,1,1,0,0,0,0,0,0,1,1,0,0
21730936000,0,0,0.0,0.0,6451297.0,-7249869.5,-229.26901,0.0,0.0,0.0,0.0,0.0,0.0,0.0,0.0,0.0,0.0,-0.029000001,0.0,0.754,-1.0935594,0.0,0.0,0.0,0.0,0.0,0.0,0.0,inf,inf,inf,inf,1,1,1,1,0,0,0,0,0,0,1,1,0,0
21730960000,0,0,0.0,0.0,6451297.0,-7249869.5,-229.26901,0.0,0.0,0.0,0.0,0.0,0.0,0.0,0.0,0.0,0.0,-0.116000004,-0.051000003,0.029000001,-1.0935569,0.0,0.0,0.0,0.0,0.0,0.0,0.0,inf,inf,inf,inf,1,1,1,1,0,0,0,0,0,0,1,1,0,0
21730980000,0,0,0.0,0.0,6451297.0,-7249869.5,-229.26901,0.0,0.0,0.0,0.0,0.0,0.0,0.0,0.0,0.0,0.0,-0.022000002,-0.031000001,-0.615,-1.093559,0.0,0.0,0.0,0.0,0.0,0.0,0.0,inf,inf,inf,inf,1,1,1,1,0,0,0,0,0,0,1,1,0,0
21731000000,0,0,0.0,0.0,6451297.0,-7249869.5,-229.26901,0.0,0.0,0.0,0.0,0.0,0.0,0.0,0.0,0.0,0.0,-0.119,-0.049000002,0.034,-1.0935583,0.0,0.0,0.0,0.0,0.0,0.0,0.0,inf,inf,inf,inf,1,1,1,1,0,0,0,0,0,0,1,1,0,0
21731020000,0,0,0.0,0.0,6451297.0,-7249869.5,-229.26901,0.0,0.0,0.0,0.0,0.0,0.0,0.0,0.0,0.0,0.0,-0.08800001,-0.037,0.11400001,-1.0935568,0.0,0.0,0.0,0.0,0.0,0.0,0.0,inf,inf,inf,inf,1,1,1,1,0,0,0,0,0,0,1,1,0,0
21731036000,0,0,0.0,0.0,6451297.0,-7249869.5,-229.26901,0.0,0.0,0.0,0.0,0.0,0.0,0.0,0.0,0.0,0.0,0.11000001,0.046000004,-0.65500003,-1.0935546,0.0,0.0,0.0,0.0,0.0,0.0,0.0,inf,inf,inf,inf,1,1,1,1,0,0,0,0,0,0,1,1,0,0
21731060000,0,0,0.0,0.0,6451297.0,-7249869.5,-229.26901,0.0,0.0,0.0,0.0,0.0,0.0,0.0,0.0,0.0,0.0,-0.094000004,-0.041,0.128,-1.0935585,0.0,0.0,0.0,0.0,0.0,0.0,0.0,inf,inf,inf,inf,1,1,1,1,0,0,0,0,0,0,1,1,0,0
21731080000,0,0,0.0,0.0,6451297.0,-7249869.5,-229.26901,0.0,0.0,0.0,0.0,0.0,0.0,0.0,0.0,0.0,0.0,0.141,0.072000004,-0.26500002,-1.0935566,0.0,0.0,0.0,0.0,0.0,0.0,0.0,inf,inf,inf,inf,1,1,1,1,0,0,0,0,0,0,1,1,0,0
21731096000,0,0,0.0,0.0,6451297.0,-7249869.5,-229.26901,0.0,0.0,0.0,0.0,0.0,0.0,0.0,0.0,0.0,0.0,-0.031000001,0.0,0.757,-1.0935593,0.0,0.0,0.0,0.0,0.0,0.0,0.0,inf,inf,inf,inf,1,1,1,1,0,0,0,0,0,0,1,1,0,0
21731116000,0,0,0.0,0.0,6451297.0,-7249869.5,-229.26901,0.0,0.0,0.0,0.0,0.0,0.0,0.0,0.0,0.0,0.0,0.097,0.036000002,0.025,-1.0935595,0.0,0.0,0.0,0.0,0.0,0.0,0.0,inf,inf,inf,inf,1,1,1,1,0,0,0,0,0,0,1,1,0,0
21731140000,0,0,0.0,0.0,6451297.0,-7249869.5,-229.26901,0.0,0.0,0.0,0.0,0.0,0.0,0.0,0.0,0.0,0.0,-0.022000002,-0.030000001,-0.615,-1.0935585,0.0,0.0,0.0,0.0,0.0,0.0,0.0,inf,inf,inf,inf,1,1,1,1,0,0,0,0,0,0,1,1,0,0
21731160000,0,0,0.0,0.0,6451297.0,-7249869.5,-229.26901,0.0,0.0,0.0,0.0,0.0,0.0,0.0,0.0,0.0,0.0,-0.120000005,-0.053000003,0.034,-1.0935577,0.0,0.0,0.0,0.0,0.0,0.0,0.0,inf,inf,inf,inf,1,1,1,1,0,0,0,0,0,0,1,1,0,0
21731180000,0,0,0.0,0.0,6451297.0,-7249869.5,-229.26901,0.0,0.0,0.0,0.0,0.0,0.0,0.0,0.0,0.0,0.0,-0.091000006,-0.040000003,0.115,-1.0935563,0.0,0.0,0.0,0.0,0.0,0.0,0.0,inf,inf,inf,inf,1,1,1,1,0,0,0,0,0,0,1,1,0,0
21731196000,0,0,0.0,0.0,6451297.0,-7249869.5,-229.26901,0.0,0.0,0.0,0.0,0.0,0.0,0.0,0.0,0.0,0.0,0.113000005,0.048,-0.65300006,-1.0935543,0.0,0.0,0.0,0.0,0.0,0.0,0.0,inf,inf,inf,inf,1,1,1,1,0,0,0,0,0,0,1,1,0,0
21731220000,0,0,0.0,0.0,6451297.0,-7249869.5,-229.26901,0.0,0.0,0.0,0.0,0.0,0.0,0.0,0.0,0.0,0.0,-0.098000005,-0.043,0.127,-1.093558,0.0,0.0,0.0,0.0,0.0,0.0,0.0,inf,inf,inf,inf,1,1,1,1,0,0,0,0,0,0,1,1,0,0
21731236000,0,0,0.0,0.0,6451297.0,-7249869.5,-229.26901,0.0,0.0,0.0,0.0,0.0,0.0,0.0,0.0,0.0,0.0,-0.014,-0.022000002,-0.60300004,-1.0935551,0.0,0.0,0.0,0.0,0.0,0.0,0.0,inf,inf,inf,inf,1,1,1,1,0,0,0,0,0,0,1,1,0,0
21731260000,0,0,0.0,0.0,6451297.0,-7249869.5,-229.26901,0.0,0.0,0.0,0.0,0.0,0.0,0.0,0.0,0.0,0.0,-0.014,-0.022000002,-0.60200006,-1.0935547,0.0,0.0,0.0,0.0,0.0,0.0,0.0,inf,inf,inf,inf,1,1,1,1,0,0,0,0,0,0,1,1,0,0
21731276000,0,0,0.0,0.0,6451297.0,-7249869.5,-229.26901,0.0,0.0,0.0,0.0,0.0,0.0,0.0,0.0,0.0,0.0,0.096,0.038000003,0.024,-1.0935589,0.0,0.0,0.0,0.0,0.0,0.0,0.0,inf,inf,inf,inf,1,1,1,1,0,0,0,0,0,0,1,1,0,0
21731300000,0,0,0.0,0.0,6451297.0,-7249869.5,-229.26901,0.0,0.0,0.0,0.0,0.0,0.0,0.0,0.0,0.0,0.0,-0.022000002,-0.031000001,-0.615,-1.0935581,0.0,0.0,0.0,0.0,0.0,0.0,0.0,inf,inf,inf,inf,1,1,1,1,0,0,0,0,0,0,1,1,0,0
21731316000,0,0,0.0,0.0,6451297.0,-7249869.5,-229.26901,0.0,0.0,0.0,0.0,0.0,0.0,0.0,0.0,0.0,0.0,0.097,0.038000003,0.032,-1.0935605,0.0,0.0,0.0,0.0,0.0,0.0,0.0,inf,inf,inf,inf,1,1,1,1,0,0,0,0,0,0,1,1,0,0
21731340000,0,0,0.0,0.0,6451297.0,-7249869.5,-229.26901,0.0,0.0,0.0,0.0,0.0,0.0,0.0,0.0,0.0,0.0,0.101,0.038000003,0.021000002,-1.0935599,0.0,0.0,0.0,0.0,0.0,0.0,0.0,inf,inf,inf,inf,1,1,1,1,0,0,0,0,0,0,1,1,0,0
21731360000,0,0,0.0,0.0,6451297.0,-7249869.5,-229.26901,0.0,0.0,0.0,0.0,0.0,0.0,0.0,0.0,0.0,0.0,0.13800001,0.072000004,-0.040000003,-1.0935553,0.0,0.0,0.0,0.0,0.0,0.0,0.0,inf,inf,inf,inf,1,1,1,1,0,0,0,0,0,0,1,1,0,0
21731380000,0,0,0.0,0.0,6451297.0,-7249869.5,-229.26901,0.0,0.0,0.0,0.0,0.0,0.0,0.0,0.0,0.0,0.0,0.109000005,0.046000004,-0.65500003,-1.0935534,0.0,0.0,0.0,0.0,0.0,0.0,0.0,inf,inf,inf,inf,1,1,1,1,0,0,0,0,0,0,1,1,0,0
21731400000,0,0,0.0,0.0,6451297.0,-7249869.5,-229.26901,0.0,0.0,0.0,0.0,0.0,0.0,0.0,0.0,0.0,0.0,0.136,0.07,-0.026,-1.0935575,0.0,0.0,0.0,0.0,0.0,0.0,0.0,inf,inf,inf,inf,1,1,1,1,0,0,0,0,0,0,1,1,0,0
21731420000,0,0,0.0,0.0,6451297.0,-7249869.5,-229.26901,0.0,0.0,0.0,0.0,0.0,0.0,0.0,0.0,0.0,0.0,-0.016,-0.023000002,-0.60200006,-1.0935541,0.0,0.0,0.0,0.0,0.0,0.0,0.0,inf,inf,inf,inf,1,1,1,1,0,0,0,0,0,0,1,1,0,0
21731440000,0,0,0.0,0.0,6451297.0,-7249869.5,-229.26901,0.0,0.0,0.0,0.0,0.0,0.0,0.0,0.0,0.0,0.0,-0.030000001,0.0,0.75600004,-1.0935578,0.0,0.0,0.0,0.0,0.0,0.0,0.0,inf,inf,inf,inf,1,1,1,1,0,0,0,0,0,0,1,1,0,0
21731460000,0,0,0.0,0.0,6451297.0,-7249869.5,-229.26901,0.0,0.0,0.0,0.0,0.0,0.0,0.0,0.0,0.0,0.0,-0.031000001,-0.003,0.77900004,-1.0935581,0.0,0.0,0.0,0.0,0.0,0.0,0.0,inf,inf,inf,inf,1,1,1,1,0,0,0,0,0,0,1,1,0,0
21731480000,0,0,0.0,0.0,6451297.0,-7249869.5,-229.26901,0.0,0.0,0.0,0.0,0.0,0.0,0.0,0.0,0.0,0.0,-0.120000005,-0.053000003,0.037,-1.093556,0.0,0.0,0.0,0.0,0.0,0.0,0.0,inf,inf,inf,inf,1,1,1,1,0,0,0,0,0,0,1,1,0,0
21731500000,0,0,0.0,0.0,6451297.0,-7249869.5,-229.26901,0.0,0.0,0.0,0.0,0.0,0.0,0.0,0.0,0.0,0.0,0.10300001,0.041,0.021000002,-1.093559,0.0,0.0,0.0,0.0,0.0,0.0,0.0,inf,inf,inf,inf,1,1,1,1,0,0,0,0,0,0,1,1,0,0
21731516000,0,0,0.0,0.0,6451297.0,-7249869.5,-229.26901,0.0,0.0,0.0,0.0,0.0,0.0,0.0,0.0,0.0,0.0,0.143,0.074,-0.26200002,-1.0935547,0.0,0.0,0.0,0.0,0.0,0.0,0.0,inf,inf,inf,inf,1,1,1,1,0,0,0,0,0,0,1,1,0,0
21731540000,0,0,0.0,0.0,6451297.0,-7249869.5,-229.26901,0.0,0.0,0.0,0.0,0.0,0.0,0.0,0.0,0.0,0.0,0.023000002,0.006,-0.25500003,-1.0935546,0.0,0.0,0.0,0.0,0.0,0.0,0.0,inf,inf,inf,inf,1,1,1,1,0,0,0,0,0,0,1,1,0,0
21731560000,0,0,0.0,0.0,6451297.0,-7249869.5,-229.26901,0.0,0.0,0.0,0.0,0.0,0.0,0.0,0.0,0.0,0.0,-0.034,-0.002,0.74500006,-1.0935563,0.0,0.0,0.0,0.0,0.0,0.0,0.0,inf,inf,inf,inf,1,1,1,1,0,0,0,0,0,0,1,1,0,0
21731580000,0,0,0.0,0.0,6451297.0,-7249869.5,-229.26901,0.0,0.0,0.0,0.0,0.0,0.0,0.0,0.0,0.0,0.0,0.016,0.0,-0.24900001,-1.0935574,0.0,0.0,0.0,0.0,0.0,0.0,0.0,inf,inf,inf,inf,1,1,1,1,0,0,0,0,0,0,1,1,0,0
21731596000,0,0,0.0,0.0,6451297.0,-7249869.5,-229.26901,0.0,0.0,0.0,0.0,0.0,0.0,0.0,0.0,0.0,0.0,-0.119,-0.05,0.034,-1.0935558,0.0,0.0,0.0,0.0,0.0,0.0,0.0,inf,inf,inf,inf,1,1,1,1,0,0,0,0,0,0,1,1,0,0
21731620000,0,0,0.0,0.0,6451297.0,-7249869.5,-229.26901,0.0,0.0,0.0,0.0,0.0,0.0,0.0,0.0,0.0,0.0,-0.113000005,-0.051000003,0.036000002,-1.0935553,0.0,0.0,0.0,0.0,0.0,0.0,0.0,inf,inf,inf,inf,1,1,1,1,0,0,0,0,0,0,1,1,0,0
21731640000,0,0,0.0,0.0,6451297.0,-7249869.5,-229.26901,0.0,0.0,0.0,0.0,0.0,0.0,0.0,0.0,0.0,0.0,-0.026,-0.001,0.78200006,-1.0935583,0.0,0.0,0.0,0.0,0.0,0.0,0.0,inf,inf,inf,inf,1,1,1,1,0,0,0,0,0,0,1,1,0,0
21731660000,0,0,0.0,0.0,6451297.0,-7249869.5,-229.26901,0.0,0.0,0.0,0.0,0.0,0.0,0.0,0.0,0.0,0.0,0.095000006,0.036000002,0.029000001,-1.0935578,0.0,0.0,0.0,0.0,0.0,0.0,0.0,inf,inf,inf,inf,1,1,1,1,0,0,0,0,0,0,1,1,0,0
21731676000,0,0,0.0,0.0,6451297.0,-7249869.5,-229.26901,0.0,0.0,0.0,0.0,0.0,0.0,0.0,0.0,0.0,0.0,-0.060000002,-0.025,-0.141,-1.0935568,0.0,0.0,0.0,0.0,0.0,0.0,0.0,inf,inf,inf,inf,1,1,1,1,0,0,0,0,0,0,1,1,0,0
21731696000,0,0,0.0,0.0,6451297.0,-7249869.5,-229.26901,0.0,0.0,0.0,0.0,0.0,0.0,0.0,0.0,0.0,0.0,0.023000002,0.0050000004,-0.252,-1.0935553,0.0,0.0,0.0,0.0,0.0,0.0,0.0,inf,inf,inf,inf,1,1,1,1,0,0,0,0,0,0,1,1,0,0
21731720000,0,0,0.0,0.0,6451297.0,-7249869.5,-229.26901,0.0,0.0,0.0,0.0,0.0,0.0,0.0,0.0,0.0,0.0,0.136,0.071,-0.036000002,-1.0935543,0.0,0.0,0.0,0.0,0.0,0.0,0.0,inf,inf,inf,inf,1,1,1,1,0,0,0,0,0,0,1,1,0,0
21731740000,0,0,0.0,0.0,6451297.0,-7249869.5,-229.26901,0.0,0.0,0.0,0.0,0.0,0.0,0.0,0.0,0.0,0.0,0.10700001,0.045,-0.657,-1.0935521,0.0,0.0,0.0,0.0,0.0,0.0,0.0,inf,inf,inf,inf,1,1,1,1,0,0,0,0,0,0,1,1,0,0
21731760000,0,0,0.0,0.0,6451297.0,-7249869.5,-229.26901,0.0,0.0,0.0,0.0,0.0,0.0,0.0,0.0,0.0,0.0,-0.017,-0.024,-0.59800005,-1.0935541,0.0,0.0,0.0,0.0,0.0,0.0,0.0,inf,inf,inf,inf,1,1,1,1,0,0,0,0,0,0,1,1,0,0
21731776000,0,0,0.0,0.0,6451297.0,-7249869.5,-229.26901,0.0,0.0,0.0,0.0,0.0,0.0,0.0,0.0,0.0,0.0,-0.028,-0.002,0.781,-1.0935574,0.0,0.0,0.0,0.0,0.0,0.0,0.0,inf,inf,inf,inf,1,1,1,1,0,0,0,0,0,0,1,1,0,0
21731796000,0,0,0.0,0.0,6451297.0,-7249869.5,-229.26901,0.0,0.0,0.0,0.0,0.0,0.0,0.0,0.0,0.0,0.0,-0.119,-0.051000003,0.037,-1.0935549,0.0,0.0,0.0,0.0,0.0,0.0,0.0,inf,inf,inf,inf,1,1,1,1,0,0,0,0,0,0,1,1,0,0
21731820000,0,0,0.0,0.0,6451297.0,-7249869.5,-229.26901,0.0,0.0,0.0,0.0,0.0,0.0,0.0,0.0,0.0,0.0,-0.117000006,-0.052,0.036000002,-1.0935545,0.0,0.0,0.0,0.0,0.0,0.0,0.0,inf,inf,inf,inf,1,1,1,1,0,0,0,0,0,0,1,1,0,0
21731840000,0,0,0.0,0.0,6451297.0,-7249869.5,-229.26901,0.0,0.0,0.0,0.0,0.0,0.0,0.0,0.0,0.0,0.0,0.102000006,0.041,0.021000002,-1.0935574,0.0,0.0,0.0,0.0,0.0,0.0,0.0,inf,inf,inf,inf,1,1,1,1,0,0,0,0,0,0,1,1,0,0
21731856000,0,0,0.0,0.0,6451297.0,-7249869.5,-229.26901,0.0,0.0,0.0,0.0,0.0,0.0,0.0,0.0,0.0,0.0,0.14400001,0.074,-0.26200002,-1.0935531,0.0,0.0,0.0,0.0,0.0,0.0,0.0,inf,inf,inf,inf,1,1,1,1,0,0,0,0,0,0,1,1,0,0
21731880000,0,0,0.0,0.0,6451297.0,-7249869.5,-229.26901,0.0,0.0,0.0,0.0,0.0,0.0,0.0,0.0,0.0,0.0,-0.098000005,-0.043,0.124000005,-1.0935538,0.0,0.0,0.0,0.0,0.0,0.0,0.0,inf,inf,inf,inf,1,1,1,1,0,0,0,0,0,0,1,1,0,0
21731900000,0,0,0.0,0.0,6451297.0,-7249869.5,-229.26901,0.0,0.0,0.0,0.0,0.0,0.0,0.0,0.0,0.0,0.0,-0.065000005,-0.028,-0.141,-1.0935558,0.0,0.0,0.0,0.0,0.0,0.0,0.0,inf,inf,inf,inf,1,1,1,1,0,0,0,0,0,0,1,1,0,0
21731920000,0,0,0.0,0.0,6451297.0,-7249869.5,-229.26901,0.0,0.0,0.0,0.0,0.0,0.0,0.0,0.0,0.0,0.0,0.022000002,0.006,-0.252,-1.0935545,0.0,0.0,0.0,0.0,0.0,0.0,0.0,inf,inf,inf,inf,1,1,1,1,0,0,0,0,0,0,1,1,0,0
21731940000,0,0,0.0,0.0,6451297.0,-7249869.5,-229.26901,0.0,0.0,0.0,0.0,0.0,0.0,0.0,0.0,0.0,0.0,0.017,0.003,-0.257,-1.0935537,0.0,0.0,0.0,0.0,0.0,0.0,0.0,inf,inf,inf,inf,1,1,1,1,0,0,0,0,0,0,1,1,0,0
21731956000,0,0,0.0,0.0,6451297.0,-7249869.5,-229.26901,0.0,0.0,0.0,0.0,0.0,0.0,0.0,0.0,0.0,0.0,-0.117000006,-0.052,0.031000001,-1.0935534,0.0,0.0,0.0,0.0,0.0,0.0,0.0,inf,inf,inf,inf,1,1,1,1,0,0,0,0,0,0,1,1,0,0
21731980000,0,0,0.0,0.0,6451297.0,-7249869.5,-229.26901,0.0,0.0,0.0,0.0,0.0,0.0,0.0,0.0,0.0,0.0,-0.035,-0.004,0.76500005,-1.0935576,0.0,0.0,0.0,0.0,0.0,0.0,0.0,inf,inf,inf,inf,1,1,1,1,0,0,0,0,0,0,1,1,0,0
21731996000,0,0,0.0,0.0,6451297.0,-7249869.5,-229.26901,0.0,0.0,0.0,0.0,0.0,0.0,0.0,0.0,0.0,0.0,-0.08800001,-0.036000002,0.117000006,-1.0935535,0.0,0.0,0.0,0.0,0.0,0.0,0.0,inf,inf,inf,inf,1,1,1,1,0,0,0,0,0,0,1,1,0,0
21732016000,0,0,0.0,0.0,6451297.0,-7249869.5,-229.26901,0.0,0.0,0.0,0.0,0.0,0.0,0.0,0.0,0.0,0.0,0.09900001,0.037,0.024,-1.0935571,0.0,0.0,0.0,0.0,0.0,0.0,0.0,inf,inf,inf,inf,1,1,1,1,0,0,0,0,0,0,1,1,0,0
21732036000,0,0,0.0,0.0,6451297.0,-7249869.5,-229.26901,0.0,0.0,0.0,0.0,0.0,0.0,0.0,0.0,0.0,0.0,-0.082,-0.037,0.048,-1.0935537,0.0,0.0,0.0,0.0,0.0,0.0,0.0,inf,inf,inf,inf,1,1,1,1,0,0,0,0,0,0,1,1,0,0
21732060000,0,0,0.0,0.0,6451297.0,-7249869.5,-229.26901,0.0,0.0,0.0,0.0,0.0,0.0,0.0,0.0,0.0,0.0,-0.083000004,-0.038000003,0.049000002,-1.0935534,0.0,0.0,0.0,0.0,0.0,0.0,0.0,inf,inf,inf,inf,1,1,1,1,0,0,0,0,0,0,1,1,0,0
21732076000,0,0,0.0,0.0,6451297.0,-7249869.5,-229.26901,0.0,0.0,0.0,0.0,0.0,0.0,0.0,0.0,0.0,0.0,-0.015000001,-0.023000002,-0.601,-1.0935509,0.0,0.0,0.0,0.0,0.0,0.0,0.0,inf,inf,inf,inf,1,1,1,1,0,0,0,0,0,0,1,1,0,0
21732096000,0,0,0.0,0.0,6451297.0,-7249869.5,-229.26901,0.0,0.0,0.0,0.0,0.0,0.0,0.0,0.0,0.0,0.0,0.019000001,0.003,-0.25300002,-1.093553,0.0,0.0,0.0,0.0,0.0,0.0,0.0,inf,inf,inf,inf,1,1,1,1,0,0,0,0,0,0,1,1,0,0
21732116000,0,0,0.0,0.0,6451297.0,-7249869.5,-229.26901,0.0,0.0,0.0,0.0,0.0,0.0,0.0,0.0,0.0,0.0,-0.033,-0.002,0.75200003,-1.0935544,0.0,0.0,0.0,0.0,0.0,0.0,0.0,inf,inf,inf,inf,1,1,1,1,0,0,0,0,0,0,1,1,0,0
21732136000,0,0,0.0,0.0,6451297.0,-7249869.5,-229.26901,0.0,0.0,0.0,0.0,0.0,0.0,0.0,0.0,0.0,0.0,0.016,0.0,-0.24900001,-1.0935552,0.0,0.0,0.0,0.0,0.0,0.0,0.0,inf,inf,inf,inf,1,1,1,1,0,0,0,0,0,0,1,1,0,0
21732156000,0,0,0.0,0.0,6451297.0,-7249869.5,-229.26901,0.0,0.0,0.0,0.0,0.0,0.0,0.0,0.0,0.0,0.0,-0.034,-0.001,0.75500005,-1.0935552,0.0,0.0,0.0,0.0,0.0,0.0,0.0,inf,inf,inf,inf,1,1,1,1,0,0,0,0,0,0,1,1,0,0
21732176000,0,0,0.0,0.0,6451297.0,-7249869.5,-229.26901,0.0,0.0,0.0,0.0,0.0,0.0,0.0,0.0,0.0,0.0,-0.115,-0.052,0.036000002,-1.0935531,0.0,0.0,0.0,0.0,0.0,0.0,0.0,inf,inf,inf,inf,1,1,1,1,0,0,0,0,0,0,1,1,0,0
21732200000,0,0,0.0,0.0,6451297.0,-7249869.5,-229.26901,0.0,0.0,0.0,0.0,0.0,0.0,0.0,0.0,0.0,0.0,-0.019000001,-0.027,-0.61,-1.0935518,0.0,0.0,0.0,0.0,0.0,0.0,0.0,inf,inf,inf,inf,1,1,1,1,0,0,0,0,0,0,1,1,0,0
21732220000,0,0,0.0,0.0,6451297.0,-7249869.5,-229.26901,0.0,0.0,0.0,0.0,0.0,0.0,0.0,0.0,0.0,0.0,-0.12200001,-0.052,0.032,-1.0935525,0.0,0.0,0.0,0.0,0.0,0.0,0.0,inf,inf,inf,inf,1,1,1,1,0,0,0,0,0,0,1,1,0,0
