timestamp,timestamp_sample,q[0],q[1],q[2],q[3],delta_q_reset[0],delta_q_reset[1],delta_q_reset[2],delta_q_reset[3],quat_reset_counter
21726824000,21726824000,0.8599467,0.00074015895,-0.0028358647,-0.5103756,0.9994659,-3.3122752e-10,-5.5297705e-10,0.03268201,47
21727324000,21727324000,0.8599768,0.0007868625,-0.0027984092,-0.5103249,0.9994659,-3.3122752e-10,-5.5297705e-10,0.03268201,47
21727824000,21727824000,0.85998476,0.00078824913,-0.0029377546,-0.51031077,0.9994659,-3.3122752e-10,-5.5297705e-10,0.03268201,47
21728324000,21728324000,0.8600032,0.0008306752,-0.0029448404,-0.51027966,0.9994659,-3.3122752e-10,-5.5297705e-10,0.03268201,47
21728824000,21728824000,0.8600333,0.0009246974,-0.0031197935,-0.5102278,0.9994659,-3.3122752e-10,-5.5297705e-10,0.03268201,47
21729324000,21729324000,0.85993737,0.0010652367,-0.003206076,-0.5103884,0.9994659,-3.3122752e-10,-5.5297705e-10,0.03268201,47
21729824000,21729824000,0.8599348,0.0012354486,-0.0031544226,-0.5103928,0.9994659,-3.3122752e-10,-5.5297705e-10,0.03268201,47
21730324000,21730324000,0.85991484,0.001387492,-0.0029804066,-0.5104271,0.9994659,-3.3122752e-10,-5.5297705e-10,0.03268201,47
21730824000,21730824000,0.8600414,0.0014396885,-0.0030060948,-0.5102135,0.9994659,-3.3122752e-10,-5.5297705e-10,0.03268201,47
21731324000,21731324000,0.8600212,0.0014240508,-0.0030634897,-0.51024735,0.9994659,-3.3122752e-10,-5.5297705e-10,0.03268201,47
21731824000,21731824000,0.85999125,0.0015869351,-0.0028875333,-0.5102982,0.9994659,-3.3122752e-10,-5.5297705e-10,0.03268201,47
21732324000,21732324000,0.8598786,0.0013982143,-0.002797743,-0.510489,0.9994659,-3.3122752e-10,-5.5297705e-10,0.03268201,47
21732824000,21732824000,0.8600414,0.0014968772,-0.0029147023,-0.5102138,0.9994659,-3.3122752e-10,-5.5297705e-10,0.03268201,47
21733324000,21733324000,0.8601437,0.0014551008,-0.0029309099,-0.5100412,0.9994659,-3.3122752e-10,-5.5297705e-10,0.03268201,47
21733824000,21733824000,0.8603971,0.0017495211,-0.0024159322,-0.5096155,0.9994659,-3.3122752e-10,-5.5297705e-10,0.03268201,47
21734324000,21734324000,0.85999423,0.0010853295,0.001903712,-0.51029897,0.9994659,-3.3122752e-10,-5.5297705e-10,0.03268201,47
21734824000,21734824000,0.8600238,0.0022115628,-0.00353921,-0.51023704,0.9994659,-3.3122752e-10,-5.5297705e-10,0.03268201,47
21735324000,21735324000,0.86014295,0.0030551648,-0.0035385175,-0.51003176,0.9994659,-3.3122752e-10,-5.5297705e-10,0.03268201,47
21735824000,21735824000,0.8759994,0.0032578576,-0.0021143742,-0.48229676,0.99920654,-1.03266035e-10,-2.4347716e-10,0.039827988,48
21736324000,21736324000,0.8713256,0.004158614,-0.00068526895,-0.49068725,0.99920654,-1.03266035e-10,-2.4347716e-10,0.039827988,48
21736824000,21736824000,0.86880904,0.004025514,0.00061114714,-0.49513066,0.99920654,-1.03266035e-10,-2.4347716e-10,0.039827988,48
21737324000,21737324000,0.8674076,0.004868352,0.00020947243,-0.49757433,0.99920654,-1.03266035e-10,-2.4347716e-10,0.039827988,48
21737824000,21737824000,0.866286,0.006283456,0.0020792016,-0.49950454,0.99920654,-1.03266035e-10,-2.4347716e-10,0.039827988,48
21738324000,21738324000,0.8640226,0.03222451,0.016327554,-0.5021554,0.99920654,-1.03266035e-10,-2.4347716e-10,0.039827988,48
21738824000,21738824000,0.8576779,0.093646064,0.052609563,-0.50284344,0.99920654,-1.03266035e-10,-2.4347716e-10,0.039827988,48
21739324000,21739324000,0.8489753,0.10352269,0.16690353,-0.49057862,0.99920654,-1.03266035e-10,-2.4347716e-10,0.039827988,48
21739824000,21739824000,0.84865344,0.0961416,0.16915005,-0.49186635,0.99920654,-1.03266035e-10,-2.4347716e-10,0.039827988,48
21740324000,21740324000,0.84838384,0.09719213,0.16281137,-0.4942581,0.99920654,-1.03266035e-10,-2.4347716e-10,0.039827988,48
21740824000,21740824000,0.8482539,0.09957728,0.16442409,-0.49347183,0.99920654,-1.03266035e-10,-2.4347716e-10,0.039827988,48
21741324000,21741324000,0.84767586,0.10152485,0.16769567,-0.49296707,0.99920654,-1.03266035e-10,-2.4347716e-10,0.039827988,48
21741824000,21741824000,0.84745616,0.10282516,0.17095956,-0.49195325,0.99920654,-1.03266035e-10,-2.4347716e-10,0.039827988,48
21742324000,21742324000,0.8470295,0.10444365,0.17406747,-0.49125674,0.99920654,-1.03266035e-10,-2.4347716e-10,0.039827988,48
21742824000,21742824000,0.846596,0.105745286,0.17674792,-0.49076816,0.99920654,-1.03266035e-10,-2.4347716e-10,0.039827988,48
21743324000,21743324000,0.84614086,0.10730351,0.1785837,-0.49055028,0.99920654,-1.03266035e-10,-2.4347716e-10,0.039827988,48
21743824000,21743824000,0.84584576,0.10779116,0.18106082,-0.49004394,0.99920654,-1.03266035e-10,-2.4347716e-10,0.039827988,48
21744324000,21744324000,0.8453278,0.10945403,0.18238342,-0.49007887,0.99920654,-1.03266035e-10,-2.4347716e-10,0.039827988,48
21744824000,21744824000,0.84502774,0.109749146,0.184244,-0.48983404,0.99920654,-1.03266035e-10,-2.4347716e-10,0.039827988,48
21745324000,21745324000,0.8446289,0.11055279,0.1856959,-0.48979318,0.99920654,-1.03266035e-10,-2.4347716e-10,0.039827988,48
21745824000,21745824000,0.8443599,0.110863924,0.18705727,-0.4896686,0.99920654,-1.03266035e-10,-2.4347716e-10,0.039827988,48
21746324000,21746324000,0.8441024,0.11152876,0.18820308,-0.48952255,0.99920654,-1.03266035e-10,-2.4347716e-10,0.039827988,48
21746824000,21746824000,0.8439989,0.11188784,0.1890348,-0.48929825,0.99920654,-1.03266035e-10,-2.4347716e-10,0.039827988,48
21747324000,21747324000,0.84376323,0.11275933,0.18977514,-0.4892181,0.99920654,-1.03266035e-10,-2.4347716e-10,0.039827988,48
21747824000,21747824000,0.8437672,0.11290084,0.1906078,-0.48885468,0.99920654,-1.03266035e-10,-2.4347716e-10,0.039827988,48
21748324000,21748324000,0.84342694,0.11315314,0.19155505,-0.4890134,0.99920654,-1.03266035e-10,-2.4347716e-10,0.039827988,48
21748824000,21748824000,0.84336835,0.113446884,0.1919174,-0.48890424,0.99920654,-1.03266035e-10,-2.4347716e-10,0.039827988,48
21749324000,21749324000,0.8433028,0.1141137,0.19240919,-0.48866904,0.99920654,-1.03266035e-10,-2.4347716e-10,0.039827988,48
21749824000,21749824000,0.84336656,0.11292127,0.19359879,-0.48836592,0.99920654,-1.03266035e-10,-2.4347716e-10,0.039827988,48
21750324000,21750324000,0.84315604,0.11451634,0.19327709,-0.48848546,0.99920654,-1.03266035e-10,-2.4347716e-10,0.039827988,48
21750824000,21750824000,0.84310246,0.114482485,0.19369663,-0.4884197,0.99920654,-1.03266035e-10,-2.4347716e-10,0.039827988,48
21751324000,21751324000,0.8431067,0.11367953,0.19462843,-0.48822936,0.99920654,-1.03266035e-10,-2.4347716e-10,0.039827988,48
21751824000,21751824000,0.84284455,0.11461134,0.19462493,-0.48846552,0.99920654,-1.03266035e-10,-2.4347716e-10,0.039827988,48
21752324000,21752324000,0.8429651,0.114431076,0.19487236,-0.48820102,0.99920654,-1.03266035e-10,-2.4347716e-10,0.039827988,48
21752824000,21752824000,0.84293216,0.114529245,0.19518189,-0.48811126,0.99920654,-1.03266035e-10,-2.4347716e-10,0.039827988,48
21753324000,21753324000,0.8428793,0.11484131,0.19499172,-0.4882053,0.99920654,-1.03266035e-10,-2.4347716e-10,0.039827988,48
21753824000,21753824000,0.84283805,0.114995845,0.19533385,-0.48810315,0.99920654,-1.03266035e-10,-2.4347716e-10,0.039827988,48
21754324000,21754324000,0.8427981,0.11490363,0.19556212,-0.48810253,0.99920654,-1.03266035e-10,-2.4347716e-10,0.039827988,48
21754824000,21754824000,0.84273434,0.11463293,0.19591403,-0.4881351,0.99920654,-1.03266035e-10,-2.4347716e-10,0.039827988,48
21755324000,21755324000,0.8427712,0.114931814,0.19542567,-0.48819694,0.99920654,-1.03266035e-10,-2.4347716e-10,0.039827988,48
21755824000,21755824000,0.84270495,0.11458144,0.19603139,-0.48815078,0.99920654,-1.03266035e-10,-2.4347716e-10,0.039827988,48
21756324000,21756324000,0.8426094,0.11492412,0.19599758,-0.48824874,0.99920654,-1.03266035e-10,-2.4347716e-10,0.039827988,48
21756824000,21756824000,0.8426333,0.11555042,0.19554816,-0.48823994,0.99920654,-1.03266035e-10,-2.4347716e-10,0.039827988,48
21757324000,21757324000,0.84261996,0.115342736,0.19587395,-0.48818147,0.99920654,-1.03266035e-10,-2.4347716e-10,0.039827988,48
21757824000,21757824000,0.8426127,0.11542918,0.19569884,-0.48824364,0.99920654,-1.03266035e-10,-2.4347716e-10,0.039827988,48
21758324000,21758324000,0.8427094,0.11517353,0.19576916,-0.48810887,0.99920654,-1.03266035e-10,-2.4347716e-10,0.039827988,48
21758824000,21758824000,0.8426454,0.11500921,0.19592553,-0.48819542,0.99920654,-1.03266035e-10,-2.4347716e-10,0.039827988,48
21759324000,21759324000,0.84258294,0.115149856,0.19589305,-0.48828328,0.99920654,-1.03266035e-10,-2.4347716e-10,0.039827988,48
21759824000,21759824000,0.8425916,0.115539774,0.195873,-0.4881842,0.99920654,-1.03266035e-10,-2.4347716e-10,0.039827988,48
21760324000,21760324000,0.8425857,0.11537222,0.19572388,-0.48829386,0.99920654,-1.03266035e-10,-2.4347716e-10,0.039827988,48
21760824000,21760824000,0.84264433,0.11507115,0.19599763,-0.4881538,0.99920654,-1.03266035e-10,-2.4347716e-10,0.039827988,48
21761324000,21761324000,0.842606,0.11531065,0.19609131,-0.48812577,0.99920654,-1.03266035e-10,-2.4347716e-10,0.039827988,48
21761824000,21761824000,0.84255654,0.11536655,0.19600998,-0.4882307,0.99920654,-1.03266035e-10,-2.4347716e-10,0.039827988,48
21762324000,21762324000,0.8425673,0.115704276,0.19578607,-0.48822182,0.99920654,-1.03266035e-10,-2.4347716e-10,0.039827988,48
21762824000,21762824000,0.8426099,0.115127176,0.19626106,-0.4880942,0.99920654,-1.03266035e-10,-2.4347716e-10,0.039827988,48
21763324000,21763324000,0.84260666,0.11549652,0.19583564,-0.4881835,0.99920654,-1.03266035e-10,-2.4347716e-10,0.039827988,48
21763824000,21763824000,0.8426547,0.11471859,0.19640401,-0.48805556,0.99920654,-1.03266035e-10,-2.4347716e-10,0.039827988,48
21764324000,21764324000,0.84252816,0.11539946,0.19615087,-0.4882152,0.99920654,-1.03266035e-10,-2.4347716e-10,0.039827988,48
21764824000,21764824000,0.8425749,0.115105465,0.19596435,-0.4882789,0.99920654,-1.03266035e-10,-2.4347716e-10,0.039827988,48
21765324000,21765324000,0.8426375,0.11491796,0.19598213,-0.48820806,0.99920654,-1.03266035e-10,-2.4347716e-10,0.039827988,48
21765824000,21765824000,0.8427002,0.11489014,0.19603066,-0.48808673,0.99920654,-1.03266035e-10,-2.4347716e-10,0.039827988,48
21766324000,21766324000,0.8424107,0.11580579,0.19605848,-0.48835886,0.99920654,-1.03266035e-10,-2.4347716e-10,0.039827988,48
21766824000,21766824000,0.84261924,0.11509277,0.1960415,-0.48817435,0.99920654,-1.03266035e-10,-2.4347716e-10,0.039827988,48
21767324000,21767324000,0.8424138,0.115725994,0.19594935,-0.4884162,0.99920654,-1.03266035e-10,-2.4347716e-10,0.039827988,48
21767824000,21767824000,0.84254736,0.115040034,0.1965543,-0.48810476,0.99920654,-1.03266035e-10,-2.4347716e-10,0.039827988,48
21768324000,21768324000,0.8424499,0.11558997,0.1961469,-0.4883069,0.99920654,-1.03266035e-10,-2.4347716e-10,0.039827988,48
21768824000,21768824000,0.8425429,0.1154319,0.1962751,-0.48813233,0.99920654,-1.03266035e-10,-2.4347716e-10,0.039827988,48
21769324000,21769324000,0.8426227,0.11543357,0.19597797,-0.48811352,0.99920654,-1.03266035e-10,-2.4347716e-10,0.039827988,48
21769824000,21769824000,0.84259516,0.11523955,0.19607499,-0.48816794,0.99920654,-1.03266035e-10,-2.4347716e-10,0.039827988,48
21770324000,21770324000,0.84253925,0.11523027,0.19641589,-0.48812953,0.99920654,-1.03266035e-10,-2.4347716e-10,0.039827988,48
21770824000,21770824000,0.8426254,0.115171425,0.19610365,-0.48812044,0.99920654,-1.03266035e-10,-2.4347716e-10,0.039827988,48
21771324000,21771324000,0.8426207,0.11529283,0.19615702,-0.48807842,0.99920654,-1.03266035e-10,-2.4347716e-10,0.039827988,48
21771824000,21771824000,0.84256923,0.11523462,0.19627859,-0.48813203,0.99920654,-1.03266035e-10,-2.4347716e-10,0.039827988,48
21772324000,21772324000,0.8425281,0.11541812,0.19633257,-0.48813793,0.99920654,-1.03266035e-10,-2.4347716e-10,0.039827988,48
21772824000,21772824000,0.84251267,0.11550488,0.19621414,-0.48819157,0.99920654,-1.03266035e-10,-2.4347716e-10,0.039827988,48
21773324000,21773324000,0.8424144,0.115564816,0.19633314,-0.4882994,0.99920654,-1.03266035e-10,-2.4347716e-10,0.039827988,48
21773824000,21773824000,0.8424695,0.11510364,0.19648492,-0.488252,0.99920654,-1.03266035e-10,-2.4347716e-10,0.039827988,48
21774324000,21774324000,0.8424957,0.11538059,0.1963276,-0.48820472,0.99920654,-1.03266035e-10,-2.4347716e-10,0.039827988,48
21774824000,21774824000,0.8425896,0.11501353,0.19645658,-0.4880774,0.99920654,-1.03266035e-10,-2.4347716e-10,0.039827988,48
21775324000,21775324000,0.8424411,0.11572616,0.19608544,-0.48831442,0.99920654,-1.03266035e-10,-2.4347716e-10,0.039827988,48
21775824000,21775824000,0.8425056,0.11529734,0.19650964,-0.4881341,0.99920654,-1.03266035e-10,-2.4347716e-10,0.039827988,48
21776324000,21776324000,0.8425896,0.11493207,0.1966709,-0.48801014,0.99920654,-1.03266035e-10,-2.4347716e-10,0.039827988,48
21776824000,21776824000,0.84257877,0.11572789,0.19620468,-0.48802853,0.99920654,-1.03266035e-10,-2.4347716e-10,0.039827988,48
21777324000,21777324000,0.8424319,0.11575502,0.19661106,-0.48811197,0.99920654,-1.03266035e-10,-2.4347716e-10,0.039827988,48
21777824000,21777824000,0.84248406,0.11605431,0.19608293,-0.48816335,0.99920654,-1.03266035e-10,-2.4347716e-10,0.039827988,48
21778324000,21778324000,0.84258467,0.11548886,0.19630308,-0.48803553,0.99920654,-1.03266035e-10,-2.4347716e-10,0.039827988,48
21778824000,21778824000,0.84274286,0.11511863,0.19652176,-0.4877617,0.99920654,-1.03266035e-10,-2.4347716e-10,0.039827988,48
21779324000,21779324000,0.8424258,0.11611192,0.19621058,-0.488199,0.99920654,-1.03266035e-10,-2.4347716e-10,0.039827988,48
21779824000,21779824000,0.84251064,0.11524978,0.19683394,-0.48800597,0.99920654,-1.03266035e-10,-2.4347716e-10,0.039827988,48
21780324000,21780324000,0.84249383,0.1156511,0.1962982,-0.48815578,0.99920654,-1.03266035e-10,-2.4347716e-10,0.039827988,48
21780824000,21780824000,0.84252566,0.11531757,0.19661382,-0.48805264,0.99920654,-1.03266035e-10,-2.4347716e-10,0.039827988,48
21781324000,21781324000,0.8424262,0.11615467,0.19608423,-0.48823908,0.99920654,-1.03266035e-10,-2.4347716e-10,0.039827988,48
21781824000,21781824000,0.84249526,0.11564678,0.19631751,-0.48814645,0.99920654,-1.03266035e-10,-2.4347716e-10,0.039827988,48
21782324000,21782324000,0.84257317,0.11526917,0.196456,-0.4880456,0.99920654,-1.03266035e-10,-2.4347716e-10,0.039827988,48
21782824000,21782824000,0.8424818,0.11572119,0.19639798,-0.48811984,0.99920654,-1.03266035e-10,-2.4347716e-10,0.039827988,48
21783324000,21783324000,0.84255356,0.115435,0.196554,-0.48800102,0.99920654,-1.03266035e-10,-2.4347716e-10,0.039827988,48
21783824000,21783824000,0.8425009,0.115380906,0.19657354,-0.48809683,0.99920654,-1.03266035e-10,-2.4347716e-10,0.039827988,48
21784324000,21784324000,0.84245145,0.116152555,0.1960542,-0.48820797,0.99920654,-1.03266035e-10,-2.4347716e-10,0.039827988,48
21784824000,21784824000,0.8425641,0.11552511,0.19643018,-0.4880111,0.99920654,-1.03266035e-10,-2.4347716e-10,0.039827988,48
21785324000,21785324000,0.8425113,0.115918405,0.19611716,-0.48813492,0.99920654,-1.03266035e-10,-2.4347716e-10,0.039827988,48
21785824000,21785824000,0.842494,0.115700275,0.19640733,-0.48809987,0.99920654,-1.03266035e-10,-2.4347716e-10,0.039827988,48
21786324000,21786324000,0.842465,0.11606897,0.19590451,-0.48826438,0.99920654,-1.03266035e-10,-2.4347716e-10,0.039827988,48
21786824000,21786824000,0.84259146,0.115592204,0.19641387,-0.4879547,0.99920654,-1.03266035e-10,-2.4347716e-10,0.039827988,48
21787324000,21787324000,0.84255207,0.11566087,0.19622023,-0.48808435,0.99920654,-1.03266035e-10,-2.4347716e-10,0.039827988,48
21787824000,21787824000,0.8425084,0.11573346,0.19627115,-0.48812208,0.99920654,-1.03266035e-10,-2.4347716e-10,0.039827988,48
21788324000,21788324000,0.8425754,0.11574897,0.1961157,-0.4880654,0.99920654,-1.03266035e-10,-2.4347716e-10,0.039827988,48
21788824000,21788824000,0.84257734,0.115502,0.19612722,-0.48811555,0.99920654,-1.03266035e-10,-2.4347716e-10,0.039827988,48
21789324000,21789324000,0.842594,0.11541243,0.19636165,-0.4880139,0.99920654,-1.03266035e-10,-2.4347716e-10,0.039827988,48
21789824000,21789824000,0.8425828,0.11504532,0.19631176,-0.48814002,0.99920654,-1.03266035e-10,-2.4347716e-10,0.039827988,48
21790324000,21790324000,0.8425738,0.11525072,0.19614765,-0.48817292,0.99920654,-1.03266035e-10,-2.4347716e-10,0.039827988,48
21790824000,21790824000,0.8426398,0.11528118,0.19610867,-0.4880676,0.99920654,-1.03266035e-10,-2.4347716e-10,0.039827988,48
21791324000,21791324000,0.8424903,0.11553199,0.19619028,-0.4882334,0.99920654,-1.03266035e-10,-2.4347716e-10,0.039827988,48
21791824000,21791824000,0.8425513,0.115548685,0.19636089,-0.4880557,0.99920654,-1.03266035e-10,-2.4347716e-10,0.039827988,48
21792324000,21792324000,0.84265935,0.11494937,0.19641522,-0.48798877,0.99920654,-1.03266035e-10,-2.4347716e-10,0.039827988,48
21792824000,21792824000,0.8424413,0.11546063,0.19617973,-0.48833913,0.99920654,-1.03266035e-10,-2.4347716e-10,0.039827988,48
21793324000,21793324000,0.84255743,0.115300566,0.19618656,-0.48817396,0.99920654,-1.03266035e-10,-2.4347716e-10,0.039827988,48
21793824000,21793824000,0.8425319,0.11590891,0.19603539,-0.4881344,0.99920654,-1.03266035e-10,-2.4347716e-10,0.039827988,48
21794324000,21794324000,0.842553,0.11534392,0.19614595,-0.4881876,0.99920654,-1.03266035e-10,-2.4347716e-10,0.039827988,48
21794824000,21794824000,0.84249556,0.11580055,0.19619851,-0.48815745,0.99920654,-1.03266035e-10,-2.4347716e-10,0.039827988,48
21795324000,21795324000,0.8426211,0.11532197,0.19615664,-0.48807082,0.99920654,-1.03266035e-10,-2.4347716e-10,0.039827988,48
21795824000,21795824000,0.842512,0.1154004,0.19605939,-0.48827982,0.99920654,-1.03266035e-10,-2.4347716e-10,0.039827988,48
21796324000,21796324000,0.8424913,0.11505052,0.19647542,-0.48823056,0.99920654,-1.03266035e-10,-2.4347716e-10,0.039827988,48
21796824000,21796824000,0.8425528,0.1155708,0.19602269,-0.48818374,0.99920654,-1.03266035e-10,-2.4347716e-10,0.039827988,48
21797324000,21797324000,0.842508,0.11569438,0.19634663,-0.48810142,0.99920654,-1.03266035e-10,-2.4347716e-10,0.039827988,48
21797824000,21797824000,0.84254104,0.11540715,0.1961512,-0.488191,0.99920654,-1.03266035e-10,-2.4347716e-10,0.039827988,48
21798324000,21798324000,0.8426228,0.115123056,0.19626133,-0.48807287,0.99920654,-1.03266035e-10,-2.4347716e-10,0.039827988,48
21798824000,21798824000,0.8426325,0.11514025,0.19636683,-0.48800966,0.99920654,-1.03266035e-10,-2.4347716e-10,0.039827988,48
21799324000,21799324000,0.84257585,0.114837945,0.1964333,-0.4881519,0.99920654,-1.03266035e-10,-2.4347716e-10,0.039827988,48
21799824000,21799824000,0.8425,0.11584402,0.19587168,-0.4882707,0.99920654,-1.03266035e-10,-2.4347716e-10,0.039827988,48
21800324000,21800324000,0.8425663,0.11530802,0.19641304,-0.48806557,0.99920654,-1.03266035e-10,-2.4347716e-10,0.039827988,48
21800824000,21800824000,0.8425171,0.11595851,0.19602154,-0.48815382,0.99920654,-1.03266035e-10,-2.4347716e-10,0.039827988,48
21801324000,21801324000,0.8425993,0.115372516,0.19633569,-0.48802447,0.99920654,-1.03266035e-10,-2.4347716e-10,0.039827988,48
21801824000,21801824000,0.84247756,0.116309375,0.19571984,-0.48825952,0.99920654,-1.03266035e-10,-2.4347716e-10,0.039827988,48
21802324000,21802324000,0.8425304,0.11552044,0.19647704,-0.4880515,0.99920654,-1.03266035e-10,-2.4347716e-10,0.039827988,48
21802824000,21802824000,0.8425466,0.11535864,0.19634704,-0.4881143,0.99920654,-1.03266035e-10,-2.4347716e-10,0.039827988,48
21803324000,21803324000,0.8424606,0.11586585,0.19638346,-0.48812786,0.99920654,-1.03266035e-10,-2.4347716e-10,0.039827988,48
21803824000,21803824000,0.8427482,0.11458908,0.19656411,-0.48785987,0.99920654,-1.03266035e-10,-2.4347716e-10,0.039827988,48
21804324000,21804324000,0.84247774,0.1162248,0.19586127,-0.4882227,0.99920654,-1.03266035e-10,-2.4347716e-10,0.039827988,48
21804824000,21804824000,0.8425769,0.11494787,0.19693665,-0.48792133,0.99920654,-1.03266035e-10,-2.4347716e-10,0.039827988,48
21805324000,21805324000,0.84246653,0.115915656,0.19657359,-0.48802927,0.99920654,-1.03266035e-10,-2.4347716e-10,0.039827988,48
21805824000,21805824000,0.8425061,0.115833074,0.19619553,-0.48813275,0.99920654,-1.03266035e-10,-2.4347716e-10,0.039827988,48
21806324000,21806324000,0.8425116,0.11535949,0.19648956,-0.48811704,0.99920654,-1.03266035e-10,-2.4347716e-10,0.039827988,48
21806824000,21806824000,0.8467308,0.015448797,-0.30518898,-0.43550903,0.99920654,-1.03266035e-10,-2.4347716e-10,0.039827988,48
21807324000,21807324000,0.85567003,-0.0959322,-0.0045763324,-0.5085321,0.99920654,-1.03266035e-10,-2.4347716e-10,0.039827988,48
21807824000,21807824000,0.86181027,0.014836353,-0.05172399,-0.50436854,0.99920654,-1.03266035e-10,-2.4347716e-10,0.039827988,48
21808324000,21808324000,0.8613522,-0.023190469,-0.050423432,-0.5049675,0.99920654,-1.03266035e-10,-2.4347716e-10,0.039827988,48
21808824000,21808824000,0.8537271,-0.06913759,-0.12815447,-0.49994662,0.99920654,-1.03266035e-10,-2.4347716e-10,0.039827988,48
21809324000,21809324000,0.85050607,-0.07885342,-0.14786972,-0.49855414,0.99920654,-1.03266035e-10,-2.4347716e-10,0.039827988,48
21809824000,21809824000,0.8558295,-0.069431566,-0.12539999,-0.49700105,0.99920654,-1.03266035e-10,-2.4347716e-10,0.039827988,48
21810324000,21810324000,0.85998,-0.03904198,-0.10191614,-0.49852106,0.99920654,-1.03266035e-10,-2.4347716e-10,0.039827988,48
21810824000,21810824000,0.865551,-0.0034747708,-0.061190102,-0.4970565,0.99920654,-1.03266035e-10,-2.4347716e-10,0.039827988,48
21811324000,21811324000,0.86442554,-0.014827201,-0.03567622,-0.50127435,0.99920654,-1.03266035e-10,-2.4347716e-10,0.039827988,48
21811824000,21811824000,0.8649177,0.0023642695,-0.01800036,-0.5015853,0.99920654,-1.03266035e-10,-2.4347716e-10,0.039827988,48
21812324000,21812324000,0.86470854,0.010731796,0.0036564718,-0.50214595,0.99920654,-1.03266035e-10,-2.4347716e-10,0.039827988,48
21812824000,21812824000,0.864535,0.012470652,0.014211788,-0.502217,0.99920654,-1.03266035e-10,-2.4347716e-10,0.039827988,48
21813324000,21813324000,0.8647024,0.009826595,0.0142037235,-0.5019875,0.99920654,-1.03266035e-10,-2.4347716e-10,0.039827988,48
21813824000,21813824000,0.8650022,0.006484567,0.010778853,-0.50161046,0.99920654,-1.03266035e-10,-2.4347716e-10,0.039827988,48
21814324000,21814324000,0.86529523,0.004859331,0.009326465,-0.5011523,0.99920654,-1.03266035e-10,-2.4347716e-10,0.039827988,48
21814824000,21814824000,0.8654339,0.0046380768,0.0045333332,-0.5009814,0.99920654,-1.03266035e-10,-2.4347716e-10,0.039827988,48
21815324000,21815324000,0.8654557,0.006441589,0.0004674635,-0.500944,0.99920654,-1.03266035e-10,-2.4347716e-10,0.039827988,48
21815824000,21815824000,0.865512,0.0061576557,-0.0015813636,-0.50084805,0.99920654,-1.03266035e-10,-2.4347716e-10,0.039827988,48
21816324000,21816324000,0.8654501,0.0063546207,-0.00074515806,-0.5009545,0.99920654,-1.03266035e-10,-2.4347716e-10,0.039827988,48
21816824000,21816824000,0.8653916,0.006419877,-0.0023795804,-0.50104946,0.99920654,-1.03266035e-10,-2.4347716e-10,0.039827988,48
21817324000,21817324000,0.8653822,0.007706632,-0.0017279654,-0.50105035,0.99920654,-1.03266035e-10,-2.4347716e-10,0.039827988,48
21817824000,21817824000,0.8654555,0.008173916,0.00032516586,-0.50091904,0.99920654,-1.03266035e-10,-2.4347716e-10,0.039827988,48
21818324000,21818324000,0.86539894,0.009884463,0.0013433519,-0.5009844,0.99920654,-1.03266035e-10,-2.4347716e-10,0.039827988,48
21818824000,21818824000,0.8652672,0.010329085,0.0014950777,-0.50120234,0.99920654,-1.03266035e-10,-2.4347716e-10,0.039827988,48
21819324000,21819324000,0.8652731,0.009783282,0.0021114226,-0.50120074,0.99920654,-1.03266035e-10,-2.4347716e-10,0.039827988,48
21819824000,21819824000,0.8653434,0.009205923,0.0033667167,-0.50108355,0.99920654,-1.03266035e-10,-2.4347716e-10,0.039827988,48
21820324000,21820324000,0.865356,0.0092226025,0.002637618,-0.5010659,0.99920654,-1.03266035e-10,-2.4347716e-10,0.039827988,48
21820824000,21820824000,0.8653879,0.008164929,0.002326067,-0.50103074,0.99920654,-1.03266035e-10,-2.4347716e-10,0.039827988,48
21821324000,21821324000,0.86537445,0.009271476,0.0025798925,-0.5010334,0.99920654,-1.03266035e-10,-2.4347716e-10,0.039827988,48
21821824000,21821824000,0.8654042,0.009053276,0.0013722806,-0.50099075,0.99920654,-1.03266035e-10,-2.4347716e-10,0.039827988,48
21822324000,21822324000,0.86541474,0.009578237,0.0026880004,-0.50095755,0.99920654,-1.03266035e-10,-2.4347716e-10,0.039827988,48
21822824000,21822824000,0.8654151,0.009577458,0.0028358412,-0.50095624,0.99920654,-1.03266035e-10,-2.4347716e-10,0.039827988,48
21823324000,21823324000,0.86542374,0.00950445,0.0041764854,-0.5009332,0.99920654,-1.03266035e-10,-2.4347716e-10,0.039827988,48
21823824000,21823824000,0.8653891,0.009173633,0.0048019467,-0.50099355,0.99920654,-1.03266035e-10,-2.4347716e-10,0.039827988,48
21824324000,21824324000,0.8654455,0.009038835,0.004446721,-0.5009018,0.99920654,-1.03266035e-10,-2.4347716e-10,0.039827988,48
21824824000,21824824000,0.8654495,0.0085480185,0.0031598383,-0.50091326,0.99920654,-1.03266035e-10,-2.4347716e-10,0.039827988,48
21825324000,21825324000,0.8654259,0.0070871557,0.0012744432,-0.5009853,0.99920654,-1.03266035e-10,-2.4347716e-10,0.039827988,48
21825824000,21825824000,0.86549586,0.007218018,0.0010790568,-0.500863,0.99920654,-1.03266035e-10,-2.4347716e-10,0.039827988,48
21826324000,21826324000,0.8654894,0.00811942,0.0005406198,-0.5008611,0.99920654,-1.03266035e-10,-2.4347716e-10,0.039827988,48
21826824000,21826824000,0.8654203,0.00781699,0.00039937094,-0.5009854,0.99920654,-1.03266035e-10,-2.4347716e-10,0.039827988,48
21827324000,21827324000,0.86543345,0.0090021975,0.0005166118,-0.50094295,0.99920654,-1.03266035e-10,-2.4347716e-10,0.039827988,48
21827824000,21827824000,0.8654237,0.01009724,-0.000106140455,-0.5009392,0.99920654,-1.03266035e-10,-2.4347716e-10,0.039827988,48
21828324000,21828324000,0.86537635,0.009874924,0.0013536453,-0.50102335,0.99920654,-1.03266035e-10,-2.4347716e-10,0.039827988,48
21828824000,21828824000,0.86548054,0.009990051,0.0012214718,-0.50084144,0.99920654,-1.03266035e-10,-2.4347716e-10,0.039827988,48
21829324000,21829324000,0.86538744,0.009209567,0.0018521352,-0.5010153,0.99920654,-1.03266035e-10,-2.4347716e-10,0.039827988,48
21829824000,21829824000,0.8654056,0.01072879,0.0015942737,-0.5009546,0.99920654,-1.03266035e-10,-2.4347716e-10,0.039827988,48
21830324000,21830324000,0.8653916,0.011504498,0.0012123357,-0.50096273,0.99920654,-1.03266035e-10,-2.4347716e-10,0.039827988,48
21830824000,21830824000,0.8654078,0.010321265,0.0014737463,-0.50095993,0.99920654,-1.03266035e-10,-2.4347716e-10,0.039827988,48
21831324000,21831324000,0.8654113,0.010782841,0.0018497276,-0.5009429,0.99920654,-1.03266035e-10,-2.4347716e-10,0.039827988,48
21831824000,21831824000,0.86534953,0.010064987,0.001108858,-0.5010666,0.99920654,-1.03266035e-10,-2.4347716e-10,0.039827988,48
21832324000,21832324000,0.8653096,0.011692032,0.00071552844,-0.501101,0.99920654,-1.03266035e-10,-2.4347716e-10,0.039827988,48
21832824000,21832824000,0.8653121,0.011797669,0.0008308242,-0.5010939,0.99920654,-1.03266035e-10,-2.4347716e-10,0.039827988,48
21833324000,21833324000,0.8653432,0.010825195,0.0014035536,-0.5010609,0.99920654,-1.03266035e-10,-2.4347716e-10,0.039827988,48
21833824000,21833824000,0.86536306,0.01025076,0.0011404069,-0.50103927,0.99920654,-1.03266035e-10,-2.4347716e-10,0.039827988,48
21834324000,21834324000,0.8653446,0.01015227,0.002441759,-0.50106865,0.99920654,-1.03266035e-10,-2.4347716e-10,0.039827988,48
21834824000,21834824000,0.8654512,0.009704833,0.00083392154,-0.50089854,0.99920654,-1.03266035e-10,-2.4347716e-10,0.039827988,48
21835324000,21835324000,0.8654396,0.010036448,0.00055918004,-0.5009125,0.99920654,-1.03266035e-10,-2.4347716e-10,0.039827988,48
21835824000,21835824000,0.8653869,0.010695038,8.29696e-05,-0.5009902,0.99920654,-1.03266035e-10,-2.4347716e-10,0.039827988,48
21836324000,21836324000,0.86539,0.009419133,0.00019520336,-0.50101036,0.99920654,-1.03266035e-10,-2.4347716e-10,0.039827988,48
21836824000,21836824000,0.8654251,0.008709477,-7.718824e-05,-0.5009626,0.99920654,-1.03266035e-10,-2.4347716e-10,0.039827988,48
21837324000,21837324000,0.8654127,0.00869313,-0.0017985996,-0.50098115,0.99920654,-1.03266035e-10,-2.4347716e-10,0.039827988,48
21837824000,21837824000,0.86540985,0.008892013,-0.0008168338,-0.5009852,0.99920654,-1.03266035e-10,-2.4347716e-10,0.039827988,48
21838324000,21838324000,0.8654399,0.008832829,-0.0011158526,-0.5009338,0.99920654,-1.03266035e-10,-2.4347716e-10,0.039827988,48
21838824000,21838824000,0.86543393,0.009462228,0.000634843,-0.5009333,0.99920654,-1.03266035e-10,-2.4347716e-10,0.039827988,48
21839324000,21839324000,0.86541164,0.009674602,0.0007831236,-0.5009675,0.99920654,-1.03266035e-10,-2.4347716e-10,0.039827988,48
21839824000,21839824000,0.86542946,0.009790378,0.0006352626,-0.50093484,0.99920654,-1.03266035e-10,-2.4347716e-10,0.039827988,48
21840324000,21840324000,0.8653878,0.010404695,0.0016654183,-0.500992,0.99920654,-1.03266035e-10,-2.4347716e-10,0.039827988,48
21840824000,21840824000,0.86537695,0.0124040535,0.0013370283,-0.50096613,0.99920654,-1.03266035e-10,-2.4347716e-10,0.039827988,48
21841324000,21841324000,0.8653681,0.012330408,-0.000455882,-0.50098497,0.99920654,-1.03266035e-10,-2.4347716e-10,0.039827988,48
21841824000,21841824000,0.86525387,0.013675126,-0.0009660256,-0.50114655,0.99920654,-1.03266035e-10,-2.4347716e-10,0.039827988,48
21842324000,21842324000,0.8653163,0.013466948,-0.0027018401,-0.50103796,0.99920654,-1.03266035e-10,-2.4347716e-10,0.039827988,48
21842824000,21842824000,0.86527413,0.012557048,-0.0016708995,-0.50113904,0.99920654,-1.03266035e-10,-2.4347716e-10,0.039827988,48
21843324000,21843324000,0.86529523,0.010685277,-0.00022863317,-0.5011488,0.99920654,-1.03266035e-10,-2.4347716e-10,0.039827988,48
21843824000,21843824000,0.86536396,0.010581661,0.0001570238,-0.5010323,0.99920654,-1.03266035e-10,-2.4347716e-10,0.039827988,48
21844324000,21844324000,0.86532676,0.010888718,0.0015791911,-0.5010873,0.99920654,-1.03266035e-10,-2.4347716e-10,0.039827988,48
21844824000,21844824000,0.8654328,0.011174346,0.0010392639,-0.5008994,0.99920654,-1.03266035e-10,-2.4347716e-10,0.039827988,48
21845324000,21845324000,0.865441,0.011743415,0.00014808972,-0.5008733,0.99920654,-1.03266035e-10,-2.4347716e-10,0.039827988,48
21845824000,21845824000,0.86541975,0.011466369,0.00028315894,-0.5009163,0.99920654,-1.03266035e-10,-2.4347716e-10,0.039827988,48
21846324000,21846324000,0.86543655,0.010919247,-0.00031626446,-0.5008995,0.99920654,-1.03266035e-10,-2.4347716e-10,0.039827988,48
21846824000,21846824000,0.8654531,0.0095598595,-0.0017171502,-0.50089586,0.99920654,-1.03266035e-10,-2.4347716e-10,0.039827988,48
21847324000,21847324000,0.8654391,0.010943495,-0.0024111483,-0.5008889,0.99920654,-1.03266035e-10,-2.4347716e-10,0.039827988,48
21847824000,21847824000,0.8654296,0.010146756,-0.0026875741,-0.50092053,0.99920654,-1.03266035e-10,-2.4347716e-10,0.039827988,48
21848324000,21848324000,0.8653523,0.009706758,-0.0026032054,-0.5010634,0.99920654,-1.03266035e-10,-2.4347716e-10,0.039827988,48
21848824000,21848824000,0.86539304,0.009477158,-0.0028476187,-0.500996,0.99920654,-1.03266035e-10,-2.4347716e-10,0.039827988,48
21849324000,21849324000,0.86539173,0.009839026,-0.0020058502,-0.50099534,0.99920654,-1.03266035e-10,-2.4347716e-10,0.039827988,48
21849824000,21849824000,0.8653919,0.011518424,-0.0020274036,-0.5009593,0.99920654,-1.03266035e-10,-2.4347716e-10,0.039827988,48
21850324000,21850324000,0.8653483,0.010222627,-0.0026583502,-0.5010596,0.99920654,-1.03266035e-10,-2.4347716e-10,0.039827988,48
21850824000,21850824000,0.8653852,0.010228172,-0.002977859,-0.500994,0.99920654,-1.03266035e-10,-2.4347716e-10,0.039827988,48
