timestamp,accel_device_id,gyro_device_id,accel_clipping[0],accel_clipping[1],accel_clipping[2],accel_error_count,gyro_error_count,accel_rate_hz,gyro_rate_hz,accel_raw_rate_hz,gyro_raw_rate_hz,accel_vibration_metric,gyro_vibration_metric,delta_angle_coning_metric,mean_accel[0],mean_accel[1],mean_accel[2],mean_gyro[0],mean_gyro[1],mean_gyro[2],var_accel[0],var_accel[1],var_accel[2],var_gyro[0],var_gyro[1],var_gyro[2],temperature_accel,temperature_gyro
21726972000,1310988,1310988,0,0,0,0,0,250.0,250.0,250.0,250.0,0.048727043,0.0037586906,1.0670201e-11,-0.11856087,-0.04462775,-9.820728,0.0003195794,0.0021731397,-0.0008096009,0.0022122264,0.0013518272,0.0016601827,1.4911119e-05,6.3756943e-06,7.0157153e-06,13.515134,13.515134
21727972000,1310988,1310988,0,0,0,0,0,250.0,250.0,250.0,250.0,0.048366234,0.0037265439,1.7005137e-11,-0.111090966,-0.03256097,-9.812203,-0.0023648872,0.00049002154,0.0006817693,0.0016238182,0.0018709907,0.003673046,8.421945e-06,1.4523476e-05,7.5241014e-06,13.515134,13.515134
21728972000,1310988,1310988,0,0,0,0,0,250.0,250.0,250.0,250.0,0.11124833,0.005548733,4.8119855e-11,-0.09394846,-0.05477916,-9.78625,-0.00087351684,-0.0012783173,-0.00025566353,0.0013937415,0.0037494646,0.0393811,6.697248e-05,8.26126e-06,1.7546552e-05,13.515134,13.515134
21729972000,1310988,1310988,0,0,0,0,0,250.0,250.0,250.0,250.0,0.16657706,0.00622218,3.9037697e-11,-0.109750204,-0.065505184,-9.831166,0.0014913704,0.0016831179,0.0019813916,0.0012971649,0.0029687658,0.064241104,5.52188e-05,1.3950633e-05,1.0588029e-05,13.515134,13.515134
21730972000,1310988,1310988,0,0,0,0,0,250.0,250.0,250.0,250.0,0.18088502,0.006504531,2.3736072e-11,-0.101514146,-0.045489658,-9.822452,0.0007456851,0.00055393745,-0.00066046393,0.0017879884,0.0033939208,0.06534434,6.175518e-05,6.6153616e-06,9.425097e-06,13.515134,13.515134
21731972000,1310988,1310988,0,0,0,0,0,250.0,250.0,250.0,250.0,0.19595258,0.0071100406,4.1448442e-11,-0.12344504,-0.045202356,-9.812684,-0.00019174755,0.001683118,-0.00029827392,0.0013354106,0.0029198995,0.069688894,7.8184195e-05,1.7650045e-05,1.2144051e-05,13.515134,13.515134
21732972000,1310988,1310988,0,0,0,0,0,250.0,250.0,250.0,250.0,0.27225432,0.009278135,4.948732e-11,-0.110803664,-0.050086524,-9.808086,0.00012783168,0.00012783187,0.00027696876,0.0026760302,0.0026161373,0.18436645,0.00014537273,1.6006872e-05,9.534947e-06,13.515134,13.515134
21733972000,1310988,1310988,0,0,0,0,0,250.0,250.0,250.0,250.0,0.41808248,0.01763253,1.9425281e-09,-0.17142485,-0.116358034,-9.893225,-0.039180424,0.034301516,-0.0025353287,0.007959965,0.016813224,0.6196926,0.006068758,0.0018431232,0.0005012197,13.515134,13.515134
21734972000,1310988,1310988,0,0,0,0,0,250.0,250.0,250.0,250.0,0.16718763,0.026535455,1.1022119e-09,-0.059663504,-0.06588827,-9.597877,0.005667208,-0.01578722,0.0011717905,0.0019200217,0.017047618,0.31368273,0.0077211424,2.6619415e-05,4.3757434e-05,13.510279,13.510279
21735972000,1310988,1310988,0,0,0,0,0,250.0,250.0,250.0,250.0,0.11801543,0.021451179,8.880806e-11,-0.08657433,-0.07096398,-9.160693,0.007009439,0.009736517,0.007882957,0.002889341,0.0023804137,0.0011698303,5.5347704e-05,1.4605183e-05,1.4911119e-05,13.503227,13.503227
21736972000,1310988,1310988,0,0,0,0,0,250.0,250.0,250.0,250.0,0.120005615,0.023507452,8.4776984e-11,-0.044819456,-0.07402854,-9.621433,-0.0032170983,-0.00038349518,-8.291233e-11,0.0017194402,0.0038698872,0.0040349266,0.00018500407,1.6534323e-05,1.1597535e-05,13.500555,13.500555
21737972000,1310988,1310988,0,0,0,0,0,250.0,250.0,250.0,250.0,0.12892164,0.026163684,1.747398e-09,-0.021930886,-0.09730018,-10.135519,0.027142936,0.035217643,-0.002833603,0.0047108056,0.012839616,0.17465867,0.0073326724,0.00015644921,6.447231e-05,13.500105,13.500105
21738972000,1310988,1310988,0,0,0,0,0,250.0,250.0,250.0,250.0,0.13091506,0.028802704,9.467501e-09,0.74794865,-0.537163,-10.226687,0.07548463,0.2062565,-0.021134842,0.003724553,0.008523038,0.17299312,0.00847232,0.0001249464,2.8839962e-05,13.498508,13.498508
21739972000,1310988,1310988,0,0,0,0,0,250.0,250.0,250.0,250.0,0.13436623,0.03104619,1.9647852e-09,2.778136,-0.37349528,-11.137156,0.022200111,-0.03355583,0.0011504851,0.0073206457,0.018475572,0.16265535,0.00811103,3.0661988e-05,6.1816005e-05,13.491612,13.491612
21740972000,1310988,1310988,0,0,0,0,0,250.0,250.0,250.0,250.0,0.13355686,0.028517893,7.4830303e-10,3.3824325,-0.11990143,-10.334141,0.011185276,0.013528859,0.0054754596,0.0016455007,0.011054855,0.16135244,0.008171634,1.6113994e-05,4.3201842e-05,13.475007,13.475007
21741972000,1310988,1310988,0,0,0,0,0,250.0,250.0,250.0,250.0,0.11366812,0.021555062,7.408265e-11,3.608924,-0.08666993,-9.842371,-0.007158576,0.014317155,0.00051132723,0.0025963963,0.0024675983,0.0038244673,3.1321964e-05,1.4396381e-05,8.884938e-06,13.451197,13.451197
21742972000,1310988,1310988,0,0,0,0,0,250.0,250.0,250.0,250.0,0.12370049,0.024349356,6.1022487e-10,3.7357209,-0.07469893,-9.533232,-0.0024927198,0.007414241,-0.0001278315,0.0018589413,0.012219674,0.15906155,0.007772362,1.0029712e-05,4.0291336e-05,13.422754,13.422754
21743972000,1310988,1310988,0,0,0,0,0,250.0,250.0,250.0,250.0,0.1325627,0.027273564,2.7357827e-10,3.876117,-0.05449187,-9.243342,0.012335761,0.0062637543,-0.00014913683,0.004533237,0.009099651,0.17312467,0.007912009,1.6642349e-05,5.4958247e-05,13.391384,13.391384
21744972000,1310988,1310988,0,0,0,0,0,250.0,250.0,250.0,250.0,0.110538736,0.02120639,4.091289e-11,3.9414306,-0.06512213,-9.126601,-0.0054754587,0.0050706584,-0.0022583606,0.0018032464,0.0024052316,0.0015447076,4.4881333e-05,1.6366368e-05,2.136307e-05,13.358219,13.358219
21745972000,1310988,1310988,0,0,0,0,0,250.0,250.0,250.0,250.0,0.11839918,0.023419732,2.7474042e-10,4.0459137,-0.049990784,-8.983237,0.008372973,0.0016831177,0.00046871646,0.001474926,0.012511937,0.09515092,0.0057445127,7.2326866e-06,2.3996687e-05,13.323803,13.323803
21746972000,1310988,1310988,0,0,0,0,0,250.0,250.0,250.0,250.0,0.1287134,0.02661173,4.8040344e-10,4.097724,-0.028251423,-8.976915,0.0094808545,0.0041971416,0.0059228707,0.0020044798,0.009498944,0.16483076,0.0077889143,1.117358e-05,4.05419e-05,13.288544,13.288544
21747972000,1310988,1310988,0,0,0,0,0,250.0,250.0,250.0,250.0,0.107651606,0.020895414,5.2422403e-11,4.152407,-0.022122271,-8.901834,-0.0025140243,0.0035579836,0.00057524286,0.0013408305,0.0028611843,0.002212578,0.00010180231,1.9330437e-05,2.0651332e-05,13.2528305,13.2528305
21748972000,1310988,1310988,0,0,0,0,0,250.0,250.0,250.0,250.0,0.11844544,0.023269331,6.186478e-11,4.1774983,-0.040988572,-8.868986,-0.004793689,0.0005539375,0.000596548,0.003731757,0.005180221,0.08982217,5.481027e-05,9.021114e-06,7.5422563e-06,13.216654,13.216654
21749972000,1310988,1310988,0,0,0,0,0,250.0,250.0,250.0,250.0,0.13281766,0.02613951,5.9373445e-10,4.2318954,-0.036295943,-8.860844,0.019153453,0.000319579,0.0059015653,0.0029197931,0.012140652,0.16359682,0.007528333,2.5078818e-05,7.22615e-05,13.180242,13.180242
21750972000,1310988,1310988,0,0,0,0,0,250.0,250.0,250.0,250.0,0.11434467,0.021043425,4.112694e-11,4.195695,-0.003351728,-8.852608,-0.009054747,0.0023222766,0.00049002166,0.0020980332,0.0013321626,0.067977645,0.0014885472,9.279844e-06,9.62119e-06,13.14372,13.14372
21751972000,1310988,1310988,0,0,0,0,0,250.0,250.0,250.0,250.0,0.11880142,0.022832317,5.1802437e-11,4.2090073,-0.057843752,-8.856341,-0.0065407236,-0.0034727624,-0.00046871643,0.0020512284,0.0027618571,0.004282086,1.5444926e-05,2.9961138e-05,1.1854455e-05,13.10686,13.10686
21752972000,1310988,1310988,0,0,0,0,0,250.0,250.0,250.0,250.0,0.12742823,0.026034601,2.222752e-10,4.2249994,-0.060429495,-8.800991,0.0025353306,-0.0020026972,-0.0016405075,0.001302235,0.011684185,0.17253765,0.007817835,1.7164353e-05,4.2847798e-05,13.070176,13.070176
21753972000,1310988,1310988,0,0,0,0,0,250.0,250.0,250.0,250.0,0.12291164,0.024255702,1.5177835e-10,4.2290225,-0.030645626,-8.800606,0.00057524175,0.0026844668,-0.001470065,0.0023937242,0.0073271287,0.07309018,0.0056990413,1.5035491e-05,3.0827207e-05,13.033324,13.033324
21754972000,1310988,1310988,0,0,0,0,0,250.0,250.0,250.0,250.0,0.112599395,0.022119453,2.984231e-11,4.2187743,-0.06895286,-8.803671,-0.00042610572,0.0005752428,-0.0017470338,0.00114595,0.0019549099,0.0030911986,1.9904186e-05,2.9548073e-05,1.0451854e-05,12.996376,12.996376
21755972000,1310988,1310988,0,0,0,0,0,250.0,250.0,250.0,250.0,0.1260544,0.025243994,4.615629e-10,4.2251916,-0.045393914,-8.791029,0.0060080914,0.0024714137,-0.0028336036,0.0017060263,0.012263461,0.16558501,0.008005807,9.393322e-06,5.9138816e-05,12.959393,12.959393
21756972000,1310988,1310988,0,0,0,0,0,250.0,250.0,250.0,250.0,0.12576455,0.026820915,2.0957117e-10,4.2392697,-0.05659878,-8.724375,0.008607337,0.002492719,-0.0036005937,0.0015875335,0.008650981,0.1678674,0.007662265,1.0433698e-05,4.5420587e-05,12.922484,12.922484
21757972000,1310988,1310988,0,0,0,0,0,250.0,250.0,250.0,250.0,0.11454407,0.021936566,4.340687e-11,4.253155,-0.03457212,-8.771205,-0.0065620285,0.00023435813,0.0008309062,0.0013253231,0.002477723,0.0019640983,2.9725099e-05,1.2734141e-05,1.6025027e-05,12.885364,12.885364
21758972000,1310988,1310988,0,0,0,0,0,250.0,250.0,250.0,250.0,0.12460703,0.024979753,4.2419476e-10,4.2472186,-0.041180115,-8.752817,0.005368933,0.0027270764,-0.0005752428,0.0015135232,0.014228237,0.16869861,0.007809521,3.1849417e-05,3.4631925e-05,12.848527,12.848527
21759972000,1310988,1310988,0,0,0,0,0,250.0,250.0,250.0,250.0,0.13482647,0.027725486,3.6495917e-10,4.226628,-0.012162391,-8.710298,0.00624245,0.0033875415,-0.0014487593,0.0011248265,0.0102005275,0.16161186,0.007840401,1.9833378e-05,5.1122668e-05,12.811553,12.811553
21760972000,1310988,1310988,0,0,0,0,0,250.0,250.0,250.0,250.0,0.112126105,0.02177627,2.5643453e-11,4.2372584,-0.013694679,-8.777143,-0.001406149,0.00034088455,0.00014913703,0.0017723816,0.001767591,0.0045073186,2.98876e-05,1.3206213e-05,1.154125e-05,12.774481,12.774481
21761972000,1310988,1310988,0,0,0,0,0,250.0,250.0,250.0,250.0,0.12189028,0.024105761,3.2398925e-10,4.2394605,-0.024133397,-8.775133,0.003834952,-0.0034514565,-0.0019387817,0.001268676,0.008786738,0.15834199,0.0076638386,1.4437229e-05,4.0282266e-05,12.737502,12.737502
21762972000,1310988,1310988,0,0,0,0,0,250.0,250.0,250.0,250.0,0.13481359,0.027406337,4.2193518e-10,4.241664,-0.014939666,-8.735962,0.0102052335,-0.0009161273,-0.0007030746,0.002453319,0.014802504,0.15811977,0.007871701,1.299378e-05,5.614297e-05,12.700427,12.700427
21763972000,1310988,1310988,0,0,0,0,0,250.0,250.0,250.0,250.0,0.110957734,0.021100147,4.3059466e-11,4.232469,-0.017429635,-8.751094,-0.0028549086,0.0033236255,0.0015765914,0.0026973265,0.0017561264,0.0021490022,6.0209142e-05,1.1853545e-05,8.816851e-06,12.663321,12.663321
21764972000,1310988,1310988,0,0,0,0,0,250.0,250.0,250.0,250.0,0.119261615,0.023518002,2.97915e-10,4.254592,-0.035817105,-8.730027,0.003153183,0.0028549088,-0.0011930962,0.002527421,0.011598067,0.16541335,0.007249842,2.015112e-05,2.8671111e-05,12.626412,12.626412
21765972000,1310988,1310988,0,0,0,0,0,250.0,250.0,250.0,250.0,0.1315767,0.026766604,4.9722626e-10,4.265989,-0.026144532,-8.72361,0.008096009,0.0025566348,0.00010652656,0.0031655463,0.0117853675,0.15592127,0.0076083015,2.936832e-05,2.0040365e-05,12.589444,12.589444
21766972000,1310988,1310988,0,0,0,0,0,250.0,250.0,250.0,250.0,0.111469604,0.020728111,1.7427426e-11,4.2793,-0.04491507,-8.74439,0.00063915865,-0.00042610575,-0.00046871637,0.0034158747,0.001736298,0.0008472889,1.050814e-05,1.0371965e-05,1.573543e-05,12.552404,12.552404
21767972000,1310988,1310988,0,0,0,0,0,250.0,250.0,250.0,250.0,0.11934078,0.023369048,2.8091748e-10,4.2974005,-0.034955192,-8.722364,0.010908307,-0.007201188,-0.0023648872,0.0015866327,0.011447434,0.091929585,0.004979591,2.7736949e-05,2.5806903e-05,12.515342,12.515342
21768972000,1310988,1310988,0,0,0,0,0,250.0,250.0,250.0,250.0,0.12850595,0.02664879,2.9623773e-10,4.2417593,-0.042042032,-8.73989,0.0036218986,-0.0012783173,0.001406149,0.0022932047,0.010752727,0.1606416,0.0075369235,2.5532736e-05,4.9632923e-05,12.478253,12.478253
21769972000,1310988,1310988,0,0,0,0,0,250.0,250.0,250.0,250.0,0.10361257,0.020447072,3.679041e-11,4.268191,-0.048458487,-8.747168,0.008692559,0.00038349527,-0.0017044231,0.001003598,0.00088930735,0.001772449,1.7628257e-05,9.88446e-06,2.541926e-05,12.441229,12.441229
21770972000,1310988,1310988,0,0,0,0,0,250.0,250.0,250.0,250.0,0.11556574,0.023032196,1.6429151e-10,4.300752,-0.046351593,-8.732707,-0.0007030745,0.0014061496,-2.130528e-05,0.0028141516,0.0057073827,0.08617336,7.6319506e-05,2.3487399e-05,1.5670972e-05,12.404211,12.404211
21771972000,1310988,1310988,0,0,0,0,0,250.0,250.0,250.0,250.0,0.12328149,0.02594658,2.4851823e-10,4.3049664,-0.03198638,-8.757416,0.007733821,-0.00046871637,0.00042610583,0.002069049,0.009903811,0.16457707,0.007449525,7.3379942e-06,3.5201134e-05,12.367171,12.367171
21772972000,1310988,1310988,0,0,0,0,0,250.0,250.0,250.0,250.0,0.11441242,0.021246616,3.8060846e-11,4.299891,-0.04558545,-8.790263,-0.013422332,-0.0013422334,-0.0016192021,0.0014694904,0.0023783948,0.0683371,0.0015141935,7.197282e-06,1.7554723e-05,12.330026,12.330026
21773972000,1310988,1310988,0,0,0,0,0,250.0,250.0,250.0,250.0,0.11589119,0.022588268,4.5048496e-11,4.3257475,-0.044819303,-8.785764,-0.0049002166,-0.0031318776,0.0028549088,0.0023705086,0.0024540792,0.0017659958,3.6222445e-05,2.161363e-05,1.9924162e-05,12.292908,12.292908
21774972000,1310988,1310988,0,0,0,0,0,250.0,250.0,250.0,250.0,0.12732528,0.025662653,3.6454395e-10,4.3152127,-0.04347855,-8.750616,0.011185276,0.0021731395,-0.0014487598,0.0023308846,0.010892867,0.1508857,0.007527685,2.3919525e-05,4.277062e-05,12.255959,12.255959
21775972000,1310988,1310988,0,0,0,0,0,250.0,250.0,250.0,250.0,0.121091746,0.023893304,1.0794403e-10,4.3128185,-0.038115535,-8.768428,0.0030253509,-0.00044741112,0.0012996227,0.0010358582,0.006093063,0.07001578,0.0054832,1.9102572e-05,2.6124642e-05,12.218832,12.218832
21776972000,1310988,1310988,0,0,0,0,0,250.0,250.0,250.0,250.0,0.118865184,0.02224924,3.994551e-11,4.3265142,-0.05046962,-8.804725,-0.004516721,-0.0030253513,-0.0049002166,0.0014481383,0.0036286768,0.002263597,2.0928217e-05,4.5725617e-05,1.1620234e-05,12.181776,12.181776
21777972000,1310988,1310988,0,0,0,0,0,250.0,250.0,250.0,250.0,0.12259742,0.024950787,2.4289135e-10,4.3268976,-0.032656755,-8.745828,-0.015446334,-0.0018109495,-0.00294013,0.0018357954,0.009832732,0.16117059,0.007645045,1.2323801e-05,4.0242317e-05,12.144714,12.144714
21778972000,1310988,1310988,0,0,0,0,0,250.0,250.0,250.0,250.0,0.1271086,0.02674165,1.7175647e-10,4.3275676,-0.04970348,-8.693826,0.017640779,0.0008735169,-0.0023648872,0.0024075757,0.01301956,0.14638574,0.007604723,1.2139512e-05,3.4431294e-05,12.10748,12.10748
21779972000,1310988,1310988,0,0,0,0,0,250.0,250.0,250.0,250.0,0.11262003,0.022167709,3.776824e-11,4.319427,-0.06722902,-8.787964,0.0057311226,-0.0012996225,-0.00010652649,0.0009012473,0.0023721776,0.003932756,1.4872082e-05,2.1176964e-05,1.6567908e-05,12.070525,12.070525
21780972000,1310988,1310988,0,0,0,0,0,250.0,250.0,250.0,250.0,0.11879633,0.024823597,2.5623506e-10,4.307935,-0.053055357,-8.749754,-0.01740642,0.00029827416,-0.006370282,0.0018846194,0.010450803,0.15835594,0.00851733,5.040275e-06,4.8489048e-05,12.03344,12.03344
21781972000,1310988,1310988,0,0,0,0,0,250.0,250.0,250.0,250.0,0.13214451,0.027571132,2.7079528e-10,4.2861004,-0.052576516,-8.718342,0.002386193,0.00023435825,-0.0033662356,0.0012711653,0.009910964,0.15684956,0.007727639,1.19851775e-05,3.6851565e-05,11.99638,11.99638
21782972000,1310988,1310988,0,0,0,0,0,250.0,250.0,250.0,250.0,0.11447448,0.02155585,6.099006e-11,4.2745123,-0.06253639,-8.721886,-0.009651297,0.0009374328,-0.0009374327,0.0033791708,0.0027754488,0.0030114283,0.0001434672,1.8072185e-05,1.1059195e-05,11.959304,11.959304
21783972000,1310988,1310988,0,0,0,0,0,250.0,250.0,250.0,250.0,0.12317025,0.024630848,2.2668349e-10,4.2544966,-0.07594393,-8.744008,0.0012996226,-0.00038349503,-0.0060080914,0.0027381654,0.009778454,0.16405913,0.00776193,1.3402303e-05,6.2062034e-05,11.922269,11.922269
21784972000,1310988,1310988,0,0,0,0,0,250.0,250.0,250.0,250.0,0.13266654,0.02699553,3.0423544e-10,4.2622538,-0.045681212,-8.706084,0.007520767,0.0023648872,-0.00066046393,0.0012685448,0.008981174,0.1541906,0.0069498825,1.6365462e-05,3.8884205e-05,11.885163,11.885163
21785972000,1310988,1310988,0,0,0,0,0,250.0,250.0,250.0,250.0,0.111304626,0.021355372,5.2299273e-11,4.272309,-0.039073214,-8.699283,-0.008202536,0.00085221167,0.00072438,0.0046660397,0.00094912417,0.0022172502,1.3662851e-05,3.16152e-05,2.3373917e-05,11.848128,11.848128
21786972000,1310988,1310988,0,0,0,0,0,250.0,250.0,250.0,250.0,0.12074902,0.024061507,3.494928e-10,4.2793,-0.039743595,-8.746115,0.0015126771,-0.0015765915,0.00031957927,0.0010216595,0.0071643316,0.15147574,0.007915186,2.2298134e-05,4.1805593e-05,11.811089,11.811089
21787972000,1310988,1310988,0,0,0,0,0,250.0,250.0,250.0,250.0,0.12721828,0.026833003,2.0063409e-10,4.257178,-0.03840284,-8.701774,0.005901566,0.0008735168,0.0006817692,0.001228217,0.0081692925,0.16070443,0.0076964274,1.1050115e-05,2.0369906e-05,11.774084,11.774084
21788972000,1310988,1310988,0,0,0,0,0,250.0,250.0,250.0,250.0,0.108933166,0.021076877,7.020531e-11,4.2612,-0.021930732,-8.710394,0.01216532,0.0013635384,-0.0020240024,0.0011514829,0.0014296937,0.0015262902,6.2769235e-05,8.6716e-06,2.4102903e-05,11.737044,11.737044
21789972000,1310988,1310988,0,0,0,0,0,250.0,250.0,250.0,250.0,0.11990395,0.02334453,1.9630175e-10,4.26551,-0.020015374,-8.694113,0.019792615,0.004005394,-0.00053263217,0.0034040043,0.013008373,0.09723098,0.004702397,3.061931e-05,2.1038977e-05,11.70007,11.70007
21790972000,1310988,1310988,0,0,0,0,0,250.0,250.0,250.0,250.0,0.13138354,0.026121687,2.7986835e-10,4.277386,-0.0220265,-8.733377,0.009587381,0.004665858,-0.00083090627,0.0013514523,0.011717536,0.16458054,0.0076917997,1.1694673e-05,2.7236736e-05,11.662995,11.662995
21791972000,1310988,1310988,0,0,0,0,0,250.0,250.0,250.0,250.0,0.109712295,0.0206673,2.5053713e-11,4.2496114,-0.049416166,-8.709819,0.0030253513,-0.002471414,-0.0015765913,0.0017198941,0.0013779663,0.0020903428,1.2816753e-05,1.8358154e-05,7.977108e-06,11.625977,11.625977
21792972000,1310988,1310988,0,0,0,0,0,250.0,250.0,250.0,250.0,0.118399814,0.02325576,1.3066603e-10,4.257274,-0.05362997,-8.704839,-0.0027909926,0.0021731395,-0.00095873803,0.0034410087,0.0040827007,0.09678588,5.0141294e-05,9.031099e-06,2.4647603e-05,11.588982,11.588982
21793972000,1310988,1310988,0,0,0,0,0,250.0,250.0,250.0,250.0,0.12416235,0.026134789,2.8549935e-10,4.2790127,-0.00335173,-8.715376,0.0031957924,0.0013422334,-0.0034727624,0.0015620452,0.0148615325,0.1632988,0.0075031742,2.1631788e-05,3.772309e-05,11.551907,11.551907
21794972000,1310988,1310988,0,0,0,0,0,250.0,250.0,250.0,250.0,0.11345948,0.021133078,4.1807908e-11,4.2621574,-0.06215332,-8.771301,-0.014274543,-0.00061785337,0.00066046405,0.0009267816,0.0012599275,0.062186677,0.0014884111,1.0886704e-05,1.4645127e-05,11.514945,11.514945
21795972000,1310988,1310988,0,0,0,0,0,250.0,250.0,250.0,250.0,0.11735728,0.022807145,7.9417264e-11,4.3057327,-0.07096398,-8.769289,-0.012932312,0.0008309064,-0.0032810147,0.0031132563,0.0024923063,0.005117843,5.802218e-05,1.8771212e-05,1.6742213e-05,11.477963,11.477963
21796972000,1310988,1310988,0,0,0,0,0,250.0,250.0,250.0,250.0,0.12596676,0.025418827,2.0411282e-10,4.290027,-0.08772341,-8.740082,-0.0037497303,0.00074568525,-0.0029827403,0.0013755768,0.013802166,0.16116066,0.0075816894,2.2922724e-05,2.7688835e-05,11.440888,11.440888
21797972000,1310988,1310988,0,0,0,0,0,250.0,250.0,250.0,250.0,0.122561686,0.0238844,1.049057e-10,4.294049,-0.044148926,-8.73692,-0.00085221214,0.0028762145,0.0007030745,0.002036123,0.004629362,0.06475142,0.005519701,1.5569296e-05,2.9588924e-05,11.403849,11.403849
21798972000,1310988,1310988,0,0,0,0,0,250.0,250.0,250.0,250.0,0.11271347,0.022172578,3.035879e-11,4.323642,-0.08887263,-8.738643,-0.0011504857,-0.0015978967,-0.0024927189,0.0011241209,0.0018408715,0.0024670458,2.6932612e-05,1.4479898e-05,2.051062e-05,11.366855,11.366855
21799972000,1310988,1310988,0,0,0,0,0,250.0,250.0,250.0,250.0,0.12635526,0.024970166,3.6410056e-10,4.303626,-0.0739328,-8.723227,-0.00017044213,0.0034727626,0.001022654,0.0021814932,0.009385821,0.1640584,0.007716077,1.5208888e-05,2.8617544e-05,11.32986,11.32986
21800972000,1310988,1310988,0,0,0,0,0,250.0,250.0,250.0,250.0,0.12658279,0.026741406,2.400096e-10,4.296826,-0.07067667,-8.669308,0.0006604644,-0.002130529,-0.0012570119,0.0030058224,0.009418746,0.1481289,0.0073490087,2.1787935e-05,3.6832505e-05,11.2928295,11.2928295
21801972000,1310988,1310988,0,0,0,0,0,250.0,250.0,250.0,250.0,0.11328899,0.021887073,4.4496642e-11,4.336857,-0.040605504,-8.726674,-0.01063134,0.00027696884,-0.00091612735,0.0010038227,0.0027122393,0.0028872031,4.3450596e-05,9.761903e-06,2.1073472e-05,11.255826,11.255826
21802972000,1310988,1310988,0,0,0,0,0,250.0,250.0,250.0,250.0,0.12413452,0.024678575,2.9910557e-10,4.2982626,-0.058609903,-8.727632,0.0053263223,0.0006817693,-0.0023009714,0.0009971779,0.009767264,0.15322614,0.007532906,6.4800956e-06,4.853989e-05,11.218786,11.218786
21803972000,1310988,1310988,0,0,0,0,0,250.0,250.0,250.0,250.0,0.1346659,0.027536346,1.9736358e-10,4.3120527,-0.061866015,-8.674192,0.009587381,0.002769688,-0.0017257285,0.0006949636,0.009028757,0.14388376,0.007637375,8.647085e-06,3.3255656e-05,11.181738,11.181738
21804972000,1310988,1310988,0,0,0,0,0,250.0,250.0,250.0,250.0,0.10897003,0.02168202,4.234744e-11,4.3116703,-0.06991055,-8.714032,-0.003046657,-0.00063915877,-0.0011504858,0.0010915583,0.0020530452,0.0021235915,6.3083346e-05,2.0426187e-05,2.4413384e-05,11.1447115,11.1447115
21805972000,1310988,1310988,0,0,0,0,0,250.0,250.0,250.0,250.0,0.12220341,0.023897938,4.2136689e-10,4.3113832,-0.04491507,-8.74238,-0.0004900225,0.000809601,-0.0035792885,0.0024342479,0.0112545,0.16397762,0.00742612,1.554932e-05,5.3596505e-05,11.107611,11.107611
21806972000,1310988,1310988,0,0,0,0,0,250.0,250.0,250.0,250.0,0.24740396,0.11245693,7.9080104e-07,4.9452715,-0.9053913,-7.8973217,-3.2509525,2.4509819,-1.2590362,0.08264613,3.9634886,0.510676,0.78428537,0.083423235,0.06533627,11.077724,11.077724
21807972000,1310988,1310988,0,0,0,0,0,250.0,250.0,250.0,250.0,0.14490083,0.041973688,1.1279251e-08,0.70035183,0.17726687,-9.798318,-0.4177541,0.81837875,0.0007670045,0.004249683,0.004586898,0.006346739,0.002386952,0.0010705172,4.1716652e-05,11.068991,11.068991
21808972000,1310988,1310988,0,0,0,0,0,250.0,250.0,250.0,250.0,0.12532206,0.029570732,1.1891371e-08,-1.0735599,-0.05755645,-9.079675,-0.10565292,-0.23832098,-0.00019175174,0.0049939067,0.012975628,0.15852727,0.007871479,0.00017319284,2.355549e-05,11.065705,11.065705
21809972000,1310988,1310988,0,0,0,0,0,250.0,250.0,250.0,250.0,0.1079161,0.022666201,1.3321149e-09,-2.5663931,-0.050469607,-9.458245,-0.042631883,0.13750432,-0.021049624,0.0014032022,0.0018012503,0.011798292,0.0029155542,0.00044930074,6.33012e-05,11.068498,11.068498
21810972000,1310988,1310988,0,0,0,0,0,250.0,250.0,250.0,250.0,0.114303075,0.024905402,1.1963497e-09,-1.965448,-0.35836393,-9.524613,-0.13692908,0.030615702,-0.009864347,0.0008501618,0.005595873,0.084639326,0.00012167013,8.783534e-05,2.6647562e-05,11.073826,11.073826
21811972000,1310988,1310988,0,0,0,0,0,250.0,250.0,250.0,250.0,0.13189171,0.027318882,4.8955204e-09,-0.9458055,-0.2907517,-9.613583,0.017789919,0.098430425,-0.007286406,0.0018051763,0.018028038,0.16243587,0.0077018305,0.0002735065,3.9711238e-05,11.079746,11.079746
21812972000,1310988,1310988,0,0,0,0,0,250.0,250.0,250.0,250.0,0.109719425,0.021367282,1.2768271e-10,-0.12047622,-0.21538222,-9.644994,0.0030040436,-0.010418286,0.0008309062,0.0021226206,0.00209362,0.004534945,0.00042263776,0.000169403,1.9225134e-05,11.0857725,11.0857725
21813972000,1310988,1310988,0,0,0,0,0,250.0,250.0,250.0,250.0,0.11650814,0.023781879,3.0925565e-10,0.14058752,-0.07747619,-9.640203,0.010503508,-0.0011078751,0.00031957924,0.0009540768,0.007446761,0.08521599,0.00172691,1.8654106e-05,2.2400724e-05,11.091893,11.091893
21814972000,1310988,1310988,0,0,0,0,0,250.0,250.0,250.0,250.0,0.1263343,0.02669455,8.1738694e-10,0.109271355,-0.024037616,-9.728885,0.020090887,-0.014508902,-0.0020026974,0.0010812674,0.0149323745,0.15104182,0.0076352083,4.3968048e-05,4.8961127e-05,11.098159,11.098159
21815972000,1310988,1310988,0,0,0,0,0,250.0,250.0,250.0,250.0,0.108543,0.020429723,5.9762126e-11,0.009097966,-0.061387163,-9.642407,-0.0012783174,0.0040480047,-0.00294013,0.0011565288,0.0035823414,0.00083277153,7.743795e-05,2.0516973e-05,1.804586e-05,11.104427,11.104427
21816972000,1310988,1310988,0,0,0,0,0,250.0,250.0,250.0,250.0,0.11750517,0.023001848,9.798271e-11,-0.025953146,-0.11798608,-9.76049,-0.014807176,0.0024714135,-0.0009800433,0.0016195441,0.004548397,0.0031341708,0.00011320647,1.2911168e-05,1.0273919e-05,11.110848,11.110848
21817972000,1310988,1310988,0,0,0,0,0,250.0,250.0,250.0,250.0,0.12901922,0.025827216,7.339192e-10,-0.03045424,-0.14556728,-9.719599,0.0032810133,0.011781825,-0.0017683386,0.002320634,0.012095402,0.15879437,0.007052429,1.6098564e-05,4.5793706e-05,11.117324,11.117324
21818972000,1310988,1310988,0,0,0,0,0,250.0,250.0,250.0,250.0,0.113462366,0.021543102,2.29377e-10,0.025570072,-0.17276543,-9.6911545,-0.011462245,0.005411543,0.0014487596,0.0015273885,0.0028265154,0.06388431,0.002322642,6.960065e-05,7.3879264e-06,11.123684,11.123684
21819972000,1310988,1310988,0,0,0,0,0,250.0,250.0,250.0,250.0,0.11867424,0.022807257,7.2265735e-11,0.027389668,-0.16826431,-9.697952,-0.0061785337,0.0050280485,-0.0025566348,0.0015399352,0.0042833397,0.0060531613,0.00017782135,1.4822153e-05,1.03038765e-05,11.13015,11.13015
21820972000,1310988,1310988,0,0,0,0,0,250.0,250.0,250.0,250.0,0.12559834,0.025409024,7.64378e-10,0.045681365,-0.16711512,-9.715576,0.0025992456,0.013997575,0.0028549088,0.0026143058,0.014972969,0.16221653,0.007286915,2.7133243e-05,3.9851046e-05,11.136728,11.136728
21821972000,1310988,1310988,0,0,0,0,0,250.0,250.0,250.0,250.0,0.12102035,0.025478728,1.4054193e-10,0.03342305,-0.12765868,-9.657825,0.008671254,0.0036218993,-0.00294013,0.0011173117,0.0047644763,0.08322356,0.0073053255,4.589084e-05,3.3342803e-05,11.143285,11.143285
21822972000,1310988,1310988,0,0,0,0,0,250.0,250.0,250.0,250.0,0.112472996,0.021955654,6.372295e-11,0.06100426,-0.14633343,-9.711935,-0.008074705,0.0101626245,-0.0025566344,0.0028235088,0.003684804,0.007654109,7.311849e-05,3.4268785e-05,1.2482672e-05,11.149941,11.149941
21823972000,1310988,1310988,0,0,0,0,0,250.0,250.0,250.0,250.0,0.12647435,0.025133317,2.8362956e-10,0.09165004,-0.116166495,-9.711455,-0.0080960095,0.002790993,0.00076699053,0.0016593669,0.012363722,0.15270692,0.0073223794,4.033673e-05,3.6088088e-05,11.15666,11.15666
21824972000,1310988,1310988,0,0,0,0,0,250.0,250.0,250.0,250.0,0.1295952,0.027678553,3.1808844e-10,0.032369602,-0.111090794,-9.651314,-0.010013485,-0.0029827403,0.0007882956,0.0018040934,0.01047892,0.16146019,0.007561821,1.4003288e-05,3.1799493e-05,11.16338,11.16338
21825972000,1310988,1310988,0,0,0,0,0,250.0,250.0,250.0,250.0,0.111660756,0.021820294,4.659771e-11,0.010630256,-0.09979015,-9.720554,-0.005134575,0.0014700651,-0.0019600866,0.0020975643,0.0017076092,0.0021963306,0.00012457436,1.1853546e-05,1.2385534e-05,11.170127,11.170127
21826972000,1310988,1310988,0,0,0,0,0,250.0,250.0,250.0,250.0,0.12580001,0.024561455,4.284204e-10,-0.0067995326,-0.10103513,-9.730706,0.0015552865,0.0069029126,0.00031957947,0.001881391,0.013035939,0.14645977,0.0073369723,1.256165e-05,4.0307677e-05,11.176875,11.176875
21827972000,1310988,1310988,0,0,0,0,0,250.0,250.0,250.0,250.0,0.1322173,0.026895652,4.388882e-10,0.004309563,-0.1282333,-9.677459,-0.00042610645,0.0073290193,-0.0008522115,0.0017554294,0.008387391,0.1586072,0.0068339906,3.1508076e-05,2.7575357e-05,11.183484,11.183484
21828972000,1310988,1310988,0,0,0,0,0,250.0,250.0,250.0,250.0,0.111770846,0.021417014,5.168975e-11,0.023846252,-0.13886355,-9.725535,-0.008415588,0.007158577,-0.0017257284,0.0015300302,0.0012376973,0.0032615333,4.200986e-05,8.1949875e-06,1.4872084e-05,11.190103,11.190103
21829972000,1310988,1310988,0,0,0,0,0,250.0,250.0,250.0,250.0,0.120152324,0.024297023,4.1816134e-10,0.036583398,-0.17362735,-9.746796,-0.0024501085,-0.003771036,-0.00044741124,0.0008096253,0.013914627,0.1673811,0.0076538753,1.8699495e-05,4.372748e-05,11.196742,11.196742
21830972000,1310988,1310988,0,0,0,0,0,250.0,250.0,250.0,250.0,0.13270618,0.027044503,3.9770576e-10,0.051523216,-0.15485682,-9.684545,0.010205233,0.006199839,-0.0009587379,0.0014344811,0.012949142,0.15151083,0.007402762,8.71245e-06,5.4106713e-05,11.203274,11.203274
21831972000,1310988,1310988,0,0,0,0,0,250.0,250.0,250.0,250.0,0.10950797,0.02082399,7.871096e-11,0.036104564,-0.17228658,-9.692207,-0.0013848442,-0.0057098167,-0.0009800436,0.0011826311,0.0013498099,0.0022901357,0.00028226725,1.7283279e-05,1.8035873e-05,11.209689,11.209689
21832972000,1310988,1310988,0,0,0,0,0,250.0,250.0,250.0,250.0,0.1174195,0.023485908,3.7976305e-10,0.034859583,-0.21959603,-9.658018,0.0009800433,0.00063915923,-0.0012144012,0.002010893,0.011606798,0.0874247,0.0061086705,2.7575355e-05,2.4840969e-05,11.21617,11.21617
21833972000,1310988,1310988,0,0,0,0,0,250.0,250.0,250.0,250.0,0.13140498,0.02659527,2.591409e-10,0.046734814,-0.22112831,-9.672669,0.0015978974,0.005944176,-0.0026631611,0.0014619956,0.011711059,0.15737939,0.0071068374,1.5834385e-05,2.6644831e-05,11.222591,11.222591
21834972000,1310988,1310988,0,0,0,0,0,250.0,250.0,250.0,250.0,0.1108054,0.020544192,3.558586e-11,0.03476381,-0.16558282,-9.657924,-0.0025140245,0.0035366782,-0.001257012,0.0020994165,0.002422511,0.0025461777,7.13446e-05,1.5543877e-05,7.0783562e-06,11.228976,11.228976
21835972000,1310988,1310988,0,0,0,0,0,250.0,250.0,250.0,250.0,0.11952839,0.023415476,3.0803968e-10,0.014269443,-0.17602153,-9.665392,-0.009651296,0.0015765913,0.00014913706,0.0017093332,0.0050595244,0.09328041,0.0020588764,7.885599e-05,2.2480615e-05,11.235439,11.235439
21836972000,1310988,1310988,0,0,0,0,0,250.0,250.0,250.0,250.0,0.13141382,0.025918152,5.800366e-10,0.0014365216,-0.16826433,-9.638386,-0.00010652608,-0.010887003,-0.0003834953,0.0035026046,0.012171765,0.15623301,0.007207744,1.1917093e-05,3.6370417e-05,11.242007,11.242007
21837972000,1310988,1310988,0,0,0,0,0,250.0,250.0,250.0,250.0,0.10732517,0.020334184,5.18163e-11,-0.022409726,-0.17563847,-9.709542,0.001981392,0.0130175315,-0.0004900214,0.0016320173,0.0022267906,0.0027285703,8.341148e-06,4.8457277e-05,1.096024e-05,11.248666,11.248666
21838972000,1310988,1310988,0,0,0,0,0,250.0,250.0,250.0,250.0,0.12042434,0.023082085,7.7481445e-11,-0.02681506,-0.16558282,-9.718257,-0.012676647,0.0002556634,0.0005965481,0.0023923917,0.005015301,0.0039001447,4.110203e-05,1.37109655e-05,7.4287786e-06,11.255275,11.255275
21839972000,1310988,1310988,0,0,0,0,0,250.0,250.0,250.0,250.0,0.12591606,0.02586826,4.2941425e-10,0.0080445185,-0.1725739,-9.711649,0.007392934,0.008010789,-0.00036218984,0.0010500845,0.011548283,0.15762213,0.00788538,1.5080881e-05,5.273861e-05,11.261868,11.261868
21840972000,1310988,1310988,0,0,0,0,0,250.0,250.0,250.0,250.0,0.11397458,0.021818142,1.0319243e-10,0.022122419,-0.20685886,-9.72467,-0.004964133,-0.0056672078,-0.0015339811,0.0017821551,0.0033865839,0.0725185,0.0023273313,9.7337615e-06,2.5017996e-05,11.268479,11.268479
21841972000,1310988,1310988,0,0,0,0,0,250.0,250.0,250.0,250.0,0.11631277,0.022510847,6.685012e-11,0.014652516,-0.25024176,-9.74306,-0.001768339,-0.008394283,0.0006604637,0.0024750822,0.003797524,0.005319536,5.800402e-05,1.0060579e-05,8.971183e-06,11.275008,11.275008
21842972000,1310988,1310988,0,0,0,0,0,250.0,250.0,250.0,250.0,0.12412541,0.025234248,2.2343795e-10,0.010726024,-0.27073613,-9.682727,-0.001619202,-0.00014913682,-0.002066613,0.0022030547,0.010618288,0.16736476,0.0073615867,1.82365e-05,4.8485424e-05,11.281568,11.281568
21843972000,1310988,1310988,0,0,0,0,0,250.0,250.0,250.0,250.0,0.12002528,0.025096398,5.6712457e-10,0.016472107,-0.21135995,-9.705231,0.007669905,0.010247843,-0.0028549088,0.00078935636,0.008156472,0.07739203,0.007222111,3.4435834e-05,3.4767192e-05,11.288231,11.288231
21844972000,1310988,1310988,0,0,0,0,0,250.0,250.0,250.0,250.0,0.113313735,0.022127613,5.4184084e-11,0.053055506,-0.22649133,-9.71864,-0.00023435825,-0.005028048,-0.003749731,0.0019726478,0.005062221,0.003054739,7.1311915e-05,1.5162588e-05,1.4990098e-05,11.294825,11.294825
21845972000,1310988,1310988,0,0,0,0,0,250.0,250.0,250.0,250.0,0.12389153,0.024521181,2.176754e-10,0.037636854,-0.19823973,-9.715862,-0.0018109512,-0.003174488,-0.0015126754,0.0010471678,0.009976322,0.16312703,0.0072497767,2.188961e-05,5.8388938e-05,11.301388,11.301388
21846972000,1310988,1310988,0,0,0,0,0,250.0,250.0,250.0,250.0,0.1260044,0.027820349,2.666715e-10,-3.7817097e-10,-0.21461609,-9.6448965,0.01320928,0.0027057717,-0.0025992452,0.0010295034,0.013219316,0.15059909,0.0073176143,1.9675414e-05,3.586657e-05,11.307939,11.307939
21847972000,1310988,1310988,0,0,0,0,0,250.0,250.0,250.0,250.0,0.11019774,0.022239609,1.0967683e-10,-0.017908629,-0.19910164,-9.655145,-0.021070931,-0.00093743275,-0.00031957935,0.0020283374,0.0021904712,0.004196157,0.00018928449,1.6460785e-05,7.603083e-06,11.314357,11.314357
21848972000,1310988,1310988,0,0,0,0,0,250.0,250.0,250.0,250.0,0.12382894,0.024427429,2.6743094e-10,-0.04807557,-0.18770525,-9.719692,-0.008671252,0.0016618124,-0.0015552862,0.0024395883,0.012142632,0.16789654,0.007297836,3.2189862e-05,4.0986746e-05,11.320766,11.320766
21849972000,1310988,1310988,0,0,0,0,0,250.0,250.0,250.0,250.0,0.12830345,0.026980959,1.9249685e-10,-0.018674772,-0.18109725,-9.64643,0.0069242185,-0.0028122982,-0.0015978967,0.00087083614,0.010449057,0.15485424,0.007485699,1.47186565e-05,2.1946804e-05,11.327121,11.327121
21850972000,1310988,1310988,0,0,0,0,0,250.0,250.0,250.0,250.0,0.10898179,0.020882187,3.199962e-11,-0.052002057,-0.18598145,-9.649208,-0.0028975194,-0.0017896442,-0.0011291803,0.002870466,0.0024803097,0.006100083,4.126272e-05,9.3252365e-06,1.1967933e-05,11.33348,11.33348
