timestamp,timestamp_sample,accel_device_id,gyro_device_id,delta_angle[0],delta_angle[1],delta_angle[2],delta_velocity[0],delta_velocity[1],delta_velocity[2],delta_angle_dt,delta_velocity_dt,delta_velocity_clipping,accel_calibration_count,gyro_calibration_count
21726556000,21726556000,1311004,1311004,-4.085778e-06,3.035026e-06,-6.571582e-06,-0.0004473267,3.361681e-05,-0.039622314,4000,4000,0,20,0
21727056000,21727056000,1311004,1311004,1.4877829e-06,-3.797981e-06,4.3744926e-06,-0.000111281784,7.5517135e-05,-0.03918298,4000,4000,0,20,0
21727556000,21727556000,1311004,1311004,1.0459639e-05,-1.0332075e-06,-4.909407e-07,-0.0005676696,-0.0001960604,-0.039485723,4000,4000,0,20,0
21728056000,21728056000,1311004,1311004,1.3974669e-05,4.9609407e-06,-2.168082e-05,-0.0003167066,-0.0003084263,-0.039393045,4000,4000,0,20,0
21728556000,21728556000,1311004,1311004,-2.540133e-06,-7.1411437e-06,-1.9209921e-05,9.5076946e-05,-0.00013109838,-0.03918683,4000,4000,0,20,0
21729056000,21729056000,1311004,1311004,-6.171572e-05,-3.4954035e-06,-1.8739698e-05,-0.00035511513,0.00020494834,-0.040341254,4000,4000,0,20,0
21729552000,21729552000,1311004,1311004,-1.4000517e-06,3.1375512e-06,1.9682466e-06,-1.4940218e-05,-0.00023824499,-0.03951362,4000,4000,0,20,0
21730052000,21730052000,1311004,1311004,-7.221957e-05,-1.4226998e-05,-4.292132e-05,-0.00034410824,-0.0002479527,-0.040960543,4000,4000,0,20,0
21730556000,21730556000,1311004,1311004,4.3039045e-06,4.4422606e-05,-1.0629432e-05,-0.0004802296,-0.0006029822,-0.039623015,4000,4000,0,20,0
21731056000,21731056000,1311004,1311004,1.1218977e-05,-4.7684484e-06,-1.8783825e-05,-0.00015326281,-0.00039576003,-0.04115527,4000,4000,0,20,0
21731556000,21731556000,1311004,1311004,2.0604093e-06,1.0244503e-05,-4.282891e-06,2.6679114e-05,-0.00012508807,-0.038917914,4000,4000,0,20,0
21732056000,21732056000,1311004,1311004,2.2906452e-05,4.497681e-06,1.4395592e-05,-0.00033849772,-0.0004798583,-0.038912434,4000,4000,0,20,0
21732556000,21732556000,1311004,1311004,2.3027718e-05,-2.4186784e-05,1.3836954e-05,-0.00014867018,-0.00052281667,-0.04099006,4000,4000,0,20,0
21733056000,21733056000,1311004,1311004,4.3471966e-05,1.2284443e-05,-5.289042e-06,-0.00048034653,-0.0005384343,-0.041610207,4000,4000,0,20,0
21733556000,21733556000,1311004,1311004,-1.3308301e-06,9.787599e-06,-2.1870008e-05,-0.0006078693,-0.00058534765,-0.0346392,4000,4000,0,20,0
21734056000,21734056000,1311004,1311004,-0.0001653142,0.00024140505,-7.70116e-06,1.6222717e-05,-0.00067280093,-0.043373417,4000,4000,0,20,0
21734552000,21734552000,1311004,1311004,0.00017896995,-5.6863737e-05,-3.3372668e-05,0.0001766913,-7.109184e-05,-0.047608916,4000,4000,0,20,0
21735056000,21735056000,1311004,1311004,4.4967233e-05,-5.188279e-06,2.1468677e-05,-8.253309e-05,-0.00013475682,-0.034180425,4000,4000,0,20,0
21735556000,21735556000,1311004,1311004,4.0323015e-05,6.106123e-05,-5.6171075e-06,-0.00062274694,-0.0002767939,-0.035444222,4000,4000,0,20,0
21736056000,21736056000,1311004,1311004,-1.0493858e-05,1.1910875e-05,1.1972216e-05,-0.00035355426,-0.0002675273,-0.036751363,4000,4000,0,20,0
21736556000,21736556000,1311004,1311004,-5.375073e-05,3.370171e-05,1.1700816e-05,-8.3320476e-05,-0.0004626459,-0.038310584,4000,4000,0,20,0
21737056000,21737056000,1311004,1311004,-4.735402e-05,-3.6456943e-06,-3.5499268e-06,-0.00022556726,2.4415775e-05,-0.03904595,4000,4000,0,20,0
21737556000,21737556000,1311004,1311004,-0.00011329666,0.00020878155,1.5513298e-05,0.00011835414,-0.0002867258,-0.037622146,4000,4000,0,20,0
21738052000,21738052000,1311004,1311004,0.00024486938,0.00036822312,-1.7642931e-05,-0.00024589608,-0.00039545004,-0.041082818,4000,4000,0,20,0
21738556000,21738556000,1311004,1311004,0.00065191794,0.0010579993,-3.8487677e-05,0.0012695581,-0.00094735244,-0.041663375,4000,4000,0,20,0
21739056000,21739056000,1311004,1311004,0.0002524975,0.00057102967,-7.1445436e-05,0.0039669387,-0.002073252,-0.040612847,4000,4000,0,20,0
21739556000,21739556000,1311004,1311004,0.000110838235,-0.0003399161,-4.383138e-05,0.008223838,-0.003136825,-0.046509586,4000,4000,0,20,0
21740056000,21740056000,1311004,1311004,-0.0007690095,-6.477449e-05,8.7924585e-05,0.011896024,-0.0021433253,-0.04924336,4000,4000,0,20,0
21740556000,21740556000,1311004,1311004,4.5819554e-05,7.220314e-05,5.7284655e-05,0.01350386,-0.0008474111,-0.042796995,4000,4000,0,20,0
21741056000,21741056000,1311004,1311004,-4.491809e-05,6.501797e-05,2.4701309e-05,0.013575055,-0.00062057987,-0.04093621,4000,4000,0,20,0
21741556000,21741556000,1311004,1311004,-1.6499342e-05,2.2862641e-05,2.2517248e-05,0.014384558,-0.00033033255,-0.04000799,4000,4000,0,20,0
21742056000,21742056000,1311004,1311004,0.00010686583,8.364614e-05,4.6916295e-05,0.014840536,-0.00014733309,-0.03963338,4000,4000,0,20,0
21742556000,21742556000,1311004,1311004,-4.718074e-06,3.7801477e-05,-5.3920944e-06,0.014849167,-0.00018862497,-0.03880582,4000,4000,0,20,0
21743056000,21743056000,1311004,1311004,-0.00062897906,8.459923e-05,5.894601e-05,0.015247236,-7.5903314e-05,-0.03679138,4000,4000,0,20,0
21743556000,21743556000,1311004,1311004,3.3443673e-06,6.209194e-05,3.510504e-05,0.015853997,-0.00036508255,-0.037415817,4000,4000,0,20,0
21744052000,21744052000,1311004,1311004,2.5675221e-05,4.8821257e-05,6.232729e-07,0.015675522,-0.00053675356,-0.037027754,4000,4000,0,20,0
21744556000,21744556000,1311004,1311004,-4.5954763e-05,4.0777726e-05,9.264249e-06,0.015830282,-0.00047204478,-0.03681445,4000,4000,0,20,0
21745056000,21745056000,1311004,1311004,-9.732837e-06,3.2048334e-05,-3.3198928e-06,0.015993731,-0.00035434111,-0.036338214,4000,4000,0,20,0
21745552000,21745552000,1311004,1311004,7.2185045e-05,1.2998303e-05,-3.454614e-07,0.016240023,-0.00072873884,-0.03694617,4000,4000,0,20,0
21746056000,21746056000,1311004,1311004,0.0008873329,2.3666618e-05,-3.4239638e-05,0.016614506,-0.0004661401,-0.03528696,4000,4000,0,20,0
21746556000,21746556000,1311004,1311004,2.564266e-05,3.7504193e-05,1.2630364e-05,0.016472498,-0.0003182052,-0.036030445,4000,4000,0,20,0
21747052000,21747052000,1311004,1311004,4.6918864e-05,4.828046e-05,6.842448e-08,0.016760468,-0.00011033254,-0.035814434,4000,4000,0,20,0
21747556000,21747556000,1311004,1311004,-1.45111035e-05,1.0647166e-05,4.849233e-06,0.016817218,-0.00023296563,-0.03553325,4000,4000,0,20,0
21748052000,21748052000,1311004,1311004,-1.9388779e-05,1.5969763e-05,-8.222333e-06,0.01672624,-0.00020626334,-0.035940733,4000,4000,0,20,0
21748552000,21748552000,1311004,1311004,-2.3423145e-05,3.821943e-05,-2.3626524e-05,0.017049104,-4.6158937e-05,-0.03589316,4000,4000,0,20,0
21749056000,21749056000,1311004,1311004,-8.838953e-05,3.2572698e-05,1.6244463e-05,0.016853876,-0.00021500366,-0.03643222,4000,4000,0,20,0
21749556000,21749556000,1311004,1311004,2.953574e-05,3.0716972e-06,8.657861e-06,0.016884785,-0.00012244724,-0.035589002,4000,4000,0,20,0
21750056000,21750056000,1311004,1311004,5.5129516e-05,8.393239e-06,-2.8108021e-05,0.017361421,-0.00017013513,-0.035184443,4000,4000,0,20,0
21750552000,21750552000,1311004,1311004,-3.0513576e-05,2.1694889e-06,-4.463184e-07,0.017284311,-0.00021220153,-0.035489514,4000,4000,0,20,0
21751056000,21751056000,1311004,1311004,-1.3853349e-05,-8.940557e-06,-1.0429967e-05,0.017209891,-0.00015169034,-0.035355438,4000,4000,0,20,0
21751556000,21751556000,1311004,1311004,-1.4631316e-05,1.3069353e-05,-2.8699858e-05,0.017298358,-4.5347395e-05,-0.03532525,4000,4000,0,20,0
21752056000,21752056000,1311004,1311004,1.4746986e-05,5.5653313e-06,1.6735303e-05,0.017560923,0.00021125044,-0.035868485,4000,4000,0,20,0
21752556000,21752556000,1311004,1311004,-0.0008157006,7.0401784e-06,4.47545e-05,0.01710852,-0.00076646206,-0.04049516,4000,4000,0,20,0
21753052000,21753052000,1311004,1311004,4.3589658e-05,2.9341263e-05,1.3073016e-05,0.01719006,-7.5614895e-05,-0.035119932,4000,4000,0,20,0
21753556000,21753556000,1311004,1311004,-5.6660524e-06,-3.8094001e-06,3.1471582e-06,0.01688094,-0.000101798694,-0.035036497,4000,4000,0,20,0
21754052000,21754052000,1311004,1311004,-1.3557033e-05,-1.5762596e-05,-6.497371e-06,0.017106276,7.2090384e-05,-0.035043597,4000,4000,0,20,0
21754552000,21754552000,1311004,1311004,-3.783166e-05,9.281088e-06,-8.7358944e-07,0.017184446,-3.665505e-05,-0.03531049,4000,4000,0,20,0
21755052000,21755052000,1311004,1311004,6.880296e-05,-2.1912512e-05,1.6942578e-05,0.017104417,0.00013356468,-0.035406273,4000,4000,0,20,0
21755556000,21755556000,1311004,1311004,0.001099294,1.4043468e-05,-7.9340614e-05,0.016858578,0.0006993533,-0.034145202,4000,4000,0,20,0
21756056000,21756056000,1311004,1311004,3.2235344e-05,3.2935668e-06,3.1050837e-05,0.017453237,-6.3274485e-05,-0.0350981,4000,4000,0,20,0
21756552000,21756552000,1311004,1311004,-2.7961327e-05,1.5842557e-05,4.7035296e-06,0.017340489,-9.3055554e-05,-0.035056878,4000,4000,0,20,0
21757052000,21757052000,1311004,1311004,-6.949154e-05,2.2394912e-05,-3.6689857e-05,0.016974956,0.00015079211,-0.03500557,4000,4000,0,20,0
21757556000,21757556000,1311004,1311004,6.875616e-06,4.1130337e-05,-2.5325919e-05,0.017280422,-0.00026617647,-0.03550929,4000,4000,0,20,0
21758056000,21758056000,1311004,1311004,2.364205e-06,-1.2593924e-05,-1.9110561e-05,0.017000174,-0.00011513159,-0.03562283,4000,4000,0,20,0
21758556000,21758556000,1311004,1311004,-9.5311196e-05,1.8124507e-05,-1.3083791e-05,0.017364154,-0.001018913,-0.029291281,4000,4000,0,20,0
21759056000,21759056000,1311004,1311004,-7.5460453e-06,-1.1247701e-05,4.0711264e-05,0.017149212,-0.00024144909,-0.034884583,4000,4000,0,20,0
21759556000,21759556000,1311004,1311004,9.153215e-06,-1.5028977e-06,-7.533354e-06,0.017073287,-0.00021962999,-0.034811888,4000,4000,0,20,0
21760056000,21760056000,1311004,1311004,-3.8519665e-05,2.9088735e-06,-2.1181004e-05,0.017167399,3.1176925e-05,-0.035105586,4000,4000,0,20,0
21760556000,21760556000,1311004,1311004,-8.8978806e-05,1.1936664e-06,-1.5359854e-05,0.016955944,4.3943226e-05,-0.035337564,4000,4000,0,20,0
21761056000,21761056000,1311004,1311004,-5.8747868e-05,3.859163e-05,-2.0199484e-05,0.017444484,4.494538e-06,-0.035436064,4000,4000,0,20,0
21761552000,21761552000,1311004,1311004,-9.260223e-05,2.04118e-05,3.593572e-05,0.016796518,-0.000113954855,-0.035921056,4000,4000,0,20,0
21762056000,21762056000,1311004,1311004,1.7823757e-05,3.4650086e-06,4.089511e-06,0.017231332,9.0633934e-05,-0.035035152,4000,4000,0,20,0
21762556000,21762556000,1311004,1311004,-1.570393e-05,-8.214572e-07,1.5210916e-05,0.017402943,-0.00013918543,-0.03513446,4000,4000,0,20,0
21763052000,21763052000,1311004,1311004,2.0408901e-05,8.836976e-06,7.442188e-06,0.017326063,0.00011246794,-0.035246473,4000,4000,0,20,0
21763556000,21763556000,1311004,1311004,3.4450266e-06,7.735612e-06,-5.058446e-06,0.017296847,-0.00036855938,-0.035073444,4000,4000,0,20,0
21764056000,21764056000,1311004,1311004,1.9319525e-06,-9.552454e-06,-4.556723e-05,0.017077832,1.4967958e-05,-0.035229962,4000,4000,0,20,0
21764556000,21764556000,1311004,1311004,5.5323217e-05,-1.2720711e-05,1.3778329e-05,0.016995307,0.00013115279,-0.035377234,4000,4000,0,20,0
21765056000,21765056000,1311004,1311004,-0.0006366828,1.6664333e-05,4.095951e-05,0.017535213,-2.0263311e-05,-0.033957083,4000,4000,0,20,0
21765556000,21765556000,1311004,1311004,4.3741737e-05,8.650491e-06,3.1758127e-06,0.017495733,-0.0002816094,-0.035142947,4000,4000,0,20,0
21766052000,21766052000,1311004,1311004,2.347202e-05,-3.41806e-07,1.1543477e-05,0.017162403,7.097788e-05,-0.034718268,4000,4000,0,20,0
21766556000,21766556000,1311004,1311004,-2.9763081e-05,9.64824e-06,2.5529665e-05,0.017109742,3.2822696e-05,-0.035087198,4000,4000,0,20,0
21767056000,21767056000,1311004,1311004,4.886391e-06,-2.6664636e-06,-2.5706744e-05,0.017314814,-0.00024545242,-0.034961935,4000,4000,0,20,0
21767556000,21767556000,1311004,1311004,-4.884476e-05,-4.8849528e-05,-5.5176665e-06,0.017295556,-0.00030659206,-0.035152826,4000,4000,0,20,0
21768056000,21768056000,1311004,1311004,0.00088043755,1.2681312e-05,-6.075022e-05,0.01718569,-0.00048475544,-0.034304146,4000,4000,0,20,0
21768552000,21768552000,1311004,1311004,1.3829105e-05,7.107281e-06,2.0095194e-05,0.0176692,-0.0005286096,-0.035122585,4000,4000,0,20,0
21769056000,21769056000,1311004,1311004,1.7284154e-05,-3.1470037e-05,-2.3474691e-05,0.017574457,-8.54702e-05,-0.03478404,4000,4000,0,20,0
21769552000,21769552000,1311004,1311004,-2.2158136e-05,-4.8042784e-06,3.6934332e-06,0.017482232,0.0001770611,-0.034659736,4000,4000,0,20,0
21770056000,21770056000,1311004,1311004,-5.8574966e-05,-1.3124247e-05,7.672028e-06,0.017528217,7.9681755e-05,-0.035186112,4000,4000,0,20,0
21770556000,21770556000,1311004,1311004,-1.5197584e-05,-9.311922e-06,1.8775398e-05,0.017392589,-0.00047151095,-0.035482816,4000,4000,0,20,0
21771056000,21771056000,1311004,1311004,-7.023679e-05,4.9818873e-06,3.1013762e-05,0.017014833,-3.700911e-05,-0.03540002,4000,4000,0,20,0
21771552000,21771552000,1311004,1311004,-6.18804e-06,1.7182387e-05,2.3080836e-05,0.017507762,-0.00018177964,-0.03531033,4000,4000,0,20,0
21772052000,21772052000,1311004,1311004,5.54082e-06,9.628699e-06,-3.8323025e-05,0.017216433,-0.00027823757,-0.034913514,4000,4000,0,20,0
21772552000,21772552000,1311004,1311004,-4.3045362e-05,-1.5641446e-06,1.4138664e-06,0.017792137,-0.00021600371,-0.03480624,4000,4000,0,20,0
21773056000,21773056000,1311004,1311004,5.443521e-06,3.3951903e-05,1.187911e-05,0.01742634,4.5652247e-05,-0.035080526,4000,4000,0,20,0
21773552000,21773552000,1311004,1311004,-6.143471e-05,-1.3274851e-05,-6.074811e-06,0.017803174,-0.00020397306,-0.03548634,4000,4000,0,20,0
21774056000,21774056000,1311004,1311004,3.859573e-05,-7.898005e-06,7.1437935e-06,0.017655533,9.368097e-05,-0.03543806,4000,4000,0,20,0
21774556000,21774556000,1311004,1311004,-0.00079217815,-3.087505e-05,6.0447273e-05,0.017133165,-0.0010364278,-0.040327385,4000,4000,0,20,0
21775052000,21775052000,1311004,1311004,2.649083e-05,-1.47111505e-05,2.142001e-06,0.017291304,-1.18025255e-05,-0.035033867,4000,4000,0,20,0
21775552000,21775552000,1311004,1311004,-1.1076864e-05,-2.7298067e-06,-7.703054e-06,0.017338129,-0.0001452237,-0.035116076,4000,4000,0,20,0
21776056000,21776056000,1311004,1311004,-1.940174e-05,1.6086966e-05,-1.3416892e-05,0.017346662,0.0001121119,-0.03526869,4000,4000,0,20,0
21776556000,21776556000,1311004,1311004,-6.542143e-05,-3.229536e-05,-1.7543061e-05,0.01715335,0.00026340183,-0.03538969,4000,4000,0,20,0
21777056000,21777056000,1311004,1311004,-1.8360415e-05,4.035717e-06,1.5309119e-05,0.017495435,-0.00034055693,-0.035656113,4000,4000,0,20,0
21777556000,21777556000,1311004,1311004,0.00114394,-1.6091037e-05,-9.848783e-05,0.017360631,0.0007828645,-0.034088843,4000,4000,0,20,0
21778052000,21778052000,1311004,1311004,1.3767369e-05,1.1499515e-05,1.17005975e-05,0.017225755,-0.00022199981,-0.03486391,4000,4000,0,20,0
21778552000,21778552000,1311004,1311004,5.922802e-06,1.4488246e-05,5.5656446e-06,0.01739103,-0.00022427591,-0.035247818,4000,4000,0,20,0
21779056000,21779056000,1311004,1311004,-3.1159682e-06,3.100877e-07,1.7705514e-05,0.01744941,-2.3447881e-05,-0.03485342,4000,4000,0,20,0
21779556000,21779556000,1311004,1311004,-6.702832e-05,5.305187e-06,8.6147475e-06,0.017459093,-2.3239187e-05,-0.03515257,4000,4000,0,20,0
21780056000,21780056000,1311004,1311004,-2.1845914e-05,-1.7137796e-05,1.2907009e-05,0.017522352,-0.0002192683,-0.03537356,4000,4000,0,20,0
21780556000,21780556000,1311004,1311004,-0.0001685329,-6.9920884e-06,-3.508886e-05,0.017726826,-0.0008307824,-0.029464854,4000,4000,0,20,0
21781052000,21781052000,1311004,1311004,8.825326e-05,-5.261911e-06,4.4934895e-05,0.017326476,-0.0003255932,-0.035026167,4000,4000,0,20,0
21781556000,21781556000,1311004,1311004,-1.5961747e-05,1.5619315e-05,1.7488417e-05,0.017515928,1.7220555e-06,-0.035304952,4000,4000,0,20,0
21782056000,21782056000,1311004,1311004,-1.5583819e-05,-1.4255132e-05,-3.0521417e-06,0.017160058,-0.00021905416,-0.035029244,4000,4000,0,20,0
21782552000,21782552000,1311004,1311004,6.55318e-05,7.214662e-06,2.885982e-05,0.017230181,-0.00012220499,-0.035142023,4000,4000,0,20,0
21783056000,21783056000,1311004,1311004,6.411536e-05,-4.1104562e-05,-7.4710755e-07,0.01758893,-0.00025349646,-0.03541798,4000,4000,0,20,0
21783552000,21783552000,1311004,1311004,-8.2042956e-05,1.2305644e-05,-5.107192e-06,0.016950712,-2.555904e-05,-0.03528237,4000,4000,0,20,0
21784056000,21784056000,1311004,1311004,1.6600712e-05,-2.5516783e-05,1.4207626e-05,0.017170127,-0.00017034408,-0.03486685,4000,4000,0,20,0
21784556000,21784556000,1311004,1311004,-5.14141e-05,1.2149169e-05,1.1118544e-05,0.017588962,-0.00026655322,-0.03499137,4000,4000,0,20,0
21785056000,21785056000,1311004,1311004,-1.748967e-05,2.3305087e-05,-2.112974e-05,0.017510466,-0.00021621208,-0.03478188,4000,4000,0,20,0
21785556000,21785556000,1311004,1311004,-2.4032812e-05,2.298676e-06,-3.9758885e-05,0.017401984,-0.00026734459,-0.03509964,4000,4000,0,20,0
21786056000,21786056000,1311004,1311004,-3.5631972e-05,1.5943377e-05,3.824842e-06,0.017765418,-4.5804616e-05,-0.035442654,4000,4000,0,20,0
21786556000,21786556000,1311004,1311004,4.2917956e-05,-8.410372e-06,1.823395e-05,0.017472615,3.3288043e-06,-0.035579227,4000,4000,0,20,0
21787056000,21787056000,1311004,1311004,-0.0006024673,1.0430546e-06,3.707333e-05,0.017344074,-3.189296e-05,-0.033675395,4000,4000,0,20,0
21787552000,21787552000,1311004,1311004,-1.0014019e-05,1.6171334e-05,-3.0003837e-06,0.017270403,-0.000103919505,-0.034723554,4000,4000,0,20,0
21788056000,21788056000,1311004,1311004,5.7806956e-06,-3.2253936e-07,1.6698845e-05,0.017240122,0.00021633408,-0.034841616,4000,4000,0,20,0
21788556000,21788556000,1311004,1311004,-2.1163816e-05,1.0570563e-05,-2.5116797e-06,0.017102698,7.3585084e-05,-0.034873907,4000,4000,0,20,0
21789056000,21789056000,1311004,1311004,-7.427871e-05,1.1491595e-06,-2.8005461e-05,0.01721338,-0.00015972849,-0.03541221,4000,4000,0,20,0
21789556000,21789556000,1311004,1311004,1.0073546e-05,-2.3909384e-05,1.00178695e-05,0.017234651,-0.00067712297,-0.035457056,4000,4000,0,20,0
21790052000,21790052000,1311004,1311004,0.0011527418,-2.4723375e-05,-9.253706e-05,0.01768011,0.0013213509,-0.033942383,4000,4000,0,20,0
21790556000,21790556000,1311004,1311004,1.9693296e-05,-1.4686579e-05,-8.961996e-06,0.016948203,-6.270316e-05,-0.034934446,4000,4000,0,20,0
21791056000,21791056000,1311004,1311004,-1.1127794e-06,-3.2633205e-05,1.7963117e-06,0.017485486,-0.00036111817,-0.03496416,4000,4000,0,20,0
21791556000,21791556000,1311004,1311004,-5.8933438e-05,-1.668476e-05,-5.306e-06,0.017529313,-0.00024139353,-0.035010923,4000,4000,0,20,0
21792052000,21792052000,1311004,1311004,-4.757128e-05,1.2358806e-05,1.0318536e-05,0.017400457,-0.00019701583,-0.03521014,4000,4000,0,20,0
21792556000,21792556000,1311004,1311004,-1.3384569e-05,-1.2574506e-05,-2.5495967e-05,0.01747153,-0.00039295663,-0.03562243,4000,4000,0,20,0
21793056000,21793056000,1311004,1311004,-6.950511e-05,9.511805e-06,7.6573724e-07,0.017121619,-0.00033365857,-0.0350574,4000,4000,0,20,0
21793552000,21793552000,1311004,1311004,6.4531e-05,7.017162e-06,4.383549e-06,0.017360363,-0.00035100736,-0.035036568,4000,4000,0,20,0
21794052000,21794052000,1311004,1311004,-2.9147039e-05,-1.533794e-05,1.3349991e-05,0.017338011,-0.000553345,-0.034767218,4000,4000,0,20,0
21794556000,21794556000,1311004,1311004,1.7292741e-05,1.0613662e-05,1.00415355e-05,0.017481431,-0.0003060637,-0.034878977,4000,4000,0,20,0
21795052000,21795052000,1311004,1311004,3.439813e-05,-3.693134e-05,2.8811096e-06,0.017773418,-0.0001566342,-0.03501429,4000,4000,0,20,0
21795552000,21795552000,1311004,1311004,-3.9336137e-05,2.0087436e-05,-1.4718271e-05,0.01738567,-0.00036953867,-0.035302795,4000,4000,0,20,0
21796056000,21796056000,1311004,1311004,-1.3922044e-05,3.7517539e-06,5.3330405e-06,0.017427118,-0.00014095224,-0.035628214,4000,4000,0,20,0
21796556000,21796556000,1311004,1311004,-0.00077333534,3.022142e-05,2.3250945e-05,0.01745165,-0.00080451625,-0.04016422,4000,4000,0,20,0
21797052000,21797052000,1311004,1311004,-2.6423604e-05,1.0474939e-05,6.2900604e-06,0.01732187,-0.0005504914,-0.034795523,4000,4000,0,20,0
21797556000,21797556000,1311004,1311004,-4.308791e-06,-2.524428e-06,-2.0233385e-05,0.017416025,-0.0003421039,-0.03479626,4000,4000,0,20,0
21798056000,21798056000,1311004,1311004,-2.6342134e-06,-2.9679697e-05,8.7322205e-06,0.01759062,-0.00017593495,-0.034636304,4000,4000,0,20,0
21798556000,21798556000,1311004,1311004,-5.8952333e-05,-1.1856916e-05,-2.4869556e-05,0.017449025,-0.00023525722,-0.03532835,4000,4000,0,20,0
21799052000,21799052000,1311004,1311004,2.5484038e-05,2.1750388e-05,-6.6338416e-06,0.01741035,-0.00012629222,-0.03499861,4000,4000,0,20,0
21799552000,21799552000,1311004,1311004,-0.0005625097,3.4258832e-05,3.4018965e-05,0.0173862,-0.000217882,-0.03365206,4000,4000,0,20,0
21800056000,21800056000,1311004,1311004,-6.752366e-06,-1.5338e-05,6.3720136e-06,0.017007323,-0.00023032069,-0.034924597,4000,4000,0,20,0
21800556000,21800556000,1311004,1311004,2.0583055e-05,-3.5377343e-06,-1.5922902e-05,0.01746451,-0.000288228,-0.034930777,4000,4000,0,20,0
21801056000,21801056000,1311004,1311004,-1.2189585e-05,1.372708e-05,-3.7471302e-06,0.017326241,-0.00026283582,-0.034912255,4000,4000,0,20,0
21801556000,21801556000,1311004,1311004,-5.915703e-05,-2.2362889e-07,-1.2798872e-05,0.01768282,-0.00014495544,-0.034777146,4000,4000,0,20,0
21802056000,21802056000,1311004,1311004,-4.95646e-05,3.0488482e-05,8.986944e-06,0.017608998,-0.00035848917,-0.03515494,4000,4000,0,20,0
21802556000,21802556000,1311004,1311004,-0.0001340764,-1.8254901e-05,9.85045e-06,0.01779909,-0.0013336047,-0.029498471,4000,4000,0,20,0
21803056000,21803056000,1311004,1311004,3.19966e-05,-1.4738026e-05,-1.8028908e-05,0.017441584,-5.8218455e-05,-0.034883086,4000,4000,0,20,0
21803552000,21803552000,1311004,1311004,3.892743e-06,1.4436576e-05,-8.829349e-06,0.017648112,-0.00030149723,-0.03487268,4000,4000,0,20,0
21804056000,21804056000,1311004,1311004,7.4723885e-06,-2.976523e-05,-1.5321268e-05,0.017590495,-0.00029863013,-0.034860943,4000,4000,0,20,0
21804552000,21804552000,1311004,1311004,-0.0001979946,8.360266e-06,-4.0407307e-05,0.017522173,9.5460164e-05,-0.03498919,4000,4000,0,20,0
21805056000,21805056000,1311004,1311004,3.6869136e-05,-3.368271e-05,-2.558662e-05,0.017396552,-0.00041738065,-0.03518418,4000,4000,0,20,0
21805552000,21805552000,1311004,1311004,-0.00012372398,1.6185262e-05,-5.634738e-06,0.017868817,-0.00013462531,-0.035890337,4000,4000,0,20,0
21806052000,21806052000,1311004,1311004,-4.2044987e-05,-1.1120162e-05,3.7742648e-06,0.017243376,-0.00039562935,-0.035032257,4000,4000,0,20,0
21806552000,21806552000,1311004,1311004,0.0032564453,-0.011154306,0.0022023476,0.009918147,0.00032775686,-0.0033239531,4000,4000,0,20,0
21807056000,21807056000,1311004,1311004,-0.006861033,0.0024697692,0.0008978507,0.018227167,0.0008626428,-0.03033392,4000,4000,0,20,0
21807552000,21807552000,1311004,1311004,0.002138725,0.00055631273,-2.9165212e-05,0.0067783133,0.0011320462,-0.033879865,4000,4000,0,20,0
21808052000,21808052000,1311004,1311004,-0.0024351552,0.0004489346,-0.000111350855,0.0035917216,0.0013757654,-0.037080422,4000,4000,0,20,0
21808556000,21808556000,1311004,1311004,-0.000115006624,-0.0012607599,7.899713e-05,-0.00064776797,-0.00019706182,-0.03592748,4000,4000,0,20,0
21809052000,21809052000,1311004,1311004,-0.00032188257,-0.00095754245,-1.729332e-05,-0.005792207,-0.00018984653,-0.035837043,4000,4000,0,20,0
21809556000,21809556000,1311004,1311004,-2.5755413e-05,0.00029465498,0.00017743469,-0.009300642,-0.0008033647,-0.034631547,4000,4000,0,20,0
21810056000,21810056000,1311004,1311004,0.00038318223,0.0003399976,2.025843e-05,-0.0103578875,-0.0006603114,-0.038043544,4000,4000,0,20,0
21810556000,21810556000,1311004,1311004,0.0005404707,0.0015850207,-3.32914e-05,-0.00891828,-0.0015459384,-0.036740568,4000,4000,0,20,0
21811056000,21811056000,1311004,1311004,-0.0004895648,0.00022563123,-7.403128e-05,-0.007110964,-0.0019658743,-0.038608056,4000,4000,0,20,0
21811556000,21811556000,1311004,1311004,0.00020753003,0.0004003961,-4.448058e-06,-0.005241828,-0.0013819842,-0.03841364,4000,4000,0,20,0
21812056000,21812056000,1311004,1311004,-9.899485e-05,0.00037850018,1.9753083e-05,-0.0032035715,-0.0009584973,-0.038594298,4000,4000,0,20,0
21812556000,21812556000,1311004,1311004,-9.0379806e-05,0.00023409165,8.938773e-06,-0.0011082427,-0.00055856945,-0.038954735,4000,4000,0,20,0
21813056000,21813056000,1311004,1311004,-0.000119137076,-2.7429644e-05,1.0545441e-05,0.00031760693,-0.00067890703,-0.038717512,4000,4000,0,20,0
21813552000,21813552000,1311004,1311004,0.00012970314,-0.00012364668,-1.9902584e-05,0.0006556777,-0.00087211316,-0.039380267,4000,4000,0,20,0
21814056000,21814056000,1311004,1311004,-0.00013460424,-5.0136336e-05,3.7696054e-06,0.0013002979,-0.0008632796,-0.033223312,4000,4000,0,20,0
21814556000,21814556000,1311004,1311004,-1.7080845e-05,-0.00011107433,-9.391696e-06,0.0006751948,-0.00044133337,-0.0385792,4000,4000,0,20,0
21815052000,21815052000,1311004,1311004,7.4217874e-05,-2.6115631e-05,5.3657373e-06,0.0006680113,-7.628006e-05,-0.039012127,4000,4000,0,20,0
21815556000,21815556000,1311004,1311004,1.6775795e-05,-5.3372136e-05,-3.0985742e-05,0.00044646134,-0.00032358634,-0.03864507,4000,4000,0,20,0
21816056000,21816056000,1311004,1311004,-0.00011194493,1.4380271e-06,-3.07413e-05,0.00051321666,-0.00023881486,-0.0387507,4000,4000,0,20,0
21816552000,21816552000,1311004,1311004,-7.059287e-05,-5.5365203e-05,-5.5913733e-06,0.00035226918,-0.0007646883,-0.03882822,4000,4000,0,20,0
21817056000,21817056000,1311004,1311004,2.9154395e-05,1.7880497e-05,-1.1426912e-05,0.0001849793,-0.0002152436,-0.03907965,4000,4000,0,20,0
21817556000,21817556000,1311004,1311004,2.890167e-05,2.7706079e-05,8.49407e-06,0.00045413277,-0.0006321135,-0.039054904,4000,4000,0,20,0
21818056000,21818056000,1311004,1311004,7.885672e-05,1.0260953e-05,-2.8113178e-05,0.0003447022,-0.00039000757,-0.038261242,4000,4000,0,20,0
21818556000,21818556000,1311004,1311004,5.927687e-05,2.8551529e-05,-1.8537825e-05,0.00022178498,-0.0008514622,-0.03863285,4000,4000,0,20,0
21819056000,21819056000,1311004,1311004,-1.2198824e-05,-2.343288e-05,-2.5378391e-05,0.0003555146,-0.00047718929,-0.03887585,4000,4000,0,20,0
21819556000,21819556000,1311004,1311004,-3.5967907e-06,4.998649e-05,-2.1231824e-06,0.00040123213,-0.00072008034,-0.038715225,4000,4000,0,20,0
21820056000,21820056000,1311004,1311004,2.6910518e-05,-5.0995033e-05,-3.3820077e-06,0.00074237975,-0.0005285198,-0.039401963,4000,4000,0,20,0
21820556000,21820556000,1311004,1311004,-0.0006126644,-3.746136e-05,2.0941405e-05,0.0006579005,-0.00031968835,-0.037421998,4000,4000,0,20,0
21821056000,21821056000,1311004,1311004,1.50032265e-05,-2.2302587e-05,-3.3744902e-05,0.00058657373,-0.0006324982,-0.038877226,4000,4000,0,20,0
21821552000,21821552000,1311004,1311004,2.8357197e-05,1.5960637e-05,4.870195e-06,0.00024190579,-0.0010392853,-0.03890138,4000,4000,0,20,0
21822056000,21822056000,1311004,1311004,-3.7468842e-05,4.6187874e-05,4.4136877e-06,0.00041412635,-0.00055301376,-0.038597677,4000,4000,0,20,0
21822556000,21822556000,1311004,1311004,1.675425e-05,-1.2870583e-05,-2.6136939e-05,0.00037824077,-0.00049078476,-0.039096504,4000,4000,0,20,0
21823056000,21823056000,1311004,1311004,-1.3799399e-05,-8.9138075e-06,-1.0907641e-05,0.0008301481,-0.0009681917,-0.039430484,4000,4000,0,20,0
21823556000,21823556000,1311004,1311004,0.00077287655,1.5683458e-05,-8.449618e-05,0.00034099162,-0.00068463857,-0.038426355,4000,4000,0,20,0
21824056000,21824056000,1311004,1311004,3.132873e-05,-3.428177e-05,7.727732e-06,0.0006471663,-0.00068146223,-0.03883818,4000,4000,0,20,0
21824556000,21824556000,1311004,1311004,-1.007726e-05,7.6689175e-06,-3.8264217e-05,0.0008685308,-0.00063771976,-0.038517233,4000,4000,0,20,0
21825056000,21825056000,1311004,1311004,-1.9369378e-05,-5.0241295e-05,-6.3030616e-06,0.0003158824,-5.1521736e-05,-0.039080203,4000,4000,0,20,0
21825556000,21825556000,1311004,1311004,0.00011047347,4.9922077e-05,1.8376833e-06,0.00037184675,-0.0004833084,-0.038754188,4000,4000,0,20,0
21826056000,21826056000,1311004,1311004,1.0486123e-05,-1.1432024e-05,1.5454594e-06,8.5364045e-05,-0.00076485495,-0.038870316,4000,4000,0,20,0
21826556000,21826556000,1311004,1311004,-8.081332e-05,-5.895078e-05,-2.736363e-06,6.347758e-05,-0.0005470767,-0.03973219,4000,4000,0,20,0
21827052000,21827052000,1311004,1311004,1.3857104e-05,2.4732683e-05,2.3546843e-06,0.00052310945,-0.00056268566,-0.038995806,4000,4000,0,20,0
21827556000,21827556000,1311004,1311004,7.2118455e-05,-2.5224275e-05,1.6387274e-05,0.0002092106,-0.0004960425,-0.03899359,4000,4000,0,20,0
21828056000,21828056000,1311004,1311004,-6.995055e-05,5.624292e-05,-2.1672173e-05,8.389827e-05,-0.0007533914,-0.03889253,4000,4000,0,20,0
21828556000,21828556000,1311004,1311004,1.3419577e-05,-1.5678888e-05,5.545007e-06,0.00036698036,-0.00032254413,-0.03879279,4000,4000,0,20,0
21829052000,21829052000,1311004,1311004,-0.00012543198,2.1989856e-05,1.1611152e-05,-0.00012372238,-0.0007761067,-0.03934138,4000,4000,0,20,0
21829556000,21829556000,1311004,1311004,4.308431e-05,5.5463068e-05,9.388299e-06,0.0006866267,-7.419591e-05,-0.03945132,4000,4000,0,20,0
21830056000,21830056000,1311004,1311004,-0.0007578998,-7.47086e-06,2.2357452e-05,0.00022837614,-0.0012194338,-0.044008054,4000,4000,0,20,0
21830556000,21830556000,1311004,1311004,4.076386e-05,-1.9270348e-05,-1.0662177e-05,0.0003696148,-0.00020931508,-0.03862623,4000,4000,0,20,0
21831052000,21831052000,1311004,1311004,-2.0760574e-05,6.2478786e-05,-8.167622e-06,0.0007200561,-0.00078206253,-0.038567204,4000,4000,0,20,0
21831556000,21831556000,1311004,1311004,2.3572034e-05,-6.210645e-05,2.8249492e-06,0.00047910432,-0.0005628767,-0.038756393,4000,4000,0,20,0
21832056000,21832056000,1311004,1311004,-3.2852153e-05,-5.018445e-06,4.8489813e-08,0.000630219,-0.00078507734,-0.03928281,4000,4000,0,20,0
21832556000,21832556000,1311004,1311004,6.696421e-05,1.8013117e-05,-2.9207966e-05,0.00022942985,-0.00095595093,-0.039021324,4000,4000,0,20,0
21833052000,21833052000,1311004,1311004,-0.00056902424,-5.8369435e-05,1.565343e-05,0.0002282206,-0.000720504,-0.03800959,4000,4000,0,20,0
21833556000,21833556000,1311004,1311004,4.7225007e-05,6.587303e-06,-4.6333444e-06,0.00059199246,-0.0009637714,-0.038674407,4000,4000,0,20,0
21834052000,21834052000,1311004,1311004,5.0236136e-05,1.3494658e-06,6.65508e-06,0.00053727266,-0.000730297,-0.03893785,4000,4000,0,20,0
21834556000,21834556000,1311004,1311004,-1.7210576e-05,-2.887653e-05,2.6507167e-05,0.00036024276,-0.0007196678,-0.03889992,4000,4000,0,20,0
21835056000,21835056000,1311004,1311004,0.00015416909,-3.465225e-06,1.5380649e-05,0.00027435366,-0.0008567271,-0.03892433,4000,4000,0,20,0
21835556000,21835556000,1311004,1311004,-3.029705e-05,6.27927e-05,-2.5090378e-05,0.00034618878,-0.0011833402,-0.03932406,4000,4000,0,20,0
21836056000,21836056000,1311004,1311004,-0.00013084416,-2.070388e-05,-6.103796e-06,0.0005928253,-0.0018061498,-0.033037227,4000,4000,0,20,0
21836556000,21836556000,1311004,1311004,6.966392e-06,-1.4456717e-05,-7.161862e-06,0.0001865873,-0.00068102457,-0.03886957,4000,4000,0,20,0
21837056000,21837056000,1311004,1311004,5.475348e-05,-1.9711566e-05,-1.0143125e-05,0.00023895512,-0.0007566413,-0.038389698,4000,4000,0,20,0
21837556000,21837556000,1311004,1311004,2.3645085e-05,7.8105695e-05,4.7340563e-06,0.00025208367,-0.000562361,-0.039082795,4000,4000,0,20,0
21838052000,21838052000,1311004,1311004,9.9569304e-05,-6.863888e-06,-2.8776652e-05,-6.968567e-05,-0.0010585,-0.03901528,4000,4000,0,20,0
21838556000,21838556000,1311004,1311004,-3.3779274e-05,9.1878304e-05,6.9066277e-06,0.0003119017,-0.0006863578,-0.039535902,4000,4000,0,20,0
21839052000,21839052000,1311004,1311004,-5.7432975e-05,-3.2575808e-06,-1.5807201e-06,0.0002929206,-0.00058300036,-0.03913322,4000,4000,0,20,0
21839556000,21839556000,1311004,1311004,3.23709e-05,-3.1158383e-05,-8.34983e-06,0.0005601658,-0.0006390201,-0.038455814,4000,4000,0,20,0
21840056000,21840056000,1311004,1311004,1.1372862e-05,2.9696383e-05,-1.1904605e-06,0.00015992997,-0.0006118006,-0.038784947,4000,4000,0,20,0
21840552000,21840552000,1311004,1311004,8.769015e-05,2.8745157e-05,1.3967275e-05,0.0007168548,-0.000780989,-0.038868222,4000,4000,0,20,0
21841056000,21841056000,1311004,1311004,3.058585e-05,-6.1459315e-05,-2.1497706e-07,8.44154e-05,-0.00066219183,-0.03913212,4000,4000,0,20,0
21841556000,21841556000,1311004,1311004,-6.782394e-07,5.662148e-05,-2.0753389e-05,0.0008496629,-0.0009590983,-0.039406233,4000,4000,0,20,0
21842056000,21842056000,1311004,1311004,6.713655e-05,3.1872128e-06,2.3459008e-06,-0.00011924923,-0.00080017623,-0.03904243,4000,4000,0,20,0
21842556000,21842556000,1311004,1311004,-0.0007084093,4.0610892e-05,3.776512e-05,0.00022399984,-0.00080229493,-0.037682623,4000,4000,0,20,0
21843052000,21843052000,1311004,1311004,3.578801e-05,4.9779293e-05,-4.4078024e-06,0.00031784212,-0.0005092565,-0.038707633,4000,4000,0,20,0
21843556000,21843556000,1311004,1311004,9.385393e-06,3.145696e-05,-1.2765903e-05,0.0006445499,-0.00090514636,-0.03884245,4000,4000,0,20,0
21844052000,21844052000,1311004,1311004,-5.9527116e-05,3.012472e-05,1.5504962e-05,0.00046459315,-0.0010042437,-0.03901769,4000,4000,0,20,0
21844556000,21844556000,1311004,1311004,-7.820335e-05,2.8020462e-05,-1.25134575e-05,0.0005309181,-0.0008088817,-0.03910322,4000,4000,0,20,0
21845056000,21845056000,1311004,1311004,1.2734347e-05,1.2056374e-06,-1.06423995e-05,0.0007444429,-0.0011208245,-0.038956307,4000,4000,0,20,0
21845556000,21845556000,1311004,1311004,0.00082806504,-5.530601e-05,-6.812979e-05,0.00056334084,-0.0013171553,-0.03801178,4000,4000,0,20,0
21846056000,21846056000,1311004,1311004,6.310164e-05,-5.656246e-05,-2.0646832e-05,0.00048665935,-0.000797214,-0.03888329,4000,4000,0,20,0
21846556000,21846556000,1311004,1311004,-8.317926e-05,-9.097589e-05,-1.5301097e-06,0.0004622768,-0.00070029614,-0.039052088,4000,4000,0,20,0
21847056000,21847056000,1311004,1311004,-3.6686877e-05,-3.0031194e-06,-3.1004638e-05,0.0005576656,-0.00047955662,-0.038414445,4000,4000,0,20,0
21847556000,21847556000,1311004,1311004,-0.00018173784,-2.6698468e-05,7.0984643e-06,0.0003884876,-0.0008876479,-0.03913756,4000,4000,0,20,0
21848056000,21848056000,1311004,1311004,-3.1262218e-05,2.0300085e-05,-8.8712e-06,0.0004770564,-0.00082765106,-0.03898041,4000,4000,0,20,0
21848552000,21848552000,1311004,1311004,-0.000119250704,2.0442985e-05,3.1479278e-05,0.0003572637,-0.0018253959,-0.033332605,4000,4000,0,20,0
21849052000,21849052000,1311004,1311004,5.1153293e-05,-2.2678664e-06,-4.263792e-05,0.00013570531,-0.00040199194,-0.038624294,4000,4000,0,20,0
21849556000,21849556000,1311004,1311004,4.4087927e-05,-2.1787946e-05,-5.742145e-06,4.4793785e-05,-0.00095365214,-0.03866948,4000,4000,0,20,0
21850056000,21850056000,1311004,1311004,9.076965e-06,-4.2199677e-05,-3.648528e-05,0.000110349676,-0.0009150321,-0.039001416,4000,4000,0,20,0
21850552000,21850552000,1311004,1311004,-5.6113073e-05,4.4063745e-05,1.9324598e-05,-0.00010948313,-0.0011319228,-0.038671244,4000,4000,0,20,0
21851056000,21851056000,1311004,1311004,-9.338444e-05,4.610231e-06,1.5914047e-05,-9.279496e-05,-0.000676187,-0.03923737,4000,4000,0,20,0
