timestamp,noutputs,output[0],output[1],output[2],output[3],output[4],output[5],output[6],output[7],output[8],output[9],output[10],output[11],output[12],output[13],output[14],output[15]
21726360000,11,900.0,900.0,900.0,900.0,900.0,900.0,900.0,900.0,900.0,900.0,900.0,0.0,0.0,0.0,0.0,0.0
21726368000,11,1001.0,1001.0,1002.0,1000.0,1002.0,1000.0,1500.0,1500.0,1500.0,1000.0,1000.0,0.0,0.0,0.0,0.0,0.0
21726460000,11,1001.0,1001.0,1002.0,1000.0,1002.0,1000.0,1500.0,1500.0,1500.0,1000.0,1000.0,0.0,0.0,0.0,0.0,0.0
21726560000,11,1001.0,1001.0,1002.0,1000.0,1002.0,1000.0,1500.0,1500.0,1500.0,1000.0,1000.0,0.0,0.0,0.0,0.0,0.0
21726660000,11,1001.0,1001.0,1002.0,1000.0,1002.0,1000.0,1500.0,1500.0,1500.0,1000.0,1000.0,0.0,0.0,0.0,0.0,0.0
21726760000,11,1001.0,1001.0,1002.0,1000.0,1002.0,1000.0,1500.0,1500.0,1500.0,1000.0,1000.0,0.0,0.0,0.0,0.0,0.0
21726856000,11,1001.0,1001.0,1002.0,1000.0,1002.0,1000.0,1500.0,1500.0,1500.0,1000.0,1000.0,0.0,0.0,0.0,0.0,0.0
21726960000,11,1001.0,1001.0,1002.0,1000.0,1002.0,1000.0,1500.0,1500.0,1500.0,1000.0,1000.0,0.0,0.0,0.0,0.0,0.0
21727060000,11,1001.0,1001.0,1002.0,1000.0,1002.0,1000.0,1500.0,1500.0,1500.0,1000.0,1000.0,0.0,0.0,0.0,0.0,0.0
21727156000,11,1001.0,1001.0,1002.0,1000.0,1002.0,1000.0,1500.0,1500.0,1500.0,1000.0,1000.0,0.0,0.0,0.0,0.0,0.0
21727256000,11,1001.0,1001.0,1002.0,1000.0,1002.0,1000.0,1500.0,1500.0,1500.0,1000.0,1000.0,0.0,0.0,0.0,0.0,0.0
21727356000,11,1001.0,1001.0,1002.0,1000.0,1002.0,1000.0,1500.0,1500.0,1500.0,1000.0,1000.0,0.0,0.0,0.0,0.0,0.0
21727460000,11,1001.0,1001.0,1002.0,1000.0,1002.0,1000.0,1500.0,1500.0,1500.0,1000.0,1000.0,0.0,0.0,0.0,0.0,0.0
21727560000,11,1001.0,1001.0,1002.0,1000.0,1002.0,1000.0,1500.0,1500.0,1500.0,1000.0,1000.0,0.0,0.0,0.0,0.0,0.0
21727660000,11,1001.0,1001.0,1002.0,1000.0,1002.0,1000.0,1500.0,1500.0,1500.0,1000.0,1000.0,0.0,0.0,0.0,0.0,0.0
21727760000,11,1001.0,1001.0,1002.0,1000.0,1002.0,1000.0,1500.0,1500.0,1500.0,1000.0,1000.0,0.0,0.0,0.0,0.0,0.0
21727860000,11,1001.0,1001.0,1002.0,1000.0,1002.0,1000.0,1500.0,1500.0,1500.0,1000.0,1000.0,0.0,0.0,0.0,0.0,0.0
21727956000,11,1001.0,1001.0,1002.0,1000.0,1002.0,1000.0,1500.0,1500.0,1500.0,1000.0,1000.0,0.0,0.0,0.0,0.0,0.0
21728060000,11,1001.0,1001.0,1002.0,1000.0,1002.0,1000.0,1500.0,1500.0,1500.0,1000.0,1000.0,0.0,0.0,0.0,0.0,0.0
21728156000,11,1001.0,1001.0,1002.0,1000.0,1002.0,1000.0,1500.0,1500.0,1500.0,1000.0,1000.0,0.0,0.0,0.0,0.0,0.0
21728260000,11,1001.0,1001.0,1002.0,1000.0,1002.0,1000.0,1500.0,1500.0,1500.0,1000.0,1000.0,0.0,0.0,0.0,0.0,0.0
21728356000,11,1001.0,1001.0,1002.0,1000.0,1002.0,1000.0,1500.0,1500.0,1500.0,1000.0,1000.0,0.0,0.0,0.0,0.0,0.0
21728460000,11,1001.0,1001.0,1002.0,1000.0,1002.0,1000.0,1500.0,1500.0,1500.0,1000.0,1000.0,0.0,0.0,0.0,0.0,0.0
21728560000,11,1001.0,1001.0,1002.0,1000.0,1002.0,1000.0,1500.0,1500.0,1500.0,1000.0,1000.0,0.0,0.0,0.0,0.0,0.0
21728660000,11,1001.0,1001.0,1002.0,1000.0,1002.0,1000.0,1500.0,1500.0,1500.0,1000.0,1000.0,0.0,0.0,0.0,0.0,0.0
21728756000,11,1001.0,1001.0,1002.0,1000.0,1002.0,1000.0,1500.0,1500.0,1500.0,1000.0,1000.0,0.0,0.0,0.0,0.0,0.0
21728860000,11,1001.0,1001.0,1002.0,1000.0,1002.0,1000.0,1500.0,1500.0,1500.0,1000.0,1000.0,0.0,0.0,0.0,0.0,0.0
21728960000,11,1001.0,1001.0,1002.0,1000.0,1002.0,1000.0,1500.0,1500.0,1500.0,1000.0,1000.0,0.0,0.0,0.0,0.0,0.0
21729060000,11,1001.0,1001.0,1002.0,1000.0,1002.0,1000.0,1500.0,1500.0,1500.0,1000.0,1000.0,0.0,0.0,0.0,0.0,0.0
21729160000,11,1001.0,1001.0,1002.0,1000.0,1002.0,1000.0,1500.0,1500.0,1500.0,1000.0,1000.0,0.0,0.0,0.0,0.0,0.0
21729260000,11,1001.0,1001.0,1002.0,1000.0,1002.0,1000.0,1500.0,1500.0,1500.0,1000.0,1000.0,0.0,0.0,0.0,0.0,0.0
21729360000,11,1001.0,1001.0,1002.0,1000.0,1002.0,1000.0,1500.0,1500.0,1500.0,1000.0,1000.0,0.0,0.0,0.0,0.0,0.0
21729460000,11,1001.0,1001.0,1002.0,1000.0,1002.0,1000.0,1500.0,1500.0,1500.0,1000.0,1000.0,0.0,0.0,0.0,0.0,0.0
21729556000,11,1001.0,1001.0,1002.0,1000.0,1002.0,1000.0,1500.0,1500.0,1500.0,1000.0,1000.0,0.0,0.0,0.0,0.0,0.0
21729660000,11,1001.0,1001.0,1002.0,1000.0,1002.0,1000.0,1500.0,1500.0,1500.0,1000.0,1000.0,0.0,0.0,0.0,0.0,0.0
21729760000,11,1001.0,1001.0,1002.0,1000.0,1002.0,1000.0,1500.0,1500.0,1500.0,1000.0,1000.0,0.0,0.0,0.0,0.0,0.0
21729860000,11,1001.0,1001.0,1002.0,1000.0,1002.0,1000.0,1500.0,1500.0,1500.0,1000.0,1000.0,0.0,0.0,0.0,0.0,0.0
21729960000,11,1001.0,1001.0,1002.0,1000.0,1002.0,1000.0,1500.0,1500.0,1500.0,1000.0,1000.0,0.0,0.0,0.0,0.0,0.0
21730060000,11,1001.0,1001.0,1002.0,1000.0,1002.0,1000.0,1500.0,1500.0,1500.0,1000.0,1000.0,0.0,0.0,0.0,0.0,0.0
21730160000,11,1001.0,1001.0,1002.0,1000.0,1002.0,1000.0,1500.0,1500.0,1500.0,1000.0,1000.0,0.0,0.0,0.0,0.0,0.0
21730260000,11,1001.0,1001.0,1002.0,1000.0,1002.0,1000.0,1500.0,1500.0,1500.0,1000.0,1000.0,0.0,0.0,0.0,0.0,0.0
21730360000,11,1001.0,1001.0,1002.0,1000.0,1002.0,1000.0,1500.0,1500.0,1500.0,1000.0,1000.0,0.0,0.0,0.0,0.0,0.0
21730460000,11,1001.0,1001.0,1002.0,1000.0,1002.0,1000.0,1500.0,1500.0,1500.0,1000.0,1000.0,0.0,0.0,0.0,0.0,0.0
21730560000,11,1001.0,1000.0,1001.0,1000.0,1002.0,1000.0,1500.0,1500.0,1500.0,1000.0,1000.0,0.0,0.0,0.0,0.0,0.0
21730660000,11,1001.0,1001.0,1002.0,1000.0,1002.0,1000.0,1500.0,1500.0,1500.0,1000.0,1000.0,0.0,0.0,0.0,0.0,0.0
21730760000,11,1001.0,1001.0,1002.0,1000.0,1002.0,1000.0,1500.0,1500.0,1500.0,1000.0,1000.0,0.0,0.0,0.0,0.0,0.0
21730860000,11,1001.0,1001.0,1002.0,1000.0,1002.0,1000.0,1500.0,1500.0,1500.0,1000.0,1000.0,0.0,0.0,0.0,0.0,0.0
21730960000,11,1001.0,1001.0,1002.0,1000.0,1002.0,1000.0,1500.0,1500.0,1500.0,1000.0,1000.0,0.0,0.0,0.0,0.0,0.0
21731060000,11,1001.0,1001.0,1002.0,1000.0,1002.0,1000.0,1500.0,1500.0,1500.0,1000.0,1000.0,0.0,0.0,0.0,0.0,0.0
21731160000,11,1001.0,1001.0,1002.0,1000.0,1002.0,1000.0,1500.0,1500.0,1500.0,1000.0,1000.0,0.0,0.0,0.0,0.0,0.0
21731260000,11,1001.0,1001.0,1002.0,1000.0,1002.0,1000.0,1500.0,1500.0,1500.0,1000.0,1000.0,0.0,0.0,0.0,0.0,0.0
21731360000,11,1001.0,1001.0,1002.0,1000.0,1002.0,1000.0,1500.0,1500.0,1500.0,1000.0,1000.0,0.0,0.0,0.0,0.0,0.0
21731460000,11,1001.0,1001.0,1002.0,1000.0,1002.0,1000.0,1500.0,1500.0,1500.0,1000.0,1000.0,0.0,0.0,0.0,0.0,0.0
21731556000,11,1001.0,1001.0,1002.0,1000.0,1002.0,1000.0,1500.0,1500.0,1500.0,1000.0,1000.0,0.0,0.0,0.0,0.0,0.0
21731660000,11,1001.0,1001.0,1002.0,1000.0,1002.0,1000.0,1500.0,1500.0,1500.0,1000.0,1000.0,0.0,0.0,0.0,0.0,0.0
21731760000,11,1001.0,1001.0,1002.0,1000.0,1002.0,1000.0,1500.0,1500.0,1500.0,1000.0,1000.0,0.0,0.0,0.0,0.0,0.0
21731856000,11,1001.0,1001.0,1002.0,1000.0,1002.0,1000.0,1500.0,1500.0,1500.0,1000.0,1000.0,0.0,0.0,0.0,0.0,0.0
21731960000,11,1001.0,1001.0,1002.0,1000.0,1002.0,1000.0,1500.0,1500.0,1500.0,1000.0,1000.0,0.0,0.0,0.0,0.0,0.0
21732060000,11,1001.0,1001.0,1002.0,1000.0,1002.0,1000.0,1500.0,1500.0,1500.0,1000.0,1000.0,0.0,0.0,0.0,0.0,0.0
21732160000,11,1001.0,1001.0,1002.0,1000.0,1002.0,1000.0,1500.0,1500.0,1500.0,1000.0,1000.0,0.0,0.0,0.0,0.0,0.0
21732260000,11,1001.0,1001.0,1002.0,1000.0,1002.0,1000.0,1500.0,1500.0,1500.0,1000.0,1000.0,0.0,0.0,0.0,0.0,0.0
21732360000,11,1012.0,1000.0,1006.0,1006.0,1012.0,1000.0,1500.0,1500.0,1500.0,1000.0,1000.0,0.0,0.0,0.0,0.0,0.0
21732460000,11,1024.0,1017.0,1019.0,1022.0,1024.0,1016.0,1500.0,1500.0,1500.0,1000.0,1000.0,0.0,0.0,0.0,0.0,0.0
21732556000,11,1039.0,1031.0,1035.0,1035.0,1038.0,1032.0,1500.0,1500.0,1500.0,1000.0,1000.0,0.0,0.0,0.0,0.0,0.0
21732660000,11,1059.0,1046.0,1053.0,1052.0,1057.0,1048.0,1500.0,1500.0,1500.0,1000.0,1000.0,0.0,0.0,0.0,0.0,0.0
21732760000,11,1078.0,1064.0,1072.0,1070.0,1076.0,1066.0,1500.0,1500.0,1500.0,1000.0,1000.0,0.0,0.0,0.0,0.0,0.0
21732860000,11,1099.0,1086.0,1092.0,1093.0,1098.0,1088.0,1500.0,1500.0,1500.0,1000.0,1000.0,0.0,0.0,0.0,0.0,0.0
21732960000,11,1119.0,1109.0,1113.0,1115.0,1119.0,1109.0,1500.0,1500.0,1500.0,1000.0,1000.0,0.0,0.0,0.0,0.0,0.0
21733056000,11,1147.0,1133.0,1137.0,1143.0,1146.0,1134.0,1500.0,1500.0,1500.0,1000.0,1000.0,0.0,0.0,0.0,0.0,0.0
21733160000,11,1172.0,1159.0,1165.0,1166.0,1171.0,1160.0,1500.0,1500.0,1500.0,1000.0,1000.0,0.0,0.0,0.0,0.0,0.0
21733260000,11,1202.0,1187.0,1196.0,1193.0,1199.0,1190.0,1500.0,1500.0,1500.0,1000.0,1000.0,0.0,0.0,0.0,0.0,0.0
21733360000,11,1236.0,1212.0,1221.0,1227.0,1233.0,1215.0,1500.0,1500.0,1500.0,1000.0,1000.0,0.0,0.0,0.0,0.0,0.0
21733460000,11,1262.0,1252.0,1256.0,1258.0,1262.0,1252.0,1500.0,1500.0,1500.0,1000.0,1000.0,0.0,0.0,0.0,0.0,0.0
21733560000,11,1296.0,1283.0,1288.0,1291.0,1295.0,1284.0,1500.0,1500.0,1500.0,1000.0,1000.0,0.0,0.0,0.0,0.0,0.0
21733660000,11,1342.0,1314.0,1323.0,1333.0,1338.0,1318.0,1500.0,1500.0,1500.0,1000.0,1000.0,0.0,0.0,0.0,0.0,0.0
21733760000,11,1373.0,1356.0,1363.0,1366.0,1371.0,1358.0,1500.0,1500.0,1500.0,1000.0,1000.0,0.0,0.0,0.0,0.0,0.0
21733860000,11,1414.0,1397.0,1401.0,1409.0,1410.0,1401.0,1500.0,1500.0,1500.0,1000.0,1000.0,0.0,0.0,0.0,0.0,0.0
21733956000,11,1434.0,1451.0,1433.0,1452.0,1427.0,1457.0,1500.0,1500.0,1500.0,1000.0,1000.0,0.0,0.0,0.0,0.0,0.0
21734060000,11,1488.0,1479.0,1468.0,1499.0,1475.0,1491.0,1500.0,1500.0,1500.0,1000.0,1000.0,0.0,0.0,0.0,0.0,0.0
21734160000,11,1495.0,1499.0,1488.0,1506.0,1482.0,1512.0,1500.0,1500.0,1500.0,1000.0,1000.0,0.0,0.0,0.0,0.0,0.0
21734260000,11,1502.0,1502.0,1492.0,1512.0,1491.0,1512.0,1500.0,1500.0,1500.0,1000.0,1000.0,0.0,0.0,0.0,0.0,0.0
21734360000,11,1504.0,1501.0,1491.0,1515.0,1494.0,1512.0,1500.0,1500.0,1500.0,1000.0,1000.0,0.0,0.0,0.0,0.0,0.0
21734456000,11,1502.0,1507.0,1499.0,1510.0,1492.0,1517.0,1500.0,1500.0,1500.0,1000.0,1000.0,0.0,0.0,0.0,0.0,0.0
21734560000,11,1507.0,1507.0,1495.0,1520.0,1499.0,1515.0,1500.0,1500.0,1500.0,1000.0,1000.0,0.0,0.0,0.0,0.0,0.0
21734660000,11,1512.0,1507.0,1499.0,1520.0,1498.0,1521.0,1500.0,1500.0,1500.0,1000.0,1000.0,0.0,0.0,0.0,0.0,0.0
21734760000,11,1540.0,1484.0,1485.0,1539.0,1516.0,1507.0,1500.0,1500.0,1500.0,1000.0,1000.0,0.0,0.0,0.0,0.0,0.0
21734860000,11,1460.0,1459.0,1448.0,1472.0,1449.0,1471.0,1500.0,1500.0,1500.0,1000.0,1000.0,0.0,0.0,0.0,0.0,0.0
21734960000,11,1436.0,1432.0,1424.0,1444.0,1424.0,1444.0,1500.0,1500.0,1500.0,1000.0,1000.0,0.0,0.0,0.0,0.0,0.0
21735060000,11,1426.0,1424.0,1416.0,1433.0,1415.0,1435.0,1500.0,1500.0,1500.0,1000.0,1000.0,0.0,0.0,0.0,0.0,0.0
21735156000,11,1424.0,1424.0,1415.0,1433.0,1412.0,1436.0,1500.0,1500.0,1500.0,1000.0,1000.0,0.0,0.0,0.0,0.0,0.0
21735256000,11,1425.0,1424.0,1414.0,1434.0,1414.0,1434.0,1500.0,1500.0,1500.0,1000.0,1000.0,0.0,0.0,0.0,0.0,0.0
21735360000,11,1426.0,1426.0,1414.0,1438.0,1415.0,1437.0,1500.0,1500.0,1500.0,1000.0,1000.0,0.0,0.0,0.0,0.0,0.0
21735460000,11,1456.0,1398.0,1399.0,1455.0,1437.0,1417.0,1500.0,1500.0,1500.0,1000.0,1000.0,0.0,0.0,0.0,0.0,0.0
21735556000,11,1429.0,1430.0,1418.0,1442.0,1419.0,1440.0,1500.0,1500.0,1500.0,1000.0,1000.0,0.0,0.0,0.0,0.0,0.0
21735660000,11,1426.0,1437.0,1418.0,1446.0,1428.0,1436.0,1500.0,1500.0,1500.0,1000.0,1000.0,0.0,0.0,0.0,0.0,0.0
21735760000,11,1434.0,1431.0,1424.0,1441.0,1421.0,1444.0,1500.0,1500.0,1500.0,1000.0,1000.0,0.0,0.0,0.0,0.0,0.0
21735860000,11,1429.0,1438.0,1422.0,1445.0,1423.0,1444.0,1500.0,1500.0,1500.0,1000.0,1000.0,0.0,0.0,0.0,0.0,0.0
21735960000,11,1434.0,1436.0,1424.0,1445.0,1423.0,1446.0,1500.0,1500.0,1500.0,1000.0,1000.0,0.0,0.0,0.0,0.0,0.0
21736060000,11,1434.0,1436.0,1424.0,1447.0,1425.0,1445.0,1500.0,1500.0,1500.0,1000.0,1000.0,0.0,0.0,0.0,0.0,0.0
21736160000,11,1435.0,1437.0,1429.0,1444.0,1425.0,1448.0,1500.0,1500.0,1500.0,1000.0,1000.0,0.0,0.0,0.0,0.0,0.0
21736256000,11,1435.0,1439.0,1426.0,1449.0,1428.0,1446.0,1500.0,1500.0,1500.0,1000.0,1000.0,0.0,0.0,0.0,0.0,0.0
21736356000,11,1431.0,1449.0,1434.0,1445.0,1423.0,1457.0,1500.0,1500.0,1500.0,1000.0,1000.0,0.0,0.0,0.0,0.0,0.0
21736460000,11,1438.0,1441.0,1427.0,1452.0,1430.0,1448.0,1500.0,1500.0,1500.0,1000.0,1000.0,0.0,0.0,0.0,0.0,0.0
21736556000,11,1436.0,1444.0,1431.0,1449.0,1428.0,1452.0,1500.0,1500.0,1500.0,1000.0,1000.0,0.0,0.0,0.0,0.0,0.0
21736660000,11,1438.0,1441.0,1429.0,1450.0,1432.0,1447.0,1500.0,1500.0,1500.0,1000.0,1000.0,0.0,0.0,0.0,0.0,0.0
21736760000,11,1439.0,1441.0,1430.0,1450.0,1430.0,1451.0,1500.0,1500.0,1500.0,1000.0,1000.0,0.0,0.0,0.0,0.0,0.0
21736860000,11,1415.0,1466.0,1445.0,1436.0,1416.0,1466.0,1500.0,1500.0,1500.0,1000.0,1000.0,0.0,0.0,0.0,0.0,0.0
21736960000,11,1441.0,1441.0,1429.0,1453.0,1432.0,1450.0,1500.0,1500.0,1500.0,1000.0,1000.0,0.0,0.0,0.0,0.0,0.0
21737060000,11,1432.0,1454.0,1438.0,1448.0,1428.0,1457.0,1500.0,1500.0,1500.0,1000.0,1000.0,0.0,0.0,0.0,0.0,0.0
21737156000,11,1441.0,1442.0,1432.0,1451.0,1433.0,1451.0,1500.0,1500.0,1500.0,1000.0,1000.0,0.0,0.0,0.0,0.0,0.0
21737260000,11,1440.0,1445.0,1435.0,1450.0,1431.0,1454.0,1500.0,1500.0,1500.0,1000.0,1000.0,0.0,0.0,0.0,0.0,0.0
21737360000,11,1397.0,1401.0,1386.0,1412.0,1389.0,1410.0,1500.0,1500.0,1500.0,1000.0,1000.0,0.0,0.0,0.0,0.0,0.0
21737456000,11,1424.0,1425.0,1417.0,1433.0,1415.0,1434.0,1500.0,1500.0,1500.0,1000.0,1000.0,0.0,0.0,0.0,0.0,0.0
21737560000,11,1435.0,1442.0,1430.0,1447.0,1426.0,1452.0,1500.0,1500.0,1500.0,1000.0,1000.0,0.0,0.0,0.0,0.0,0.0
21737660000,11,1443.0,1448.0,1435.0,1456.0,1437.0,1455.0,1500.0,1500.0,1500.0,1000.0,1000.0,0.0,0.0,0.0,0.0,0.0
21737760000,11,1451.0,1448.0,1440.0,1460.0,1443.0,1457.0,1500.0,1500.0,1500.0,1000.0,1000.0,0.0,0.0,0.0,0.0,0.0
21737856000,11,1452.0,1453.0,1445.0,1460.0,1443.0,1462.0,1500.0,1500.0,1500.0,1000.0,1000.0,0.0,0.0,0.0,0.0,0.0
21737960000,11,1456.0,1459.0,1452.0,1463.0,1448.0,1467.0,1500.0,1500.0,1500.0,1000.0,1000.0,0.0,0.0,0.0,0.0,0.0
21738060000,11,1458.0,1457.0,1450.0,1465.0,1448.0,1468.0,1500.0,1500.0,1500.0,1000.0,1000.0,0.0,0.0,0.0,0.0,0.0
21738160000,11,1458.0,1468.0,1460.0,1466.0,1455.0,1471.0,1500.0,1500.0,1500.0,1000.0,1000.0,0.0,0.0,0.0,0.0,0.0
21738260000,11,1460.0,1461.0,1454.0,1468.0,1451.0,1471.0,1500.0,1500.0,1500.0,1000.0,1000.0,0.0,0.0,0.0,0.0,0.0
21738356000,11,1462.0,1467.0,1460.0,1469.0,1458.0,1471.0,1500.0,1500.0,1500.0,1000.0,1000.0,0.0,0.0,0.0,0.0,0.0
21738460000,11,1460.0,1462.0,1454.0,1468.0,1455.0,1468.0,1500.0,1500.0,1500.0,1000.0,1000.0,0.0,0.0,0.0,0.0,0.0
21738560000,11,1460.0,1472.0,1470.0,1462.0,1463.0,1469.0,1500.0,1500.0,1500.0,1000.0,1000.0,0.0,0.0,0.0,0.0,0.0
21738660000,11,1456.0,1468.0,1464.0,1460.0,1454.0,1470.0,1500.0,1500.0,1500.0,1000.0,1000.0,0.0,0.0,0.0,0.0,0.0
21738760000,11,1457.0,1474.0,1479.0,1453.0,1465.0,1467.0,1500.0,1500.0,1500.0,1000.0,1000.0,0.0,0.0,0.0,0.0,0.0
21738860000,11,1460.0,1460.0,1460.0,1460.0,1460.0,1460.0,1500.0,1500.0,1500.0,1000.0,1000.0,0.0,0.0,0.0,0.0,0.0
21738960000,11,1424.0,1505.0,1498.0,1431.0,1455.0,1474.0,1500.0,1500.0,1500.0,1000.0,1000.0,0.0,0.0,0.0,0.0,0.0
21739060000,11,1444.0,1473.0,1475.0,1442.0,1461.0,1455.0,1500.0,1500.0,1500.0,1000.0,1000.0,0.0,0.0,0.0,0.0,0.0
21739160000,11,1441.0,1487.0,1500.0,1427.0,1472.0,1456.0,1500.0,1500.0,1500.0,1000.0,1000.0,0.0,0.0,0.0,0.0,0.0
21739260000,11,1424.0,1595.0,1505.0,1514.0,1450.0,1569.0,1500.0,1500.0,1500.0,1000.0,1000.0,0.0,0.0,0.0,0.0,0.0
21739360000,11,1492.0,1527.0,1554.0,1465.0,1502.0,1517.0,1500.0,1500.0,1500.0,1000.0,1000.0,0.0,0.0,0.0,0.0,0.0
21739460000,11,1483.0,1536.0,1542.0,1477.0,1532.0,1487.0,1500.0,1500.0,1500.0,1000.0,1000.0,0.0,0.0,0.0,0.0,0.0
21739560000,11,1490.0,1529.0,1554.0,1465.0,1538.0,1481.0,1500.0,1500.0,1500.0,1000.0,1000.0,0.0,0.0,0.0,0.0,0.0
21739660000,11,1497.0,1522.0,1558.0,1461.0,1548.0,1471.0,1500.0,1500.0,1500.0,1000.0,1000.0,0.0,0.0,0.0,0.0,0.0
21739760000,11,1497.0,1522.0,1563.0,1456.0,1554.0,1465.0,1500.0,1500.0,1500.0,1000.0,1000.0,0.0,0.0,0.0,0.0,0.0
21739860000,11,1499.0,1520.0,1566.0,1453.0,1560.0,1459.0,1500.0,1500.0,1500.0,1000.0,1000.0,0.0,0.0,0.0,0.0,0.0
21739960000,11,1502.0,1517.0,1568.0,1451.0,1565.0,1454.0,1500.0,1500.0,1500.0,1000.0,1000.0,0.0,0.0,0.0,0.0,0.0
21740060000,11,1479.0,1540.0,1586.0,1433.0,1553.0,1466.0,1500.0,1500.0,1500.0,1000.0,1000.0,0.0,0.0,0.0,0.0,0.0
21740156000,11,1500.0,1519.0,1574.0,1445.0,1571.0,1448.0,1500.0,1500.0,1500.0,1000.0,1000.0,0.0,0.0,0.0,0.0,0.0
21740260000,11,1497.0,1522.0,1581.0,1438.0,1571.0,1448.0,1500.0,1500.0,1500.0,1000.0,1000.0,0.0,0.0,0.0,0.0,0.0
21740360000,11,1506.0,1513.0,1579.0,1440.0,1576.0,1443.0,1500.0,1500.0,1500.0,1000.0,1000.0,0.0,0.0,0.0,0.0,0.0
21740460000,11,1504.0,1515.0,1580.0,1439.0,1579.0,1440.0,1500.0,1500.0,1500.0,1000.0,1000.0,0.0,0.0,0.0,0.0,0.0
21740560000,11,1508.0,1511.0,1581.0,1438.0,1579.0,1440.0,1500.0,1500.0,1500.0,1000.0,1000.0,0.0,0.0,0.0,0.0,0.0
21740660000,11,1505.0,1514.0,1583.0,1436.0,1582.0,1437.0,1500.0,1500.0,1500.0,1000.0,1000.0,0.0,0.0,0.0,0.0,0.0
21740760000,11,1508.0,1511.0,1584.0,1435.0,1583.0,1436.0,1500.0,1500.0,1500.0,1000.0,1000.0,0.0,0.0,0.0,0.0,0.0
21740860000,11,1506.0,1513.0,1585.0,1434.0,1585.0,1434.0,1500.0,1500.0,1500.0,1000.0,1000.0,0.0,0.0,0.0,0.0,0.0
21740960000,11,1508.0,1511.0,1583.0,1436.0,1589.0,1430.0,1500.0,1500.0,1500.0,1000.0,1000.0,0.0,0.0,0.0,0.0,0.0
21741060000,11,1506.0,1513.0,1587.0,1432.0,1587.0,1432.0,1500.0,1500.0,1500.0,1000.0,1000.0,0.0,0.0,0.0,0.0,0.0
21741160000,11,1507.0,1512.0,1588.0,1431.0,1588.0,1431.0,1500.0,1500.0,1500.0,1000.0,1000.0,0.0,0.0,0.0,0.0,0.0
21741260000,11,1508.0,1511.0,1589.0,1430.0,1589.0,1430.0,1500.0,1500.0,1500.0,1000.0,1000.0,0.0,0.0,0.0,0.0,0.0
21741360000,11,1507.0,1512.0,1590.0,1429.0,1590.0,1429.0,1500.0,1500.0,1500.0,1000.0,1000.0,0.0,0.0,0.0,0.0,0.0
21741456000,11,1509.0,1510.0,1592.0,1427.0,1590.0,1429.0,1500.0,1500.0,1500.0,1000.0,1000.0,0.0,0.0,0.0,0.0,0.0
21741560000,11,1508.0,1511.0,1593.0,1426.0,1592.0,1427.0,1500.0,1500.0,1500.0,1000.0,1000.0,0.0,0.0,0.0,0.0,0.0
21741660000,11,1535.0,1484.0,1578.0,1441.0,1609.0,1410.0,1500.0,1500.0,1500.0,1000.0,1000.0,0.0,0.0,0.0,0.0,0.0
21741760000,11,1508.0,1511.0,1593.0,1426.0,1594.0,1425.0,1500.0,1500.0,1500.0,1000.0,1000.0,0.0,0.0,0.0,0.0,0.0
21741860000,11,1509.0,1510.0,1595.0,1424.0,1595.0,1424.0,1500.0,1500.0,1500.0,1000.0,1000.0,0.0,0.0,0.0,0.0,0.0
21741960000,11,1507.0,1512.0,1595.0,1424.0,1595.0,1424.0,1500.0,1500.0,1500.0,1000.0,1000.0,0.0,0.0,0.0,0.0,0.0
21742060000,11,1514.0,1505.0,1596.0,1423.0,1595.0,1424.0,1500.0,1500.0,1500.0,1000.0,1000.0,0.0,0.0,0.0,0.0,0.0
21742160000,11,1507.0,1512.0,1596.0,1423.0,1598.0,1421.0,1500.0,1500.0,1500.0,1000.0,1000.0,0.0,0.0,0.0,0.0,0.0
21742260000,11,1509.0,1510.0,1598.0,1421.0,1597.0,1422.0,1500.0,1500.0,1500.0,1000.0,1000.0,0.0,0.0,0.0,0.0,0.0
21742360000,11,1541.0,1478.0,1579.0,1440.0,1616.0,1403.0,1500.0,1500.0,1500.0,1000.0,1000.0,0.0,0.0,0.0,0.0,0.0
21742460000,11,1508.0,1511.0,1599.0,1420.0,1599.0,1420.0,1500.0,1500.0,1500.0,1000.0,1000.0,0.0,0.0,0.0,0.0,0.0
21742560000,11,1507.0,1512.0,1601.0,1418.0,1599.0,1420.0,1500.0,1500.0,1500.0,1000.0,1000.0,0.0,0.0,0.0,0.0,0.0
21742660000,11,1511.0,1508.0,1603.0,1416.0,1599.0,1420.0,1500.0,1500.0,1500.0,1000.0,1000.0,0.0,0.0,0.0,0.0,0.0
21742756000,11,1506.0,1513.0,1600.0,1419.0,1603.0,1416.0,1500.0,1500.0,1500.0,1000.0,1000.0,0.0,0.0,0.0,0.0,0.0
21742856000,11,1510.0,1509.0,1602.0,1417.0,1602.0,1417.0,1500.0,1500.0,1500.0,1000.0,1000.0,0.0,0.0,0.0,0.0,0.0
21742956000,11,1509.0,1510.0,1604.0,1415.0,1602.0,1417.0,1500.0,1500.0,1500.0,1000.0,1000.0,0.0,0.0,0.0,0.0,0.0
21743060000,11,1509.0,1510.0,1605.0,1414.0,1600.0,1419.0,1500.0,1500.0,1500.0,1000.0,1000.0,0.0,0.0,0.0,0.0,0.0
21743160000,11,1509.0,1510.0,1603.0,1416.0,1606.0,1413.0,1500.0,1500.0,1500.0,1000.0,1000.0,0.0,0.0,0.0,0.0,0.0
21743260000,11,1506.0,1513.0,1607.0,1412.0,1604.0,1415.0,1500.0,1500.0,1500.0,1000.0,1000.0,0.0,0.0,0.0,0.0,0.0
21743360000,11,1510.0,1509.0,1606.0,1413.0,1605.0,1414.0,1500.0,1500.0,1500.0,1000.0,1000.0,0.0,0.0,0.0,0.0,0.0
21743460000,11,1504.0,1515.0,1604.0,1415.0,1607.0,1412.0,1500.0,1500.0,1500.0,1000.0,1000.0,0.0,0.0,0.0,0.0,0.0
21743560000,11,1510.0,1509.0,1606.0,1413.0,1605.0,1414.0,1500.0,1500.0,1500.0,1000.0,1000.0,0.0,0.0,0.0,0.0,0.0
21743660000,11,1506.0,1513.0,1606.0,1413.0,1607.0,1412.0,1500.0,1500.0,1500.0,1000.0,1000.0,0.0,0.0,0.0,0.0,0.0
21743760000,11,1486.0,1533.0,1623.0,1396.0,1593.0,1426.0,1500.0,1500.0,1500.0,1000.0,1000.0,0.0,0.0,0.0,0.0,0.0
21743860000,11,1510.0,1509.0,1608.0,1411.0,1608.0,1411.0,1500.0,1500.0,1500.0,1000.0,1000.0,0.0,0.0,0.0,0.0,0.0
21743960000,11,1503.0,1516.0,1614.0,1405.0,1603.0,1416.0,1500.0,1500.0,1500.0,1000.0,1000.0,0.0,0.0,0.0,0.0,0.0
21744060000,11,1511.0,1508.0,1608.0,1411.0,1610.0,1409.0,1500.0,1500.0,1500.0,1000.0,1000.0,0.0,0.0,0.0,0.0,0.0
21744160000,11,1509.0,1510.0,1610.0,1409.0,1610.0,1409.0,1500.0,1500.0,1500.0,1000.0,1000.0,0.0,0.0,0.0,0.0,0.0
21744260000,11,1512.0,1507.0,1610.0,1409.0,1609.0,1410.0,1500.0,1500.0,1500.0,1000.0,1000.0,0.0,0.0,0.0,0.0,0.0
21744360000,11,1509.0,1510.0,1609.0,1410.0,1611.0,1408.0,1500.0,1500.0,1500.0,1000.0,1000.0,0.0,0.0,0.0,0.0,0.0
21744460000,11,1500.0,1519.0,1617.0,1402.0,1605.0,1414.0,1500.0,1500.0,1500.0,1000.0,1000.0,0.0,0.0,0.0,0.0,0.0
21744560000,11,1510.0,1509.0,1611.0,1408.0,1610.0,1409.0,1500.0,1500.0,1500.0,1000.0,1000.0,0.0,0.0,0.0,0.0,0.0
21744660000,11,1500.0,1519.0,1615.0,1404.0,1609.0,1410.0,1500.0,1500.0,1500.0,1000.0,1000.0,0.0,0.0,0.0,0.0,0.0
21744760000,11,1509.0,1510.0,1613.0,1406.0,1612.0,1407.0,1500.0,1500.0,1500.0,1000.0,1000.0,0.0,0.0,0.0,0.0,0.0
21744860000,11,1510.0,1509.0,1613.0,1406.0,1611.0,1408.0,1500.0,1500.0,1500.0,1000.0,1000.0,0.0,0.0,0.0,0.0,0.0
21744956000,11,1510.0,1509.0,1613.0,1406.0,1613.0,1406.0,1500.0,1500.0,1500.0,1000.0,1000.0,0.0,0.0,0.0,0.0,0.0
21745060000,11,1510.0,1509.0,1613.0,1406.0,1614.0,1405.0,1500.0,1500.0,1500.0,1000.0,1000.0,0.0,0.0,0.0,0.0,0.0
21745156000,11,1510.0,1509.0,1612.0,1407.0,1615.0,1404.0,1500.0,1500.0,1500.0,1000.0,1000.0,0.0,0.0,0.0,0.0,0.0
21745256000,11,1511.0,1508.0,1614.0,1405.0,1614.0,1405.0,1500.0,1500.0,1500.0,1000.0,1000.0,0.0,0.0,0.0,0.0,0.0
21745360000,11,1513.0,1506.0,1613.0,1406.0,1617.0,1402.0,1500.0,1500.0,1500.0,1000.0,1000.0,0.0,0.0,0.0,0.0,0.0
21745460000,11,1510.0,1509.0,1615.0,1404.0,1615.0,1404.0,1500.0,1500.0,1500.0,1000.0,1000.0,0.0,0.0,0.0,0.0,0.0
21745556000,11,1512.0,1507.0,1614.0,1405.0,1617.0,1402.0,1500.0,1500.0,1500.0,1000.0,1000.0,0.0,0.0,0.0,0.0,0.0
21745656000,11,1511.0,1508.0,1616.0,1403.0,1616.0,1403.0,1500.0,1500.0,1500.0,1000.0,1000.0,0.0,0.0,0.0,0.0,0.0
21745760000,11,1509.0,1510.0,1614.0,1405.0,1618.0,1401.0,1500.0,1500.0,1500.0,1000.0,1000.0,0.0,0.0,0.0,0.0,0.0
21745860000,11,1510.0,1509.0,1616.0,1403.0,1616.0,1403.0,1500.0,1500.0,1500.0,1000.0,1000.0,0.0,0.0,0.0,0.0,0.0
21745960000,11,1509.0,1510.0,1617.0,1402.0,1617.0,1402.0,1500.0,1500.0,1500.0,1000.0,1000.0,0.0,0.0,0.0,0.0,0.0
21746060000,11,1537.0,1482.0,1601.0,1418.0,1633.0,1386.0,1500.0,1500.0,1500.0,1000.0,1000.0,0.0,0.0,0.0,0.0,0.0
21746160000,11,1510.0,1509.0,1615.0,1404.0,1619.0,1400.0,1500.0,1500.0,1500.0,1000.0,1000.0,0.0,0.0,0.0,0.0,0.0
21746256000,11,1511.0,1508.0,1617.0,1402.0,1617.0,1402.0,1500.0,1500.0,1500.0,1000.0,1000.0,0.0,0.0,0.0,0.0,0.0
21746360000,11,1511.0,1508.0,1618.0,1401.0,1617.0,1402.0,1500.0,1500.0,1500.0,1000.0,1000.0,0.0,0.0,0.0,0.0,0.0
21746460000,11,1508.0,1511.0,1615.0,1404.0,1619.0,1400.0,1500.0,1500.0,1500.0,1000.0,1000.0,0.0,0.0,0.0,0.0,0.0
21746560000,11,1511.0,1508.0,1617.0,1402.0,1618.0,1401.0,1500.0,1500.0,1500.0,1000.0,1000.0,0.0,0.0,0.0,0.0,0.0
21746660000,11,1510.0,1509.0,1617.0,1402.0,1619.0,1400.0,1500.0,1500.0,1500.0,1000.0,1000.0,0.0,0.0,0.0,0.0,0.0
21746760000,11,1544.0,1475.0,1598.0,1421.0,1639.0,1380.0,1500.0,1500.0,1500.0,1000.0,1000.0,0.0,0.0,0.0,0.0,0.0
21746860000,11,1509.0,1510.0,1619.0,1400.0,1619.0,1400.0,1500.0,1500.0,1500.0,1000.0,1000.0,0.0,0.0,0.0,0.0,0.0
21746956000,11,1511.0,1508.0,1622.0,1397.0,1616.0,1403.0,1500.0,1500.0,1500.0,1000.0,1000.0,0.0,0.0,0.0,0.0,0.0
21747060000,11,1512.0,1507.0,1617.0,1402.0,1619.0,1400.0,1500.0,1500.0,1500.0,1000.0,1000.0,0.0,0.0,0.0,0.0,0.0
21747160000,11,1510.0,1509.0,1618.0,1401.0,1621.0,1398.0,1500.0,1500.0,1500.0,1000.0,1000.0,0.0,0.0,0.0,0.0,0.0
21747260000,11,1511.0,1508.0,1619.0,1400.0,1621.0,1398.0,1500.0,1500.0,1500.0,1000.0,1000.0,0.0,0.0,0.0,0.0,0.0
21747356000,11,1510.0,1509.0,1620.0,1399.0,1620.0,1399.0,1500.0,1500.0,1500.0,1000.0,1000.0,0.0,0.0,0.0,0.0,0.0
21747456000,11,1488.0,1531.0,1634.0,1385.0,1606.0,1413.0,1500.0,1500.0,1500.0,1000.0,1000.0,0.0,0.0,0.0,0.0,0.0
21747560000,11,1511.0,1508.0,1620.0,1399.0,1621.0,1398.0,1500.0,1500.0,1500.0,1000.0,1000.0,0.0,0.0,0.0,0.0,0.0
21747660000,11,1508.0,1511.0,1622.0,1397.0,1618.0,1401.0,1500.0,1500.0,1500.0,1000.0,1000.0,0.0,0.0,0.0,0.0,0.0
21747760000,11,1511.0,1508.0,1622.0,1397.0,1620.0,1399.0,1500.0,1500.0,1500.0,1000.0,1000.0,0.0,0.0,0.0,0.0,0.0
21747860000,11,1509.0,1510.0,1620.0,1399.0,1622.0,1397.0,1500.0,1500.0,1500.0,1000.0,1000.0,0.0,0.0,0.0,0.0,0.0
21747960000,11,1511.0,1508.0,1620.0,1399.0,1622.0,1397.0,1500.0,1500.0,1500.0,1000.0,1000.0,0.0,0.0,0.0,0.0,0.0
21748056000,11,1510.0,1509.0,1620.0,1399.0,1622.0,1397.0,1500.0,1500.0,1500.0,1000.0,1000.0,0.0,0.0,0.0,0.0,0.0
21748156000,11,1500.0,1519.0,1626.0,1393.0,1616.0,1403.0,1500.0,1500.0,1500.0,1000.0,1000.0,0.0,0.0,0.0,0.0,0.0
21748260000,11,1511.0,1508.0,1621.0,1398.0,1620.0,1399.0,1500.0,1500.0,1500.0,1000.0,1000.0,0.0,0.0,0.0,0.0,0.0
21748360000,11,1503.0,1516.0,1626.0,1393.0,1618.0,1401.0,1500.0,1500.0,1500.0,1000.0,1000.0,0.0,0.0,0.0,0.0,0.0
21748456000,11,1512.0,1507.0,1623.0,1396.0,1623.0,1396.0,1500.0,1500.0,1500.0,1000.0,1000.0,0.0,0.0,0.0,0.0,0.0
21748560000,11,1508.0,1511.0,1620.0,1399.0,1622.0,1397.0,1500.0,1500.0,1500.0,1000.0,1000.0,0.0,0.0,0.0,0.0,0.0
21748660000,11,1513.0,1506.0,1621.0,1398.0,1623.0,1396.0,1500.0,1500.0,1500.0,1000.0,1000.0,0.0,0.0,0.0,0.0,0.0
21748760000,11,1511.0,1508.0,1622.0,1397.0,1624.0,1395.0,1500.0,1500.0,1500.0,1000.0,1000.0,0.0,0.0,0.0,0.0,0.0
21748856000,11,1512.0,1507.0,1621.0,1398.0,1623.0,1396.0,1500.0,1500.0,1500.0,1000.0,1000.0,0.0,0.0,0.0,0.0,0.0
21748956000,11,1512.0,1507.0,1622.0,1397.0,1623.0,1396.0,1500.0,1500.0,1500.0,1000.0,1000.0,0.0,0.0,0.0,0.0,0.0
21749060000,11,1502.0,1517.0,1627.0,1392.0,1618.0,1401.0,1500.0,1500.0,1500.0,1000.0,1000.0,0.0,0.0,0.0,0.0,0.0
21749160000,11,1510.0,1509.0,1622.0,1397.0,1622.0,1397.0,1500.0,1500.0,1500.0,1000.0,1000.0,0.0,0.0,0.0,0.0,0.0
21749256000,11,1513.0,1506.0,1623.0,1396.0,1622.0,1397.0,1500.0,1500.0,1500.0,1000.0,1000.0,0.0,0.0,0.0,0.0,0.0
21749360000,11,1511.0,1508.0,1619.0,1400.0,1626.0,1393.0,1500.0,1500.0,1500.0,1000.0,1000.0,0.0,0.0,0.0,0.0,0.0
21749460000,11,1511.0,1508.0,1622.0,1397.0,1623.0,1396.0,1500.0,1500.0,1500.0,1000.0,1000.0,0.0,0.0,0.0,0.0,0.0
21749560000,11,1512.0,1507.0,1622.0,1397.0,1624.0,1395.0,1500.0,1500.0,1500.0,1000.0,1000.0,0.0,0.0,0.0,0.0,0.0
21749660000,11,1511.0,1508.0,1622.0,1397.0,1623.0,1396.0,1500.0,1500.0,1500.0,1000.0,1000.0,0.0,0.0,0.0,0.0,0.0
21749760000,11,1513.0,1506.0,1621.0,1398.0,1626.0,1393.0,1500.0,1500.0,1500.0,1000.0,1000.0,0.0,0.0,0.0,0.0,0.0
21749860000,11,1510.0,1509.0,1625.0,1394.0,1622.0,1397.0,1500.0,1500.0,1500.0,1000.0,1000.0,0.0,0.0,0.0,0.0,0.0
21749960000,11,1512.0,1507.0,1623.0,1396.0,1625.0,1394.0,1500.0,1500.0,1500.0,1000.0,1000.0,0.0,0.0,0.0,0.0,0.0
21750060000,11,1511.0,1508.0,1622.0,1397.0,1626.0,1393.0,1500.0,1500.0,1500.0,1000.0,1000.0,0.0,0.0,0.0,0.0,0.0
21750160000,11,1510.0,1509.0,1622.0,1397.0,1624.0,1395.0,1500.0,1500.0,1500.0,1000.0,1000.0,0.0,0.0,0.0,0.0,0.0
21750260000,11,1513.0,1506.0,1624.0,1395.0,1625.0,1394.0,1500.0,1500.0,1500.0,1000.0,1000.0,0.0,0.0,0.0,0.0,0.0
21750360000,11,1512.0,1507.0,1622.0,1397.0,1625.0,1394.0,1500.0,1500.0,1500.0,1000.0,1000.0,0.0,0.0,0.0,0.0,0.0
21750460000,11,1538.0,1481.0,1608.0,1411.0,1640.0,1379.0,1500.0,1500.0,1500.0,1000.0,1000.0,0.0,0.0,0.0,0.0,0.0
21750560000,11,1510.0,1509.0,1623.0,1396.0,1625.0,1394.0,1500.0,1500.0,1500.0,1000.0,1000.0,0.0,0.0,0.0,0.0,0.0
21750656000,11,1513.0,1506.0,1627.0,1392.0,1622.0,1397.0,1500.0,1500.0,1500.0,1000.0,1000.0,0.0,0.0,0.0,0.0,0.0
21750756000,11,1511.0,1508.0,1624.0,1395.0,1625.0,1394.0,1500.0,1500.0,1500.0,1000.0,1000.0,0.0,0.0,0.0,0.0,0.0
21750856000,11,1510.0,1509.0,1624.0,1395.0,1625.0,1394.0,1500.0,1500.0,1500.0,1000.0,1000.0,0.0,0.0,0.0,0.0,0.0
21750960000,11,1512.0,1507.0,1624.0,1395.0,1624.0,1395.0,1500.0,1500.0,1500.0,1000.0,1000.0,0.0,0.0,0.0,0.0,0.0
21751060000,11,1511.0,1508.0,1623.0,1396.0,1626.0,1393.0,1500.0,1500.0,1500.0,1000.0,1000.0,0.0,0.0,0.0,0.0,0.0
21751160000,11,1543.0,1476.0,1604.0,1415.0,1645.0,1374.0,1500.0,1500.0,1500.0,1000.0,1000.0,0.0,0.0,0.0,0.0,0.0
21751260000,11,1511.0,1508.0,1625.0,1394.0,1624.0,1395.0,1500.0,1500.0,1500.0,1000.0,1000.0,0.0,0.0,0.0,0.0,0.0
21751360000,11,1511.0,1508.0,1625.0,1394.0,1624.0,1395.0,1500.0,1500.0,1500.0,1000.0,1000.0,0.0,0.0,0.0,0.0,0.0
21751460000,11,1511.0,1508.0,1624.0,1395.0,1626.0,1393.0,1500.0,1500.0,1500.0,1000.0,1000.0,0.0,0.0,0.0,0.0,0.0
21751560000,11,1510.0,1509.0,1623.0,1396.0,1627.0,1392.0,1500.0,1500.0,1500.0,1000.0,1000.0,0.0,0.0,0.0,0.0,0.0
21751660000,11,1512.0,1507.0,1623.0,1396.0,1626.0,1393.0,1500.0,1500.0,1500.0,1000.0,1000.0,0.0,0.0,0.0,0.0,0.0
21751760000,11,1512.0,1507.0,1624.0,1395.0,1624.0,1395.0,1500.0,1500.0,1500.0,1000.0,1000.0,0.0,0.0,0.0,0.0,0.0
21751860000,11,1509.0,1510.0,1625.0,1394.0,1624.0,1395.0,1500.0,1500.0,1500.0,1000.0,1000.0,0.0,0.0,0.0,0.0,0.0
21751956000,11,1511.0,1508.0,1624.0,1395.0,1624.0,1395.0,1500.0,1500.0,1500.0,1000.0,1000.0,0.0,0.0,0.0,0.0,0.0
21752060000,11,1508.0,1511.0,1627.0,1392.0,1623.0,1396.0,1500.0,1500.0,1500.0,1000.0,1000.0,0.0,0.0,0.0,0.0,0.0
21752160000,11,1512.0,1507.0,1624.0,1395.0,1626.0,1393.0,1500.0,1500.0,1500.0,1000.0,1000.0,0.0,0.0,0.0,0.0,0.0
21752260000,11,1508.0,1511.0,1626.0,1393.0,1624.0,1395.0,1500.0,1500.0,1500.0,1000.0,1000.0,0.0,0.0,0.0,0.0,0.0
21752360000,11,1512.0,1507.0,1623.0,1396.0,1626.0,1393.0,1500.0,1500.0,1500.0,1000.0,1000.0,0.0,0.0,0.0,0.0,0.0
21752460000,11,1513.0,1506.0,1624.0,1395.0,1626.0,1393.0,1500.0,1500.0,1500.0,1000.0,1000.0,0.0,0.0,0.0,0.0,0.0
21752560000,11,1489.0,1530.0,1638.0,1381.0,1612.0,1407.0,1500.0,1500.0,1500.0,1000.0,1000.0,0.0,0.0,0.0,0.0,0.0
21752660000,11,1512.0,1507.0,1624.0,1395.0,1625.0,1394.0,1500.0,1500.0,1500.0,1000.0,1000.0,0.0,0.0,0.0,0.0,0.0
21752760000,11,1503.0,1516.0,1631.0,1388.0,1621.0,1398.0,1500.0,1500.0,1500.0,1000.0,1000.0,0.0,0.0,0.0,0.0,0.0
21752856000,11,1512.0,1507.0,1626.0,1393.0,1626.0,1393.0,1500.0,1500.0,1500.0,1000.0,1000.0,0.0,0.0,0.0,0.0,0.0
21752960000,11,1509.0,1510.0,1626.0,1393.0,1626.0,1393.0,1500.0,1500.0,1500.0,1000.0,1000.0,0.0,0.0,0.0,0.0,0.0
21753060000,11,1512.0,1507.0,1624.0,1395.0,1625.0,1394.0,1500.0,1500.0,1500.0,1000.0,1000.0,0.0,0.0,0.0,0.0,0.0
21753160000,11,1512.0,1507.0,1626.0,1393.0,1624.0,1395.0,1500.0,1500.0,1500.0,1000.0,1000.0,0.0,0.0,0.0,0.0,0.0
21753260000,11,1500.0,1519.0,1632.0,1387.0,1620.0,1399.0,1500.0,1500.0,1500.0,1000.0,1000.0,0.0,0.0,0.0,0.0,0.0
21753360000,11,1512.0,1507.0,1625.0,1394.0,1626.0,1393.0,1500.0,1500.0,1500.0,1000.0,1000.0,0.0,0.0,0.0,0.0,0.0
21753456000,11,1512.0,1507.0,1623.0,1396.0,1628.0,1391.0,1500.0,1500.0,1500.0,1000.0,1000.0,0.0,0.0,0.0,0.0,0.0
21753560000,11,1511.0,1508.0,1625.0,1394.0,1625.0,1394.0,1500.0,1500.0,1500.0,1000.0,1000.0,0.0,0.0,0.0,0.0,0.0
21753660000,11,1509.0,1510.0,1627.0,1392.0,1625.0,1394.0,1500.0,1500.0,1500.0,1000.0,1000.0,0.0,0.0,0.0,0.0,0.0
21753760000,11,1511.0,1508.0,1624.0,1395.0,1626.0,1393.0,1500.0,1500.0,1500.0,1000.0,1000.0,0.0,0.0,0.0,0.0,0.0
21753860000,11,1509.0,1510.0,1624.0,1395.0,1626.0,1393.0,1500.0,1500.0,1500.0,1000.0,1000.0,0.0,0.0,0.0,0.0,0.0
21753960000,11,1512.0,1507.0,1626.0,1393.0,1626.0,1393.0,1500.0,1500.0,1500.0,1000.0,1000.0,0.0,0.0,0.0,0.0,0.0
21754056000,11,1511.0,1508.0,1625.0,1394.0,1627.0,1392.0,1500.0,1500.0,1500.0,1000.0,1000.0,0.0,0.0,0.0,0.0,0.0
21754160000,11,1511.0,1508.0,1624.0,1395.0,1628.0,1391.0,1500.0,1500.0,1500.0,1000.0,1000.0,0.0,0.0,0.0,0.0,0.0
21754260000,11,1511.0,1508.0,1624.0,1395.0,1626.0,1393.0,1500.0,1500.0,1500.0,1000.0,1000.0,0.0,0.0,0.0,0.0,0.0
21754356000,11,1513.0,1506.0,1624.0,1395.0,1627.0,1392.0,1500.0,1500.0,1500.0,1000.0,1000.0,0.0,0.0,0.0,0.0,0.0
21754456000,11,1510.0,1509.0,1625.0,1394.0,1625.0,1394.0,1500.0,1500.0,1500.0,1000.0,1000.0,0.0,0.0,0.0,0.0,0.0
21754556000,11,1511.0,1508.0,1625.0,1394.0,1625.0,1394.0,1500.0,1500.0,1500.0,1000.0,1000.0,0.0,0.0,0.0,0.0,0.0
21754656000,11,1510.0,1509.0,1624.0,1395.0,1627.0,1392.0,1500.0,1500.0,1500.0,1000.0,1000.0,0.0,0.0,0.0,0.0,0.0
21754760000,11,1509.0,1510.0,1624.0,1395.0,1626.0,1393.0,1500.0,1500.0,1500.0,1000.0,1000.0,0.0,0.0,0.0,0.0,0.0
21754860000,11,1536.0,1483.0,1610.0,1409.0,1640.0,1379.0,1500.0,1500.0,1500.0,1000.0,1000.0,0.0,0.0,0.0,0.0,0.0
21754960000,11,1511.0,1508.0,1623.0,1396.0,1625.0,1394.0,1500.0,1500.0,1500.0,1000.0,1000.0,0.0,0.0,0.0,0.0,0.0
21755060000,11,1515.0,1504.0,1625.0,1394.0,1626.0,1393.0,1500.0,1500.0,1500.0,1000.0,1000.0,0.0,0.0,0.0,0.0,0.0
21755160000,11,1511.0,1508.0,1624.0,1395.0,1629.0,1390.0,1500.0,1500.0,1500.0,1000.0,1000.0,0.0,0.0,0.0,0.0,0.0
21755256000,11,1509.0,1510.0,1626.0,1393.0,1626.0,1393.0,1500.0,1500.0,1500.0,1000.0,1000.0,0.0,0.0,0.0,0.0,0.0
21755356000,11,1510.0,1509.0,1626.0,1393.0,1626.0,1393.0,1500.0,1500.0,1500.0,1000.0,1000.0,0.0,0.0,0.0,0.0,0.0
21755456000,11,1509.0,1510.0,1625.0,1394.0,1626.0,1393.0,1500.0,1500.0,1500.0,1000.0,1000.0,0.0,0.0,0.0,0.0,0.0
21755560000,11,1541.0,1478.0,1606.0,1413.0,1645.0,1374.0,1500.0,1500.0,1500.0,1000.0,1000.0,0.0,0.0,0.0,0.0,0.0
21755656000,11,1509.0,1510.0,1626.0,1393.0,1625.0,1394.0,1500.0,1500.0,1500.0,1000.0,1000.0,0.0,0.0,0.0,0.0,0.0
21755756000,11,1508.0,1511.0,1629.0,1390.0,1623.0,1396.0,1500.0,1500.0,1500.0,1000.0,1000.0,0.0,0.0,0.0,0.0,0.0
21755860000,11,1513.0,1506.0,1624.0,1395.0,1628.0,1391.0,1500.0,1500.0,1500.0,1000.0,1000.0,0.0,0.0,0.0,0.0,0.0
21755960000,11,1507.0,1512.0,1626.0,1393.0,1626.0,1393.0,1500.0,1500.0,1500.0,1000.0,1000.0,0.0,0.0,0.0,0.0,0.0
21756060000,11,1512.0,1507.0,1627.0,1392.0,1625.0,1394.0,1500.0,1500.0,1500.0,1000.0,1000.0,0.0,0.0,0.0,0.0,0.0
21756160000,11,1510.0,1509.0,1622.0,1397.0,1629.0,1390.0,1500.0,1500.0,1500.0,1000.0,1000.0,0.0,0.0,0.0,0.0,0.0
21756256000,11,1487.0,1532.0,1638.0,1381.0,1613.0,1406.0,1500.0,1500.0,1500.0,1000.0,1000.0,0.0,0.0,0.0,0.0,0.0
21756360000,11,1510.0,1509.0,1625.0,1394.0,1626.0,1393.0,1500.0,1500.0,1500.0,1000.0,1000.0,0.0,0.0,0.0,0.0,0.0
21756460000,11,1509.0,1510.0,1628.0,1391.0,1623.0,1396.0,1500.0,1500.0,1500.0,1000.0,1000.0,0.0,0.0,0.0,0.0,0.0
21756560000,11,1510.0,1509.0,1626.0,1393.0,1626.0,1393.0,1500.0,1500.0,1500.0,1000.0,1000.0,0.0,0.0,0.0,0.0,0.0
21756656000,11,1510.0,1509.0,1627.0,1392.0,1625.0,1394.0,1500.0,1500.0,1500.0,1000.0,1000.0,0.0,0.0,0.0,0.0,0.0
21756756000,11,1512.0,1507.0,1625.0,1394.0,1627.0,1392.0,1500.0,1500.0,1500.0,1000.0,1000.0,0.0,0.0,0.0,0.0,0.0
21756860000,11,1514.0,1505.0,1624.0,1395.0,1627.0,1392.0,1500.0,1500.0,1500.0,1000.0,1000.0,0.0,0.0,0.0,0.0,0.0
21756960000,11,1489.0,1530.0,1639.0,1380.0,1613.0,1406.0,1500.0,1500.0,1500.0,1000.0,1000.0,0.0,0.0,0.0,0.0,0.0
21757056000,11,1509.0,1510.0,1624.0,1395.0,1627.0,1392.0,1500.0,1500.0,1500.0,1000.0,1000.0,0.0,0.0,0.0,0.0,0.0
21757160000,11,1504.0,1515.0,1631.0,1388.0,1622.0,1397.0,1500.0,1500.0,1500.0,1000.0,1000.0,0.0,0.0,0.0,0.0,0.0
21757260000,11,1511.0,1508.0,1625.0,1394.0,1628.0,1391.0,1500.0,1500.0,1500.0,1000.0,1000.0,0.0,0.0,0.0,0.0,0.0
21757360000,11,1507.0,1512.0,1626.0,1393.0,1628.0,1391.0,1500.0,1500.0,1500.0,1000.0,1000.0,0.0,0.0,0.0,0.0,0.0
21757460000,11,1511.0,1508.0,1627.0,1392.0,1626.0,1393.0,1500.0,1500.0,1500.0,1000.0,1000.0,0.0,0.0,0.0,0.0,0.0
21757556000,11,1510.0,1509.0,1623.0,1396.0,1628.0,1391.0,1500.0,1500.0,1500.0,1000.0,1000.0,0.0,0.0,0.0,0.0,0.0
21757660000,11,1502.0,1517.0,1632.0,1387.0,1621.0,1398.0,1500.0,1500.0,1500.0,1000.0,1000.0,0.0,0.0,0.0,0.0,0.0
21757760000,11,1511.0,1508.0,1625.0,1394.0,1628.0,1391.0,1500.0,1500.0,1500.0,1000.0,1000.0,0.0,0.0,0.0,0.0,0.0
21757856000,11,1512.0,1507.0,1623.0,1396.0,1629.0,1390.0,1500.0,1500.0,1500.0,1000.0,1000.0,0.0,0.0,0.0,0.0,0.0
21757960000,11,1512.0,1507.0,1627.0,1392.0,1625.0,1394.0,1500.0,1500.0,1500.0,1000.0,1000.0,0.0,0.0,0.0,0.0,0.0
21758060000,11,1510.0,1509.0,1625.0,1394.0,1628.0,1391.0,1500.0,1500.0,1500.0,1000.0,1000.0,0.0,0.0,0.0,0.0,0.0
21758160000,11,1511.0,1508.0,1624.0,1395.0,1627.0,1392.0,1500.0,1500.0,1500.0,1000.0,1000.0,0.0,0.0,0.0,0.0,0.0
21758260000,11,1511.0,1508.0,1626.0,1393.0,1627.0,1392.0,1500.0,1500.0,1500.0,1000.0,1000.0,0.0,0.0,0.0,0.0,0.0
21758360000,11,1511.0,1508.0,1625.0,1394.0,1627.0,1392.0,1500.0,1500.0,1500.0,1000.0,1000.0,0.0,0.0,0.0,0.0,0.0
21758460000,11,1510.0,1509.0,1627.0,1392.0,1625.0,1394.0,1500.0,1500.0,1500.0,1000.0,1000.0,0.0,0.0,0.0,0.0,0.0
21758560000,11,1512.0,1507.0,1623.0,1396.0,1629.0,1390.0,1500.0,1500.0,1500.0,1000.0,1000.0,0.0,0.0,0.0,0.0,0.0
21758660000,11,1510.0,1509.0,1625.0,1394.0,1627.0,1392.0,1500.0,1500.0,1500.0,1000.0,1000.0,0.0,0.0,0.0,0.0,0.0
21758760000,11,1509.0,1510.0,1626.0,1393.0,1627.0,1392.0,1500.0,1500.0,1500.0,1000.0,1000.0,0.0,0.0,0.0,0.0,0.0
21758860000,11,1511.0,1508.0,1625.0,1394.0,1627.0,1392.0,1500.0,1500.0,1500.0,1000.0,1000.0,0.0,0.0,0.0,0.0,0.0
21758960000,11,1510.0,1509.0,1625.0,1394.0,1626.0,1393.0,1500.0,1500.0,1500.0,1000.0,1000.0,0.0,0.0,0.0,0.0,0.0
21759060000,11,1512.0,1507.0,1628.0,1391.0,1626.0,1393.0,1500.0,1500.0,1500.0,1000.0,1000.0,0.0,0.0,0.0,0.0,0.0
21759156000,11,1507.0,1512.0,1624.0,1395.0,1629.0,1390.0,1500.0,1500.0,1500.0,1000.0,1000.0,0.0,0.0,0.0,0.0,0.0
21759260000,11,1538.0,1481.0,1610.0,1409.0,1643.0,1376.0,1500.0,1500.0,1500.0,1000.0,1000.0,0.0,0.0,0.0,0.0,0.0
21759360000,11,1510.0,1509.0,1625.0,1394.0,1628.0,1391.0,1500.0,1500.0,1500.0,1000.0,1000.0,0.0,0.0,0.0,0.0,0.0
21759460000,11,1513.0,1506.0,1626.0,1393.0,1627.0,1392.0,1500.0,1500.0,1500.0,1000.0,1000.0,0.0,0.0,0.0,0.0,0.0
21759560000,11,1511.0,1508.0,1626.0,1393.0,1627.0,1392.0,1500.0,1500.0,1500.0,1000.0,1000.0,0.0,0.0,0.0,0.0,0.0
21759660000,11,1508.0,1511.0,1627.0,1392.0,1627.0,1392.0,1500.0,1500.0,1500.0,1000.0,1000.0,0.0,0.0,0.0,0.0,0.0
21759760000,11,1511.0,1508.0,1627.0,1392.0,1626.0,1393.0,1500.0,1500.0,1500.0,1000.0,1000.0,0.0,0.0,0.0,0.0,0.0
21759860000,11,1510.0,1509.0,1624.0,1395.0,1628.0,1391.0,1500.0,1500.0,1500.0,1000.0,1000.0,0.0,0.0,0.0,0.0,0.0
21759960000,11,1545.0,1474.0,1606.0,1413.0,1644.0,1375.0,1500.0,1500.0,1500.0,1000.0,1000.0,0.0,0.0,0.0,0.0,0.0
21760060000,11,1510.0,1509.0,1625.0,1394.0,1627.0,1392.0,1500.0,1500.0,1500.0,1000.0,1000.0,0.0,0.0,0.0,0.0,0.0
21760156000,11,1508.0,1511.0,1628.0,1391.0,1625.0,1394.0,1500.0,1500.0,1500.0,1000.0,1000.0,0.0,0.0,0.0,0.0,0.0
21760260000,11,1511.0,1508.0,1627.0,1392.0,1627.0,1392.0,1500.0,1500.0,1500.0,1000.0,1000.0,0.0,0.0,0.0,0.0,0.0
21760360000,11,1513.0,1506.0,1624.0,1395.0,1628.0,1391.0,1500.0,1500.0,1500.0,1000.0,1000.0,0.0,0.0,0.0,0.0,0.0
21760456000,11,1512.0,1507.0,1624.0,1395.0,1628.0,1391.0,1500.0,1500.0,1500.0,1000.0,1000.0,0.0,0.0,0.0,0.0,0.0
21760560000,11,1509.0,1510.0,1625.0,1394.0,1627.0,1392.0,1500.0,1500.0,1500.0,1000.0,1000.0,0.0,0.0,0.0,0.0,0.0
21760660000,11,1511.0,1508.0,1628.0,1391.0,1627.0,1392.0,1500.0,1500.0,1500.0,1000.0,1000.0,0.0,0.0,0.0,0.0,0.0
21760760000,11,1511.0,1508.0,1626.0,1393.0,1625.0,1394.0,1500.0,1500.0,1500.0,1000.0,1000.0,0.0,0.0,0.0,0.0,0.0
21760860000,11,1508.0,1511.0,1630.0,1389.0,1625.0,1394.0,1500.0,1500.0,1500.0,1000.0,1000.0,0.0,0.0,0.0,0.0,0.0
21760960000,11,1510.0,1509.0,1625.0,1394.0,1628.0,1391.0,1500.0,1500.0,1500.0,1000.0,1000.0,0.0,0.0,0.0,0.0,0.0
21761060000,11,1509.0,1510.0,1625.0,1394.0,1626.0,1393.0,1500.0,1500.0,1500.0,1000.0,1000.0,0.0,0.0,0.0,0.0,0.0
21761160000,11,1512.0,1507.0,1625.0,1394.0,1627.0,1392.0,1500.0,1500.0,1500.0,1000.0,1000.0,0.0,0.0,0.0,0.0,0.0
21761260000,11,1511.0,1508.0,1626.0,1393.0,1627.0,1392.0,1500.0,1500.0,1500.0,1000.0,1000.0,0.0,0.0,0.0,0.0,0.0
21761360000,11,1490.0,1529.0,1639.0,1380.0,1614.0,1405.0,1500.0,1500.0,1500.0,1000.0,1000.0,0.0,0.0,0.0,0.0,0.0
21761460000,11,1511.0,1508.0,1627.0,1392.0,1626.0,1393.0,1500.0,1500.0,1500.0,1000.0,1000.0,0.0,0.0,0.0,0.0,0.0
21761560000,11,1503.0,1516.0,1631.0,1388.0,1621.0,1398.0,1500.0,1500.0,1500.0,1000.0,1000.0,0.0,0.0,0.0,0.0,0.0
21761660000,11,1512.0,1507.0,1625.0,1394.0,1627.0,1392.0,1500.0,1500.0,1500.0,1000.0,1000.0,0.0,0.0,0.0,0.0,0.0
21761760000,11,1509.0,1510.0,1627.0,1392.0,1627.0,1392.0,1500.0,1500.0,1500.0,1000.0,1000.0,0.0,0.0,0.0,0.0,0.0
21761860000,11,1511.0,1508.0,1627.0,1392.0,1628.0,1391.0,1500.0,1500.0,1500.0,1000.0,1000.0,0.0,0.0,0.0,0.0,0.0
21761960000,11,1509.0,1510.0,1625.0,1394.0,1630.0,1389.0,1500.0,1500.0,1500.0,1000.0,1000.0,0.0,0.0,0.0,0.0,0.0
21762060000,11,1502.0,1517.0,1632.0,1387.0,1622.0,1397.0,1500.0,1500.0,1500.0,1000.0,1000.0,0.0,0.0,0.0,0.0,0.0
21762156000,11,1509.0,1510.0,1626.0,1393.0,1627.0,1392.0,1500.0,1500.0,1500.0,1000.0,1000.0,0.0,0.0,0.0,0.0,0.0
21762260000,11,1503.0,1516.0,1631.0,1388.0,1621.0,1398.0,1500.0,1500.0,1500.0,1000.0,1000.0,0.0,0.0,0.0,0.0,0.0
21762360000,11,1511.0,1508.0,1625.0,1394.0,1629.0,1390.0,1500.0,1500.0,1500.0,1000.0,1000.0,0.0,0.0,0.0,0.0,0.0
21762460000,11,1511.0,1508.0,1626.0,1393.0,1628.0,1391.0,1500.0,1500.0,1500.0,1000.0,1000.0,0.0,0.0,0.0,0.0,0.0
21762560000,11,1511.0,1508.0,1626.0,1393.0,1626.0,1393.0,1500.0,1500.0,1500.0,1000.0,1000.0,0.0,0.0,0.0,0.0,0.0
21762660000,11,1508.0,1511.0,1626.0,1393.0,1627.0,1392.0,1500.0,1500.0,1500.0,1000.0,1000.0,0.0,0.0,0.0,0.0,0.0
21762760000,11,1510.0,1509.0,1626.0,1393.0,1628.0,1391.0,1500.0,1500.0,1500.0,1000.0,1000.0,0.0,0.0,0.0,0.0,0.0
21762860000,11,1512.0,1507.0,1625.0,1394.0,1628.0,1391.0,1500.0,1500.0,1500.0,1000.0,1000.0,0.0,0.0,0.0,0.0,0.0
21762960000,11,1513.0,1506.0,1623.0,1396.0,1629.0,1390.0,1500.0,1500.0,1500.0,1000.0,1000.0,0.0,0.0,0.0,0.0,0.0
21763060000,11,1513.0,1506.0,1627.0,1392.0,1627.0,1392.0,1500.0,1500.0,1500.0,1000.0,1000.0,0.0,0.0,0.0,0.0,0.0
21763160000,11,1510.0,1509.0,1626.0,1393.0,1627.0,1392.0,1500.0,1500.0,1500.0,1000.0,1000.0,0.0,0.0,0.0,0.0,0.0
21763260000,11,1512.0,1507.0,1627.0,1392.0,1628.0,1391.0,1500.0,1500.0,1500.0,1000.0,1000.0,0.0,0.0,0.0,0.0,0.0
21763360000,11,1510.0,1509.0,1625.0,1394.0,1629.0,1390.0,1500.0,1500.0,1500.0,1000.0,1000.0,0.0,0.0,0.0,0.0,0.0
21763456000,11,1511.0,1508.0,1625.0,1394.0,1629.0,1390.0,1500.0,1500.0,1500.0,1000.0,1000.0,0.0,0.0,0.0,0.0,0.0
21763556000,11,1512.0,1507.0,1625.0,1394.0,1628.0,1391.0,1500.0,1500.0,1500.0,1000.0,1000.0,0.0,0.0,0.0,0.0,0.0
21763656000,11,1544.0,1475.0,1608.0,1411.0,1646.0,1373.0,1500.0,1500.0,1500.0,1000.0,1000.0,0.0,0.0,0.0,0.0,0.0
21763760000,11,1510.0,1509.0,1625.0,1394.0,1627.0,1392.0,1500.0,1500.0,1500.0,1000.0,1000.0,0.0,0.0,0.0,0.0,0.0
21763860000,11,1510.0,1509.0,1627.0,1392.0,1628.0,1391.0,1500.0,1500.0,1500.0,1000.0,1000.0,0.0,0.0,0.0,0.0,0.0
21763956000,11,1512.0,1507.0,1627.0,1392.0,1627.0,1392.0,1500.0,1500.0,1500.0,1000.0,1000.0,0.0,0.0,0.0,0.0,0.0
21764056000,11,1509.0,1510.0,1625.0,1394.0,1629.0,1390.0,1500.0,1500.0,1500.0,1000.0,1000.0,0.0,0.0,0.0,0.0,0.0
21764160000,11,1512.0,1507.0,1626.0,1393.0,1628.0,1391.0,1500.0,1500.0,1500.0,1000.0,1000.0,0.0,0.0,0.0,0.0,0.0
21764260000,11,1512.0,1507.0,1625.0,1394.0,1627.0,1392.0,1500.0,1500.0,1500.0,1000.0,1000.0,0.0,0.0,0.0,0.0,0.0
21764360000,11,1543.0,1476.0,1606.0,1413.0,1645.0,1374.0,1500.0,1500.0,1500.0,1000.0,1000.0,0.0,0.0,0.0,0.0,0.0
21764460000,11,1510.0,1509.0,1626.0,1393.0,1628.0,1391.0,1500.0,1500.0,1500.0,1000.0,1000.0,0.0,0.0,0.0,0.0,0.0
21764560000,11,1511.0,1508.0,1627.0,1392.0,1628.0,1391.0,1500.0,1500.0,1500.0,1000.0,1000.0,0.0,0.0,0.0,0.0,0.0
21764660000,11,1511.0,1508.0,1627.0,1392.0,1628.0,1391.0,1500.0,1500.0,1500.0,1000.0,1000.0,0.0,0.0,0.0,0.0,0.0
21764756000,11,1509.0,1510.0,1627.0,1392.0,1627.0,1392.0,1500.0,1500.0,1500.0,1000.0,1000.0,0.0,0.0,0.0,0.0,0.0
21764860000,11,1513.0,1506.0,1627.0,1392.0,1627.0,1392.0,1500.0,1500.0,1500.0,1000.0,1000.0,0.0,0.0,0.0,0.0,0.0
21764960000,11,1511.0,1508.0,1625.0,1394.0,1629.0,1390.0,1500.0,1500.0,1500.0,1000.0,1000.0,0.0,0.0,0.0,0.0,0.0
21765060000,11,1511.0,1508.0,1627.0,1392.0,1626.0,1393.0,1500.0,1500.0,1500.0,1000.0,1000.0,0.0,0.0,0.0,0.0,0.0
21765160000,11,1511.0,1508.0,1627.0,1392.0,1627.0,1392.0,1500.0,1500.0,1500.0,1000.0,1000.0,0.0,0.0,0.0,0.0,0.0
21765260000,11,1510.0,1509.0,1629.0,1390.0,1626.0,1393.0,1500.0,1500.0,1500.0,1000.0,1000.0,0.0,0.0,0.0,0.0,0.0
21765360000,11,1510.0,1509.0,1627.0,1392.0,1628.0,1391.0,1500.0,1500.0,1500.0,1000.0,1000.0,0.0,0.0,0.0,0.0,0.0
21765460000,11,1510.0,1509.0,1626.0,1393.0,1627.0,1392.0,1500.0,1500.0,1500.0,1000.0,1000.0,0.0,0.0,0.0,0.0,0.0
21765560000,11,1512.0,1507.0,1626.0,1393.0,1627.0,1392.0,1500.0,1500.0,1500.0,1000.0,1000.0,0.0,0.0,0.0,0.0,0.0
21765656000,11,1506.0,1513.0,1627.0,1392.0,1629.0,1390.0,1500.0,1500.0,1500.0,1000.0,1000.0,0.0,0.0,0.0,0.0,0.0
21765760000,11,1487.0,1532.0,1642.0,1377.0,1612.0,1407.0,1500.0,1500.0,1500.0,1000.0,1000.0,0.0,0.0,0.0,0.0,0.0
21765856000,11,1510.0,1509.0,1625.0,1394.0,1629.0,1390.0,1500.0,1500.0,1500.0,1000.0,1000.0,0.0,0.0,0.0,0.0,0.0
21765960000,11,1503.0,1516.0,1631.0,1388.0,1623.0,1396.0,1500.0,1500.0,1500.0,1000.0,1000.0,0.0,0.0,0.0,0.0,0.0
21766060000,11,1512.0,1507.0,1627.0,1392.0,1627.0,1392.0,1500.0,1500.0,1500.0,1000.0,1000.0,0.0,0.0,0.0,0.0,0.0
21766160000,11,1510.0,1509.0,1626.0,1393.0,1629.0,1390.0,1500.0,1500.0,1500.0,1000.0,1000.0,0.0,0.0,0.0,0.0,0.0
21766260000,11,1511.0,1508.0,1626.0,1393.0,1629.0,1390.0,1500.0,1500.0,1500.0,1000.0,1000.0,0.0,0.0,0.0,0.0,0.0
21766360000,11,1511.0,1508.0,1627.0,1392.0,1627.0,1392.0,1500.0,1500.0,1500.0,1000.0,1000.0,0.0,0.0,0.0,0.0,0.0
21766460000,11,1499.0,1520.0,1632.0,1387.0,1623.0,1396.0,1500.0,1500.0,1500.0,1000.0,1000.0,0.0,0.0,0.0,0.0,0.0
21766560000,11,1512.0,1507.0,1627.0,1392.0,1626.0,1393.0,1500.0,1500.0,1500.0,1000.0,1000.0,0.0,0.0,0.0,0.0,0.0
21766660000,11,1499.0,1520.0,1633.0,1386.0,1623.0,1396.0,1500.0,1500.0,1500.0,1000.0,1000.0,0.0,0.0,0.0,0.0,0.0
21766760000,11,1512.0,1507.0,1626.0,1393.0,1629.0,1390.0,1500.0,1500.0,1500.0,1000.0,1000.0,0.0,0.0,0.0,0.0,0.0
21766860000,11,1509.0,1510.0,1628.0,1391.0,1629.0,1390.0,1500.0,1500.0,1500.0,1000.0,1000.0,0.0,0.0,0.0,0.0,0.0
21766960000,11,1511.0,1508.0,1626.0,1393.0,1629.0,1390.0,1500.0,1500.0,1500.0,1000.0,1000.0,0.0,0.0,0.0,0.0,0.0
21767060000,11,1510.0,1509.0,1625.0,1394.0,1629.0,1390.0,1500.0,1500.0,1500.0,1000.0,1000.0,0.0,0.0,0.0,0.0,0.0
21767160000,11,1511.0,1508.0,1626.0,1393.0,1627.0,1392.0,1500.0,1500.0,1500.0,1000.0,1000.0,0.0,0.0,0.0,0.0,0.0
21767256000,11,1511.0,1508.0,1626.0,1393.0,1629.0,1390.0,1500.0,1500.0,1500.0,1000.0,1000.0,0.0,0.0,0.0,0.0,0.0
21767360000,11,1513.0,1506.0,1625.0,1394.0,1631.0,1388.0,1500.0,1500.0,1500.0,1000.0,1000.0,0.0,0.0,0.0,0.0,0.0
21767460000,11,1510.0,1509.0,1626.0,1393.0,1629.0,1390.0,1500.0,1500.0,1500.0,1000.0,1000.0,0.0,0.0,0.0,0.0,0.0
21767560000,11,1509.0,1510.0,1628.0,1391.0,1629.0,1390.0,1500.0,1500.0,1500.0,1000.0,1000.0,0.0,0.0,0.0,0.0,0.0
21767660000,11,1509.0,1510.0,1628.0,1391.0,1628.0,1391.0,1500.0,1500.0,1500.0,1000.0,1000.0,0.0,0.0,0.0,0.0,0.0
21767760000,11,1510.0,1509.0,1626.0,1393.0,1629.0,1390.0,1500.0,1500.0,1500.0,1000.0,1000.0,0.0,0.0,0.0,0.0,0.0
21767860000,11,1512.0,1507.0,1625.0,1394.0,1628.0,1391.0,1500.0,1500.0,1500.0,1000.0,1000.0,0.0,0.0,0.0,0.0,0.0
21767956000,11,1509.0,1510.0,1627.0,1392.0,1628.0,1391.0,1500.0,1500.0,1500.0,1000.0,1000.0,0.0,0.0,0.0,0.0,0.0
21768060000,11,1536.0,1483.0,1611.0,1408.0,1644.0,1375.0,1500.0,1500.0,1500.0,1000.0,1000.0,0.0,0.0,0.0,0.0,0.0
21768156000,11,1511.0,1508.0,1627.0,1392.0,1627.0,1392.0,1500.0,1500.0,1500.0,1000.0,1000.0,0.0,0.0,0.0,0.0,0.0
21768260000,11,1511.0,1508.0,1625.0,1394.0,1629.0,1390.0,1500.0,1500.0,1500.0,1000.0,1000.0,0.0,0.0,0.0,0.0,0.0
21768360000,11,1510.0,1509.0,1627.0,1392.0,1628.0,1391.0,1500.0,1500.0,1500.0,1000.0,1000.0,0.0,0.0,0.0,0.0,0.0
21768460000,11,1510.0,1509.0,1627.0,1392.0,1628.0,1391.0,1500.0,1500.0,1500.0,1000.0,1000.0,0.0,0.0,0.0,0.0,0.0
21768560000,11,1512.0,1507.0,1628.0,1391.0,1627.0,1392.0,1500.0,1500.0,1500.0,1000.0,1000.0,0.0,0.0,0.0,0.0,0.0
21768660000,11,1510.0,1509.0,1626.0,1393.0,1629.0,1390.0,1500.0,1500.0,1500.0,1000.0,1000.0,0.0,0.0,0.0,0.0,0.0
21768760000,11,1543.0,1476.0,1607.0,1412.0,1646.0,1373.0,1500.0,1500.0,1500.0,1000.0,1000.0,0.0,0.0,0.0,0.0,0.0
21768860000,11,1511.0,1508.0,1627.0,1392.0,1627.0,1392.0,1500.0,1500.0,1500.0,1000.0,1000.0,0.0,0.0,0.0,0.0,0.0
21768960000,11,1512.0,1507.0,1628.0,1391.0,1627.0,1392.0,1500.0,1500.0,1500.0,1000.0,1000.0,0.0,0.0,0.0,0.0,0.0
21769060000,11,1510.0,1509.0,1627.0,1392.0,1629.0,1390.0,1500.0,1500.0,1500.0,1000.0,1000.0,0.0,0.0,0.0,0.0,0.0
21769160000,11,1510.0,1509.0,1628.0,1391.0,1628.0,1391.0,1500.0,1500.0,1500.0,1000.0,1000.0,0.0,0.0,0.0,0.0,0.0
21769260000,11,1510.0,1509.0,1626.0,1393.0,1629.0,1390.0,1500.0,1500.0,1500.0,1000.0,1000.0,0.0,0.0,0.0,0.0,0.0
21769360000,11,1509.0,1510.0,1626.0,1393.0,1629.0,1390.0,1500.0,1500.0,1500.0,1000.0,1000.0,0.0,0.0,0.0,0.0,0.0
21769460000,11,1510.0,1509.0,1629.0,1390.0,1627.0,1392.0,1500.0,1500.0,1500.0,1000.0,1000.0,0.0,0.0,0.0,0.0,0.0
21769560000,11,1510.0,1509.0,1626.0,1393.0,1628.0,1391.0,1500.0,1500.0,1500.0,1000.0,1000.0,0.0,0.0,0.0,0.0,0.0
21769656000,11,1501.0,1518.0,1631.0,1388.0,1623.0,1396.0,1500.0,1500.0,1500.0,1000.0,1000.0,0.0,0.0,0.0,0.0,0.0
21769760000,11,1510.0,1509.0,1629.0,1390.0,1628.0,1391.0,1500.0,1500.0,1500.0,1000.0,1000.0,0.0,0.0,0.0,0.0,0.0
21769856000,11,1512.0,1507.0,1626.0,1393.0,1629.0,1390.0,1500.0,1500.0,1500.0,1000.0,1000.0,0.0,0.0,0.0,0.0,0.0
21769960000,11,1510.0,1509.0,1624.0,1395.0,1630.0,1389.0,1500.0,1500.0,1500.0,1000.0,1000.0,0.0,0.0,0.0,0.0,0.0
21770060000,11,1510.0,1509.0,1627.0,1392.0,1628.0,1391.0,1500.0,1500.0,1500.0,1000.0,1000.0,0.0,0.0,0.0,0.0,0.0
21770160000,11,1487.0,1532.0,1641.0,1378.0,1614.0,1405.0,1500.0,1500.0,1500.0,1000.0,1000.0,0.0,0.0,0.0,0.0,0.0
21770260000,11,1511.0,1508.0,1628.0,1391.0,1628.0,1391.0,1500.0,1500.0,1500.0,1000.0,1000.0,0.0,0.0,0.0,0.0,0.0
21770360000,11,1502.0,1517.0,1634.0,1385.0,1622.0,1397.0,1500.0,1500.0,1500.0,1000.0,1000.0,0.0,0.0,0.0,0.0,0.0
21770460000,11,1510.0,1509.0,1627.0,1392.0,1628.0,1391.0,1500.0,1500.0,1500.0,1000.0,1000.0,0.0,0.0,0.0,0.0,0.0
21770560000,11,1509.0,1510.0,1630.0,1389.0,1626.0,1393.0,1500.0,1500.0,1500.0,1000.0,1000.0,0.0,0.0,0.0,0.0,0.0
21770660000,11,1510.0,1509.0,1626.0,1393.0,1629.0,1390.0,1500.0,1500.0,1500.0,1000.0,1000.0,0.0,0.0,0.0,0.0,0.0
21770756000,11,1509.0,1510.0,1627.0,1392.0,1629.0,1390.0,1500.0,1500.0,1500.0,1000.0,1000.0,0.0,0.0,0.0,0.0,0.0
21770860000,11,1500.0,1519.0,1632.0,1387.0,1621.0,1398.0,1500.0,1500.0,1500.0,1000.0,1000.0,0.0,0.0,0.0,0.0,0.0
21770960000,11,1511.0,1508.0,1627.0,1392.0,1628.0,1391.0,1500.0,1500.0,1500.0,1000.0,1000.0,0.0,0.0,0.0,0.0,0.0
21771060000,11,1503.0,1516.0,1633.0,1386.0,1622.0,1397.0,1500.0,1500.0,1500.0,1000.0,1000.0,0.0,0.0,0.0,0.0,0.0
21771160000,11,1510.0,1509.0,1627.0,1392.0,1629.0,1390.0,1500.0,1500.0,1500.0,1000.0,1000.0,0.0,0.0,0.0,0.0,0.0
21771260000,11,1510.0,1509.0,1628.0,1391.0,1627.0,1392.0,1500.0,1500.0,1500.0,1000.0,1000.0,0.0,0.0,0.0,0.0,0.0
21771356000,11,1510.0,1509.0,1626.0,1393.0,1629.0,1390.0,1500.0,1500.0,1500.0,1000.0,1000.0,0.0,0.0,0.0,0.0,0.0
21771460000,11,1509.0,1510.0,1627.0,1392.0,1629.0,1390.0,1500.0,1500.0,1500.0,1000.0,1000.0,0.0,0.0,0.0,0.0,0.0
21771560000,11,1511.0,1508.0,1628.0,1391.0,1628.0,1391.0,1500.0,1500.0,1500.0,1000.0,1000.0,0.0,0.0,0.0,0.0,0.0
21771660000,11,1509.0,1510.0,1626.0,1393.0,1628.0,1391.0,1500.0,1500.0,1500.0,1000.0,1000.0,0.0,0.0,0.0,0.0,0.0
21771760000,11,1510.0,1509.0,1625.0,1394.0,1630.0,1389.0,1500.0,1500.0,1500.0,1000.0,1000.0,0.0,0.0,0.0,0.0,0.0
21771860000,11,1509.0,1510.0,1627.0,1392.0,1629.0,1390.0,1500.0,1500.0,1500.0,1000.0,1000.0,0.0,0.0,0.0,0.0,0.0
21771960000,11,1510.0,1509.0,1627.0,1392.0,1628.0,1391.0,1500.0,1500.0,1500.0,1000.0,1000.0,0.0,0.0,0.0,0.0,0.0
21772060000,11,1509.0,1510.0,1626.0,1393.0,1628.0,1391.0,1500.0,1500.0,1500.0,1000.0,1000.0,0.0,0.0,0.0,0.0,0.0
21772156000,11,1510.0,1509.0,1629.0,1390.0,1627.0,1392.0,1500.0,1500.0,1500.0,1000.0,1000.0,0.0,0.0,0.0,0.0,0.0
21772260000,11,1511.0,1508.0,1627.0,1392.0,1627.0,1392.0,1500.0,1500.0,1500.0,1000.0,1000.0,0.0,0.0,0.0,0.0,0.0
21772360000,11,1510.0,1509.0,1627.0,1392.0,1630.0,1389.0,1500.0,1500.0,1500.0,1000.0,1000.0,0.0,0.0,0.0,0.0,0.0
21772460000,11,1538.0,1481.0,1612.0,1407.0,1645.0,1374.0,1500.0,1500.0,1500.0,1000.0,1000.0,0.0,0.0,0.0,0.0,0.0
21772560000,11,1509.0,1510.0,1627.0,1392.0,1629.0,1390.0,1500.0,1500.0,1500.0,1000.0,1000.0,0.0,0.0,0.0,0.0,0.0
21772656000,11,1512.0,1507.0,1627.0,1392.0,1627.0,1392.0,1500.0,1500.0,1500.0,1000.0,1000.0,0.0,0.0,0.0,0.0,0.0
21772760000,11,1509.0,1510.0,1627.0,1392.0,1628.0,1391.0,1500.0,1500.0,1500.0,1000.0,1000.0,0.0,0.0,0.0,0.0,0.0
21772860000,11,1509.0,1510.0,1625.0,1394.0,1630.0,1389.0,1500.0,1500.0,1500.0,1000.0,1000.0,0.0,0.0,0.0,0.0,0.0
21772960000,11,1510.0,1509.0,1628.0,1391.0,1627.0,1392.0,1500.0,1500.0,1500.0,1000.0,1000.0,0.0,0.0,0.0,0.0,0.0
21773060000,11,1511.0,1508.0,1626.0,1393.0,1626.0,1393.0,1500.0,1500.0,1500.0,1000.0,1000.0,0.0,0.0,0.0,0.0,0.0
21773160000,11,1542.0,1477.0,1609.0,1410.0,1647.0,1372.0,1500.0,1500.0,1500.0,1000.0,1000.0,0.0,0.0,0.0,0.0,0.0
21773260000,11,1510.0,1509.0,1626.0,1393.0,1629.0,1390.0,1500.0,1500.0,1500.0,1000.0,1000.0,0.0,0.0,0.0,0.0,0.0
21773356000,11,1506.0,1513.0,1627.0,1392.0,1627.0,1392.0,1500.0,1500.0,1500.0,1000.0,1000.0,0.0,0.0,0.0,0.0,0.0
21773456000,11,1510.0,1509.0,1627.0,1392.0,1628.0,1391.0,1500.0,1500.0,1500.0,1000.0,1000.0,0.0,0.0,0.0,0.0,0.0
21773560000,11,1507.0,1512.0,1628.0,1391.0,1628.0,1391.0,1500.0,1500.0,1500.0,1000.0,1000.0,0.0,0.0,0.0,0.0,0.0
21773660000,11,1510.0,1509.0,1629.0,1390.0,1626.0,1393.0,1500.0,1500.0,1500.0,1000.0,1000.0,0.0,0.0,0.0,0.0,0.0
21773756000,11,1510.0,1509.0,1626.0,1393.0,1628.0,1391.0,1500.0,1500.0,1500.0,1000.0,1000.0,0.0,0.0,0.0,0.0,0.0
21773860000,11,1510.0,1509.0,1627.0,1392.0,1625.0,1394.0,1500.0,1500.0,1500.0,1000.0,1000.0,0.0,0.0,0.0,0.0,0.0
21773956000,11,1512.0,1507.0,1629.0,1390.0,1627.0,1392.0,1500.0,1500.0,1500.0,1000.0,1000.0,0.0,0.0,0.0,0.0,0.0
21774060000,11,1507.0,1512.0,1629.0,1390.0,1626.0,1393.0,1500.0,1500.0,1500.0,1000.0,1000.0,0.0,0.0,0.0,0.0,0.0
21774160000,11,1509.0,1510.0,1627.0,1392.0,1627.0,1392.0,1500.0,1500.0,1500.0,1000.0,1000.0,0.0,0.0,0.0,0.0,0.0
21774260000,11,1510.0,1509.0,1628.0,1391.0,1627.0,1392.0,1500.0,1500.0,1500.0,1000.0,1000.0,0.0,0.0,0.0,0.0,0.0
21774356000,11,1509.0,1510.0,1627.0,1392.0,1627.0,1392.0,1500.0,1500.0,1500.0,1000.0,1000.0,0.0,0.0,0.0,0.0,0.0
21774460000,11,1508.0,1511.0,1627.0,1392.0,1626.0,1393.0,1500.0,1500.0,1500.0,1000.0,1000.0,0.0,0.0,0.0,0.0,0.0
21774560000,11,1488.0,1531.0,1642.0,1377.0,1613.0,1406.0,1500.0,1500.0,1500.0,1000.0,1000.0,0.0,0.0,0.0,0.0,0.0
21774660000,11,1509.0,1510.0,1628.0,1391.0,1628.0,1391.0,1500.0,1500.0,1500.0,1000.0,1000.0,0.0,0.0,0.0,0.0,0.0
21774756000,11,1501.0,1518.0,1633.0,1386.0,1623.0,1396.0,1500.0,1500.0,1500.0,1000.0,1000.0,0.0,0.0,0.0,0.0,0.0
21774856000,11,1509.0,1510.0,1626.0,1393.0,1630.0,1389.0,1500.0,1500.0,1500.0,1000.0,1000.0,0.0,0.0,0.0,0.0,0.0
21774960000,11,1508.0,1511.0,1625.0,1394.0,1627.0,1392.0,1500.0,1500.0,1500.0,1000.0,1000.0,0.0,0.0,0.0,0.0,0.0
21775060000,11,1511.0,1508.0,1627.0,1392.0,1628.0,1391.0,1500.0,1500.0,1500.0,1000.0,1000.0,0.0,0.0,0.0,0.0,0.0
21775160000,11,1509.0,1510.0,1626.0,1393.0,1628.0,1391.0,1500.0,1500.0,1500.0,1000.0,1000.0,0.0,0.0,0.0,0.0,0.0
21775260000,11,1500.0,1519.0,1633.0,1386.0,1622.0,1397.0,1500.0,1500.0,1500.0,1000.0,1000.0,0.0,0.0,0.0,0.0,0.0
21775360000,11,1513.0,1506.0,1626.0,1393.0,1628.0,1391.0,1500.0,1500.0,1500.0,1000.0,1000.0,0.0,0.0,0.0,0.0,0.0
21775460000,11,1500.0,1519.0,1633.0,1386.0,1622.0,1397.0,1500.0,1500.0,1500.0,1000.0,1000.0,0.0,0.0,0.0,0.0,0.0
21775556000,11,1510.0,1509.0,1627.0,1392.0,1628.0,1391.0,1500.0,1500.0,1500.0,1000.0,1000.0,0.0,0.0,0.0,0.0,0.0
21775660000,11,1506.0,1513.0,1626.0,1393.0,1628.0,1391.0,1500.0,1500.0,1500.0,1000.0,1000.0,0.0,0.0,0.0,0.0,0.0
21775760000,11,1510.0,1509.0,1628.0,1391.0,1626.0,1393.0,1500.0,1500.0,1500.0,1000.0,1000.0,0.0,0.0,0.0,0.0,0.0
21775860000,11,1509.0,1510.0,1626.0,1393.0,1627.0,1392.0,1500.0,1500.0,1500.0,1000.0,1000.0,0.0,0.0,0.0,0.0,0.0
21775956000,11,1511.0,1508.0,1627.0,1392.0,1627.0,1392.0,1500.0,1500.0,1500.0,1000.0,1000.0,0.0,0.0,0.0,0.0,0.0
21776060000,11,1509.0,1510.0,1626.0,1393.0,1628.0,1391.0,1500.0,1500.0,1500.0,1000.0,1000.0,0.0,0.0,0.0,0.0,0.0
21776160000,11,1513.0,1506.0,1625.0,1394.0,1630.0,1389.0,1500.0,1500.0,1500.0,1000.0,1000.0,0.0,0.0,0.0,0.0,0.0
21776260000,11,1509.0,1510.0,1628.0,1391.0,1627.0,1392.0,1500.0,1500.0,1500.0,1000.0,1000.0,0.0,0.0,0.0,0.0,0.0
21776360000,11,1510.0,1509.0,1628.0,1391.0,1627.0,1392.0,1500.0,1500.0,1500.0,1000.0,1000.0,0.0,0.0,0.0,0.0,0.0
21776460000,11,1511.0,1508.0,1627.0,1392.0,1628.0,1391.0,1500.0,1500.0,1500.0,1000.0,1000.0,0.0,0.0,0.0,0.0,0.0
21776556000,11,1507.0,1512.0,1627.0,1392.0,1628.0,1391.0,1500.0,1500.0,1500.0,1000.0,1000.0,0.0,0.0,0.0,0.0,0.0
21776660000,11,1512.0,1507.0,1628.0,1391.0,1627.0,1392.0,1500.0,1500.0,1500.0,1000.0,1000.0,0.0,0.0,0.0,0.0,0.0
21776756000,11,1510.0,1509.0,1627.0,1392.0,1627.0,1392.0,1500.0,1500.0,1500.0,1000.0,1000.0,0.0,0.0,0.0,0.0,0.0
21776860000,11,1536.0,1483.0,1610.0,1409.0,1644.0,1375.0,1500.0,1500.0,1500.0,1000.0,1000.0,0.0,0.0,0.0,0.0,0.0
21776960000,11,1509.0,1510.0,1625.0,1394.0,1628.0,1391.0,1500.0,1500.0,1500.0,1000.0,1000.0,0.0,0.0,0.0,0.0,0.0
21777060000,11,1510.0,1509.0,1627.0,1392.0,1626.0,1393.0,1500.0,1500.0,1500.0,1000.0,1000.0,0.0,0.0,0.0,0.0,0.0
21777160000,11,1510.0,1509.0,1628.0,1391.0,1626.0,1393.0,1500.0,1500.0,1500.0,1000.0,1000.0,0.0,0.0,0.0,0.0,0.0
21777260000,11,1509.0,1510.0,1626.0,1393.0,1627.0,1392.0,1500.0,1500.0,1500.0,1000.0,1000.0,0.0,0.0,0.0,0.0,0.0
21777360000,11,1508.0,1511.0,1625.0,1394.0,1628.0,1391.0,1500.0,1500.0,1500.0,1000.0,1000.0,0.0,0.0,0.0,0.0,0.0
21777460000,11,1510.0,1509.0,1627.0,1392.0,1627.0,1392.0,1500.0,1500.0,1500.0,1000.0,1000.0,0.0,0.0,0.0,0.0,0.0
21777560000,11,1542.0,1477.0,1606.0,1413.0,1647.0,1372.0,1500.0,1500.0,1500.0,1000.0,1000.0,0.0,0.0,0.0,0.0,0.0
21777660000,11,1510.0,1509.0,1627.0,1392.0,1627.0,1392.0,1500.0,1500.0,1500.0,1000.0,1000.0,0.0,0.0,0.0,0.0,0.0
21777760000,11,1512.0,1507.0,1625.0,1394.0,1628.0,1391.0,1500.0,1500.0,1500.0,1000.0,1000.0,0.0,0.0,0.0,0.0,0.0
21777860000,11,1511.0,1508.0,1625.0,1394.0,1629.0,1390.0,1500.0,1500.0,1500.0,1000.0,1000.0,0.0,0.0,0.0,0.0,0.0
21777960000,11,1507.0,1512.0,1627.0,1392.0,1628.0,1391.0,1500.0,1500.0,1500.0,1000.0,1000.0,0.0,0.0,0.0,0.0,0.0
21778060000,11,1509.0,1510.0,1627.0,1392.0,1627.0,1392.0,1500.0,1500.0,1500.0,1000.0,1000.0,0.0,0.0,0.0,0.0,0.0
21778160000,11,1510.0,1509.0,1627.0,1392.0,1628.0,1391.0,1500.0,1500.0,1500.0,1000.0,1000.0,0.0,0.0,0.0,0.0,0.0
21778260000,11,1510.0,1509.0,1627.0,1392.0,1626.0,1393.0,1500.0,1500.0,1500.0,1000.0,1000.0,0.0,0.0,0.0,0.0,0.0
21778360000,11,1510.0,1509.0,1628.0,1391.0,1627.0,1392.0,1500.0,1500.0,1500.0,1000.0,1000.0,0.0,0.0,0.0,0.0,0.0
21778460000,11,1507.0,1512.0,1629.0,1390.0,1624.0,1395.0,1500.0,1500.0,1500.0,1000.0,1000.0,0.0,0.0,0.0,0.0,0.0
21778560000,11,1510.0,1509.0,1627.0,1392.0,1628.0,1391.0,1500.0,1500.0,1500.0,1000.0,1000.0,0.0,0.0,0.0,0.0,0.0
21778656000,11,1504.0,1515.0,1628.0,1391.0,1627.0,1392.0,1500.0,1500.0,1500.0,1000.0,1000.0,0.0,0.0,0.0,0.0,0.0
21778760000,11,1511.0,1508.0,1628.0,1391.0,1625.0,1394.0,1500.0,1500.0,1500.0,1000.0,1000.0,0.0,0.0,0.0,0.0,0.0
21778856000,11,1509.0,1510.0,1626.0,1393.0,1629.0,1390.0,1500.0,1500.0,1500.0,1000.0,1000.0,0.0,0.0,0.0,0.0,0.0
21778960000,11,1489.0,1530.0,1639.0,1380.0,1614.0,1405.0,1500.0,1500.0,1500.0,1000.0,1000.0,0.0,0.0,0.0,0.0,0.0
21779060000,11,1511.0,1508.0,1627.0,1392.0,1626.0,1393.0,1500.0,1500.0,1500.0,1000.0,1000.0,0.0,0.0,0.0,0.0,0.0
21779160000,11,1502.0,1517.0,1630.0,1389.0,1622.0,1397.0,1500.0,1500.0,1500.0,1000.0,1000.0,0.0,0.0,0.0,0.0,0.0
21779260000,11,1512.0,1507.0,1626.0,1393.0,1627.0,1392.0,1500.0,1500.0,1500.0,1000.0,1000.0,0.0,0.0,0.0,0.0,0.0
21779360000,11,1508.0,1511.0,1627.0,1392.0,1627.0,1392.0,1500.0,1500.0,1500.0,1000.0,1000.0,0.0,0.0,0.0,0.0,0.0
21779460000,11,1509.0,1510.0,1625.0,1394.0,1626.0,1393.0,1500.0,1500.0,1500.0,1000.0,1000.0,0.0,0.0,0.0,0.0,0.0
21779560000,11,1508.0,1511.0,1627.0,1392.0,1626.0,1393.0,1500.0,1500.0,1500.0,1000.0,1000.0,0.0,0.0,0.0,0.0,0.0
