timestamp,timestamp_sample,lat,lon,alt,alt_ellipsoid,delta_alt,eph,epv,terrain_alt,lat_lon_reset_counter,alt_reset_counter,terrain_alt_valid,dead_reckoning
21726356000,21726356000,41.60669799034396,-86.3556159629698,229.27069,229.26659,-0.0,1.0012041,1.001534,229.17136,2,0,1,0
21726364000,21726364000,41.60669799021532,-86.35561596344151,229.2707,229.2666,-0.0,1.0012043,1.001534,229.17136,2,0,1,0
21726372000,21726372000,41.60669799008452,-86.35561596390319,229.27072,229.26662,-0.0,1.0012043,1.0015336,229.17137,2,0,1,0
21726380000,21726380000,41.606697989974634,-86.3556159643491,229.27072,229.26662,-0.0,1.0012044,1.0015336,229.17137,2,0,1,0
21726388000,21726388000,41.60669798986099,-86.3556159647907,229.27074,229.26663,-0.0,1.0012045,1.0015337,229.17139,2,0,1,0
21726396000,21726396000,41.606697989732346,-86.35561596520508,229.27075,229.26665,-0.0,1.0012046,1.0015337,229.17139,2,0,1,0
21726404000,21726404000,41.60669798963907,-86.3556159656051,229.27077,229.26666,-0.0,1.0012047,1.0015339,229.17139,2,0,1,0
21726412000,21726412000,41.60669798955545,-86.35561596600799,229.27078,229.26668,-0.0,1.0012048,1.0015339,229.17139,2,0,1,0
21726420000,21726420000,41.60669798948791,-86.35561596643812,229.2708,229.2667,-0.0,1.001205,1.001534,229.17139,2,0,1,0
21726428000,21726428000,41.60669798945146,-86.35561596687974,229.27083,229.26672,-0.0,1.0012052,1.0015341,229.17139,2,0,1,0
21726436000,21726436000,41.60669798944074,-86.35561596732421,229.27084,229.26674,-0.0,1.0012053,1.0015337,229.1714,2,0,1,0
21726444000,21726444000,41.60669798944878,-86.35561596782604,229.27087,229.26677,-0.0,1.0012056,1.0015339,229.1714,2,0,1,0
21726452000,21726452000,41.6066979894461,-86.35561596834077,229.27089,229.26678,-0.0,1.0012058,1.001534,229.1714,2,0,1,0
21726460000,21726460000,41.60669798942734,-86.35561596884116,229.27092,229.26682,-0.0,1.001206,1.0015342,229.1714,2,0,1,0
21726468000,21726468000,41.606697989409646,-86.35561596935447,229.27095,229.26685,-0.0,1.0012064,1.0015343,229.1714,2,0,1,0
21726476000,21726476000,41.606697989391954,-86.35561596990361,229.27098,229.26688,-0.0,1.0012066,1.0015345,229.1714,2,0,1,0
21726484000,21726484000,41.60669798954205,-86.35561597048286,229.27101,229.2669,-0.0,1.0012048,1.0015335,229.17137,2,0,1,0
21726492000,21726492000,41.60669798972644,-86.35561597107359,229.27104,229.26694,-0.0,1.0012048,1.001533,229.1714,2,0,1,0
21726500000,21726500000,41.606697989931746,-86.35561597169011,229.27106,229.26695,-0.0,1.0012048,1.001533,229.1714,2,0,1,0
21726508000,21726508000,41.606697990128474,-86.35561597231094,229.27109,229.26698,-0.0,1.0012048,1.001533,229.17142,2,0,1,0
21726516000,21726516000,41.606697990334304,-86.35561597295471,229.27112,229.26701,-0.0,1.0012048,1.0015332,229.17142,2,0,1,0
21726524000,21726524000,41.606697990523,-86.35561597362143,229.27115,229.26704,-0.0,1.0012048,1.0015332,229.17143,2,0,1,0
21726532000,21726532000,41.60669799071276,-86.35561597430679,229.27116,229.26706,-0.0,1.0012048,1.0015332,229.17145,2,0,1,0
21726540000,21726540000,41.606697990906795,-86.35561597498783,229.2712,229.26709,-0.0,1.0012048,1.0015332,229.17146,2,0,1,0
21726548000,21726548000,41.60669799109602,-86.35561597566887,229.27121,229.2671,-0.0,1.0012048,1.0015332,229.17148,2,0,1,0
21726556000,21726556000,41.60669799128632,-86.35561597634276,229.27124,229.26714,-0.0,1.001205,1.0015328,229.1715,2,0,1,0
21726564000,21726564000,41.60669799150019,-86.35561597698796,229.27127,229.26717,-0.0,1.001205,1.0015328,229.17151,2,0,1,0
21726572000,21726572000,41.606697991711926,-86.35561597762457,229.27129,229.26718,-0.0,1.001205,1.0015328,229.17152,2,0,1,0
21726580000,21726580000,41.60669799191616,-86.35561597828412,229.27132,229.26721,-0.0,1.0012051,1.0015328,229.17154,2,0,1,0
21726588000,21726588000,41.60669799213003,-86.35561597897807,229.27133,229.26723,-0.0,1.0012052,1.0015329,229.17155,2,0,1,0
21726596000,21726596000,41.60669799234821,-86.35561597968493,229.27136,229.26726,-0.0,1.0012052,1.0015329,229.17157,2,0,1,0
21726604000,21726604000,41.60669799257441,-86.35561598038461,229.27138,229.26727,-0.0,1.0012053,1.001533,229.17159,2,0,1,0
21726612000,21726612000,41.606697992809195,-86.35561598109291,229.27141,229.26752,-0.0,1.001204,1.0015327,229.17159,2,0,1,0
21726620000,21726620000,41.60669799304077,-86.35561598178543,229.27142,229.26753,-0.0,1.0012041,1.0015328,229.1716,2,0,1,0
21726628000,21726628000,41.606697993269115,-86.35561598247652,229.27145,229.26756,-0.0,1.0012043,1.0015328,229.17162,2,0,1,0
21726636000,21726636000,41.60669799349961,-86.35561598316616,229.27148,229.2676,-0.0,1.0012045,1.0015329,229.17163,2,0,1,0
21726644000,21726644000,41.60669799372421,-86.35561598383433,229.2715,229.26761,-0.0,1.0012046,1.001533,229.17165,2,0,1,0
21726652000,21726652000,41.60669799396275,-86.35561598448956,229.27153,229.26764,-0.0,1.0012048,1.0015332,229.17166,2,0,1,0
21726660000,21726660000,41.60669799420932,-86.35561598511613,229.27156,229.26767,-0.0,1.0012051,1.0015333,229.17168,2,0,1,0
21726668000,21726668000,41.606697994441426,-86.35561598571546,229.27158,229.26768,-0.0,1.0012054,1.0015334,229.17169,2,0,1,0
21726676000,21726676000,41.60669799466925,-86.3556159862732,229.2716,229.26772,-0.0,1.0012057,1.0015332,229.17168,2,0,1,0
21726684000,21726684000,41.60669799490939,-86.35561598679797,229.27162,229.26773,-0.0,1.001206,1.0015334,229.17169,2,0,1,0
21726692000,21726692000,41.60669799518116,-86.35561598719369,229.27164,229.26775,-0.0,1.0012041,1.0015323,229.1715,2,0,1,0
21726700000,21726700000,41.60669799546526,-86.35561598759371,229.27165,229.26776,-0.0,1.0012041,1.0015323,229.1715,2,0,1,0
21726708000,21726708000,41.60669799574776,-86.35561598799661,229.27165,229.26776,-0.0,1.0012041,1.0015323,229.1715,2,0,1,0
21726716000,21726716000,41.60669799599755,-86.35561598843391,229.27167,229.26778,-0.0,1.0012041,1.0015323,229.17151,2,0,1,0
21726724000,21726724000,41.60669799622161,-86.3556159889042,229.27168,229.26779,-0.0,1.0012041,1.0015323,229.17151,2,0,1,0
21726732000,21726732000,41.606697996431734,-86.35561598938452,229.2717,229.2678,-0.0,1.0012041,1.001532,229.17151,2,0,1,0
21726740000,21726740000,41.60669799664401,-86.35561598987631,229.2717,229.2678,-0.0,1.0012041,1.001532,229.17151,2,0,1,0
21726748000,21726748000,41.60669799686057,-86.35561599035807,229.27171,229.26782,-0.0,1.0012041,1.001532,229.17151,2,0,1,0
21726756000,21726756000,41.60669799704443,-86.3556159908341,229.27173,229.26784,-0.0,1.0012043,1.001532,229.1715,2,0,1,0
21726764000,21726764000,41.606697997197735,-86.35561599130007,229.27173,229.26784,-0.0,1.0012043,1.001532,229.1715,2,0,1,0
21726772000,21726772000,41.60669799733764,-86.35561599174312,229.27174,229.26785,-0.0,1.0012043,1.0015321,229.1715,2,0,1,0
21726780000,21726780000,41.60669799746736,-86.35561599216034,229.27176,229.26787,-0.0,1.0012044,1.0015321,229.1715,2,0,1,0
21726788000,21726788000,41.606697997594935,-86.35561599256037,229.27176,229.26787,-0.0,1.0012044,1.0015321,229.1715,2,0,1,0
21726796000,21726796000,41.60669799771179,-86.35561599293315,229.27177,229.26788,-0.0,1.0012045,1.0015317,229.1715,2,0,1,0
21726804000,21726804000,41.60669799780185,-86.35561599327153,229.27179,229.2679,-0.0,1.0012046,1.0015318,229.1715,2,0,1,0
21726812000,21726812000,41.606697997890834,-86.35561599358984,229.27179,229.2679,-0.0,1.0012046,1.0015318,229.17148,2,0,1,0
21726820000,21726820000,41.60669799799054,-86.35561599394399,229.2718,229.26765,-0.0,1.0012033,1.001532,229.17148,2,0,1,0
21726828000,21726828000,41.60669799810739,-86.35561599431104,229.2718,229.26765,-0.0,1.0012034,1.001532,229.17148,2,0,1,0
21726836000,21726836000,41.60669799822693,-86.35561599462648,229.27182,229.26767,-0.0,1.0012037,1.0015321,229.1715,2,0,1,0
21726844000,21726844000,41.606697998330915,-86.35561599490893,229.27182,229.26767,-0.0,1.0012038,1.0015322,229.1715,2,0,1,0
21726852000,21726852000,41.60669799842311,-86.35561599518851,229.27184,229.26768,-0.0,1.001204,1.0015318,229.17151,2,0,1,0
21726860000,21726860000,41.606697998511564,-86.35561599549534,229.27184,229.26768,-0.0,1.0012043,1.001532,229.17151,2,0,1,0
21726868000,21726868000,41.6066979985941,-86.35561599583659,229.27184,229.26768,-0.0,1.0012045,1.0015321,229.17151,2,0,1,0
21726876000,21726876000,41.6066979986729,-86.35561599618357,229.27185,229.2677,-0.0,1.0012047,1.0015323,229.17152,2,0,1,0
21726884000,21726884000,41.60669799874742,-86.35561599646888,229.27185,229.2677,-0.0,1.001205,1.0015324,229.17152,2,0,1,0
21726892000,21726892000,41.60669799882246,-86.35561599669111,229.27185,229.2677,-0.0,1.0012053,1.0015326,229.17154,2,0,1,0
21726900000,21726900000,41.606697998988096,-86.35561599682447,229.27187,229.26772,-0.0,1.0012034,1.0015316,229.17148,2,0,1,0
21726908000,21726908000,41.606697999184824,-86.35561599695781,229.27187,229.26772,-0.0,1.0012034,1.0015316,229.17148,2,0,1,0
21726916000,21726916000,41.60669799938476,-86.35561599706678,229.27187,229.26772,-0.0,1.0012034,1.0015311,229.17148,2,0,1,0
21726924000,21726924000,41.60669799957345,-86.35561599715281,229.27187,229.26772,-0.0,1.0012034,1.0015311,229.17148,2,0,1,0
21726932000,21726932000,41.60669799976963,-86.35561599725173,229.27187,229.26772,-0.0,1.0012034,1.0015311,229.17148,2,0,1,0
21726940000,21726940000,41.60669799997441,-86.35561599733633,229.27188,229.26773,-0.0,1.0012034,1.0015312,229.17148,2,0,1,0
21726948000,21726948000,41.60669800018453,-86.35561599740372,229.27187,229.26772,-0.0,1.0012035,1.0015312,229.17148,2,0,1,0
21726956000,21726956000,41.606698000409665,-86.35561599748544,229.27187,229.26772,-0.0,1.0012035,1.0015312,229.17148,2,0,1,0
21726964000,21726964000,41.60669800064392,-86.35561599755714,229.27188,229.26773,-0.0,1.0012035,1.0015312,229.17148,2,0,1,0
21726972000,21726972000,41.606698000870665,-86.35561599761593,229.27188,229.26773,-0.0,1.0012035,1.0015309,229.17146,2,0,1,0
21726980000,21726980000,41.60669800107703,-86.35561599766324,229.27188,229.26773,-0.0,1.0012037,1.0015309,229.17146,2,0,1,0
21726988000,21726988000,41.60669800128501,-86.35561599768474,229.27188,229.26773,-0.0,1.0012037,1.0015309,229.17146,2,0,1,0
21726996000,21726996000,41.606698001493534,-86.35561599767757,229.27188,229.26773,-0.0,1.0012038,1.0015309,229.17146,2,0,1,0
21727004000,21727004000,41.60669800170902,-86.35561599763743,229.27188,229.26773,-0.0,1.0012038,1.001531,229.17146,2,0,1,0
21727012000,21727012000,41.60669800193309,-86.35561599754136,229.27188,229.26773,-0.0,1.0012039,1.001531,229.17146,2,0,1,0
21727020000,21727020000,41.60669800217323,-86.35561599738078,229.27188,229.26773,-0.0,1.001204,1.0015311,229.17148,2,0,1,0
21727028000,21727028000,41.60669800241284,-86.3556159972116,229.27188,229.26755,-0.0,1.0012027,1.0015311,229.17148,2,0,1,0
21727036000,21727036000,41.60669800265406,-86.35561599704097,229.27187,229.26753,-0.0,1.0012028,1.0015309,229.17148,2,0,1,0
21727044000,21727044000,41.60669800288187,-86.35561599685458,229.27187,229.26753,-0.0,1.001203,1.0015309,229.17148,2,0,1,0
21727052000,21727052000,41.606698003087715,-86.35561599667822,229.27187,229.26753,-0.0,1.0012032,1.001531,229.17148,2,0,1,0
21727060000,21727060000,41.60669800330105,-86.35561599649756,229.27185,229.26752,-0.0,1.0012033,1.0015311,229.17148,2,0,1,0
21727068000,21727068000,41.60669800352941,-86.35561599629683,229.27185,229.26752,-0.0,1.0012035,1.0015312,229.17148,2,0,1,0
21727076000,21727076000,41.60669800373954,-86.35561599605452,229.27184,229.2675,-0.0,1.0012038,1.0015314,229.1715,2,0,1,0
21727084000,21727084000,41.6066980039443,-86.35561599583228,229.27182,229.26749,-0.0,1.001204,1.0015315,229.1715,2,0,1,0
21727092000,21727092000,41.60669800414424,-86.35561599563155,229.2718,229.26747,-0.0,1.0012044,1.0015312,229.17152,2,0,1,0
21727100000,21727100000,41.60669800434687,-86.35561599546381,229.27179,229.26746,-0.0,1.0012046,1.0015315,229.17152,2,0,1,0
21727108000,21727108000,41.60669800453877,-86.35561599538924,229.27179,229.26746,-0.0,1.0012028,1.0015304,229.17152,2,0,1,0
21727116000,21727116000,41.60669800469904,-86.35561599534049,229.27179,229.26746,-0.0,1.0012028,1.0015304,229.17152,2,0,1,0
21727124000,21727124000,41.6066980048829,-86.35561599529031,229.27177,229.26744,-0.0,1.0012028,1.0015304,229.17152,2,0,1,0
21727132000,21727132000,41.6066980050807,-86.35561599524586,229.27177,229.26744,-0.0,1.0012028,1.0015304,229.17152,2,0,1,0
21727140000,21727140000,41.60669800524097,-86.35561599523582,229.27176,229.26743,-0.0,1.0012028,1.0015304,229.17152,2,0,1,0
21727148000,21727148000,41.60669800537606,-86.35561599521863,229.27174,229.26741,-0.0,1.0012028,1.0015304,229.17151,2,0,1,0
21727156000,21727156000,41.606698005509536,-86.35561599516558,229.27173,229.2674,-0.0,1.0012028,1.00153,229.17151,2,0,1,0
21727164000,21727164000,41.60669800565212,-86.35561599512542,229.27171,229.26738,-0.0,1.0012028,1.00153,229.17151,2,0,1,0
21727172000,21727172000,41.6066980058006,-86.35561599511252,229.2717,229.26736,-0.0,1.0012028,1.00153,229.1715,2,0,1,0
21727180000,21727180000,41.60669800593515,-86.35561599509674,229.27168,229.26735,-0.0,1.001203,1.00153,229.1715,2,0,1,0
21727188000,21727188000,41.60669800605575,-86.35561599508098,229.27168,229.26735,-0.0,1.001203,1.0015302,229.1715,2,0,1,0
21727196000,21727196000,41.60669800615706,-86.35561599509388,229.27167,229.26733,-0.0,1.001203,1.0015302,229.1715,2,0,1,0
21727204000,21727204000,41.606698006247115,-86.35561599509101,229.27167,229.26733,-0.0,1.0012031,1.0015302,229.1715,2,0,1,0
21727212000,21727212000,41.60669800630394,-86.3556159950394,229.27165,229.26732,-0.0,1.0012032,1.0015298,229.1715,2,0,1,0
21727220000,21727220000,41.606698006323235,-86.3556159949462,229.27165,229.26732,-0.0,1.0012032,1.0015299,229.1715,2,0,1,0
21727228000,21727228000,41.60669800633127,-86.355615994853,229.27165,229.26732,-0.0,1.0012033,1.0015299,229.17148,2,0,1,0
21727236000,21727236000,41.60669800634093,-86.35561599476411,229.27165,229.26723,-0.0,1.001202,1.00153,229.17148,2,0,1,0
21727244000,21727244000,41.606698006355934,-86.35561599468525,229.27167,229.26724,-0.0,1.0012021,1.00153,229.17146,2,0,1,0
21727252000,21727252000,41.6066980063554,-86.35561599464225,229.27167,229.26724,-0.0,1.0012022,1.0015302,229.17145,2,0,1,0
21727260000,21727260000,41.6066980063377,-86.35561599458919,229.27167,229.26724,-0.0,1.0012025,1.0015298,229.17145,2,0,1,0
21727268000,21727268000,41.60669800630608,-86.35561599453757,229.27167,229.26724,-0.0,1.0012027,1.0015299,229.17145,2,0,1,0
21727276000,21727276000,41.60669800626481,-86.3556159944659,229.27168,229.26726,-0.0,1.0012028,1.00153,229.17145,2,0,1,0
21727284000,21727284000,41.606698006216554,-86.35561599439133,229.2717,229.26727,-0.0,1.0012031,1.0015302,229.17145,2,0,1,0
21727292000,21727292000,41.606698006185475,-86.35561599432538,229.2717,229.26727,-0.0,1.0012034,1.0015304,229.17145,2,0,1,0
21727300000,21727300000,41.606698006162965,-86.35561599424794,229.27171,229.26729,-0.0,1.0012037,1.0015305,229.17145,2,0,1,0
21727308000,21727308000,41.60669800611311,-86.35561599415762,229.27173,229.2673,-0.0,1.001204,1.0015306,229.17146,2,0,1,0
21727316000,21727316000,41.60669800613402,-86.35561599403431,229.27174,229.26732,-0.0,1.0012021,1.0015297,229.17136,2,0,1,0
21727324000,21727324000,41.60669800617475,-86.35561599391244,229.27174,229.26732,-0.0,1.0012021,1.0015292,229.17139,2,0,1,0
21727332000,21727332000,41.606698006234254,-86.35561599380921,229.27174,229.26732,-0.0,1.0012021,1.0015292,229.17139,2,0,1,0
21727340000,21727340000,41.60669800628572,-86.35561599370884,229.27174,229.26732,-0.0,1.0012021,1.0015293,229.17139,2,0,1,0
21727348000,21727348000,41.606698006297506,-86.3556159935841,229.27176,229.26733,-0.0,1.0012021,1.0015293,229.17139,2,0,1,0
21727356000,21727356000,41.60669800630394,-86.35561599347369,229.27176,229.26733,-0.0,1.0012021,1.0015293,229.1714,2,0,1,0
21727364000,21727364000,41.606698006307695,-86.35561599332459,229.27176,229.26733,-0.0,1.0012021,1.0015293,229.1714,2,0,1,0
21727372000,21727372000,41.60669800629643,-86.35561599315396,229.27177,229.26735,-0.0,1.0012021,1.0015293,229.17142,2,0,1,0
21727380000,21727380000,41.60669800627606,-86.35561599301202,229.27177,229.26735,-0.0,1.0012022,1.001529,229.17143,2,0,1,0
21727388000,21727388000,41.60669800625301,-86.35561599286291,229.27177,229.26735,-0.0,1.0012022,1.001529,229.17145,2,0,1,0
21727396000,21727396000,41.60669800624497,-86.35561599269802,229.27177,229.26735,-0.0,1.0012022,1.001529,229.17145,2,0,1,0
21727404000,21727404000,41.606698006260515,-86.35561599252453,229.27177,229.26735,-0.0,1.0012023,1.001529,229.17145,2,0,1,0
21727412000,21727412000,41.60669800628839,-86.35561599237971,229.27177,229.26735,-0.0,1.0012023,1.0015291,229.17146,2,0,1,0
21727420000,21727420000,41.60669800631894,-86.35561599226645,229.27177,229.26735,-0.0,1.0012025,1.0015291,229.17146,2,0,1,0
21727428000,21727428000,41.606698006359686,-86.35561599218042,229.27177,229.26735,-0.0,1.0012026,1.0015291,229.17146,2,0,1,0
21727436000,21727436000,41.60669800639881,-86.35561599213455,229.27177,229.26735,-0.0,1.0012027,1.0015292,229.17148,2,0,1,0
21727444000,21727444000,41.60669800645349,-86.35561599211447,229.27177,229.26707,-0.0,1.0012013,1.0015289,229.17145,2,0,1,0
21727452000,21727452000,41.60669800652157,-86.3556159921245,229.27179,229.26709,-0.0,1.0012015,1.001529,229.17145,2,0,1,0
21727460000,21727460000,41.606698006599835,-86.35561599215461,229.27179,229.26709,-0.0,1.0012016,1.001529,229.17145,2,0,1,0
21727468000,21727468000,41.606698006648074,-86.35561599217756,229.27179,229.26709,-0.0,1.0012017,1.0015291,229.17146,2,0,1,0
21727476000,21727476000,41.606698006649154,-86.35561599216322,229.2718,229.2671,-0.0,1.001202,1.0015292,229.17146,2,0,1,0
21727484000,21727484000,41.606698006635206,-86.35561599215892,229.2718,229.2671,-0.0,1.0012022,1.0015293,229.17146,2,0,1,0
21727492000,21727492000,41.60669800663092,-86.35561599219332,229.2718,229.2671,-0.0,1.0012025,1.0015295,229.17146,2,0,1,0
21727500000,21727500000,41.60669800665987,-86.35561599226358,229.2718,229.2671,-0.0,1.0012027,1.0015292,229.17143,2,0,1,0
21727508000,21727508000,41.606698006717764,-86.35561599236968,229.2718,229.2671,-0.0,1.001203,1.0015293,229.17145,2,0,1,0
21727516000,21727516000,41.6066980068062,-86.35561599251737,229.2718,229.2671,-0.0,1.0012033,1.0015296,229.17145,2,0,1,0
21727524000,21727524000,41.60669800696005,-86.35561599265644,229.27179,229.26709,-0.0,1.0012014,1.0015285,229.1713,2,0,1,0
21727532000,21727532000,41.60669800710102,-86.35561599281846,229.27177,229.26707,-0.0,1.0012014,1.0015285,229.1713,2,0,1,0
21727540000,21727540000,41.60669800722753,-86.35561599300485,229.27176,229.26706,-0.0,1.0012014,1.0015285,229.1713,2,0,1,0
21727548000,21727548000,41.606698007341706,-86.35561599317404,229.27174,229.26704,-0.0,1.0012014,1.0015285,229.17128,2,0,1,0
21727556000,21727556000,41.6066980074591,-86.35561599332601,229.27173,229.26703,-0.0,1.0012014,1.0015285,229.17128,2,0,1,0
21727564000,21727564000,41.606698007560944,-86.35561599344072,229.2717,229.267,-0.0,1.0012015,1.0015281,229.1713,2,0,1,0
21727572000,21727572000,41.60669800765421,-86.35561599353822,229.27168,229.26698,-0.0,1.0012015,1.0015281,229.17128,2,0,1,0
21727580000,21727580000,41.606698007768394,-86.35561599364863,229.27167,229.26697,-0.0,1.0012015,1.0015281,229.17128,2,0,1,0
21727588000,21727588000,41.606698007902395,-86.35561599375903,229.27165,229.26695,-0.0,1.0012015,1.0015281,229.17128,2,0,1,0
21727596000,21727596000,41.606698008018185,-86.35561599386511,229.27164,229.26694,-0.0,1.0012015,1.0015281,229.17126,2,0,1,0
21727604000,21727604000,41.606698008135574,-86.3556159939827,229.27162,229.26692,-0.0,1.0012016,1.0015283,229.17125,2,0,1,0
21727612000,21727612000,41.60669800826904,-86.35561599408881,229.27159,229.26689,-0.0,1.0012016,1.0015283,229.17123,2,0,1,0
21727620000,21727620000,41.606698008395554,-86.35561599416765,229.27158,229.26688,-0.0,1.0012017,1.0015279,229.17123,2,0,1,0
21727628000,21727628000,41.606698008500615,-86.35561599422215,229.27155,229.26685,-0.0,1.0012017,1.0015279,229.17122,2,0,1,0
21727636000,21727636000,41.606698008593895,-86.35561599432967,229.27153,229.26683,-0.0,1.0012019,1.001528,229.1712,2,0,1,0
21727644000,21727644000,41.60669800868126,-86.35561599446015,229.2715,229.2668,-0.0,1.001202,1.001528,229.17119,2,0,1,0
21727652000,21727652000,41.60669800875845,-86.35561599459062,229.27148,229.26678,-0.0,1.0012021,1.0015281,229.17117,2,0,1,0
21727660000,21727660000,41.60669800882331,-86.35561599471966,229.27147,229.26677,-0.0,1.0012022,1.0015281,229.17116,2,0,1,0
21727668000,21727668000,41.606698008852796,-86.3556159948401,229.27145,229.26675,-0.0,1.0012023,1.0015279,229.17114,2,0,1,0
21727676000,21727676000,41.606698008862985,-86.35561599493903,229.27142,229.26672,-0.0,1.0012026,1.001528,229.17113,2,0,1,0
21727684000,21727684000,41.606698008846365,-86.35561599502506,229.27141,229.26671,-0.0,1.0012027,1.001528,229.17111,2,0,1,0
21727692000,21727692000,41.606698008812586,-86.35561599509963,229.27138,229.26668,-0.0,1.001203,1.0015281,229.1711,2,0,1,0
21727700000,21727700000,41.60669800879169,-86.35561599514979,229.27135,229.26665,-0.0,1.0012032,1.0015283,229.17108,2,0,1,0
21727708000,21727708000,41.6066980087815,-86.35561599516127,229.27133,229.26663,-0.0,1.0012035,1.0015285,229.17107,2,0,1,0
21727716000,21727716000,41.60669800876864,-86.35561599517561,229.2713,229.2666,-0.0,1.0012038,1.0015286,229.17105,2,0,1,0
21727724000,21727724000,41.606698008754165,-86.35561599518851,229.27127,229.26657,-0.0,1.0012041,1.0015287,229.17104,2,0,1,0
21727732000,21727732000,41.6066980087665,-86.35561599511108,229.27124,229.26654,-0.0,1.0012022,1.0015274,229.17119,2,0,1,0
21727740000,21727740000,41.60669800877561,-86.35561599505661,229.27124,229.26654,-0.0,1.0012022,1.0015274,229.17119,2,0,1,0
21727748000,21727748000,41.606698008774,-86.3556159950136,229.27122,229.26653,-0.0,1.0012022,1.0015274,229.17119,2,0,1,0
21727756000,21727756000,41.60669800874987,-86.35561599498348,229.27122,229.26653,-0.0,1.0012022,1.0015274,229.17119,2,0,1,0
21727764000,21727764000,41.60669800869895,-86.35561599495337,229.27122,229.26653,-0.0,1.0012022,1.0015274,229.17119,2,0,1,0
21727772000,21727772000,41.60669800863945,-86.35561599489745,229.27121,229.26651,-0.0,1.0012022,1.0015274,229.17119,2,0,1,0
21727780000,21727780000,41.60669800858532,-86.35561599483867,229.27121,229.26651,-0.0,1.0012022,1.0015274,229.17117,2,0,1,0
21727788000,21727788000,41.606698008533314,-86.35561599478848,229.27121,229.26651,-0.0,1.0012022,1.0015271,229.17119,2,0,1,0
21727796000,21727796000,41.60669800848346,-86.35561599469959,229.27121,229.26651,-0.0,1.0012023,1.0015271,229.17117,2,0,1,0
21727804000,21727804000,41.60669800843308,-86.35561599455048,229.2712,229.26637,-0.0,1.0012009,1.0015271,229.17117,2,0,1,0
21727812000,21727812000,41.6066980083918,-86.35561599434975,229.2712,229.26637,-0.0,1.0012009,1.0015271,229.17116,2,0,1,0
21727820000,21727820000,41.60669800835535,-86.35561599409597,229.27118,229.26636,-0.0,1.001201,1.0015271,229.17117,2,0,1,0
21727828000,21727828000,41.60669800832426,-86.35561599381207,229.27116,229.26634,-0.0,1.001201,1.0015272,229.17117,2,0,1,0
21727836000,21727836000,41.60669800827602,-86.35561599352388,229.27116,229.26634,-0.0,1.0012012,1.0015272,229.17119,2,0,1,0
21727844000,21727844000,41.6066980082133,-86.35561599321275,229.27116,229.26634,-0.0,1.0012012,1.0015272,229.1712,2,0,1,0
21727852000,21727852000,41.60669800815755,-86.35561599292885,229.27116,229.26634,-0.0,1.0012013,1.001527,229.1712,2,0,1,0
21727860000,21727860000,41.606698008090014,-86.35561599265644,229.27116,229.26634,-0.0,1.0012014,1.001527,229.1712,2,0,1,0
21727868000,21727868000,41.60669800802354,-86.35561599237111,229.27118,229.26636,-0.0,1.0012015,1.0015271,229.17122,2,0,1,0
21727876000,21727876000,41.60669800796994,-86.35561599206427,229.27118,229.26636,-0.0,1.0012017,1.0015271,229.17123,2,0,1,0
21727884000,21727884000,41.60669800794422,-86.35561599176319,229.2712,229.26637,-0.0,1.0012019,1.0015272,229.17123,2,0,1,0
21727892000,21727892000,41.60669800795333,-86.35561599147644,229.27121,229.26639,-0.0,1.0012021,1.0015273,229.17123,2,0,1,0
21727900000,21727900000,41.60669800798817,-86.35561599115812,229.27122,229.2664,-0.0,1.0012023,1.0015274,229.17123,2,0,1,0
21727908000,21727908000,41.60669800804017,-86.3556159907796,229.27124,229.26642,-0.0,1.0012026,1.0015272,229.17123,2,0,1,0
21727916000,21727916000,41.60669800810342,-86.35561599035664,229.27124,229.26642,-0.0,1.0012028,1.0015273,229.17123,2,0,1,0
21727924000,21727924000,41.60669800817471,-86.35561598990786,229.27126,229.26643,-0.0,1.0012031,1.0015274,229.17123,2,0,1,0
21727932000,21727932000,41.60669800823636,-86.3556159894935,229.27127,229.26645,-0.0,1.0012034,1.0015277,229.17125,2,0,1,0
21727940000,21727940000,41.606698008383226,-86.3556159891881,229.27129,229.26646,-0.0,1.0012015,1.0015266,229.1711,2,0,1,0
21727948000,21727948000,41.60669800853868,-86.35561598888701,229.2713,229.26648,-0.0,1.0012015,1.0015266,229.1711,2,0,1,0
21727956000,21727956000,41.60669800870807,-86.35561598858877,229.27132,229.2665,-0.0,1.0012015,1.0015266,229.1711,2,0,1,0
21727964000,21727964000,41.60669800887691,-86.355615988302,229.27132,229.2665,-0.0,1.0012015,1.0015266,229.1711,2,0,1,0
21727972000,21727972000,41.60669800905434,-86.3556159880167,229.27133,229.26651,-0.0,1.0012015,1.0015262,229.17111,2,0,1,0
21727980000,21727980000,41.60669800923445,-86.3556159877629,229.27133,229.26651,-0.0,1.0012015,1.0015262,229.17111,2,0,1,0
21727988000,21727988000,41.60669800943547,-86.35561598750627,229.27132,229.2665,-0.0,1.0012016,1.0015262,229.17113,2,0,1,0
21727996000,21727996000,41.60669800966274,-86.35561598724532,229.27132,229.2665,-0.0,1.0012016,1.0015262,229.17113,2,0,1,0
21728004000,21728004000,41.606698009896995,-86.35561598700157,229.27129,229.26646,-0.0,1.0012016,1.0015262,229.17114,2,0,1,0
21728012000,21728012000,41.60669801011195,-86.35561598677502,229.27127,229.26648,-0.0,1.0012002,1.0015264,229.17114,2,0,1,0
21728020000,21728020000,41.60669801031457,-86.35561598659007,229.27126,229.26646,-0.0,1.0012002,1.0015264,229.17116,2,0,1,0
21728028000,21728028000,41.606698010525236,-86.35561598643952,229.27122,229.26643,-0.0,1.0012003,1.001526,229.17113,2,0,1,0
21728036000,21728036000,41.60669801072732,-86.35561598628898,229.27121,229.26642,-0.0,1.0012003,1.001526,229.17113,2,0,1,0
21728044000,21728044000,41.60669801089885,-86.35561598614703,229.27118,229.26639,-0.0,1.0012004,1.001526,229.17114,2,0,1,0
21728052000,21728052000,41.60669801104572,-86.35561598597928,229.27116,229.26637,-0.0,1.0012006,1.0015261,229.17114,2,0,1,0
21728060000,21728060000,41.60669801117705,-86.35561598577281,229.27113,229.26634,-0.0,1.0012007,1.0015261,229.17114,2,0,1,0
21728068000,21728068000,41.60669801128855,-86.35561598554484,229.27113,229.26634,-0.0,1.0012008,1.0015262,229.17113,2,0,1,0
21728076000,21728076000,41.60669801138504,-86.35561598530683,229.27112,229.26633,-0.0,1.0012009,1.0015262,229.17113,2,0,1,0
21728084000,21728084000,41.606698011486344,-86.35561598508315,229.2711,229.26631,-0.0,1.001201,1.0015264,229.17111,2,0,1,0
21728092000,21728092000,41.606698011566756,-86.35561598484084,229.27109,229.2663,-0.0,1.0012013,1.0015261,229.17108,2,0,1,0
21728100000,21728100000,41.60669801162143,-86.35561598460714,229.27107,229.26628,-0.0,1.0012014,1.0015262,229.17107,2,0,1,0
21728108000,21728108000,41.6066980116627,-86.35561598439924,229.27107,229.26628,-0.0,1.0012016,1.0015264,229.17105,2,0,1,0
21728116000,21728116000,41.60669801170398,-86.35561598419422,229.27106,229.26627,-0.0,1.0012019,1.0015265,229.17102,2,0,1,0
21728124000,21728124000,41.606698011766696,-86.3556159839777,229.27104,229.26625,-0.0,1.0012021,1.0015266,229.171,2,0,1,0
21728132000,21728132000,41.606698011838525,-86.35561598380565,229.27104,229.26625,-0.0,1.0012025,1.0015267,229.17099,2,0,1,0
21728140000,21728140000,41.60669801188999,-86.35561598367661,229.27103,229.26624,-0.0,1.0012027,1.0015268,229.17097,2,0,1,0
21728148000,21728148000,41.60669801194788,-86.35561598358628,229.27103,229.26624,-0.0,1.0012009,1.0015255,229.17107,2,0,1,0
21728156000,21728156000,41.60669801199504,-86.35561598352893,229.27101,229.26622,-0.0,1.0012009,1.0015255,229.17107,2,0,1,0
21728164000,21728164000,41.60669801202292,-86.35561598348303,229.27101,229.26622,-0.0,1.0012009,1.0015255,229.17107,2,0,1,0
21728172000,21728172000,41.60669801203311,-86.35561598341135,229.27101,229.26622,-0.0,1.0012009,1.0015255,229.17107,2,0,1,0
21728180000,21728180000,41.60669801202024,-86.3556159833497,229.27101,229.26622,-0.0,1.0012009,1.0015255,229.17107,2,0,1,0
21728188000,21728188000,41.606698012008984,-86.3556159833153,229.27101,229.26622,-0.0,1.0012009,1.0015255,229.17107,2,0,1,0
21728196000,21728196000,41.606698012012735,-86.35561598329808,229.271,229.2662,-0.0,1.0012009,1.0015252,229.17107,2,0,1,0
21728204000,21728204000,41.60669801201381,-86.35561598333535,229.271,229.2662,-0.0,1.0012009,1.0015252,229.17107,2,0,1,0
21728212000,21728212000,41.60669801200094,-86.35561598340848,229.271,229.2662,-0.0,1.0012009,1.0015252,229.17107,2,0,1,0
21728220000,21728220000,41.60669801200737,-86.3556159834644,229.27101,229.26624,-0.0,1.0011996,1.0015252,229.17108,2,0,1,0
21728228000,21728228000,41.60669801201166,-86.35561598350598,229.27101,229.26624,-0.0,1.0011996,1.0015252,229.17108,2,0,1,0
21728236000,21728236000,41.60669801201703,-86.35561598355042,229.27101,229.26624,-0.0,1.0011996,1.0015252,229.17108,2,0,1,0
21728244000,21728244000,41.60669801202346,-86.3556159835834,229.27101,229.26624,-0.0,1.0011997,1.0015253,229.1711,2,0,1,0
21728252000,21728252000,41.60669801202989,-86.35561598359774,229.27101,229.26624,-0.0,1.0011998,1.0015253,229.1711,2,0,1,0
21728260000,21728260000,41.60669801201703,-86.35561598362355,229.27101,229.26624,-0.0,1.0011998,1.0015249,229.17111,2,0,1,0
21728268000,21728268000,41.60669801199237,-86.35561598366944,229.27101,229.26624,-0.0,1.0012,1.001525,229.17111,2,0,1,0
21728276000,21728276000,41.606698011946804,-86.35561598377697,229.27103,229.26625,-0.0,1.0012001,1.001525,229.17111,2,0,1,0
21728284000,21728284000,41.6066980118723,-86.35561598391175,229.27103,229.26625,-0.0,1.0012002,1.0015252,229.17113,2,0,1,0
21728292000,21728292000,41.606698011796176,-86.35561598405083,229.27103,229.26625,-0.0,1.0012004,1.0015253,229.17113,2,0,1,0
21728300000,21728300000,41.60669801176348,-86.35561598419994,229.27103,229.26625,-0.0,1.0012006,1.0015253,229.17114,2,0,1,0
21728308000,21728308000,41.60669801178331,-86.3556159843849,229.27104,229.26627,-0.0,1.0012008,1.0015254,229.17114,2,0,1,0
21728316000,21728316000,41.606698011808504,-86.35561598459137,229.27104,229.26627,-0.0,1.0012009,1.0015252,229.17116,2,0,1,0
21728324000,21728324000,41.606698011812796,-86.35561598478637,229.27106,229.26628,-0.0,1.0012013,1.0015253,229.17116,2,0,1,0
21728332000,21728332000,41.60669801179403,-86.35561598494695,229.27106,229.26628,-0.0,1.0012015,1.0015254,229.17117,2,0,1,0
21728340000,21728340000,41.606698011756514,-86.35561598509607,229.27106,229.26628,-0.0,1.0012017,1.0015256,229.17117,2,0,1,0
21728348000,21728348000,41.606698011700225,-86.35561598524949,229.27107,229.2663,-0.0,1.0012021,1.0015258,229.17119,2,0,1,0
21728356000,21728356000,41.606698011726486,-86.35561598534697,229.27107,229.2663,-0.0,1.0012002,1.0015247,229.1711,2,0,1,0
21728364000,21728364000,41.6066980117683,-86.35561598546023,229.27107,229.2663,-0.0,1.0012002,1.0015247,229.1711,2,0,1,0
21728372000,21728372000,41.60669801182566,-86.35561598559502,229.27107,229.2663,-0.0,1.0012002,1.0015247,229.1711,2,0,1,0
21728380000,21728380000,41.60669801185997,-86.35561598572262,229.27107,229.2663,-0.0,1.0012002,1.0015243,229.17107,2,0,1,0
21728388000,21728388000,41.60669801187015,-86.35561598580578,229.27107,229.2663,-0.0,1.0012002,1.0015243,229.17108,2,0,1,0
21728396000,21728396000,41.60669801185299,-86.35561598585883,229.27107,229.2663,-0.0,1.0012002,1.0015243,229.17108,2,0,1,0
21728404000,21728404000,41.606698011822445,-86.3556159858746,229.27107,229.2663,-0.0,1.0012002,1.0015243,229.17108,2,0,1,0
21728412000,21728412000,41.60669801181065,-86.35561598591333,229.27107,229.2663,-0.0,1.0012003,1.0015243,229.17108,2,0,1,0
21728420000,21728420000,41.60669801179456,-86.35561598600366,229.27107,229.2663,-0.0,1.0012003,1.0015244,229.17108,2,0,1,0
21728428000,21728428000,41.606698011762404,-86.35561598611835,229.27107,229.26637,-0.0,1.0011989,1.0015244,229.17108,2,0,1,0
21728436000,21728436000,41.60669801172274,-86.3556159862689,229.27107,229.26637,-0.0,1.0011989,1.0015241,229.17108,2,0,1,0
21728444000,21728444000,41.60669801168093,-86.3556159864596,229.27107,229.26637,-0.0,1.001199,1.0015241,229.17108,2,0,1,0
21728452000,21728452000,41.60669801164555,-86.35561598664455,229.27107,229.26637,-0.0,1.001199,1.0015241,229.17108,2,0,1,0
21728460000,21728460000,41.6066980116225,-86.35561598682952,229.27106,229.26636,-0.0,1.0011991,1.0015242,229.17108,2,0,1,0
21728468000,21728468000,41.60669801161284,-86.35561598704889,229.27106,229.26636,-0.0,1.0011992,1.0015242,229.17108,2,0,1,0
21728476000,21728476000,41.60669801158819,-86.3556159873127,229.27106,229.26636,-0.0,1.0011994,1.0015242,229.17108,2,0,1,0
21728484000,21728484000,41.60669801153727,-86.35561598758369,229.27106,229.26636,-0.0,1.0011995,1.001524,229.17108,2,0,1,0
21728492000,21728492000,41.606698011450966,-86.3556159878432,229.27106,229.26636,-0.0,1.0011996,1.001524,229.17108,2,0,1,0
21728500000,21728500000,41.606698011332504,-86.35561598807548,229.27104,229.26634,-0.0,1.0011997,1.0015241,229.17108,2,0,1,0
21728508000,21728508000,41.60669801122798,-86.35561598827334,229.27106,229.26636,-0.0,1.0011998,1.0015242,229.17108,2,0,1,0
21728516000,21728516000,41.60669801115186,-86.35561598844969,229.27104,229.26634,-0.0,1.0012001,1.0015243,229.17108,2,0,1,0
21728524000,21728524000,41.60669801107414,-86.35561598860025,229.27104,229.26634,-0.0,1.0012003,1.0015244,229.17107,2,0,1,0
21728532000,21728532000,41.606698010971755,-86.35561598876801,229.27103,229.26633,-0.0,1.0012006,1.0015246,229.17107,2,0,1,0
21728540000,21728540000,41.60669801082219,-86.35561598897877,229.27101,229.26631,-0.0,1.0012008,1.0015247,229.17107,2,0,1,0
21728548000,21728548000,41.60669801064047,-86.35561598922682,229.27101,229.26631,-0.0,1.0012012,1.0015244,229.17107,2,0,1,0
21728556000,21728556000,41.60669801046681,-86.35561598947629,229.271,229.2663,-0.0,1.0012014,1.0015247,229.17107,2,0,1,0
21728564000,21728564000,41.606698010389074,-86.35561598963687,229.271,229.2663,-0.0,1.0011996,1.0015236,229.17113,2,0,1,0
21728572000,21728572000,41.60669801032154,-86.35561598976449,229.271,229.2663,-0.0,1.0011996,1.0015236,229.17113,2,0,1,0
21728580000,21728580000,41.60669801026043,-86.35561598989067,229.27098,229.26628,-0.0,1.0011996,1.0015236,229.17113,2,0,1,0
21728588000,21728588000,41.60669801019717,-86.35561599005268,229.27098,229.26628,-0.0,1.0011996,1.0015236,229.17114,2,0,1,0
21728596000,21728596000,41.60669801016287,-86.35561599023333,229.27098,229.26628,-0.0,1.0011996,1.0015233,229.17114,2,0,1,0
21728604000,21728604000,41.60669801014357,-86.35561599040538,229.27098,229.26628,-0.0,1.0011996,1.0015233,229.17114,2,0,1,0
21728612000,21728612000,41.60669801011677,-86.35561599052583,229.27098,229.26628,-0.0,1.0011996,1.0015233,229.17114,2,0,1,0
21728620000,21728620000,41.6066980100696,-86.35561599064913,229.27098,229.26628,-0.0,1.0011996,1.0015233,229.17114,2,0,1,0
21728628000,21728628000,41.606698010004735,-86.35561599081402,229.27097,229.26627,-0.0,1.0011996,1.0015233,229.17113,2,0,1,0
21728636000,21728636000,41.60669800993827,-86.35561599099755,229.27095,229.26633,-0.0,1.0011982,1.0015233,229.17114,2,0,1,0
21728644000,21728644000,41.606698009887886,-86.35561599112802,229.27095,229.26633,-0.0,1.0011983,1.0015233,229.17114,2,0,1,0
21728652000,21728652000,41.60669800985573,-86.35561599121118,229.27095,229.26633,-0.0,1.0011983,1.0015229,229.17114,2,0,1,0
21728660000,21728660000,41.60669800982731,-86.35561599129863,229.27095,229.26633,-0.0,1.0011984,1.001523,229.17114,2,0,1,0
21728668000,21728668000,41.60669800976996,-86.35561599140617,229.27095,229.26633,-0.0,1.0011984,1.001523,229.17114,2,0,1,0
21728676000,21728676000,41.60669800968687,-86.35561599151372,229.27095,229.26633,-0.0,1.0011985,1.0015231,229.17116,2,0,1,0
21728684000,21728684000,41.606698009600564,-86.3556159915811,229.27097,229.26634,-0.0,1.0011986,1.0015231,229.17116,2,0,1,0
21728692000,21728692000,41.60669800952338,-86.35561599161551,229.27098,229.26636,-0.0,1.0011988,1.0015233,229.17116,2,0,1,0
21728700000,21728700000,41.60669800941778,-86.35561599164275,229.27098,229.26636,-0.0,1.0011989,1.0015233,229.17116,2,0,1,0
21728708000,21728708000,41.60669800927787,-86.35561599163701,229.271,229.26637,-0.0,1.001199,1.0015234,229.17114,2,0,1,0
21728716000,21728716000,41.606698009112236,-86.35561599161407,229.27098,229.26636,-0.0,1.0011992,1.001523,229.17114,2,0,1,0
21728724000,21728724000,41.60669800893695,-86.3556159915897,229.271,229.26637,-0.0,1.0011995,1.0015231,229.17114,2,0,1,0
21728732000,21728732000,41.606698008763274,-86.35561599156102,229.271,229.26637,-0.0,1.0011996,1.0015233,229.17114,2,0,1,0
21728740000,21728740000,41.60669800856816,-86.35561599154956,229.27101,229.26639,-0.0,1.0011998,1.0015234,229.17114,2,0,1,0
21728748000,21728748000,41.60669800833498,-86.35561599156533,229.27101,229.26639,-0.0,1.0012002,1.0015236,229.17114,2,0,1,0
21728756000,21728756000,41.606698008057315,-86.35561599161838,229.27101,229.26639,-0.0,1.0012004,1.0015237,229.17116,2,0,1,0
21728764000,21728764000,41.606698007788225,-86.35561599167717,229.27103,229.2664,-0.0,1.0012008,1.0015239,229.17117,2,0,1,0
21728772000,21728772000,41.606698007610255,-86.3556159917173,229.27104,229.26642,-0.0,1.0011989,1.0015224,229.17105,2,0,1,0
21728780000,21728780000,41.60669800742693,-86.35561599178183,229.27104,229.26642,-0.0,1.0011989,1.0015224,229.17105,2,0,1,0
21728788000,21728788000,41.60669800723289,-86.35561599183058,229.27104,229.26642,-0.0,1.0011989,1.0015224,229.17104,2,0,1,0
21728796000,21728796000,41.60669800705385,-86.35561599185495,229.27104,229.26642,-0.0,1.0011989,1.0015224,229.17104,2,0,1,0
21728804000,21728804000,41.60669800688232,-86.35561599184491,229.27104,229.26642,-0.0,1.0011989,1.0015224,229.17102,2,0,1,0
21728812000,21728812000,41.606698006720976,-86.35561599180477,229.27106,229.26643,-0.0,1.0011989,1.0015225,229.17102,2,0,1,0
21728820000,21728820000,41.60669800656445,-86.35561599177609,229.27106,229.26643,-0.0,1.0011989,1.0015225,229.17102,2,0,1,0
21728828000,21728828000,41.606698006437405,-86.35561599174598,229.27104,229.26642,-0.0,1.0011989,1.0015222,229.171,2,0,1,0
21728836000,21728836000,41.606698006375225,-86.35561599166712,229.27106,229.26643,-0.0,1.001199,1.0015222,229.17099,2,0,1,0
21728844000,21728844000,41.60669800635057,-86.35561599156962,229.27106,229.2665,-0.0,1.0011976,1.0015222,229.171,2,0,1,0
21728852000,21728852000,41.60669800629965,-86.35561599147644,229.27107,229.26651,-0.0,1.0011976,1.0015222,229.171,2,0,1,0
21728860000,21728860000,41.60669800623479,-86.35561599138038,229.27106,229.2665,-0.0,1.0011977,1.0015222,229.171,2,0,1,0
21728868000,21728868000,41.60669800617422,-86.35561599127283,229.27106,229.2665,-0.0,1.0011977,1.0015223,229.17099,2,0,1,0
21728876000,21728876000,41.606698006103464,-86.35561599114523,229.27104,229.26648,-0.0,1.0011978,1.0015223,229.17099,2,0,1,0
21728884000,21728884000,41.606698006072904,-86.35561599099611,229.27103,229.26646,-0.0,1.0011979,1.0015223,229.17099,2,0,1,0
21728892000,21728892000,41.60669800607344,-86.3556159908728,229.27103,229.26646,-0.0,1.0011979,1.0015221,229.17099,2,0,1,0
21728900000,21728900000,41.60669800607505,-86.35561599077243,229.27103,229.26646,-0.0,1.001198,1.0015221,229.17099,2,0,1,0
21728908000,21728908000,41.60669800605897,-86.35561599070361,229.27101,229.26645,-0.0,1.0011983,1.0015222,229.17099,2,0,1,0
21728916000,21728916000,41.60669800606272,-86.35561599062476,229.27101,229.26645,-0.0,1.0011984,1.0015222,229.17099,2,0,1,0
21728924000,21728924000,41.60669800608416,-86.35561599057745,229.27101,229.26645,-0.0,1.0011985,1.0015223,229.17099,2,0,1,0
21728932000,21728932000,41.606698006100245,-86.35561599057745,229.27101,229.26645,-0.0,1.0011988,1.0015224,229.17099,2,0,1,0
21728940000,21728940000,41.60669800612329,-86.35561599059179,229.271,229.26643,-0.0,1.001199,1.0015225,229.17099,2,0,1,0
21728948000,21728948000,41.60669800614688,-86.35561599063766,229.27098,229.26642,-0.0,1.0011992,1.0015223,229.17102,2,0,1,0
21728956000,21728956000,41.60669800619083,-86.35561599066921,229.27097,229.2664,-0.0,1.0011995,1.0015224,229.171,2,0,1,0
21728964000,21728964000,41.606698006221926,-86.35561599069788,229.27095,229.26639,-0.0,1.0011997,1.0015225,229.171,2,0,1,0
21728972000,21728972000,41.606698006234254,-86.35561599075524,229.27094,229.26637,-0.0,1.0012001,1.0015228,229.171,2,0,1,0
21728980000,21728980000,41.606698006307155,-86.35561599079108,229.2709,229.26634,-0.0,1.0011982,1.0015217,229.1711,2,0,1,0
21728988000,21728988000,41.606698006406866,-86.35561599079968,229.27087,229.26631,-0.0,1.0011982,1.0015217,229.1711,2,0,1,0
21728996000,21728996000,41.606698006539794,-86.35561599075666,229.27086,229.2663,-0.0,1.0011982,1.0015217,229.1711,2,0,1,0
21729004000,21729004000,41.6066980066722,-86.35561599070361,229.27084,229.26628,-0.0,1.0011982,1.0015217,229.1711,2,0,1,0
21729012000,21729012000,41.60669800680352,-86.35561599064197,229.27083,229.26627,-0.0,1.0011983,1.0015213,229.17111,2,0,1,0
21729020000,21729020000,41.60669800691555,-86.35561599060038,229.27081,229.26625,-0.0,1.0011983,1.0015213,229.1711,2,0,1,0
21729028000,21729028000,41.6066980070217,-86.35561599056022,229.2708,229.26624,-0.0,1.0011983,1.0015213,229.1711,2,0,1,0
21729036000,21729036000,41.60669800710692,-86.35561599047708,229.27078,229.26622,-0.0,1.0011983,1.0015213,229.1711,2,0,1,0
21729044000,21729044000,41.60669800718572,-86.35561599041685,229.27077,229.2662,-0.0,1.0011983,1.0015213,229.17108,2,0,1,0
21729052000,21729052000,41.606698007250046,-86.35561599037098,229.27074,229.26617,-0.0,1.0011983,1.0015215,229.17107,2,0,1,0
21729060000,21729060000,41.60669800732455,-86.35561599027635,229.27072,229.26616,-0.0,1.0011984,1.0015215,229.17105,2,0,1,0
21729068000,21729068000,41.60669800742801,-86.35561599015877,229.2707,229.26614,-0.0,1.0011984,1.0015211,229.17099,2,0,1,0
21729076000,21729076000,41.60669800753093,-86.35561599006128,229.27069,229.26613,-0.0,1.0011985,1.0015211,229.17097,2,0,1,0
21729084000,21729084000,41.60669800760007,-86.35561598998385,229.27066,229.2661,-0.0,1.0011985,1.0015211,229.17097,2,0,1,0
21729092000,21729092000,41.6066980076451,-86.355615989905,229.27065,229.26608,-0.0,1.0011986,1.0015212,229.17096,2,0,1,0
21729100000,21729100000,41.606698007721754,-86.3556159898204,229.27061,229.26605,-0.0,1.0011988,1.0015212,229.17094,2,0,1,0
21729108000,21729108000,41.60669800780592,-86.35561598975733,229.2706,229.26604,-0.0,1.0011989,1.0015213,229.17093,2,0,1,0
21729116000,21729116000,41.60669800786113,-86.35561598969423,229.27057,229.266,-0.0,1.001199,1.0015213,229.17093,2,0,1,0
21729124000,21729124000,41.6066980078965,-86.35561598959386,229.27054,229.26598,-0.0,1.0011991,1.0015215,229.17091,2,0,1,0
21729132000,21729132000,41.60669800793778,-86.35561598946195,229.27052,229.26596,-0.0,1.0011994,1.0015212,229.17088,2,0,1,0
21729140000,21729140000,41.60669800796833,-86.35561598935872,229.27051,229.26595,-0.0,1.0011996,1.0015213,229.17087,2,0,1,0
21729148000,21729148000,41.60669800798335,-86.35561598928989,229.27048,229.26591,-0.0,1.0011997,1.0015215,229.17085,2,0,1,0
21729156000,21729156000,41.60669800799299,-86.35561598927126,229.27043,229.26587,-0.0,1.0012,1.0015216,229.17085,2,0,1,0
21729164000,21729164000,41.60669800806053,-86.35561598927843,229.27042,229.26585,-0.0,1.0012003,1.0015217,229.17082,2,0,1,0
21729172000,21729172000,41.60669800821008,-86.35561598930997,229.27039,229.26582,-0.0,1.0012006,1.0015218,229.1708,2,0,1,0
21729180000,21729180000,41.6066980083843,-86.35561598935585,229.27036,229.2658,-0.0,1.0012009,1.0015221,229.17079,2,0,1,0
21729188000,21729188000,41.606698008586925,-86.35561598935585,229.27034,229.26578,-0.0,1.001199,1.001521,229.17107,2,0,1,0
21729196000,21729196000,41.60669800879437,-86.3556159893745,229.27032,229.26576,-0.0,1.001199,1.0015206,229.17108,2,0,1,0
21729204000,21729204000,41.606698009014146,-86.35561598939456,229.27032,229.26599,-0.0,1.0011976,1.0015206,229.1711,2,0,1,0
21729212000,21729212000,41.60669800921677,-86.35561598941321,229.27031,229.26598,-0.0,1.0011976,1.0015206,229.1711,2,0,1,0
21729220000,21729220000,41.60669800939044,-86.35561598941463,229.2703,229.26596,-0.0,1.0011976,1.0015206,229.1711,2,0,1,0
21729228000,21729228000,41.60669800956466,-86.3556159893831,229.2703,229.26596,-0.0,1.0011976,1.0015206,229.1711,2,0,1,0
21729236000,21729236000,41.60669800974852,-86.35561598932574,229.2703,229.26596,-0.0,1.0011976,1.0015206,229.1711,2,0,1,0
21729244000,21729244000,41.60669800992594,-86.35561598927987,229.27028,229.26595,-0.0,1.0011976,1.0015206,229.1711,2,0,1,0
21729252000,21729252000,41.60669801007603,-86.35561598925835,229.27026,229.26593,-0.0,1.0011977,1.0015203,229.1711,2,0,1,0
21729260000,21729260000,41.6066980102095,-86.35561598925119,229.27026,229.26593,-0.0,1.0011977,1.0015203,229.1711,2,0,1,0
21729268000,21729268000,41.606698010351025,-86.35561598921534,229.27028,229.26595,-0.0,1.0011977,1.0015203,229.17108,2,0,1,0
21729276000,21729276000,41.60669801048664,-86.35561598916516,229.27028,229.26595,-0.0,1.0011978,1.0015204,229.1711,2,0,1,0
21729284000,21729284000,41.60669801063726,-86.35561598912358,229.27028,229.26595,-0.0,1.0011978,1.0015204,229.1711,2,0,1,0
21729292000,21729292000,41.60669801077289,-86.3556159890648,229.27028,229.26595,-0.0,1.0011979,1.0015204,229.1711,2,0,1,0
21729300000,21729300000,41.60669801090796,-86.35561598896014,229.27028,229.26595,-0.0,1.001198,1.0015205,229.17111,2,0,1,0
21729308000,21729308000,41.6066980110677,-86.35561598879667,229.2703,229.26596,-0.0,1.001198,1.0015205,229.17111,2,0,1,0
21729316000,21729316000,41.60669801121404,-86.35561598864038,229.2703,229.26596,-0.0,1.0011982,1.0015202,229.17113,2,0,1,0
21729324000,21729324000,41.60669801134055,-86.3556159884841,229.2703,229.26596,-0.0,1.0011984,1.0015203,229.17113,2,0,1,0
21729332000,21729332000,41.6066980114783,-86.35561598832926,229.27031,229.26598,-0.0,1.0011985,1.0015204,229.17113,2,0,1,0
21729340000,21729340000,41.606698011605346,-86.35561598816724,229.27032,229.26599,-0.0,1.0011986,1.0015204,229.17113,2,0,1,0
21729348000,21729348000,41.60669801169969,-86.35561598801955,229.27034,229.266,-0.0,1.0011989,1.0015205,229.17114,2,0,1,0
21729356000,21729356000,41.606698011797256,-86.35561598787619,229.27034,229.266,-0.0,1.0011991,1.0015206,229.17116,2,0,1,0
21729364000,21729364000,41.606698011934476,-86.35561598770556,229.27037,229.26604,-0.0,1.0011994,1.0015208,229.17116,2,0,1,0
21729372000,21729372000,41.60669801207063,-86.35561598752633,229.27039,229.26605,-0.0,1.0011996,1.0015205,229.17113,2,0,1,0
21729380000,21729380000,41.60669801216872,-86.35561598735285,229.27039,229.26605,-0.0,1.0011998,1.0015208,229.17114,2,0,1,0
21729388000,21729388000,41.60669801225717,-86.35561598722524,229.2704,229.26607,-0.0,1.0012002,1.0015209,229.17114,2,0,1,0
21729396000,21729396000,41.60669801241262,-86.35561598711485,229.27042,229.26608,-0.0,1.0011983,1.0015198,229.17116,2,0,1,0
21729404000,21729404000,41.60669801256592,-86.35561598702307,229.27043,229.2661,-0.0,1.0011983,1.0015198,229.17117,2,0,1,0
21729412000,21729412000,41.60669801267795,-86.35561598696286,229.27043,229.26611,-0.0,1.0011969,1.0015198,229.17117,2,0,1,0
21729420000,21729420000,41.60669801277177,-86.35561598693418,229.27045,229.26613,-0.0,1.0011969,1.0015199,229.17119,2,0,1,0
21729428000,21729428000,41.6066980128838,-86.35561598690121,229.27046,229.26614,-0.0,1.0011969,1.0015199,229.1712,2,0,1,0
21729436000,21729436000,41.606698012997434,-86.35561598682521,229.27048,229.26616,-0.0,1.001197,1.0015194,229.17117,2,0,1,0
21729444000,21729444000,41.606698013077306,-86.35561598674491,229.27048,229.26616,-0.0,1.001197,1.0015194,229.17119,2,0,1,0
21729452000,21729452000,41.606698013125005,-86.35561598665745,229.27048,229.26616,-0.0,1.001197,1.0015196,229.1712,2,0,1,0
21729460000,21729460000,41.606698013178615,-86.35561598653845,229.2705,229.26617,-0.0,1.001197,1.0015196,229.1712,2,0,1,0
21729468000,21729468000,41.606698013250984,-86.35561598641371,229.2705,229.26617,-0.0,1.001197,1.0015196,229.1712,2,0,1,0
21729476000,21729476000,41.606698013333535,-86.35561598630332,229.2705,229.26617,-0.0,1.0011971,1.0015196,229.17122,2,0,1,0
21729484000,21729484000,41.606698013386605,-86.35561598621585,229.27051,229.26619,-0.0,1.0011971,1.0015196,229.17123,2,0,1,0
21729492000,21729492000,41.60669801342894,-86.35561598617284,229.27052,229.2662,-0.0,1.0011972,1.0015192,229.17123,2,0,1,0
21729500000,21729500000,41.606698013447705,-86.35561598619435,229.27054,229.26622,-0.0,1.0011972,1.0015193,229.17123,2,0,1,0
21729508000,21729508000,41.606698013441274,-86.3556159862474,229.27055,229.26624,-0.0,1.0011973,1.0015193,229.17125,2,0,1,0
21729516000,21729516000,41.60669801343806,-86.35561598629471,229.27057,229.26625,-0.0,1.0011975,1.0015194,229.17125,2,0,1,0
21729524000,21729524000,41.60669801343646,-86.35561598634203,229.27058,229.26627,-0.0,1.0011976,1.0015194,229.17125,2,0,1,0
21729532000,21729532000,41.606698013386065,-86.35561598639077,229.2706,229.26628,-0.0,1.0011977,1.0015196,229.17125,2,0,1,0
21729540000,21729540000,41.606698013313704,-86.35561598642948,229.27061,229.2663,-0.0,1.0011978,1.0015196,229.17125,2,0,1,0
21729548000,21729548000,41.60669801326921,-86.35561598649115,229.27061,229.2663,-0.0,1.001198,1.0015197,229.17125,2,0,1,0
21729556000,21729556000,41.60669801325367,-86.35561598660297,229.27063,229.26631,-0.0,1.0011982,1.0015194,229.17123,2,0,1,0
21729564000,21729564000,41.60669801322686,-86.35561598673489,229.27065,229.26633,-0.0,1.0011984,1.0015196,229.17125,2,0,1,0
21729572000,21729572000,41.606698013198454,-86.35561598687396,229.27065,229.26633,-0.0,1.0011986,1.0015197,229.17125,2,0,1,0
21729580000,21729580000,41.60669801320382,-86.3556159870116,229.27065,229.26633,-0.0,1.001199,1.0015198,229.17125,2,0,1,0
21729588000,21729588000,41.60669801320006,-86.35561598717506,229.27066,229.26634,-0.0,1.0011992,1.0015199,229.17125,2,0,1,0
21729596000,21729596000,41.60669801317111,-86.35561598736862,229.27066,229.26634,-0.0,1.0011996,1.0015202,229.17126,2,0,1,0
21729604000,21729604000,41.60669801322847,-86.35561598749193,229.27066,229.26634,-0.0,1.0011977,1.0015191,229.17122,2,0,1,0
21729612000,21729612000,41.606698013267064,-86.35561598759945,229.27068,229.26636,-0.0,1.0011977,1.0015187,229.17119,2,0,1,0
21729620000,21729620000,41.606698013278326,-86.3556159877285,229.27068,229.26643,-0.0,1.0011963,1.0015187,229.17119,2,0,1,0
21729628000,21729628000,41.60669801328154,-86.35561598782026,229.27068,229.26643,-0.0,1.0011963,1.0015187,229.17119,2,0,1,0
21729636000,21729636000,41.60669801330137,-86.35561598787619,229.27069,229.26645,-0.0,1.0011963,1.0015187,229.17119,2,0,1,0
21729644000,21729644000,41.6066980133121,-86.35561598796652,229.2707,229.26646,-0.0,1.0011963,1.0015187,229.17117,2,0,1,0
21729652000,21729652000,41.60669801329119,-86.35561598810702,229.2707,229.26646,-0.0,1.0011963,1.0015187,229.17116,2,0,1,0
21729660000,21729660000,41.6066980132542,-86.35561598828912,229.27072,229.26648,-0.0,1.0011963,1.0015187,229.17116,2,0,1,0
21729668000,21729668000,41.606698013244014,-86.35561598846117,229.27074,229.2665,-0.0,1.0011964,1.0015187,229.17114,2,0,1,0
21729676000,21729676000,41.60669801322632,-86.35561598861172,229.27074,229.2665,-0.0,1.0011964,1.0015184,229.17111,2,0,1,0
21729684000,21729684000,41.60669801319684,-86.35561598873933,229.27074,229.2665,-0.0,1.0011964,1.0015185,229.17111,2,0,1,0
21729692000,21729692000,41.606698013171645,-86.35561598886979,229.27075,229.26651,-0.0,1.0011965,1.0015185,229.1711,2,0,1,0
21729700000,21729700000,41.60669801313681,-86.35561598904185,229.27077,229.26653,-0.0,1.0011965,1.0015185,229.1711,2,0,1,0
21729708000,21729708000,41.60669801307248,-86.35561598925979,229.27077,229.26653,-0.0,1.0011966,1.0015185,229.1711,2,0,1,0
21729716000,21729716000,41.60669801300977,-86.35561598951358,229.27077,229.26653,-0.0,1.0011967,1.0015186,229.1711,2,0,1,0
21729724000,21729724000,41.60669801296474,-86.35561598973868,229.27078,229.26654,-0.0,1.0011967,1.0015186,229.1711,2,0,1,0
21729732000,21729732000,41.60669801292668,-86.35561598995517,229.27078,229.26654,-0.0,1.0011969,1.0015184,229.17108,2,0,1,0
21729740000,21729740000,41.606698012872535,-86.35561599016164,229.2708,229.26656,-0.0,1.0011971,1.0015184,229.17108,2,0,1,0
21729748000,21729748000,41.60669801283341,-86.35561599036238,229.27081,229.26657,-0.0,1.0011972,1.0015185,229.17108,2,0,1,0
21729756000,21729756000,41.60669801281893,-86.35561599056454,229.27084,229.2666,-0.0,1.0011973,1.0015186,229.17108,2,0,1,0
21729764000,21729764000,41.60669801278785,-86.35561599077961,229.27084,229.2666,-0.0,1.0011976,1.0015187,229.17108,2,0,1,0
21729772000,21729772000,41.606698012768014,-86.35561599102623,229.27087,229.26663,-0.0,1.0011978,1.0015188,229.17108,2,0,1,0
21729780000,21729780000,41.6066980127782,-86.3556159912714,229.27089,229.26665,-0.0,1.001198,1.001519,229.17108,2,0,1,0
21729788000,21729788000,41.606698012801246,-86.3556159915424,229.2709,229.26666,-0.0,1.0011983,1.0015191,229.17107,2,0,1,0
21729796000,21729796000,41.60669801282591,-86.35561599183775,229.27094,229.2667,-0.0,1.0011985,1.0015188,229.17107,2,0,1,0
21729804000,21729804000,41.6066980128511,-86.35561599215318,229.27097,229.26672,-0.0,1.0011989,1.001519,229.17107,2,0,1,0
21729812000,21729812000,41.60669801294061,-86.3556159923324,229.271,229.26675,-0.0,1.001197,1.001518,229.17119,2,0,1,0
21729820000,21729820000,41.60669801300762,-86.35561599246718,229.27103,229.26678,-0.0,1.001197,1.001518,229.17119,2,0,1,0
21729828000,21729828000,41.60669801307248,-86.35561599257471,229.27107,229.26683,-0.0,1.001197,1.001518,229.17122,2,0,1,0
21729836000,21729836000,41.606698013146456,-86.35561599264928,229.2711,229.26698,-0.0,1.0011957,1.001518,229.17123,2,0,1,0
21729844000,21729844000,41.606698013244014,-86.35561599270233,229.27115,229.26703,-0.0,1.0011957,1.001518,229.17125,2,0,1,0
21729852000,21729852000,41.60669801339036,-86.35561599276971,229.2712,229.26707,-0.0,1.0011957,1.0015177,229.17126,2,0,1,0
21729860000,21729860000,41.606698013539905,-86.3556159928371,229.27124,229.26712,-0.0,1.0011957,1.0015177,229.17128,2,0,1,0
21729868000,21729868000,41.60669801367928,-86.35561599292599,229.27129,229.26717,-0.0,1.0011957,1.0015177,229.1713,2,0,1,0
21729876000,21729876000,41.60669801382133,-86.3556159930278,229.27133,229.26721,-0.0,1.0011958,1.0015177,229.17133,2,0,1,0
21729884000,21729884000,41.606698013993395,-86.35561599310952,229.27138,229.26726,-0.0,1.0011958,1.0015177,229.17136,2,0,1,0
21729892000,21729892000,41.60669801418262,-86.35561599316688,229.27141,229.26729,-0.0,1.0011958,1.0015177,229.17139,2,0,1,0
21729900000,21729900000,41.60669801439756,-86.35561599323856,229.27145,229.26733,-0.0,1.0011959,1.0015178,229.17142,2,0,1,0
21729908000,21729908000,41.60669801463825,-86.35561599329448,229.2715,229.26738,-0.0,1.0011959,1.0015178,229.17146,2,0,1,0
21729916000,21729916000,41.60669801486821,-86.355615993359,229.27156,229.26744,-0.0,1.001196,1.0015174,229.17151,2,0,1,0
21729924000,21729924000,41.60669801506493,-86.35561599344072,229.2716,229.26749,-0.0,1.001196,1.0015175,229.17155,2,0,1,0
21729932000,21729932000,41.606698015247716,-86.35561599350237,229.27168,229.26756,-0.0,1.0011961,1.0015175,229.1716,2,0,1,0
21729940000,21729940000,41.60669801539781,-86.355615993554,229.27174,229.26762,-0.0,1.0011963,1.0015175,229.17165,2,0,1,0
21729948000,21729948000,41.6066980155345,-86.35561599361851,229.27179,229.26767,-0.0,1.0011964,1.0015177,229.17168,2,0,1,0
21729956000,21729956000,41.606698015695315,-86.35561599369021,229.27185,229.26773,-0.0,1.0011965,1.0015178,229.17172,2,0,1,0
21729964000,21729964000,41.606698015839505,-86.35561599375472,229.27193,229.2678,-0.0,1.0011967,1.0015179,229.17177,2,0,1,0
21729972000,21729972000,41.60669801595957,-86.35561599382068,229.27197,229.26785,-0.0,1.0011969,1.0015175,229.17178,2,0,1,0
21729980000,21729980000,41.606698016112894,-86.35561599388377,229.27203,229.26791,-0.0,1.0011971,1.0015177,229.17183,2,0,1,0
21729988000,21729988000,41.60669801629514,-86.35561599394973,229.27211,229.26799,-0.0,1.0011973,1.0015178,229.17188,2,0,1,0
21729996000,21729996000,41.60669801646721,-86.35561599405439,229.27217,229.26805,-0.0,1.0011976,1.001518,229.17192,2,0,1,0
21730004000,21730004000,41.606698016647854,-86.35561599419489,229.27223,229.26811,-0.0,1.0011979,1.0015181,229.17197,2,0,1,0
21730012000,21730012000,41.60669801686977,-86.35561599435835,229.27231,229.26819,-0.0,1.0011983,1.0015182,229.17203,2,0,1,0
21730020000,21730020000,41.60669801708901,-86.35561599446875,229.27235,229.26823,-0.0,1.0011964,1.0015173,229.17145,2,0,1,0
21730028000,21730028000,41.60669801727984,-86.35561599460353,229.27238,229.26826,-0.0,1.0011964,1.0015173,229.17145,2,0,1,0
21730036000,21730036000,41.606698017469064,-86.35561599473401,229.27243,229.26831,-0.0,1.0011964,1.0015168,229.17146,2,0,1,0
21730044000,21730044000,41.60669801765399,-86.35561599485014,229.27246,229.26846,-0.0,1.001195,1.0015168,229.17148,2,0,1,0
21730052000,21730052000,41.606698017804085,-86.3556159949505,229.27249,229.2685,-0.0,1.001195,1.0015169,229.17148,2,0,1,0
21730060000,21730060000,41.60669801794345,-86.35561599503653,229.27252,229.26852,-0.0,1.0011951,1.0015169,229.17148,2,0,1,0
21730068000,21730068000,41.606698018100516,-86.35561599514408,229.27254,229.26854,-0.0,1.0011951,1.0015169,229.1715,2,0,1,0
21730076000,21730076000,41.60669801824792,-86.35561599527884,229.27255,229.26855,-0.0,1.0011951,1.0015169,229.1715,2,0,1,0
21730084000,21730084000,41.6066980184141,-86.35561599539068,229.27257,229.26857,-0.0,1.0011951,1.0015169,229.17151,2,0,1,0
21730092000,21730092000,41.60669801859689,-86.35561599550108,229.27258,229.26859,-0.0,1.0011951,1.0015166,229.17151,2,0,1,0
21730100000,21730100000,41.60669801875072,-86.35561599559284,229.27258,229.26859,-0.0,1.0011952,1.0015166,229.17151,2,0,1,0
21730108000,21730108000,41.60669801886758,-86.35561599567458,229.2726,229.2686,-0.0,1.0011952,1.0015166,229.17151,2,0,1,0
21730116000,21730116000,41.60669801898283,-86.35561599575631,229.27261,229.26862,-0.0,1.0011953,1.0015167,229.17152,2,0,1,0
21730124000,21730124000,41.60669801908468,-86.35561599581365,229.27261,229.26862,-0.0,1.0011953,1.0015167,229.17152,2,0,1,0
21730132000,21730132000,41.60669801916187,-86.35561599585667,229.2726,229.2686,-0.0,1.0011954,1.0015167,229.17152,2,0,1,0
21730140000,21730140000,41.606698019259966,-86.35561599587388,229.27261,229.26862,-0.0,1.0011955,1.0015168,229.17152,2,0,1,0
21730148000,21730148000,41.60669801936127,-86.35561599588247,229.2726,229.2686,-0.0,1.0011957,1.0015168,229.17152,2,0,1,0
21730156000,21730156000,41.606698019444366,-86.35561599590399,229.2726,229.2686,-0.0,1.0011958,1.0015166,229.17148,2,0,1,0
21730164000,21730164000,41.60669801949797,-86.35561599591402,229.2726,229.2686,-0.0,1.0011959,1.0015166,229.17148,2,0,1,0
21730172000,21730172000,41.60669801953602,-86.35561599591975,229.27258,229.26859,-0.0,1.001196,1.0015167,229.17148,2,0,1,0
21730180000,21730180000,41.60669801958855,-86.35561599592978,229.27257,229.26857,-0.0,1.0011963,1.0015168,229.17146,2,0,1,0
21730188000,21730188000,41.60669801966092,-86.35561599593409,229.27257,229.26857,-0.0,1.0011965,1.0015169,229.17145,2,0,1,0
21730196000,21730196000,41.60669801974347,-86.35561599592549,229.27255,229.26855,-0.0,1.0011967,1.001517,229.17146,2,0,1,0
21730204000,21730204000,41.606698019801364,-86.35561599591544,229.27254,229.26854,-0.0,1.001197,1.0015172,229.17145,2,0,1,0
21730212000,21730212000,41.606698019846384,-86.35561599590541,229.27252,229.26852,-0.0,1.0011972,1.0015169,229.17145,2,0,1,0
21730220000,21730220000,41.60669801992465,-86.35561599591833,229.2725,229.26851,-0.0,1.0011976,1.0015172,229.17143,2,0,1,0
21730228000,21730228000,41.60669802000613,-86.35561599584233,229.2725,229.26851,-0.0,1.0011958,1.0015161,229.17155,2,0,1,0
