timestamp,timestamp_sample,device_id,magnetometer_ga[0],magnetometer_ga[1],magnetometer_ga[2],calibration_count
21726284000,21726284000,197388,0.11665718,0.15434085,0.48850757,0
21726416000,21726354545,197388,0.120844305,0.15737113,0.4867146,0
21726428000,21726428000,197388,0.11726554,0.15429288,0.4861543,0
21726560000,21726499636,197388,0.12050959,0.15597355,0.4868158,0
21726572000,21726572000,197388,0.12642983,0.15754816,0.49155518,0
21726704000,21726644000,197388,0.12189877,0.15474632,0.48884353,0
21726716000,21726716000,197388,0.11923914,0.15203151,0.48467055,0
21726848000,21726788000,197388,0.12147958,0.15689328,0.48801708,0
21726860000,21726860000,197388,0.11945278,0.15573415,0.49028817,0
21726992000,21726932000,197388,0.118568644,0.15652616,0.488131,0
21727004000,21727004000,197388,0.121053435,0.15526725,0.48552847,0
21727136000,21727075636,197388,0.118522495,0.1584114,0.4888823,0
21727148000,21727148000,197388,0.120490454,0.15748668,0.48020533,0
21727280000,21727218181,197388,0.120412864,0.15591314,0.48808554,0
21727288000,21727288000,197388,0.12569843,0.15580615,0.49370685,0
21727412000,21727356800,197388,0.12071822,0.1563355,0.4880859,0
21727424000,21727424000,197388,0.13008082,0.15233637,0.48694077,0
21727556000,21727495272,197388,0.12124141,0.15568061,0.48924804,0
21727568000,21727568000,197388,0.11593682,0.15816627,0.48210543,0
21727700000,21727639272,197388,0.1208455,0.15723775,0.4895582,0
21727712000,21727712000,197388,0.121120185,0.1554174,0.48589846,0
21727844000,21727783636,197388,0.12136259,0.1559524,0.48877025,0
21727852000,21727852000,197388,0.11961738,0.1578239,0.48297322,0
21727976000,21727921600,197388,0.12047142,0.15557806,0.48782238,0
21728000000,21727994000,197388,0.12135327,0.15225995,0.48672652,0
21728120000,21728064000,197388,0.12041787,0.1561893,0.4881063,0
21728132000,21728132000,197388,0.119304486,0.1559673,0.49319577,0
21728264000,21728203272,197388,0.12106706,0.15589482,0.4871205,0
21728276000,21728276000,197388,0.117331,0.15529093,0.48953253,0
21728404000,21728346181,197388,0.12065214,0.1571169,0.48729694,0
21728420000,21728420000,197388,0.124218546,0.15436783,0.49078462,0
21728552000,21728490545,197388,0.11994931,0.15588726,0.4870262,0
21728560000,21728560000,197388,0.12575805,0.15537094,0.48593354,0
21728680000,21728626800,197388,0.12177008,0.15639214,0.48956814,0
21728704000,21728698000,197388,0.12278392,0.15252107,0.48929343,0
21728824000,21728770000,197388,0.12147832,0.15635061,0.48830062,0
21728848000,21728842000,197388,0.12504622,0.15567534,0.4868378,0
21728968000,21728914000,197388,0.11911815,0.15727419,0.48670268,0
21728992000,21728986000,197388,0.121712685,0.15554339,0.48953524,0
21729104000,21729053333,197388,0.12115039,0.15754472,0.4877055,0
21729128000,21729122000,197388,0.11904509,0.15823558,0.48902577,0
21729244000,21729192800,197388,0.120703235,0.15532215,0.4875219,0
21729272000,21729264000,197388,0.12311767,0.15522715,0.48814863,0
21729388000,21729336000,197388,0.12401052,0.15759622,0.49043956,0
21729412000,21729406000,197388,0.1264826,0.15763488,0.49137816,0
21729524000,21729475111,197388,0.12017265,0.15641981,0.48796597,0
21729560000,21729546666,197388,0.12669778,0.15589988,0.48923397,0
21729668000,21729618666,197388,0.11908509,0.1565421,0.48896375,0
21729700000,21729688000,197388,0.12224977,0.15850002,0.48705706,0
21729796000,21729757000,197388,0.12140407,0.15657666,0.4898829,0
21729836000,21729824000,197388,0.11915659,0.15725651,0.48980093,0
21729944000,21729894222,197388,0.121175356,0.15681759,0.48681274,0
21729968000,21729962000,197388,0.12274718,0.1523276,0.4881436,0
21730088000,21730032400,197388,0.12156377,0.15715294,0.48785064,0
21730100000,21730100000,197388,0.117004454,0.15734878,0.49095225,0
21730232000,21730171636,197388,0.12052237,0.15700285,0.48791695,0
21730244000,21730244000,197388,0.12830834,0.15655117,0.48634782,0
21730372000,21730314181,197388,0.120015234,0.15772028,0.4871842,0
21730388000,21730388000,197388,0.118802615,0.15934037,0.4856808,0
21730516000,21730458545,197388,0.11929106,0.15632673,0.48826015,0
21730528000,21730528000,197388,0.12641998,0.1573689,0.48743433,0
21730648000,21730595200,197388,0.120731495,0.1562975,0.48715335,0
21730672000,21730666000,197388,0.12498546,0.16120459,0.48743635,0
21730780000,21730733777,197388,0.118632756,0.15448317,0.4893624,0
21730816000,21730804000,197388,0.12036979,0.15276544,0.48542184,0
21730916000,21730874000,197388,0.12138771,0.1563708,0.4877151,0
21730964000,21730946000,197388,0.12188608,0.15845577,0.48900872,0
21731056000,21731017000,197388,0.120170414,0.15679395,0.4869844,0
21731096000,21731084000,197388,0.12193593,0.15601997,0.48500285,0
21731204000,21731154666,197388,0.12273904,0.15908875,0.48912436,0
21731240000,21731226666,197388,0.11855869,0.1549326,0.486848,0
21731348000,21731297777,197388,0.120144926,0.15609564,0.48724377,0
21731372000,21731366000,197388,0.11926508,0.1530391,0.48708186,0
21731492000,21731437600,197388,0.11881478,0.1575092,0.48769173,0
21731516000,21731510000,197388,0.1199185,0.15621808,0.48562646,0
21731636000,21731581600,197388,0.1202577,0.1536308,0.48642132,0
21731660000,21731652000,197388,0.12104012,0.15518692,0.48259446,0
21731776000,21731723600,197388,0.12016492,0.1565513,0.48879242,0
21731792000,21731792000,197388,0.118392855,0.1627876,0.48847985,0
21731924000,21731863636,197388,0.11712498,0.16006765,0.4913817,0
21731936000,21731936000,197388,0.117323756,0.15498656,0.49101263,0
21732064000,21732007636,197388,0.11964976,0.15508893,0.48684165,0
21732080000,21732080000,197388,0.122118026,0.15869378,0.48570025,0
21732212000,21732151636,197388,0.12047496,0.15684009,0.49007258,0
21732220000,21732220000,197388,0.12086886,0.15916608,0.48877499,0
21732344000,21732289600,197388,0.11915834,0.1551312,0.4879484,0
21732368000,21732362000,197388,0.12150478,0.15244034,0.48636174,0
21732484000,21732433200,197388,0.11962972,0.15679644,0.4887581,0
21732500000,21732500000,197388,0.12600222,0.16250888,0.48077667,0
21732628000,21732570545,197388,0.12177887,0.15589833,0.48754677,0
21732640000,21732640000,197388,0.11839755,0.15647495,0.48684815,0
21732764000,21732707200,197388,0.12028783,0.15729573,0.4872655,0
21732776000,21732776000,197388,0.12273861,0.15097772,0.48678336,0
21732908000,21732847272,197388,0.1193726,0.15374558,0.486872,0
21732920000,21732920000,197388,0.122824356,0.16083816,0.4882188,0
21733052000,21732992000,197388,0.12277631,0.15526631,0.4882288,0
21733064000,21733064000,197388,0.12134479,0.15457216,0.48328492,0
21733196000,21733135636,197388,0.12054374,0.15527487,0.48758715,0
21733208000,21733208000,197388,0.115030564,0.15597206,0.48912275,0
21733340000,21733280000,197388,0.12268704,0.15588808,0.4886659,0
21733352000,21733352000,197388,0.113084175,0.15986694,0.48498166,0
21733484000,21733424000,197388,0.121006146,0.15502901,0.48712158,0
21733496000,21733496000,197388,0.120056786,0.16220589,0.49047157,0
21733628000,21733568000,197388,0.11898948,0.15728611,0.48840758,0
21733640000,21733640000,197388,0.120555595,0.16291764,0.48095778,0
21733772000,21733711636,197388,0.120129764,0.1531055,0.4864453,0
21733784000,21733784000,197388,0.12648794,0.15286542,0.48150656,0
21733916000,21733855636,197388,0.120081365,0.1581737,0.4887186,0
21733928000,21733928000,197388,0.12208753,0.15300214,0.48097,0
21734060000,21733999272,197388,0.11855247,0.15795965,0.48966062,0
21734072000,21734072000,197388,0.11321247,0.15092713,0.49205664,0
21734204000,21734143272,197388,0.113020174,0.15398535,0.49141327,0
21734216000,21734216000,197388,0.11447058,0.15603618,0.4892538,0
21734348000,21734288000,197388,0.116827846,0.15241838,0.48905244,0
21734360000,21734360000,197388,0.116206884,0.15970643,0.48992342,0
21734492000,21734432000,197388,0.11826701,0.15518916,0.4869912,0
21734504000,21734504000,197388,0.11873321,0.15526898,0.49091843,0
21734636000,21734576000,197388,0.12066757,0.15543038,0.48680177,0
21734648000,21734648000,197388,0.117572464,0.15636392,0.4906202,0
21734780000,21734719636,197388,0.120927855,0.15755132,0.4863212,0
21734792000,21734792000,197388,0.12446072,0.14977218,0.48289898,0
21734924000,21734862909,197388,0.11740731,0.15716596,0.49019068,0
21734936000,21734936000,197388,0.11957747,0.15313415,0.48695982,0
21735068000,21735007272,197388,0.12309458,0.15555356,0.48854256,0
21735080000,21735080000,197388,0.12405036,0.158607,0.487612,0
21735212000,21735150909,197388,0.12210726,0.15676363,0.4873836,0
21735224000,21735224000,197388,0.117745236,0.16512832,0.4876073,0
21735356000,21735296000,197388,0.121338695,0.15763958,0.48935026,0
21735368000,21735368000,197388,0.123453744,0.15354583,0.4899958,0
21735500000,21735440000,197388,0.12128219,0.15841869,0.48701409,0
21735512000,21735512000,197388,0.123051815,0.15547667,0.49143106,0
21735644000,21735583272,197388,0.1177556,0.15791045,0.48733553,0
21735656000,21735656000,197388,0.11988634,0.15457217,0.4949992,0
21735788000,21735728000,197388,0.11934192,0.15756261,0.4891728,0
21735800000,21735800000,197388,0.119853064,0.15811312,0.4829134,0
21735932000,21735871636,197388,0.119610295,0.15748186,0.48870635,0
21735944000,21735944000,197388,0.118550666,0.15018557,0.48787218,0
21736076000,21736015636,197388,0.12007579,0.1581587,0.48798147,0
21736088000,21736088000,197388,0.124146156,0.15841474,0.4885708,0
21736220000,21736158909,197388,0.11805403,0.15739778,0.4898557,0
21736232000,21736232000,197388,0.1203578,0.15709089,0.4799518,0
21736360000,21736303272,197388,0.11593803,0.15784755,0.48722446,0
21736376000,21736376000,197388,0.12682098,0.15409969,0.48687768,0
21736508000,21736447636,197388,0.11686274,0.15646294,0.48971584,0
21736520000,21736520000,197388,0.11516734,0.16244668,0.4876931,0
21736652000,21736591636,197388,0.11645411,0.15830246,0.48745722,0
21736664000,21736664000,197388,0.11793356,0.15166877,0.48927847,0
21736796000,21736736000,197388,0.11730372,0.1566645,0.48930833,0
21736808000,21736808000,197388,0.11641366,0.16061515,0.4896738,0
21736936000,21736877090,197388,0.11760248,0.15720342,0.4869903,0
21736948000,21736948000,197388,0.1249685,0.15332712,0.4905738,0
21737072000,21737017200,197388,0.11543516,0.15646133,0.4877653,0
21737084000,21737084000,197388,0.11622929,0.15653948,0.4909825,0
21737216000,21737155636,197388,0.11512329,0.15722215,0.48956904,0
21737224000,21737224000,197388,0.11744035,0.16045491,0.4903132,0
21737348000,21737292800,197388,0.11771464,0.15721565,0.48925638,0
21737372000,21737364000,197388,0.11567369,0.1544377,0.4904585,0
21737480000,21737432000,197388,0.11881758,0.15743458,0.4883995,0
21737516000,21737502666,197388,0.11882525,0.15605518,0.48727393,0
21737624000,21737574666,197388,0.11756284,0.15640107,0.48864576,0
21737648000,21737642000,197388,0.11545701,0.16114064,0.48919135,0
21737768000,21737713200,197388,0.11620593,0.15726475,0.48735783,0
21737780000,21737780000,197388,0.115493804,0.16151701,0.48913336,0
21737912000,21737850545,197388,0.11384462,0.15823379,0.48874873,0
21737924000,21737924000,197388,0.11638942,0.16441908,0.4898133,0
21738052000,21737995636,197388,0.11125361,0.16196017,0.48983264,0
21738068000,21738068000,197388,0.109600715,0.16226174,0.48624134,0
21738200000,21738140000,197388,0.102609895,0.16598831,0.48957753,0
21738212000,21738212000,197388,0.10297412,0.16056143,0.49063975,0
21738344000,21738283636,197388,0.09107525,0.16994455,0.4904934,0
21738352000,21738352000,197388,0.08408583,0.18110307,0.4881067,0
21738476000,21738421600,197388,0.07637838,0.17899594,0.48915336,0
21738500000,21738494000,197388,0.06670777,0.18406123,0.4875914,0
21738620000,21738566000,197388,0.06056677,0.18816216,0.48834357,0
21738644000,21738638000,197388,0.056515664,0.1975894,0.48528945,0
21738764000,21738709200,197388,0.040688045,0.19939001,0.48453784,0
21738776000,21738776000,197388,0.03087788,0.2020929,0.48231617,0
21738904000,21738847272,197388,0.026215771,0.20950921,0.48211616,0
21738920000,21738920000,197388,0.016192757,0.21114185,0.4830724,0
21739048000,21738988363,197388,0.007906414,0.21459024,0.48023233,0
21739060000,21739060000,197388,0.0017095845,0.21466818,0.4816046,0
21739184000,21739129600,197388,-0.003271297,0.2213742,0.48016015,0
21739208000,21739202000,197388,-0.00955006,0.22573808,0.47867006,0
21739328000,21739272800,197388,-0.04762174,0.18648872,0.48798084,0
21739340000,21739340000,197388,-0.07554373,0.15516886,0.4982132,0
21739472000,21739411636,197388,-0.08736193,0.14439829,0.4974635,0
21739484000,21739484000,197388,-0.088754185,0.14794332,0.4927093,0
21739616000,21739555636,197388,-0.085252844,0.14665318,0.49897823,0
21739628000,21739628000,197388,-0.07904888,0.155019,0.5034646,0
21739756000,21739699636,197388,-0.07805727,0.14915204,0.49805218,0
21739772000,21739772000,197388,-0.081899896,0.15105973,0.49244535,0
21739904000,21739844000,197388,-0.074109286,0.15141375,0.49979588,0
21739916000,21739916000,197388,-0.0766429,0.14734167,0.49604663,0
21740048000,21739987636,197388,-0.07382074,0.15244555,0.49851146,0
21740056000,21740056000,197388,-0.07245741,0.15180835,0.4952868,0
21740176000,21740125600,197388,-0.07150205,0.15279202,0.49762687,0
21740204000,21740198000,197388,-0.066187724,0.15173721,0.4967433,0
21740324000,21740269600,197388,-0.07110164,0.1524844,0.49628505,0
21740348000,21740342000,197388,-0.06879152,0.15311825,0.49696752,0
21740468000,21740412400,197388,-0.070488356,0.15473564,0.49773747,0
21740480000,21740480000,197388,-0.071585275,0.14585862,0.49723864,0
21740612000,21740551636,197388,-0.07020315,0.15377426,0.49943042,0
21740624000,21740624000,197388,-0.068066694,0.15740305,0.49409413,0
21740756000,21740696000,197388,-0.07090062,0.15317301,0.49958333,0
21740768000,21740768000,197388,-0.070340276,0.16010962,0.5006413,0
21740900000,21740840000,197388,-0.07397235,0.1546572,0.49808884,0
21740912000,21740912000,197388,-0.07789659,0.15553017,0.4951494,0
21741044000,21740984000,197388,-0.07086417,0.1544183,0.49680805,0
21741056000,21741056000,197388,-0.08548631,0.15426382,0.48867667,0
21741188000,21741128000,197388,-0.07409748,0.15374258,0.49860704,0
21741200000,21741200000,197388,-0.07201764,0.15511897,0.49726382,0
21741332000,21741272000,197388,-0.075445354,0.15266784,0.49554253,0
21741340000,21741340000,197388,-0.081512064,0.15782206,0.4972069,0
21741464000,21741409600,197388,-0.07654121,0.15316047,0.49647364,0
21741488000,21741482000,197388,-0.075521246,0.15915562,0.49845943,0
21741608000,21741552800,197388,-0.07661036,0.1532766,0.49795866,0
21741620000,21741620000,197388,-0.07564686,0.15623184,0.5001563,0
21741748000,21741690909,197388,-0.07884235,0.15449674,0.49682212,0
21741764000,21741764000,197388,-0.08019971,0.14830597,0.49568498,0
21741892000,21741835636,197388,-0.080117166,0.15510392,0.49558905,0
21741908000,21741908000,197388,-0.08029507,0.14697394,0.49273327,0
21742040000,21741979272,197388,-0.07983817,0.15571502,0.49943885,0
21742052000,21742052000,197388,-0.08197256,0.1545005,0.50091475,0
21742180000,21742120363,197388,-0.08120711,0.15231857,0.495061,0
21742192000,21742192000,197388,-0.08121273,0.15777133,0.50023425,0
21742316000,21742258800,197388,-0.08149024,0.15306596,0.4969523,0
21742328000,21742328000,197388,-0.08500668,0.15185662,0.49761507,0
21742460000,21742399272,197388,-0.08421857,0.15366466,0.49657255,0
21742472000,21742472000,197388,-0.082415976,0.14893205,0.50406814,0
21742600000,21742542181,197388,-0.085763134,0.15475816,0.49636745,0
21742612000,21742612000,197388,-0.07841775,0.15218328,0.4934515,0
21742732000,21742680800,197388,-0.08542114,0.15196413,0.49721584,0
21742748000,21742748000,197388,-0.08322788,0.1552141,0.4915115,0
21742880000,21742818545,197388,-0.083425015,0.1515636,0.49654445,0
21742892000,21742892000,197388,-0.0862643,0.15563154,0.4931901,0
21743020000,21742962909,197388,-0.088904135,0.1522347,0.49870333,0
21743032000,21743032000,197388,-0.0864513,0.1586921,0.49541935,0
21743156000,21743101200,197388,-0.08647496,0.1535847,0.49514174,0
21743168000,21743168000,197388,-0.0919139,0.15327133,0.4949214,0
21743300000,21743238545,197388,-0.088656865,0.15413466,0.49637708,0
21743308000,21743308000,197388,-0.07833258,0.14977483,0.49792466,0
21743432000,21743376800,197388,-0.08797155,0.15431625,0.4941659,0
21743456000,21743448000,197388,-0.091218725,0.15200257,0.49523485,0
21743576000,21743520000,197388,-0.08961732,0.15254365,0.49493033,0
21743588000,21743588000,197388,-0.09362284,0.147243,0.5011103,0
21743716000,21743658909,197388,-0.08939414,0.14959726,0.49663046,0
21743732000,21743732000,197388,-0.089267336,0.15102218,0.49528047,0
21743860000,21743801818,197388,-0.0904742,0.15143093,0.49542728,0
21743872000,21743872000,197388,-0.09199139,0.15451007,0.48925498,0
21743996000,21743940800,197388,-0.09090765,0.15268432,0.494289,0
21744008000,21744008000,197388,-0.08498913,0.14785597,0.49696216,0
21744136000,21744077818,197388,-0.09337165,0.15099151,0.49572468,0
21744148000,21744148000,197388,-0.09280333,0.15118702,0.49636468,0
21744272000,21744216000,197388,-0.09314313,0.15319769,0.49711624,0
21744284000,21744284000,197388,-0.0854295,0.15167437,0.4960423,0
21744416000,21744355272,197388,-0.094279885,0.1513829,0.49776322,0
21744428000,21744428000,197388,-0.090934776,0.15133475,0.49822116,0
21744560000,21744499272,197388,-0.09456813,0.15409628,0.4959526,0
21744572000,21744572000,197388,-0.09068507,0.1514361,0.5037174,0
21744700000,21744642909,197388,-0.0943958,0.15402773,0.49698102,0
21744716000,21744716000,197388,-0.08752346,0.15813896,0.49541003,0
21744848000,21744786909,197388,-0.09482976,0.14996326,0.4950217,0
21744856000,21744856000,197388,-0.09524409,0.15222184,0.49508908,0
21744980000,21744926000,197388,-0.09408625,0.15250418,0.49441752,0
21745000000,21744996000,197388,-0.096856,0.1499599,0.4991436,0
21745112000,21745062666,197388,-0.09495686,0.15218651,0.49780074,0
21745148000,21745134666,197388,-0.092251584,0.15268403,0.4916281,0
21745244000,21745201500,197388,-0.09614076,0.152071,0.49649075,0
21745292000,21745274000,197388,-0.098622754,0.14859277,0.49583808,0
21745388000,21745344500,197388,-0.0934963,0.15250093,0.49367443,0
21745424000,21745412000,197388,-0.09267833,0.15127812,0.49437112,0
21745528000,21745482222,197388,-0.09802876,0.1484421,0.49641377,0
21745556000,21745550000,197388,-0.09946598,0.15428238,0.49020734,0
21745676000,21745622000,197388,-0.09826892,0.15035324,0.49533316,0
21745696000,21745692000,197388,-0.09643391,0.15309127,0.49665415,0
21745808000,21745759555,197388,-0.09520951,0.15327886,0.49529865,0
21745840000,21745828000,197388,-0.09518745,0.15591326,0.49538988,0
21745940000,21745897000,197388,-0.09733555,0.15123335,0.4954844,0
21745976000,21745964000,197388,-0.09964764,0.15107349,0.49540672,0
21746084000,21746035555,197388,-0.09841093,0.15269133,0.49675953,0
21746120000,21746108000,197388,-0.10126814,0.14917871,0.49558625,0
21746228000,21746179555,197388,-0.09874605,0.14955181,0.49591896,0
21746264000,21746250666,197388,-0.099055275,0.14861956,0.49455163,0
21746368000,21746322222,197388,-0.0976763,0.15036108,0.4938058,0
21746396000,21746390000,197388,-0.095392145,0.14943701,0.4916244,0
21746516000,21746461600,197388,-0.09857317,0.15133451,0.49540693,0
21746540000,21746534000,197388,-0.10332087,0.15393567,0.49810606,0
21746660000,21746606000,197388,-0.09862666,0.15186688,0.49533185,0
21746684000,21746678000,197388,-0.097953916,0.14743355,0.49021,0
21746800000,21746748400,197388,-0.097869895,0.15073036,0.49485132,0
21746824000,21746818000,197388,-0.09777102,0.14795756,0.49712235,0
21746936000,21746888000,197388,-0.0972878,0.1519808,0.49584144,0
21746972000,21746957333,197388,-0.10507269,0.15515614,0.49073285,0
21747068000,21747024500,197388,-0.10085486,0.15049548,0.49502957,0
21747104000,21747092000,197388,-0.10430659,0.15429816,0.4918844,0
21747212000,21747163111,197388,-0.099553935,0.15013337,0.49403986,0
21747248000,21747234666,197388,-0.097351365,0.1481099,0.49100932,0
21747352000,21747305333,197388,-0.09903613,0.15064786,0.49279785,0
21747388000,21747376000,197388,-0.10062282,0.1469027,0.4943111,0
21747496000,21747448000,197388,-0.10003722,0.151184,0.49499103,0
21747532000,21747520000,197388,-0.10159063,0.15398394,0.4925693,0
21747628000,21747589000,197388,-0.099129364,0.14780712,0.4941932,0
21747668000,21747656000,197388,-0.09862658,0.15011863,0.4950623,0
21747776000,21747727555,197388,-0.099633835,0.14861822,0.49360678,0
21747808000,21747798666,197388,-0.103593014,0.1547443,0.4904619,0
21747916000,21747870666,197388,-0.09917801,0.14991155,0.49512666,0
21747944000,21747938000,197388,-0.10294553,0.15308495,0.49245656,0
21748060000,21748007600,197388,-0.10157372,0.15261813,0.49394104,0
21748084000,21748078000,197388,-0.09967093,0.1539576,0.49507797,0
21748196000,21748147111,197388,-0.100536965,0.15028735,0.4950114,0
21748228000,21748217333,197388,-0.10141089,0.15137629,0.49226654,0
21748328000,21748285500,197388,-0.10317359,0.14769495,0.49296147,0
21748376000,21748358000,197388,-0.10119754,0.14776047,0.4925839,0
21748472000,21748429500,197388,-0.10221187,0.14889532,0.4944233,0
21748520000,21748502000,197388,-0.10184723,0.14907248,0.4961159,0
21748616000,21748574000,197388,-0.10356473,0.14856878,0.49486434,0
21748664000,21748645000,197388,-0.10316628,0.15146895,0.4924289,0
21748748000,21748712000,197388,-0.10182221,0.1525222,0.49158844,0
21748808000,21748781600,197388,-0.10220052,0.15358874,0.495076,0
21748880000,21748850000,197388,-0.10328652,0.15028211,0.49438462,0
21748952000,21748920666,197388,-0.10221583,0.1522941,0.49353883,0
21749024000,21748993333,197388,-0.1020876,0.15127656,0.4953011,0
21749096000,21749064666,197388,-0.102776706,0.14925106,0.49389172,0
21749168000,21749136000,197388,-0.10102242,0.1523649,0.49307543,0
21749228000,21749204000,197388,-0.1051721,0.15060544,0.49504456,0
21749312000,21749275428,197388,-0.10323784,0.14737947,0.49369597,0
21749372000,21749347200,197388,-0.09972941,0.15396409,0.4936125,0
21749456000,21749419428,197388,-0.09993353,0.15012151,0.49364603,0
21749516000,21749491200,197388,-0.10060101,0.1528391,0.49359947,0
21749588000,21749558000,197388,-0.10335286,0.14938082,0.49233425,0
21749660000,21749630000,197388,-0.10200869,0.15165111,0.49310714,0
21749732000,21749701333,197388,-0.10477161,0.14854458,0.49190557,0
21749804000,21749772666,197388,-0.10115313,0.15079471,0.4912107,0
21749876000,21749845333,197388,-0.10380545,0.15038593,0.49372268,0
21749936000,21749912000,197388,-0.1029345,0.15032648,0.4936154,0
21750020000,21749984000,197388,-0.10124555,0.14866835,0.49347585,0
21750080000,21750056000,197388,-0.10414375,0.15486756,0.49739394,0
21750164000,21750128000,197388,-0.1028042,0.15047784,0.49501637,0
21750224000,21750200000,197388,-0.10216621,0.1513369,0.49349776,0
21750308000,21750272000,197388,-0.103644595,0.15111421,0.4944625,0
21750364000,21750340800,197388,-0.10662776,0.15046363,0.49575835,0
21750440000,21750408666,197388,-0.10060739,0.15300308,0.49335846,0
21750512000,21750480666,197388,-0.09935572,0.15520853,0.4920485,0
21750584000,21750552000,197388,-0.104578495,0.15053385,0.49298427,0
21750644000,21750620000,197388,-0.102199554,0.14877458,0.49522194,0
21750728000,21750691428,197388,-0.10110691,0.14884716,0.4948958,0
21750788000,21750764000,197388,-0.10383499,0.14981876,0.49232823,0
21750872000,21750834857,197388,-0.10246979,0.1512149,0.49120557,0
21750920000,21750902000,197388,-0.10440845,0.15285566,0.4941599,0
21751016000,21750973000,197388,-0.10561584,0.15258262,0.49354511,0
21751064000,21751045000,197388,-0.104507335,0.15067673,0.49380755,0
21751148000,21751112000,197388,-0.10337994,0.15335958,0.49468493,0
21751208000,21751183200,197388,-0.102671996,0.15077427,0.49881655,0
21751280000,21751250000,197388,-0.10493537,0.15328184,0.49547172,0
21751352000,21751322000,197388,-0.101849794,0.15323514,0.49315667,0
21751424000,21751394000,197388,-0.10540934,0.14957385,0.4945005,0
21751496000,21751465333,197388,-0.10293153,0.14999944,0.49539742,0
21751556000,21751532000,197388,-0.10401537,0.15148246,0.49137756,0
21751640000,21751604000,197388,-0.10450605,0.15050025,0.48996824,0
21751700000,21751675200,197388,-0.10536007,0.15157752,0.4913984,0
21751772000,21751742000,197388,-0.10409604,0.15041938,0.49237877,0
21751840000,21751813333,197388,-0.0998159,0.1514459,0.49102682,0
21751912000,21751882000,197388,-0.10247972,0.1512166,0.49357045,0
21751984000,21751954000,197388,-0.103261225,0.15111518,0.49591944,0
21752044000,21752020800,197388,-0.103727005,0.15277405,0.49739066,0
21752120000,21752089333,197388,-0.10237093,0.15028647,0.49348995,0
21752180000,21752156000,197388,-0.10195919,0.15114243,0.49414206,0
21752264000,21752227428,197388,-0.1059335,0.15294099,0.49304432,0
21752320000,21752299200,197388,-0.10227249,0.15015279,0.49431583,0
21752396000,21752366000,197388,-0.102005385,0.14917308,0.49321994,0
21752468000,21752436666,197388,-0.10159364,0.150736,0.49513334,0
21752528000,21752504000,197388,-0.10363465,0.15114468,0.49506718,0
21752612000,21752576000,197388,-0.10362201,0.14985678,0.49199072,0
21752672000,21752648000,197388,-0.10534825,0.1513925,0.4954985,0
21752752000,21752719428,197388,-0.1071804,0.15081948,0.49353784,0
21752816000,21752791200,197388,-0.1029585,0.15264302,0.49048844,0
21752900000,21752863428,197388,-0.10352501,0.15045981,0.49337363,0
21752960000,21752935200,197388,-0.10211618,0.15085004,0.49618092,0
21753032000,21753002000,197388,-0.10605155,0.15280454,0.49480578,0
21753104000,21753074000,197388,-0.1049298,0.1512038,0.4942822,0
21753176000,21753144666,197388,-0.10123347,0.15044011,0.49199224,0
21753248000,21753217333,197388,-0.10440713,0.15081039,0.4936708,0
21753320000,21753289333,197388,-0.10493487,0.15153073,0.49170732,0
21753392000,21753361333,197388,-0.10314457,0.15032521,0.49418938,0
21753452000,21753428000,197388,-0.10184812,0.14926831,0.49361187,0
21753536000,21753499428,197388,-0.1015906,0.1501225,0.49601877,0
21753596000,21753572000,197388,-0.105114,0.1526175,0.49250036,0
21753680000,21753643428,197388,-0.10433863,0.14968497,0.49395055,0
21753740000,21753716000,197388,-0.098109454,0.15044606,0.49514356,0
21753824000,21753788000,197388,-0.100808695,0.15300962,0.49328056,0
21753884000,21753858400,197388,-0.106536984,0.15409927,0.4945511,0
21753956000,21753926000,197388,-0.10636805,0.15330334,0.49423528,0
21754028000,21753998000,197388,-0.104308866,0.15092938,0.4915468,0
21754100000,21754070000,197388,-0.10436263,0.1502622,0.49432096,0
21754172000,21754142000,197388,-0.10486333,0.15151908,0.49371916,0
21754244000,21754214000,197388,-0.10445475,0.14966267,0.49580532,0
21754316000,21754286000,197388,-0.10610516,0.1522209,0.4903048,0
21754388000,21754358000,197388,-0.10244459,0.1534513,0.4923433,0
21754460000,21754428000,197388,-0.105243504,0.15331158,0.49199936,0
21754520000,21754496000,197388,-0.102219366,0.15111427,0.4966693,0
21754600000,21754566857,197388,-0.10391929,0.15167278,0.49178204,0
21754664000,21754638400,197388,-0.10306847,0.1524109,0.49133858,0
21754732000,21754705333,197388,-0.10456108,0.15124434,0.49229217,0
21754808000,21754776666,197388,-0.10377036,0.15371832,0.49285907,0
21754880000,21754848666,197388,-0.10240229,0.15166889,0.49417326,0
21754948000,21754920000,197388,-0.10475235,0.15085031,0.4924044,0
21755024000,21754992666,197388,-0.10303139,0.1511185,0.49406573,0
21755096000,21755065333,197388,-0.104701385,0.15110372,0.49690986,0
21755168000,21755136666,197388,-0.10314226,0.15075666,0.49353147,0
21755240000,21755208666,197388,-0.10465061,0.15224174,0.49237955,0
21755300000,21755276000,197388,-0.10478335,0.1547632,0.4940051,0
21755384000,21755346857,197388,-0.101619765,0.14994815,0.49243507,0
21755432000,21755414000,197388,-0.10501914,0.15083525,0.49321482,0
21755528000,21755486000,197388,-0.10365557,0.15149346,0.49314797,0
21755572000,21755556000,197388,-0.104680486,0.1521355,0.49591815,0
21755672000,21755628500,197388,-0.105820455,0.15075395,0.4941542,0
21755708000,21755696000,197388,-0.10450055,0.15081412,0.49512658,0
21755816000,21755766222,197388,-0.10303412,0.15015759,0.49447972,0
21755840000,21755834000,197388,-0.10375813,0.15101941,0.4943816,0
21755960000,21755905200,197388,-0.103173986,0.14979683,0.49311757,0
21755972000,21755972000,197388,-0.105392896,0.14952841,0.49550185,0
21756104000,21756042545,197388,-0.106033005,0.15001775,0.49319685,0
21756116000,21756116000,197388,-0.09817952,0.15744857,0.49317586,0
21756248000,21756186545,197388,-0.101820014,0.14920066,0.49454924,0
21756260000,21756260000,197388,-0.10556644,0.14944273,0.48793015,0
21756392000,21756331636,197388,-0.103692494,0.15058973,0.4941635,0
21756404000,21756404000,197388,-0.10686976,0.14994578,0.49753818,0
21756536000,21756475636,197388,-0.103557274,0.15122163,0.49530905,0
21756548000,21756548000,197388,-0.1050839,0.14968921,0.4876946,0
21756680000,21756620000,197388,-0.10571983,0.15054105,0.49348712,0
21756692000,21756692000,197388,-0.097121395,0.15397508,0.49661717,0
21756824000,21756763272,197388,-0.10387254,0.14929183,0.49425548,0
21756836000,21756836000,197388,-0.108623534,0.15264,0.49379393,0
21756968000,21756908000,197388,-0.10685074,0.15234274,0.49190187,0
21756980000,21756980000,197388,-0.09977169,0.1446648,0.49144936,0
21757112000,21757051636,197388,-0.1063245,0.15054186,0.49423614,0
21757124000,21757124000,197388,-0.10380181,0.14859347,0.49010512,0
21757256000,21757195272,197388,-0.10635658,0.15138057,0.4934609,0
21757264000,21757264000,197388,-0.10660174,0.15129349,0.495622,0
21757384000,21757333200,197388,-0.10541638,0.14956121,0.49301073,0
21757408000,21757402000,197388,-0.104868926,0.14834896,0.49696505,0
21757516000,21757469777,197388,-0.106037855,0.14886396,0.4930197,0
21757544000,21757538000,197388,-0.10283771,0.15040684,0.4908018,0
21757664000,21757609200,197388,-0.105105996,0.15141313,0.49183908,0
21757676000,21757676000,197388,-0.10661982,0.15058324,0.4951319,0
21757804000,21757745818,197388,-0.103048004,0.1501373,0.49256453,0
21757816000,21757816000,197388,-0.1078204,0.15014717,0.4937515,0
21757948000,21757888000,197388,-0.10548839,0.15012938,0.49394396,0
21757960000,21757960000,197388,-0.10615211,0.14841211,0.4903441,0
21758092000,21758032000,197388,-0.105762504,0.14975984,0.49439225,0
21758104000,21758104000,197388,-0.10366983,0.14915656,0.4946151,0
21758228000,21758171600,197388,-0.105544604,0.14947927,0.4936939,0
21758240000,21758240000,197388,-0.107221074,0.15283486,0.4987119,0
21758372000,21758310909,197388,-0.10474107,0.14814599,0.4925553,0
21758384000,21758384000,197388,-0.107103914,0.15155947,0.4867074,0
21758516000,21758455272,197388,-0.10574065,0.15178494,0.49518007,0
21758528000,21758528000,197388,-0.10693253,0.15161102,0.4902785,0
21758660000,21758599636,197388,-0.104939856,0.14956656,0.49568325,0
21758672000,21758672000,197388,-0.105674125,0.15220249,0.5027734,0
21758804000,21758742909,197388,-0.10632173,0.15284488,0.49286953,0
21758816000,21758816000,197388,-0.10391153,0.15064266,0.49694943,0
21758944000,21758886181,197388,-0.10512076,0.1493105,0.49365032,0
21758960000,21758960000,197388,-0.105283506,0.15662092,0.48965508,0
21759092000,21759031272,197388,-0.10574116,0.15111558,0.49350485,0
21759100000,21759100000,197388,-0.1076075,0.15252915,0.49515477,0
21759224000,21759169600,197388,-0.10563947,0.15160722,0.49229985,0
21759248000,21759242000,197388,-0.10558742,0.15160738,0.49445412,0
21759368000,21759313600,197388,-0.10569886,0.15151882,0.49355012,0
21759392000,21759386000,197388,-0.10721497,0.14862323,0.4963317,0
21759512000,21759457600,197388,-0.10352148,0.1508421,0.49539948,0
21759536000,21759528000,197388,-0.104752794,0.14995128,0.49588513,0
21759656000,21759600000,197388,-0.10426475,0.15064824,0.49256322,0
21759680000,21759672000,197388,-0.10114908,0.14741525,0.48848355,0
21759788000,21759738666,197388,-0.1043982,0.15108126,0.4918266,0
21759824000,21759810666,197388,-0.107770175,0.15083596,0.4943365,0
21759920000,21759878000,197388,-0.106388375,0.15229368,0.49187317,0
21759968000,21759950000,197388,-0.10535495,0.15270725,0.49072358,0
21760064000,21760021000,197388,-0.10429917,0.15173282,0.4941121,0
21760112000,21760093000,197388,-0.107448965,0.15225513,0.4938921,0
21760196000,21760160000,197388,-0.10755617,0.15096433,0.49502563,0
21760256000,21760231200,197388,-0.10402801,0.14953057,0.49437258,0
21760336000,21760302857,197388,-0.10682122,0.1512985,0.49337426,0
21760400000,21760375200,197388,-0.10615349,0.14965738,0.49506733,0
21760480000,21760446285,197388,-0.10523298,0.15285754,0.49282208,0
21760532000,21760513000,197388,-0.10518055,0.15462139,0.49233526,0
21760628000,21760585500,197388,-0.10453294,0.15184379,0.49515557,0
21760676000,21760657000,197388,-0.104067475,0.15178268,0.49323297,0
21760772000,21760729500,197388,-0.10343747,0.15157774,0.49169827,0
21760820000,21760801000,197388,-0.106689885,0.15323114,0.49119356,0
21760904000,21760868000,197388,-0.10501365,0.14836441,0.49221373,0
21760964000,21760940000,197388,-0.103439905,0.15026765,0.49193,0
21761048000,21761010857,197388,-0.104812965,0.15307155,0.49414453,0
21761108000,21761082400,197388,-0.108723596,0.14808567,0.492383,0
21761188000,21761154285,197388,-0.10792017,0.15015137,0.49324593,0
21761240000,21761221000,197388,-0.10675579,0.14976944,0.49215585,0
21761336000,21761293000,197388,-0.104361765,0.15259226,0.49460882,0
21761384000,21761365000,197388,-0.10275933,0.15105641,0.49088734,0
21761468000,21761432000,197388,-0.10619679,0.1501699,0.49517357,0
21761528000,21761503200,197388,-0.10399943,0.15105866,0.49212775,0
21761612000,21761575428,197388,-0.10818535,0.15078315,0.4923663,0
21761668000,21761646400,197388,-0.10568446,0.15024887,0.49401948,0
21761756000,21761716571,197388,-0.10692086,0.15212308,0.49207836,0
21761800000,21761784000,197388,-0.10314572,0.15140766,0.49236277,0
21761888000,21761850857,197388,-0.105411775,0.15106635,0.49418226,0
21761936000,21761918000,197388,-0.10409623,0.15237664,0.493702,0
21762032000,21761989000,197388,-0.10493361,0.15049146,0.49021512,0
21762068000,21762056000,197388,-0.10804739,0.15474437,0.4903234,0
21762176000,21762127111,197388,-0.10716816,0.15088499,0.49303743,0
21762200000,21762194000,197388,-0.108387634,0.15328774,0.49328327,0
21762320000,21762265200,197388,-0.10449236,0.14954425,0.4943131,0
21762332000,21762332000,197388,-0.10012677,0.15843344,0.49238294,0
21762464000,21762402181,197388,-0.10558035,0.15179108,0.49333987,0
21762472000,21762472000,197388,-0.10507859,0.15392572,0.4928794,0
21762596000,21762541200,197388,-0.10283952,0.15010178,0.4930408,0
21762616000,21762610000,197388,-0.10846257,0.15099089,0.4917348,0
21762728000,21762678222,197388,-0.10667039,0.15043052,0.49080583,0
21762752000,21762746000,197388,-0.10603167,0.150706,0.49369746,0
21762872000,21762817600,197388,-0.10652616,0.15101792,0.4933841,0
21762896000,21762888000,197388,-0.10287335,0.14867812,0.4943692,0
21763004000,21762955111,197388,-0.10608864,0.1537155,0.49472857,0
21763028000,21763022000,197388,-0.101911575,0.14718473,0.4970661,0
21763148000,21763092800,197388,-0.10620885,0.15063588,0.49292699,0
21763160000,21763160000,197388,-0.10285491,0.1510319,0.4882425,0
21763292000,21763230545,197388,-0.10431992,0.14979056,0.49253356,0
21763304000,21763304000,197388,-0.0978714,0.1561103,0.49476963,0
21763432000,21763373454,197388,-0.10703369,0.15136476,0.49475744,0
21763448000,21763448000,197388,-0.106262445,0.15087259,0.499246,0
21763576000,21763518909,197388,-0.10698702,0.15234818,0.49317116,0
21763588000,21763588000,197388,-0.104406215,0.1540941,0.4965206,0
21763720000,21763660000,197388,-0.10701622,0.15216997,0.49341637,0
21763732000,21763732000,197388,-0.10697911,0.15669768,0.49582738,0
21763864000,21763804000,197388,-0.106659435,0.15262078,0.4922771,0
21763876000,21763876000,197388,-0.1002449,0.15376225,0.4893754,0
21764008000,21763948000,197388,-0.10694598,0.14881264,0.49313745,0
21764020000,21764020000,197388,-0.11047441,0.15393575,0.4916803,0
21764156000,21764092363,197388,-0.10659076,0.1492022,0.4935758,0
21764168000,21764168000,197388,-0.10047159,0.14857863,0.4903099,0
21764296000,21764238181,197388,-0.106371775,0.15032601,0.49440917,0
21764312000,21764312000,197388,-0.107524425,0.16176572,0.49337813,0
21764444000,21764383272,197388,-0.10563879,0.15068665,0.49305344,0
21764456000,21764456000,197388,-0.11095478,0.14724718,0.4942083,0
21764584000,21764524363,197388,-0.10596025,0.15101384,0.4914455,0
21764600000,21764600000,197388,-0.106518276,0.14850922,0.49759135,0
21764732000,21764670545,197388,-0.1062728,0.15035497,0.49139604,0
21764744000,21764744000,197388,-0.10528786,0.15068649,0.49928743,0
21764876000,21764815272,197388,-0.105389036,0.15254998,0.49237666,0
21764888000,21764888000,197388,-0.108763434,0.15074702,0.49821207,0
21765020000,21764958909,197388,-0.106536865,0.15215659,0.4919831,0
21765032000,21765032000,197388,-0.10584318,0.14926682,0.49386606,0
21765164000,21765103272,197388,-0.10770218,0.15329671,0.4916745,0
21765176000,21765176000,197388,-0.10272095,0.14680766,0.4978461,0
21765308000,21765248000,197388,-0.106147274,0.1528465,0.4916048,0
21765320000,21765320000,197388,-0.10740831,0.1517169,0.50146407,0
21765452000,21765391636,197388,-0.10575611,0.15102354,0.49269253,0
21765464000,21765464000,197388,-0.10265373,0.14788648,0.48884168,0
21765596000,21765534909,197388,-0.10635106,0.15026774,0.4945961,0
21765608000,21765608000,197388,-0.10319522,0.15129878,0.496112,0
21765740000,21765678545,197388,-0.10579611,0.1524256,0.4922113,0
21765752000,21765752000,197388,-0.10289646,0.14842995,0.48987868,0
21765884000,21765823636,197388,-0.1060691,0.15167153,0.49213502,0
21765896000,21765896000,197388,-0.10516215,0.15042841,0.48946136,0
21766028000,21765967272,197388,-0.105491124,0.1520487,0.49426264,0
21766040000,21766040000,197388,-0.1093509,0.14730221,0.49022144,0
21766168000,21766110909,197388,-0.10645971,0.15280424,0.49482736,0
21766184000,21766184000,197388,-0.10602077,0.15572296,0.50093806,0
21766316000,21766255636,197388,-0.10612762,0.15228903,0.49174666,0
21766328000,21766328000,197388,-0.10084665,0.152445,0.48786524,0
21766460000,21766398181,197388,-0.10573207,0.1512962,0.49235627,0
21766468000,21766468000,197388,-0.107221425,0.15100849,0.49459422,0
21766588000,21766534800,197388,-0.10615461,0.1519864,0.49252272,0
21766612000,21766606000,197388,-0.10436038,0.14958176,0.49524218,0
21766736000,21766678400,197388,-0.10466577,0.15142177,0.4933443,0
21766748000,21766748000,197388,-0.1041492,0.15308312,0.48732802,0
21766876000,21766818909,197388,-0.10604078,0.15389784,0.49327332,0
21766892000,21766892000,197388,-0.10836578,0.15369622,0.4923156,0
21767024000,21766964000,197388,-0.107757986,0.1513192,0.49465337,0
21767036000,21767036000,197388,-0.10190028,0.151858,0.49610642,0
21767164000,21767106909,197388,-0.10703196,0.15341115,0.49206394,0
21767180000,21767180000,197388,-0.10329375,0.15397604,0.4905463,0
21767312000,21767249090,197388,-0.10695609,0.15163752,0.49215028,0
21767320000,21767320000,197388,-0.108952925,0.15750584,0.48952612,0
21767444000,21767387600,197388,-0.10613521,0.15211515,0.4921929,0
21767468000,21767460000,197388,-0.107011825,0.1536485,0.4960239,0
21767576000,21767527555,197388,-0.10509596,0.15010948,0.4926969,0
21767612000,21767598666,197388,-0.10330241,0.15142655,0.4958954,0
21767704000,21767665500,197388,-0.10419857,0.15167448,0.492618,0
21767756000,21767737000,197388,-0.10471134,0.15134524,0.49118412,0
21767848000,21767809000,197388,-0.10934125,0.15123846,0.4952712,0
21767900000,21767880000,197388,-0.10446823,0.14770994,0.4934924,0
21767980000,21767947428,197388,-0.10786005,0.15142691,0.49193415,0
21768040000,21768016000,197388,-0.10571771,0.15364891,0.49312425,0
21768128000,21768088571,197388,-0.103895396,0.15233505,0.49084577,0
21768176000,21768158000,197388,-0.10433903,0.15010805,0.49258554,0
21768272000,21768229500,197388,-0.106405824,0.15290135,0.49316743,0
21768316000,21768301000,197388,-0.10656381,0.15462597,0.49222374,0
21768416000,21768373000,197388,-0.10804139,0.15108006,0.49395722,0
21768464000,21768445000,197388,-0.10781577,0.15116546,0.49341464,0
21768560000,21768517500,197388,-0.104853064,0.14906594,0.49358043,0
21768608000,21768590000,197388,-0.1098229,0.15394144,0.4921236,0
21768704000,21768661500,197388,-0.10593808,0.15124698,0.49167845,0
21768752000,21768734000,197388,-0.10668816,0.15210035,0.49463898,0
21768848000,21768806000,197388,-0.10669618,0.15347725,0.49138042,0
21768896000,21768877000,197388,-0.10862737,0.15137954,0.49280572,0
21768992000,21768948500,197388,-0.105790965,0.15295008,0.49350712,0
21769036000,21769020000,197388,-0.10505818,0.15228155,0.49348596,0
21769120000,21769087428,197388,-0.10723938,0.15140063,0.49184072,0
21769184000,21769160000,197388,-0.10673099,0.15275475,0.4903832,0
21769268000,21769231428,197388,-0.10754627,0.15369987,0.49266607,0
21769328000,21769303200,197388,-0.10871899,0.15005715,0.4908993,0
21769412000,21769375428,197388,-0.105866574,0.15157461,0.49287105,0
21769468000,21769446400,197388,-0.108177714,0.15168105,0.49300677,0
21769552000,21769516000,197388,-0.10424251,0.15084586,0.49275842,0
21769612000,21769588000,197388,-0.105569564,0.15346166,0.49313527,0
21769688000,21769658000,197388,-0.10684832,0.151879,0.49219942,0
21769756000,21769728000,197388,-0.10433768,0.14908856,0.49105698,0
21769820000,21769795200,197388,-0.10750164,0.1507703,0.49310896,0
21769904000,21769867428,197388,-0.105829336,0.15185055,0.4924813,0
21769960000,21769939200,197388,-0.1053771,0.15349804,0.49150583,0
21770048000,21770011428,197388,-0.1070446,0.15302074,0.4911282,0
21770108000,21770083200,197388,-0.108018376,0.15346573,0.49198657,0
21770192000,21770155428,197388,-0.107906416,0.15316206,0.49206537,0
21770252000,21770228000,197388,-0.109992646,0.15131311,0.49140912,0
21770336000,21770298857,197388,-0.104132004,0.15225606,0.4945195,0
21770396000,21770371200,197388,-0.10443415,0.153864,0.4941251,0
21770468000,21770438000,197388,-0.106121324,0.15297739,0.49213824,0
21770540000,21770509333,197388,-0.10451673,0.15090016,0.4940235,0
21770612000,21770581333,197388,-0.103695795,0.15359426,0.49063265,0
21770684000,21770653333,197388,-0.10461877,0.15006505,0.49218655,0
21770756000,21770725333,197388,-0.10583245,0.15177032,0.4939592,0
21770816000,21770792000,197388,-0.10543127,0.15198317,0.49223158,0
21770896000,21770862857,197388,-0.10658576,0.15363869,0.4938311,0
21770948000,21770930000,197388,-0.10349834,0.15629712,0.49246037,0
21771044000,21771001000,197388,-0.107853204,0.1519646,0.49467644,0
21771092000,21771073000,197388,-0.10722828,0.15308134,0.48840958,0
21771188000,21771144500,197388,-0.10983886,0.15242037,0.4914607,0
21771232000,21771216000,197388,-0.10478093,0.15332761,0.49293536,0
21771320000,21771282857,197388,-0.10610995,0.15113524,0.4906978,0
21771380000,21771355200,197388,-0.10614866,0.15553395,0.49053508,0
21771464000,21771427428,197388,-0.10696992,0.15131944,0.49132967,0
21771524000,21771499200,197388,-0.10614117,0.1539905,0.49409056,0
21771604000,21771570857,197388,-0.108699806,0.1524444,0.48945236,0
21771668000,21771643200,197388,-0.1069222,0.15185134,0.4927356,0
21771748000,21771714285,197388,-0.10755207,0.15230207,0.4921359,0
21771800000,21771782000,197388,-0.10418076,0.15396932,0.49384865,0
21771892000,21771852000,197388,-0.1055311,0.1482313,0.492565,0
21771932000,21771920000,197388,-0.1045478,0.15016946,0.4894739,0
21772040000,21771991111,197388,-0.10787177,0.15304378,0.49010816,0
21772064000,21772058000,197388,-0.10353735,0.15277004,0.49459124,0
21772184000,21772129600,197388,-0.10716947,0.15367803,0.48982215,0
21772208000,21772202000,197388,-0.10766384,0.15343094,0.49188536,0
21772328000,21772274000,197388,-0.10528188,0.1528147,0.49250346,0
21772352000,21772346000,197388,-0.107477754,0.15422723,0.48956072,0
21772472000,21772418000,197388,-0.10389327,0.15338151,0.49429616,0
21772496000,21772488000,197388,-0.10663268,0.15734199,0.49414805,0
21772600000,21772555111,197388,-0.10419641,0.15317641,0.49128696,0
21772636000,21772624000,197388,-0.102722995,0.15336356,0.49337262,0
21772736000,21772692000,197388,-0.1090805,0.15419123,0.49333513,0
21772772000,21772760000,197388,-0.10567611,0.15878141,0.49051297,0
21772880000,21772830666,197388,-0.10523933,0.15300833,0.49184445,0
21772916000,21772902666,197388,-0.105581485,0.15333876,0.49134144,0
21773024000,21772974666,197388,-0.10527713,0.1507743,0.4924907,0
21773060000,21773046666,197388,-0.10974323,0.15465938,0.4936162,0
21773156000,21773113500,197388,-0.10266451,0.15434387,0.49112555,0
21773204000,21773185000,197388,-0.10457183,0.15684797,0.49123287,0
21773288000,21773252000,197388,-0.10760979,0.15144162,0.49257854,0
21773344000,21773322400,197388,-0.107188225,0.1532124,0.4945092,0
21773432000,21773394857,197388,-0.10536526,0.15250508,0.49085763,0
21773480000,21773462000,197388,-0.1047055,0.15375519,0.49274075,0
21773576000,21773533000,197388,-0.104701094,0.15174386,0.49132922,0
21773612000,21773600000,197388,-0.105932675,0.15235654,0.49375474,0
21773720000,21773671555,197388,-0.10542488,0.15175231,0.49360862,0
21773756000,21773744000,197388,-0.10676792,0.15545754,0.4938557,0
21773864000,21773816000,197388,-0.10465682,0.1523309,0.49213642,0
21773900000,21773888000,197388,-0.10448354,0.15848091,0.4921149,0
21774004000,21773956444,197388,-0.10476143,0.15113848,0.49242225,0
21774040000,21774028000,197388,-0.10844915,0.15474662,0.49398598,0
21774140000,21774096000,197388,-0.10397951,0.15419121,0.4938596,0
21774176000,21774164000,197388,-0.106315374,0.15382949,0.4938519,0
21774284000,21774236000,197388,-0.105563685,0.15356235,0.493084,0
21774320000,21774308000,197388,-0.102417916,0.15313148,0.49171886,0
21774428000,21774379555,197388,-0.10684746,0.15255307,0.49345812,0
21774464000,21774452000,197388,-0.10805525,0.14952163,0.49416384,0
21774572000,21774523555,197388,-0.10380398,0.15097897,0.49257618,0
21774608000,21774596000,197388,-0.10305691,0.15312803,0.49537238,0
21774716000,21774667111,197388,-0.108736515,0.151839,0.4947423,0
21774752000,21774738666,197388,-0.10418168,0.15217407,0.49000955,0
21774848000,21774806000,197388,-0.105216965,0.15292038,0.49045375,0
21774896000,21774878000,197388,-0.10625925,0.14780518,0.489353,0
21774992000,21774949500,197388,-0.10434438,0.15373118,0.49074656,0
21775040000,21775020000,197388,-0.10820536,0.15227881,0.49221742,0
21775120000,21775087428,197388,-0.10653344,0.15645711,0.4934105,0
21775184000,21775159200,197388,-0.10638038,0.15127943,0.49334478,0
21775268000,21775230285,197388,-0.103543825,0.15277323,0.4926472,0
21775316000,21775297000,197388,-0.10753305,0.15035972,0.48840216,0
21775408000,21775368500,197388,-0.105328836,0.15431017,0.49020785,0
21775448000,21775436000,197388,-0.10891129,0.15352857,0.48929986,0
21775552000,21775506666,197388,-0.10618581,0.15278311,0.4918029,0
21775580000,21775574000,197388,-0.10442733,0.15503532,0.49240324,0
21775696000,21775644800,197388,-0.104627445,0.15220772,0.49109483,0
21775712000,21775712000,197388,-0.10844621,0.15637867,0.49164978,0
21775844000,21775782909,197388,-0.1043996,0.1523067,0.49375913,0
21775856000,21775856000,197388,-0.10847393,0.15208866,0.49180868,0
21775984000,21775926181,197388,-0.10600244,0.15222095,0.49268243,0
21776000000,21776000000,197388,-0.11006386,0.15792257,0.49026728,0
21776128000,21776071272,197388,-0.105455995,0.15442237,0.4934672,0
21776144000,21776144000,197388,-0.1010832,0.14955196,0.49598113,0
21776272000,21776214909,197388,-0.1064814,0.15070383,0.49088725,0
21776288000,21776288000,197388,-0.10480684,0.15318453,0.5005766,0
21776420000,21776359636,197388,-0.10513246,0.15415107,0.49477652,0
21776432000,21776432000,197388,-0.11001624,0.13911587,0.49990496,0
21776564000,21776502909,197388,-0.1059041,0.15167457,0.49425548,0
21776576000,21776576000,197388,-0.10495631,0.15273686,0.48495042,0
21776708000,21776647272,197388,-0.10550176,0.15446062,0.49065349,0
21776720000,21776720000,197388,-0.10395818,0.15481712,0.48522586,0
21776848000,21776790909,197388,-0.10483722,0.15270019,0.4938869,0
21776864000,21776864000,197388,-0.10623452,0.15373431,0.49096543,0
21776996000,21776935272,197388,-0.10518967,0.153495,0.49295402,0
21777008000,21777008000,197388,-0.106880225,0.15185346,0.49086386,0
21777140000,21777080000,197388,-0.10462415,0.15261924,0.49370173,0
21777148000,21777148000,197388,-0.10625352,0.15008746,0.49155626,0
21777272000,21777216400,197388,-0.10428226,0.15352134,0.49234626,0
21777284000,21777284000,197388,-0.11067362,0.14585924,0.49815091,0
21777416000,21777355272,197388,-0.10574259,0.15261663,0.49516195,0
21777428000,21777428000,197388,-0.10544075,0.15547661,0.4943893,0
21777560000,21777498909,197388,-0.10322556,0.15264666,0.49309206,0
21777572000,21777572000,197388,-0.11179411,0.1532443,0.5015799,0
21777704000,21777643272,197388,-0.10511517,0.15282707,0.4940935,0
21777716000,21777716000,197388,-0.106710956,0.15206242,0.49209872,0
21777848000,21777788000,197388,-0.10600516,0.15249455,0.4923903,0
21777860000,21777860000,197388,-0.11395703,0.14972511,0.49396375,0
21777992000,21777932000,197388,-0.10470854,0.15134019,0.49009037,0
21778000000,21778000000,197388,-0.1117862,0.14222898,0.4946686,0
21778124000,21778069600,197388,-0.1051498,0.15115109,0.49168387,0
21778148000,21778142000,197388,-0.10176507,0.14975253,0.4941963,0
21778268000,21778213600,197388,-0.10385265,0.15139918,0.491841,0
21778292000,21778286000,197388,-0.1065094,0.15126207,0.4931504,0
21778412000,21778357200,197388,-0.104721524,0.1518127,0.4943068,0
21778424000,21778424000,197388,-0.09819545,0.15457341,0.49289748,0
21778556000,21778495272,197388,-0.105846636,0.15141435,0.49353784,0
21778568000,21778568000,197388,-0.10450495,0.14682375,0.48905265,0
21778696000,21778637454,197388,-0.10516545,0.1524911,0.49274158,0
21778708000,21778708000,197388,-0.10784225,0.15326339,0.48926085,0
21778828000,21778774800,197388,-0.10405137,0.15277983,0.4936471,0
21778852000,21778846000,197388,-0.10334951,0.15336165,0.49191076,0
21778972000,21778918000,197388,-0.10597833,0.15073864,0.49213552,0
21779000000,21778992000,197388,-0.10451324,0.1518083,0.4944088,0
21779108000,21779059555,197388,-0.10640472,0.1525745,0.4922048,0
21779140000,21779129333,197388,-0.10570474,0.15048265,0.49020907,0
21779252000,21779201333,197388,-0.10532679,0.15361206,0.49305454,0
21779276000,21779268000,197388,-0.10320386,0.15452898,0.49275374,0
21779384000,21779336000,197388,-0.10605011,0.15296955,0.49153274,0
21779420000,21779408000,197388,-0.10698297,0.14767686,0.49009725,0
21779528000,21779480000,197388,-0.102281965,0.15279508,0.49230003,0
21779564000,21779552000,197388,-0.10428068,0.15429352,0.4953456,0
21779668000,21779623111,197388,-0.104448184,0.1491555,0.49396235,0
21779696000,21779690000,197388,-0.10401085,0.14778759,0.49468732,0
21779816000,21779761200,197388,-0.104841165,0.15406659,0.49088264,0
21779828000,21779828000,197388,-0.09902344,0.15100232,0.49186254,0
21779960000,21779900000,197388,-0.106047496,0.1518269,0.49306297,0
21779972000,21779972000,197388,-0.10741418,0.1540992,0.48246723,0
21780104000,21780043636,197388,-0.10571519,0.15175547,0.49395853,0
21780116000,21780116000,197388,-0.11100436,0.15055585,0.49148718,0
21780248000,21780187636,197388,-0.10222205,0.15180488,0.49311614,0
21780260000,21780260000,197388,-0.1010215,0.15974918,0.49348652,0
21780392000,21780332000,197388,-0.104018755,0.15276225,0.49030635,0
21780404000,21780404000,197388,-0.10597807,0.15034588,0.4889845,0
21780536000,21780476000,197388,-0.10333528,0.15153272,0.49391857,0
21780548000,21780548000,197388,-0.09917351,0.15107483,0.49762833,0
21780680000,21780619636,197388,-0.103476495,0.15350512,0.49415073,0
21780692000,21780692000,197388,-0.09970673,0.14869694,0.49233332,0
21780824000,21780763636,197388,-0.10480382,0.15150169,0.49192947,0
21780836000,21780836000,197388,-0.10634655,0.15513982,0.48498034,0
21780968000,21780907636,197388,-0.104674734,0.15297353,0.4933932,0
21780980000,21780980000,197388,-0.10349478,0.1526118,0.48827827,0
21781112000,21781052000,197388,-0.10284617,0.15175879,0.49252582,0
21781124000,21781124000,197388,-0.106012896,0.1584473,0.49571577,0
21781256000,21781195636,197388,-0.10428636,0.1508068,0.49290547,0
21781268000,21781268000,197388,-0.09939396,0.14875314,0.48920813,0
21781400000,21781339636,197388,-0.10363273,0.15523715,0.49485153,0
21781412000,21781412000,197388,-0.09903283,0.1536906,0.49077684,0
21781544000,21781483272,197388,-0.105552234,0.15104118,0.49171054,0
21781556000,21781556000,197388,-0.10597737,0.15091437,0.48711577,0
21781688000,21781627272,197388,-0.10365573,0.15493126,0.49407053,0
21781700000,21781700000,197388,-0.10430069,0.15345721,0.4923578,0
21781832000,21781772000,197388,-0.10450629,0.15170033,0.49052808,0
21781844000,21781844000,197388,-0.10877258,0.15289775,0.48781645,0
21781976000,21781916000,197388,-0.10391048,0.15156253,0.492817,0
21781988000,21781988000,197388,-0.10560428,0.1438757,0.4971679,0
21782120000,21782060000,197388,-0.10422705,0.15176697,0.49141127,0
21782132000,21782132000,197388,-0.10045935,0.14940618,0.489688,0
21782264000,21782203636,197388,-0.10397367,0.15276629,0.49239716,0
21782276000,21782276000,197388,-0.09874424,0.15555508,0.48926628,0
21782408000,21782348000,197388,-0.10590838,0.15092897,0.49267977,0
21782420000,21782420000,197388,-0.10009053,0.152361,0.48877913,0
21782552000,21782492000,197388,-0.10355646,0.1542198,0.49393937,0
21782564000,21782564000,197388,-0.10211875,0.1553061,0.49762958,0
21782696000,21782635272,197388,-0.10343658,0.1538643,0.49201182,0
21782708000,21782708000,197388,-0.102502376,0.15226482,0.49107128,0
21782840000,21782780000,197388,-0.104409896,0.15062395,0.49310282,0
21782852000,21782852000,197388,-0.10348975,0.15256827,0.50050265,0
21782980000,21782923636,197388,-0.10698027,0.15051776,0.49329677,0
21782996000,21782996000,197388,-0.097067505,0.1552981,0.4956394,0
21783128000,21783068000,197388,-0.10492686,0.14997467,0.49221292,0
21783140000,21783140000,197388,-0.09799444,0.15307647,0.49061477,0
21783272000,21783211636,197388,-0.10559716,0.15355472,0.49299315,0
21783280000,21783280000,197388,-0.101492055,0.15242559,0.49291825,0
21783404000,21783349600,197388,-0.10299921,0.15263908,0.4925383,0
21783428000,21783422000,197388,-0.10197902,0.15255243,0.49328548,0
21783548000,21783493600,197388,-0.10346802,0.15189289,0.49051294,0
21783572000,21783566000,197388,-0.10701828,0.15122657,0.49218875,0
21783692000,21783638000,197388,-0.1039652,0.15225187,0.49437496,0
21783716000,21783710000,197388,-0.10261181,0.14971074,0.49143344,0
21783836000,21783782000,197388,-0.10478657,0.15246524,0.4918935,0
21783860000,21783854000,197388,-0.10659292,0.15194207,0.49503666,0
21783980000,21783925200,197388,-0.105838455,0.14964686,0.49315736,0
21783992000,21783992000,197388,-0.09841326,0.15703334,0.49011347,0
21784124000,21784063272,197388,-0.10440253,0.15248361,0.49159694,0
21784136000,21784136000,197388,-0.096782975,0.14663659,0.48766977,0
21784268000,21784207636,197388,-0.103978395,0.1517697,0.49256763,0
21784280000,21784280000,197388,-0.09679017,0.15475705,0.49342406,0
21784412000,21784351272,197388,-0.105761945,0.15287566,0.49348846,0
21784424000,21784424000,197388,-0.10409782,0.14778273,0.49648106,0
21784556000,21784495636,197388,-0.10478906,0.15119089,0.49386308,0
21784568000,21784568000,197388,-0.1063928,0.14987765,0.49155894,0
21784700000,21784640000,197388,-0.10440142,0.14938398,0.4950585,0
21784712000,21784712000,197388,-0.10711806,0.14650376,0.4931999,0
21784844000,21784784000,197388,-0.100964755,0.15252519,0.4919353,0
21784856000,21784856000,197388,-0.11013667,0.1548267,0.48807222,0
21784988000,21784927272,197388,-0.10176129,0.15071478,0.49265277,0
21785000000,21785000000,197388,-0.10202015,0.14925165,0.49222675,0
21785132000,21785070909,197388,-0.104216956,0.1522314,0.49263474,0
21785144000,21785144000,197388,-0.10344913,0.1488472,0.48912954,0
21785276000,21785215272,197388,-0.10536128,0.15187062,0.49449995,0
21785288000,21785288000,197388,-0.10413705,0.15902129,0.49054718,0
21785420000,21785360000,197388,-0.103793144,0.15051511,0.49204424,0
21785432000,21785432000,197388,-0.10248572,0.15092601,0.4913965,0
21785564000,21785503636,197388,-0.10474688,0.15096848,0.49422613,0
21785576000,21785576000,197388,-0.10996659,0.16022733,0.4915155,0
21785708000,21785647272,197388,-0.10261985,0.1496493,0.49340266,0
21785720000,21785720000,197388,-0.11319738,0.14907046,0.49574107,0
21785852000,21785792000,197388,-0.104573414,0.15285034,0.49231204,0
21785864000,21785864000,197388,-0.10707785,0.1518249,0.49216095,0
21785996000,21785936000,197388,-0.10358276,0.15180904,0.4926061,0
21786008000,21786008000,197388,-0.10577776,0.15198012,0.4937189,0
21786140000,21786079636,197388,-0.10287885,0.15175164,0.49219337,0
21786152000,21786152000,197388,-0.10338044,0.15114461,0.49576,0
21786280000,21786222909,197388,-0.103933305,0.1516056,0.49425638,0
21786292000,21786292000,197388,-0.10358456,0.15048487,0.49027017,0
21786416000,21786361600,197388,-0.10418858,0.15139079,0.4930052,0
21786440000,21786434000,197388,-0.10797178,0.15150821,0.48984575,0
21786560000,21786506000,197388,-0.10368387,0.15121448,0.49212766,0
21786584000,21786578000,197388,-0.10492246,0.14992763,0.49444574,0
21786700000,21786649600,197388,-0.10518058,0.14997172,0.49268708,0
21786728000,21786722000,197388,-0.10385524,0.15148455,0.4884058,0
21786848000,21786794000,197388,-0.102898814,0.15197746,0.49245963,0
21786872000,21786866000,197388,-0.10730548,0.14844762,0.49473578,0
21786992000,21786937600,197388,-0.10369849,0.15214628,0.49129364,0
21787016000,21787010000,197388,-0.10504308,0.15304112,0.49682632,0
21787136000,21787082000,197388,-0.10454688,0.15425715,0.49385318,0
21787160000,21787152000,197388,-0.101587266,0.14897576,0.4977874,0
21787268000,21787219555,197388,-0.10446755,0.1527507,0.49186698,0
21787304000,21787292000,197388,-0.10306226,0.15455449,0.4952435,0
21787412000,21787364000,197388,-0.10420532,0.1520865,0.49450484,0
21787448000,21787436000,197388,-0.106083296,0.1514772,0.49201238,0
21787556000,21787508000,197388,-0.10615717,0.15179409,0.49301413,0
21787592000,21787580000,197388,-0.10547979,0.14826143,0.4912656,0
21787700000,21787651555,197388,-0.10534946,0.14960419,0.4920497,0
21787736000,21787724000,197388,-0.10377242,0.15184516,0.49249685,0
21787844000,21787796000,197388,-0.106296815,0.1531913,0.49450684,0
21787880000,21787868000,197388,-0.10553076,0.15131776,0.49389982,0
21787988000,21787939555,197388,-0.10550347,0.15419498,0.49274778,0
21788020000,21788010666,197388,-0.09846329,0.15268932,0.49526983,0
21788120000,21788078000,197388,-0.10379506,0.15007566,0.49419862,0
21788168000,21788150000,197388,-0.10427276,0.15203953,0.4919271,0
21788264000,21788222000,197388,-0.10403391,0.15008359,0.49361625,0
21788312000,21788294000,197388,-0.106781945,0.15324451,0.4959229,0
21788408000,21788366000,197388,-0.10329201,0.1523885,0.49164882,0
21788456000,21788438000,197388,-0.10292046,0.1526606,0.49352044,0
21788552000,21788510000,197388,-0.10412203,0.15254794,0.49140826,0
21788596000,21788581000,197388,-0.10455638,0.15131596,0.49146658,0
21788684000,21788648000,197388,-0.103300706,0.1508258,0.4916005,0
21788744000,21788719200,197388,-0.10123638,0.14960021,0.4922379,0
21788816000,21788786000,197388,-0.10445296,0.15000957,0.49049753,0
21788888000,21788857333,197388,-0.103101276,0.15093589,0.49239808,0
21788948000,21788924000,197388,-0.107149385,0.14980136,0.49059725,0
21789028000,21788995428,197388,-0.1061853,0.15128884,0.49382547,0
21789088000,21789065600,197388,-0.10313218,0.15237328,0.49550256,0
21789160000,21789132666,197388,-0.106282555,0.15314662,0.49484953,0
21789224000,21789200000,197388,-0.102957666,0.15224218,0.49158192,0
21789308000,21789271428,197388,-0.10477474,0.15211777,0.4924322,0
21789368000,21789343200,197388,-0.102301516,0.1531463,0.49216062,0
21789440000,21789410000,197388,-0.10618308,0.15171501,0.49119815,0
21789512000,21789482000,197388,-0.10440268,0.15144327,0.4931965,0
21789584000,21789553333,197388,-0.10276325,0.1529013,0.48830062,0
21789652000,21789624666,197388,-0.10358479,0.15174189,0.48958874,0
21789728000,21789697333,197388,-0.105062775,0.15028994,0.49350667,0
21789800000,21789769333,197388,-0.10309814,0.15165168,0.4942364,0
21789860000,21789836000,197388,-0.10335584,0.1556593,0.49113876,0
21789944000,21789908000,197388,-0.10511727,0.15260953,0.49059123,0
21790000000,21789976800,197388,-0.10605802,0.14958315,0.49082184,0
