timestamp,timestamp_sample,gps_hvel[0],gps_hvel[1],gps_vvel,gps_hpos[0],gps_hpos[1],gps_vpos,ev_hvel[0],ev_hvel[1],ev_vvel,ev_hpos[0],ev_hpos[1],ev_vpos,rng_vpos,baro_vpos,aux_hvel[0],aux_hvel[1],aux_vvel,flow[0],flow[1],heading,mag_field[0],mag_field[1],mag_field[2],drag[0],drag[1],airspeed,beta,hagl,hagl_rate
21726704000,21726624000,4.6244368e-06,0.0,5.0627136e-07,1.5654328e-07,0.0,0.0,0.0,0.0,0.0,0.0,0.0,0.0,0.0,2.8533232e-05,0.0,0.0,nan,0.0,0.0,0.00056435575,0.0,0.0,0.0,0.0,0.0,0.0,0.0,0.0,0.0
21727200000,21727120000,5.4967018e-08,0.0,3.0330746e-08,3.8349363e-06,0.0,0.0,0.0,0.0,0.0,0.0,0.0,0.0,0.0,3.110622e-06,0.0,0.0,nan,0.0,0.0,0.00056080165,0.0,0.0,0.0,0.0,0.0,0.0,0.0,0.0,0.0
21727704000,21727624000,1.7019519e-06,0.0,1.688751e-05,3.795428e-06,0.0,0.0,0.0,0.0,0.0,0.0,0.0,0.0,0.0,2.6664359e-06,0.0,0.0,nan,0.0,0.0,0.0013769,0.0,0.0,0.0,0.0,0.0,0.0,0.0,0.0,0.0
21728200000,21728120000,2.8696271e-05,0.0,6.1780895e-07,1.7596668e-07,0.0,0.0,0.0,0.0,0.0,0.0,0.0,0.0,0.0,1.0655141e-06,0.0,0.0,nan,0.0,0.0,2.8361937e-05,0.0,0.0,0.0,0.0,0.0,0.0,0.0,0.0,0.0
21728704000,21728624000,4.405004e-05,0.0,1.7799985e-05,3.5187186e-06,0.0,0.0,0.0,0.0,0.0,0.0,0.0,0.0,0.0,3.4017953e-07,0.0,0.0,nan,0.0,0.0,2.822915e-06,0.0,0.0,0.0,0.0,0.0,0.0,0.0,0.0,0.0
21729200000,21729120000,3.708391e-06,0.0,8.20143e-05,1.4911225e-06,0.0,0.0,0.0,0.0,0.0,0.0,0.0,0.0,0.0,1.7871478e-05,0.0,0.0,nan,0.0,0.0,0.0004245295,0.0,0.0,0.0,0.0,0.0,0.0,0.0,0.0,0.0
21729704000,21729624000,7.115856e-08,0.0,2.546226e-07,1.6827691e-07,0.0,0.0,0.0,0.0,0.0,0.0,0.0,0.0,0.0,1.3153548e-05,0.0,0.0,nan,0.0,0.0,0.00015066189,0.0,0.0,0.0,0.0,0.0,0.0,0.0,0.0,0.0
21730200000,21730120000,0.00017483828,0.0,0.00030951467,1.6429345e-07,0.0,0.0,0.0,0.0,0.0,0.0,0.0,0.0,0.0,4.4307217e-05,0.0,0.0,nan,0.0,0.0,0.0006544496,0.0,0.0,0.0,0.0,0.0,0.0,0.0,0.0,0.0
21730704000,21730624000,6.883884e-05,0.0,2.093075e-05,3.5879868e-06,0.0,0.0,0.0,0.0,0.0,0.0,0.0,0.0,0.0,5.4142896e-07,0.0,0.0,nan,0.0,0.0,1.2809843e-07,0.0,0.0,0.0,0.0,0.0,0.0,0.0,0.0,0.0
21731200000,21731120000,4.5712968e-05,0.0,2.4832494e-05,1.2658924e-07,0.0,0.0,0.0,0.0,0.0,0.0,0.0,0.0,0.0,2.2512227e-06,0.0,0.0,nan,0.0,0.0,6.7185196e-05,0.0,0.0,0.0,0.0,0.0,0.0,0.0,0.0,0.0
21731704000,21731624000,3.3619224e-05,0.0,0.00033125366,1.6736966e-07,0.0,0.0,0.0,0.0,0.0,0.0,0.0,0.0,0.0,7.929552e-05,0.0,0.0,nan,0.0,0.0,5.3804266e-05,0.0,0.0,0.0,0.0,0.0,0.0,0.0,0.0,0.0
21732200000,21732120000,5.1104365e-05,0.0,0.0005136637,1.9280515e-07,0.0,0.0,0.0,0.0,0.0,0.0,0.0,0.0,0.0,1.4558923e-06,0.0,0.0,nan,0.0,0.0,4.8822355e-09,0.0,0.0,0.0,0.0,0.0,0.0,0.0,0.0,0.0
21732704000,21732624000,5.4722164e-05,0.0,4.7572325e-08,1.5116891e-06,0.0,0.0,0.0,0.0,0.0,0.0,0.0,0.0,0.0,8.4284096e-08,0.0,0.0,nan,0.0,0.0,6.280962e-05,0.0,0.0,0.0,0.0,0.0,0.0,0.0,0.0,0.0
21733200000,21733120000,4.604622e-05,0.0,6.892597e-06,3.7042107e-06,0.0,0.0,0.0,0.0,0.0,0.0,0.0,0.0,0.0,0.0,0.0,0.0,nan,0.0,0.0,9.238113e-05,0.0,0.0,0.0,0.0,0.0,0.0,0.0,0.0,0.0
21733704000,21733624000,0.00016357108,0.0,9.424575e-05,8.798594e-07,0.0,0.0,0.0,0.0,0.0,0.0,0.0,0.0,0.0,0.0,0.0,0.0,nan,0.0,0.0,0.00018151288,0.0,0.0,0.0,0.0,0.0,0.0,0.0,0.0,0.0
21734200000,21734120000,7.732224e-05,0.0,1.7505949e-05,3.210326e-06,0.0,0.0,0.0,0.0,0.0,0.0,0.0,0.0,0.0,4.4472436e-06,0.0,0.0,nan,0.0,0.0,7.87908e-06,0.0,0.0,0.0,0.0,0.0,0.0,0.0,0.0,0.0
21734704000,21734624000,8.5066386e-05,0.0,0.0017651242,1.3536924e-05,0.0,0.0,0.0,0.0,0.0,0.0,0.0,0.0,0.0,2.7822667e-05,0.0,0.0,nan,0.0,0.0,1.2659543e-05,0.0,0.0,0.0,0.0,0.0,0.0,0.0,0.0,0.0
21735200000,21735120000,0.00018260765,0.0,9.924116e-05,1.5106109e-05,0.0,0.0,0.0,0.0,0.0,0.0,0.0,0.0,0.0,5.7110287e-06,0.0,0.0,nan,0.0,0.0,5.668165e-05,0.0,0.0,0.0,0.0,0.0,0.0,0.0,0.0,0.0
21735696000,21735616000,0.0006218994,0.0,0.0005171214,3.437981e-05,0.0,0.0,0.0,0.0,0.0,0.0,0.0,0.0,0.0,2.4389688e-05,0.0,0.0,nan,0.0,0.0,0.0077829137,0.0,0.0,0.0,0.0,0.0,0.0,0.0,0.0,0.0
21736200000,21736120000,0.0006081663,0.0,0.002504338,3.6266192e-05,0.0,0.0,0.0,0.0,0.0,0.0,0.0,0.0,0.0,5.173921e-05,0.0,0.0,nan,0.0,0.0,0.0006617799,0.0,0.0,0.0,0.0,0.0,0.0,0.0,0.0,0.0
21736704000,21736624000,0.0004245542,0.0,0.00010204579,4.072627e-05,0.0,0.0,0.0,0.0,0.0,0.0,0.0,0.0,0.0,5.0915705e-06,0.0,0.0,nan,0.0,0.0,0.0025664035,0.0,0.0,0.0,0.0,0.0,0.0,0.0,0.0,0.0
21737200000,21737120000,6.264008e-05,0.0,0.00060414855,3.89511e-05,0.0,0.0,0.0,0.0,0.0,0.0,0.0,0.0,0.0,7.873031e-09,0.0,0.0,nan,0.0,0.0,0.0013593573,0.0,0.0,0.0,0.0,0.0,0.0,0.0,0.0,0.0
21737696000,21737616000,0.00021073793,0.0,7.115032e-05,5.0411556e-05,0.0,0.0,0.0,0.0,0.0,0.0,0.0,0.0,0.0,4.0420182e-05,0.0,0.0,nan,0.0,0.0,0.00062437606,0.0,0.0,0.0,0.0,0.0,0.0,0.0,0.0,0.0
21738200000,21738120000,7.761307e-05,0.0,2.7476226e-05,5.5459186e-05,0.0,0.0,0.0,0.0,0.0,0.0,0.0,0.0,0.0,2.7240038e-05,0.0,0.0,nan,0.0,0.0,0.00059172005,0.0,0.0,0.0,0.0,0.0,0.0,0.0,0.0,0.0
21738696000,21738616000,9.0568974e-05,0.0,1.5140198e-05,5.750505e-05,0.0,0.0,0.0,0.0,0.0,0.0,0.0,0.0,0.0,1.4092158e-05,0.0,0.0,nan,0.0,0.0,9.536717e-05,0.0,0.0,0.0,0.0,0.0,0.0,0.0,0.0,0.0
21739200000,21739120000,0.00023960497,0.0,0.00012839088,5.8373684e-05,0.0,0.0,0.0,0.0,0.0,0.0,0.0,0.0,0.0,3.172336e-07,0.0,0.0,nan,0.0,0.0,6.2274274e-05,0.0,0.0,0.0,0.0,0.0,0.0,0.0,0.0,0.0
21739704000,21739624000,0.008619692,0.0,0.0010551795,0.00013985789,0.0,0.0,0.0,0.0,0.0,0.0,0.0,0.0,0.0,0.00010275426,0.0,0.0,nan,0.0,0.0,0.0,0.0021247375,0.0,0.0,0.0,0.0,0.0,0.0,0.0,0.0
21740200000,21740120000,0.002132867,0.0,0.0013347415,9.452815e-05,0.0,0.0,0.0,0.0,0.0,0.0,0.0,0.0,0.0,4.054892e-05,0.0,0.0,nan,0.0,0.0,0.0,0.00021601803,0.0,0.0,0.0,0.0,0.0,0.0,0.0,0.0
21740696000,21740616000,0.0012100589,0.0,0.00022735515,1.5716809e-05,0.0,0.0,0.0,0.0,0.0,0.0,0.0,0.0,0.0,5.0867755e-05,0.0,0.0,nan,0.0,0.0,0.0,0.00031385117,0.0,0.0,0.0,0.0,0.0,0.0,0.0,0.0
21741200000,21741120000,0.0009476682,0.0,0.00026544512,2.0175547e-05,0.0,0.0,0.0,0.0,0.0,0.0,0.0,0.0,0.0,2.489531e-05,0.0,0.0,nan,0.0,0.0,0.0,0.0057552336,0.0,0.0,0.0,0.0,0.0,0.0,0.0,0.0
21741704000,21741624000,0.00049639476,0.0,0.0012031797,1.6040045e-05,0.0,0.0,0.0,0.0,0.0,0.0,0.0,0.0,0.0,0.00017729601,0.0,0.0,nan,0.0,0.0,0.0,0.0007545165,0.0,0.0,0.0,0.0,0.0,0.0,0.0,0.0
21742200000,21742120000,0.00023553567,0.0,7.795665e-05,1.370426e-06,0.0,0.0,0.0,0.0,0.0,0.0,0.0,0.0,0.0,4.5710414e-05,0.0,0.0,nan,0.0,0.0,0.0,0.00032622938,0.0,0.0,0.0,0.0,0.0,0.0,0.0,0.0
21742696000,21742616000,0.0010041802,0.0,1.8107023e-05,5.2336786e-06,0.0,0.0,0.0,0.0,0.0,0.0,0.0,0.0,0.0,7.989406e-05,0.0,0.0,nan,0.0,0.0,0.0,0.0014957484,0.0,0.0,0.0,0.0,0.0,0.0,0.0,0.0
21743200000,21743120000,0.0003204857,0.0,0.00026697907,3.8644634e-05,0.0,0.0,0.0,0.0,0.0,0.0,0.0,0.0,0.0,7.94342e-05,0.0,0.0,nan,0.0,0.0,0.0,8.453524e-06,0.0,0.0,0.0,0.0,0.0,0.0,0.0,0.0
21743704000,21743624000,0.00063825544,0.0,0.00061270915,9.637786e-05,0.0,0.0,0.0,0.0,0.0,0.0,0.0,0.0,0.0,3.8589846e-05,0.0,0.0,nan,0.0,0.0,0.0,0.0015480747,0.0,0.0,0.0,0.0,0.0,0.0,0.0,0.0
21744200000,21744120000,0.00031585834,0.0,0.00026453967,1.05238805e-05,0.0,0.0,0.0,0.0,0.0,0.0,0.0,0.0,0.0,8.611522e-05,0.0,0.0,nan,0.0,0.0,0.0,0.00020399393,0.0,0.0,0.0,0.0,0.0,0.0,0.0,0.0
21744704000,21744624000,8.975105e-05,0.0,8.833073e-06,0.0002283003,0.0,0.0,0.0,0.0,0.0,0.0,0.0,0.0,0.0,2.5339112e-05,0.0,0.0,nan,0.0,0.0,0.0,0.0038167231,0.0,0.0,0.0,0.0,0.0,0.0,0.0,0.0
21745200000,21745120000,2.2453512e-05,0.0,0.00021619929,6.85419e-05,0.0,0.0,0.0,0.0,0.0,0.0,0.0,0.0,0.0,4.837851e-05,0.0,0.0,nan,0.0,0.0,0.0,0.0005314632,0.0,0.0,0.0,0.0,0.0,0.0,0.0,0.0
21745704000,21745624000,0.0006091276,0.0,0.0010375397,9.993061e-05,0.0,0.0,0.0,0.0,0.0,0.0,0.0,0.0,0.0,7.196335e-05,0.0,0.0,nan,0.0,0.0,5.347018e-08,0.0,0.0,0.0,0.0,0.0,0.0,0.0,0.0,0.0
21746200000,21746120000,5.4227254e-05,0.0,0.00032244663,0.00033714456,0.0,0.0,0.0,0.0,0.0,0.0,0.0,0.0,0.0,5.4472708e-05,0.0,0.0,nan,0.0,0.0,2.0457013e-05,0.0,0.0,0.0,0.0,0.0,0.0,0.0,0.0,0.0
21746704000,21746624000,1.9872383e-05,0.0,2.2141372e-05,6.910937e-05,0.0,0.0,0.0,0.0,0.0,0.0,0.0,0.0,0.0,3.7345715e-05,0.0,0.0,nan,0.0,0.0,4.6503104e-05,0.0,0.0,0.0,0.0,0.0,0.0,0.0,0.0,0.0
21747200000,21747120000,0.00059661054,0.0,0.00027884508,7.69593e-05,0.0,0.0,0.0,0.0,0.0,0.0,0.0,0.0,0.0,2.4206029e-06,0.0,0.0,nan,0.0,0.0,0.0010306493,0.0,0.0,0.0,0.0,0.0,0.0,0.0,0.0,0.0
21747704000,21747624000,0.00026127443,0.0,0.00102292,0.00014920982,0.0,0.0,0.0,0.0,0.0,0.0,0.0,0.0,0.0,1.4735108e-06,0.0,0.0,nan,0.0,0.0,0.0006148352,0.0,0.0,0.0,0.0,0.0,0.0,0.0,0.0,0.0
21748200000,21748120000,0.000248549,0.0,8.5253304e-11,0.00017088772,0.0,0.0,0.0,0.0,0.0,0.0,0.0,0.0,0.0,3.9270482e-05,0.0,0.0,nan,0.0,0.0,1.1289788e-05,0.0,0.0,0.0,0.0,0.0,0.0,0.0,0.0,0.0
21748696000,21748616000,0.00028567185,0.0,0.000751088,0.00019983438,0.0,0.0,0.0,0.0,0.0,0.0,0.0,0.0,0.0,1.2648023e-06,0.0,0.0,nan,0.0,0.0,8.31967e-05,0.0,0.0,0.0,0.0,0.0,0.0,0.0,0.0,0.0
21749200000,21749120000,0.0002985604,0.0,9.840413e-05,0.00011597415,0.0,0.0,0.0,0.0,0.0,0.0,0.0,0.0,0.0,9.4684935e-07,0.0,0.0,nan,0.0,0.0,9.894393e-05,0.0,0.0,0.0,0.0,0.0,0.0,0.0,0.0,0.0
21749704000,21749624000,5.3960357e-05,0.0,0.00029902076,0.00018438286,0.0,0.0,0.0,0.0,0.0,0.0,0.0,0.0,0.0,3.4911638e-05,0.0,0.0,nan,0.0,0.0,2.8186998e-05,0.0,0.0,0.0,0.0,0.0,0.0,0.0,0.0,0.0
21750200000,21750120000,0.0003625772,0.0,0.00017762717,0.00036475123,0.0,0.0,0.0,0.0,0.0,0.0,0.0,0.0,0.0,1.8496572e-06,0.0,0.0,nan,0.0,0.0,6.564577e-05,0.0,0.0,0.0,0.0,0.0,0.0,0.0,0.0,0.0
21750696000,21750616000,7.063755e-06,0.0,0.0003753893,0.00018717311,0.0,0.0,0.0,0.0,0.0,0.0,0.0,0.0,0.0,5.650792e-05,0.0,0.0,nan,0.0,0.0,0.00056106475,0.0,0.0,0.0,0.0,0.0,0.0,0.0,0.0,0.0
21751200000,21751120000,4.9551538e-05,0.0,1.4813983e-06,0.0003284896,0.0,0.0,0.0,0.0,0.0,0.0,0.0,0.0,0.0,2.522519e-05,0.0,0.0,nan,0.0,0.0,3.0674735e-07,0.0,0.0,0.0,0.0,0.0,0.0,0.0,0.0,0.0
21751696000,21751616000,0.00011130391,0.0,0.0001553101,0.00010625582,0.0,0.0,0.0,0.0,0.0,0.0,0.0,0.0,0.0,1.8672967e-05,0.0,0.0,nan,0.0,0.0,4.801417e-06,0.0,0.0,0.0,0.0,0.0,0.0,0.0,0.0,0.0
21752200000,21752120000,7.143134e-05,0.0,7.55589e-09,9.364582e-05,0.0,0.0,0.0,0.0,0.0,0.0,0.0,0.0,0.0,7.795275e-06,0.0,0.0,nan,0.0,0.0,0.0002666578,0.0,0.0,0.0,0.0,0.0,0.0,0.0,0.0,0.0
21752704000,21752624000,0.0003044427,0.0,3.670372e-05,0.0003281994,0.0,0.0,0.0,0.0,0.0,0.0,0.0,0.0,0.0,1.7124461e-07,0.0,0.0,nan,0.0,0.0,0.00016546185,0.0,0.0,0.0,0.0,0.0,0.0,0.0,0.0,0.0
21753200000,21753120000,0.0002590063,0.0,0.00036653777,0.00015616306,0.0,0.0,0.0,0.0,0.0,0.0,0.0,0.0,0.0,3.255047e-05,0.0,0.0,nan,0.0,0.0,8.657699e-06,0.0,0.0,0.0,0.0,0.0,0.0,0.0,0.0,0.0
21753704000,21753624000,0.00019941953,0.0,0.00014870532,0.00015966874,0.0,0.0,0.0,0.0,0.0,0.0,0.0,0.0,0.0,5.3793436e-05,0.0,0.0,nan,0.0,0.0,1.6643668e-05,0.0,0.0,0.0,0.0,0.0,0.0,0.0,0.0,0.0
21754200000,21754120000,0.001108473,0.0,0.00045905513,0.00015895632,0.0,0.0,0.0,0.0,0.0,0.0,0.0,0.0,0.0,7.089555e-05,0.0,0.0,nan,0.0,0.0,0.00015781962,0.0,0.0,0.0,0.0,0.0,0.0,0.0,0.0,0.0
21754704000,21754624000,0.00036166006,0.0,7.392273e-05,4.8957783e-05,0.0,0.0,0.0,0.0,0.0,0.0,0.0,0.0,0.0,1.3616918e-05,0.0,0.0,nan,0.0,0.0,3.1516167e-05,0.0,0.0,0.0,0.0,0.0,0.0,0.0,0.0,0.0
21755200000,21755120000,0.00070891174,0.0,0.0008758391,0.00013239206,0.0,0.0,0.0,0.0,0.0,0.0,0.0,0.0,0.0,3.2443776e-07,0.0,0.0,nan,0.0,0.0,0.00022166125,0.0,0.0,0.0,0.0,0.0,0.0,0.0,0.0,0.0
21755704000,21755624000,0.0015329301,0.0,0.00032461257,8.6851454e-05,0.0,0.0,0.0,0.0,0.0,0.0,0.0,0.0,0.0,7.970908e-05,0.0,0.0,nan,0.0,0.0,3.9234633e-06,0.0,0.0,0.0,0.0,0.0,0.0,0.0,0.0,0.0
21756200000,21756120000,0.0012291432,0.0,0.0012419026,0.000365675,0.0,0.0,0.0,0.0,0.0,0.0,0.0,0.0,0.0,0.000101916135,0.0,0.0,nan,0.0,0.0,0.00023414807,0.0,0.0,0.0,0.0,0.0,0.0,0.0,0.0,0.0
21756704000,21756624000,0.0012926086,0.0,0.0012912862,0.00011525106,0.0,0.0,0.0,0.0,0.0,0.0,0.0,0.0,0.0,4.1125164e-05,0.0,0.0,nan,0.0,0.0,1.5234738e-05,0.0,0.0,0.0,0.0,0.0,0.0,0.0,0.0,0.0
21757200000,21757120000,0.0010493884,0.0,0.0014109396,8.059573e-05,0.0,0.0,0.0,0.0,0.0,0.0,0.0,0.0,0.0,4.79743e-11,0.0,0.0,nan,0.0,0.0,0.0002834334,0.0,0.0,0.0,0.0,0.0,0.0,0.0,0.0,0.0
21757704000,21757624000,0.00061810325,0.0,0.0016491564,7.9866455e-05,0.0,0.0,0.0,0.0,0.0,0.0,0.0,0.0,0.0,6.7459196e-06,0.0,0.0,nan,0.0,0.0,3.987162e-06,0.0,0.0,0.0,0.0,0.0,0.0,0.0,0.0,0.0
21758200000,21758120000,0.00086876325,0.0,0.001238804,0.0003126123,0.0,0.0,0.0,0.0,0.0,0.0,0.0,0.0,0.0,4.5360266e-06,0.0,0.0,nan,0.0,0.0,0.0006066412,0.0,0.0,0.0,0.0,0.0,0.0,0.0,0.0,0.0
21758696000,21758616000,0.0004396429,0.0,0.0014690666,0.00020973745,0.0,0.0,0.0,0.0,0.0,0.0,0.0,0.0,0.0,2.2254577e-05,0.0,0.0,nan,0.0,0.0,0.000387747,0.0,0.0,0.0,0.0,0.0,0.0,0.0,0.0,0.0
21759200000,21759120000,0.0003530141,0.0,0.00020265319,8.859553e-05,0.0,0.0,0.0,0.0,0.0,0.0,0.0,0.0,0.0,0.00010739529,0.0,0.0,nan,0.0,0.0,1.703022e-05,0.0,0.0,0.0,0.0,0.0,0.0,0.0,0.0,0.0
21759696000,21759616000,0.00031559746,0.0,0.0015126653,0.00011568484,0.0,0.0,0.0,0.0,0.0,0.0,0.0,0.0,0.0,3.8579346e-05,0.0,0.0,nan,0.0,0.0,9.468428e-05,0.0,0.0,0.0,0.0,0.0,0.0,0.0,0.0,0.0
21760200000,21760120000,0.00020705273,0.0,0.002483859,0.00016391213,0.0,0.0,0.0,0.0,0.0,0.0,0.0,0.0,0.0,2.9232035e-05,0.0,0.0,nan,0.0,0.0,5.1701943e-05,0.0,0.0,0.0,0.0,0.0,0.0,0.0,0.0,0.0
21760704000,21760624000,0.0005034617,0.0,0.003866615,0.00013945186,0.0,0.0,0.0,0.0,0.0,0.0,0.0,0.0,0.0,7.086239e-05,0.0,0.0,nan,0.0,0.0,0.00019800571,0.0,0.0,0.0,0.0,0.0,0.0,0.0,0.0,0.0
21761200000,21761120000,0.00022913674,0.0,0.0012062463,0.00014366087,0.0,0.0,0.0,0.0,0.0,0.0,0.0,0.0,0.0,9.20519e-06,0.0,0.0,nan,0.0,0.0,3.3508983e-12,0.0,0.0,0.0,0.0,0.0,0.0,0.0,0.0,0.0
21761696000,21761616000,0.00013988212,0.0,0.00090287824,0.0001289622,0.0,0.0,0.0,0.0,0.0,0.0,0.0,0.0,0.0,7.183457e-05,0.0,0.0,nan,0.0,0.0,4.012858e-05,0.0,0.0,0.0,0.0,0.0,0.0,0.0,0.0,0.0
21762200000,21762120000,0.00042094087,0.0,0.001463562,0.00025189607,0.0,0.0,0.0,0.0,0.0,0.0,0.0,0.0,0.0,0.00015728263,0.0,0.0,nan,0.0,0.0,0.00073198153,0.0,0.0,0.0,0.0,0.0,0.0,0.0,0.0,0.0
21762704000,21762624000,0.0008976816,0.0,0.0010224851,0.00013208426,0.0,0.0,0.0,0.0,0.0,0.0,0.0,0.0,0.0,7.920984e-05,0.0,0.0,nan,0.0,0.0,7.9562604e-05,0.0,0.0,0.0,0.0,0.0,0.0,0.0,0.0,0.0
21763200000,21763120000,2.2090415e-05,0.0,5.2010186e-05,0.00014316103,0.0,0.0,0.0,0.0,0.0,0.0,0.0,0.0,0.0,5.1862306e-05,0.0,0.0,nan,0.0,0.0,2.9000375e-05,0.0,0.0,0.0,0.0,0.0,0.0,0.0,0.0,0.0
21763696000,21763616000,0.0004769363,0.0,0.0006218588,0.00010004328,0.0,0.0,0.0,0.0,0.0,0.0,0.0,0.0,0.0,0.00010970683,0.0,0.0,nan,0.0,0.0,0.00011566278,0.0,0.0,0.0,0.0,0.0,0.0,0.0,0.0,0.0
21764200000,21764120000,0.00024110415,0.0,0.0007958801,0.00010544415,0.0,0.0,0.0,0.0,0.0,0.0,0.0,0.0,0.0,6.661795e-05,0.0,0.0,nan,0.0,0.0,0.00010061532,0.0,0.0,0.0,0.0,0.0,0.0,0.0,0.0,0.0
21764696000,21764616000,6.909308e-05,0.0,0.000118821445,6.360391e-05,0.0,0.0,0.0,0.0,0.0,0.0,0.0,0.0,0.0,0.0003632853,0.0,0.0,nan,0.0,0.0,0.00045671454,0.0,0.0,0.0,0.0,0.0,0.0,0.0,0.0,0.0
21765200000,21765120000,0.0003146109,0.0,0.0003666248,6.9808724e-05,0.0,0.0,0.0,0.0,0.0,0.0,0.0,0.0,0.0,0.0002578487,0.0,0.0,nan,0.0,0.0,0.00018472894,0.0,0.0,0.0,0.0,0.0,0.0,0.0,0.0,0.0
21765704000,21765624000,0.00022294566,0.0,0.00064707827,0.00018108556,0.0,0.0,0.0,0.0,0.0,0.0,0.0,0.0,0.0,4.5729706e-05,0.0,0.0,nan,0.0,0.0,0.00062295096,0.0,0.0,0.0,0.0,0.0,0.0,0.0,0.0,0.0
21766200000,21766120000,0.00016430857,0.0,2.0500278e-05,0.00021844212,0.0,0.0,0.0,0.0,0.0,0.0,0.0,0.0,0.0,2.3306764e-05,0.0,0.0,nan,0.0,0.0,9.01829e-06,0.0,0.0,0.0,0.0,0.0,0.0,0.0,0.0,0.0
21766704000,21766624000,6.8101895e-06,0.0,0.00053138554,0.00016454303,0.0,0.0,0.0,0.0,0.0,0.0,0.0,0.0,0.0,5.0565857e-05,0.0,0.0,nan,0.0,0.0,0.00042957682,0.0,0.0,0.0,0.0,0.0,0.0,0.0,0.0,0.0
21767200000,21767120000,0.00027266087,0.0,1.7353597e-06,4.5553326e-05,0.0,0.0,0.0,0.0,0.0,0.0,0.0,0.0,0.0,1.4524657e-06,0.0,0.0,nan,0.0,0.0,0.000121962876,0.0,0.0,0.0,0.0,0.0,0.0,0.0,0.0,0.0
21767696000,21767616000,1.2186666e-05,0.0,0.0011299666,0.00015302969,0.0,0.0,0.0,0.0,0.0,0.0,0.0,0.0,0.0,6.0183953e-05,0.0,0.0,nan,0.0,0.0,0.00045301046,0.0,0.0,0.0,0.0,0.0,0.0,0.0,0.0,0.0
21768200000,21768120000,1.2015955e-05,0.0,5.075298e-05,0.00019753841,0.0,0.0,0.0,0.0,0.0,0.0,0.0,0.0,0.0,0.000104895196,0.0,0.0,nan,0.0,0.0,1.8668092e-05,0.0,0.0,0.0,0.0,0.0,0.0,0.0,0.0,0.0
21768704000,21768624000,0.00011106661,0.0,0.0014040465,0.0001071561,0.0,0.0,0.0,0.0,0.0,0.0,0.0,0.0,0.0,4.9343253e-05,0.0,0.0,nan,0.0,0.0,0.00064875814,0.0,0.0,0.0,0.0,0.0,0.0,0.0,0.0,0.0
21769200000,21769120000,0.00039103953,0.0,4.0146813e-05,0.000119128905,0.0,0.0,0.0,0.0,0.0,0.0,0.0,0.0,0.0,1.1685897e-05,0.0,0.0,nan,0.0,0.0,2.2201591e-05,0.0,0.0,0.0,0.0,0.0,0.0,0.0,0.0,0.0
21769704000,21769624000,0.000102155944,0.0,0.00048857013,0.00020071604,0.0,0.0,0.0,0.0,0.0,0.0,0.0,0.0,0.0,4.285048e-05,0.0,0.0,nan,0.0,0.0,6.875725e-06,0.0,0.0,0.0,0.0,0.0,0.0,0.0,0.0,0.0
21770200000,21770120000,1.6948267e-06,0.0,0.0004178978,0.00028415694,0.0,0.0,0.0,0.0,0.0,0.0,0.0,0.0,0.0,6.5745255e-05,0.0,0.0,nan,0.0,0.0,0.00021818826,0.0,0.0,0.0,0.0,0.0,0.0,0.0,0.0,0.0
21770704000,21770624000,0.0005456974,0.0,0.00028372716,8.892456e-05,0.0,0.0,0.0,0.0,0.0,0.0,0.0,0.0,0.0,1.2012835e-05,0.0,0.0,nan,0.0,0.0,1.3940833e-06,0.0,0.0,0.0,0.0,0.0,0.0,0.0,0.0,0.0
21771200000,21771120000,0.00028350358,0.0,5.4842158e-06,8.59067e-05,0.0,0.0,0.0,0.0,0.0,0.0,0.0,0.0,0.0,4.2035972e-05,0.0,0.0,nan,0.0,0.0,0.0002719762,0.0,0.0,0.0,0.0,0.0,0.0,0.0,0.0,0.0
21771696000,21771616000,0.0007870596,0.0,0.00012326558,0.00018802549,0.0,0.0,0.0,0.0,0.0,0.0,0.0,0.0,0.0,9.076597e-06,0.0,0.0,nan,0.0,0.0,0.0005107258,0.0,0.0,0.0,0.0,0.0,0.0,0.0,0.0,0.0
21772200000,21772120000,0.00043657055,0.0,1.43605785e-05,0.00032801382,0.0,0.0,0.0,0.0,0.0,0.0,0.0,0.0,0.0,5.1122723e-05,0.0,0.0,nan,0.0,0.0,0.00023096771,0.0,0.0,0.0,0.0,0.0,0.0,0.0,0.0,0.0
21772696000,21772616000,0.0010627529,0.0,7.4230334e-06,0.00023379589,0.0,0.0,0.0,0.0,0.0,0.0,0.0,0.0,0.0,2.2601334e-07,0.0,0.0,nan,0.0,0.0,4.63943e-06,0.0,0.0,0.0,0.0,0.0,0.0,0.0,0.0,0.0
21773200000,21773120000,0.00021271958,0.0,8.3001825e-05,0.000227543,0.0,0.0,0.0,0.0,0.0,0.0,0.0,0.0,0.0,9.83707e-06,0.0,0.0,nan,0.0,0.0,2.6776392e-05,0.0,0.0,0.0,0.0,0.0,0.0,0.0,0.0,0.0
21773704000,21773624000,0.00074779417,0.0,2.871813e-05,0.00026468185,0.0,0.0,0.0,0.0,0.0,0.0,0.0,0.0,0.0,1.6810802e-05,0.0,0.0,nan,0.0,0.0,7.410575e-06,0.0,0.0,0.0,0.0,0.0,0.0,0.0,0.0,0.0
21774200000,21774120000,0.00010849737,0.0,1.6488704e-05,0.0004487039,0.0,0.0,0.0,0.0,0.0,0.0,0.0,0.0,0.0,1.4779564e-06,0.0,0.0,nan,0.0,0.0,2.1120819e-05,0.0,0.0,0.0,0.0,0.0,0.0,0.0,0.0,0.0
21774696000,21774616000,0.00013601361,0.0,0.00012472078,0.00027690234,0.0,0.0,0.0,0.0,0.0,0.0,0.0,0.0,0.0,1.6091753e-05,0.0,0.0,nan,0.0,0.0,0.00032790477,0.0,0.0,0.0,0.0,0.0,0.0,0.0,0.0,0.0
21775200000,21775120000,0.0016981908,0.0,0.00027814836,0.00032758166,0.0,0.0,0.0,0.0,0.0,0.0,0.0,0.0,0.0,1.1839137e-05,0.0,0.0,nan,0.0,0.0,0.00025017824,0.0,0.0,0.0,0.0,0.0,0.0,0.0,0.0,0.0
21775696000,21775616000,0.0003244245,0.0,9.554967e-05,0.00026790926,0.0,0.0,0.0,0.0,0.0,0.0,0.0,0.0,0.0,1.5045433e-07,0.0,0.0,nan,0.0,0.0,5.9162703e-06,0.0,0.0,0.0,0.0,0.0,0.0,0.0,0.0,0.0
21776200000,21776120000,0.00057421345,0.0,0.00055963814,0.000347706,0.0,0.0,0.0,0.0,0.0,0.0,0.0,0.0,0.0,6.151539e-05,0.0,0.0,nan,0.0,0.0,7.2368687e-07,0.0,0.0,0.0,0.0,0.0,0.0,0.0,0.0,0.0
21776704000,21776624000,0.00020734721,0.0,0.000697506,0.00014853469,0.0,0.0,0.0,0.0,0.0,0.0,0.0,0.0,0.0,7.299048e-06,0.0,0.0,nan,0.0,0.0,0.00019786252,0.0,0.0,0.0,0.0,0.0,0.0,0.0,0.0,0.0
21777200000,21777120000,0.00029876048,0.0,9.482514e-05,0.00029383405,0.0,0.0,0.0,0.0,0.0,0.0,0.0,0.0,0.0,1.460696e-06,0.0,0.0,nan,0.0,0.0,7.7273304e-05,0.0,0.0,0.0,0.0,0.0,0.0,0.0,0.0,0.0
21777696000,21777616000,0.0009095267,0.0,0.001451979,0.00064228894,0.0,0.0,0.0,0.0,0.0,0.0,0.0,0.0,0.0,5.4400527e-05,0.0,0.0,nan,0.0,0.0,2.973067e-05,0.0,0.0,0.0,0.0,0.0,0.0,0.0,0.0,0.0
21778200000,21778120000,0.00090462225,0.0,0.0005542353,0.00058004685,0.0,0.0,0.0,0.0,0.0,0.0,0.0,0.0,0.0,6.821641e-05,0.0,0.0,nan,0.0,0.0,2.493505e-05,0.0,0.0,0.0,0.0,0.0,0.0,0.0,0.0,0.0
21778696000,21778616000,0.00073070015,0.0,4.881806e-05,0.00011475431,0.0,0.0,0.0,0.0,0.0,0.0,0.0,0.0,0.0,5.505906e-06,0.0,0.0,nan,0.0,0.0,0.000533655,0.0,0.0,0.0,0.0,0.0,0.0,0.0,0.0,0.0
21779200000,21779120000,0.0023150009,0.0,0.00040541316,0.0005833631,0.0,0.0,0.0,0.0,0.0,0.0,0.0,0.0,0.0,2.2317345e-05,0.0,0.0,nan,0.0,0.0,5.073801e-07,0.0,0.0,0.0,0.0,0.0,0.0,0.0,0.0,0.0
21779704000,21779624000,4.1928797e-05,0.0,0.0016532117,0.0001470538,0.0,0.0,0.0,0.0,0.0,0.0,0.0,0.0,0.0,2.4743013e-05,0.0,0.0,nan,0.0,0.0,0.00057615293,0.0,0.0,0.0,0.0,0.0,0.0,0.0,0.0,0.0
21780200000,21780120000,0.0006822587,0.0,0.0011938687,0.00049085944,0.0,0.0,0.0,0.0,0.0,0.0,0.0,0.0,0.0,2.3805158e-06,0.0,0.0,nan,0.0,0.0,0.00034002328,0.0,0.0,0.0,0.0,0.0,0.0,0.0,0.0,0.0
21780704000,21780624000,0.00027334032,0.0,0.0007561369,0.00017743866,0.0,0.0,0.0,0.0,0.0,0.0,0.0,0.0,0.0,2.2572667e-06,0.0,0.0,nan,0.0,0.0,0.00017115253,0.0,0.0,0.0,0.0,0.0,0.0,0.0,0.0,0.0
21781200000,21781120000,0.0013955022,0.0,0.0008989534,0.00019168653,0.0,0.0,0.0,0.0,0.0,0.0,0.0,0.0,0.0,1.1214091e-05,0.0,0.0,nan,0.0,0.0,0.0001757316,0.0,0.0,0.0,0.0,0.0,0.0,0.0,0.0,0.0
21781696000,21781616000,0.0004918513,0.0,0.00013651987,0.0003193297,0.0,0.0,0.0,0.0,0.0,0.0,0.0,0.0,0.0,4.765307e-06,0.0,0.0,nan,0.0,0.0,2.0479816e-05,0.0,0.0,0.0,0.0,0.0,0.0,0.0,0.0,0.0
21782200000,21782120000,0.0007108709,0.0,1.6403253e-07,0.00015182103,0.0,0.0,0.0,0.0,0.0,0.0,0.0,0.0,0.0,5.5970122e-05,0.0,0.0,nan,0.0,0.0,0.00010478701,0.0,0.0,0.0,0.0,0.0,0.0,0.0,0.0,0.0
21782704000,21782624000,0.0009226274,0.0,0.00021463956,0.00030290248,0.0,0.0,0.0,0.0,0.0,0.0,0.0,0.0,0.0,2.8172368e-05,0.0,0.0,nan,0.0,0.0,0.00064013,0.0,0.0,0.0,0.0,0.0,0.0,0.0,0.0,0.0
21783200000,21783120000,0.0003147702,0.0,0.0001964364,0.00022940192,0.0,0.0,0.0,0.0,0.0,0.0,0.0,0.0,0.0,3.694557e-05,0.0,0.0,nan,0.0,0.0,0.0002505226,0.0,0.0,0.0,0.0,0.0,0.0,0.0,0.0,0.0
21783704000,21783624000,0.00014451485,0.0,9.785896e-07,0.00040548362,0.0,0.0,0.0,0.0,0.0,0.0,0.0,0.0,0.0,5.961336e-08,0.0,0.0,nan,0.0,0.0,2.1497451e-06,0.0,0.0,0.0,0.0,0.0,0.0,0.0,0.0,0.0
21784200000,21784120000,0.0003109679,0.0,0.00038544062,0.000119201824,0.0,0.0,0.0,0.0,0.0,0.0,0.0,0.0,0.0,2.841675e-05,0.0,0.0,nan,0.0,0.0,1.9436227e-05,0.0,0.0,0.0,0.0,0.0,0.0,0.0,0.0,0.0
21784696000,21784616000,0.00012491406,0.0,2.4376637e-05,0.00017852258,0.0,0.0,0.0,0.0,0.0,0.0,0.0,0.0,0.0,1.1410963e-05,0.0,0.0,nan,0.0,0.0,3.5239664e-05,0.0,0.0,0.0,0.0,0.0,0.0,0.0,0.0,0.0
21785200000,21785120000,0.0008271422,0.0,0.00018850561,0.00021751011,0.0,0.0,0.0,0.0,0.0,0.0,0.0,0.0,0.0,2.5160794e-05,0.0,0.0,nan,0.0,0.0,0.00010964921,0.0,0.0,0.0,0.0,0.0,0.0,0.0,0.0,0.0
21785704000,21785624000,4.7906124e-05,0.0,0.0017834847,0.00038603297,0.0,0.0,0.0,0.0,0.0,0.0,0.0,0.0,0.0,9.62432e-07,0.0,0.0,nan,0.0,0.0,0.0022593413,0.0,0.0,0.0,0.0,0.0,0.0,0.0,0.0,0.0
21786200000,21786120000,0.00030837092,0.0,0.0006505914,0.00036209516,0.0,0.0,0.0,0.0,0.0,0.0,0.0,0.0,0.0,3.3053705e-06,0.0,0.0,nan,0.0,0.0,0.00042668395,0.0,0.0,0.0,0.0,0.0,0.0,0.0,0.0,0.0
21786704000,21786624000,6.957789e-05,0.0,0.0005339319,0.00014204324,0.0,0.0,0.0,0.0,0.0,0.0,0.0,0.0,0.0,6.040557e-05,0.0,0.0,nan,0.0,0.0,0.00043410543,0.0,0.0,0.0,0.0,0.0,0.0,0.0,0.0,0.0
21787200000,21787120000,0.00013098247,0.0,0.0009899501,0.00013224366,0.0,0.0,0.0,0.0,0.0,0.0,0.0,0.0,0.0,5.9282997e-06,0.0,0.0,nan,0.0,0.0,5.0593946e-05,0.0,0.0,0.0,0.0,0.0,0.0,0.0,0.0,0.0
21787704000,21787624000,0.00061346067,0.0,0.0014384135,0.00041218154,0.0,0.0,0.0,0.0,0.0,0.0,0.0,0.0,0.0,9.070434e-07,0.0,0.0,nan,0.0,0.0,0.00039399936,0.0,0.0,0.0,0.0,0.0,0.0,0.0,0.0,0.0
21788200000,21788120000,0.0003857881,0.0,0.0005699894,0.00035562602,0.0,0.0,0.0,0.0,0.0,0.0,0.0,0.0,0.0,1.3963596e-05,0.0,0.0,nan,0.0,0.0,0.00082066644,0.0,0.0,0.0,0.0,0.0,0.0,0.0,0.0,0.0
21788704000,21788624000,0.00019732807,0.0,0.0007562297,0.00022778742,0.0,0.0,0.0,0.0,0.0,0.0,0.0,0.0,0.0,9.931767e-08,0.0,0.0,nan,0.0,0.0,0.00011566234,0.0,0.0,0.0,0.0,0.0,0.0,0.0,0.0,0.0
21789200000,21789120000,5.1440005e-05,0.0,0.0013341715,0.00012641004,0.0,0.0,0.0,0.0,0.0,0.0,0.0,0.0,0.0,1.6774576e-06,0.0,0.0,nan,0.0,0.0,0.00063517055,0.0,0.0,0.0,0.0,0.0,0.0,0.0,0.0,0.0
21789696000,21789616000,0.00027892488,0.0,0.0027671005,0.00012934075,0.0,0.0,0.0,0.0,0.0,0.0,0.0,0.0,0.0,1.8199711e-06,0.0,0.0,nan,0.0,0.0,3.526064e-05,0.0,0.0,0.0,0.0,0.0,0.0,0.0,0.0,0.0
21790200000,21790120000,0.0002216426,0.0,0.00060583476,0.0002442868,0.0,0.0,0.0,0.0,0.0,0.0,0.0,0.0,0.0,2.6208384e-06,0.0,0.0,nan,0.0,0.0,3.7444609e-06,0.0,0.0,0.0,0.0,0.0,0.0,0.0,0.0,0.0
21790696000,21790616000,2.316126e-05,0.0,0.00039010757,0.00022099022,0.0,0.0,0.0,0.0,0.0,0.0,0.0,0.0,0.0,1.6873517e-05,0.0,0.0,nan,0.0,0.0,0.00081021816,0.0,0.0,0.0,0.0,0.0,0.0,0.0,0.0,0.0
21791200000,21791120000,0.00022035568,0.0,0.00091586885,0.00022859056,0.0,0.0,0.0,0.0,0.0,0.0,0.0,0.0,0.0,3.5986177e-05,0.0,0.0,nan,0.0,0.0,2.0638721e-05,0.0,0.0,0.0,0.0,0.0,0.0,0.0,0.0,0.0
21791704000,21791624000,5.3339947e-05,0.0,0.0021558509,0.0005485428,0.0,0.0,0.0,0.0,0.0,0.0,0.0,0.0,0.0,6.921153e-05,0.0,0.0,nan,0.0,0.0,3.6932258e-06,0.0,0.0,0.0,0.0,0.0,0.0,0.0,0.0,0.0
21792200000,21792120000,5.1380715e-07,0.0,3.2864384e-05,0.00019855774,0.0,0.0,0.0,0.0,0.0,0.0,0.0,0.0,0.0,0.00019187285,0.0,0.0,nan,0.0,0.0,3.55812e-05,0.0,0.0,0.0,0.0,0.0,0.0,0.0,0.0,0.0
21792704000,21792624000,0.00021910801,0.0,0.00135667,0.0002214408,0.0,0.0,0.0,0.0,0.0,0.0,0.0,0.0,0.0,7.5808643e-06,0.0,0.0,nan,0.0,0.0,5.4133758e-05,0.0,0.0,0.0,0.0,0.0,0.0,0.0,0.0,0.0
21793200000,21793120000,0.00041617625,0.0,0.00034408295,0.000180873,0.0,0.0,0.0,0.0,0.0,0.0,0.0,0.0,0.0,5.7683363e-05,0.0,0.0,nan,0.0,0.0,4.986419e-05,0.0,0.0,0.0,0.0,0.0,0.0,0.0,0.0,0.0
21793704000,21793624000,1.9941803e-05,0.0,0.0014189428,3.3361e-05,0.0,0.0,0.0,0.0,0.0,0.0,0.0,0.0,0.0,9.631793e-06,0.0,0.0,nan,0.0,0.0,9.656471e-06,0.0,0.0,0.0,0.0,0.0,0.0,0.0,0.0,0.0
21794200000,21794120000,0.00013794473,0.0,0.0014180628,0.000140631,0.0,0.0,0.0,0.0,0.0,0.0,0.0,0.0,0.0,5.0969986e-05,0.0,0.0,nan,0.0,0.0,1.2207582e-06,0.0,0.0,0.0,0.0,0.0,0.0,0.0,0.0,0.0
21794704000,21794624000,0.00023219672,0.0,0.0003374814,8.774716e-05,0.0,0.0,0.0,0.0,0.0,0.0,0.0,0.0,0.0,6.7482247e-06,0.0,0.0,nan,0.0,0.0,0.00014047517,0.0,0.0,0.0,0.0,0.0,0.0,0.0,0.0,0.0
21795200000,21795120000,0.00033082126,0.0,0.0008999206,0.000110299596,0.0,0.0,0.0,0.0,0.0,0.0,0.0,0.0,0.0,4.5149525e-05,0.0,0.0,nan,0.0,0.0,0.00064813416,0.0,0.0,0.0,0.0,0.0,0.0,0.0,0.0,0.0
21795696000,21795616000,0.0004508564,0.0,0.0010415411,0.0003605458,0.0,0.0,0.0,0.0,0.0,0.0,0.0,0.0,0.0,5.2548654e-05,0.0,0.0,nan,0.0,0.0,5.550118e-05,0.0,0.0,0.0,0.0,0.0,0.0,0.0,0.0,0.0
21796200000,21796120000,0.0007793005,0.0,2.8919943e-05,0.00023907257,0.0,0.0,0.0,0.0,0.0,0.0,0.0,0.0,0.0,2.6256568e-05,0.0,0.0,nan,0.0,0.0,1.255691e-05,0.0,0.0,0.0,0.0,0.0,0.0,0.0,0.0,0.0
21796704000,21796624000,0.00057059556,0.0,9.730791e-05,8.4219595e-05,0.0,0.0,0.0,0.0,0.0,0.0,0.0,0.0,0.0,1.8811169e-06,0.0,0.0,nan,0.0,0.0,0.00019303247,0.0,0.0,0.0,0.0,0.0,0.0,0.0,0.0,0.0
21797200000,21797120000,0.001199703,0.0,0.00017906692,0.00014063995,0.0,0.0,0.0,0.0,0.0,0.0,0.0,0.0,0.0,4.2395917e-05,0.0,0.0,nan,0.0,0.0,0.00015532757,0.0,0.0,0.0,0.0,0.0,0.0,0.0,0.0,0.0
21797704000,21797624000,0.0012292523,0.0,4.913974e-05,0.00022333527,0.0,0.0,0.0,0.0,0.0,0.0,0.0,0.0,0.0,2.2915046e-05,0.0,0.0,nan,0.0,0.0,3.6305782e-06,0.0,0.0,0.0,0.0,0.0,0.0,0.0,0.0,0.0
21798200000,21798120000,0.0010989605,0.0,0.00021616035,0.00044550374,0.0,0.0,0.0,0.0,0.0,0.0,0.0,0.0,0.0,9.5308926e-05,0.0,0.0,nan,0.0,0.0,1.2493113e-05,0.0,0.0,0.0,0.0,0.0,0.0,0.0,0.0,0.0
21798696000,21798616000,0.00047903464,0.0,0.00016932903,0.00021350717,0.0,0.0,0.0,0.0,0.0,0.0,0.0,0.0,0.0,2.1032241e-05,0.0,0.0,nan,0.0,0.0,6.8767395e-06,0.0,0.0,0.0,0.0,0.0,0.0,0.0,0.0,0.0
21799200000,21799120000,0.0016780474,0.0,3.8342365e-05,0.00044337142,0.0,0.0,0.0,0.0,0.0,0.0,0.0,0.0,0.0,5.2012856e-05,0.0,0.0,nan,0.0,0.0,3.387714e-06,0.0,0.0,0.0,0.0,0.0,0.0,0.0,0.0,0.0
21799696000,21799616000,0.00086269015,0.0,9.934856e-06,0.0001636172,0.0,0.0,0.0,0.0,0.0,0.0,0.0,0.0,0.0,5.303146e-05,0.0,0.0,nan,0.0,0.0,4.7537582e-05,0.0,0.0,0.0,0.0,0.0,0.0,0.0,0.0,0.0
21800200000,21800120000,0.0021966666,0.0,1.711531e-06,0.00015157422,0.0,0.0,0.0,0.0,0.0,0.0,0.0,0.0,0.0,1.8714072e-05,0.0,0.0,nan,0.0,0.0,0.000106510066,0.0,0.0,0.0,0.0,0.0,0.0,0.0,0.0,0.0
21800704000,21800624000,0.0006407622,0.0,3.9547594e-05,0.00040609212,0.0,0.0,0.0,0.0,0.0,0.0,0.0,0.0,0.0,5.5315497e-05,0.0,0.0,nan,0.0,0.0,4.031479e-05,0.0,0.0,0.0,0.0,0.0,0.0,0.0,0.0,0.0
21801200000,21801120000,0.0019866358,0.0,0.00010624336,0.00056786084,0.0,0.0,0.0,0.0,0.0,0.0,0.0,0.0,0.0,1.2676093e-05,0.0,0.0,nan,0.0,0.0,1.2008211e-05,0.0,0.0,0.0,0.0,0.0,0.0,0.0,0.0,0.0
21801704000,21801624000,0.0025940354,0.0,0.00021458436,0.00060768286,0.0,0.0,0.0,0.0,0.0,0.0,0.0,0.0,0.0,2.6891903e-06,0.0,0.0,nan,0.0,0.0,5.6646655e-07,0.0,0.0,0.0,0.0,0.0,0.0,0.0,0.0,0.0
21802200000,21802120000,0.0018654505,0.0,2.8807688e-05,0.00031361953,0.0,0.0,0.0,0.0,0.0,0.0,0.0,0.0,0.0,1.0306856e-05,0.0,0.0,nan,0.0,0.0,0.00011135247,0.0,0.0,0.0,0.0,0.0,0.0,0.0,0.0,0.0
21802704000,21802624000,0.0014780797,0.0,0.00024059374,0.0003224305,0.0,0.0,0.0,0.0,0.0,0.0,0.0,0.0,0.0,1.5119577e-08,0.0,0.0,nan,0.0,0.0,7.405697e-06,0.0,0.0,0.0,0.0,0.0,0.0,0.0,0.0,0.0
21803200000,21803120000,0.0028135676,0.0,8.650103e-05,0.00064856664,0.0,0.0,0.0,0.0,0.0,0.0,0.0,0.0,0.0,2.5933061e-06,0.0,0.0,nan,0.0,0.0,1.4921903e-06,0.0,0.0,0.0,0.0,0.0,0.0,0.0,0.0,0.0
21803696000,21803616000,0.0009940262,0.0,0.0005267138,0.0004731563,0.0,0.0,0.0,0.0,0.0,0.0,0.0,0.0,0.0,1.5455173e-07,0.0,0.0,nan,0.0,0.0,9.346601e-05,0.0,0.0,0.0,0.0,0.0,0.0,0.0,0.0,0.0
21804200000,21804120000,0.0016635549,0.0,3.9681574e-05,0.00044502315,0.0,0.0,0.0,0.0,0.0,0.0,0.0,0.0,0.0,2.8821289e-05,0.0,0.0,nan,0.0,0.0,6.0821843e-05,0.0,0.0,0.0,0.0,0.0,0.0,0.0,0.0,0.0
21804704000,21804624000,0.0008841653,0.0,0.00039430754,0.00028505182,0.0,0.0,0.0,0.0,0.0,0.0,0.0,0.0,0.0,1.5245444e-06,0.0,0.0,nan,0.0,0.0,2.562174e-05,0.0,0.0,0.0,0.0,0.0,0.0,0.0,0.0,0.0
21805200000,21805120000,0.0009655677,0.0,0.00053875643,0.00046491035,0.0,0.0,0.0,0.0,0.0,0.0,0.0,0.0,0.0,2.0256193e-05,0.0,0.0,nan,0.0,0.0,0.00032844912,0.0,0.0,0.0,0.0,0.0,0.0,0.0,0.0,0.0
21805704000,21805624000,0.0012440474,0.0,1.1258445e-05,0.00039506127,0.0,0.0,0.0,0.0,0.0,0.0,0.0,0.0,0.0,2.7062956e-06,0.0,0.0,nan,0.0,0.0,8.986496e-06,0.0,0.0,0.0,0.0,0.0,0.0,0.0,0.0,0.0
21806200000,21806120000,0.0005011698,0.0,0.00026346688,0.00036480164,0.0,0.0,0.0,0.0,0.0,0.0,0.0,0.0,0.0,8.77781e-06,0.0,0.0,nan,0.0,0.0,4.7390273e-05,0.0,0.0,0.0,0.0,0.0,0.0,0.0,0.0,0.0
21806696000,21806616000,0.0052938443,0.0,0.015153416,0.00050814106,0.0,0.0,0.0,0.0,0.0,0.0,0.0,0.0,0.0,3.2210915e-05,0.0,0.0,nan,0.0,0.0,0.0011214799,0.0,0.0,0.0,0.0,0.0,0.0,0.0,0.0,0.0
21807200000,21807120000,0.028765457,0.0,0.0026753992,0.00085679354,0.0,0.0,0.0,0.0,0.0,0.0,0.0,0.0,0.0,5.1669005e-05,0.0,0.0,nan,0.0,0.0,0.0,0.0016732464,0.0,0.0,0.0,0.0,0.0,0.0,0.0,0.0
21807704000,21807624000,0.004372392,0.0,3.0625072e-06,0.0004576504,0.0,0.0,0.0,0.0,0.0,0.0,0.0,0.0,0.0,2.0921692e-05,0.0,0.0,nan,0.0,0.0,0.0,0.0004774584,0.0,0.0,0.0,0.0,0.0,0.0,0.0,0.0
21808200000,21808120000,0.0016046144,0.0,0.0010477437,0.00024162655,0.0,0.0,0.0,0.0,0.0,0.0,0.0,0.0,0.0,2.7484288e-05,0.0,0.0,nan,0.0,0.0,0.0,0.0010545261,0.0,0.0,0.0,0.0,0.0,0.0,0.0,0.0
21808704000,21808624000,0.001357755,0.0,3.4594097e-05,0.00016148943,0.0,0.0,0.0,0.0,0.0,0.0,0.0,0.0,0.0,0.0,0.0,0.0,nan,0.0,0.0,0.0,2.3127206e-05,0.0,0.0,0.0,0.0,0.0,0.0,0.0,0.0
21809200000,21809120000,0.00056861265,0.0,5.488068e-06,0.000119839584,0.0,0.0,0.0,0.0,0.0,0.0,0.0,0.0,0.0,0.0,0.0,0.0,nan,0.0,0.0,0.0,0.0015176036,0.0,0.0,0.0,0.0,0.0,0.0,0.0,0.0
21809704000,21809624000,0.0029879864,0.0,0.000140423,3.9421295e-05,0.0,0.0,0.0,0.0,0.0,0.0,0.0,0.0,0.0,0.0,0.0,0.0,nan,0.0,0.0,0.0,3.5848672e-05,0.0,0.0,0.0,0.0,0.0,0.0,0.0,0.0
21810200000,21810120000,0.0023789133,0.0,0.00024197165,5.030165e-05,0.0,0.0,0.0,0.0,0.0,0.0,0.0,0.0,0.0,0.0,0.0,0.0,nan,0.0,0.0,0.0,2.8320375e-05,0.0,0.0,0.0,0.0,0.0,0.0,0.0,0.0
21810704000,21810624000,0.0034008261,0.0,0.00067223,5.980356e-06,0.0,0.0,0.0,0.0,0.0,0.0,0.0,0.0,0.0,0.0,0.0,0.0,nan,0.0,0.0,0.0,0.0012821333,0.0,0.0,0.0,0.0,0.0,0.0,0.0,0.0
21811200000,21811120000,0.003110577,0.0,0.0009201463,1.4188693e-05,0.0,0.0,0.0,0.0,0.0,0.0,0.0,0.0,0.0,0.0,0.0,0.0,nan,0.0,0.0,0.0,0.0004978918,0.0,0.0,0.0,0.0,0.0,0.0,0.0,0.0
21811704000,21811624000,0.0019931032,0.0,0.0033855103,1.038771e-05,0.0,0.0,0.0,0.0,0.0,0.0,0.0,0.0,0.0,0.0,0.0,0.0,nan,0.0,0.0,0.0,0.0036209573,0.0,0.0,0.0,0.0,0.0,0.0,0.0,0.0
21812200000,21812120000,0.0021167304,0.0,0.0020809453,2.3475099e-05,0.0,0.0,0.0,0.0,0.0,0.0,0.0,0.0,0.0,0.0,0.0,0.0,nan,0.0,0.0,0.0,0.00064659386,0.0,0.0,0.0,0.0,0.0,0.0,0.0,0.0
21812704000,21812624000,0.0022538959,0.0,0.005584783,4.218128e-05,0.0,0.0,0.0,0.0,0.0,0.0,0.0,0.0,0.0,0.0,0.0,0.0,nan,0.0,0.0,0.00054712826,0.0,0.0,0.0,0.0,0.0,0.0,0.0,0.0,0.0
21813200000,21813120000,0.0014009067,0.0,0.0051665213,2.4388832e-05,0.0,0.0,0.0,0.0,0.0,0.0,0.0,0.0,0.0,0.0,0.0,0.0,nan,0.0,0.0,2.3423183e-05,0.0,0.0,0.0,0.0,0.0,0.0,0.0,0.0,0.0
21813704000,21813624000,0.0013596546,0.0,0.004823887,3.079544e-05,0.0,0.0,0.0,0.0,0.0,0.0,0.0,0.0,0.0,0.0,0.0,0.0,nan,0.0,0.0,1.9897907e-06,0.0,0.0,0.0,0.0,0.0,0.0,0.0,0.0,0.0
21814200000,21814120000,0.0007355719,0.0,0.0018037492,1.9685242e-05,0.0,0.0,0.0,0.0,0.0,0.0,0.0,0.0,0.0,0.0,0.0,0.0,nan,0.0,0.0,0.00045323197,0.0,0.0,0.0,0.0,0.0,0.0,0.0,0.0,0.0
21814704000,21814624000,0.0002504303,0.0,0.0017892815,1.6986216e-05,0.0,0.0,0.0,0.0,0.0,0.0,0.0,0.0,0.0,0.0,0.0,0.0,nan,0.0,0.0,0.001243748,0.0,0.0,0.0,0.0,0.0,0.0,0.0,0.0,0.0
21815200000,21815120000,0.000100768026,0.0,0.0024986155,1.6548747e-05,0.0,0.0,0.0,0.0,0.0,0.0,0.0,0.0,0.0,0.0,0.0,0.0,nan,0.0,0.0,2.009341e-05,0.0,0.0,0.0,0.0,0.0,0.0,0.0,0.0,0.0
21815704000,21815624000,0.00010005597,0.0,0.0032801742,9.20848e-06,0.0,0.0,0.0,0.0,0.0,0.0,0.0,0.0,0.0,7.1147434e-07,0.0,0.0,nan,0.0,0.0,0.0008330357,0.0,0.0,0.0,0.0,0.0,0.0,0.0,0.0,0.0
21816200000,21816120000,0.00017857987,0.0,0.00069706666,7.094014e-06,0.0,0.0,0.0,0.0,0.0,0.0,0.0,0.0,0.0,7.694989e-06,0.0,0.0,nan,0.0,0.0,0.00037418652,0.0,0.0,0.0,0.0,0.0,0.0,0.0,0.0,0.0
21816696000,21816616000,0.0003069821,0.0,0.000686459,1.8415935e-06,0.0,0.0,0.0,0.0,0.0,0.0,0.0,0.0,0.0,1.1232155e-06,0.0,0.0,nan,0.0,0.0,3.764894e-06,0.0,0.0,0.0,0.0,0.0,0.0,0.0,0.0,0.0
21817200000,21817120000,0.00010238474,0.0,0.0017354902,8.734454e-06,0.0,0.0,0.0,0.0,0.0,0.0,0.0,0.0,0.0,1.3866726e-08,0.0,0.0,nan,0.0,0.0,5.5728957e-05,0.0,0.0,0.0,0.0,0.0,0.0,0.0,0.0,0.0
21817704000,21817624000,0.00035203298,0.0,4.416513e-06,9.167253e-06,0.0,0.0,0.0,0.0,0.0,0.0,0.0,0.0,0.0,1.7850422e-07,0.0,0.0,nan,0.0,0.0,6.870381e-06,0.0,0.0,0.0,0.0,0.0,0.0,0.0,0.0,0.0
21818200000,21818120000,0.00013534809,0.0,8.0224716e-05,8.603646e-06,0.0,0.0,0.0,0.0,0.0,0.0,0.0,0.0,0.0,2.447439e-05,0.0,0.0,nan,0.0,0.0,0.0003116837,0.0,0.0,0.0,0.0,0.0,0.0,0.0,0.0,0.0
21818704000,21818624000,0.000856676,0.0,0.00039803772,5.9212584e-06,0.0,0.0,0.0,0.0,0.0,0.0,0.0,0.0,0.0,7.227364e-05,0.0,0.0,nan,0.0,0.0,0.0005810011,0.0,0.0,0.0,0.0,0.0,0.0,0.0,0.0,0.0
21819200000,21819120000,0.00018514183,0.0,0.000118720796,4.0570753e-06,0.0,0.0,0.0,0.0,0.0,0.0,0.0,0.0,0.0,0.0,0.0,0.0,nan,0.0,0.0,0.00034440504,0.0,0.0,0.0,0.0,0.0,0.0,0.0,0.0,0.0
21819704000,21819624000,0.00067281147,0.0,0.00025039638,4.8260736e-06,0.0,0.0,0.0,0.0,0.0,0.0,0.0,0.0,0.0,7.6084994e-05,0.0,0.0,nan,0.0,0.0,0.00023771315,0.0,0.0,0.0,0.0,0.0,0.0,0.0,0.0,0.0
21820200000,21820120000,0.00064082234,0.0,0.00057697255,9.2327655e-06,0.0,0.0,0.0,0.0,0.0,0.0,0.0,0.0,0.0,1.6120322e-05,0.0,0.0,nan,0.0,0.0,6.2490915e-05,0.0,0.0,0.0,0.0,0.0,0.0,0.0,0.0,0.0
21820696000,21820616000,0.00093139533,0.0,0.00062629866,1.1318993e-05,0.0,0.0,0.0,0.0,0.0,0.0,0.0,0.0,0.0,5.6604677e-05,0.0,0.0,nan,0.0,0.0,3.0546506e-08,0.0,0.0,0.0,0.0,0.0,0.0,0.0,0.0,0.0
21821200000,21821120000,0.00014169539,0.0,2.0355349e-06,1.3368252e-05,0.0,0.0,0.0,0.0,0.0,0.0,0.0,0.0,0.0,0.0,0.0,0.0,nan,0.0,0.0,3.8982867e-05,0.0,0.0,0.0,0.0,0.0,0.0,0.0,0.0,0.0
21821704000,21821624000,0.000858551,0.0,0.00053164765,2.0228186e-05,0.0,0.0,0.0,0.0,0.0,0.0,0.0,0.0,0.0,1.6372036e-06,0.0,0.0,nan,0.0,0.0,0.00090274005,0.0,0.0,0.0,0.0,0.0,0.0,0.0,0.0,0.0
21822200000,21822120000,0.0006076227,0.0,7.889727e-06,1.322469e-05,0.0,0.0,0.0,0.0,0.0,0.0,0.0,0.0,0.0,2.5483375e-06,0.0,0.0,nan,0.0,0.0,0.0007918395,0.0,0.0,0.0,0.0,0.0,0.0,0.0,0.0,0.0
21822704000,21822624000,0.0012445984,0.0,6.954314e-05,3.3840097e-05,0.0,0.0,0.0,0.0,0.0,0.0,0.0,0.0,0.0,2.457176e-05,0.0,0.0,nan,0.0,0.0,0.0001377341,0.0,0.0,0.0,0.0,0.0,0.0,0.0,0.0,0.0
21823200000,21823120000,0.00043199488,0.0,0.00017176307,1.9867563e-05,0.0,0.0,0.0,0.0,0.0,0.0,0.0,0.0,0.0,1.7281349e-05,0.0,0.0,nan,0.0,0.0,9.38868e-05,0.0,0.0,0.0,0.0,0.0,0.0,0.0,0.0,0.0
21823704000,21823624000,0.00047133083,0.0,0.00010632794,1.6017637e-05,0.0,0.0,0.0,0.0,0.0,0.0,0.0,0.0,0.0,0.0,0.0,0.0,nan,0.0,0.0,0.00014974794,0.0,0.0,0.0,0.0,0.0,0.0,0.0,0.0,0.0
21824200000,21824120000,0.00023096251,0.0,9.317465e-05,2.484633e-05,0.0,0.0,0.0,0.0,0.0,0.0,0.0,0.0,0.0,1.0492116e-05,0.0,0.0,nan,0.0,0.0,0.0013179778,0.0,0.0,0.0,0.0,0.0,0.0,0.0,0.0,0.0
21824704000,21824624000,0.00012179142,0.0,3.3620488e-06,2.1203762e-07,0.0,0.0,0.0,0.0,0.0,0.0,0.0,0.0,0.0,7.009611e-06,0.0,0.0,nan,0.0,0.0,0.0001252195,0.0,0.0,0.0,0.0,0.0,0.0,0.0,0.0,0.0
21825200000,21825120000,0.00010976271,0.0,0.00020785023,1.5675129e-06,0.0,0.0,0.0,0.0,0.0,0.0,0.0,0.0,0.0,2.2961136e-05,0.0,0.0,nan,0.0,0.0,6.4625838e-06,0.0,0.0,0.0,0.0,0.0,0.0,0.0,0.0,0.0
21825704000,21825624000,3.477799e-05,0.0,1.8207242e-06,7.397474e-06,0.0,0.0,0.0,0.0,0.0,0.0,0.0,0.0,0.0,0.0,0.0,0.0,nan,0.0,0.0,0.00038671406,0.0,0.0,0.0,0.0,0.0,0.0,0.0,0.0,0.0
21826200000,21826120000,0.00025651723,0.0,0.00026831945,6.5974286e-06,0.0,0.0,0.0,0.0,0.0,0.0,0.0,0.0,0.0,1.9619922e-06,0.0,0.0,nan,0.0,0.0,0.0011633842,0.0,0.0,0.0,0.0,0.0,0.0,0.0,0.0,0.0
21826704000,21826624000,0.00067622185,0.0,0.00010930129,1.306109e-05,0.0,0.0,0.0,0.0,0.0,0.0,0.0,0.0,0.0,0.0,0.0,0.0,nan,0.0,0.0,5.3567856e-05,0.0,0.0,0.0,0.0,0.0,0.0,0.0,0.0,0.0
21827200000,21827120000,0.00030036087,0.0,0.00042996285,5.9113245e-06,0.0,0.0,0.0,0.0,0.0,0.0,0.0,0.0,0.0,9.1010855e-07,0.0,0.0,nan,0.0,0.0,2.568383e-05,0.0,0.0,0.0,0.0,0.0,0.0,0.0,0.0,0.0
21827696000,21827616000,0.00073073484,0.0,6.310042e-05,1.2682065e-05,0.0,0.0,0.0,0.0,0.0,0.0,0.0,0.0,0.0,0.0,0.0,0.0,nan,0.0,0.0,0.00054493657,0.0,0.0,0.0,0.0,0.0,0.0,0.0,0.0,0.0
21828200000,21828120000,0.0010092932,0.0,4.2171414e-05,1.7040295e-05,0.0,0.0,0.0,0.0,0.0,0.0,0.0,0.0,0.0,7.0165434e-08,0.0,0.0,nan,0.0,0.0,0.00010210714,0.0,0.0,0.0,0.0,0.0,0.0,0.0,0.0,0.0
21828704000,21828624000,0.00048496897,0.0,4.6742593e-05,3.2737742e-05,0.0,0.0,0.0,0.0,0.0,0.0,0.0,0.0,0.0,0.0,0.0,0.0,nan,0.0,0.0,0.00028854978,0.0,0.0,0.0,0.0,0.0,0.0,0.0,0.0,0.0
21829200000,21829120000,0.0005699103,0.0,0.0011861385,5.15902e-05,0.0,0.0,0.0,0.0,0.0,0.0,0.0,0.0,0.0,0.0,0.0,0.0,nan,0.0,0.0,1.0760311e-06,0.0,0.0,0.0,0.0,0.0,0.0,0.0,0.0,0.0
21829704000,21829624000,0.0005945447,0.0,0.00036131608,6.699608e-05,0.0,0.0,0.0,0.0,0.0,0.0,0.0,0.0,0.0,0.0,0.0,0.0,nan,0.0,0.0,8.93098e-05,0.0,0.0,0.0,0.0,0.0,0.0,0.0,0.0,0.0
21830200000,21830120000,0.0008059883,0.0,6.522204e-05,7.506217e-05,0.0,0.0,0.0,0.0,0.0,0.0,0.0,0.0,0.0,0.0,0.0,0.0,nan,0.0,0.0,6.707421e-05,0.0,0.0,0.0,0.0,0.0,0.0,0.0,0.0,0.0
21830704000,21830624000,0.00012882082,0.0,0.0012361533,6.385105e-05,0.0,0.0,0.0,0.0,0.0,0.0,0.0,0.0,0.0,0.0,0.0,0.0,nan,0.0,0.0,0.0002541101,0.0,0.0,0.0,0.0,0.0,0.0,0.0,0.0,0.0
21831200000,21831120000,0.00014355122,0.0,5.3742415e-06,4.346927e-05,0.0,0.0,0.0,0.0,0.0,0.0,0.0,0.0,0.0,0.0,0.0,0.0,nan,0.0,0.0,9.236471e-05,0.0,0.0,0.0,0.0,0.0,0.0,0.0,0.0,0.0
21831704000,21831624000,4.4241373e-05,0.0,1.3534015e-05,3.196147e-05,0.0,0.0,0.0,0.0,0.0,0.0,0.0,0.0,0.0,0.0,0.0,0.0,nan,0.0,0.0,6.365761e-06,0.0,0.0,0.0,0.0,0.0,0.0,0.0,0.0,0.0
21832200000,21832120000,0.00060561177,0.0,1.0685245e-05,4.3412136e-05,0.0,0.0,0.0,0.0,0.0,0.0,0.0,0.0,0.0,0.0,0.0,0.0,nan,0.0,0.0,9.501092e-05,0.0,0.0,0.0,0.0,0.0,0.0,0.0,0.0,0.0
21832704000,21832624000,0.00035093827,0.0,6.980511e-07,2.414395e-05,0.0,0.0,0.0,0.0,0.0,0.0,0.0,0.0,0.0,0.0,0.0,0.0,nan,0.0,0.0,0.0003825582,0.0,0.0,0.0,0.0,0.0,0.0,0.0,0.0,0.0
21833200000,21833120000,0.0003643772,0.0,0.0005739673,1.8415938e-05,0.0,0.0,0.0,0.0,0.0,0.0,0.0,0.0,0.0,0.0,0.0,0.0,nan,0.0,0.0,0.000104148094,0.0,0.0,0.0,0.0,0.0,0.0,0.0,0.0,0.0
21833704000,21833624000,0.00037731038,0.0,1.705765e-07,7.4039704e-06,0.0,0.0,0.0,0.0,0.0,0.0,0.0,0.0,0.0,0.0,0.0,0.0,nan,0.0,0.0,0.0003786154,0.0,0.0,0.0,0.0,0.0,0.0,0.0,0.0,0.0
21834200000,21834120000,0.00045367054,0.0,0.00017464145,7.774427e-06,0.0,0.0,0.0,0.0,0.0,0.0,0.0,0.0,0.0,0.0,0.0,0.0,nan,0.0,0.0,9.270117e-05,0.0,0.0,0.0,0.0,0.0,0.0,0.0,0.0,0.0
21834704000,21834624000,0.00027257108,0.0,0.00036082783,1.00144625e-05,0.0,0.0,0.0,0.0,0.0,0.0,0.0,0.0,0.0,0.0,0.0,0.0,nan,0.0,0.0,6.112491e-05,0.0,0.0,0.0,0.0,0.0,0.0,0.0,0.0,0.0
21835200000,21835120000,0.00010221697,0.0,4.4102722e-05,7.310818e-06,0.0,0.0,0.0,0.0,0.0,0.0,0.0,0.0,0.0,0.0,0.0,0.0,nan,0.0,0.0,7.973925e-06,0.0,0.0,0.0,0.0,0.0,0.0,0.0,0.0,0.0
21835696000,21835616000,0.00011703783,0.0,0.00017538732,1.0092355e-05,0.0,0.0,0.0,0.0,0.0,0.0,0.0,0.0,0.0,0.0,0.0,0.0,nan,0.0,0.0,1.8312128e-06,0.0,0.0,0.0,0.0,0.0,0.0,0.0,0.0,0.0
21836200000,21836120000,0.00013460268,0.0,1.4085313e-05,9.2144855e-06,0.0,0.0,0.0,0.0,0.0,0.0,0.0,0.0,0.0,0.0,0.0,0.0,nan,0.0,0.0,0.0003829078,0.0,0.0,0.0,0.0,0.0,0.0,0.0,0.0,0.0
21836696000,21836616000,0.00014380786,0.0,0.00011798806,7.4149298e-06,0.0,0.0,0.0,0.0,0.0,0.0,0.0,0.0,0.0,0.0,0.0,0.0,nan,0.0,0.0,4.1654434e-06,0.0,0.0,0.0,0.0,0.0,0.0,0.0,0.0,0.0
21837200000,21837120000,0.00016576868,0.0,8.135791e-06,2.8595052e-05,0.0,0.0,0.0,0.0,0.0,0.0,0.0,0.0,0.0,0.0,0.0,0.0,nan,0.0,0.0,0.00097133697,0.0,0.0,0.0,0.0,0.0,0.0,0.0,0.0,0.0
21837696000,21837616000,0.0006184789,0.0,0.00010409464,1.5182555e-05,0.0,0.0,0.0,0.0,0.0,0.0,0.0,0.0,0.0,0.0,0.0,0.0,nan,0.0,0.0,8.749453e-07,0.0,0.0,0.0,0.0,0.0,0.0,0.0,0.0,0.0
21838200000,21838120000,0.00013164738,0.0,0.00020119513,2.54382e-05,0.0,0.0,0.0,0.0,0.0,0.0,0.0,0.0,0.0,0.0,0.0,0.0,nan,0.0,0.0,0.0014500936,0.0,0.0,0.0,0.0,0.0,0.0,0.0,0.0,0.0
21838696000,21838616000,0.00057156594,0.0,1.8485612e-07,3.747085e-05,0.0,0.0,0.0,0.0,0.0,0.0,0.0,0.0,0.0,0.0,0.0,0.0,nan,0.0,0.0,0.0002286987,0.0,0.0,0.0,0.0,0.0,0.0,0.0,0.0,0.0
21839200000,21839120000,0.00041171932,0.0,0.0001383681,3.206689e-05,0.0,0.0,0.0,0.0,0.0,0.0,0.0,0.0,0.0,0.0,0.0,0.0,nan,0.0,0.0,8.226993e-05,0.0,0.0,0.0,0.0,0.0,0.0,0.0,0.0,0.0
21839704000,21839624000,0.00060570735,0.0,0.0003964441,5.3275693e-05,0.0,0.0,0.0,0.0,0.0,0.0,0.0,0.0,0.0,0.0,0.0,0.0,nan,0.0,0.0,7.517375e-05,0.0,0.0,0.0,0.0,0.0,0.0,0.0,0.0,0.0
21840200000,21840120000,0.00034004994,0.0,2.2583206e-06,2.8587225e-05,0.0,0.0,0.0,0.0,0.0,0.0,0.0,0.0,0.0,0.0,0.0,0.0,nan,0.0,0.0,9.7040866e-05,0.0,0.0,0.0,0.0,0.0,0.0,0.0,0.0,0.0
21840704000,21840624000,0.0010821171,0.0,0.0001723568,4.0910476e-05,0.0,0.0,0.0,0.0,0.0,0.0,0.0,0.0,0.0,0.0,0.0,0.0,nan,0.0,0.0,2.2021837e-05,0.0,0.0,0.0,0.0,0.0,0.0,0.0,0.0,0.0
21841200000,21841120000,0.0002889999,0.0,0.0007888462,3.6111654e-05,0.0,0.0,0.0,0.0,0.0,0.0,0.0,0.0,0.0,0.0,0.0,0.0,nan,0.0,0.0,4.8436745e-05,0.0,0.0,0.0,0.0,0.0,0.0,0.0,0.0,0.0
21841704000,21841624000,0.00014054138,0.0,4.9619064e-08,1.8938403e-05,0.0,0.0,0.0,0.0,0.0,0.0,0.0,0.0,0.0,0.0,0.0,0.0,nan,0.0,0.0,1.4511596e-06,0.0,0.0,0.0,0.0,0.0,0.0,0.0,0.0,0.0
21842200000,21842120000,0.00031957935,0.0,0.00011358012,2.8892826e-05,0.0,0.0,0.0,0.0,0.0,0.0,0.0,0.0,0.0,0.0,0.0,0.0,nan,0.0,0.0,7.7873075e-05,0.0,0.0,0.0,0.0,0.0,0.0,0.0,0.0,0.0
21842704000,21842624000,0.00093308534,0.0,1.6114072e-05,2.3246112e-05,0.0,0.0,0.0,0.0,0.0,0.0,0.0,0.0,0.0,0.0,0.0,0.0,nan,0.0,0.0,0.00020924456,0.0,0.0,0.0,0.0,0.0,0.0,0.0,0.0,0.0
21843200000,21843120000,0.0019321442,0.0,0.00011909934,3.8674654e-05,0.0,0.0,0.0,0.0,0.0,0.0,0.0,0.0,0.0,0.0,0.0,0.0,nan,0.0,0.0,0.00010971781,0.0,0.0,0.0,0.0,0.0,0.0,0.0,0.0,0.0
21843704000,21843624000,0.001037569,0.0,4.2770458e-07,3.3400607e-05,0.0,0.0,0.0,0.0,0.0,0.0,0.0,0.0,0.0,0.0,0.0,0.0,nan,0.0,0.0,0.00034720486,0.0,0.0,0.0,0.0,0.0,0.0,0.0,0.0,0.0
21844200000,21844120000,0.0012975086,0.0,0.00024486947,3.9926457e-05,0.0,0.0,0.0,0.0,0.0,0.0,0.0,0.0,0.0,0.0,0.0,0.0,nan,0.0,0.0,0.000107923144,0.0,0.0,0.0,0.0,0.0,0.0,0.0,0.0,0.0
21844704000,21844624000,0.0009176749,0.0,5.1270556e-05,2.9084335e-05,0.0,0.0,0.0,0.0,0.0,0.0,0.0,0.0,0.0,0.0,0.0,0.0,nan,0.0,0.0,0.0013151675,0.0,0.0,0.0,0.0,0.0,0.0,0.0,0.0,0.0
21845200000,21845120000,0.0003134986,0.0,8.261104e-05,1.28416e-05,0.0,0.0,0.0,0.0,0.0,0.0,0.0,0.0,0.0,0.0,0.0,0.0,nan,0.0,0.0,0.0010556208,0.0,0.0,0.0,0.0,0.0,0.0,0.0,0.0,0.0
21845696000,21845616000,0.0008151633,0.0,0.00014459739,1.036028e-05,0.0,0.0,0.0,0.0,0.0,0.0,0.0,0.0,0.0,0.0,0.0,0.0,nan,0.0,0.0,4.7090583e-05,0.0,0.0,0.0,0.0,0.0,0.0,0.0,0.0,0.0
21846200000,21846120000,5.9514074e-05,0.0,0.00062476617,1.9829606e-05,0.0,0.0,0.0,0.0,0.0,0.0,0.0,0.0,0.0,0.0,0.0,0.0,nan,0.0,0.0,2.3465827e-06,0.0,0.0,0.0,0.0,0.0,0.0,0.0,0.0,0.0
21846704000,21846624000,0.0003210976,0.0,7.90546e-07,1.9079089e-05,0.0,0.0,0.0,0.0,0.0,0.0,0.0,0.0,0.0,0.0,0.0,0.0,nan,0.0,0.0,7.652586e-06,0.0,0.0,0.0,0.0,0.0,0.0,0.0,0.0,0.0
21847200000,21847120000,4.8976748e-05,0.0,0.0003925125,6.8939244e-06,0.0,0.0,0.0,0.0,0.0,0.0,0.0,0.0,0.0,0.0,0.0,0.0,nan,0.0,0.0,2.2490869e-05,0.0,0.0,0.0,0.0,0.0,0.0,0.0,0.0,0.0
21847704000,21847624000,0.00030907072,0.0,0.00056367595,4.776484e-06,0.0,0.0,0.0,0.0,0.0,0.0,0.0,0.0,0.0,0.0,0.0,0.0,nan,0.0,0.0,4.6608925e-06,0.0,0.0,0.0,0.0,0.0,0.0,0.0,0.0,0.0
21848200000,21848120000,0.00016473989,0.0,3.6088484e-05,3.1894842e-06,0.0,0.0,0.0,0.0,0.0,0.0,0.0,0.0,0.0,0.0,0.0,0.0,nan,0.0,0.0,1.55744e-05,0.0,0.0,0.0,0.0,0.0,0.0,0.0,0.0,0.0
21848704000,21848624000,0.00013296418,0.0,5.596848e-05,1.0224653e-05,0.0,0.0,0.0,0.0,0.0,0.0,0.0,0.0,0.0,0.0,0.0,0.0,nan,0.0,0.0,2.6245723e-05,0.0,0.0,0.0,0.0,0.0,0.0,0.0,0.0,0.0
21849200000,21849120000,0.00037759732,0.0,9.903537e-06,3.6996657e-06,0.0,0.0,0.0,0.0,0.0,0.0,0.0,0.0,0.0,0.0,0.0,0.0,nan,0.0,0.0,0.000273575,0.0,0.0,0.0,0.0,0.0,0.0,0.0,0.0,0.0
21849704000,21849624000,0.00013612148,0.0,0.00039206285,3.5506364e-06,0.0,0.0,0.0,0.0,0.0,0.0,0.0,0.0,0.0,0.0,0.0,0.0,nan,0.0,0.0,0.0003455927,0.0,0.0,0.0,0.0,0.0,0.0,0.0,0.0,0.0
21850200000,21850120000,6.590791e-05,0.0,0.00017679295,5.9005342e-06,0.0,0.0,0.0,0.0,0.0,0.0,0.0,0.0,0.0,0.0,0.0,0.0,nan,0.0,0.0,0.00020792361,0.0,0.0,0.0,0.0,0.0,0.0,0.0,0.0,0.0
21850704000,21850624000,0.00014478916,0.0,0.0006633245,2.0345018e-05,0.0,0.0,0.0,0.0,0.0,0.0,0.0,0.0,0.0,0.0,0.0,0.0,nan,0.0,0.0,1.2632782e-05,0.0,0.0,0.0,0.0,0.0,0.0,0.0,0.0,0.0
