timestamp,timestamp_sample,gps_hvel[0],gps_hvel[1],gps_vvel,gps_hpos[0],gps_hpos[1],gps_vpos,ev_hvel[0],ev_hvel[1],ev_vvel,ev_hpos[0],ev_hpos[1],ev_vpos,rng_vpos,baro_vpos,aux_hvel[0],aux_hvel[1],aux_vvel,flow[0],flow[1],heading,mag_field[0],mag_field[1],mag_field[2],drag[0],drag[1],airspeed,beta,hagl,hagl_rate
21726664000,21726584000,-0.00032069918,-0.0032280795,-0.0016015177,0.0012571216,0.0019756556,0.0,0.0,0.0,0.0,0.0,0.0,0.0,0.0,-0.040542603,0.0,0.0,nan,0.0,0.0,-0.018562198,0.00034142286,0.0017041415,-0.0030782819,0.0,0.0,0.0,0.0,0.0,0.0
21727160000,21727080000,-0.00019603004,-0.0003519739,-0.00039203514,-0.0097975135,0.0022366047,0.0,0.0,0.0,0.0,0.0,0.0,0.0,0.0,0.030883789,0.0,0.0,nan,0.0,0.0,0.018504262,0.00034142286,0.0017041415,-0.0030782819,0.0,0.0,0.0,0.0,0.0,0.0
21727664000,21727584000,-0.0019584834,0.00082952535,0.009249643,-0.009746909,0.00204432,0.0,0.0,0.0,0.0,0.0,0.0,0.0,0.0,0.0549469,0.0,0.0,nan,0.0,0.0,0.028994918,0.00034142286,0.0017041415,-0.0030782819,0.0,0.0,0.0,0.0,0.0,0.0
21728160000,21728080000,-0.008039031,0.0003204915,-0.0017688503,0.0014868975,0.0020947456,0.0,0.0,0.0,0.0,0.0,0.0,0.0,0.0,0.028778076,0.0,0.0,nan,0.0,0.0,0.0041610003,0.00034142286,0.0017041415,-0.0030782819,0.0,0.0,0.0,0.0,0.0,0.0
21728664000,21728584000,-0.001987066,0.009959473,-0.009494568,-0.009384811,-0.0060726404,0.0,0.0,0.0,0.0,0.0,0.0,0.0,0.0,0.010238647,0.0,0.0,nan,0.0,0.0,-0.021508455,0.00034142286,0.0017041415,-0.0030782819,0.0,0.0,0.0,0.0,0.0,0.0
21729160000,21729080000,-0.0030716883,-0.0013963475,-0.02001514,0.0016106963,-0.0061221123,0.0,0.0,0.0,0.0,0.0,0.0,0.0,0.0,-0.02357483,0.0,0.0,nan,0.0,0.0,0.0051066875,0.00034142286,0.0017041415,-0.0030782819,0.0,0.0,0.0,0.0,0.0,0.0
21729664000,21729584000,-0.00040019213,-0.00018112885,0.0011354084,0.0015653968,0.00204885,0.0,0.0,0.0,0.0,0.0,0.0,0.0,0.0,-0.10321045,0.0,0.0,nan,0.0,0.0,-0.024965167,0.00034142286,0.0017041415,-0.0030782819,0.0,0.0,0.0,0.0,0.0,0.0
21730160000,21730080000,0.019836728,-0.0004449158,0.03958676,0.0017125607,0.0020244122,0.0,0.0,0.0,0.0,0.0,0.0,0.0,0.0,-0.11647034,0.0,0.0,nan,0.0,0.0,-0.0006543398,0.00034142286,0.0017041415,-0.0030782819,0.0,0.0,0.0,0.0,0.0,0.0
21730664000,21730584000,0.00030921446,0.012459082,-0.01029903,-0.009476423,0.0017644167,0.0,0.0,0.0,0.0,0.0,0.0,0.0,0.0,0.0181427,0.0,0.0,nan,0.0,0.0,-0.020903826,0.00034142286,0.0017041415,-0.0030782819,0.0,0.0,0.0,0.0,0.0,0.0
21731160000,21731080000,-0.008935001,-0.010152816,0.011217924,0.0017803311,0.0016674995,0.0,0.0,0.0,0.0,0.0,0.0,0.0,0.0,-0.026626587,0.0,0.0,nan,0.0,0.0,-0.0064047575,0.00034142286,0.0017041415,-0.0030782819,0.0,0.0,0.0,0.0,0.0,0.0
21731656000,21731576000,0.0028739462,0.008820788,-0.040916532,0.0020199418,0.0017489195,0.0,0.0,0.0,0.0,0.0,0.0,0.0,0.0,-0.018630981,0.0,0.0,nan,0.0,0.0,0.0031843185,0.00034142286,0.0017041415,-0.0030782819,0.0,0.0,0.0,0.0,0.0,0.0
21732160000,21732080000,-0.010731292,0.0022488853,0.051011845,0.0014749765,0.0021932125,0.0,0.0,0.0,0.0,0.0,0.0,0.0,0.0,-0.021240234,0.0,0.0,nan,0.0,0.0,5.543232e-05,0.00034142286,0.0017041415,-0.0030782819,0.0,0.0,0.0,0.0,0.0,0.0
21732664000,21732584000,-0.0023931416,0.011104289,0.0004909704,0.0013539791,-0.0061547756,0.0,0.0,0.0,0.0,0.0,0.0,0.0,0.0,-0.015731812,0.0,0.0,nan,0.0,0.0,-0.0061929226,0.00034142286,0.0017041415,-0.0030782819,0.0,0.0,0.0,0.0,0.0,0.0
21733160000,21733080000,0.010183171,0.0009854451,-0.0059083425,-0.0096286535,0.0019955635,0.0,0.0,0.0,0.0,0.0,0.0,0.0,0.0,0.0,0.0,0.0,nan,0.0,0.0,-0.007510662,0.00034142286,0.0017041415,-0.0030782819,0.0,0.0,0.0,0.0,0.0,0.0
21733664000,21733584000,0.019284617,-0.011676721,-0.021900766,0.0012132525,0.0046895742,0.0,0.0,0.0,0.0,0.0,0.0,0.0,0.0,0.0,0.0,0.0,nan,0.0,0.0,0.010526776,0.00034142286,0.0017041415,-0.0030782819,0.0,0.0,0.0,0.0,0.0,0.0
21734160000,21734080000,-0.01332011,0.005332875,0.009461871,0.00020247698,0.008963108,0.0,0.0,0.0,0.0,0.0,0.0,0.0,0.0,0.005142212,0.0,0.0,nan,0.0,0.0,0.0021916628,0.00034142286,0.0017041415,-0.0030782819,0.0,0.0,0.0,0.0,0.0,0.0
21734656000,21734576000,-0.0140915625,0.004437318,-0.09540278,-0.004362464,0.018429518,0.0,0.0,0.0,0.0,0.0,0.0,0.0,0.0,0.09236145,0.0,0.0,nan,0.0,0.0,-0.0027805567,0.00034142286,0.0017041415,-0.0030782819,0.0,0.0,0.0,0.0,0.0,0.0
21735160000,21735080000,-0.02079727,-0.0034670262,0.022697449,-0.01321733,0.019501925,0.0,0.0,0.0,0.0,0.0,0.0,0.0,0.0,0.06510925,0.0,0.0,nan,0.0,0.0,-0.0058819056,0.00034142286,0.0017041415,-0.0030782819,0.0,0.0,0.0,0.0,0.0,0.0
21735656000,21735576000,-0.038672887,0.028218798,0.052084565,-0.013602495,0.029510021,0.0,0.0,0.0,0.0,0.0,0.0,0.0,0.0,-0.0864563,0.0,0.0,nan,0.0,0.0,0.048757672,0.00034142286,0.0017041415,-0.0030782819,0.0,0.0,0.0,0.0,0.0,0.0
21736160000,21736080000,-0.03829346,0.018952653,0.11500001,-0.03035438,0.029056787,0.0,0.0,0.0,0.0,0.0,0.0,0.0,0.0,-0.007217407,0.0,0.0,nan,0.0,0.0,0.038524747,0.00034142286,0.0017041415,-0.0030782819,0.0,0.0,0.0,0.0,0.0,0.0
21736664000,21736584000,-0.032321855,-0.002542887,0.02331093,-0.029969454,0.03231156,0.0,0.0,0.0,0.0,0.0,0.0,0.0,0.0,0.03956604,0.0,0.0,nan,0.0,0.0,0.059158325,0.00034142286,0.0017041415,-0.0030782819,0.0,0.0,0.0,0.0,0.0,0.0
21737160000,21737080000,0.012545308,0.0004252219,0.05688794,-0.026182592,0.031689286,0.0,0.0,0.0,0.0,0.0,0.0,0.0,0.0,0.033615112,0.0,0.0,nan,0.0,0.0,0.029204011,0.00034142286,0.0017041415,-0.0030782819,0.0,0.0,0.0,0.0,0.0,0.0
21737656000,21737576000,-0.0015843231,-0.023237921,0.019560806,-0.036162198,0.021463752,0.0,0.0,0.0,0.0,0.0,0.0,0.0,0.0,0.111587524,0.0,0.0,nan,0.0,0.0,0.01973772,0.00034142286,0.0017041415,-0.0030782819,0.0,0.0,0.0,0.0,0.0,0.0
21738160000,21738080000,-0.011166927,-0.01140857,0.011624791,-0.036809146,0.015555739,0.0,0.0,0.0,0.0,0.0,0.0,0.0,0.0,0.069366455,0.0,0.0,nan,0.0,0.0,0.019178629,0.00034142286,0.0017041415,-0.0030782819,0.0,0.0,0.0,0.0,0.0,0.0
21738664000,21738584000,-0.015435973,-0.0012874305,0.009040058,-0.0388574,0.009239316,0.0,0.0,0.0,0.0,0.0,0.0,0.0,0.0,0.065979004,0.0,0.0,nan,0.0,0.0,0.007686615,0.00034142286,0.0017041415,-0.0030782819,0.0,0.0,0.0,0.0,0.0,0.0
21739160000,21739080000,-0.0060828933,0.02496171,0.026322246,-0.03919971,0.012364745,0.0,0.0,0.0,0.0,0.0,0.0,0.0,0.0,0.078811646,0.0,0.0,nan,0.0,0.0,0.0062018633,0.00034142286,0.0017041415,-0.0030782819,0.0,0.0,0.0,0.0,0.0,0.0
21739656000,21739576000,-0.15279746,0.02404356,-0.075571656,-0.060908794,0.007798746,0.0,0.0,0.0,0.0,0.0,0.0,0.0,0.0,0.17831421,0.0,0.0,nan,0.0,0.0,0.026401758,0.0008272156,-0.0009972155,-0.0023617446,0.0,0.0,0.0,0.0,0.0,0.0
21740160000,21740080000,-0.07570398,-0.046749115,-0.08493483,-0.050103188,0.0044496655,0.0,0.0,0.0,0.0,0.0,0.0,0.0,0.0,0.24813843,0.0,0.0,nan,0.0,0.0,0.026401758,0.0009198263,0.0017748475,0.0022987723,0.0,0.0,0.0,0.0,0.0,0.0
21740664000,21740584000,-0.03734076,-0.056307316,-0.03506279,-0.020455837,-0.015181899,0.0,0.0,0.0,0.0,0.0,0.0,0.0,0.0,0.12556458,0.0,0.0,nan,0.0,0.0,0.026401758,-0.00028602034,0.0011826903,-0.0027286708,0.0,0.0,0.0,0.0,0.0,0.0
21741160000,21741080000,-0.02567184,-0.049794674,-0.03792882,-0.023236036,-0.02116704,0.0,0.0,0.0,0.0,0.0,0.0,0.0,0.0,0.046401978,0.0,0.0,nan,0.0,0.0,0.026401758,0.011605464,0.00096435845,0.0077118874,0.0,0.0,0.0,0.0,0.0,0.0
21741664000,21741584000,-0.02184701,-0.035683632,-0.08061218,-0.020701885,-0.00075626373,0.0,0.0,0.0,0.0,0.0,0.0,0.0,0.0,0.23446655,0.0,0.0,nan,0.0,0.0,0.026401758,-0.000865072,0.0011037737,-0.0019040406,0.0,0.0,0.0,0.0,0.0,0.0
21742160000,21742080000,0.010878086,-0.02452135,-0.020575762,-0.0060710907,-0.0019917488,0.0,0.0,0.0,0.0,0.0,0.0,0.0,0.0,0.31436157,0.0,0.0,nan,0.0,0.0,0.026401758,0.0013704672,-7.036328e-05,-0.005354047,0.0,0.0,0.0,0.0,0.0,0.0
21742664000,21742584000,-0.022865295,-0.05052471,0.009779453,-0.008388996,-0.0118227005,0.0,0.0,0.0,0.0,0.0,0.0,0.0,0.0,0.15744019,0.0,0.0,nan,0.0,0.0,0.026401758,0.0019063056,-0.0011920482,-0.00067973137,0.0,0.0,0.0,0.0,0.0,0.0
21743160000,21743080000,-0.011767387,-0.028445244,-0.038043976,-0.0009636879,-0.03210926,0.0,0.0,0.0,0.0,0.0,0.0,0.0,0.0,0.12294006,0.0,0.0,nan,0.0,0.0,0.026401758,-1.9349158e-05,-0.0052779466,-0.00024595857,0.0,0.0,0.0,0.0,0.0,0.0
21743656000,21743576000,-0.023849487,-0.040208817,-0.057635784,0.02279377,-0.05078888,0.0,0.0,0.0,0.0,0.0,0.0,0.0,0.0,0.08004761,0.0,0.0,nan,0.0,0.0,0.026401758,0.00060822815,5.096197e-05,7.387996e-05,0.0,0.0,0.0,0.0,0.0,0.0
21744160000,21744080000,0.028278112,-0.021132946,0.037660122,0.015095711,-0.016765594,0.0,0.0,0.0,0.0,0.0,0.0,0.0,0.0,0.1634674,0.0,0.0,nan,0.0,0.0,0.026401758,0.002158977,0.002098471,-0.001329273,0.0,0.0,0.0,0.0,0.0,0.0
21744664000,21744584000,0.0011808872,-0.01426363,-0.007196903,0.039114,-0.07525635,0.0,0.0,0.0,0.0,0.0,0.0,0.0,0.0,0.122177124,0.0,0.0,nan,0.0,0.0,0.026401758,-0.002727352,0.000867635,-0.009329349,0.0,0.0,0.0,0.0,0.0,0.0
21745160000,21745080000,0.0036320686,-0.006968498,-0.03445959,0.02718544,-0.04028511,0.0,0.0,0.0,0.0,0.0,0.0,0.0,0.0,0.18344116,0.0,0.0,nan,0.0,0.0,0.026401758,-9.992719e-05,-4.2632222e-05,-0.0034794211,0.0,0.0,0.0,0.0,0.0,0.0
21745656000,21745576000,0.004674673,-0.038838387,-0.0750761,0.036870003,-0.049591064,0.0,0.0,0.0,0.0,0.0,0.0,0.0,0.0,0.072784424,0.0,0.0,nan,0.0,0.0,0.026385188,-0.0030540973,-0.0006081313,0.00270316,0.0,0.0,0.0,0.0,0.0,0.0
21746160000,21746080000,0.011685371,-0.010002136,-0.04199648,0.061920166,-0.09308815,0.0,0.0,0.0,0.0,0.0,0.0,0.0,0.0,0.08987427,0.0,0.0,nan,0.0,0.0,0.0020804405,-0.0030540973,-0.0006081313,0.00270316,0.0,0.0,0.0,0.0,0.0,0.0
21746656000,21746576000,-0.007100582,-0.006385803,-0.011128902,0.036737442,-0.04140854,0.0,0.0,0.0,0.0,0.0,0.0,0.0,0.0,0.0491333,0.0,0.0,nan,0.0,0.0,0.01540482,-0.0030540973,-0.0006081313,0.00270316,0.0,0.0,0.0,0.0,0.0,0.0
21747160000,21747080000,-0.00047898293,-0.03875494,0.03862953,0.03999901,-0.043952942,0.0,0.0,0.0,0.0,0.0,0.0,0.0,0.0,0.08761597,0.0,0.0,nan,0.0,0.0,-0.0028961897,-0.0030540973,-0.0006081313,0.00270316,0.0,0.0,0.0,0.0,0.0,0.0
21747656000,21747576000,0.02585125,-0.02565813,-0.07452011,0.06258392,-0.061912537,0.0,0.0,0.0,0.0,0.0,0.0,0.0,0.0,0.02104187,0.0,0.0,nan,0.0,0.0,0.01241982,-0.0030540973,-0.0006081313,0.00270316,0.0,0.0,0.0,0.0,0.0,0.0
21748160000,21748080000,0.025179625,0.004409313,-0.00011634827,0.061681747,-0.06656265,0.0,0.0,0.0,0.0,0.0,0.0,0.0,0.0,0.09446716,0.0,0.0,nan,0.0,0.0,-0.0026173592,-0.0030540973,-0.0006081313,0.00270316,0.0,0.0,0.0,0.0,0.0,0.0
21748656000,21748576000,0.027114153,0.0050940514,-0.06386709,0.062114716,-0.0723114,0.0,0.0,0.0,0.0,0.0,0.0,0.0,0.0,0.019500732,0.0,0.0,nan,0.0,0.0,-0.0071288347,-0.0030540973,-0.0006081313,0.00270316,0.0,0.0,0.0,0.0,0.0,0.0
21749160000,21749080000,0.027641296,0.006508827,-0.023170471,0.05532074,-0.05266571,0.0,0.0,0.0,0.0,0.0,0.0,0.0,0.0,0.011871338,0.0,0.0,nan,0.0,0.0,-0.0077750683,-0.0030540973,-0.0006081313,0.00270316,0.0,0.0,0.0,0.0,0.0,0.0
21749656000,21749576000,-0.011564493,-0.008637905,-0.040251732,0.069841385,-0.06934738,0.0,0.0,0.0,0.0,0.0,0.0,0.0,0.0,0.0069274902,0.0,0.0,nan,0.0,0.0,-0.0041469336,-0.0030540973,-0.0006081313,0.00270316,0.0,0.0,0.0,0.0,0.0,0.0
21750160000,21750080000,0.030505896,-0.011167526,-0.031071663,0.09308815,-0.09832764,0.0,0.0,0.0,0.0,0.0,0.0,0.0,0.0,-0.06549072,0.0,0.0,nan,0.0,0.0,0.0063450336,-0.0030540973,-0.0006081313,0.00270316,0.0,0.0,0.0,0.0,0.0,0.0
21750656000,21750576000,0.0043280125,0.0007009506,-0.045075893,0.061374664,-0.07033157,0.0,0.0,0.0,0.0,0.0,0.0,0.0,0.0,0.06915283,0.0,0.0,nan,0.0,0.0,-0.0001616478,-0.0030540973,-0.0006081313,0.00270316,0.0,0.0,0.0,0.0,0.0,0.0
21751160000,21751080000,0.0007882118,-0.011323929,0.0027432442,0.083768845,-0.09328461,0.0,0.0,0.0,0.0,0.0,0.0,0.0,0.0,-0.017791748,0.0,0.0,nan,0.0,0.0,-0.0024425983,-0.0030540973,-0.0006081313,0.00270316,0.0,0.0,0.0,0.0,0.0,0.0
21751656000,21751576000,-0.015903711,-0.0021429062,-0.028185368,0.07665634,-0.08602142,0.0,0.0,0.0,0.0,0.0,0.0,0.0,0.0,0.07577515,0.0,0.0,nan,0.0,0.0,0.00027799606,-0.0030540973,-0.0006081313,0.00270316,0.0,0.0,0.0,0.0,0.0,0.0
21752160000,21752080000,-0.004404545,-0.013003826,-0.00032615662,0.048143387,-0.04710388,0.0,0.0,0.0,0.0,0.0,0.0,0.0,0.0,0.030426025,0.0,0.0,nan,0.0,0.0,-0.006287694,-0.0030540973,-0.0006081313,0.00270316,0.0,0.0,0.0,0.0,0.0,0.0
21752664000,21752584000,-0.028047323,-0.0151286125,-0.014173031,0.06681824,-0.09119797,0.0,0.0,0.0,0.0,0.0,0.0,0.0,0.0,-0.08773804,0.0,0.0,nan,0.0,0.0,-0.010063171,-0.0030540973,-0.0006081313,0.00270316,0.0,0.0,0.0,0.0,0.0,0.0
21753160000,21753080000,-0.025730848,-0.0055856705,0.044333935,0.049827576,-0.062400818,0.0,0.0,0.0,0.0,0.0,0.0,0.0,0.0,0.10031128,0.0,0.0,nan,0.0,0.0,-0.0023007393,-0.0030540973,-0.0006081313,0.00270316,0.0,0.0,0.0,0.0,0.0,0.0
21753656000,21753576000,-0.022488356,-0.001265049,0.028198719,0.05511856,-0.06336212,0.0,0.0,0.0,0.0,0.0,0.0,0.0,0.0,0.018096924,0.0,0.0,nan,0.0,0.0,0.00319314,-0.0030540973,-0.0006081313,0.00270316,0.0,0.0,0.0,0.0,0.0,0.0
21754160000,21754080000,-0.05303526,0.016818047,0.049641132,0.041851044,-0.063568115,0.0,0.0,0.0,0.0,0.0,0.0,0.0,0.0,0.14823914,0.0,0.0,nan,0.0,0.0,-0.009817719,-0.0030540973,-0.0006081313,0.00270316,0.0,0.0,0.0,0.0,0.0,0.0
21754656000,21754576000,-0.017376423,0.03009367,-0.019989014,0.033714294,-0.034828186,0.0,0.0,0.0,0.0,0.0,0.0,0.0,0.0,-0.008026123,0.0,0.0,nan,0.0,0.0,-0.004383564,-0.0030540973,-0.0006081313,0.00270316,0.0,0.0,0.0,0.0,0.0,0.0
21755160000,21755080000,-0.04219222,0.019842625,0.06853056,0.0488739,-0.05821991,0.0,0.0,0.0,0.0,0.0,0.0,0.0,0.0,0.034820557,0.0,0.0,nan,0.0,0.0,-0.011633992,-0.0030540973,-0.0006081313,0.00270316,0.0,0.0,0.0,0.0,0.0,0.0
21755656000,21755576000,-0.062155247,0.033919334,0.041717052,0.027706146,-0.04724884,0.0,0.0,0.0,0.0,0.0,0.0,0.0,0.0,0.07737732,0.0,0.0,nan,0.0,0.0,-0.0015439987,-0.0030540973,-0.0006081313,0.00270316,0.0,0.0,0.0,0.0,0.0,0.0
21756160000,21756080000,-0.055548906,0.025256157,0.081608295,0.058986664,-0.09799194,0.0,0.0,0.0,0.0,0.0,0.0,0.0,0.0,0.06317139,0.0,0.0,nan,0.0,0.0,-0.0025441647,-0.0030540973,-0.0006081313,0.00270316,0.0,0.0,0.0,0.0,0.0,0.0
21756664000,21756584000,-0.057135105,0.022786617,0.08326483,0.025470734,-0.054847717,0.0,0.0,0.0,0.0,0.0,0.0,0.0,0.0,0.029006958,0.0,0.0,nan,0.0,0.0,0.004205823,-0.0030540973,-0.0006081313,0.00270316,0.0,0.0,0.0,0.0,0.0,0.0
21757160000,21757080000,-0.051362514,0.016240597,0.08699322,0.03175354,-0.045768738,0.0,0.0,0.0,0.0,0.0,0.0,0.0,0.0,0.021530151,0.0,0.0,nan,0.0,0.0,-0.0064445734,-0.0030540973,-0.0006081313,0.00270316,0.0,0.0,0.0,0.0,0.0,0.0
21757664000,21757584000,-0.03934598,0.013846874,0.09401512,0.029220581,-0.04561615,0.0,0.0,0.0,0.0,0.0,0.0,0.0,0.0,0.094680786,0.0,0.0,nan,0.0,0.0,-0.009607673,-0.0030540973,-0.0006081313,0.00270316,0.0,0.0,0.0,0.0,0.0,0.0
21758160000,21758080000,-0.04680586,0.020550728,0.08151913,0.055244446,-0.09101868,0.0,0.0,0.0,0.0,0.0,0.0,0.0,0.0,0.1517334,0.0,0.0,nan,0.0,0.0,-0.00924933,-0.0030540973,-0.0006081313,0.00270316,0.0,0.0,0.0,0.0,0.0,0.0
21758664000,21758584000,-0.03319621,-0.015042305,0.08870602,0.045135498,-0.07445526,0.0,0.0,0.0,0.0,0.0,0.0,0.0,0.0,0.013259888,0.0,0.0,nan,0.0,0.0,0.009751201,-0.0030540973,-0.0006081313,0.00270316,0.0,0.0,0.0,0.0,0.0,0.0
21759160000,21759080000,-0.022322655,-0.030043602,0.03295803,0.021541595,-0.04839325,0.0,0.0,0.0,0.0,0.0,0.0,0.0,0.0,0.18249512,0.0,0.0,nan,0.0,0.0,-0.0047261715,-0.0030540973,-0.0006081313,0.00270316,0.0,0.0,0.0,0.0,0.0,0.0
21759656000,21759576000,-0.028162956,-0.008694172,0.09002495,0.036621094,-0.05532074,0.0,0.0,0.0,0.0,0.0,0.0,0.0,0.0,0.114608765,0.0,0.0,nan,0.0,0.0,-0.016063333,-0.0030540973,-0.0006081313,0.00270316,0.0,0.0,0.0,0.0,0.0,0.0
21760160000,21760080000,-0.006875515,0.022742748,0.11532736,0.04467392,-0.06588745,0.0,0.0,0.0,0.0,0.0,0.0,0.0,0.0,0.09512329,0.0,0.0,nan,0.0,0.0,-0.009650469,-0.0030540973,-0.0006081313,0.00270316,0.0,0.0,0.0,0.0,0.0,0.0
21760656000,21760576000,-0.013014317,0.03562355,0.14399433,0.037517548,-0.060890198,0.0,0.0,0.0,0.0,0.0,0.0,0.0,0.0,0.05796814,0.0,0.0,nan,0.0,0.0,0.0023912191,-0.0030540973,-0.0006081313,0.00270316,0.0,0.0,0.0,0.0,0.0,0.0
21761160000,21761080000,0.011509657,0.023983479,0.08037996,0.038181305,-0.061775208,0.0,0.0,0.0,0.0,0.0,0.0,0.0,0.0,0.053344727,0.0,0.0,nan,0.0,0.0,-8.34465e-06,-0.0030540973,-0.0006081313,0.00270316,0.0,0.0,0.0,0.0,0.0,0.0
21761656000,21761576000,-0.0074379444,0.018818855,0.069583416,0.034469604,-0.058631897,0.0,0.0,0.0,0.0,0.0,0.0,0.0,0.0,-0.0019836426,0.0,0.0,nan,0.0,0.0,0.004940152,-0.0030540973,-0.0006081313,0.00270316,0.0,0.0,0.0,0.0,0.0,0.0
21762160000,21762080000,-0.01162982,0.03257847,0.08854914,0.04062271,-0.0819397,0.0,0.0,0.0,0.0,0.0,0.0,0.0,0.0,0.18328857,0.0,0.0,nan,0.0,0.0,0.021132827,-0.0030540973,-0.0006081313,0.00270316,0.0,0.0,0.0,0.0,0.0,0.0
21762656000,21762576000,-0.023538828,0.04748869,0.07397032,0.022960663,-0.05924225,0.0,0.0,0.0,0.0,0.0,0.0,0.0,0.0,0.17520142,0.0,0.0,nan,0.0,0.0,-0.019278288,-0.0030540973,-0.0006081313,0.00270316,0.0,0.0,0.0,0.0,0.0,0.0
21763160000,21763080000,-0.0074985027,0.006705761,0.016673565,0.04084778,-0.061813354,0.0,0.0,0.0,0.0,0.0,0.0,0.0,0.0,0.28399658,0.0,0.0,nan,0.0,0.0,-0.038413763,-0.0030540973,-0.0006081313,0.00270316,0.0,0.0,0.0,0.0,0.0,0.0
21763656000,21763576000,0.008141279,0.03467655,0.05769205,0.050949097,-0.051605225,0.0,0.0,0.0,0.0,0.0,0.0,0.0,0.0,0.18444824,0.0,0.0,nan,0.0,0.0,0.002029419,-0.0030540973,-0.0006081313,0.00270316,0.0,0.0,0.0,0.0,0.0,0.0
21764160000,21764080000,-0.0024130344,0.024645329,0.06525421,0.039413452,-0.052970886,0.0,0.0,0.0,0.0,0.0,0.0,0.0,0.0,0.14147949,0.0,0.0,nan,0.0,0.0,0.024189472,-0.0030540973,-0.0006081313,0.00270316,0.0,0.0,0.0,0.0,0.0,0.0
21764656000,21764576000,0.003704071,0.013235569,0.025208473,0.04120636,-0.024642944,0.0,0.0,0.0,0.0,0.0,0.0,0.0,0.0,0.05493164,0.0,0.0,nan,0.0,0.0,0.0028374195,-0.0030540973,-0.0006081313,0.00270316,0.0,0.0,0.0,0.0,0.0,0.0
21765160000,21765080000,0.028104305,0.0019435883,0.044285774,0.043136597,-0.02594757,0.0,0.0,0.0,0.0,0.0,0.0,0.0,0.0,0.18359375,0.0,0.0,nan,0.0,0.0,-0.012104392,-0.0030540973,-0.0006081313,0.00270316,0.0,0.0,0.0,0.0,0.0,0.0
21765664000,21765584000,-0.006700039,0.023807049,0.05887699,0.069610596,-0.0652771,0.0,0.0,0.0,0.0,0.0,0.0,0.0,0.0,0.11909485,0.0,0.0,nan,0.0,0.0,-0.0068445206,-0.0030540973,-0.0006081313,0.00270316,0.0,0.0,0.0,0.0,0.0,0.0
21766160000,21766080000,0.008484125,0.020397663,0.010453224,0.07639313,-0.0594635,0.0,0.0,0.0,0.0,0.0,0.0,0.0,0.0,0.19264221,0.0,0.0,nan,0.0,0.0,0.0041178465,-0.0030540973,-0.0006081313,0.00270316,0.0,0.0,0.0,0.0,0.0,0.0
21766664000,21766584000,0.0038826466,-0.0040979385,0.05331087,0.05757141,-0.06625366,0.0,0.0,0.0,0.0,0.0,0.0,0.0,0.0,0.1252594,0.0,0.0,nan,0.0,0.0,0.0015146732,-0.0030540973,-0.0006081313,0.00270316,0.0,0.0,0.0,0.0,0.0,0.0
21767160000,21767080000,0.0004608631,0.026304245,-0.0030755997,0.03490448,-0.030288696,0.0,0.0,0.0,0.0,0.0,0.0,0.0,0.0,0.10394287,0.0,0.0,nan,0.0,0.0,-0.022657275,-0.0030540973,-0.0006081313,0.00270316,0.0,0.0,0.0,0.0,0.0,0.0
21767664000,21767584000,-0.00095653534,-0.005501747,0.07776213,0.057388306,-0.06387329,0.0,0.0,0.0,0.0,0.0,0.0,0.0,0.0,0.13661194,0.0,0.0,nan,0.0,0.0,-0.010787964,-0.0030540973,-0.0006081313,0.00270316,0.0,0.0,0.0,0.0,0.0,0.0
21768160000,21768080000,-0.0055480003,-0.004866123,0.016476631,0.057296753,-0.07270813,0.0,0.0,0.0,0.0,0.0,0.0,0.0,0.0,0.15058899,0.0,0.0,nan,0.0,0.0,0.0040875673,-0.0030540973,-0.0006081313,0.00270316,0.0,0.0,0.0,0.0,0.0,0.0
21768664000,21768584000,-0.00079393387,-0.016698837,0.08669996,0.04193878,-0.05343628,0.0,0.0,0.0,0.0,0.0,0.0,0.0,0.0,0.12373352,0.0,0.0,nan,0.0,0.0,-0.0148996115,-0.0030540973,-0.0006081313,0.00270316,0.0,0.0,0.0,0.0,0.0,0.0
21769160000,21769080000,-0.014598608,-0.031324863,0.014950752,0.057724,-0.09887695,0.0,0.0,0.0,0.0,0.0,0.0,0.0,0.0,0.14416504,0.0,0.0,nan,0.0,0.0,-0.005996704,-0.0030540973,-0.0006081313,0.00270316,0.0,0.0,0.0,0.0,0.0,0.0
21769664000,21769584000,-0.0124697685,-0.015517712,0.051116943,0.05682373,-0.07055664,0.0,0.0,0.0,0.0,0.0,0.0,0.0,0.0,-0.017578125,0.0,0.0,nan,0.0,0.0,0.002038598,-0.0030540973,-0.0006081313,0.00270316,0.0,0.0,0.0,0.0,0.0,0.0
21770160000,21770080000,-0.0018072128,0.0024461746,0.047258377,0.061462402,-0.084732056,0.0,0.0,0.0,0.0,0.0,0.0,0.0,0.0,0.142807,0.0,0.0,nan,0.0,0.0,0.011538625,-0.0030540973,-0.0006081313,0.00270316,0.0,0.0,0.0,0.0,0.0,0.0
21770656000,21770576000,-0.00021862984,-0.03695488,0.03896141,0.03716278,-0.04676819,0.0,0.0,0.0,0.0,0.0,0.0,0.0,0.0,0.06324768,0.0,0.0,nan,0.0,0.0,-0.006808758,-0.0030540973,-0.0006081313,0.00270316,0.0,0.0,0.0,0.0,0.0,0.0
21771160000,21771080000,0.021993876,-0.026610374,-0.005458355,0.03501892,-0.046188354,0.0,0.0,0.0,0.0,0.0,0.0,0.0,0.0,0.033981323,0.0,0.0,nan,0.0,0.0,0.012893438,-0.0030540973,-0.0006081313,0.00270316,0.0,0.0,0.0,0.0,0.0,0.0
21771656000,21771576000,0.01834631,-0.044957638,0.02563095,0.043067932,-0.07211304,0.0,0.0,0.0,0.0,0.0,0.0,0.0,0.0,0.07928467,0.0,0.0,nan,0.0,0.0,0.017682195,-0.0030540973,-0.0006081313,0.00270316,0.0,0.0,0.0,0.0,0.0,0.0
21772160000,21772080000,0.03354478,-0.03352642,-0.008826256,0.05770111,-0.09503174,0.0,0.0,0.0,0.0,0.0,0.0,0.0,0.0,0.052001953,0.0,0.0,nan,0.0,0.0,-0.011859059,-0.0030540973,-0.0006081313,0.00270316,0.0,0.0,0.0,0.0,0.0,0.0
21772664000,21772584000,0.00980854,-0.052030563,-0.0063495636,0.04396057,-0.080078125,0.0,0.0,0.0,0.0,0.0,0.0,0.0,0.0,0.015350342,0.0,0.0,nan,0.0,0.0,-0.0016726255,-0.0030540973,-0.0006081313,0.00270316,0.0,0.0,0.0,0.0,0.0,0.0
21773160000,21773080000,0.011345148,-0.030421257,0.033053398,0.05545807,-0.093811035,0.0,0.0,0.0,0.0,0.0,0.0,0.0,0.0,0.03491211,0.0,0.0,nan,0.0,0.0,0.019339085,-0.0030540973,-0.0006081313,0.00270316,0.0,0.0,0.0,0.0,0.0,0.0
21773664000,21773584000,-0.025438309,-0.043606758,-0.012441158,0.043785095,-0.08496094,0.0,0.0,0.0,0.0,0.0,0.0,0.0,0.0,0.09375,0.0,0.0,nan,0.0,0.0,-0.0056500435,-0.0030540973,-0.0006081313,0.00270316,0.0,0.0,0.0,0.0,0.0,0.0
21774160000,21774080000,0.007296562,-0.016626358,-0.009428501,0.06985474,-0.110183716,0.0,0.0,0.0,0.0,0.0,0.0,0.0,0.0,0.021118164,0.0,0.0,nan,0.0,0.0,0.014677644,-0.0030540973,-0.0006081313,0.00270316,0.0,0.0,0.0,0.0,0.0,0.0
21774656000,21774576000,0.0044362545,-0.018631935,-0.025884151,0.054908752,-0.08679199,0.0,0.0,0.0,0.0,0.0,0.0,0.0,0.0,-0.039794922,0.0,0.0,nan,0.0,0.0,-0.012906194,-0.0030540973,-0.0006081313,0.00270316,0.0,0.0,0.0,0.0,0.0,0.0
21775160000,21775080000,0.017394066,-0.06547499,-0.038619995,0.051864624,-0.09416199,0.0,0.0,0.0,0.0,0.0,0.0,0.0,0.0,0.00390625,0.0,0.0,nan,0.0,0.0,0.007328272,-0.0030540973,-0.0006081313,0.00270316,0.0,0.0,0.0,0.0,0.0,0.0
21775656000,21775576000,0.009328604,-0.028564453,-0.022629738,0.0522995,-0.08508301,0.0,0.0,0.0,0.0,0.0,0.0,0.0,0.0,-0.0070495605,0.0,0.0,nan,0.0,0.0,0.0018956661,-0.0030540973,-0.0006081313,0.00270316,0.0,0.0,0.0,0.0,0.0,0.0
21776160000,21776080000,-0.0039231777,-0.03809023,-0.054775238,0.049102783,-0.09693909,0.0,0.0,0.0,0.0,0.0,0.0,0.0,0.0,-0.047210693,0.0,0.0,nan,0.0,0.0,0.0006592274,-0.0030540973,-0.0006081313,0.00270316,0.0,0.0,0.0,0.0,0.0,0.0
21776664000,21776584000,-0.019309044,-0.022793293,-0.06111431,0.039100647,-0.06335449,0.0,0.0,0.0,0.0,0.0,0.0,0.0,0.0,-0.053207397,0.0,0.0,nan,0.0,0.0,0.0109859705,-0.0030540973,-0.0006081313,0.00270316,0.0,0.0,0.0,0.0,0.0,0.0
21777160000,21777080000,-0.016931772,-0.027346134,-0.022526741,0.054374695,-0.088912964,0.0,0.0,0.0,0.0,0.0,0.0,0.0,0.0,0.06825256,0.0,0.0,nan,0.0,0.0,-0.0068742037,-0.0030540973,-0.0006081313,0.00270316,0.0,0.0,0.0,0.0,0.0,0.0
21777656000,21777576000,0.000279665,-0.047827244,-0.08818674,0.062034607,-0.1313324,0.0,0.0,0.0,0.0,0.0,0.0,0.0,0.0,-0.12727356,0.0,0.0,nan,0.0,0.0,0.0042539835,-0.0030540973,-0.0006081313,0.00270316,0.0,0.0,0.0,0.0,0.0,0.0
21778160000,21778080000,-0.025581121,-0.047619343,-0.05445862,0.048484802,-0.124679565,0.0,0.0,0.0,0.0,0.0,0.0,0.0,0.0,0.012756348,0.0,0.0,nan,0.0,0.0,-0.0039064884,-0.0030540973,-0.0006081313,0.00270316,0.0,0.0,0.0,0.0,0.0,0.0
21778664000,21778584000,0.0050513744,-0.042921066,-0.016162395,0.026153564,-0.055648804,0.0,0.0,0.0,0.0,0.0,0.0,0.0,0.0,0.08287048,0.0,0.0,nan,0.0,0.0,-0.01805532,-0.0030540973,-0.0006081313,0.00270316,0.0,0.0,0.0,0.0,0.0,0.0
21779160000,21779080000,-0.021444798,-0.07627869,-0.046575546,0.04912567,-0.12506104,0.0,0.0,0.0,0.0,0.0,0.0,0.0,0.0,-0.114089966,0.0,0.0,nan,0.0,0.0,0.0005531311,-0.0030540973,-0.0006081313,0.00270316,0.0,0.0,0.0,0.0,0.0,0.0
21779664000,21779584000,-0.010297298,-0.006170273,-0.09404659,0.026275635,-0.062805176,0.0,0.0,0.0,0.0,0.0,0.0,0.0,0.0,-0.0131073,0.0,0.0,nan,0.0,0.0,-0.007925272,-0.0030540973,-0.0006081313,0.00270316,0.0,0.0,0.0,0.0,0.0,0.0
21780160000,21780080000,0.015874386,-0.0414567,-0.07996082,0.05127716,-0.114715576,0.0,0.0,0.0,0.0,0.0,0.0,0.0,0.0,-0.05871582,0.0,0.0,nan,0.0,0.0,-0.0069423914,-0.0030540973,-0.0006081313,0.00270316,0.0,0.0,0.0,0.0,0.0,0.0
21780664000,21780584000,-0.02262044,-0.026159286,-0.0635972,0.021598816,-0.06895447,0.0,0.0,0.0,0.0,0.0,0.0,0.0,0.0,-0.02658081,0.0,0.0,nan,0.0,0.0,-0.036776662,-0.0030540973,-0.0006081313,0.00270316,0.0,0.0,0.0,0.0,0.0,0.0
21781160000,21781080000,-0.03517604,-0.05943966,-0.06940985,0.01953888,-0.07180786,0.0,0.0,0.0,0.0,0.0,0.0,0.0,0.0,-0.05319214,0.0,0.0,nan,0.0,0.0,-0.010744333,-0.0030540973,-0.0006081313,0.00270316,0.0,0.0,0.0,0.0,0.0,0.0
21781656000,21781576000,-0.035211325,-0.011664391,-0.027012825,0.04096985,-0.09246826,0.0,0.0,0.0,0.0,0.0,0.0,0.0,0.0,0.03201294,0.0,0.0,nan,0.0,0.0,0.0035362244,-0.0030540973,-0.0006081313,0.00270316,0.0,0.0,0.0,0.0,0.0,0.0
21782160000,21782080000,0.02065444,-0.042220592,-0.00091171265,0.03463745,-0.063705444,0.0,0.0,0.0,0.0,0.0,0.0,0.0,0.0,-0.1318512,0.0,0.0,nan,0.0,0.0,-0.007998347,-0.0030540973,-0.0006081313,0.00270316,0.0,0.0,0.0,0.0,0.0,0.0
21782656000,21782576000,-0.0244596,-0.04825163,-0.0338912,0.03263855,-0.09005737,0.0,0.0,0.0,0.0,0.0,0.0,0.0,0.0,-0.031707764,0.0,0.0,nan,0.0,0.0,-0.019769073,-0.0030540973,-0.0006081313,0.00270316,0.0,0.0,0.0,0.0,0.0,0.0
21783160000,21783080000,-0.028151512,-0.019740105,-0.03240919,0.025871277,-0.078308105,0.0,0.0,0.0,0.0,0.0,0.0,0.0,0.0,-0.10714722,0.0,0.0,nan,0.0,0.0,-0.01236701,-0.0030540973,-0.0006081313,0.00270316,0.0,0.0,0.0,0.0,0.0,0.0
21783656000,21783576000,0.019123554,-0.0026812553,0.0023169518,0.051856995,-0.104263306,0.0,0.0,0.0,0.0,0.0,0.0,0.0,0.0,-0.007888794,0.0,0.0,nan,0.0,0.0,-0.0011444092,-0.0030540973,-0.0006081313,0.00270316,0.0,0.0,0.0,0.0,0.0,0.0
21784160000,21784080000,-0.028007269,-0.010995865,0.045470238,0.024658203,-0.056488037,0.0,0.0,0.0,0.0,0.0,0.0,0.0,0.0,-0.019256592,0.0,0.0,nan,0.0,0.0,-0.0034430027,-0.0030540973,-0.0006081313,0.00270316,0.0,0.0,0.0,0.0,0.0,0.0
21784656000,21784576000,-0.017709494,-0.0022006035,0.011444569,0.035873413,-0.06903076,0.0,0.0,0.0,0.0,0.0,0.0,0.0,0.0,-0.059539795,0.0,0.0,nan,0.0,0.0,-0.004637599,-0.0030540973,-0.0006081313,0.00270316,0.0,0.0,0.0,0.0,0.0,0.0
21785160000,21785080000,-0.045755863,-0.027408123,0.0318141,0.039855957,-0.07633972,0.0,0.0,0.0,0.0,0.0,0.0,0.0,0.0,-0.031723022,0.0,0.0,nan,0.0,0.0,-0.008180857,-0.0030540973,-0.0006081313,0.00270316,0.0,0.0,0.0,0.0,0.0,0.0
21785664000,21785584000,-0.010980606,-0.0033364296,0.09774017,0.06011963,-0.1015625,0.0,0.0,0.0,0.0,0.0,0.0,0.0,0.0,0.09980774,0.0,0.0,nan,0.0,0.0,0.03714633,-0.0030540973,-0.0006081313,0.00270316,0.0,0.0,0.0,0.0,0.0,0.0
21786160000,21786080000,-0.0030312538,0.027830124,0.059031487,0.05558777,-0.09832764,0.0,0.0,0.0,0.0,0.0,0.0,0.0,0.0,0.032073975,0.0,0.0,nan,0.0,0.0,-0.016140342,-0.0030540973,-0.0006081313,0.00270316,0.0,0.0,0.0,0.0,0.0,0.0
21786656000,21786576000,-0.005721569,-0.013257027,0.05349064,0.025268555,-0.061645508,0.0,0.0,0.0,0.0,0.0,0.0,0.0,0.0,0.04776001,0.0,0.0,nan,0.0,0.0,-0.01628089,-0.0030540973,-0.0006081313,0.00270316,0.0,0.0,0.0,0.0,0.0,0.0
21787160000,21787080000,-0.01814437,0.006280422,0.07280207,0.022338867,-0.059448242,0.0,0.0,0.0,0.0,0.0,0.0,0.0,0.0,0.042938232,0.0,0.0,nan,0.0,0.0,-0.0055571795,-0.0030540973,-0.0006081313,0.00270316,0.0,0.0,0.0,0.0,0.0,0.0
21787664000,21787584000,0.039401054,0.0047154427,0.08782101,0.06277466,-0.10510254,0.0,0.0,0.0,0.0,0.0,0.0,0.0,0.0,0.110809326,0.0,0.0,nan,0.0,0.0,-0.015511513,-0.0030540973,-0.0006081313,0.00270316,0.0,0.0,0.0,0.0,0.0,0.0
21788160000,21788080000,-0.014936924,0.031180859,0.05525446,0.042816162,-0.09753418,0.0,0.0,0.0,0.0,0.0,0.0,0.0,0.0,0.120269775,0.0,0.0,nan,0.0,0.0,-0.022386432,-0.0030540973,-0.0006081313,0.00270316,0.0,0.0,0.0,0.0,0.0,0.0
21788664000,21788584000,0.02226305,0.014213562,0.063622475,0.028366089,-0.07800293,0.0,0.0,0.0,0.0,0.0,0.0,0.0,0.0,-0.005645752,0.0,0.0,nan,0.0,0.0,-0.008403778,-0.0030540973,-0.0006081313,0.00270316,0.0,0.0,0.0,0.0,0.0,0.0
21789160000,21789080000,-0.0113995075,0.004284382,0.08457041,0.02229309,-0.05819702,0.0,0.0,0.0,0.0,0.0,0.0,0.0,0.0,0.09829712,0.0,0.0,nan,0.0,0.0,-0.019694448,-0.0030540973,-0.0006081313,0.00270316,0.0,0.0,0.0,0.0,0.0,0.0
21789664000,21789584000,0.026477814,-0.0003376007,0.12171173,0.036880493,-0.058792114,0.0,0.0,0.0,0.0,0.0,0.0,0.0,0.0,0.044281006,0.0,0.0,nan,0.0,0.0,-0.004639387,-0.0030540973,-0.0006081313,0.00270316,0.0,0.0,0.0,0.0,0.0,0.0
21790160000,21790080000,0.023588657,0.0011944771,0.05693817,0.04360962,-0.08078003,0.0,0.0,0.0,0.0,0.0,0.0,0.0,0.0,0.114746094,0.0,0.0,nan,0.0,0.0,-0.025155306,-0.0030540973,-0.0006081313,0.00270316,0.0,0.0,0.0,0.0,0.0,0.0
21790656000,21790576000,0.007642269,0.0038962364,0.04569769,0.04397583,-0.07687378,0.0,0.0,0.0,0.0,0.0,0.0,0.0,0.0,0.16027832,0.0,0.0,nan,0.0,0.0,-0.008970857,-0.0030540973,-0.0006081313,0.00270316,0.0,0.0,0.0,0.0,0.0,0.0
21791160000,21791080000,0.02352953,0.015618324,0.0700016,0.038223267,-0.078125,0.0,0.0,0.0,0.0,0.0,0.0,0.0,0.0,0.10559082,0.0,0.0,nan,0.0,0.0,-0.01079309,-0.0030540973,-0.0006081313,0.00270316,0.0,0.0,0.0,0.0,0.0,0.0
21791656000,21791576000,-0.011975288,0.008833885,0.1074357,0.0640564,-0.11828613,0.0,0.0,0.0,0.0,0.0,0.0,0.0,0.0,0.017791748,0.0,0.0,nan,0.0,0.0,-0.004839778,-0.0030540973,-0.0006081313,0.00270316,0.0,0.0,0.0,0.0,0.0,0.0
21792160000,21792080000,-0.00026345253,0.0016379356,0.013208389,0.029006958,-0.07019043,0.0,0.0,0.0,0.0,0.0,0.0,0.0,0.0,0.07382202,0.0,0.0,nan,0.0,0.0,-0.0046685934,-0.0030540973,-0.0006081313,0.00270316,0.0,0.0,0.0,0.0,0.0,0.0
21792664000,21792584000,-0.02361846,-0.016365051,0.08515644,0.029266357,-0.074401855,0.0,0.0,0.0,0.0,0.0,0.0,0.0,0.0,0.16503906,0.0,0.0,nan,0.0,0.0,-0.005751133,-0.0030540973,-0.0006081313,0.00270316,0.0,0.0,0.0,0.0,0.0,0.0
21793160000,21793080000,-0.013608694,-0.03222227,0.04289961,0.030410767,-0.06732178,0.0,0.0,0.0,0.0,0.0,0.0,0.0,0.0,0.13366699,0.0,0.0,nan,0.0,0.0,-0.005513072,-0.0030540973,-0.0006081313,0.00270316,0.0,0.0,0.0,0.0,0.0,0.0
21793656000,21793576000,-0.0015668869,-0.007027626,0.087115765,0.010772705,-0.028045654,0.0,0.0,0.0,0.0,0.0,0.0,0.0,0.0,0.0546875,0.0,0.0,nan,0.0,0.0,-0.0024188757,-0.0030540973,-0.0006081313,0.00270316,0.0,0.0,0.0,0.0,0.0,0.0
21794160000,21794080000,-0.015744448,-0.018694878,0.087170124,0.028457642,-0.059692383,0.0,0.0,0.0,0.0,0.0,0.0,0.0,0.0,0.12573242,0.0,0.0,nan,0.0,0.0,-0.0008523464,-0.0030540973,-0.0006081313,0.00270316,0.0,0.0,0.0,0.0,0.0,0.0
21794664000,21794584000,-0.024125814,-0.01631689,0.042475224,0.02204895,-0.047058105,0.0,0.0,0.0,0.0,0.0,0.0,0.0,0.0,0.13369751,0.0,0.0,nan,0.0,0.0,-0.009250164,-0.0030540973,-0.0006081313,0.00270316,0.0,0.0,0.0,0.0,0.0,0.0
21795160000,21795080000,-0.01515317,-0.028947353,0.06936121,0.017211914,-0.053009033,0.0,0.0,0.0,0.0,0.0,0.0,0.0,0.0,0.11831665,0.0,0.0,nan,0.0,0.0,-0.019883871,-0.0030540973,-0.0006081313,0.00270316,0.0,0.0,0.0,0.0,0.0,0.0
21795656000,21795576000,-0.029702902,-0.033908844,0.07467556,0.042434692,-0.09719849,0.0,0.0,0.0,0.0,0.0,0.0,0.0,0.0,0.0675354,0.0,0.0,nan,0.0,0.0,-0.0058106184,-0.0030540973,-0.0006081313,0.00270316,0.0,0.0,0.0,0.0,0.0,0.0
21796160000,21796080000,-0.044189453,-0.044179916,0.012404442,0.031402588,-0.078948975,0.0,0.0,0.0,0.0,0.0,0.0,0.0,0.0,0.056854248,0.0,0.0,nan,0.0,0.0,-0.002759695,-0.0030540973,-0.0006081313,0.00270316,0.0,0.0,0.0,0.0,0.0,0.0
21796656000,21796576000,-0.036605835,-0.03822899,0.022801876,0.010772705,-0.046661377,0.0,0.0,0.0,0.0,0.0,0.0,0.0,0.0,0.05999756,0.0,0.0,nan,0.0,0.0,-0.014156103,-0.0030540973,-0.0006081313,0.00270316,0.0,0.0,0.0,0.0,0.0,0.0
21797160000,21797080000,-0.054914236,-0.042062283,0.030939579,0.019729614,-0.060516357,0.0,0.0,0.0,0.0,0.0,0.0,0.0,0.0,0.11462402,0.0,0.0,nan,0.0,0.0,-0.0155233145,-0.0030540973,-0.0006081313,0.00270316,0.0,0.0,0.0,0.0,0.0,0.0
21797664000,21797584000,-0.055467367,-0.023908615,0.016178608,0.018371582,-0.07647705,0.0,0.0,0.0,0.0,0.0,0.0,0.0,0.0,0.1340332,0.0,0.0,nan,0.0,0.0,-0.0039530993,-0.0030540973,-0.0006081313,0.00270316,0.0,0.0,0.0,0.0,0.0,0.0
21798160000,21798080000,-0.05266142,-0.039820194,0.034001827,0.028076172,-0.10852051,0.0,0.0,0.0,0.0,0.0,0.0,0.0,0.0,0.092041016,0.0,0.0,nan,0.0,0.0,-0.005700469,-0.0030540973,-0.0006081313,0.00270316,0.0,0.0,0.0,0.0,0.0,0.0
21798656000,21798576000,-0.015167475,-0.03488636,0.030072212,0.019973755,-0.075042725,0.0,0.0,0.0,0.0,0.0,0.0,0.0,0.0,0.08129883,0.0,0.0,nan,0.0,0.0,-0.005422592,-0.0030540973,-0.0006081313,0.00270316,0.0,0.0,0.0,0.0,0.0,0.0
21799160000,21799080000,-0.054072857,-0.048915386,0.00553751,0.018432617,-0.078948975,0.0,0.0,0.0,0.0,0.0,0.0,0.0,0.0,0.12695312,0.0,0.0,nan,0.0,0.0,0.012193203,-0.0030540973,-0.0006081313,0.00270316,0.0,0.0,0.0,0.0,0.0,0.0
21799664000,21799584000,-0.04658866,-0.038398743,0.007255554,0.009963989,-0.06573486,0.0,0.0,0.0,0.0,0.0,0.0,0.0,0.0,0.14782715,0.0,0.0,nan,0.0,0.0,-0.012835145,-0.0030540973,-0.0006081313,0.00270316,0.0,0.0,0.0,0.0,0.0,0.0
21800160000,21800080000,-0.014932871,-0.07444382,0.0029902458,0.014892578,-0.06326294,0.0,0.0,0.0,0.0,0.0,0.0,0.0,0.0,0.07608032,0.0,0.0,nan,0.0,0.0,-0.00035774708,-0.0030540973,-0.0006081313,0.00270316,0.0,0.0,0.0,0.0,0.0,0.0
21800664000,21800584000,-0.040235043,-0.036544323,-0.014599323,0.019897461,-0.10406494,0.0,0.0,0.0,0.0,0.0,0.0,0.0,0.0,0.16467285,0.0,0.0,nan,0.0,0.0,-0.0029029846,-0.0030540973,-0.0006081313,0.00270316,0.0,0.0,0.0,0.0,0.0,0.0
21801160000,21801080000,-0.0019581318,-0.07085562,0.023822784,0.044540405,-0.12298584,0.0,0.0,0.0,0.0,0.0,0.0,0.0,0.0,0.06304932,0.0,0.0,nan,0.0,0.0,-0.0014946461,-0.0030540973,-0.0006081313,0.00270316,0.0,0.0,0.0,0.0,0.0,0.0
21801664000,21801584000,-0.025907516,-0.08081579,-0.033926964,0.044052124,-0.12722778,0.0,0.0,0.0,0.0,0.0,0.0,0.0,0.0,-0.07748413,0.0,0.0,nan,0.0,0.0,-0.006783247,-0.0030540973,-0.0006081313,0.00270316,0.0,0.0,0.0,0.0,0.0,0.0
21802160000,21802080000,-0.035270452,-0.06873798,0.012397289,0.013290405,-0.091552734,0.0,0.0,0.0,0.0,0.0,0.0,0.0,0.0,-0.030548096,0.0,0.0,nan,0.0,0.0,-0.008253217,-0.0030540973,-0.0006081313,0.00270316,0.0,0.0,0.0,0.0,0.0,0.0
21802664000,21802584000,-0.00703907,-0.060998917,-0.035913944,0.030883789,-0.09274292,0.0,0.0,0.0,0.0,0.0,0.0,0.0,0.0,0.028900146,0.0,0.0,nan,0.0,0.0,0.002118826,-0.0030540973,-0.0006081313,0.00270316,0.0,0.0,0.0,0.0,0.0,0.0
21803160000,21803080000,-0.004228115,-0.08407068,-0.021539688,0.04737854,-0.13150024,0.0,0.0,0.0,0.0,0.0,0.0,0.0,0.0,-0.028564453,0.0,0.0,nan,0.0,0.0,-0.0009621382,-0.0030540973,-0.0006081313,0.00270316,0.0,0.0,0.0,0.0,0.0,0.0
21803656000,21803576000,-0.014779806,-0.050069332,-0.05314064,0.030654907,-0.11248779,0.0,0.0,0.0,0.0,0.0,0.0,0.0,0.0,-0.007019043,0.0,0.0,nan,0.0,0.0,-0.0075632334,-0.0030540973,-0.0006081313,0.00270316,0.0,0.0,0.0,0.0,0.0,0.0
21804160000,21804080000,-0.038060427,-0.06465864,-0.014593601,0.032592773,-0.10900879,0.0,0.0,0.0,0.0,0.0,0.0,0.0,0.0,0.045654297,0.0,0.0,nan,0.0,0.0,0.006086588,-0.0030540973,-0.0006081313,0.00270316,0.0,0.0,0.0,0.0,0.0,0.0
21804656000,21804576000,-0.012476206,-0.047269344,-0.045993328,0.024108887,-0.087371826,0.0,0.0,0.0,0.0,0.0,0.0,0.0,0.0,0.018951416,0.0,0.0,nan,0.0,0.0,-0.014079452,-0.0030540973,-0.0006081313,0.00270316,0.0,0.0,0.0,0.0,0.0,0.0
21805160000,21805080000,-0.0044178963,-0.04929018,-0.053734303,0.02999878,-0.11148071,0.0,0.0,0.0,0.0,0.0,0.0,0.0,0.0,0.0059509277,0.0,0.0,nan,0.0,0.0,-0.021978736,-0.0030540973,-0.0006081313,0.00270316,0.0,0.0,0.0,0.0,0.0,0.0
21805664000,21805584000,-0.015673876,-0.055868626,-0.0077757835,0.030349731,-0.10269165,0.0,0.0,0.0,0.0,0.0,0.0,0.0,0.0,-0.029052734,0.0,0.0,nan,0.0,0.0,-0.011569381,-0.0030540973,-0.0006081313,0.00270316,0.0,0.0,0.0,0.0,0.0,0.0
21806160000,21806080000,-0.022280216,-0.035548687,-0.037591457,0.028060913,-0.098724365,0.0,0.0,0.0,0.0,0.0,0.0,0.0,0.0,0.10803223,0.0,0.0,nan,0.0,0.0,-0.0018647909,-0.0030540973,-0.0006081313,0.00270316,0.0,0.0,0.0,0.0,0.0,0.0
21806656000,21806576000,0.062966585,-0.11497259,0.2847991,0.03527832,-0.11639404,0.0,0.0,0.0,0.0,0.0,0.0,0.0,0.0,-0.10018921,0.0,0.0,nan,0.0,0.0,-0.03334248,-0.0030540973,-0.0006081313,0.00270316,0.0,0.0,0.0,0.0,0.0,0.0
21807160000,21807080000,0.16153514,-0.26856685,0.119425535,0.061462402,-0.15145874,0.0,0.0,0.0,0.0,0.0,0.0,0.0,0.0,-0.08886719,0.0,0.0,nan,0.0,0.0,-0.010638297,-0.0050490946,-0.006761886,0.004167378,0.0,0.0,0.0,0.0,0.0,0.0
21807664000,21807584000,0.10659766,-0.066600084,0.0040192604,0.046966553,-0.11053467,0.0,0.0,0.0,0.0,0.0,0.0,0.0,0.0,-0.08074951,0.0,0.0,nan,0.0,0.0,-0.010638297,-0.0033929795,0.00083489716,-0.0021153688,0.0,0.0,0.0,0.0,0.0,0.0
21808160000,21808080000,0.051236212,0.062838286,-0.07395226,0.05885315,-0.081848145,0.0,0.0,0.0,0.0,0.0,0.0,0.0,0.0,-0.09439087,0.0,0.0,nan,0.0,0.0,-0.010638297,-0.0028462633,-0.0018669665,-0.005004972,0.0,0.0,0.0,0.0,0.0,0.0
21808656000,21808576000,0.06065084,0.012422502,0.013981253,0.053726196,-0.067230225,0.0,0.0,0.0,0.0,0.0,0.0,0.0,0.0,0.0,0.0,0.0,nan,0.0,0.0,-0.010638297,-0.00073315203,0.0006842166,0.00038725138,0.0,0.0,0.0,0.0,0.0,0.0
21809160000,21809080000,0.0394122,0.02013743,0.005819496,0.04335022,-0.05795288,0.0,0.0,0.0,0.0,0.0,0.0,0.0,0.0,0.0,0.0,0.0,nan,0.0,0.0,-0.010638297,-0.0027135015,0.0028752089,0.0059327483,0.0,0.0,0.0,0.0,0.0,0.0
21809664000,21809584000,0.010400891,0.08768761,0.027740538,0.032424927,-0.033721924,0.0,0.0,0.0,0.0,0.0,0.0,0.0,0.0,0.0,0.0,0.0,nan,0.0,0.0,-0.010638297,-0.0009096265,0.00020337105,0.00089654326,0.0,0.0,0.0,0.0,0.0,0.0
21810160000,21810080000,0.0011072159,0.07809472,0.036287546,0.017700195,-0.037750244,0.0,0.0,0.0,0.0,0.0,0.0,0.0,0.0,0.0,0.0,0.0,nan,0.0,0.0,-0.010638297,-0.003627479,0.0018283725,6.297231e-05,0.0,0.0,0.0,0.0,0.0,0.0
21810664000,21810584000,-0.05730182,0.09329069,0.060280263,0.00064086914,-0.013427734,0.0,0.0,0.0,0.0,0.0,0.0,0.0,0.0,0.0,0.0,0.0,nan,0.0,0.0,-0.010638297,0.0013278872,-0.0017580986,-0.0027805865,0.0,0.0,0.0,0.0,0.0,0.0
21811160000,21811080000,-0.09009111,0.063242316,0.070598185,-0.018493652,0.0066223145,0.0,0.0,0.0,0.0,0.0,0.0,0.0,0.0,0.0,0.0,0.0,nan,0.0,0.0,-0.010638297,0.0021331012,0.0031870306,-0.0054380298,0.0,0.0,0.0,0.0,0.0,0.0
21811664000,21811584000,-0.072030365,0.024304748,0.1352073,-0.015853882,-0.002380371,0.0,0.0,0.0,0.0,0.0,0.0,0.0,0.0,0.0,0.0,0.0,nan,0.0,0.0,-0.010638297,0.0008046478,-0.0006943643,-0.002616495,0.0,0.0,0.0,0.0,0.0,0.0
21812160000,21812080000,-0.07421139,0.02546531,0.10611075,-0.024291992,0.005432129,0.0,0.0,0.0,0.0,0.0,0.0,0.0,0.0,0.0,0.0,0.0,nan,0.0,0.0,-0.010638297,-0.002723664,-0.005323902,-0.0020309389,0.0,0.0,0.0,0.0,0.0,0.0
21812656000,21812576000,-0.07687694,-0.010157615,0.17396712,-0.032974243,-0.0032958984,0.0,0.0,0.0,0.0,0.0,0.0,0.0,0.0,0.0,0.0,0.0,nan,0.0,0.0,-0.0032742023,0.003492549,-0.0041715503,0.0025885403,0.0,0.0,0.0,0.0,0.0,0.0
21813160000,21813080000,-0.060419858,-0.010392822,0.16735041,-0.024963379,-9.1552734e-05,0.0,0.0,0.0,0.0,0.0,0.0,0.0,0.0,0.0,0.0,0.0,nan,0.0,0.0,0.0076100826,0.003492549,-0.0041715503,0.0025885403,0.0,0.0,0.0,0.0,0.0,0.0
21813656000,21813576000,-0.059688173,-0.018213687,0.16192412,-0.028259277,-0.005340576,0.0,0.0,0.0,0.0,0.0,0.0,0.0,0.0,0.0,0.0,0.0,nan,0.0,0.0,-0.0052462816,0.003492549,-0.0041715503,0.0025885403,0.0,0.0,0.0,0.0,0.0,0.0
21814160000,21814080000,-0.04370921,-0.010708247,0.09906584,-0.02255249,-0.009094238,0.0,0.0,0.0,0.0,0.0,0.0,0.0,0.0,0.0,0.0,0.0,nan,0.0,0.0,-0.016635299,0.003492549,-0.0041715503,0.0025885403,0.0,0.0,0.0,0.0,0.0,0.0
21814664000,21814584000,0.006835945,-0.025173016,0.0986262,-0.020980835,-0.018829346,0.0,0.0,0.0,0.0,0.0,0.0,0.0,0.0,0.0,0.0,0.0,nan,0.0,0.0,-0.027552128,0.003492549,-0.0041715503,0.0025885403,0.0,0.0,0.0,0.0,0.0,0.0
21815160000,21815080000,0.015883394,-0.005290445,0.11664146,-0.02079773,-0.017730713,0.0,0.0,0.0,0.0,0.0,0.0,0.0,0.0,0.05505371,0.0,0.0,nan,0.0,0.0,-0.0035119057,0.003492549,-0.0041715503,0.0025885403,0.0,0.0,0.0,0.0,0.0,0.0
21815664000,21815584000,0.0048690643,-0.015840448,0.13346499,-0.00970459,-0.01586914,0.0,0.0,0.0,0.0,0.0,0.0,0.0,0.0,0.015777588,0.0,0.0,nan,0.0,0.0,-0.022549272,0.003492549,-0.0041715503,0.0025885403,0.0,0.0,0.0,0.0,0.0,0.0
21816160000,21816080000,0.021102384,0.002859231,0.061566234,-0.0135650635,-0.009094238,0.0,0.0,0.0,0.0,0.0,0.0,0.0,0.0,0.04977417,0.0,0.0,nan,0.0,0.0,0.013739467,0.003492549,-0.0041715503,0.0025885403,0.0,0.0,0.0,0.0,0.0,0.0
21816656000,21816576000,0.027758619,-0.0019832533,0.061096787,-0.0068206787,0.0015258789,0.0,0.0,0.0,0.0,0.0,0.0,0.0,0.0,0.0,0.0,0.0,nan,0.0,0.0,-0.0028748512,0.003492549,-0.0041715503,0.0025885403,0.0,0.0,0.0,0.0,0.0,0.0
21817160000,21817080000,0.015954882,0.007545933,0.09703666,-0.015136719,0.005432129,0.0,0.0,0.0,0.0,0.0,0.0,0.0,0.0,0.0028076172,0.0,0.0,nan,0.0,0.0,-0.010443449,0.003492549,-0.0041715503,0.0025885403,0.0,0.0,0.0,0.0,0.0,0.0
21817656000,21817576000,0.009839827,0.029902454,-0.0048800707,-0.015640259,0.01184082,0.0,0.0,0.0,0.0,0.0,0.0,0.0,0.0,0.087127686,0.0,0.0,nan,0.0,0.0,-0.008184433,0.003492549,-0.0041715503,0.0025885403,0.0,0.0,0.0,0.0,0.0,0.0
21818160000,21818080000,-0.0037949067,0.018510574,0.0208596,-0.015136719,0.005584717,0.0,0.0,0.0,0.0,0.0,0.0,0.0,0.0,0.087768555,0.0,0.0,nan,0.0,0.0,-0.002596736,0.003492549,-0.0041715503,0.0025885403,0.0,0.0,0.0,0.0,0.0,0.0
21818664000,21818584000,0.00027537905,0.04644154,0.046426356,-0.012588501,0.009307861,0.0,0.0,0.0,0.0,0.0,0.0,0.0,0.0,0.04586792,0.0,0.0,nan,0.0,0.0,-0.008274913,0.003492549,-0.0041715503,0.0025885403,0.0,0.0,0.0,0.0,0.0,0.0
21819160000,21819080000,-0.01350445,0.021659689,0.025353432,-0.0104522705,0.0072021484,0.0,0.0,0.0,0.0,0.0,0.0,0.0,0.0,0.09274292,0.0,0.0,nan,0.0,0.0,0.0029771328,0.003492549,-0.0041715503,0.0025885403,0.0,0.0,0.0,0.0,0.0,0.0
21819664000,21819584000,-0.041202694,0.033993494,0.03678441,-0.011383057,0.0062561035,0.0,0.0,0.0,0.0,0.0,0.0,0.0,0.0,0.014556885,0.0,0.0,nan,0.0,0.0,-0.01205039,0.003492549,-0.0041715503,0.0025885403,0.0,0.0,0.0,0.0,0.0,0.0
21820160000,21820080000,-0.040374853,0.015882859,0.05591911,-0.01576233,0.008636475,0.0,0.0,0.0,0.0,0.0,0.0,0.0,0.0,0.071136475,0.0,0.0,nan,0.0,0.0,-0.0061815977,0.003492549,-0.0041715503,0.0025885403,0.0,0.0,0.0,0.0,0.0,0.0
21820656000,21820576000,-0.04849221,0.02989535,0.058213294,-0.010223389,0.017425537,0.0,0.0,0.0,0.0,0.0,0.0,0.0,0.0,0.0,0.0,0.0,nan,0.0,0.0,-0.00014305115,0.003492549,-0.0041715503,0.0025885403,0.0,0.0,0.0,0.0,0.0,0.0
21821160000,21821080000,-0.018399615,0.018866476,0.0032601357,-0.017074585,0.018951416,0.0,0.0,0.0,0.0,0.0,0.0,0.0,0.0,0.02368164,0.0,0.0,nan,0.0,0.0,-0.004883051,0.003492549,-0.0041715503,0.0025885403,0.0,0.0,0.0,0.0,0.0,0.0
21821664000,21821584000,-0.046611406,0.01658805,0.053637445,-0.023269653,0.018829346,0.0,0.0,0.0,0.0,0.0,0.0,0.0,0.0,0.10635376,0.0,0.0,nan,0.0,0.0,-0.0044207573,0.003492549,-0.0041715503,0.0025885403,0.0,0.0,0.0,0.0,0.0,0.0
21822160000,21822080000,-0.03912694,0.017612893,0.0064725876,-0.01878357,0.010986328,0.0,0.0,0.0,0.0,0.0,0.0,0.0,0.0,0.06851196,0.0,0.0,nan,0.0,0.0,-0.0131851435,0.003492549,-0.0041715503,0.0025885403,0.0,0.0,0.0,0.0,0.0,0.0
21822656000,21822576000,-0.0562097,0.013626761,-0.019500256,-0.03010559,0.020385742,0.0,0.0,0.0,0.0,0.0,0.0,0.0,0.0,0.064575195,0.0,0.0,nan,0.0,0.0,-0.027911663,0.003492549,-0.0041715503,0.0025885403,0.0,0.0,0.0,0.0,0.0,0.0
21823160000,21823080000,-0.03301853,0.011181005,0.030451655,-0.02305603,0.01776123,0.0,0.0,0.0,0.0,0.0,0.0,0.0,0.0,0.0,0.0,0.0,nan,0.0,0.0,-0.019322872,0.003492549,-0.0041715503,0.0025885403,0.0,0.0,0.0,0.0,0.0,0.0
21823656000,21823576000,-0.03439414,0.0038066413,0.0239321,-0.0206604,0.0113220215,0.0,0.0,0.0,0.0,0.0,0.0,0.0,0.0,0.019012451,0.0,0.0,nan,0.0,0.0,-0.021009564,0.003492549,-0.0041715503,0.0025885403,0.0,0.0,0.0,0.0,0.0,0.0
21824160000,21824080000,-0.024174454,0.016815918,-0.022554517,-0.025772095,0.015319824,0.0,0.0,0.0,0.0,0.0,0.0,0.0,0.0,0.0,0.0,0.0,nan,0.0,0.0,-0.0070512295,0.003492549,-0.0041715503,0.0025885403,0.0,0.0,0.0,0.0,0.0,0.0
21824656000,21824576000,-0.017487735,-0.005547475,0.0042135715,-0.0023956299,0.001739502,0.0,0.0,0.0,0.0,0.0,0.0,0.0,0.0,0.0,0.0,0.0,nan,0.0,0.0,-0.0110936165,0.003492549,-0.0041715503,0.0025885403,0.0,0.0,0.0,0.0,0.0,0.0
21825160000,21825080000,-0.016471036,0.016593106,-0.03360212,-0.0064849854,0.0057373047,0.0,0.0,0.0,0.0,0.0,0.0,0.0,0.0,0.042175293,0.0,0.0,nan,0.0,0.0,0.0040978193,0.003492549,-0.0041715503,0.0025885403,0.0,0.0,0.0,0.0,0.0,0.0
21825664000,21825584000,-0.006689653,0.00934664,-0.0031892061,-0.014022827,0.010284424,0.0,0.0,0.0,0.0,0.0,0.0,0.0,0.0,0.025115967,0.0,0.0,nan,0.0,0.0,-0.016951323,0.003492549,-0.0041715503,0.0025885403,0.0,0.0,0.0,0.0,0.0,0.0
21826160000,21826080000,0.0049873125,0.025385385,-0.038166165,0.0024719238,0.013244629,0.0,0.0,0.0,0.0,0.0,0.0,0.0,0.0,0.0,0.0,0.0,nan,0.0,0.0,-0.02664578,0.003492549,-0.0041715503,0.0025885403,0.0,0.0,0.0,0.0,0.0,0.0
21826656000,21826576000,-0.008176493,0.04137988,-0.024398029,-0.008178711,0.018676758,0.0,0.0,0.0,0.0,0.0,0.0,0.0,0.0,0.044677734,0.0,0.0,nan,0.0,0.0,-0.005721569,0.003492549,-0.0041715503,0.0025885403,0.0,0.0,0.0,0.0,0.0,0.0
21827160000,21827080000,-0.0017394996,0.027507339,-0.048318386,-0.010314941,0.012542725,0.0,0.0,0.0,0.0,0.0,0.0,0.0,0.0,0.016815186,0.0,0.0,nan,0.0,0.0,-0.003962517,0.003492549,-0.0041715503,0.0025885403,0.0,0.0,0.0,0.0,0.0,0.0
21827664000,21827584000,0.020051042,0.04285005,-0.01851821,0.000579834,0.018310547,0.0,0.0,0.0,0.0,0.0,0.0,0.0,0.0,0.0,0.0,0.0,nan,0.0,0.0,-0.018238187,0.003492549,-0.0041715503,0.0025885403,0.0,0.0,0.0,0.0,0.0,0.0
21828160000,21828080000,0.005995419,0.05051598,0.015101969,-0.008972168,0.02130127,0.0,0.0,0.0,0.0,0.0,0.0,0.0,0.0,0.004638672,0.0,0.0,nan,0.0,0.0,-0.007896543,0.003492549,-0.0041715503,0.0025885403,0.0,0.0,0.0,0.0,0.0,0.0
21828664000,21828584000,-0.01889877,0.034910128,0.015891135,-0.005584717,0.029541016,0.0,0.0,0.0,0.0,0.0,0.0,0.0,0.0,0.0,0.0,0.0,nan,0.0,0.0,0.0009915829,0.003492549,-0.0041715503,0.0025885403,0.0,0.0,0.0,0.0,0.0,0.0
21829160000,21829080000,-0.017817296,0.03782177,-0.08016503,-0.0014648438,0.037078857,0.0,0.0,0.0,0.0,0.0,0.0,0.0,0.0,0.0,0.0,0.0,nan,0.0,0.0,-0.0076316595,0.003492549,-0.0041715503,0.0025885403,0.0,0.0,0.0,0.0,0.0,0.0
21829656000,21829576000,0.0045113973,0.03870134,-0.044278443,7.6293945e-05,0.042297363,0.0,0.0,0.0,0.0,0.0,0.0,0.0,0.0,0.0,0.0,0.0,nan,0.0,0.0,0.004276514,0.003492549,-0.0041715503,0.0025885403,0.0,0.0,0.0,0.0,0.0,0.0
21830160000,21830080000,-0.0060616396,0.04499337,-0.018809915,-0.0018920898,0.044799805,0.0,0.0,0.0,0.0,0.0,0.0,0.0,0.0,0.0,0.0,0.0,nan,0.0,0.0,-0.0064002275,0.003492549,-0.0041715503,0.0025885403,0.0,0.0,0.0,0.0,0.0,0.0
21830664000,21830584000,-0.014312308,0.018031282,-0.08191633,-0.0041046143,0.04135132,0.0,0.0,0.0,0.0,0.0,0.0,0.0,0.0,0.0,0.0,0.0,nan,0.0,0.0,-0.012290597,0.003492549,-0.0041715503,0.0025885403,0.0,0.0,0.0,0.0,0.0,0.0
21831160000,21831080000,0.0016334812,0.0189965,-0.0054054856,-0.010253906,0.034088135,0.0,0.0,0.0,0.0,0.0,0.0,0.0,0.0,0.0,0.0,0.0,nan,0.0,0.0,-0.0075103045,0.003492549,-0.0041715503,0.0025885403,0.0,0.0,0.0,0.0,0.0,0.0
21831656000,21831576000,-0.00045379263,0.010521522,-0.008567035,-0.009155273,0.029205322,0.0,0.0,0.0,0.0,0.0,0.0,0.0,0.0,0.0,0.0,0.0,nan,0.0,0.0,0.0109500885,0.003492549,-0.0041715503,0.0025885403,0.0,0.0,0.0,0.0,0.0,0.0
21832160000,21832080000,-0.008208668,0.039093297,0.0076087117,0.0054779053,0.034057617,0.0,0.0,0.0,0.0,0.0,0.0,0.0,0.0,0.0,0.0,0.0,nan,0.0,0.0,0.0028431416,0.003492549,-0.0041715503,0.0025885403,0.0,0.0,0.0,0.0,0.0,0.0
21832664000,21832584000,-0.029680524,0.017398149,-0.001947701,-0.016174316,0.025360107,0.0,0.0,0.0,0.0,0.0,0.0,0.0,0.0,0.0,0.0,0.0,nan,0.0,0.0,0.007655978,0.003492549,-0.0041715503,0.0025885403,0.0,0.0,0.0,0.0,0.0,0.0
21833160000,21833080000,-0.03036775,0.019576384,-0.055826902,-0.013061523,0.02218628,0.0,0.0,0.0,0.0,0.0,0.0,0.0,0.0,0.0,0.0,0.0,nan,0.0,0.0,-0.00033819675,0.003492549,-0.0041715503,0.0025885403,0.0,0.0,0.0,0.0,0.0,0.0
21833664000,21833584000,-0.030808844,0.027024155,0.0009599328,-0.013092041,0.014038086,0.0,0.0,0.0,0.0,0.0,0.0,0.0,0.0,0.0,0.0,0.0,nan,0.0,0.0,0.015199184,0.003492549,-0.0041715503,0.0025885403,0.0,0.0,0.0,0.0,0.0,0.0
21834160000,21834080000,-0.033729643,0.009887323,0.030753076,-0.00491333,0.014373779,0.0,0.0,0.0,0.0,0.0,0.0,0.0,0.0,0.0,0.0,0.0,nan,0.0,0.0,-0.0075234175,0.003492549,-0.0041715503,0.0025885403,0.0,0.0,0.0,0.0,0.0,0.0
21834656000,21834576000,-0.02622482,-0.00026556477,0.04424721,-0.01638794,0.012176514,0.0,0.0,0.0,0.0,0.0,0.0,0.0,0.0,0.0,0.0,0.0,nan,0.0,0.0,-0.006109476,0.003492549,-0.0041715503,0.0025885403,0.0,0.0,0.0,0.0,0.0,0.0
21835160000,21835080000,-0.007988965,0.016022544,0.015461504,-0.008773804,0.013977051,0.0,0.0,0.0,0.0,0.0,0.0,0.0,0.0,0.0,0.0,0.0,nan,0.0,0.0,-0.0022079945,0.003492549,-0.0041715503,0.0025885403,0.0,0.0,0.0,0.0,0.0,0.0
21835664000,21835584000,-0.01720974,0.008430781,0.030863822,-0.016464233,0.0049438477,0.0,0.0,0.0,0.0,0.0,0.0,0.0,0.0,0.0,0.0,0.0,nan,0.0,0.0,-0.0010585785,0.003492549,-0.0041715503,0.0025885403,0.0,0.0,0.0,0.0,0.0,0.0
21836160000,21836080000,-0.018412072,0.014726291,0.008742571,-0.015716553,0.013336182,0.0,0.0,0.0,0.0,0.0,0.0,0.0,0.0,0.0,0.0,0.0,nan,0.0,0.0,0.015286207,0.003492549,-0.0041715503,0.0025885403,0.0,0.0,0.0,0.0,0.0,0.0
21836664000,21836584000,-0.018988995,-0.00675484,0.025278866,-0.0140686035,0.004058838,0.0,0.0,0.0,0.0,0.0,0.0,0.0,0.0,0.0,0.0,0.0,nan,0.0,0.0,-0.001594305,0.003492549,-0.0041715503,0.0025885403,0.0,0.0,0.0,0.0,0.0,0.0
21837160000,21837080000,-0.009796031,0.020474695,0.006649494,-0.027679443,0.011138916,0.0,0.0,0.0,0.0,0.0,0.0,0.0,0.0,0.0,0.0,0.0,nan,0.0,0.0,0.02434647,0.003492549,-0.0041715503,0.0025885403,0.0,0.0,0.0,0.0,0.0,0.0
21837664000,21837584000,-0.020315932,0.039434537,-0.023743153,-0.015914917,0.020080566,0.0,0.0,0.0,0.0,0.0,0.0,0.0,0.0,0.017944336,0.0,0.0,nan,0.0,0.0,0.00072968006,0.003492549,-0.0041715503,0.0025885403,0.0,0.0,0.0,0.0,0.0,0.0
21838160000,21838080000,-0.017570363,0.018178008,-0.033005595,-0.02609253,0.013427734,0.0,0.0,0.0,0.0,0.0,0.0,0.0,0.0,0.0,0.0,0.0,nan,0.0,0.0,-0.029750824,0.003492549,-0.0041715503,0.0025885403,0.0,0.0,0.0,0.0,0.0,0.0
21838664000,21838584000,-0.037955858,0.013096513,-0.0009951591,-0.031677246,0.026489258,0.0,0.0,0.0,0.0,0.0,0.0,0.0,0.0,0.0,0.0,0.0,nan,0.0,0.0,-0.011815667,0.003492549,-0.0041715503,0.0025885403,0.0,0.0,0.0,0.0,0.0,0.0
21839160000,21839080000,-0.021527532,0.032163825,0.02738589,-0.022994995,0.029205322,0.0,0.0,0.0,0.0,0.0,0.0,0.0,0.0,0.0,0.0,0.0,nan,0.0,0.0,-0.0070869923,0.003492549,-0.0041715503,0.0025885403,0.0,0.0,0.0,0.0,0.0,0.0
21839664000,21839584000,-0.030777313,0.03915023,-0.046381235,-0.026824951,0.037719727,0.0,0.0,0.0,0.0,0.0,0.0,0.0,0.0,0.0,0.0,0.0,nan,0.0,0.0,-0.0067751408,0.003492549,-0.0041715503,0.0025885403,0.0,0.0,0.0,0.0,0.0,0.0
21840160000,21840080000,-0.029265365,0.027268888,-0.0034931302,-0.013534546,0.02758789,0.0,0.0,0.0,0.0,0.0,0.0,0.0,0.0,0.0,0.0,0.0,nan,0.0,0.0,-0.00769639,0.003492549,-0.0041715503,0.0025885403,0.0,0.0,0.0,0.0,0.0,0.0
21840656000,21840576000,-0.01993657,0.052131496,-0.03054607,-0.015045166,0.032989502,0.0,0.0,0.0,0.0,0.0,0.0,0.0,0.0,0.0,0.0,0.0,nan,0.0,0.0,-0.0036666393,0.003492549,-0.0041715503,0.0025885403,0.0,0.0,0.0,0.0,0.0,0.0
21841160000,21841080000,-0.027023243,0.01698757,-0.0654155,-0.015365601,0.031036377,0.0,0.0,0.0,0.0,0.0,0.0,0.0,0.0,0.0,0.0,0.0,nan,0.0,0.0,0.0054376125,0.003492549,-0.0041715503,0.0025885403,0.0,0.0,0.0,0.0,0.0,0.0
21841664000,21841584000,-0.01879336,0.0069583673,-0.0005143285,-0.019500732,0.02243042,0.0,0.0,0.0,0.0,0.0,0.0,0.0,0.0,0.0,0.0,0.0,nan,0.0,0.0,0.0009407997,0.003492549,-0.0041715503,0.0025885403,0.0,0.0,0.0,0.0,0.0,0.0
21842160000,21842080000,-0.028323198,0.01917072,0.024802268,-0.020629883,0.027709961,0.0,0.0,0.0,0.0,0.0,0.0,0.0,0.0,0.0,0.0,0.0,nan,0.0,0.0,0.006895423,0.003492549,-0.0041715503,0.0025885403,0.0,0.0,0.0,0.0,0.0,0.0
21842656000,21842576000,-0.048484944,0.0041982885,-0.009344816,-0.023605347,0.024871826,0.0,0.0,0.0,0.0,0.0,0.0,0.0,0.0,0.0,0.0,0.0,nan,0.0,0.0,0.011302233,0.003492549,-0.0041715503,0.0025885403,0.0,0.0,0.0,0.0,0.0,0.0
21843160000,21843080000,-0.06966146,0.0019457098,0.025399387,-0.032104492,0.025665283,0.0,0.0,0.0,0.0,0.0,0.0,0.0,0.0,0.0,0.0,0.0,nan,0.0,0.0,0.008183122,0.003492549,-0.0041715503,0.0025885403,0.0,0.0,0.0,0.0,0.0,0.0
21843656000,21843576000,-0.051200498,0.021807922,0.0015232563,-0.029876709,0.01727295,0.0,0.0,0.0,0.0,0.0,0.0,0.0,0.0,0.0,0.0,0.0,nan,0.0,0.0,0.014557719,0.003492549,-0.0041715503,0.0025885403,0.0,0.0,0.0,0.0,0.0,0.0
21844160000,21844080000,-0.05714004,0.0046678893,-0.03643,-0.03263855,0.015045166,0.0,0.0,0.0,0.0,0.0,0.0,0.0,0.0,0.0,0.0,0.0,nan,0.0,0.0,0.0034359694,0.003492549,-0.0041715503,0.0025885403,0.0,0.0,0.0,0.0,0.0,0.0
21844656000,21844576000,-0.047990266,0.014096759,-0.01666236,-0.027832031,0.009155273,0.0,0.0,0.0,0.0,0.0,0.0,0.0,0.0,0.0,0.0,0.0,nan,0.0,0.0,0.010949492,0.003492549,-0.0041715503,0.0025885403,0.0,0.0,0.0,0.0,0.0,0.0
21845160000,21845080000,-0.028131114,0.009640148,0.02116692,-0.018508911,0.009552002,0.0,0.0,0.0,0.0,0.0,0.0,0.0,0.0,0.0,0.0,0.0,nan,0.0,0.0,-0.025386214,0.003492549,-0.0041715503,0.0025885403,0.0,0.0,0.0,0.0,0.0,0.0
21845664000,21845584000,-0.04524518,0.011040561,0.027986348,-0.016601562,-0.0068969727,0.0,0.0,0.0,0.0,0.0,0.0,0.0,0.0,0.0,0.0,0.0,nan,0.0,0.0,0.0053617954,0.003492549,-0.0041715503,0.0025885403,0.0,0.0,0.0,0.0,0.0,0.0
21846160000,21846080000,-0.01146079,0.012275044,0.05824107,-0.023025513,-0.004119873,0.0,0.0,0.0,0.0,0.0,0.0,0.0,0.0,0.0,0.0,0.0,nan,0.0,0.0,-0.009433866,0.003492549,-0.0041715503,0.0025885403,0.0,0.0,0.0,0.0,0.0,0.0
21846664000,21846584000,-0.028424775,0.013856329,-0.002069831,-0.022567749,-0.0006713867,0.0,0.0,0.0,0.0,0.0,0.0,0.0,0.0,0.0,0.0,0.0,nan,0.0,0.0,-0.009303689,0.003492549,-0.0041715503,0.0025885403,0.0,0.0,0.0,0.0,0.0,0.0
21847160000,21847080000,-0.011085285,0.0047771274,-0.046104908,-0.013549805,0.0014038086,0.0,0.0,0.0,0.0,0.0,0.0,0.0,0.0,0.0,0.0,0.0,nan,0.0,0.0,0.010093331,0.003492549,-0.0041715503,0.0025885403,0.0,0.0,0.0,0.0,0.0,0.0
21847656000,21847576000,-0.027930235,-0.0025852104,0.055296183,-0.011291504,0.00061035156,0.0,0.0,0.0,0.0,0.0,0.0,0.0,0.0,0.0,0.0,0.0,nan,0.0,0.0,-0.00020492077,0.003492549,-0.0041715503,0.0025885403,0.0,0.0,0.0,0.0,0.0,0.0
21848160000,21848080000,0.0043289866,0.020352459,-0.013983369,-0.009216309,0.0007324219,0.0,0.0,0.0,0.0,0.0,0.0,0.0,0.0,0.0,0.0,0.0,nan,0.0,0.0,-0.0025339127,0.003492549,-0.0041715503,0.0025885403,0.0,0.0,0.0,0.0,0.0,0.0
21848664000,21848584000,-0.018351356,0.008973299,0.017436087,-0.016540527,0.013061523,0.0,0.0,0.0,0.0,0.0,0.0,0.0,0.0,0.0,0.0,0.0,nan,0.0,0.0,-0.0039824247,0.003492549,-0.0041715503,0.0025885403,0.0,0.0,0.0,0.0,0.0,0.0
21849160000,21849080000,-0.014728674,0.030849613,0.007330179,-0.005859375,0.009918213,0.0,0.0,0.0,0.0,0.0,0.0,0.0,0.0,0.0,0.0,0.0,nan,0.0,0.0,0.00064635277,0.003492549,-0.0041715503,0.0025885403,0.0,0.0,0.0,0.0,0.0,0.0
21849664000,21849584000,0.007123057,0.018478302,0.046076596,-0.00970459,0.0043945312,0.0,0.0,0.0,0.0,0.0,0.0,0.0,0.0,0.0,0.0,0.0,nan,0.0,0.0,-0.0028312206,0.003492549,-0.0041715503,0.0025885403,0.0,0.0,0.0,0.0,0.0,0.0
21850160000,21850080000,-0.00971648,0.012909738,0.03098017,-0.003479004,0.012542725,0.0,0.0,0.0,0.0,0.0,0.0,0.0,0.0,0.0,0.0,0.0,nan,0.0,0.0,0.0072363615,0.003492549,-0.0041715503,0.0025885403,0.0,0.0,0.0,0.0,0.0,0.0
21850664000,21850584000,0.003842466,0.019076524,0.059948266,-0.01473999,0.02331543,0.0,0.0,0.0,0.0,0.0,0.0,0.0,0.0,0.0,0.0,0.0,nan,0.0,0.0,0.0064570904,0.003492549,-0.0041715503,0.0025885403,0.0,0.0,0.0,0.0,0.0,0.0
21851160000,21851080000,0.010785686,0.03471236,0.0568704,-0.00491333,0.022613525,0.0,0.0,0.0,0.0,0.0,0.0,0.0,0.0,0.0,0.0,0.0,nan,0.0,0.0,0.003892064,0.003492549,-0.0041715503,0.0025885403,0.0,0.0,0.0,0.0,0.0,0.0
