timestamp,timestamp_sample,gyro_device_id,gyro_bias[0],gyro_bias[1],gyro_bias[2],gyro_bias_limit,gyro_bias_variance[0],gyro_bias_variance[1],gyro_bias_variance[2],accel_device_id,accel_bias[0],accel_bias[1],accel_bias[2],accel_bias_limit,accel_bias_variance[0],accel_bias_variance[1],accel_bias_variance[2],mag_device_id,mag_bias[0],mag_bias[1],mag_bias[2],mag_bias_limit,mag_bias_variance[0],mag_bias_variance[1],mag_bias_variance[2],gyro_bias_valid,gyro_bias_stable,accel_bias_valid,accel_bias_stable,mag_bias_valid,mag_bias_stable
21726064000,21725984000,1310996,0.0010991929,8.22621e-05,-0.00025109397,0.34906584,1.3784006e-07,1.3783996e-07,3.588588e-07,1310996,-0.015246278,-0.0023081,-0.027622193,0.4,0.0013608042,0.0013678508,0.00078123936,197388,0.012723287,-0.0057870857,-0.001231411,0.5,1.8362362e-05,4.2488424e-05,5.2007766e-05,1,1,1,0,1,0
21726688000,21726608000,1310996,0.001070826,9.2064925e-05,-0.00025047568,0.34906584,1.3783459e-07,1.3783618e-07,3.5874854e-07,1310996,-0.015250869,-0.0023025738,-0.029770307,0.4,0.001360846,0.0013678931,0.00078123936,197388,0.012723287,-0.0057870857,-0.001231411,0.5,1.8362362e-05,4.2488424e-05,5.2007766e-05,1,1,1,0,1,0
21727312000,21727232000,1310996,0.0010500201,0.00010024615,-0.0002477317,0.34906584,1.3783314e-07,1.3783558e-07,3.5864232e-07,1310996,-0.015255834,-0.0023006967,-0.031096376,0.4,0.00136089,0.0013679361,0.00078123936,197388,0.012723287,-0.0057870857,-0.001231411,0.5,1.8362362e-05,4.2488424e-05,5.2007766e-05,1,1,1,0,1,0
21727520000,21727440000,1310996,0.0010450559,0.00010088399,-0.00025298397,0.34906584,1.378313e-07,1.3783401e-07,3.5860754e-07,1310996,-0.015256262,-0.0022990464,-0.032184664,0.4,0.0013609045,0.0013679507,0.00078123936,197388,0.012723287,-0.0057870857,-0.001231411,0.5,1.8362362e-05,4.2488424e-05,5.2007766e-05,1,1,1,0,1,0
21728520000,21728440000,1310996,0.0010211485,0.000107789274,-0.00024911587,0.34906584,1.391768e-07,1.391804e-07,3.5867743e-07,1310996,-0.015259766,-0.0023004976,-0.032346543,0.4,0.0013609738,0.0013680204,0.0007812457,197388,0.012723287,-0.0057870857,-0.001231411,0.5,1.8362362e-05,4.2488424e-05,5.2007766e-05,1,1,1,0,1,0
21729184000,21729104000,1310996,0.0009880916,0.00010503696,-0.00025219694,0.34906584,1.3783878e-07,1.3784461e-07,3.5889104e-07,1310996,-0.015262415,-0.0023061757,-0.030526085,0.4,0.0013610198,0.0013680661,0.00078123936,197388,0.012723287,-0.0057870857,-0.001231411,0.5,1.8362362e-05,4.2488424e-05,5.2007766e-05,1,1,1,0,1,0
21729392000,21729312000,1310996,0.0009850843,0.00010471921,-0.00025180445,0.34906584,1.3784111e-07,1.3784677e-07,3.588576e-07,1310996,-0.015261925,-0.0023077806,-0.02924704,0.4,0.0013610342,0.0013680804,0.00078123936,197388,0.012723287,-0.0057870857,-0.001231411,0.5,1.8362362e-05,4.2488424e-05,5.2007766e-05,1,1,1,0,1,0
21729600000,21729520000,1310996,0.00097649964,0.00010228847,-0.0002535924,0.34906584,1.3783675e-07,1.3784309e-07,3.588228e-07,1310996,-0.015260764,-0.0023051645,-0.030749345,0.4,0.0013610484,0.0013680944,0.00078123936,197388,0.012723287,-0.0057870857,-0.001231411,0.5,1.8362362e-05,4.2488424e-05,5.2007766e-05,1,1,1,0,1,0
21729808000,21729728000,1310996,0.00096577883,9.626919e-05,-0.0002547202,0.34906584,1.3783864e-07,1.3784616e-07,3.587867e-07,1310996,-0.015258821,-0.0023057058,-0.029548319,0.4,0.0013610625,0.0013681082,0.00078123936,197388,0.012723287,-0.0057870857,-0.001231411,0.5,1.8362362e-05,4.2488424e-05,5.2007766e-05,1,1,1,0,1,0
21730016000,21729936000,1310996,0.0009632463,9.073541e-05,-0.0002539966,0.34906584,1.3782733e-07,1.3783487e-07,3.5875297e-07,1310996,-0.015258935,-0.0023003498,-0.034354717,0.4,0.0013610725,0.0013681186,0.00078123936,197388,0.012723287,-0.0057870857,-0.001231411,0.5,1.8362362e-05,4.2488424e-05,5.2007766e-05,1,1,1,0,1,0
21730432000,21730352000,1310996,0.0009686286,9.040684e-05,-0.0002557785,0.34906584,1.3783375e-07,1.3783932e-07,3.5868314e-07,1310996,-0.015260434,-0.0023016734,-0.032471064,0.4,0.0013611005,0.0013681458,0.00078123936,197388,0.012723287,-0.0057870857,-0.001231411,0.5,1.8362362e-05,4.2488424e-05,5.2007766e-05,1,1,1,0,1,0
21730848000,21730768000,1310996,0.0009689928,9.051957e-05,-0.00025551606,0.34906584,1.3783148e-07,1.3783598e-07,3.586175e-07,1310996,-0.015259491,-0.0023016254,-0.03399545,0.4,0.0013611289,0.0013681754,0.00078123936,197388,0.012723287,-0.0057870857,-0.001231411,0.5,1.8362362e-05,4.2488424e-05,5.2007766e-05,1,1,1,0,1,0
21731264000,21731184000,1310996,0.0009719862,8.084703e-05,-0.00025667093,0.34906584,1.3783563e-07,1.3783968e-07,3.5855587e-07,1310996,-0.015259748,-0.0023008958,-0.032197736,0.4,0.001361157,0.0013682044,0.00078123936,197388,0.012723287,-0.0057870857,-0.001231411,0.5,1.8362362e-05,4.2488424e-05,5.2007766e-05,1,1,1,0,1,0
21732264000,21732184000,1310996,0.0009743403,8.202339e-05,-0.00025062007,0.34906584,1.3917888e-07,1.3918122e-07,3.5863556e-07,1310996,-0.015260617,-0.002301747,-0.031871285,0.4,0.001361225,0.0013682735,0.00078124227,197388,0.012723287,-0.0057870857,-0.001231411,0.5,1.8362362e-05,4.2488424e-05,5.2007766e-05,1,1,1,0,1,0
21732304000,21732224000,1310996,0.000983264,8.2640414e-05,-0.0002501448,0.34906584,1.3784184e-07,1.3784312e-07,3.583882e-07,1310996,-0.015263852,-0.0023016955,-0.029273544,0.4,0.0013612265,0.0013682741,0.00078123936,197388,0.012723287,-0.0057870857,-0.001231411,0.5,1.8362362e-05,4.2488424e-05,5.2007766e-05,1,1,1,0,1,0
21732512000,21732432000,1310996,0.0009784184,9.3663424e-05,-0.0002506712,0.34906584,1.3785191e-07,1.3785261e-07,3.5835222e-07,1310996,-0.015265571,-0.0023057666,-0.024458673,0.4,0.0013612364,0.0013682847,0.00078123936,197388,0.012723287,-0.0057870857,-0.001231411,0.5,1.8362362e-05,4.2488424e-05,5.2007766e-05,1,1,1,0,1,0
21732720000,21732640000,1310996,0.00097469054,0.00010649214,-0.00025074586,0.34906584,1.3785623e-07,1.3785605e-07,3.583164e-07,1310996,-0.015265659,-0.0023065202,-0.021700405,0.4,0.0013612495,0.0013682985,0.00078123936,197388,0.012723287,-0.0057870857,-0.001231411,0.5,1.8362362e-05,4.2488424e-05,5.2007766e-05,1,1,1,0,1,0
21732928000,21732848000,1310996,0.0009767531,0.000112625894,-0.00025243463,0.34906584,1.3785731e-07,1.3785635e-07,3.5828594e-07,1310996,-0.015266098,-0.0023068008,-0.019764923,0.4,0.001361264,0.0013683132,0.00078123936,197388,0.012723287,-0.0057870857,-0.001231411,0.5,1.8362362e-05,4.2488424e-05,5.2007766e-05,1,1,1,0,1,0
21733928000,21733848000,1310996,0.000977723,0.000112930924,-0.0002488697,0.34906584,1.4565788e-07,1.4565683e-07,3.5894087e-07,1310996,-0.015266272,-0.0023066166,-0.019565973,0.4,0.001361335,0.0013683842,0.0007812417,197388,0.012723287,-0.0057870857,-0.001231411,0.5,1.8362362e-05,4.2488424e-05,5.2007766e-05,1,0,1,0,1,0
21734824000,21734744000,1310996,0.0009772774,0.00011687336,-0.0002449321,0.34906584,1.510954e-07,1.510942e-07,3.587494e-07,1310996,-0.015202287,-0.002303126,-0.02074094,0.4,0.001360797,0.0013678406,0.00078123936,197388,0.012723287,-0.0057870857,-0.001231411,0.5,1.8362362e-05,4.2488424e-05,5.2007766e-05,1,0,1,0,1,0
21735240000,21735160000,1310996,0.000975412,0.00011898538,-0.00024874366,0.34906584,1.5263379e-07,1.5263275e-07,3.586775e-07,1310996,-0.015169133,-0.0022603471,-0.019741094,0.4,0.0013601257,0.0013671628,0.00078123936,197388,0.012723287,-0.0057870857,-0.001231411,0.5,1.8362362e-05,4.2488424e-05,5.2007766e-05,1,0,1,0,1,0
21735816000,21735736000,1310996,0.00097304484,0.0001252382,-0.00024820137,0.34906584,1.5503011e-07,1.5502931e-07,3.6158434e-07,1310996,-0.015212336,-0.0022636265,-0.018508488,0.4,0.001359173,0.0013662007,0.00078123936,197388,0.012723287,-0.0057870857,-0.001231411,0.5,0.0025000002,0.0025000002,0.0025000002,1,0,1,0,1,0
21736024000,21735944000,1310996,0.0009706831,0.00012890466,-0.0002480815,0.34906584,1.5573873e-07,1.5573796e-07,3.632477e-07,1310996,-0.015430426,-0.0023941307,-0.01728769,0.4,0.0013558479,0.0013628416,0.00078123936,197388,0.012723287,-0.0057870857,-0.001231411,0.5,0.0025000002,0.0025000002,0.0025000002,1,0,1,0,1,0
21736536000,21736456000,1310996,0.0009660843,0.00013024158,-0.00024769502,0.34906584,1.5817402e-07,1.581729e-07,3.6734005e-07,1310996,-0.01547117,-0.0028869915,-0.016415998,0.4,0.0013382689,0.0013450846,0.00078123936,197388,0.012723287,-0.0057870857,-0.001231411,0.5,0.0025000002,0.0025000002,0.0025000002,1,0,1,0,1,0
21737008000,21736928000,1310996,0.00096448226,0.00013201262,-0.00024702842,0.34906584,1.6055778e-07,1.6055553e-07,3.711095e-07,1310996,-0.015587445,-0.0030735994,-0.015422452,0.4,0.0012987185,0.001305149,0.00078123936,197388,0.012723287,-0.0057870857,-0.001231411,0.5,0.0025000002,0.0025000002,0.0025000002,1,0,1,0,1,0
21737632000,21737552000,1310996,0.00096060295,0.00013378954,-0.00024619978,0.34906584,1.640069e-07,1.640019e-07,3.7608407e-07,1310996,-0.01565048,-0.004010036,-0.014794678,0.4,0.0012156648,0.0012213568,0.00078123936,197388,0.012723287,-0.0057870857,-0.001231411,0.5,0.0025000002,0.0025000002,0.0025000002,1,0,1,0,1,0
21738632000,21738552000,1310996,0.0009577111,0.00013531343,-0.00024418894,0.34906584,1.7065287e-07,1.7064312e-07,3.8403184e-07,1310996,-0.015734516,-0.00470762,-0.0144780325,0.4,0.0011075216,0.0011124593,0.00078123994,197388,0.012723287,-0.0057870857,-0.001231411,0.5,0.0025000002,0.0025000002,0.0025000002,1,0,1,0,1,0
21739032000,21738952000,1310996,0.000955956,0.00013694365,-0.00024379883,0.34906584,1.7337572e-07,1.7336109e-07,3.871965e-07,1310996,-0.016227612,-0.0052529965,-0.013614528,0.4,0.0010702129,0.0010751918,0.00078123936,197388,0.012723287,-0.0057870857,-0.001231411,0.5,0.0025000002,0.0025000002,0.0025000002,1,0,1,0,1,0
21739352000,21739272000,1310996,0.000954739,0.00013767548,-0.00024321201,0.34906584,1.7572876e-07,1.757099e-07,3.8972814e-07,1310996,-0.016464768,-0.0056338487,-0.013495355,0.4,0.0010555404,0.0010607232,0.0007812434,197388,0.010829531,-0.006922444,-9.431952e-05,0.5,0.0014267748,0.0015452793,0.0016281134,1,0,1,0,1,0
21739416000,21739336000,1310996,0.00095474126,0.00013767528,-0.00024321201,0.34906584,1.7624076e-07,1.762219e-07,3.9024016e-07,1310996,-0.016465642,-0.005633391,-0.013413498,0.4,0.0010555445,0.0010607276,0.00078123936,197388,0.012208432,-0.0066693453,0.0009780767,0.5,0.0011241673,0.0012955248,0.0014322776,1,0,1,0,1,0
21739560000,21739480000,1310996,0.0009547423,0.00013767536,-0.00024321204,0.34906584,1.7739278e-07,1.7737392e-07,3.9139218e-07,1310996,-0.016466126,-0.0056331446,-0.013377959,0.4,0.0010555541,0.0010607378,0.0007812411,197388,0.011274471,-0.005737448,0.0002570435,0.5,0.00089773606,0.0011063726,0.0012949376,1,0,1,0,1,0
21739608000,21739528000,1310996,0.0009504309,0.00014137595,-0.00024256531,0.34906584,1.775437e-07,1.7750844e-07,3.9177172e-07,1310996,-0.017428739,-0.006935135,-0.014254863,0.4,0.0010425905,0.0010488188,0.00078123936,197388,0.011421,-0.0059335153,0.0003304725,0.5,0.0008974375,0.0011060837,0.001294888,1,0,1,0,1,0
21739816000,21739736000,1310996,0.0009464645,0.00014230328,-0.00024186248,0.34906584,1.7899546e-07,1.789315e-07,3.9342956e-07,1310996,-0.017579054,-0.007942497,-0.014384676,0.4,0.0010323923,0.0010403743,0.00078123936,197388,0.011665641,-0.0056235557,0.0011649006,0.5,0.0007704058,0.0010075502,0.0012263658,1,0,1,0,1,0
21740232000,21740152000,1310996,0.000940538,0.00014095394,-0.00024089907,0.34906584,1.8193288e-07,1.8177589e-07,3.9674822e-07,1310996,-0.017116688,-0.009115237,-0.015446671,0.4,0.0010179057,0.0010300818,0.00078123936,197388,0.011295374,-0.0064947,0.0010089679,0.5,0.0006747673,0.0009425268,0.0011821715,1,0,1,0,1,0
21740776000,21740696000,1310996,0.0009387428,0.00013976534,-0.00024072647,0.34906584,1.8607456e-07,1.8585177e-07,4.010841e-07,1310996,-0.016853813,-0.009488602,-0.015319224,0.4,0.0010126021,0.0010266368,0.00078123936,197388,0.011942301,-0.0072932965,0.0012643371,0.5,0.0006278419,0.0009124338,0.0011613078,1,0,1,0,1,0
21741016000,21740936000,1310996,0.00093347416,0.00013497708,-0.00024088782,0.34906584,1.87456e-07,1.870441e-07,4.0296652e-07,1310996,-0.016160276,-0.009953012,-0.016097203,0.4,0.0010040563,0.0010217999,0.00078123936,197388,0.012065266,-0.007351087,0.0014202541,0.5,0.0006176519,0.00090538233,0.0011565463,1,0,1,0,1,0
21741640000,21741560000,1310996,0.00092829624,0.00012909193,-0.00024187897,0.34906584,1.9149458e-07,1.9077136e-07,4.0779082e-07,1310996,-0.015357435,-0.010282199,-0.017289719,0.4,0.0009948855,0.0010174728,0.00078123936,197388,0.0120842615,-0.0075133303,0.0014951872,0.5,0.0006004608,0.0008924506,0.0011464027,1,0,1,0,1,0
21742640000,21742560000,1310996,0.00092460285,0.00011859196,-0.00024359713,0.34906584,1.9725928e-07,1.9610613e-07,4.1504128e-07,1310996,-0.014811079,-0.010487136,-0.016774295,0.4,0.0009835474,0.0010139238,0.0007812405,197388,0.012254786,-0.007992021,0.0019810754,0.5,0.00058904244,0.00088121847,0.0011352721,1,0,1,0,1,0
21743640000,21743560000,1310996,0.0009161952,0.00011040358,-0.00024927434,0.34906584,2.0150874e-07,2.0004178e-07,4.2127252e-07,1310996,-0.014262284,-0.010665178,-0.01696228,0.4,0.00097087136,0.0010115508,0.00078123994,197388,0.012392186,-0.008085392,0.0021047546,0.5,0.0005837509,0.0008743154,0.0011256387,1,0,1,0,1,0
21744432000,21744352000,1310996,0.00091799133,0.000102346785,-0.00024891685,0.34906584,2.0403586e-07,2.0238858e-07,4.2547452e-07,1310996,-0.014372217,-0.010718151,-0.015944151,0.4,0.00096039113,0.0010101699,0.00078123936,197388,0.012444039,-0.008410916,0.0023478793,0.5,0.00058085844,0.00086992915,0.0011176413,1,0,1,0,1,0
21745432000,21745352000,1310996,0.00092287303,9.631725e-05,-0.00024617978,0.34906584,2.038791e-07,2.0155724e-07,4.28003e-07,1310996,-0.014116969,-0.010688041,-0.015768984,0.4,0.0009418029,0.0010078124,0.00078123936,197388,0.012412617,-0.008561002,0.002714964,0.5,0.00057844433,0.0008664926,0.0011103213,1,0,1,0,1,0
21746432000,21746352000,1310996,0.00092367537,8.531331e-05,-0.00024593138,0.34906584,2.0433225e-07,2.0068057e-07,4.299127e-07,1310996,-0.0137095135,-0.010700069,-0.016163426,0.4,0.00092685607,0.0010045998,0.00078124,197388,0.012412617,-0.008561002,0.002714964,0.5,0.00057844433,0.0008664926,0.0011103213,1,0,1,0,1,0
21747432000,21747352000,1310996,0.00092398014,7.205001e-05,-0.00024694361,0.34906584,2.0449409e-07,1.9890388e-07,4.3175586e-07,1310996,-0.013742415,-0.010744083,-0.015676709,0.4,0.000913052,0.0010024704,0.0007812405,197388,0.012412617,-0.008561002,0.002714964,0.5,0.00057844433,0.0008664926,0.0011103213,1,0,1,0,1,0
21748432000,21748352000,1310996,0.0009352719,6.0223803e-05,-0.00023888862,0.34906584,2.0433461e-07,1.9631581e-07,4.334317e-07,1310996,-0.013372287,-0.010771213,-0.016328797,0.4,0.00090077,0.0010009292,0.0007812411,197388,0.012412617,-0.008561002,0.002714964,0.5,0.00057844433,0.0008664926,0.0011103213,1,0,1,0,1,0
21749024000,21748944000,1310996,0.0009447459,5.055557e-05,-0.00023186363,0.34906584,2.0251903e-07,1.922973e-07,4.3309564e-07,1310996,-0.012936697,-0.010801762,-0.017329294,0.4,0.0008926572,0.001000089,0.00078123936,197388,0.012412617,-0.008561002,0.002714964,0.5,0.00057844433,0.0008664926,0.0011103213,1,0,1,0,1,0
21749648000,21749568000,1310996,0.0009443572,3.6415695e-05,-0.00023449243,0.34906584,2.015237e-07,1.8925141e-07,4.3341117e-07,1310996,-0.0125132445,-0.010835107,-0.018392175,0.4,0.00088577555,0.000999312,0.00078123936,197388,0.012412617,-0.008561002,0.002714964,0.5,0.00057844433,0.0008664926,0.0011103213,1,0,1,0,1,0
21750424000,21750344000,1310996,0.0009517569,2.0959278e-05,-0.00022917455,0.34906584,2.012335e-07,1.8680564e-07,4.344417e-07,1310996,-0.012169904,-0.010873856,-0.019368391,0.4,0.0008795883,0.0009984162,0.00078123936,197388,0.012412617,-0.008561002,0.002714964,0.5,0.00057844433,0.0008664926,0.0011103213,1,0,1,0,1,0
21751424000,21751344000,1310996,0.00095657096,1.5961656e-05,-0.00022736985,0.34906584,2.0084265e-07,1.8371387e-07,4.3564413e-07,1310996,-0.011902328,-0.01092686,-0.020199372,0.4,0.00087286695,0.0009972944,0.00078124,197388,0.012412617,-0.008561002,0.002714964,0.5,0.00057844433,0.0008664926,0.0011103213,1,0,1,0,1,0
21752424000,21752344000,1310996,0.0009581281,1.542537e-05,-0.00022988147,0.34906584,2.009506e-07,1.8143214e-07,4.370725e-07,1310996,-0.011806129,-0.010982752,-0.02050424,0.4,0.0008677,0.0009962015,0.00078124285,197388,0.012412617,-0.008561002,0.002714964,0.5,0.00057844433,0.0008664926,0.0011103213,1,0,1,0,1,0
21753424000,21753344000,1310996,0.00094532233,2.3020957e-05,-0.0002461601,0.34906584,2.0088132e-07,1.7899538e-07,4.381477e-07,1310996,-0.01183824,-0.010938544,-0.020088254,0.4,0.0008636067,0.0009951029,0.00078124227,197388,0.012412617,-0.008561002,0.002714964,0.5,0.00057844433,0.0008664926,0.0011103213,1,0,1,0,1,0
21754424000,21754344000,1310996,0.000937121,3.6249414e-05,-0.00025951644,0.34906584,2.0099209e-07,1.7687108e-07,4.3916629e-07,1310996,-0.011837504,-0.01093423,-0.019722493,0.4,0.00086050323,0.0009940304,0.0007812417,197388,0.012412617,-0.008561002,0.002714964,0.5,0.00057844433,0.0008664926,0.0011103213,1,0,1,0,1,0
21755208000,21755128000,1310996,0.00093034125,6.0484293e-05,-0.0002694567,0.34906584,2.0001752e-07,1.737194e-07,4.389315e-07,1310996,-0.0118995765,-0.010927699,-0.018478995,0.4,0.00085833255,0.0009931292,0.00078123936,197388,0.012412617,-0.008561002,0.002714964,0.5,0.00057844433,0.0008664926,0.0011103213,1,0,1,0,1,0
21756040000,21755960000,1310996,0.0009181811,8.710745e-05,-0.0002850292,0.34906584,1.995586e-07,1.7121413e-07,4.3906087e-07,1310996,-0.01189401,-0.010874158,-0.017360864,0.4,0.0008566656,0.0009922261,0.00078123936,197388,0.012412617,-0.008561002,0.002714964,0.5,0.00057844433,0.0008664926,0.0011103213,1,0,1,0,1,0
21757032000,21756952000,1310996,0.0009050684,0.00011304325,-0.00030343892,0.34906584,2.0017167e-07,1.6982197e-07,4.4007484e-07,1310996,-0.011913954,-0.010825705,-0.015725443,0.4,0.00085532456,0.0009913049,0.00078123936,197388,0.012412617,-0.008561002,0.002714964,0.5,0.00057844433,0.0008664926,0.0011103213,1,0,1,0,1,0
21757448000,21757368000,1310996,0.0008996038,0.00012594584,-0.00031300032,0.34906584,2.0023789e-07,1.689477e-07,4.4026856e-07,1310996,-0.011956879,-0.010820791,-0.014320254,0.4,0.0008548233,0.0009909201,0.00078123936,197388,0.012412617,-0.008561002,0.002714964,0.5,0.00057844433,0.0008664926,0.0011103213,1,0,1,0,1,0
21758224000,21758144000,1310996,0.0008900925,0.00013985249,-0.0003276653,0.34906584,2.0111656e-07,1.6835003e-07,4.411802e-07,1310996,-0.012004465,-0.010788217,-0.01270886,0.4,0.00085411523,0.0009903025,0.00078123936,197388,0.012412617,-0.008561002,0.002714964,0.5,0.00057844433,0.0008664926,0.0011103213,1,0,1,0,1,0
21758640000,21758560000,1310996,0.0008846458,0.0001423047,-0.00033290198,0.34906584,2.012515e-07,1.6752449e-07,4.4133023e-07,1310996,-0.012097507,-0.010752208,-0.011102043,0.4,0.00085373176,0.0009899641,0.00078123936,197388,0.012412617,-0.008561002,0.002714964,0.5,0.00057844433,0.0008664926,0.0011103213,1,0,1,0,1,0
21759216000,21759136000,1310996,0.0008808013,0.00014574098,-0.0003390265,0.34906584,2.0225245e-07,1.6753901e-07,4.4219388e-07,1310996,-0.0121501,-0.010740454,-0.009979562,0.4,0.00085335434,0.0009895839,0.00078123936,197388,0.012412617,-0.008561002,0.002714964,0.5,0.00057844433,0.0008664926,0.0011103213,1,0,1,0,1,0
21759632000,21759552000,1310996,0.0008764359,0.00015097001,-0.00034629984,0.34906584,2.0234361e-07,1.6664602e-07,4.422712e-07,1310996,-0.012203013,-0.010729745,-0.008470588,0.4,0.0008530552,0.0009892752,0.00078123936,197388,0.012412617,-0.008561002,0.002714964,0.5,0.00057844433,0.0008664926,0.0011103213,1,0,1,0,1,0
21760032000,21759952000,1310996,0.0008782253,0.00015075273,-0.0003466509,0.34906584,2.038075e-07,1.6782141e-07,4.4336358e-07,1310996,-0.012266598,-0.010757122,-0.007469676,0.4,0.0008529037,0.0009890763,0.00078123936,197388,0.012412617,-0.008561002,0.002714964,0.5,0.00057844433,0.0008664926,0.0011103213,1,0,1,0,1,0
21760408000,21760328000,1310996,0.0008801518,0.00015632679,-0.0003461713,0.34906584,2.0362171e-07,1.6659811e-07,4.4327163e-07,1310996,-0.012316757,-0.010788892,-0.005449169,0.4,0.0008526509,0.0009888106,0.00078123936,197388,0.012412617,-0.008561002,0.002714964,0.5,0.00057844433,0.0008664926,0.0011103213,1,0,1,0,1,0
21760616000,21760536000,1310996,0.0008812615,0.000162888,-0.00034604844,0.34906584,2.0362756e-07,1.6610419e-07,4.432749e-07,1310996,-0.01231228,-0.010809481,-0.0043137423,0.4,0.00085252983,0.0009886705,0.00078123936,197388,0.012412617,-0.008561002,0.002714964,0.5,0.00057844433,0.0008664926,0.0011103213,1,0,1,0,1,0
21761032000,21760952000,1310996,0.00088565884,0.00017102125,-0.00034476045,0.34906584,2.0378974e-07,1.6533174e-07,4.4337818e-07,1310996,-0.012323897,-0.010864845,-0.0027597023,0.4,0.00085230026,0.0009884066,0.00078123936,197388,0.012412617,-0.008561002,0.002714964,0.5,0.00057844433,0.0008664926,0.0011103213,1,0,1,0,1,0
21761448000,21761368000,1310996,0.0008876075,0.00017692178,-0.00034473956,0.34906584,2.0540054e-07,1.6668251e-07,4.4450886e-07,1310996,-0.012327376,-0.010893709,-0.0017343195,0.4,0.00085218676,0.0009882388,0.00078123936,197388,0.012412617,-0.008561002,0.002714964,0.5,0.00057844433,0.0008664926,0.0011103213,1,0,1,0,1,0
21761816000,21761736000,1310996,0.00089327217,0.00018419308,-0.0003411813,0.34906584,2.0500389e-07,1.6520504e-07,4.442541e-07,1310996,-0.012319308,-0.010949741,-0.0004139429,0.4,0.0008519679,0.0009879984,0.00078123936,197388,0.012412617,-0.008561002,0.002714964,0.5,0.00057844433,0.0008664926,0.0011103213,1,0,1,0,1,0
21762232000,21762152000,1310996,0.000897458,0.00019359673,-0.00033823255,0.34906584,2.0516498e-07,1.6446576e-07,4.4433952e-07,1310996,-0.01230685,-0.010994262,0.001244097,0.4,0.0008517753,0.0009877664,0.00078123936,197388,0.012412617,-0.008561002,0.002714964,0.5,0.00057844433,0.0008664926,0.0011103213,1,0,1,0,1,0
21762440000,21762360000,1310996,0.0009022193,0.00020040918,-0.0003347645,0.34906584,2.052959e-07,1.6417212e-07,4.4441097e-07,1310996,-0.012286123,-0.011038557,0.0023881928,0.4,0.00085168745,0.0009876569,0.00078123936,197388,0.012412617,-0.008561002,0.002714964,0.5,0.00057844433,0.0008664926,0.0011103213,1,0,1,0,1,0
21763104000,21763024000,1310996,0.00090438203,0.00020939646,-0.0003389647,0.34906584,2.071402e-07,1.6537653e-07,4.4548176e-07,1310996,-0.0122664375,-0.0110820895,0.0034409885,0.4,0.00085151294,0.0009873923,0.00078123936,197388,0.012412617,-0.008561002,0.002714964,0.5,0.00057844433,0.0008664926,0.0011103213,1,0,1,0,1,0
21763424000,21763344000,1310996,0.00090990117,0.00021058839,-0.00033792958,0.34906584,2.0660241e-07,1.638152e-07,4.452077e-07,1310996,-0.012282358,-0.0111380275,0.004906939,0.4,0.0008513413,0.0009872137,0.00078123936,197388,0.012412617,-0.008561002,0.002714964,0.5,0.00057844433,0.0008664926,0.0011103213,1,1,1,0,1,0
21763840000,21763760000,1310996,0.00091430405,0.00021796158,-0.00033520785,0.34906584,2.0685502e-07,1.6325838e-07,4.453004e-07,1310996,-0.012259137,-0.011178961,0.0060853953,0.4,0.00085118815,0.0009870256,0.00078123936,197388,0.012412617,-0.008561002,0.002714964,0.5,0.00057844433,0.0008664926,0.0011103213,1,1,1,0,1,0
21764416000,21764336000,1310996,0.00091822905,0.00022246424,-0.00033182386,0.34906584,2.0792447e-07,1.6354637e-07,4.4593907e-07,1310996,-0.01225509,-0.0112131005,0.0077202087,0.4,0.0008510318,0.000986816,0.00078123936,197388,0.012412617,-0.008561002,0.002714964,0.5,0.00057844433,0.0008664926,0.0011103213,1,1,1,0,1,0
21765040000,21764960000,1310996,0.0009242639,0.00022437116,-0.00033013997,0.34906584,2.0820096e-07,1.626477e-07,4.459489e-07,1310996,-0.012257169,-0.011266101,0.008969413,0.4,0.0008508267,0.0009865661,0.00078123936,197388,0.012412617,-0.008561002,0.002714964,0.5,0.00057844433,0.0008664926,0.0011103213,1,1,1,0,1,0
21765608000,21765528000,1310996,0.00092481903,0.00023173714,-0.00033467874,0.34906584,2.0945261e-07,1.631731e-07,4.467964e-07,1310996,-0.0122259315,-0.011289204,0.010212772,0.4,0.0008507056,0.0009864086,0.00078123936,197388,0.012412617,-0.008561002,0.002714964,0.5,0.00057844433,0.0008664926,0.0011103213,1,1,1,0,1,0
21766232000,21766152000,1310996,0.0009309697,0.00023372652,-0.00033276205,0.34906584,2.096416e-07,1.6221404e-07,4.466413e-07,1310996,-0.012227324,-0.011337351,0.011492565,0.4,0.00085052743,0.0009861949,0.00078123936,197388,0.012412617,-0.008561002,0.002714964,0.5,0.00057844433,0.0008664926,0.0011103213,1,1,1,0,1,0
21766808000,21766728000,1310996,0.00093023916,0.00023545383,-0.00033689203,0.34906584,2.1081287e-07,1.6277738e-07,4.4710956e-07,1310996,-0.012224877,-0.011345867,0.012836445,0.4,0.0008504271,0.0009860513,0.00078123936,197388,0.012412617,-0.008561002,0.002714964,0.5,0.00057844433,0.0008664926,0.0011103213,1,1,1,0,1,0
21767432000,21767352000,1310996,0.00092989416,0.00024131406,-0.00033321796,0.34906584,2.1091402e-07,1.617994e-07,4.4682457e-07,1310996,-0.012196463,-0.01133902,0.014069425,0.4,0.00085027644,0.0009858714,0.00078123936,197388,0.012412617,-0.008561002,0.002714964,0.5,0.00057844433,0.0008664926,0.0011103213,1,1,1,0,1,0
21768128000,21768048000,1310996,0.00093013886,0.00024051759,-0.00033651647,0.34906584,2.1282666e-07,1.6332807e-07,4.4740446e-07,1310996,-0.012203909,-0.0113501055,0.01509326,0.4,0.0008502049,0.0009857408,0.00078123936,197388,0.012412617,-0.008561002,0.002714964,0.5,0.00057844433,0.0008664926,0.0011103213,1,1,1,0,1,0
21768480000,21768400000,1310996,0.00093215477,0.00024493568,-0.0003355018,0.34906584,2.1240712e-07,1.621473e-07,4.4695904e-07,1310996,-0.012181248,-0.011362991,0.01611603,0.4,0.0008501177,0.0009856465,0.00078123936,197388,0.012412617,-0.008561002,0.002714964,0.5,0.00057844433,0.0008664926,0.0011103213,1,1,1,0,1,0
21768840000,21768760000,1310996,0.00093413494,0.00023896368,-0.0003338084,0.34906584,2.1218682e-07,1.6124118e-07,4.466358e-07,1310996,-0.012207701,-0.011372713,0.017420612,0.4,0.00085004256,0.0009855621,0.00078123936,197388,0.012412617,-0.008561002,0.002714964,0.5,0.00057844433,0.0008664926,0.0011103213,1,1,1,0,1,0
21769616000,21769536000,1310996,0.0009289301,0.0002339645,-0.0003352568,0.34906584,2.1321581e-07,1.6150611e-07,4.465634e-07,1310996,-0.012232436,-0.011345453,0.018602492,0.4,0.0008499532,0.000985429,0.00078123936,197388,0.012412617,-0.008561002,0.002714964,0.5,0.00057844433,0.0008664926,0.0011103213,1,1,1,0,1,0
21770344000,21770264000,1310996,0.0009293594,0.0002232386,-0.00033157767,0.34906584,2.1411385e-07,1.6165978e-07,4.4644838e-07,1310996,-0.012285133,-0.011341632,0.019602984,0.4,0.000849877,0.0009853186,0.00078123936,197388,0.012412617,-0.008561002,0.002714964,0.5,0.00057844433,0.0008664926,0.0011103213,1,1,1,0,1,0
21771224000,21771144000,1310996,0.0009269696,0.0002040799,-0.00033209348,0.34906584,2.142613e-07,1.6071827e-07,4.4536966e-07,1310996,-0.012373282,-0.01133025,0.020787302,0.4,0.00084977486,0.0009851796,0.00078123936,197388,0.012412617,-0.008561002,0.002714964,0.5,0.00057844433,0.0008664926,0.0011103213,1,1,1,0,1,0
21772224000,21772144000,1310996,0.0009272574,0.00018089745,-0.000328364,0.34906584,2.1536411e-07,1.609756e-07,4.4472372e-07,1310996,-0.012475762,-0.01132598,0.021556918,0.4,0.0008497025,0.0009850634,0.00078124,197388,0.012412617,-0.008561002,0.002714964,0.5,0.00057844433,0.0008664926,0.0011103213,1,1,1,0,1,0
21773224000,21773144000,1310996,0.00091925025,0.00016237113,-0.00032689288,0.34906584,2.1640228e-07,1.6126083e-07,4.438797e-07,1310996,-0.012553259,-0.011285678,0.022044783,0.4,0.00084964774,0.0009849672,0.0007812411,197388,0.012412617,-0.008561002,0.002714964,0.5,0.00057844433,0.0008664926,0.0011103213,1,1,1,0,1,0
21774224000,21774144000,1310996,0.0009056328,0.0001502122,-0.00033410414,0.34906584,2.1738629e-07,1.6160757e-07,4.4288217e-07,1310996,-0.012601506,-0.011236399,0.02219006,0.4,0.00084960996,0.0009848898,0.00078124,197388,0.012412617,-0.008561002,0.002714964,0.5,0.00057844433,0.0008664926,0.0011103213,1,1,1,0,1,0
21775224000,21775144000,1310996,0.00090034195,0.00012427547,-0.0003380221,0.34906584,2.1820325e-07,1.6184283e-07,4.416561e-07,1310996,-0.012696043,-0.011222665,0.02154673,0.4,0.0008495813,0.000984825,0.0007812428,197388,0.012412617,-0.008561002,0.002714964,0.5,0.00057844433,0.0008664926,0.0011103213,1,1,1,0,1,0
21776016000,21775936000,1310996,0.00088655617,0.00010304521,-0.0003425975,0.34906584,2.174931e-07,1.6041086e-07,4.3962143e-07,1310996,-0.012767195,-0.011179258,0.020197244,0.4,0.00084955053,0.0009847694,0.00078123936,197388,0.012412617,-0.008561002,0.002714964,0.5,0.00057844433,0.0008664926,0.0011103213,1,1,1,0,1,0
21776640000,21776560000,1310996,0.00088094827,8.514796e-05,-0.0003523062,0.34906584,2.174226e-07,1.5978848e-07,4.3885106e-07,1310996,-0.012823289,-0.011173744,0.018987881,0.4,0.00084953825,0.0009847425,0.00078123936,197388,0.012412617,-0.008561002,0.002714964,0.5,0.00057844433,0.0008664926,0.0011103213,1,1,1,0,1,0
21777416000,21777336000,1310996,0.00087374717,7.151205e-05,-0.0003566887,0.34906584,2.1801796e-07,1.6018791e-07,4.376038e-07,1310996,-0.012863847,-0.011157243,0.017952822,0.4,0.0008495405,0.000984719,0.00078123936,197388,0.012412617,-0.008561002,0.002714964,0.5,0.00057844433,0.0008664926,0.0011103213,1,1,1,0,1,0
21777832000,21777752000,1310996,0.00087092567,5.9072496e-05,-0.00036010402,0.34906584,2.1783931e-07,1.5977166e-07,4.3665943e-07,1310996,-0.012898165,-0.011156316,0.016533244,0.4,0.00084953936,0.0009847058,0.00078123936,197388,0.012412617,-0.008561002,0.002714964,0.5,0.00057844433,0.0008664926,0.0011103213,1,1,1,0,1,0
21778832000,21778752000,1310996,0.0008597067,3.3535573e-05,-0.00037595292,0.34906584,2.182997e-07,1.5999238e-07,4.3485122e-07,1310996,-0.01296596,-0.011142576,0.015583088,0.4,0.00084955455,0.0009846925,0.0007812405,197388,0.012412617,-0.008561002,0.002714964,0.5,0.00057844433,0.0008664926,0.0011103213,1,1,1,0,1,0
21779448000,21779368000,1310996,0.00084739306,1.8616774e-05,-0.00038775522,0.34906584,2.1801063e-07,1.5947502e-07,4.3327745e-07,1310996,-0.013000376,-0.01112567,0.013914271,0.4,0.0008495651,0.0009846868,0.00078123936,197388,0.012412617,-0.008561002,0.002714964,0.5,0.00057844433,0.0008664926,0.0011103213,1,1,1,1,1,0
21780432000,21780352000,1310996,0.0008400356,-4.407554e-06,-0.000401599,0.34906584,2.1821887e-07,1.5960039e-07,4.3116003e-07,1310996,-0.013052606,-0.011124827,0.01254192,0.4,0.0008495933,0.0009846906,0.00078123936,197388,0.012412617,-0.008561002,0.002714964,0.5,0.00057844433,0.0008664926,0.0011103213,1,1,1,1,1,0
21781008000,21780928000,1310996,0.0008322748,-1.3744422e-05,-0.00041539685,0.34906584,2.1882617e-07,1.6032857e-07,4.3013992e-07,1310996,-0.013069759,-0.01112245,0.011436507,0.4,0.0008496164,0.0009846995,0.00078123936,197388,0.012412617,-0.008561002,0.002714964,0.5,0.00057844433,0.0008664926,0.0011103213,1,1,1,1,1,0
21781424000,21781344000,1310996,0.0008250977,-2.3886281e-05,-0.00042517323,0.34906584,2.1840442e-07,1.5977812e-07,4.2896795e-07,1310996,-0.01308838,-0.011117812,0.010362083,0.4,0.0008496295,0.0009847044,0.00078123936,197388,0.012412617,-0.008561002,0.002714964,0.5,0.00057844433,0.0008664926,0.0011103213,1,1,1,1,1,0
21782424000,21782344000,1310996,0.0008212817,-3.8243117e-05,-0.00044128235,0.34906584,2.1878441e-07,1.6030083e-07,4.267988e-07,1310996,-0.013115,-0.011125265,0.009762562,0.4,0.00084967475,0.0009847285,0.0007812405,197388,0.012412617,-0.008561002,0.002714964,0.5,0.00057844433,0.0008664926,0.0011103213,1,1,1,1,1,0
21783424000,21783344000,1310996,0.00081251643,-5.4565888e-05,-0.00046795173,0.34906584,2.19246e-07,1.6083581e-07,4.2512764e-07,1310996,-0.013139984,-0.011133216,0.009220277,0.4,0.0008497257,0.0009847628,0.0007812411,197388,0.012412617,-0.008561002,0.002714964,0.5,0.00057844433,0.0008664926,0.0011103213,1,1,1,1,1,0
21784424000,21784344000,1310996,0.00081278814,-5.8307505e-05,-0.00048854185,0.34906584,2.192285e-07,1.6105164e-07,4.2271336e-07,1310996,-0.0131458435,-0.011151804,0.009519937,0.4,0.0008497812,0.0009848019,0.00078123994,197388,0.012412617,-0.008561002,0.002714964,0.5,0.00057844433,0.0008664926,0.0011103213,1,1,1,1,1,0
21785424000,21785344000,1310996,0.00080527976,-5.795168e-05,-0.00050865207,0.34906584,2.1788155e-07,1.5962868e-07,4.198302e-07,1310996,-0.013144971,-0.011158702,0.010859739,0.4,0.00084983883,0.0009848464,0.00078123936,197388,0.012412617,-0.008561002,0.002714964,0.5,0.00057844433,0.0008664926,0.0011103213,1,1,1,1,1,0
21785840000,21785760000,1310996,0.00080628495,-5.4241602e-05,-0.0005106883,0.34906584,2.1750108e-07,1.5933824e-07,4.185816e-07,1310996,-0.013141586,-0.011161211,0.012122578,0.4,0.0008498641,0.0009848662,0.00078123936,197388,0.012412617,-0.008561002,0.002714964,0.5,0.00057844433,0.0008664926,0.0011103213,1,1,1,1,1,0
21786416000,21786336000,1310996,0.00080921483,-5.6158864e-05,-0.0005199131,0.34906584,2.177585e-07,1.5990341e-07,4.172451e-07,1310996,-0.013142543,-0.01117094,0.013604501,0.4,0.00084990053,0.0009848954,0.00078123936,197388,0.012412617,-0.008561002,0.002714964,0.5,0.00057844433,0.0008664926,0.0011103213,1,1,1,1,1,0
21786832000,21786752000,1310996,0.0008086227,-5.4689684e-05,-0.000525682,0.34906584,2.1725712e-07,1.5948591e-07,4.159413e-07,1310996,-0.013139677,-0.011174449,0.014792042,0.4,0.0008499259,0.0009849165,0.00078123936,197388,0.012412617,-0.008561002,0.002714964,0.5,0.00057844433,0.0008664926,0.0011103213,1,1,1,1,1,0
21787248000,21787168000,1310996,0.00081105233,-4.9683742e-05,-0.00053429353,0.34906584,2.168822e-07,1.5924287e-07,4.1466822e-07,1310996,-0.013132757,-0.011183842,0.016139533,0.4,0.0008499516,0.0009849379,0.00078123936,197388,0.012412617,-0.008561002,0.002714964,0.5,0.00057844433,0.0008664926,0.0011103213,1,1,1,1,1,0
21787816000,21787736000,1310996,0.00081998965,-5.3722906e-05,-0.0005385222,0.34906584,2.170867e-07,1.5980149e-07,4.1323676e-07,1310996,-0.013136604,-0.011196621,0.01808146,0.4,0.00084998755,0.0009849684,0.00078123936,197388,0.012412617,-0.008561002,0.002714964,0.5,0.00057844433,0.0008664926,0.0011103213,1,1,1,1,1,0
21788232000,21788152000,1310996,0.0008227375,-4.9878923e-05,-0.0005454543,0.34906584,2.1657905e-07,1.5941532e-07,4.1191475e-07,1310996,-0.013130695,-0.01120547,0.019520175,0.4,0.0008500128,0.0009849906,0.00078123936,197388,0.012412617,-0.008561002,0.002714964,0.5,0.00057844433,0.0008664926,0.0011103213,1,1,1,1,1,0
21788808000,21788728000,1310996,0.0008279282,-4.749112e-05,-0.00055364467,0.34906584,2.1691922e-07,1.6015778e-07,4.1054605e-07,1310996,-0.013126588,-0.011217276,0.020702014,0.4,0.00085004896,0.0009850228,0.00078123936,197388,0.012412617,-0.008561002,0.002714964,0.5,0.00057844433,0.0008664926,0.0011103213,1,1,1,1,1,0
21789224000,21789144000,1310996,0.00083055644,-4.475458e-05,-0.00055875175,0.34906584,2.1626818e-07,1.5960588e-07,4.091764e-07,1310996,-0.01312131,-0.011225531,0.022119591,0.4,0.0008500733,0.0009850448,0.00078123936,197388,0.012412617,-0.008561002,0.002714964,0.5,0.00057844433,0.0008664926,0.0011103213,1,1,1,1,1,0
21789640000,21789560000,1310996,0.0008347471,-4.4883043e-05,-0.00056131656,0.34906584,2.1579064e-07,1.5928195e-07,4.078588e-07,1310996,-0.013119572,-0.011234326,0.023642823,0.4,0.00085009774,0.0009850673,0.00078123936,197388,0.012412617,-0.008561002,0.002714964,0.5,0.00057844433,0.0008664926,0.0011103213,1,1,1,1,1,0
21790208000,21790128000,1310996,0.0008401131,-4.6123085e-05,-0.00056535384,0.34906584,2.1609836e-07,1.6001806e-07,4.064272e-07,1310996,-0.013119835,-0.011244245,0.02473876,0.4,0.000850133,0.0009850998,0.00078123936,197388,0.012412617,-0.008561002,0.002714964,0.5,0.00057844433,0.0008664926,0.0011103213,1,1,1,1,1,0
21790624000,21790544000,1310996,0.00084579445,-4.436542e-05,-0.00056891405,0.34906584,2.154779e-07,1.5951731e-07,4.0506035e-07,1310996,-0.013116579,-0.011254482,0.02582591,0.4,0.0008501576,0.0009851229,0.00078123936,197388,0.012412617,-0.008561002,0.002714964,0.5,0.00057844433,0.0008664926,0.0011103213,1,1,1,1,1,0
21791040000,21790960000,1310996,0.00085099123,-4.5524375e-05,-0.0005730814,0.34906584,2.1502053e-07,1.5922274e-07,4.037346e-07,1310996,-0.013116157,-0.011263879,0.02715936,0.4,0.0008501822,0.0009851462,0.00078123936,197388,0.012412617,-0.008561002,0.002714964,0.5,0.00057844433,0.0008664926,0.0011103213,1,1,1,1,1,0
21791608000,21791528000,1310996,0.00084934814,-4.347854e-05,-0.0005797169,0.34906584,2.1514144e-07,1.5973498e-07,4.022478e-07,1310996,-0.013110239,-0.011266151,0.028771395,0.4,0.000850217,0.0009851794,0.00078123936,197388,0.012412617,-0.008561002,0.002714964,0.5,0.00057844433,0.0008664926,0.0011103213,1,1,1,1,1,0
21792240000,21792160000,1310996,0.0008439402,-4.1538842e-05,-0.0005906362,0.34906584,2.1440552e-07,1.5924597e-07,4.0031446e-07,1310996,-0.013104177,-0.011263299,0.03007433,0.4,0.00085025415,0.0009852155,0.00078123936,197388,0.012412617,-0.008561002,0.002714964,0.5,0.00057844433,0.0008664926,0.0011103213,1,1,1,1,1,0
21792808000,21792728000,1310996,0.00083557976,-4.197625e-05,-0.0005967392,0.34906584,2.147117e-07,1.5999036e-07,3.9886177e-07,1310996,-0.013101709,-0.01125551,0.031371027,0.4,0.0008502897,0.0009852503,0.00078123936,197388,0.012412617,-0.008561002,0.002714964,0.5,0.00057844433,0.0008664926,0.0011103213,1,1,1,1,1,0
21793224000,21793144000,1310996,0.0008307332,-4.4317403e-05,-0.0006027219,0.34906584,2.1422964e-07,1.5948278e-07,3.981338e-07,1310996,-0.013101886,-0.0112514,0.032590155,0.4,0.00085031445,0.0009852754,0.00078123936,197388,0.012412617,-0.008561002,0.002714964,0.5,0.00057844433,0.0008664926,0.0011103213,1,1,1,1,1,0
21793640000,21793560000,1310996,0.0008284618,-4.673233e-05,-0.0006101929,0.34906584,2.1377467e-07,1.5918872e-07,3.9678952e-07,1310996,-0.013102247,-0.011250321,0.034038972,0.4,0.00085034006,0.0009853004,0.00078123936,197388,0.012412617,-0.008561002,0.002714964,0.5,0.00057844433,0.0008664926,0.0011103213,1,1,1,1,1,0
21794216000,21794136000,1310996,0.0008254851,-4.645334e-05,-0.0006180644,0.34906584,2.1381311e-07,1.597536e-07,3.9467884e-07,1310996,-0.013100122,-0.011249149,0.03542516,0.4,0.000850377,0.000985337,0.00078123936,197388,0.012412617,-0.008561002,0.002714964,0.5,0.00057844433,0.0008664926,0.0011103213,1,1,1,1,1,0
21794632000,21794552000,1310996,0.0008219519,-5.092341e-05,-0.00062180107,0.34906584,2.1343175e-07,1.593386e-07,3.9394897e-07,1310996,-0.0131037785,-0.011245805,0.03652362,0.4,0.000850403,0.0009853633,0.00078123936,197388,0.012412617,-0.008561002,0.002714964,0.5,0.00057844433,0.0008664926,0.0011103213,1,1,1,1,1,0
21795048000,21794968000,1310996,0.00081845565,-5.3813925e-05,-0.00062902697,0.34906584,2.1303649e-07,1.5909971e-07,3.9260638e-07,1310996,-0.013105937,-0.01124249,0.037737925,0.4,0.0008504292,0.0009853895,0.00078123936,197388,0.012412617,-0.008561002,0.002714964,0.5,0.00057844433,0.0008664926,0.0011103213,1,1,1,1,1,0
21795616000,21795536000,1310996,0.00080726045,-5.9883056e-05,-0.00063653995,0.34906584,2.132166e-07,1.5966206e-07,3.9109753e-07,1310996,-0.013111512,-0.011229687,0.039180204,0.4,0.00085046556,0.0009854258,0.00078123936,197388,0.012412617,-0.008561002,0.002714964,0.5,0.00057844433,0.0008664926,0.0011103213,1,1,1,1,1,0
21796336000,21796256000,1310996,0.0007898728,-7.4024814e-05,-0.0006472451,0.34906584,2.1311044e-07,1.5991444e-07,3.8917668e-07,1310996,-0.0131260585,-0.011209044,0.040201955,0.4,0.0008505107,0.0009854715,0.00078123936,197388,0.012412617,-0.008561002,0.002714964,0.5,0.00057844433,0.0008664926,0.0011103213,1,1,1,1,1,0
21797336000,21797256000,1310996,0.0007625198,-8.2871054e-05,-0.00067332905,0.34906584,2.1280361e-07,1.6012156e-07,3.8646525e-07,1310996,-0.013134362,-0.011176828,0.041136485,0.4,0.0008505736,0.0009855346,0.00078124,197388,0.012412617,-0.008561002,0.002714964,0.5,0.00057844433,0.0008664926,0.0011103213,1,1,1,1,1,0
21798336000,21798256000,1310996,0.0007324158,-8.680774e-05,-0.0006915492,0.34906584,2.1252e-07,1.6057497e-07,3.8322133e-07,1310996,-0.013137742,-0.011145705,0.041960787,0.4,0.00085063797,0.0009855991,0.00078123936,197388,0.012412617,-0.008561002,0.002714964,0.5,0.00057844433,0.0008664926,0.0011103213,1,1,1,1,1,0
21799152000,21799072000,1310996,0.0007124271,-9.568465e-05,-0.0007034664,0.34906584,2.1301723e-07,1.616044e-07,3.815399e-07,1310996,-0.013145847,-0.011125717,0.042975657,0.4,0.0008506921,0.0009856543,0.00078123936,197388,0.012412617,-0.008561002,0.002714964,0.5,0.00057844433,0.0008664926,0.0011103213,1,1,1,1,1,0
21800152000,21800072000,1310996,0.0006739062,-0.0001176858,-0.0007278256,0.34906584,2.1135213e-07,1.6003831e-07,3.7854315e-07,1310996,-0.013165032,-0.011094456,0.043358248,0.4,0.00085075706,0.0009857212,0.0007812428,197388,0.012412617,-0.008561002,0.002714964,0.5,0.00057844433,0.0008664926,0.0011103213,1,1,1,1,1,0
21801152000,21801072000,1310996,0.00065339427,-0.00013430833,-0.00074333197,0.34906584,2.1124363e-07,1.6041702e-07,3.7599077e-07,1310996,-0.0131789725,-0.011078406,0.04410912,0.4,0.00085082493,0.0009857902,0.00078124227,197388,0.012412617,-0.008561002,0.002714964,0.5,0.00057844433,0.0008664926,0.0011103213,1,1,1,1,1,0
21802152000,21802072000,1310996,0.00063068565,-0.00016280432,-0.00076141086,0.34906584,2.11155e-07,1.6077547e-07,3.734558e-07,1310996,-0.013198685,-0.011065553,0.043980088,0.4,0.000850893,0.0009858594,0.0007812428,197388,0.012412617,-0.008561002,0.002714964,0.5,0.00057844433,0.0008664926,0.0011103213,1,1,1,1,1,0
21803152000,21803072000,1310996,0.0006140749,-0.00019480042,-0.00077782373,0.34906584,2.1120425e-07,1.6147824e-07,3.7043426e-07,1310996,-0.013221243,-0.011054662,0.044453476,0.4,0.0008509614,0.0009859292,0.00078124274,197388,0.012412617,-0.008561002,0.002714964,0.5,0.00057844433,0.0008664926,0.0011103213,1,1,1,1,1,0
21804152000,21804072000,1310996,0.00059464836,-0.00023923618,-0.0007981864,0.34906584,2.0969338e-07,1.5999272e-07,3.6763134e-07,1310996,-0.013246551,-0.011045814,0.044112757,0.4,0.00085102906,0.0009859989,0.00078124215,197388,0.012412617,-0.008561002,0.002714964,0.5,0.00057844433,0.0008664926,0.0011103213,1,1,1,1,1,0
21805152000,21805072000,1310996,0.00058147166,-0.0002694917,-0.000818765,0.34906584,2.0950907e-07,1.6021858e-07,3.6530201e-07,1310996,-0.013258372,-0.011040981,0.043238748,0.4,0.0008510982,0.0009860694,0.0007812416,197388,0.012412617,-0.008561002,0.002714964,0.5,0.00057844433,0.0008664926,0.0011103213,1,1,1,1,1,0
21806152000,21806072000,1310996,0.00056645204,-0.0002966338,-0.0008373899,0.34906584,2.0945758e-07,1.6067732e-07,3.6316064e-07,1310996,-0.013271644,-0.01103355,0.043376815,0.4,0.00085116783,0.0009861407,0.0007812405,197388,0.012412617,-0.008561002,0.002714964,0.5,0.00057844433,0.0008664926,0.0011103213,1,1,1,1,1,0
21806640000,21806560000,1310996,0.0005653258,-0.00031889518,-0.00085617875,0.34906584,2.0840618e-07,1.5931835e-07,3.6135384e-07,1310996,-0.0131330835,-0.011027453,0.04517691,0.4,0.0008510401,0.0009859947,0.00078123936,197388,0.012412617,-0.008561002,0.002714964,0.5,0.00057844433,0.0008664926,0.0011103213,1,1,1,1,1,0
21806880000,21806800000,1310996,0.0005678311,-0.00031885618,-0.0008615088,0.34906584,2.0961473e-07,1.6119758e-07,3.6089966e-07,1310996,-0.0131330835,-0.011027453,0.04517691,0.4,0.00085104303,0.0009859976,0.00078124227,197388,0.011914196,-0.009259407,0.00080184115,0.5,0.00048611575,0.00067687116,0.0008527488,1,1,1,0,1,0
21806944000,21806864000,1310996,0.00056714687,-0.00031972845,-0.0008593429,0.34906584,2.0996886e-07,1.616883e-07,3.6104802e-07,1310996,-0.01313309,-0.011027456,0.045176897,0.4,0.00085104763,0.0009860022,0.00078124687,197388,0.010620216,-0.009765222,0.002072628,0.5,0.0004342786,0.0005837416,0.0007625972,1,1,1,0,1,0
21807016000,21806936000,1310996,0.0005715387,-0.00035693898,-0.00086609385,0.34906584,2.1028613e-07,1.6078262e-07,3.5663945e-07,1310996,-0.0131330965,-0.011027461,0.045176886,0.4,0.00085104816,0.0009860029,0.0007812474,197388,0.011328339,-0.009904995,0.0012285454,0.5,0.00039440318,0.0005310753,0.0007103046,1,1,1,0,1,0
21807160000,21807080000,1310996,0.0005726318,-0.00035614922,-0.00086856977,0.34906584,2.1127985e-07,1.6190876e-07,3.5741985e-07,1310996,-0.0131330965,-0.011027461,0.045176886,0.4,0.00085104816,0.0009860029,0.0007812474,197388,0.012669721,-0.008929441,0.0012422494,0.5,0.00033244572,0.00046464152,0.00062345254,1,1,1,0,1,0
21807512000,21807432000,1310996,0.00057264674,-0.00040086667,-0.0008786976,0.34906584,2.1365041e-07,1.6180452e-07,3.4362407e-07,1310996,-0.012927774,-0.011008312,0.045086205,0.4,0.0008509146,0.0009858286,0.0007812457,197388,0.0133769335,-0.008160488,0.0012651794,0.5,0.00026159547,0.00039312578,0.0005441726,1,1,1,0,1,0
21808040000,21807960000,1310996,0.00056595524,-0.0004150015,-0.0008168995,0.34906584,2.1722818e-07,1.6151063e-07,3.2328737e-07,1310996,-0.012709696,-0.009977953,0.044812948,0.4,0.00084522093,0.0009791647,0.00078123936,197388,0.014192186,-0.008626964,0.0013715372,0.5,0.00022191103,0.0003579098,0.0005195768,1,1,1,0,1,0
21808616000,21808536000,1310996,0.0005679709,-0.00041862697,-0.0007949158,0.34906584,2.2160684e-07,1.6274663e-07,3.1844476e-07,1310996,-0.012497613,-0.00898539,0.044851348,0.4,0.00083190267,0.00096376473,0.00078123936,197388,0.014963525,-0.009041999,0.0017168884,0.5,0.0001985814,0.0003374302,0.00049835263,1,1,1,0,1,0
21809032000,21808952000,1310996,0.0005700749,-0.00042237458,-0.00077660586,0.34906584,2.2475238e-07,1.6311928e-07,3.150352e-07,1310996,-0.0122140795,-0.007930463,0.04475313,0.4,0.0008154281,0.0009451425,0.00078123936,197388,0.015185436,-0.009367212,0.000976098,0.5,0.00018946802,0.00032744597,0.00048050086,1,1,1,0,1,0
21809568000,21809488000,1310996,0.0005730311,-0.00042154017,-0.0007685627,0.34906584,2.2881696e-07,1.6603336e-07,3.166433e-07,1310996,-0.012185355,-0.0072384886,0.04514427,0.4,0.0008066765,0.0009352012,0.00078124285,197388,0.015166632,-0.00988123,0.000117352014,0.5,0.00018157759,0.00031823677,0.0004536689,1,1,1,0,1,0
21809816000,21809736000,1310996,0.0005760956,-0.00040724492,-0.0007595186,0.34906584,2.3032176e-07,1.6525452e-07,3.1569323e-07,1310996,-0.013433239,-0.0063882302,0.04579657,0.4,0.0007860912,0.0009103627,0.00078123936,197388,0.01508503,-0.00989047,-8.689293e-05,0.5,0.00017928176,0.00031498735,0.0004480722,1,1,1,0,1,0
21810224000,21810144000,1310996,0.0005785671,-0.00039092216,-0.0007581631,0.34906584,2.3234985e-07,1.6615489e-07,3.1798413e-07,1310996,-0.014765464,-0.0060393675,0.046978857,0.4,0.00078123936,0.0008867221,0.00078123936,197388,0.015063563,-0.00996658,-0.00024560158,0.5,0.00017616901,0.00031124314,0.0004430457,1,1,1,0,1,0
21810648000,21810568000,1310996,0.0005799059,-0.00037262583,-0.0007583047,0.34906584,2.3324164e-07,1.6744505e-07,3.209006e-07,1310996,-0.016186018,-0.005857909,0.048372973,0.4,0.00078123936,0.0008639852,0.00078123936,197388,0.015021399,-0.010077755,-0.0003614746,0.5,0.00017330336,0.00030773846,0.00044088392,1,1,1,0,1,0
21811008000,21810928000,1310996,0.00057269563,-0.00036280684,-0.0007543636,0.34906584,2.3344458e-07,1.6914342e-07,3.227783e-07,1310996,-0.016919067,-0.0063670445,0.04929381,0.4,0.00078123936,0.00085134135,0.00078123936,197388,0.014934261,-0.010069272,-0.00025541298,0.5,0.0001707989,0.00030498012,0.0004369558,1,1,1,0,1,0
21811216000,21811136000,1310996,0.00056604005,-0.00035571307,-0.00075046293,0.34906584,2.3223909e-07,1.6971929e-07,3.231613e-07,1310996,-0.017304434,-0.006836358,0.05070003,0.4,0.00078123936,0.0008399715,0.00078123936,197388,0.014882902,-0.010194545,-0.00015530903,0.5,0.00016925091,0.00030345924,0.0004349447,1,1,1,0,1,0
21811424000,21811344000,1310996,0.00055947725,-0.00034794174,-0.00074638386,0.34906584,2.3080989e-07,1.7034861e-07,3.231691e-07,1310996,-0.017643934,-0.007200627,0.052168142,0.4,0.00078123936,0.00082985463,0.00078123936,197388,0.014973121,-0.010294721,-1.5883246e-05,0.5,0.00016754336,0.00030187276,0.00043242227,1,1,1,0,1,0
21811632000,21811552000,1310996,0.00055015535,-0.00034250834,-0.0007394501,0.34906584,2.2921012e-07,1.710156e-07,3.2283478e-07,1310996,-0.01783388,-0.0076377457,0.053598076,0.4,0.00078123936,0.00082093984,0.00078123936,197388,0.014945303,-0.010332683,5.1829993e-05,0.5,0.00016591209,0.00030045127,0.00042975054,1,1,1,0,1,0
21811840000,21811760000,1310996,0.0005413181,-0.0003375657,-0.00073235115,0.34906584,2.274896e-07,1.7170811e-07,3.2220507e-07,1310996,-0.01807364,-0.008069266,0.05474735,0.4,0.00078123936,0.0008131452,0.00078123936,197388,0.014747571,-0.010427957,4.5777742e-05,0.5,0.00016424381,0.00029900682,0.00042629873,1,1,1,0,1,0
21812208000,21812128000,1310996,0.0005348298,-0.00032796428,-0.0007277465,0.34906584,2.2603744e-07,1.7347323e-07,3.2181592e-07,1310996,-0.018399576,-0.008339342,0.05659745,0.4,0.00078123936,0.0008056106,0.00078123936,197388,0.014691975,-0.010627845,0.0003519437,0.5,0.00016115236,0.00029632237,0.0004179634,1,1,1,0,1,0
21812416000,21812336000,1310996,0.00052329834,-0.00032061723,-0.0007181524,0.34906584,2.2357865e-07,1.7403212e-07,3.2022587e-07,1310996,-0.018673614,-0.008810317,0.057929467,0.4,0.00078123936,0.0007994495,0.00078123936,197388,0.01465037,-0.010846843,0.0004348847,0.5,0.00015911348,0.0002943998,0.00041208512,1,1,1,0,1,0
21812624000,21812544000,1310996,0.0005092169,-0.00031759377,-0.00070590526,0.34906584,2.2124973e-07,1.7463455e-07,3.1838061e-07,1310996,-0.018617112,-0.009266044,0.05978134,0.4,0.00078123936,0.00079441746,0.00078123936,197388,0.014597108,-0.010826532,0.0003707616,0.5,0.00015790047,0.0002933336,0.00040800238,1,1,1,0,1,0
21812832000,21812752000,1310996,0.00050074793,-0.00031579318,-0.0006996904,0.34906584,2.1904786e-07,1.7528389e-07,3.1611518e-07,1310996,-0.01854284,-0.009547123,0.061173204,0.4,0.00078123936,0.00079033023,0.00078123936,197388,0.014597108,-0.010826532,0.0003707616,0.5,0.00015790047,0.0002933336,0.00040800238,1,1,1,0,1,0
21813040000,21812960000,1310996,0.00049097807,-0.000313423,-0.0006921229,0.34906584,2.1704926e-07,1.7593655e-07,3.1404386e-07,1310996,-0.018465288,-0.009829011,0.06293659,0.4,0.00078123936,0.00078701926,0.00078123936,197388,0.014597108,-0.010826532,0.0003707616,0.5,0.00015790047,0.0002933336,0.00040800238,1,1,1,0,1,0
21813248000,21813168000,1310996,0.00048453434,-0.00031331228,-0.00068672706,0.34906584,2.1524536e-07,1.7658338e-07,3.1220216e-07,1310996,-0.01832647,-0.009987281,0.06432421,0.4,0.00078123936,0.00078434625,0.00078123936,197388,0.014597108,-0.010826532,0.0003707616,0.5,0.00015790047,0.0002933336,0.00040800238,1,1,1,0,1,0
21813608000,21813528000,1310996,0.00047318323,-0.00031158814,-0.00067749736,0.34906584,2.1417944e-07,1.7822518e-07,3.1093242e-07,1310996,-0.01825151,-0.010236639,0.06609845,0.4,0.00078123936,0.0007820726,0.00078123936,197388,0.014597108,-0.010826532,0.0003707616,0.5,0.00015790047,0.0002933336,0.00040800238,1,1,1,0,1,0
21813816000,21813736000,1310996,0.00047034168,-0.00030940492,-0.00067576655,0.34906584,2.1233636e-07,1.7866938e-07,3.0939944e-07,1310996,-0.018250506,-0.010284773,0.067380175,0.4,0.00078123936,0.00078123936,0.00078123936,197388,0.014597108,-0.010826532,0.0003707616,0.5,0.00015790047,0.0002933336,0.00040800238,1,1,1,0,1,0
21814024000,21813944000,1310996,0.00046379858,-0.00030804306,-0.00067239336,0.34906584,2.1074526e-07,1.791193e-07,3.0818796e-07,1310996,-0.018236876,-0.010421715,0.06844589,0.4,0.00078123936,0.00078123936,0.00078123936,197388,0.014597108,-0.010826532,0.0003707616,0.5,0.00015790047,0.0002933336,0.00040800238,1,1,1,0,1,0
21814232000,21814152000,1310996,0.00046636094,-0.0003086812,-0.0006774793,0.34906584,2.0935086e-07,1.7956344e-07,3.0725064e-07,1310996,-0.018150924,-0.010387441,0.069849074,0.4,0.00078123936,0.00078123936,0.00078123936,197388,0.014597108,-0.010826532,0.0003707616,0.5,0.00015790047,0.0002933336,0.00040800238,1,1,1,0,1,0
21814440000,21814360000,1310996,0.00046535302,-0.0003115031,-0.00067714247,0.34906584,2.0814241e-07,1.7999247e-07,3.0680053e-07,1310996,-0.018020282,-0.010397557,0.07091979,0.4,0.00078123936,0.00078123936,0.00078123936,197388,0.014597108,-0.010826532,0.0003707616,0.5,0.00015790047,0.0002933336,0.00040800238,1,1,1,0,1,0
21815016000,21814936000,1310996,0.00047091005,-0.00031554187,-0.0006847664,0.34906584,2.0632801e-07,1.8158569e-07,3.0624219e-07,1310996,-0.01787159,-0.010342686,0.07314471,0.4,0.00078123936,0.00078123936,0.00078123936,197388,0.014597108,-0.010826532,0.0003707616,0.5,0.00015790047,0.0002933336,0.00040800238,1,1,1,0,1,0
21815224000,21815144000,1310996,0.00047441048,-0.00032063914,-0.00068747904,0.34906584,2.0512347e-07,1.8175818e-07,3.062624e-07,1310996,-0.017747905,-0.0103097735,0.074226506,0.4,0.00078123936,0.00078123936,0.00078123936,197388,0.014597108,-0.010826532,0.0003707616,0.5,0.00015790047,0.0002933336,0.00040800238,1,1,1,0,1,0
21815432000,21815352000,1310996,0.00047195365,-0.000321185,-0.00068659155,0.34906584,2.040141e-07,1.8192561e-07,3.0619196e-07,1310996,-0.017728478,-0.010325738,0.07534357,0.4,0.00078123936,0.00078123936,0.00078123936,197388,0.014597108,-0.010826532,0.0003707616,0.5,0.00015790047,0.0002933336,0.00040800238,1,1,1,0,1,0
21815640000,21815560000,1310996,0.00047207723,-0.00032342534,-0.000688829,0.34906584,2.0299605e-07,1.8207982e-07,3.0625185e-07,1310996,-0.017686155,-0.010323644,0.07684794,0.4,0.00078123936,0.00078123936,0.00078123936,197388,0.014597108,-0.010826532,0.0003707616,0.5,0.00015790047,0.0002933336,0.00040800238,1,1,1,0,1,0
21816208000,21816128000,1310996,0.00047926226,-0.00032995341,-0.00069739413,0.34906584,2.0188693e-07,1.8324245e-07,3.0733625e-07,1310996,-0.017627852,-0.010310429,0.07894172,0.4,0.00078123936,0.00078123936,0.00078123936,197388,0.014597108,-0.010826532,0.0003707616,0.5,0.00015790047,0.0002933336,0.00040800238,1,1,1,0,1,0
21816416000,21816336000,1310996,0.0004793087,-0.00033391712,-0.0006979822,0.34906584,2.0067716e-07,1.8308059e-07,3.0762374e-07,1310996,-0.017604321,-0.010307596,0.08009777,0.4,0.00078123936,0.00078123936,0.00078123936,197388,0.014597108,-0.010826532,0.0003707616,0.5,0.00015790047,0.0002933336,0.00040800238,1,1,1,0,1,0
21816832000,21816752000,1310996,0.00048592046,-0.00033716275,-0.00070633716,0.34906584,1.985298e-07,1.8278656e-07,3.0842054e-07,1310996,-0.017609036,-0.010321497,0.08139567,0.4,0.00078123936,0.00078123936,0.00078123936,197388,0.014597108,-0.010826532,0.0003707616,0.5,0.00015790047,0.0002933336,0.00040800238,1,1,1,0,1,0
21817040000,21816960000,1310996,0.0004886552,-0.00033745443,-0.0007073512,0.34906584,1.9754407e-07,1.8263202e-07,3.0890516e-07,1310996,-0.017631304,-0.0103286365,0.08245024,0.4,0.00078123936,0.00078123936,0.00078123936,197388,0.014597108,-0.010826532,0.0003707616,0.5,0.00015790047,0.0002933336,0.00040800238,1,1,1,0,1,0
21818040000,21817960000,1310996,0.00050176383,-0.00032653668,-0.00071949884,0.34906584,1.9389748e-07,1.8216029e-07,3.1193775e-07,1310996,-0.017642502,-0.010409975,0.0834359,0.4,0.00078123936,0.00078123965,0.00078123936,197388,0.014597108,-0.010826532,0.0003707616,0.5,0.00015790047,0.0002933336,0.00040800238,1,1,1,0,1,0
21818448000,21818368000,1310996,0.00050590746,-0.0003181943,-0.0007232619,0.34906584,1.9179929e-07,1.8131455e-07,3.13406e-07,1310996,-0.01765313,-0.010447667,0.084860526,0.4,0.00078123936,0.00078123936,0.00078123936,197388,0.014597108,-0.010826532,0.0003707616,0.5,0.00015790047,0.0002933336,0.00040800238,1,1,1,0,1,0
21819224000,21819144000,1310996,0.0005020493,-0.00030576126,-0.0007267955,0.34906584,1.8918757e-07,1.8050562e-07,3.1605768e-07,1310996,-0.01761433,-0.010401401,0.08616328,0.4,0.00078123936,0.00078123936,0.00078123936,197388,0.014597108,-0.010826532,0.0003707616,0.5,0.00015790047,0.0002933336,0.00040800238,1,1,1,0,1,0
21819680000,21819600000,1310996,0.00049364584,-0.00029182635,-0.00072706194,0.34906584,1.8742702e-07,1.7971674e-07,3.1748337e-07,1310996,-0.017523086,-0.010298424,0.08715837,0.4,0.00078124204,0.0007812422,0.00078123936,197388,0.014597108,-0.010826532,0.0003707616,0.5,0.00015790047,0.0002933336,0.00040800238,1,1,1,0,1,0
21820216000,21820136000,1310996,0.0004877362,-0.0002829141,-0.00072827074,0.34906584,1.8575034e-07,1.7898425e-07,3.19546e-07,1310996,-0.0174851,-0.010216311,0.088551104,0.4,0.00078123936,0.00078123936,0.00078123936,197388,0.014597108,-0.010826532,0.0003707616,0.5,0.00015790047,0.0002933336,0.00040800238,1,1,1,0,1,0
21820840000,21820760000,1310996,0.0004764145,-0.0002710118,-0.0007296183,0.34906584,1.8263444e-07,1.7698727e-07,3.2166187e-07,1310996,-0.0173984,-0.010058506,0.089641556,0.4,0.00078123936,0.00078123936,0.00078123936,197388,0.014597108,-0.010826532,0.0003707616,0.5,0.00015790047,0.0002933336,0.00040800238,1,1,1,0,1,0
21821616000,21821536000,1310996,0.0004662381,-0.000255679,-0.0007314583,0.34906584,1.8060797e-07,1.7590317e-07,3.2438922e-07,1310996,-0.017261932,-0.009912872,0.09098368,0.4,0.00078123936,0.00078123936,0.00078123936,197388,0.014597108,-0.010826532,0.0003707616,0.5,0.00015790047,0.0002933336,0.00040800238,1,1,1,0,1,0
21822240000,21822160000,1310996,0.00045432415,-0.00024184011,-0.0007364958,0.34906584,1.77908e-07,1.7393293e-07,3.2646676e-07,1310996,-0.017125214,-0.009739253,0.09211315,0.4,0.00078123936,0.00078123936,0.00078123936,197388,0.014597108,-0.010826532,0.0003707616,0.5,0.00015790047,0.0002933336,0.00040800238,1,1,1,0,1,0
21823240000,21823160000,1310996,0.0004370616,-0.00022427688,-0.00074310193,0.34906584,1.753585e-07,1.7217941e-07,3.2983814e-07,1310996,-0.016920216,-0.009495562,0.09297474,0.4,0.00078123994,0.00078123994,0.00078123994,197388,0.014597108,-0.010826532,0.0003707616,0.5,0.00015790047,0.0002933336,0.00040800238,1,1,1,0,1,0
21824240000,21824160000,1310996,0.00042250362,-0.0002124304,-0.0007511369,0.34906584,1.7347811e-07,1.7087227e-07,3.3303783e-07,1310996,-0.016765459,-0.009295488,0.09313208,0.4,0.0007812411,0.0007812411,0.0007812411,197388,0.014597108,-0.010826532,0.0003707616,0.5,0.00015790047,0.0002933336,0.00040800238,1,1,1,0,1,0
21825240000,21825160000,1310996,0.0004197923,-0.00020421974,-0.0007582307,0.34906584,1.7187847e-07,1.6969989e-07,3.3569108e-07,1310996,-0.01664577,-0.009255663,0.092942774,0.4,0.00078124163,0.00078124163,0.00078124163,197388,0.014597108,-0.010826532,0.0003707616,0.5,0.00015790047,0.0002933336,0.00040800238,1,1,1,0,1,0
21826240000,21826160000,1310996,0.00042459005,-0.00019296771,-0.0007696245,0.34906584,1.7066743e-07,1.6879873e-07,3.38501e-07,1310996,-0.016483866,-0.009299781,0.09222349,0.4,0.0007812523,0.00078125356,0.0007812422,197388,0.014597108,-0.010826532,0.0003707616,0.5,0.00015790047,0.0002933336,0.00040800238,1,1,1,0,1,0
21826816000,21826736000,1310996,0.0004342846,-0.00018333877,-0.00077630696,0.34906584,1.6842229e-07,1.6673509e-07,3.4005438e-07,1310996,-0.016342893,-0.009398375,0.09099685,0.4,0.00078123936,0.00078123936,0.00078123936,197388,0.014597108,-0.010826532,0.0003707616,0.5,0.00015790047,0.0002933336,0.00040800238,1,1,1,0,1,0
21827232000,21827152000,1310996,0.00044031293,-0.00017508747,-0.0007798222,0.34906584,1.6739159e-07,1.658064e-07,3.410487e-07,1310996,-0.016227264,-0.00945708,0.08990627,0.4,0.00078123936,0.00078123936,0.00078123936,197388,0.014597108,-0.010826532,0.0003707616,0.5,0.00015790047,0.0002933336,0.00040800238,1,1,1,0,1,0
21828232000,21828152000,1310996,0.00045275255,-0.0001547887,-0.00078747206,0.34906584,1.6646298e-07,1.6506658e-07,3.4346678e-07,1310996,-0.015995264,-0.009575061,0.08946006,0.4,0.00078123994,0.00078123994,0.00078123994,197388,0.014597108,-0.010826532,0.0003707616,0.5,0.00015790047,0.0002933336,0.00040800238,1,1,1,0,1,0
21828848000,21828768000,1310996,0.00045749458,-0.00013840044,-0.00079377217,0.34906584,1.6525904e-07,1.6397978e-07,3.4470372e-07,1310996,-0.015812127,-0.009614221,0.08817979,0.4,0.00078123936,0.00078123936,0.00078123936,197388,0.014597108,-0.010826532,0.0003707616,0.5,0.00015790047,0.0002933336,0.00040800238,1,1,1,0,1,0
21829832000,21829752000,1310996,0.00046951158,-0.00011967862,-0.0008012497,0.34906584,1.6455155e-07,1.6342482e-07,3.4710715e-07,1310996,-0.015621925,-0.009713919,0.087008335,0.4,0.00078123936,0.00078123936,0.00078123936,197388,0.014597108,-0.010826532,0.0003707616,0.5,0.00015790047,0.0002933336,0.00040800238,1,1,1,0,1,0
21830616000,21830536000,1310996,0.00047534387,-0.000105682855,-0.0008102082,0.34906584,1.6439927e-07,1.6337819e-07,3.4862765e-07,1310996,-0.015487378,-0.0097560715,0.0854241,0.4,0.00078123936,0.00078123936,0.00078123936,197388,0.014597108,-0.010826532,0.0003707616,0.5,0.00015790047,0.0002933336,0.00040800238,1,1,1,0,1,0
