timestamp,timestamp_sample,lat,lon,alt,alt_ellipsoid,delta_alt,eph,epv,terrain_alt,lat_lon_reset_counter,alt_reset_counter,terrain_alt_valid,dead_reckoning
21726360000,0,41.606698,-86.355616,229.269,0.0,0.0,0.0,0.0,0.0,0,0,0,0
21726364000,0,41.606698,-86.355616,229.269,0.0,0.0,0.0,0.0,0.0,0,0,0,0
21726460000,0,41.606698,-86.355616,229.269,0.0,0.0,0.0,0.0,0.0,0,0,0,0
21726560000,0,41.606698,-86.355616,229.269,0.0,0.0,0.0,0.0,0.0,0,0,0,0
21726660000,0,41.606698,-86.355616,229.269,0.0,0.0,0.0,0.0,0.0,0,0,0,0
21726760000,0,41.606698,-86.355616,229.269,0.0,0.0,0.0,0.0,0.0,0,0,0,0
21726856000,0,41.606698,-86.355616,229.269,0.0,0.0,0.0,0.0,0.0,0,0,0,0
21726956000,0,41.606698,-86.355616,229.269,0.0,0.0,0.0,0.0,0.0,0,0,0,0
21727060000,0,41.606698,-86.355616,229.269,0.0,0.0,0.0,0.0,0.0,0,0,0,0
21727156000,0,41.606698,-86.355616,229.269,0.0,0.0,0.0,0.0,0.0,0,0,0,0
21727256000,0,41.606698,-86.355616,229.269,0.0,0.0,0.0,0.0,0.0,0,0,0,0
21727360000,0,41.606698,-86.355616,229.269,0.0,0.0,0.0,0.0,0.0,0,0,0,0
21727460000,0,41.606698,-86.355616,229.269,0.0,0.0,0.0,0.0,0.0,0,0,0,0
21727560000,0,41.606698,-86.355616,229.269,0.0,0.0,0.0,0.0,0.0,0,0,0,0
21727656000,0,41.606698,-86.355616,229.269,0.0,0.0,0.0,0.0,0.0,0,0,0,0
21727756000,0,41.606698,-86.355616,229.269,0.0,0.0,0.0,0.0,0.0,0,0,0,0
21727860000,0,41.606698,-86.355616,229.269,0.0,0.0,0.0,0.0,0.0,0,0,0,0
21727960000,0,41.606698,-86.355616,229.269,0.0,0.0,0.0,0.0,0.0,0,0,0,0
21728056000,0,41.606698,-86.355616,229.269,0.0,0.0,0.0,0.0,0.0,0,0,0,0
21728156000,0,41.606698,-86.355616,229.269,0.0,0.0,0.0,0.0,0.0,0,0,0,0
21728260000,0,41.606698,-86.355616,229.269,0.0,0.0,0.0,0.0,0.0,0,0,0,0
21728356000,0,41.606698,-86.355616,229.269,0.0,0.0,0.0,0.0,0.0,0,0,0,0
21728460000,0,41.606698,-86.355616,229.269,0.0,0.0,0.0,0.0,0.0,0,0,0,0
21728560000,0,41.606698,-86.355616,229.269,0.0,0.0,0.0,0.0,0.0,0,0,0,0
21728660000,0,41.606698,-86.355616,229.269,0.0,0.0,0.0,0.0,0.0,0,0,0,0
21728760000,0,41.606698,-86.355616,229.269,0.0,0.0,0.0,0.0,0.0,0,0,0,0
21728860000,0,41.606698,-86.355616,229.269,0.0,0.0,0.0,0.0,0.0,0,0,0,0
21728960000,0,41.606698,-86.355616,229.269,0.0,0.0,0.0,0.0,0.0,0,0,0,0
21729060000,0,41.606698,-86.355616,229.269,0.0,0.0,0.0,0.0,0.0,0,0,0,0
21729160000,0,41.606698,-86.355616,229.269,0.0,0.0,0.0,0.0,0.0,0,0,0,0
21729260000,0,41.606698,-86.355616,229.269,0.0,0.0,0.0,0.0,0.0,0,0,0,0
21729360000,0,41.606698,-86.355616,229.269,0.0,0.0,0.0,0.0,0.0,0,0,0,0
21729456000,0,41.606698,-86.355616,229.269,0.0,0.0,0.0,0.0,0.0,0,0,0,0
21729556000,0,41.606698,-86.355616,229.269,0.0,0.0,0.0,0.0,0.0,0,0,0,0
21729660000,0,41.606698,-86.355616,229.269,0.0,0.0,0.0,0.0,0.0,0,0,0,0
21729756000,0,41.606698,-86.355616,229.269,0.0,0.0,0.0,0.0,0.0,0,0,0,0
21729860000,0,41.606698,-86.355616,229.269,0.0,0.0,0.0,0.0,0.0,0,0,0,0
21729956000,0,41.606698,-86.355616,229.269,0.0,0.0,0.0,0.0,0.0,0,0,0,0
21730060000,0,41.606698,-86.355616,229.269,0.0,0.0,0.0,0.0,0.0,0,0,0,0
21730156000,0,41.606698,-86.355616,229.269,0.0,0.0,0.0,0.0,0.0,0,0,0,0
21730256000,0,41.606698,-86.355616,229.269,0.0,0.0,0.0,0.0,0.0,0,0,0,0
21730356000,0,41.606698,-86.355616,229.269,0.0,0.0,0.0,0.0,0.0,0,0,0,0
21730460000,0,41.606698,-86.355616,229.269,0.0,0.0,0.0,0.0,0.0,0,0,0,0
21730560000,0,41.606698,-86.355616,229.269,0.0,0.0,0.0,0.0,0.0,0,0,0,0
21730660000,0,41.606698,-86.355616,229.269,0.0,0.0,0.0,0.0,0.0,0,0,0,0
21730756000,0,41.606698,-86.355616,229.269,0.0,0.0,0.0,0.0,0.0,0,0,0,0
21730860000,0,41.606698,-86.355616,229.269,0.0,0.0,0.0,0.0,0.0,0,0,0,0
21730960000,0,41.606698,-86.355616,229.269,0.0,0.0,0.0,0.0,0.0,0,0,0,0
21731060000,0,41.606698,-86.355616,229.269,0.0,0.0,0.0,0.0,0.0,0,0,0,0
21731160000,0,41.606698,-86.355616,229.269,0.0,0.0,0.0,0.0,0.0,0,0,0,0
21731260000,0,41.606698,-86.355616,229.269,0.0,0.0,0.0,0.0,0.0,0,0,0,0
21731360000,0,41.606698,-86.355616,229.269,0.0,0.0,0.0,0.0,0.0,0,0,0,0
21731460000,0,41.606698,-86.355616,229.269,0.0,0.0,0.0,0.0,0.0,0,0,0,0
21731560000,0,41.606698,-86.355616,229.269,0.0,0.0,0.0,0.0,0.0,0,0,0,0
21731660000,0,41.606698,-86.355616,229.269,0.0,0.0,0.0,0.0,0.0,0,0,0,0
21731760000,0,41.606698,-86.355616,229.269,0.0,0.0,0.0,0.0,0.0,0,0,0,0
21731856000,0,41.606698,-86.355616,229.269,0.0,0.0,0.0,0.0,0.0,0,0,0,0
21731956000,0,41.606698,-86.355616,229.269,0.0,0.0,0.0,0.0,0.0,0,0,0,0
21732060000,0,41.606698,-86.355616,229.269,0.0,0.0,0.0,0.0,0.0,0,0,0,0
21732156000,0,41.606698,-86.355616,229.269,0.0,0.0,0.0,0.0,0.0,0,0,0,0
21732260000,0,41.606698,-86.355616,229.269,0.0,0.0,0.0,0.0,0.0,0,0,0,0
21732356000,0,41.606698,-86.355616,229.269,0.0,0.0,0.0,0.0,0.0,0,0,0,0
21732460000,0,41.606698,-86.355616,229.269,0.0,0.0,0.0,0.0,0.0,0,0,0,0
21732556000,0,41.606698,-86.355616,229.269,0.0,0.0,0.0,0.0,0.0,0,0,0,0
21732660000,0,41.606698,-86.355616,229.269,0.0,0.0,0.0,0.0,0.0,0,0,0,0
21732760000,0,41.606698,-86.355616,229.269,0.0,0.0,0.0,0.0,0.0,0,0,0,0
21732856000,0,41.606698,-86.355616,229.269,0.0,0.0,0.0,0.0,0.0,0,0,0,0
21732960000,0,41.606698,-86.355616,229.269,0.0,0.0,0.0,0.0,0.0,0,0,0,0
21733060000,0,41.606698,-86.355616,229.269,0.0,0.0,0.0,0.0,0.0,0,0,0,0
21733160000,0,41.606698,-86.355616,229.269,0.0,0.0,0.0,0.0,0.0,0,0,0,0
21733256000,0,41.606698,-86.355616,229.269,0.0,0.0,0.0,0.0,0.0,0,0,0,0
21733360000,0,41.606698,-86.355616,229.269,0.0,0.0,0.0,0.0,0.0,0,0,0,0
21733460000,0,41.606698,-86.355616,229.269,0.0,0.0,0.0,0.0,0.0,0,0,0,0
21733560000,0,41.606698,-86.355616,229.269,0.0,0.0,0.0,0.0,0.0,0,0,0,0
21733660000,0,41.606698,-86.355616,229.269,0.0,0.0,0.0,0.0,0.0,0,0,0,0
21733756000,0,41.606698,-86.355616,229.269,0.0,0.0,0.0,0.0,0.0,0,0,0,0
21733860000,0,41.606698,-86.355616,229.269,0.0,0.0,0.0,0.0,0.0,0,0,0,0
21733960000,0,41.606698,-86.355616,229.269,0.0,0.0,0.0,0.0,0.0,0,0,0,0
21734056000,0,41.606698,-86.35561589999999,229.272,0.0,0.0,0.0,0.0,0.0,0,0,0,0
21734156000,0,41.606698,-86.35561589999999,229.284,0.0,0.0,0.0,0.0,0.0,0,0,0,0
21734260000,0,41.606698,-86.35561589999999,229.315,0.0,0.0,0.0,0.0,0.0,0,0,0,0
21734360000,0,41.606698,-86.35561589999999,229.369,0.0,0.0,0.0,0.0,0.0,0,0,0,0
21734460000,0,41.6066979,-86.35561589999999,229.439,0.0,0.0,0.0,0.0,0.0,0,0,0,0
21734556000,0,41.6066979,-86.35561589999999,229.531,0.0,0.0,0.0,0.0,0.0,0,0,0,0
21734660000,0,41.6066979,-86.35561589999999,229.649,0.0,0.0,0.0,0.0,0.0,0,0,0,0
21734760000,0,41.6066979,-86.355616,229.782,0.0,0.0,0.0,0.0,0.0,0,0,0,0
21734856000,0,41.6066979,-86.355616,229.929,0.0,0.0,0.0,0.0,0.0,0,0,0,0
21734960000,0,41.6066979,-86.355616,230.088,0.0,0.0,0.0,0.0,0.0,0,0,0,0
21735060000,0,41.6066979,-86.355616,230.248,0.0,0.0,0.0,0.0,0.0,0,0,0,0
21735160000,0,41.6066979,-86.35561609999999,230.383,0.0,0.0,0.0,0.0,0.0,0,0,0,0
21735256000,0,41.6066979,-86.35561609999999,230.507,0.0,0.0,0.0,0.0,0.0,0,0,0,0
21735360000,0,41.6066979,-86.35561609999999,230.629,0.0,0.0,0.0,0.0,0.0,0,0,0,0
21735456000,0,41.606698,-86.3556162,230.731,0.0,0.0,0.0,0.0,0.0,0,0,0,0
21735556000,0,41.606698,-86.3556162,230.831,0.0,0.0,0.0,0.0,0.0,0,0,0,0
21735660000,0,41.606698,-86.3556162,230.921,0.0,0.0,0.0,0.0,0.0,0,0,0,0
21735756000,0,41.606698,-86.3556163,230.993,0.0,0.0,0.0,0.0,0.0,0,0,0,0
21735860000,0,41.606698099999996,-86.3556163,231.067,0.0,0.0,0.0,0.0,0.0,0,0,0,0
21735956000,0,41.606698099999996,-86.3556163,231.132,0.0,0.0,0.0,0.0,0.0,0,0,0,0
21736060000,0,41.606698099999996,-86.3556163,231.193,0.0,0.0,0.0,0.0,0.0,0,0,0,0
21736160000,0,41.606698099999996,-86.3556164,231.246,0.0,0.0,0.0,0.0,0.0,0,0,0,0
21736260000,0,41.606698099999996,-86.3556164,231.292,0.0,0.0,0.0,0.0,0.0,0,0,0,0
21736360000,0,41.6066982,-86.3556164,231.337,0.0,0.0,0.0,0.0,0.0,0,0,0,0
21736460000,0,41.6066982,-86.3556164,231.374,0.0,0.0,0.0,0.0,0.0,0,0,0,0
21736560000,0,41.6066982,-86.3556164,231.41,0.0,0.0,0.0,0.0,0.0,0,0,0,0
21736656000,0,41.6066982,-86.3556164,231.443,0.0,0.0,0.0,0.0,0.0,0,0,0,0
21736760000,0,41.6066982,-86.3556164,231.473,0.0,0.0,0.0,0.0,0.0,0,0,0,0
21736856000,0,41.6066982,-86.3556164,231.5,0.0,0.0,0.0,0.0,0.0,0,0,0,0
21736956000,0,41.6066983,-86.3556164,231.524,0.0,0.0,0.0,0.0,0.0,0,0,0,0
21737060000,0,41.6066983,-86.3556164,231.548,0.0,0.0,0.0,0.0,0.0,0,0,0,0
21737156000,0,41.6066983,-86.3556163,231.567,0.0,0.0,0.0,0.0,0.0,0,0,0,0
21737260000,0,41.6066983,-86.3556163,231.587,0.0,0.0,0.0,0.0,0.0,0,0,0,0
21737360000,0,41.6066983,-86.3556163,231.603,0.0,0.0,0.0,0.0,0.0,0,0,0,0
21737456000,0,41.6066983,-86.3556163,231.61,0.0,0.0,0.0,0.0,0.0,0,0,0,0
21737556000,0,41.6066983,-86.3556163,231.606,0.0,0.0,0.0,0.0,0.0,0,0,0,0
21737660000,0,41.6066983,-86.3556163,231.599,0.0,0.0,0.0,0.0,0.0,0,0,0,0
21737756000,0,41.6066983,-86.3556162,231.592,0.0,0.0,0.0,0.0,0.0,0,0,0,0
21737860000,0,41.6066983,-86.3556162,231.585,0.0,0.0,0.0,0.0,0.0,0,0,0,0
21737960000,0,41.6066983,-86.3556162,231.582,0.0,0.0,0.0,0.0,0.0,0,0,0,0
21738056000,0,41.6066983,-86.35561609999999,231.582,0.0,0.0,0.0,0.0,0.0,0,0,0,0
21738160000,0,41.6066983,-86.355616,231.588,0.0,0.0,0.0,0.0,0.0,0,0,0,0
21738256000,0,41.6066983,-86.35561589999999,231.599,0.0,0.0,0.0,0.0,0.0,0,0,0,0
21738360000,0,41.6066983,-86.3556158,231.618,0.0,0.0,0.0,0.0,0.0,0,0,0,0
21738460000,0,41.6066983,-86.3556155,231.643,0.0,0.0,0.0,0.0,0.0,0,0,0,0
21738560000,0,41.6066983,-86.3556152,231.675,0.0,0.0,0.0,0.0,0.0,0,0,0,0
21738660000,0,41.6066983,-86.35561469999999,231.712,0.0,0.0,0.0,0.0,0.0,0,0,0,0
21738760000,0,41.6066984,-86.3556141,231.753,0.0,0.0,0.0,0.0,0.0,0,0,0,0
21738860000,0,41.6066984,-86.3556134,231.801,0.0,0.0,0.0,0.0,0.0,0,0,0,0
21738956000,0,41.6066984,-86.3556124,231.853,0.0,0.0,0.0,0.0,0.0,0,0,0,0
21739056000,0,41.6066984,-86.35561129999999,231.908,0.0,0.0,0.0,0.0,0.0,0,0,0,0
21739160000,0,41.6066984,-86.35561,231.967,0.0,0.0,0.0,0.0,0.0,0,0,0,0
21739256000,0,41.6066984,-86.3556085,232.032,0.0,0.0,0.0,0.0,0.0,0,0,0,0
21739356000,0,41.6066984,-86.35560679999999,232.114,0.0,0.0,0.0,0.0,0.0,0,0,0,0
21739456000,0,41.606698099999996,-86.3556047,232.217,0.0,0.0,0.0,0.0,0.0,0,0,0,0
21739556000,0,41.6066976,-86.3556024,232.335,0.0,0.0,0.0,0.0,0.0,0,0,0,0
21739656000,0,41.606697,-86.3555998,232.47,0.0,0.0,0.0,0.0,0.0,0,0,0,0
21739760000,0,41.6066961,-86.3555968,232.632,0.0,0.0,0.0,0.0,0.0,0,0,0,0
21739860000,0,41.6066952,-86.3555938,232.799,0.0,0.0,0.0,0.0,0.0,0,0,0,0
21739956000,0,41.6066942,-86.3555909,232.967,0.0,0.0,0.0,0.0,0.0,0,0,0,0
21740060000,0,41.606693,-86.35558739999999,233.181,0.0,0.0,0.0,0.0,0.0,0,0,0,0
21740156000,0,41.6066918,-86.3555841,233.386,0.0,0.0,0.0,0.0,0.0,0,0,0,0
21740260000,0,41.6066904,-86.3555805,233.624,0.0,0.0,0.0,0.0,0.0,0,0,0,0
21740360000,0,41.6066891,-86.3555768,233.868,0.0,0.0,0.0,0.0,0.0,0,0,0,0
21740460000,0,41.606687699999995,-86.3555731,234.125,0.0,0.0,0.0,0.0,0.0,0,0,0,0
21740560000,0,41.6066862,-86.3555693,234.396,0.0,0.0,0.0,0.0,0.0,0,0,0,0
21740660000,0,41.606684699999995,-86.35556539999999,234.679,0.0,0.0,0.0,0.0,0.0,0,0,0,0
21740756000,0,41.6066832,-86.3555616,234.963,0.0,0.0,0.0,0.0,0.0,0,0,0,0
21740856000,0,41.606681599999995,-86.3555576,235.271,0.0,0.0,0.0,0.0,0.0,0,0,0,0
21740960000,0,41.60668,-86.3555533,235.602,0.0,0.0,0.0,0.0,0.0,0,0,0,0
21741056000,0,41.6066784,-86.35554929999999,235.919,0.0,0.0,0.0,0.0,0.0,0,0,0,0
21741160000,0,41.6066767,-86.35554499999999,236.259,0.0,0.0,0.0,0.0,0.0,0,0,0,0
21741260000,0,41.606674999999996,-86.35554069999999,236.608,0.0,0.0,0.0,0.0,0.0,0,0,0,0
21741356000,0,41.606673199999996,-86.3555363,236.967,0.0,0.0,0.0,0.0,0.0,0,0,0,0
21741460000,0,41.606671399999996,-86.35553159999999,237.35,0.0,0.0,0.0,0.0,0.0,0,0,0,0
21741556000,0,41.6066696,-86.35552729999999,237.712,0.0,0.0,0.0,0.0,0.0,0,0,0,0
21741660000,0,41.606667699999996,-86.35552249999999,238.112,0.0,0.0,0.0,0.0,0.0,0,0,0,0
21741760000,0,41.606665899999996,-86.3555181,238.489,0.0,0.0,0.0,0.0,0.0,0,0,0,0
21741860000,0,41.606663999999995,-86.35551319999999,238.906,0.0,0.0,0.0,0.0,0.0,0,0,0,0
21741960000,0,41.606662,-86.3555085,239.313,0.0,0.0,0.0,0.0,0.0,0,0,0,0
21742056000,0,41.6066602,-86.3555039,239.711,0.0,0.0,0.0,0.0,0.0,0,0,0,0
21742160000,0,41.6066581,-86.3554989,240.148,0.0,0.0,0.0,0.0,0.0,0,0,0,0
21742260000,0,41.606656199999996,-86.355494,240.575,0.0,0.0,0.0,0.0,0.0,0,0,0,0
21742356000,0,41.6066542,-86.3554893,240.991,0.0,0.0,0.0,0.0,0.0,0,0,0,0
21742456000,0,41.6066523,-86.3554845,241.411,0.0,0.0,0.0,0.0,0.0,0,0,0,0
21742560000,0,41.606650099999996,-86.3554791,241.89,0.0,0.0,0.0,0.0,0.0,0,0,0,0
21742656000,0,41.6066481,-86.35547419999999,242.321,0.0,0.0,0.0,0.0,0.0,0,0,0,0
21742756000,0,41.6066461,-86.3554693,242.756,0.0,0.0,0.0,0.0,0.0,0,0,0,0
21742856000,0,41.606643899999995,-86.355464,243.233,0.0,0.0,0.0,0.0,0.0,0,0,0,0
21742960000,0,41.6066418,-86.3554588,243.696,0.0,0.0,0.0,0.0,0.0,0,0,0,0
21743056000,0,41.606639699999995,-86.35545379999999,244.144,0.0,0.0,0.0,0.0,0.0,0,0,0,0
21743160000,0,41.6066374,-86.3554482,244.653,0.0,0.0,0.0,0.0,0.0,0,0,0,0
21743260000,0,41.6066353,-86.3554431,245.11,0.0,0.0,0.0,0.0,0.0,0,0,0,0
21743360000,0,41.606632999999995,-86.3554376,245.608,0.0,0.0,0.0,0.0,0.0,0,0,0,0
21743460000,0,41.6066308,-86.35543229999999,246.091,0.0,0.0,0.0,0.0,0.0,0,0,0,0
21743560000,0,41.6066286,-86.3554269,246.577,0.0,0.0,0.0,0.0,0.0,0,0,0,0
21743656000,0,41.6066265,-86.3554219,247.027,0.0,0.0,0.0,0.0,0.0,0,0,0,0
21743756000,0,41.6066242,-86.3554163,247.539,0.0,0.0,0.0,0.0,0.0,0,0,0,0
21743860000,0,41.6066218,-86.3554106,248.055,0.0,0.0,0.0,0.0,0.0,0,0,0,0
21743956000,0,41.606619599999995,-86.3554053,248.533,0.0,0.0,0.0,0.0,0.0,0,0,0,0
21744060000,0,41.606617299999996,-86.3553996,249.055,0.0,0.0,0.0,0.0,0.0,0,0,0,0
21744160000,0,41.606615,-86.3553941,249.558,0.0,0.0,0.0,0.0,0.0,0,0,0,0
21744260000,0,41.6066126,-86.35538849999999,250.065,0.0,0.0,0.0,0.0,0.0,0,0,0,0
21744360000,0,41.6066103,-86.3553829,250.574,0.0,0.0,0.0,0.0,0.0,0,0,0,0
21744460000,0,41.606608,-86.3553773,251.085,0.0,0.0,0.0,0.0,0.0,0,0,0,0
21744556000,0,41.606605699999996,-86.3553719,251.578,0.0,0.0,0.0,0.0,0.0,0,0,0,0
21744660000,0,41.606603299999996,-86.35536599999999,252.114,0.0,0.0,0.0,0.0,0.0,0,0,0,0
21744756000,0,41.606601,-86.35536049999999,252.611,0.0,0.0,0.0,0.0,0.0,0,0,0,0
21744856000,0,41.6065986,-86.3553548,253.131,0.0,0.0,0.0,0.0,0.0,0,0,0,0
21744960000,0,41.6065961,-86.3553489,253.673,0.0,0.0,0.0,0.0,0.0,0,0,0,0
21745060000,0,41.6065938,-86.3553432,254.196,0.0,0.0,0.0,0.0,0.0,0,0,0,0
21745160000,0,41.6065913,-86.3553374,254.721,0.0,0.0,0.0,0.0,0.0,0,0,0,0
21745260000,0,41.606589,-86.3553319,255.227,0.0,0.0,0.0,0.0,0.0,0,0,0,0
21745360000,0,41.6065865,-86.3553258,255.776,0.0,0.0,0.0,0.0,0.0,0,0,0,0
21745456000,0,41.6065843,-86.35532049999999,256.263,0.0,0.0,0.0,0.0,0.0,0,0,0,0
21745560000,0,41.6065816,-86.3553142,256.837,0.0,0.0,0.0,0.0,0.0,0,0,0,0
21745660000,0,41.6065793,-86.3553086,257.348,0.0,0.0,0.0,0.0,0.0,0,0,0,0
21745760000,0,41.6065767,-86.3553025,257.904,0.0,0.0,0.0,0.0,0.0,0,0,0,0
21745860000,0,41.6065743,-86.3552966,258.439,0.0,0.0,0.0,0.0,0.0,0,0,0,0
21745960000,0,41.6065719,-86.3552909,258.954,0.0,0.0,0.0,0.0,0.0,0,0,0,0
21746056000,0,41.6065694,-86.355285,259.491,0.0,0.0,0.0,0.0,0.0,0,0,0,0
21746160000,0,41.606566799999996,-86.3552789,260.052,0.0,0.0,0.0,0.0,0.0,0,0,0,0
21746260000,0,41.606564399999996,-86.3552732,260.57,0.0,0.0,0.0,0.0,0.0,0,0,0,0
21746360000,0,41.6065618,-86.355267,261.133,0.0,0.0,0.0,0.0,0.0,0,0,0,0
21746460000,0,41.6065593,-86.355261,261.675,0.0,0.0,0.0,0.0,0.0,0,0,0,0
21746560000,0,41.6065569,-86.3552553,262.196,0.0,0.0,0.0,0.0,0.0,0,0,0,0
21746660000,0,41.6065543,-86.3552491,262.761,0.0,0.0,0.0,0.0,0.0,0,0,0,0
21746760000,0,41.6065518,-86.3552431,263.306,0.0,0.0,0.0,0.0,0.0,0,0,0,0
21746856000,0,41.6065493,-86.3552373,263.83,0.0,0.0,0.0,0.0,0.0,0,0,0,0
21746956000,0,41.6065468,-86.3552313,264.376,0.0,0.0,0.0,0.0,0.0,0,0,0,0
21747060000,0,41.6065441,-86.35522499999999,264.946,0.0,0.0,0.0,0.0,0.0,0,0,0,0
21747160000,0,41.6065417,-86.3552192,265.472,0.0,0.0,0.0,0.0,0.0,0,0,0,0
21747256000,0,41.6065393,-86.3552134,265.999,0.0,0.0,0.0,0.0,0.0,0,0,0,0
21747360000,0,41.6065365,-86.3552069,266.593,0.0,0.0,0.0,0.0,0.0,0,0,0,0
21747456000,0,41.606533999999996,-86.3552011,267.121,0.0,0.0,0.0,0.0,0.0,0,0,0,0
21747556000,0,41.606531499999996,-86.355195,267.672,0.0,0.0,0.0,0.0,0.0,0,0,0,0
21747660000,0,41.6065288,-86.3551887,268.245,0.0,0.0,0.0,0.0,0.0,0,0,0,0
21747756000,0,41.6065264,-86.355183,268.753,0.0,0.0,0.0,0.0,0.0,0,0,0,0
21747856000,0,41.6065239,-86.35517689999999,269.306,0.0,0.0,0.0,0.0,0.0,0,0,0,0
21747956000,0,41.606521199999996,-86.3551706,269.882,0.0,0.0,0.0,0.0,0.0,0,0,0,0
21748060000,0,41.6065185,-86.35516419999999,270.458,0.0,0.0,0.0,0.0,0.0,0,0,0,0
21748160000,0,41.606516,-86.3551583,270.99,0.0,0.0,0.0,0.0,0.0,0,0,0,0
21748256000,0,41.6065134,-86.35515219999999,271.545,0.0,0.0,0.0,0.0,0.0,0,0,0,0
21748356000,0,41.606510799999995,-86.3551461,272.101,0.0,0.0,0.0,0.0,0.0,0,0,0,0
21748456000,0,41.6065083,-86.3551402,272.634,0.0,0.0,0.0,0.0,0.0,0,0,0,0
21748560000,0,41.6065055,-86.3551335,273.235,0.0,0.0,0.0,0.0,0.0,0,0,0,0
21748660000,0,41.606502899999995,-86.3551274,273.792,0.0,0.0,0.0,0.0,0.0,0,0,0,0
21748760000,0,41.6065003,-86.3551212,274.349,0.0,0.0,0.0,0.0,0.0,0,0,0,0
21748860000,0,41.6064977,-86.355115,274.907,0.0,0.0,0.0,0.0,0.0,0,0,0,0
21748956000,0,41.6064952,-86.35510909999999,275.443,0.0,0.0,0.0,0.0,0.0,0,0,0,0
21749060000,0,41.6064925,-86.35510289999999,276.001,0.0,0.0,0.0,0.0,0.0,0,0,0,0
21749156000,0,41.6064899,-86.35509669999999,276.56,0.0,0.0,0.0,0.0,0.0,0,0,0,0
21749260000,0,41.6064872,-86.3550903,277.142,0.0,0.0,0.0,0.0,0.0,0,0,0,0
21749360000,0,41.606484599999995,-86.35508399999999,277.701,0.0,0.0,0.0,0.0,0.0,0,0,0,0
21749460000,0,41.6064819,-86.35507779999999,278.261,0.0,0.0,0.0,0.0,0.0,0,0,0,0
21749560000,0,41.6064794,-86.3550719,278.799,0.0,0.0,0.0,0.0,0.0,0,0,0,0
21749660000,0,41.606476699999995,-86.3550654,279.382,0.0,0.0,0.0,0.0,0.0,0,0,0,0
21749760000,0,41.6064741,-86.3550592,279.943,0.0,0.0,0.0,0.0,0.0,0,0,0,0
21749860000,0,41.6064715,-86.3550532,280.481,0.0,0.0,0.0,0.0,0.0,0,0,0,0
21749956000,0,41.606468899999996,-86.355047,281.043,0.0,0.0,0.0,0.0,0.0,0,0,0,0
21750060000,0,41.6064661,-86.3550405,281.627,0.0,0.0,0.0,0.0,0.0,0,0,0,0
21750156000,0,41.6064636,-86.3550345,282.167,0.0,0.0,0.0,0.0,0.0,0,0,0,0
21750256000,0,41.6064611,-86.3550285,282.707,0.0,0.0,0.0,0.0,0.0,0,0,0,0
21750360000,0,41.6064583,-86.35502199999999,283.292,0.0,0.0,0.0,0.0,0.0,0,0,0,0
21750460000,0,41.6064556,-86.3550155,283.877,0.0,0.0,0.0,0.0,0.0,0,0,0,0
21750560000,0,41.6064529,-86.35500929999999,284.44,0.0,0.0,0.0,0.0,0.0,0,0,0,0
21750660000,0,41.6064503,-86.355003,285.003,0.0,0.0,0.0,0.0,0.0,0,0,0,0
21750756000,0,41.6064478,-86.3549972,285.522,0.0,0.0,0.0,0.0,0.0,0,0,0,0
21750856000,0,41.606445099999995,-86.3549907,286.108,0.0,0.0,0.0,0.0,0.0,0,0,0,0
21750960000,0,41.6064423,-86.35498419999999,286.695,0.0,0.0,0.0,0.0,0.0,0,0,0,0
21751060000,0,41.6064398,-86.35497819999999,287.236,0.0,0.0,0.0,0.0,0.0,0,0,0,0
21751160000,0,41.606437,-86.3549716,287.823,0.0,0.0,0.0,0.0,0.0,0,0,0,0
21751260000,0,41.6064344,-86.3549654,288.388,0.0,0.0,0.0,0.0,0.0,0,0,0,0
21751360000,0,41.6064319,-86.35495929999999,288.93,0.0,0.0,0.0,0.0,0.0,0,0,0,0
21751460000,0,41.6064292,-86.3549531,289.495,0.0,0.0,0.0,0.0,0.0,0,0,0,0
21751556000,0,41.6064267,-86.354947,290.037,0.0,0.0,0.0,0.0,0.0,0,0,0,0
21751656000,0,41.606424,-86.3549407,290.602,0.0,0.0,0.0,0.0,0.0,0,0,0,0
21751756000,0,41.6064212,-86.3549342,291.19,0.0,0.0,0.0,0.0,0.0,0,0,0,0
21751860000,0,41.6064185,-86.35492769999999,291.778,0.0,0.0,0.0,0.0,0.0,0,0,0,0
21751960000,0,41.6064158,-86.3549214,292.344,0.0,0.0,0.0,0.0,0.0,0,0,0,0
21752060000,0,41.6064132,-86.3549151,292.91,0.0,0.0,0.0,0.0,0.0,0,0,0,0
21752160000,0,41.6064106,-86.35490899999999,293.453,0.0,0.0,0.0,0.0,0.0,0,0,0,0
21752260000,0,41.606407999999995,-86.3549027,294.019,0.0,0.0,0.0,0.0,0.0,0,0,0,0
21752356000,0,41.6064054,-86.3548967,294.563,0.0,0.0,0.0,0.0,0.0,0,0,0,0
21752456000,0,41.6064027,-86.35489009999999,295.152,0.0,0.0,0.0,0.0,0.0,0,0,0,0
21752556000,0,41.606400099999995,-86.35488409999999,295.696,0.0,0.0,0.0,0.0,0.0,0,0,0,0
21752660000,0,41.6063973,-86.3548775,296.285,0.0,0.0,0.0,0.0,0.0,0,0,0,0
21752756000,0,41.606394699999996,-86.35487119999999,296.851,0.0,0.0,0.0,0.0,0.0,0,0,0,0
21752856000,0,41.606392,-86.3548649,297.418,0.0,0.0,0.0,0.0,0.0,0,0,0,0
21752960000,0,41.6063893,-86.35485829999999,298.008,0.0,0.0,0.0,0.0,0.0,0,0,0,0
21753056000,0,41.6063867,-86.35485229999999,298.552,0.0,0.0,0.0,0.0,0.0,0,0,0,0
21753160000,0,41.6063841,-86.3548459,299.119,0.0,0.0,0.0,0.0,0.0,0,0,0,0
21753260000,0,41.606381299999995,-86.3548394,299.709,0.0,0.0,0.0,0.0,0.0,0,0,0,0
21753360000,0,41.6063787,-86.3548333,300.254,0.0,0.0,0.0,0.0,0.0,0,0,0,0
21753456000,0,41.6063762,-86.3548272,300.799,0.0,0.0,0.0,0.0,0.0,0,0,0,0
21753560000,0,41.6063733,-86.3548204,301.412,0.0,0.0,0.0,0.0,0.0,0,0,0,0
21753660000,0,41.6063706,-86.3548141,301.979,0.0,0.0,0.0,0.0,0.0,0,0,0,0
21753760000,0,41.606367999999996,-86.35480779999999,302.547,0.0,0.0,0.0,0.0,0.0,0,0,0,0
21753860000,0,41.6063653,-86.3548015,303.114,0.0,0.0,0.0,0.0,0.0,0,0,0,0
21753956000,0,41.6063629,-86.3547957,303.637,0.0,0.0,0.0,0.0,0.0,0,0,0,0
21754056000,0,41.606360099999996,-86.35478909999999,304.227,0.0,0.0,0.0,0.0,0.0,0,0,0,0
21754160000,0,41.6063574,-86.3547828,304.795,0.0,0.0,0.0,0.0,0.0,0,0,0,0
21754260000,0,41.6063548,-86.35477639999999,305.363,0.0,0.0,0.0,0.0,0.0,0,0,0,0
21754360000,0,41.606352099999995,-86.3547701,305.931,0.0,0.0,0.0,0.0,0.0,0,0,0,0
21754460000,0,41.6063493,-86.35476349999999,306.522,0.0,0.0,0.0,0.0,0.0,0,0,0,0
21754556000,0,41.6063468,-86.35475749999999,307.067,0.0,0.0,0.0,0.0,0.0,0,0,0,0
21754660000,0,41.606344,-86.3547509,307.658,0.0,0.0,0.0,0.0,0.0,0,0,0,0
21754756000,0,41.6063414,-86.35474479999999,308.203,0.0,0.0,0.0,0.0,0.0,0,0,0,0
21754860000,0,41.606338699999995,-86.3547382,308.794,0.0,0.0,0.0,0.0,0.0,0,0,0,0
21754960000,0,41.606336,-86.35473189999999,309.362,0.0,0.0,0.0,0.0,0.0,0,0,0,0
21755056000,0,41.6063335,-86.354726,309.885,0.0,0.0,0.0,0.0,0.0,0,0,0,0
21755156000,0,41.606330799999995,-86.3547195,310.476,0.0,0.0,0.0,0.0,0.0,0,0,0,0
21755260000,0,41.606328,-86.3547129,311.067,0.0,0.0,0.0,0.0,0.0,0,0,0,0
21755360000,0,41.606325399999996,-86.3547068,311.612,0.0,0.0,0.0,0.0,0.0,0,0,0,0
21755456000,0,41.6063228,-86.35470049999999,312.181,0.0,0.0,0.0,0.0,0.0,0,0,0,0
21755560000,0,41.60632,-86.3546939,312.772,0.0,0.0,0.0,0.0,0.0,0,0,0,0
21755656000,0,41.606317399999995,-86.3546878,313.318,0.0,0.0,0.0,0.0,0.0,0,0,0,0
21755756000,0,41.6063147,-86.3546815,313.886,0.0,0.0,0.0,0.0,0.0,0,0,0,0
21755860000,0,41.606311999999996,-86.3546751,314.455,0.0,0.0,0.0,0.0,0.0,0,0,0,0
21755956000,0,41.6063094,-86.3546688,315.023,0.0,0.0,0.0,0.0,0.0,0,0,0,0
21756060000,0,41.606306599999996,-86.35466219999999,315.614,0.0,0.0,0.0,0.0,0.0,0,0,0,0
21756160000,0,41.6063039,-86.3546559,316.183,0.0,0.0,0.0,0.0,0.0,0,0,0,0
21756260000,0,41.6063012,-86.3546495,316.752,0.0,0.0,0.0,0.0,0.0,0,0,0,0
21756360000,0,41.6062985,-86.3546432,317.32,0.0,0.0,0.0,0.0,0.0,0,0,0,0
21756460000,0,41.6062959,-86.35463709999999,317.866,0.0,0.0,0.0,0.0,0.0,0,0,0,0
21756556000,0,41.6062933,-86.3546308,318.435,0.0,0.0,0.0,0.0,0.0,0,0,0,0
21756660000,0,41.6062906,-86.35462439999999,319.004,0.0,0.0,0.0,0.0,0.0,0,0,0,0
21756760000,0,41.6062878,-86.3546178,319.595,0.0,0.0,0.0,0.0,0.0,0,0,0,0
21756856000,0,41.606285299999996,-86.354612,320.118,0.0,0.0,0.0,0.0,0.0,0,0,0,0
21756960000,0,41.6062824,-86.3546051,320.733,0.0,0.0,0.0,0.0,0.0,0,0,0,0
21757056000,0,41.606279799999996,-86.354599,321.279,0.0,0.0,0.0,0.0,0.0,0,0,0,0
21757160000,0,41.606277,-86.3545924,321.87,0.0,0.0,0.0,0.0,0.0,0,0,0,0
21757260000,0,41.6062745,-86.3545863,322.416,0.0,0.0,0.0,0.0,0.0,0,0,0,0
21757356000,0,41.606271799999995,-86.35458,322.985,0.0,0.0,0.0,0.0,0.0,0,0,0,0
21757460000,0,41.606269,-86.35457339999999,323.576,0.0,0.0,0.0,0.0,0.0,0,0,0,0
21757556000,0,41.6062665,-86.3545675,324.099,0.0,0.0,0.0,0.0,0.0,0,0,0,0
21757656000,0,41.6062637,-86.3545609,324.691,0.0,0.0,0.0,0.0,0.0,0,0,0,0
21757760000,0,41.606260899999995,-86.35455429999999,325.282,0.0,0.0,0.0,0.0,0.0,0,0,0,0
21757860000,0,41.6062582,-86.3545479,325.851,0.0,0.0,0.0,0.0,0.0,0,0,0,0
21757960000,0,41.6062556,-86.35454159999999,326.42,0.0,0.0,0.0,0.0,0.0,0,0,0,0
21758060000,0,41.6062529,-86.3545352,326.989,0.0,0.0,0.0,0.0,0.0,0,0,0,0
21758160000,0,41.6062503,-86.3545291,327.535,0.0,0.0,0.0,0.0,0.0,0,0,0,0
21758260000,0,41.606247499999995,-86.3545225,328.126,0.0,0.0,0.0,0.0,0.0,0,0,0,0
21758360000,0,41.6062448,-86.3545161,328.695,0.0,0.0,0.0,0.0,0.0,0,0,0,0
21758456000,0,41.6062422,-86.35450999999999,329.241,0.0,0.0,0.0,0.0,0.0,0,0,0,0
21758560000,0,41.6062395,-86.3545037,329.81,0.0,0.0,0.0,0.0,0.0,0,0,0,0
21758656000,0,41.606237,-86.3544976,330.357,0.0,0.0,0.0,0.0,0.0,0,0,0,0
21758756000,0,41.606234199999996,-86.3544909,330.948,0.0,0.0,0.0,0.0,0.0,0,0,0,0
21758856000,0,41.6062315,-86.35448459999999,331.518,0.0,0.0,0.0,0.0,0.0,0,0,0,0
21758960000,0,41.6062288,-86.3544782,332.087,0.0,0.0,0.0,0.0,0.0,0,0,0,0
21759060000,0,41.606226,-86.3544716,332.679,0.0,0.0,0.0,0.0,0.0,0,0,0,0
21759156000,0,41.6062234,-86.35446549999999,333.225,0.0,0.0,0.0,0.0,0.0,0,0,0,0
21759260000,0,41.6062207,-86.3544591,333.794,0.0,0.0,0.0,0.0,0.0,0,0,0,0
21759360000,0,41.6062179,-86.3544525,334.386,0.0,0.0,0.0,0.0,0.0,0,0,0,0
21759460000,0,41.6062152,-86.35444609999999,334.955,0.0,0.0,0.0,0.0,0.0,0,0,0,0
21759556000,0,41.6062126,-86.35444,335.502,0.0,0.0,0.0,0.0,0.0,0,0,0,0
21759656000,0,41.606209899999996,-86.3544337,336.071,0.0,0.0,0.0,0.0,0.0,0,0,0,0
21759760000,0,41.6062071,-86.354427,336.663,0.0,0.0,0.0,0.0,0.0,0,0,0,0
21759860000,0,41.606204399999996,-86.35442069999999,337.232,0.0,0.0,0.0,0.0,0.0,0,0,0,0
21759960000,0,41.6062017,-86.3544143,337.802,0.0,0.0,0.0,0.0,0.0,0,0,0,0
21760060000,0,41.6061991,-86.3544079,338.371,0.0,0.0,0.0,0.0,0.0,0,0,0,0
21760156000,0,41.606196499999996,-86.35440179999999,338.917,0.0,0.0,0.0,0.0,0.0,0,0,0,0
21760260000,0,41.6061937,-86.3543952,339.509,0.0,0.0,0.0,0.0,0.0,0,0,0,0
21760360000,0,41.6061911,-86.35438909999999,340.056,0.0,0.0,0.0,0.0,0.0,0,0,0,0
21760456000,0,41.606188499999995,-86.354383,340.603,0.0,0.0,0.0,0.0,0.0,0,0,0,0
21760560000,0,41.6061857,-86.3543763,341.195,0.0,0.0,0.0,0.0,0.0,0,0,0,0
21760660000,0,41.6061829,-86.35436969999999,341.787,0.0,0.0,0.0,0.0,0.0,0,0,0,0
21760760000,0,41.6061803,-86.3543636,342.334,0.0,0.0,0.0,0.0,0.0,0,0,0,0
21760860000,0,41.606177599999995,-86.3543572,342.903,0.0,0.0,0.0,0.0,0.0,0,0,0,0
21760960000,0,41.6061748,-86.35435059999999,343.495,0.0,0.0,0.0,0.0,0.0,0,0,0,0
21761060000,0,41.606172199999996,-86.3543445,344.042,0.0,0.0,0.0,0.0,0.0,0,0,0,0
21761160000,0,41.6061695,-86.35433809999999,344.612,0.0,0.0,0.0,0.0,0.0,0,0,0,0
21761256000,0,41.6061668,-86.3543317,345.181,0.0,0.0,0.0,0.0,0.0,0,0,0,0
21761360000,0,41.6061641,-86.3543254,345.75,0.0,0.0,0.0,0.0,0.0,0,0,0,0
21761460000,0,41.6061613,-86.3543187,346.343,0.0,0.0,0.0,0.0,0.0,0,0,0,0
21761560000,0,41.606158699999995,-86.3543126,346.889,0.0,0.0,0.0,0.0,0.0,0,0,0,0
21761656000,0,41.606156,-86.35430629999999,347.459,0.0,0.0,0.0,0.0,0.0,0,0,0,0
21761756000,0,41.606153299999995,-86.3542999,348.028,0.0,0.0,0.0,0.0,0.0,0,0,0,0
21761856000,0,41.6061506,-86.3542935,348.597,0.0,0.0,0.0,0.0,0.0,0,0,0,0
21761960000,0,41.606147799999995,-86.35428689999999,349.19,0.0,0.0,0.0,0.0,0.0,0,0,0,0
21762060000,0,41.6061451,-86.3542805,349.759,0.0,0.0,0.0,0.0,0.0,0,0,0,0
21762156000,0,41.6061425,-86.3542744,350.306,0.0,0.0,0.0,0.0,0.0,0,0,0,0
21762260000,0,41.6061397,-86.3542677,350.898,0.0,0.0,0.0,0.0,0.0,0,0,0,0
21762360000,0,41.606137,-86.3542614,351.468,0.0,0.0,0.0,0.0,0.0,0,0,0,0
21762460000,0,41.6061343,-86.354255,352.038,0.0,0.0,0.0,0.0,0.0,0,0,0,0
21762560000,0,41.6061316,-86.35424859999999,352.607,0.0,0.0,0.0,0.0,0.0,0,0,0,0
21762656000,0,41.6061291,-86.3542425,353.154,0.0,0.0,0.0,0.0,0.0,0,0,0,0
21762756000,0,41.6061264,-86.3542361,353.723,0.0,0.0,0.0,0.0,0.0,0,0,0,0
21762856000,0,41.6061237,-86.35422969999999,354.293,0.0,0.0,0.0,0.0,0.0,0,0,0,0
21762960000,0,41.6061209,-86.35422299999999,354.885,0.0,0.0,0.0,0.0,0.0,0,0,0,0
21763056000,0,41.6061184,-86.3542172,355.409,0.0,0.0,0.0,0.0,0.0,0,0,0,0
21763156000,0,41.606115599999995,-86.3542105,356.001,0.0,0.0,0.0,0.0,0.0,0,0,0,0
21763260000,0,41.6061127,-86.3542039,356.594,0.0,0.0,0.0,0.0,0.0,0,0,0,0
21763356000,0,41.6061103,-86.354198,357.118,0.0,0.0,0.0,0.0,0.0,0,0,0,0
21763460000,0,41.6061075,-86.35419139999999,357.71,0.0,0.0,0.0,0.0,0.0,0,0,0,0
21763556000,0,41.6061048,-86.354185,358.28,0.0,0.0,0.0,0.0,0.0,0,0,0,0
21763656000,0,41.6061021,-86.3541786,358.849,0.0,0.0,0.0,0.0,0.0,0,0,0,0
21763756000,0,41.6060994,-86.3541722,359.419,0.0,0.0,0.0,0.0,0.0,0,0,0,0
21763856000,0,41.606096699999995,-86.35416579999999,359.988,0.0,0.0,0.0,0.0,0.0,0,0,0,0
21763956000,0,41.606094,-86.3541594,360.558,0.0,0.0,0.0,0.0,0.0,0,0,0,0
21764060000,0,41.6060912,-86.3541527,361.15,0.0,0.0,0.0,0.0,0.0,0,0,0,0
21764160000,0,41.6060885,-86.3541463,361.72,0.0,0.0,0.0,0.0,0.0,0,0,0,0
21764256000,0,41.6060859,-86.35414019999999,362.267,0.0,0.0,0.0,0.0,0.0,0,0,0,0
21764360000,0,41.6060831,-86.35413349999999,362.859,0.0,0.0,0.0,0.0,0.0,0,0,0,0
21764460000,0,41.606080399999996,-86.3541271,363.428,0.0,0.0,0.0,0.0,0.0,0,0,0,0
21764560000,0,41.6060777,-86.3541207,363.998,0.0,0.0,0.0,0.0,0.0,0,0,0,0
21764660000,0,41.606075,-86.35411429999999,364.567,0.0,0.0,0.0,0.0,0.0,0,0,0,0
21764756000,0,41.606072399999995,-86.3541082,365.114,0.0,0.0,0.0,0.0,0.0,0,0,0,0
21764856000,0,41.6060697,-86.3541018,365.683,0.0,0.0,0.0,0.0,0.0,0,0,0,0
21764956000,0,41.606066999999996,-86.35409539999999,366.253,0.0,0.0,0.0,0.0,0.0,0,0,0,0
21765060000,0,41.6060642,-86.35408869999999,366.845,0.0,0.0,0.0,0.0,0.0,0,0,0,0
21765160000,0,41.6060616,-86.35408249999999,367.391,0.0,0.0,0.0,0.0,0.0,0,0,0,0
21765260000,0,41.6060589,-86.3540761,367.961,0.0,0.0,0.0,0.0,0.0,0,0,0,0
21765360000,0,41.606056099999996,-86.3540694,368.553,0.0,0.0,0.0,0.0,0.0,0,0,0,0
21765456000,0,41.606053599999996,-86.35406329999999,369.1,0.0,0.0,0.0,0.0,0.0,0,0,0,0
21765560000,0,41.6060508,-86.35405659999999,369.692,0.0,0.0,0.0,0.0,0.0,0,0,0,0
21765656000,0,41.6060482,-86.3540505,370.239,0.0,0.0,0.0,0.0,0.0,0,0,0,0
21765756000,0,41.6060455,-86.354044,370.808,0.0,0.0,0.0,0.0,0.0,0,0,0,0
21765856000,0,41.6060428,-86.3540376,371.378,0.0,0.0,0.0,0.0,0.0,0,0,0,0
21765960000,0,41.60604,-86.35403099999999,371.97,0.0,0.0,0.0,0.0,0.0,0,0,0,0
21766056000,0,41.6060374,-86.35402479999999,372.517,0.0,0.0,0.0,0.0,0.0,0,0,0,0
21766160000,0,41.606034699999995,-86.3540184,373.087,0.0,0.0,0.0,0.0,0.0,0,0,0,0
21766260000,0,41.606032,-86.354012,373.657,0.0,0.0,0.0,0.0,0.0,0,0,0,0
21766360000,0,41.606029199999995,-86.3540053,374.249,0.0,0.0,0.0,0.0,0.0,0,0,0,0
21766456000,0,41.6060267,-86.35399939999999,374.774,0.0,0.0,0.0,0.0,0.0,0,0,0,0
21766560000,0,41.606023799999996,-86.3539924,375.389,0.0,0.0,0.0,0.0,0.0,0,0,0,0
21766660000,0,41.6060211,-86.35398599999999,375.958,0.0,0.0,0.0,0.0,0.0,0,0,0,0
21766756000,0,41.6060185,-86.3539799,376.505,0.0,0.0,0.0,0.0,0.0,0,0,0,0
21766860000,0,41.6060157,-86.3539732,377.098,0.0,0.0,0.0,0.0,0.0,0,0,0,0
21766960000,0,41.606013,-86.3539668,377.668,0.0,0.0,0.0,0.0,0.0,0,0,0,0
21767060000,0,41.6060103,-86.3539603,378.238,0.0,0.0,0.0,0.0,0.0,0,0,0,0
21767156000,0,41.6060077,-86.35395419999999,378.785,0.0,0.0,0.0,0.0,0.0,0,0,0,0
21767256000,0,41.6060051,-86.3539478,379.355,0.0,0.0,0.0,0.0,0.0,0,0,0,0
21767360000,0,41.6060024,-86.3539413,379.925,0.0,0.0,0.0,0.0,0.0,0,0,0,0
21767460000,0,41.6059997,-86.3539349,380.495,0.0,0.0,0.0,0.0,0.0,0,0,0,0
21767560000,0,41.605996999999995,-86.3539285,381.064,0.0,0.0,0.0,0.0,0.0,0,0,0,0
21767656000,0,41.6059943,-86.35392209999999,381.635,0.0,0.0,0.0,0.0,0.0,0,0,0,0
21767760000,0,41.605991499999995,-86.35391539999999,382.227,0.0,0.0,0.0,0.0,0.0,0,0,0,0
21767856000,0,41.6059889,-86.35390919999999,382.774,0.0,0.0,0.0,0.0,0.0,0,0,0,0
21767960000,0,41.6059862,-86.3539028,383.344,0.0,0.0,0.0,0.0,0.0,0,0,0,0
21768056000,0,41.6059835,-86.3538964,383.914,0.0,0.0,0.0,0.0,0.0,0,0,0,0
21768160000,0,41.6059808,-86.35388999999999,384.484,0.0,0.0,0.0,0.0,0.0,0,0,0,0
21768256000,0,41.6059781,-86.3538836,385.054,0.0,0.0,0.0,0.0,0.0,0,0,0,0
21768360000,0,41.6059754,-86.35387709999999,385.624,0.0,0.0,0.0,0.0,0.0,0,0,0,0
21768460000,0,41.605972699999995,-86.3538707,386.194,0.0,0.0,0.0,0.0,0.0,0,0,0,0
21768556000,0,41.60597,-86.3538643,386.764,0.0,0.0,0.0,0.0,0.0,0,0,0,0
21768660000,0,41.605967199999995,-86.3538576,387.357,0.0,0.0,0.0,0.0,0.0,0,0,0,0
21768756000,0,41.6059646,-86.35385149999999,387.904,0.0,0.0,0.0,0.0,0.0,0,0,0,0
21768860000,0,41.605961799999996,-86.35384479999999,388.497,0.0,0.0,0.0,0.0,0.0,0,0,0,0
21768956000,0,41.6059592,-86.3538386,389.044,0.0,0.0,0.0,0.0,0.0,0,0,0,0
21769060000,0,41.6059565,-86.3538322,389.614,0.0,0.0,0.0,0.0,0.0,0,0,0,0
21769160000,0,41.605953799999995,-86.3538257,390.184,0.0,0.0,0.0,0.0,0.0,0,0,0,0
21769256000,0,41.6059511,-86.3538193,390.753,0.0,0.0,0.0,0.0,0.0,0,0,0,0
21769360000,0,41.6059485,-86.3538129,391.323,0.0,0.0,0.0,0.0,0.0,0,0,0,0
21769460000,0,41.6059458,-86.3538064,391.893,0.0,0.0,0.0,0.0,0.0,0,0,0,0
21769556000,0,41.6059431,-86.35379999999999,392.463,0.0,0.0,0.0,0.0,0.0,0,0,0,0
21769656000,0,41.6059404,-86.3537936,393.033,0.0,0.0,0.0,0.0,0.0,0,0,0,0
21769756000,0,41.6059377,-86.3537872,393.603,0.0,0.0,0.0,0.0,0.0,0,0,0,0
21769856000,0,41.605934999999995,-86.3537807,394.172,0.0,0.0,0.0,0.0,0.0,0,0,0,0
21769960000,0,41.6059322,-86.353774,394.765,0.0,0.0,0.0,0.0,0.0,0,0,0,0
21770060000,0,41.605929499999995,-86.3537676,395.335,0.0,0.0,0.0,0.0,0.0,0,0,0,0
21770160000,0,41.6059268,-86.3537612,395.905,0.0,0.0,0.0,0.0,0.0,0,0,0,0
21770260000,0,41.605924099999996,-86.3537547,396.475,0.0,0.0,0.0,0.0,0.0,0,0,0,0
21770360000,0,41.6059214,-86.35374829999999,397.045,0.0,0.0,0.0,0.0,0.0,0,0,0,0
21770456000,0,41.6059188,-86.35374209999999,397.592,0.0,0.0,0.0,0.0,0.0,0,0,0,0
21770560000,0,41.605916,-86.35373539999999,398.185,0.0,0.0,0.0,0.0,0.0,0,0,0,0
21770660000,0,41.6059133,-86.353729,398.755,0.0,0.0,0.0,0.0,0.0,0,0,0,0
21770756000,0,41.605910699999995,-86.3537228,399.302,0.0,0.0,0.0,0.0,0.0,0,0,0,0
21770856000,0,41.605908,-86.3537164,399.872,0.0,0.0,0.0,0.0,0.0,0,0,0,0
21770960000,0,41.605905199999995,-86.3537097,400.465,0.0,0.0,0.0,0.0,0.0,0,0,0,0
21771060000,0,41.6059025,-86.35370329999999,401.035,0.0,0.0,0.0,0.0,0.0,0,0,0,0
21771160000,0,41.605899799999996,-86.3536968,401.605,0.0,0.0,0.0,0.0,0.0,0,0,0,0
21771260000,0,41.6058971,-86.35369039999999,402.175,0.0,0.0,0.0,0.0,0.0,0,0,0,0
21771360000,0,41.6058944,-86.353684,402.746,0.0,0.0,0.0,0.0,0.0,0,0,0,0
21771460000,0,41.6058917,-86.35367749999999,403.316,0.0,0.0,0.0,0.0,0.0,0,0,0,0
21771560000,0,41.605889,-86.3536711,403.886,0.0,0.0,0.0,0.0,0.0,0,0,0,0
21771656000,0,41.605886399999996,-86.3536649,404.434,0.0,0.0,0.0,0.0,0.0,0,0,0,0
21771760000,0,41.6058838,-86.3536585,405.004,0.0,0.0,0.0,0.0,0.0,0,0,0,0
21771856000,0,41.6058812,-86.3536523,405.551,0.0,0.0,0.0,0.0,0.0,0,0,0,0
21771960000,0,41.6058783,-86.3536453,406.167,0.0,0.0,0.0,0.0,0.0,0,0,0,0
21772060000,0,41.6058756,-86.35363889999999,406.737,0.0,0.0,0.0,0.0,0.0,0,0,0,0
21772156000,0,41.6058731,-86.353633,407.261,0.0,0.0,0.0,0.0,0.0,0,0,0,0
21772256000,0,41.6058703,-86.3536263,407.854,0.0,0.0,0.0,0.0,0.0,0,0,0,0
21772360000,0,41.605867599999996,-86.35361979999999,408.424,0.0,0.0,0.0,0.0,0.0,0,0,0,0
21772460000,0,41.6058648,-86.35361309999999,409.017,0.0,0.0,0.0,0.0,0.0,0,0,0,0
21772556000,0,41.6058622,-86.353607,409.565,0.0,0.0,0.0,0.0,0.0,0,0,0,0
21772656000,0,41.6058595,-86.3536005,410.135,0.0,0.0,0.0,0.0,0.0,0,0,0,0
21772760000,0,41.6058568,-86.3535938,410.728,0.0,0.0,0.0,0.0,0.0,0,0,0,0
21772856000,0,41.605854199999996,-86.3535876,411.276,0.0,0.0,0.0,0.0,0.0,0,0,0,0
21772960000,0,41.6058514,-86.35358099999999,411.869,0.0,0.0,0.0,0.0,0.0,0,0,0,0
21773056000,0,41.6058489,-86.35357499999999,412.394,0.0,0.0,0.0,0.0,0.0,0,0,0,0
21773160000,0,41.6058461,-86.35356829999999,412.987,0.0,0.0,0.0,0.0,0.0,0,0,0,0
21773260000,0,41.6058433,-86.35356159999999,413.58,0.0,0.0,0.0,0.0,0.0,0,0,0,0
21773360000,0,41.6058406,-86.3535552,414.15,0.0,0.0,0.0,0.0,0.0,0,0,0,0
21773456000,0,41.6058381,-86.353549,414.698,0.0,0.0,0.0,0.0,0.0,0,0,0,0
21773560000,0,41.605835299999995,-86.3535423,415.291,0.0,0.0,0.0,0.0,0.0,0,0,0,0
21773656000,0,41.6058327,-86.3535362,415.839,0.0,0.0,0.0,0.0,0.0,0,0,0,0
21773756000,0,41.60583,-86.3535297,416.409,0.0,0.0,0.0,0.0,0.0,0,0,0,0
21773856000,0,41.6058273,-86.35352329999999,416.979,0.0,0.0,0.0,0.0,0.0,0,0,0,0
21773956000,0,41.6058247,-86.3535169,417.55,0.0,0.0,0.0,0.0,0.0,0,0,0,0
21774060000,0,41.605821899999995,-86.3535102,418.143,0.0,0.0,0.0,0.0,0.0,0,0,0,0
21774160000,0,41.6058192,-86.35350369999999,418.713,0.0,0.0,0.0,0.0,0.0,0,0,0,0
21774260000,0,41.605816499999996,-86.3534973,419.284,0.0,0.0,0.0,0.0,0.0,0,0,0,0
21774360000,0,41.6058138,-86.3534909,419.854,0.0,0.0,0.0,0.0,0.0,0,0,0,0
21774460000,0,41.6058111,-86.3534845,420.425,0.0,0.0,0.0,0.0,0.0,0,0,0,0
21774556000,0,41.6058087,-86.3534785,420.949,0.0,0.0,0.0,0.0,0.0,0,0,0,0
21774660000,0,41.6058058,-86.35347159999999,421.565,0.0,0.0,0.0,0.0,0.0,0,0,0,0
21774756000,0,41.6058032,-86.35346539999999,422.113,0.0,0.0,0.0,0.0,0.0,0,0,0,0
21774860000,0,41.6058004,-86.3534588,422.706,0.0,0.0,0.0,0.0,0.0,0,0,0,0
21774960000,0,41.6057977,-86.3534523,423.277,0.0,0.0,0.0,0.0,0.0,0,0,0,0
21775060000,0,41.605795099999995,-86.3534462,423.824,0.0,0.0,0.0,0.0,0.0,0,0,0,0
21775160000,0,41.6057923,-86.3534395,424.417,0.0,0.0,0.0,0.0,0.0,0,0,0,0
21775256000,0,41.605789699999995,-86.35343329999999,424.965,0.0,0.0,0.0,0.0,0.0,0,0,0,0
21775360000,0,41.605787,-86.3534269,425.535,0.0,0.0,0.0,0.0,0.0,0,0,0,0
21775456000,0,41.6057845,-86.3534207,426.083,0.0,0.0,0.0,0.0,0.0,0,0,0,0
21775556000,0,41.6057817,-86.3534141,426.676,0.0,0.0,0.0,0.0,0.0,0,0,0,0
21775660000,0,41.6057789,-86.3534074,427.27,0.0,0.0,0.0,0.0,0.0,0,0,0,0
21775760000,0,41.6057762,-86.35340099999999,427.84,0.0,0.0,0.0,0.0,0.0,0,0,0,0
21775856000,0,41.6057736,-86.35339479999999,428.388,0.0,0.0,0.0,0.0,0.0,0,0,0,0
21775960000,0,41.605770799999995,-86.35338809999999,428.981,0.0,0.0,0.0,0.0,0.0,0,0,0,0
21776056000,0,41.605768399999995,-86.3533822,429.506,0.0,0.0,0.0,0.0,0.0,0,0,0,0
21776160000,0,41.6057655,-86.3533753,430.122,0.0,0.0,0.0,0.0,0.0,0,0,0,0
21776260000,0,41.6057628,-86.35336889999999,430.693,0.0,0.0,0.0,0.0,0.0,0,0,0,0
21776360000,0,41.6057602,-86.35336269999999,431.241,0.0,0.0,0.0,0.0,0.0,0,0,0,0
21776460000,0,41.6057574,-86.3533561,431.834,0.0,0.0,0.0,0.0,0.0,0,0,0,0
21776556000,0,41.6057548,-86.3533499,432.382,0.0,0.0,0.0,0.0,0.0,0,0,0,0
21776656000,0,41.6057522,-86.35334379999999,432.929,0.0,0.0,0.0,0.0,0.0,0,0,0,0
21776756000,0,41.605749499999995,-86.35333709999999,433.523,0.0,0.0,0.0,0.0,0.0,0,0,0,0
21776856000,0,41.6057468,-86.3533307,434.093,0.0,0.0,0.0,0.0,0.0,0,0,0,0
21776956000,0,41.605744099999995,-86.3533243,434.664,0.0,0.0,0.0,0.0,0.0,0,0,0,0
21777056000,0,41.6057414,-86.3533179,435.234,0.0,0.0,0.0,0.0,0.0,0,0,0,0
21777160000,0,41.605738699999996,-86.35331149999999,435.805,0.0,0.0,0.0,0.0,0.0,0,0,0,0
21777260000,0,41.6057359,-86.35330479999999,436.398,0.0,0.0,0.0,0.0,0.0,0,0,0,0
21777360000,0,41.6057333,-86.3532984,436.968,0.0,0.0,0.0,0.0,0.0,0,0,0,0
21777460000,0,41.6057306,-86.353292,437.539,0.0,0.0,0.0,0.0,0.0,0,0,0,0
21777560000,0,41.6057279,-86.35328559999999,438.109,0.0,0.0,0.0,0.0,0.0,0,0,0,0
21777660000,0,41.605725199999995,-86.3532792,438.68,0.0,0.0,0.0,0.0,0.0,0,0,0,0
21777760000,0,41.6057226,-86.353273,439.227,0.0,0.0,0.0,0.0,0.0,0,0,0,0
21777856000,0,41.6057201,-86.3532669,439.775,0.0,0.0,0.0,0.0,0.0,0,0,0,0
21777960000,0,41.6057172,-86.35325999999999,440.391,0.0,0.0,0.0,0.0,0.0,0,0,0,0
21778060000,0,41.6057146,-86.35325379999999,440.938,0.0,0.0,0.0,0.0,0.0,0,0,0,0
21778160000,0,41.605711899999996,-86.3532474,441.509,0.0,0.0,0.0,0.0,0.0,0,0,0,0
21778260000,0,41.6057091,-86.3532407,442.102,0.0,0.0,0.0,0.0,0.0,0,0,0,0
21778360000,0,41.6057065,-86.3532343,442.672,0.0,0.0,0.0,0.0,0.0,0,0,0,0
21778456000,0,41.605703999999996,-86.35322839999999,443.197,0.0,0.0,0.0,0.0,0.0,0,0,0,0
21778556000,0,41.6057012,-86.3532218,443.791,0.0,0.0,0.0,0.0,0.0,0,0,0,0
21778656000,0,41.605698499999995,-86.3532154,444.361,0.0,0.0,0.0,0.0,0.0,0,0,0,0
21778760000,0,41.6056957,-86.3532087,444.954,0.0,0.0,0.0,0.0,0.0,0,0,0,0
21778860000,0,41.605693099999996,-86.35320229999999,445.525,0.0,0.0,0.0,0.0,0.0,0,0,0,0
21778960000,0,41.6056904,-86.3531959,446.095,0.0,0.0,0.0,0.0,0.0,0,0,0,0
21779060000,0,41.6056878,-86.3531898,446.643,0.0,0.0,0.0,0.0,0.0,0,0,0,0
21779160000,0,41.605685,-86.35318319999999,447.237,0.0,0.0,0.0,0.0,0.0,0,0,0,0
21779260000,0,41.6056824,-86.3531768,447.807,0.0,0.0,0.0,0.0,0.0,0,0,0,0
21779360000,0,41.605679699999996,-86.3531704,448.378,0.0,0.0,0.0,0.0,0.0,0,0,0,0
21779460000,0,41.605677,-86.35316399999999,448.949,0.0,0.0,0.0,0.0,0.0,0,0,0,0
21779560000,0,41.6056745,-86.35315779999999,449.496,0.0,0.0,0.0,0.0,0.0,0,0,0,0
21779660000,0,41.605671699999995,-86.3531512,450.09,0.0,0.0,0.0,0.0,0.0,0,0,0,0
21779760000,0,41.605669,-86.3531448,450.66,0.0,0.0,0.0,0.0,0.0,0,0,0,0
21779860000,0,41.6056664,-86.35313839999999,451.231,0.0,0.0,0.0,0.0,0.0,0,0,0,0
21779960000,0,41.605663799999995,-86.3531323,451.778,0.0,0.0,0.0,0.0,0.0,0,0,0,0
21780060000,0,41.6056611,-86.3531259,452.349,0.0,0.0,0.0,0.0,0.0,0,0,0,0
21780160000,0,41.605658399999996,-86.35311949999999,452.919,0.0,0.0,0.0,0.0,0.0,0,0,0,0
21780260000,0,41.6056558,-86.3531131,453.49,0.0,0.0,0.0,0.0,0.0,0,0,0,0
21780360000,0,41.605653,-86.3531065,454.083,0.0,0.0,0.0,0.0,0.0,0,0,0,0
21780460000,0,41.6056503,-86.35310009999999,454.653,0.0,0.0,0.0,0.0,0.0,0,0,0,0
21780560000,0,41.6056478,-86.353094,455.201,0.0,0.0,0.0,0.0,0.0,0,0,0,0
21780656000,0,41.6056451,-86.3530876,455.772,0.0,0.0,0.0,0.0,0.0,0,0,0,0
21780760000,0,41.6056424,-86.35308119999999,456.342,0.0,0.0,0.0,0.0,0.0,0,0,0,0
21780856000,0,41.6056399,-86.3530751,456.89,0.0,0.0,0.0,0.0,0.0,0,0,0,0
21780960000,0,41.605637099999996,-86.35306849999999,457.483,0.0,0.0,0.0,0.0,0.0,0,0,0,0
21781060000,0,41.6056344,-86.3530621,458.053,0.0,0.0,0.0,0.0,0.0,0,0,0,0
21781156000,0,41.605631699999996,-86.3530557,458.624,0.0,0.0,0.0,0.0,0.0,0,0,0,0
21781260000,0,41.6056289,-86.35304909999999,459.217,0.0,0.0,0.0,0.0,0.0,0,0,0,0
21781360000,0,41.6056264,-86.353043,459.764,0.0,0.0,0.0,0.0,0.0,0,0,0,0
21781456000,0,41.6056238,-86.3530368,460.312,0.0,0.0,0.0,0.0,0.0,0,0,0,0
21781560000,0,41.6056209,-86.3530299,460.928,0.0,0.0,0.0,0.0,0.0,0,0,0,0
21781660000,0,41.605618299999996,-86.3530236,461.498,0.0,0.0,0.0,0.0,0.0,0,0,0,0
21781760000,0,41.6056156,-86.3530172,462.069,0.0,0.0,0.0,0.0,0.0,0,0,0,0
21781856000,0,41.605613,-86.35301109999999,462.616,0.0,0.0,0.0,0.0,0.0,0,0,0,0
21781960000,0,41.605610399999996,-86.3530047,463.186,0.0,0.0,0.0,0.0,0.0,0,0,0,0
21782060000,0,41.6056076,-86.3529981,463.779,0.0,0.0,0.0,0.0,0.0,0,0,0,0
21782160000,0,41.605604899999996,-86.35299169999999,464.35,0.0,0.0,0.0,0.0,0.0,0,0,0,0
21782260000,0,41.605602399999995,-86.3529856,464.897,0.0,0.0,0.0,0.0,0.0,0,0,0,0
21782360000,0,41.6055996,-86.3529789,465.49,0.0,0.0,0.0,0.0,0.0,0,0,0,0
21782460000,0,41.605596899999995,-86.3529726,466.06,0.0,0.0,0.0,0.0,0.0,0,0,0,0
21782560000,0,41.6055944,-86.3529664,466.608,0.0,0.0,0.0,0.0,0.0,0,0,0,0
21782656000,0,41.6055917,-86.35296009999999,467.178,0.0,0.0,0.0,0.0,0.0,0,0,0,0
21782760000,0,41.6055889,-86.35295339999999,467.771,0.0,0.0,0.0,0.0,0.0,0,0,0,0
21782860000,0,41.6055863,-86.3529471,468.342,0.0,0.0,0.0,0.0,0.0,0,0,0,0
21782960000,0,41.605583599999996,-86.35294069999999,468.912,0.0,0.0,0.0,0.0,0.0,0,0,0,0
21783060000,0,41.605581,-86.3529343,469.482,0.0,0.0,0.0,0.0,0.0,0,0,0,0
21783156000,0,41.6055784,-86.3529282,470.03,0.0,0.0,0.0,0.0,0.0,0,0,0,0
21783260000,0,41.6055758,-86.35292179999999,470.6,0.0,0.0,0.0,0.0,0.0,0,0,0,0
21783356000,0,41.6055731,-86.3529155,471.17,0.0,0.0,0.0,0.0,0.0,0,0,0,0
21783456000,0,41.6055705,-86.3529094,471.718,0.0,0.0,0.0,0.0,0.0,0,0,0,0
21783560000,0,41.605567699999995,-86.3529025,472.333,0.0,0.0,0.0,0.0,0.0,0,0,0,0
21783660000,0,41.6055651,-86.35289639999999,472.881,0.0,0.0,0.0,0.0,0.0,0,0,0,0
21783756000,0,41.6055625,-86.35289,473.451,0.0,0.0,0.0,0.0,0.0,0,0,0,0
21783856000,0,41.605559899999996,-86.3528839,473.999,0.0,0.0,0.0,0.0,0.0,0,0,0,0
21783956000,0,41.6055571,-86.3528773,474.592,0.0,0.0,0.0,0.0,0.0,0,0,0,0
21784060000,0,41.605554399999995,-86.3528707,475.185,0.0,0.0,0.0,0.0,0.0,0,0,0,0
21784156000,0,41.6055518,-86.35286459999999,475.732,0.0,0.0,0.0,0.0,0.0,0,0,0,0
21784256000,0,41.6055492,-86.3528582,476.302,0.0,0.0,0.0,0.0,0.0,0,0,0,0
21784360000,0,41.605546499999996,-86.3528518,476.872,0.0,0.0,0.0,0.0,0.0,0,0,0,0
21784460000,0,41.6055438,-86.3528455,477.442,0.0,0.0,0.0,0.0,0.0,0,0,0,0
21784560000,0,41.605541099999996,-86.3528389,478.035,0.0,0.0,0.0,0.0,0.0,0,0,0,0
21784660000,0,41.6055384,-86.35283249999999,478.605,0.0,0.0,0.0,0.0,0.0,0,0,0,0
21784760000,0,41.6055358,-86.3528261,479.175,0.0,0.0,0.0,0.0,0.0,0,0,0,0
21784856000,0,41.605533199999996,-86.35282,479.723,0.0,0.0,0.0,0.0,0.0,0,0,0,0
21784956000,0,41.605530699999996,-86.3528139,480.27,0.0,0.0,0.0,0.0,0.0,0,0,0,0
21785056000,0,41.605528,-86.35280759999999,480.84,0.0,0.0,0.0,0.0,0.0,0,0,0,0
21785156000,0,41.6055253,-86.3528012,481.41,0.0,0.0,0.0,0.0,0.0,0,0,0,0
21785260000,0,41.6055225,-86.3527944,482.025,0.0,0.0,0.0,0.0,0.0,0,0,0,0
21785360000,0,41.6055199,-86.3527883,482.573,0.0,0.0,0.0,0.0,0.0,0,0,0,0
21785460000,0,41.6055171,-86.3527817,483.165,0.0,0.0,0.0,0.0,0.0,0,0,0,0
21785560000,0,41.6055146,-86.3527756,483.713,0.0,0.0,0.0,0.0,0.0,0,0,0,0
21785660000,0,41.605511799999995,-86.352769,484.305,0.0,0.0,0.0,0.0,0.0,0,0,0,0
21785760000,0,41.6055093,-86.3527629,484.852,0.0,0.0,0.0,0.0,0.0,0,0,0,0
21785856000,0,41.6055067,-86.3527568,485.399,0.0,0.0,0.0,0.0,0.0,0,0,0,0
21785960000,0,41.605503999999996,-86.3527501,485.992,0.0,0.0,0.0,0.0,0.0,0,0,0,0
21786060000,0,41.6055013,-86.3527438,486.562,0.0,0.0,0.0,0.0,0.0,0,0,0,0
21786160000,0,41.6054986,-86.3527374,487.132,0.0,0.0,0.0,0.0,0.0,0,0,0,0
21786260000,0,41.6054959,-86.35273079999999,487.724,0.0,0.0,0.0,0.0,0.0,0,0,0,0
21786356000,0,41.6054933,-86.3527247,488.271,0.0,0.0,0.0,0.0,0.0,0,0,0,0
21786456000,0,41.6054907,-86.3527184,488.841,0.0,0.0,0.0,0.0,0.0,0,0,0,0
21786556000,0,41.605488,-86.352712,489.411,0.0,0.0,0.0,0.0,0.0,0,0,0,0
21786660000,0,41.6054853,-86.35270539999999,490.003,0.0,0.0,0.0,0.0,0.0,0,0,0,0
21786756000,0,41.605482699999996,-86.3526993,490.55,0.0,0.0,0.0,0.0,0.0,0,0,0,0
21786856000,0,41.605480199999995,-86.35269319999999,491.097,0.0,0.0,0.0,0.0,0.0,0,0,0,0
21786960000,0,41.6054774,-86.3526866,491.69,0.0,0.0,0.0,0.0,0.0,0,0,0,0
21787060000,0,41.6054746,-86.35267999999999,492.282,0.0,0.0,0.0,0.0,0.0,0,0,0,0
21787156000,0,41.6054721,-86.3526739,492.829,0.0,0.0,0.0,0.0,0.0,0,0,0,0
21787260000,0,41.6054694,-86.35266759999999,493.399,0.0,0.0,0.0,0.0,0.0,0,0,0,0
21787356000,0,41.6054667,-86.3526612,493.969,0.0,0.0,0.0,0.0,0.0,0,0,0,0
21787456000,0,41.6054642,-86.3526552,494.516,0.0,0.0,0.0,0.0,0.0,0,0,0,0
21787556000,0,41.605461399999996,-86.3526486,495.108,0.0,0.0,0.0,0.0,0.0,0,0,0,0
21787660000,0,41.6054587,-86.352642,495.7,0.0,0.0,0.0,0.0,0.0,0,0,0,0
21787760000,0,41.6054561,-86.3526359,496.247,0.0,0.0,0.0,0.0,0.0,0,0,0,0
21787860000,0,41.6054533,-86.35262929999999,496.84,0.0,0.0,0.0,0.0,0.0,0,0,0,0
21787960000,0,41.6054508,-86.3526232,497.386,0.0,0.0,0.0,0.0,0.0,0,0,0,0
21788056000,0,41.6054482,-86.35261709999999,497.933,0.0,0.0,0.0,0.0,0.0,0,0,0,0
21788156000,0,41.605445499999995,-86.3526105,498.525,0.0,0.0,0.0,0.0,0.0,0,0,0,0
21788260000,0,41.6054427,-86.35260389999999,499.118,0.0,0.0,0.0,0.0,0.0,0,0,0,0
21788360000,0,41.605440099999996,-86.3525975,499.687,0.0,0.0,0.0,0.0,0.0,0,0,0,0
21788460000,0,41.6054375,-86.3525914,500.234,0.0,0.0,0.0,0.0,0.0,0,0,0,0
21788560000,0,41.6054348,-86.35258499999999,500.804,0.0,0.0,0.0,0.0,0.0,0,0,0,0
21788660000,0,41.6054321,-86.3525784,501.396,0.0,0.0,0.0,0.0,0.0,0,0,0,0
21788760000,0,41.6054295,-86.35257229999999,501.943,0.0,0.0,0.0,0.0,0.0,0,0,0,0
21788860000,0,41.6054269,-86.352566,502.512,0.0,0.0,0.0,0.0,0.0,0,0,0,0
21788956000,0,41.6054242,-86.35255959999999,503.082,0.0,0.0,0.0,0.0,0.0,0,0,0,0
21789060000,0,41.6054215,-86.352553,503.674,0.0,0.0,0.0,0.0,0.0,0,0,0,0
21789160000,0,41.605418799999995,-86.35254669999999,504.243,0.0,0.0,0.0,0.0,0.0,0,0,0,0
21789260000,0,41.6054162,-86.3525403,504.813,0.0,0.0,0.0,0.0,0.0,0,0,0,0
21789360000,0,41.6054135,-86.35253399999999,505.382,0.0,0.0,0.0,0.0,0.0,0,0,0,0
21789456000,0,41.605411,-86.3525279,505.929,0.0,0.0,0.0,0.0,0.0,0,0,0,0
21789556000,0,41.6054083,-86.3525215,506.498,0.0,0.0,0.0,0.0,0.0,0,0,0,0
21789656000,0,41.6054058,-86.3525154,507.045,0.0,0.0,0.0,0.0,0.0,0,0,0,0
21789756000,0,41.605402999999995,-86.3525088,507.637,0.0,0.0,0.0,0.0,0.0,0,0,0,0
21789860000,0,41.6054003,-86.35250219999999,508.229,0.0,0.0,0.0,0.0,0.0,0,0,0,0
21789960000,0,41.6053977,-86.3524961,508.776,0.0,0.0,0.0,0.0,0.0,0,0,0,0
21790060000,0,41.605395,-86.35248949999999,509.368,0.0,0.0,0.0,0.0,0.0,0,0,0,0
21790160000,0,41.6053923,-86.3524831,509.937,0.0,0.0,0.0,0.0,0.0,0,0,0,0
21790260000,0,41.605389699999996,-86.3524767,510.507,0.0,0.0,0.0,0.0,0.0,0,0,0,0
21790356000,0,41.6053871,-86.35247059999999,511.053,0.0,0.0,0.0,0.0,0.0,0,0,0,0
21790456000,0,41.6053845,-86.3524643,511.623,0.0,0.0,0.0,0.0,0.0,0,0,0,0
21790556000,0,41.605381799999996,-86.35245789999999,512.192,0.0,0.0,0.0,0.0,0.0,0,0,0,0
21790660000,0,41.6053791,-86.3524513,512.784,0.0,0.0,0.0,0.0,0.0,0,0,0,0
21790756000,0,41.6053765,-86.35244519999999,513.331,0.0,0.0,0.0,0.0,0.0,0,0,0,0
21790860000,0,41.6053739,-86.3524388,513.901,0.0,0.0,0.0,0.0,0.0,0,0,0,0
21790960000,0,41.6053713,-86.35243249999999,514.47,0.0,0.0,0.0,0.0,0.0,0,0,0,0
21791060000,0,41.6053685,-86.35242579999999,515.062,0.0,0.0,0.0,0.0,0.0,0,0,0,0
21791156000,0,41.6053661,-86.35242,515.586,0.0,0.0,0.0,0.0,0.0,0,0,0,0
21791260000,0,41.6053633,-86.35241339999999,516.179,0.0,0.0,0.0,0.0,0.0,0,0,0,0
21791360000,0,41.6053606,-86.3524068,516.771,0.0,0.0,0.0,0.0,0.0,0,0,0,0
21791456000,0,41.6053582,-86.35240089999999,517.295,0.0,0.0,0.0,0.0,0.0,0,0,0,0
21791560000,0,41.6053553,-86.35239399999999,517.91,0.0,0.0,0.0,0.0,0.0,0,0,0,0
21791660000,0,41.6053527,-86.3523877,518.479,0.0,0.0,0.0,0.0,0.0,0,0,0,0
21791760000,0,41.60535,-86.35238129999999,519.049,0.0,0.0,0.0,0.0,0.0,0,0,0,0
21791856000,0,41.605347599999995,-86.3523755,519.573,0.0,0.0,0.0,0.0,0.0,0,0,0,0
21791956000,0,41.6053448,-86.3523689,520.165,0.0,0.0,0.0,0.0,0.0,0,0,0,0
21792056000,0,41.605342199999996,-86.3523625,520.735,0.0,0.0,0.0,0.0,0.0,0,0,0,0
21792156000,0,41.6053395,-86.3523561,521.304,0.0,0.0,0.0,0.0,0.0,0,0,0,0
21792260000,0,41.605336799999996,-86.3523495,521.897,0.0,0.0,0.0,0.0,0.0,0,0,0,0
21792360000,0,41.605334299999996,-86.3523434,522.443,0.0,0.0,0.0,0.0,0.0,0,0,0,0
21792456000,0,41.6053316,-86.35233699999999,523.013,0.0,0.0,0.0,0.0,0.0,0,0,0,0
21792556000,0,41.605329,-86.3523307,523.583,0.0,0.0,0.0,0.0,0.0,0,0,0,0
21792656000,0,41.605326399999996,-86.3523246,524.129,0.0,0.0,0.0,0.0,0.0,0,0,0,0
21792756000,0,41.6053238,-86.3523182,524.699,0.0,0.0,0.0,0.0,0.0,0,0,0,0
21792860000,0,41.605320899999995,-86.3523113,525.314,0.0,0.0,0.0,0.0,0.0,0,0,0,0
21792960000,0,41.6053183,-86.352305,525.884,0.0,0.0,0.0,0.0,0.0,0,0,0,0
21793060000,0,41.6053157,-86.3522986,526.453,0.0,0.0,0.0,0.0,0.0,0,0,0,0
21793160000,0,41.605312999999995,-86.3522922,527.023,0.0,0.0,0.0,0.0,0.0,0,0,0,0
21793260000,0,41.6053105,-86.3522861,527.569,0.0,0.0,0.0,0.0,0.0,0,0,0,0
21793356000,0,41.6053079,-86.35228,528.116,0.0,0.0,0.0,0.0,0.0,0,0,0,0
21793456000,0,41.6053053,-86.35227359999999,528.686,0.0,0.0,0.0,0.0,0.0,0,0,0,0
21793560000,0,41.6053024,-86.3522668,529.301,0.0,0.0,0.0,0.0,0.0,0,0,0,0
21793660000,0,41.6052998,-86.35226039999999,529.87,0.0,0.0,0.0,0.0,0.0,0,0,0,0
21793760000,0,41.605297199999995,-86.352254,530.44,0.0,0.0,0.0,0.0,0.0,0,0,0,0
21793860000,0,41.6052945,-86.35224769999999,531.009,0.0,0.0,0.0,0.0,0.0,0,0,0,0
21793956000,0,41.6052921,-86.3522418,531.533,0.0,0.0,0.0,0.0,0.0,0,0,0,0
21794056000,0,41.605289299999995,-86.3522352,532.126,0.0,0.0,0.0,0.0,0.0,0,0,0,0
21794160000,0,41.6052867,-86.35222879999999,532.695,0.0,0.0,0.0,0.0,0.0,0,0,0,0
21794256000,0,41.6052841,-86.3522224,533.264,0.0,0.0,0.0,0.0,0.0,0,0,0,0
21794356000,0,41.605281399999996,-86.35221609999999,533.834,0.0,0.0,0.0,0.0,0.0,0,0,0,0
21794456000,0,41.6052788,-86.3522097,534.403,0.0,0.0,0.0,0.0,0.0,0,0,0,0
21794556000,0,41.6052761,-86.3522033,534.973,0.0,0.0,0.0,0.0,0.0,0,0,0,0
21794656000,0,41.6052736,-86.35219719999999,535.52,0.0,0.0,0.0,0.0,0.0,0,0,0,0
21794760000,0,41.6052709,-86.3521906,536.112,0.0,0.0,0.0,0.0,0.0,0,0,0,0
21794860000,0,41.605268099999996,-86.352184,536.704,0.0,0.0,0.0,0.0,0.0,0,0,0,0
21794956000,0,41.605265599999996,-86.35217779999999,537.251,0.0,0.0,0.0,0.0,0.0,0,0,0,0
21795060000,0,41.605263,-86.3521715,537.82,0.0,0.0,0.0,0.0,0.0,0,0,0,0
21795160000,0,41.6052602,-86.3521648,538.413,0.0,0.0,0.0,0.0,0.0,0,0,0,0
21795256000,0,41.6052578,-86.352159,538.936,0.0,0.0,0.0,0.0,0.0,0,0,0,0
21795360000,0,41.605255,-86.3521521,539.551,0.0,0.0,0.0,0.0,0.0,0,0,0,0
21795456000,0,41.6052524,-86.3521459,540.098,0.0,0.0,0.0,0.0,0.0,0,0,0,0
21795560000,0,41.6052497,-86.35213929999999,540.69,0.0,0.0,0.0,0.0,0.0,0,0,0,0
21795656000,0,41.6052472,-86.3521332,541.237,0.0,0.0,0.0,0.0,0.0,0,0,0,0
21795756000,0,41.6052446,-86.35212709999999,541.784,0.0,0.0,0.0,0.0,0.0,0,0,0,0
21795860000,0,41.605241899999996,-86.35212039999999,542.376,0.0,0.0,0.0,0.0,0.0,0,0,0,0
21795960000,0,41.6052393,-86.352114,542.945,0.0,0.0,0.0,0.0,0.0,0,0,0,0
21796060000,0,41.6052365,-86.3521074,543.538,0.0,0.0,0.0,0.0,0.0,0,0,0,0
21796156000,0,41.605233999999996,-86.3521013,544.085,0.0,0.0,0.0,0.0,0.0,0,0,0,0
21796256000,0,41.6052314,-86.3520949,544.654,0.0,0.0,0.0,0.0,0.0,0,0,0,0
21796360000,0,41.6052286,-86.35208829999999,545.247,0.0,0.0,0.0,0.0,0.0,0,0,0,0
21796460000,0,41.605226099999996,-86.3520822,545.794,0.0,0.0,0.0,0.0,0.0,0,0,0,0
21796556000,0,41.6052235,-86.3520758,546.363,0.0,0.0,0.0,0.0,0.0,0,0,0,0
21796656000,0,41.6052209,-86.35206939999999,546.933,0.0,0.0,0.0,0.0,0.0,0,0,0,0
21796760000,0,41.605218099999995,-86.3520628,547.525,0.0,0.0,0.0,0.0,0.0,0,0,0,0
21796860000,0,41.6052156,-86.3520566,548.072,0.0,0.0,0.0,0.0,0.0,0,0,0,0
21796960000,0,41.6052129,-86.35204999999999,548.664,0.0,0.0,0.0,0.0,0.0,0,0,0,0
21797060000,0,41.6052104,-86.3520439,549.211,0.0,0.0,0.0,0.0,0.0,0,0,0,0
21797160000,0,41.6052077,-86.3520375,549.781,0.0,0.0,0.0,0.0,0.0,0,0,0,0
21797260000,0,41.605205,-86.3520309,550.373,0.0,0.0,0.0,0.0,0.0,0,0,0,0
21797356000,0,41.6052025,-86.3520248,550.92,0.0,0.0,0.0,0.0,0.0,0,0,0,0
21797460000,0,41.6051997,-86.3520181,551.513,0.0,0.0,0.0,0.0,0.0,0,0,0,0
21797560000,0,41.6051972,-86.352012,552.059,0.0,0.0,0.0,0.0,0.0,0,0,0,0
21797660000,0,41.6051946,-86.3520056,552.629,0.0,0.0,0.0,0.0,0.0,0,0,0,0
21797760000,0,41.6051919,-86.35199899999999,553.221,0.0,0.0,0.0,0.0,0.0,0,0,0,0
21797860000,0,41.6051892,-86.3519926,553.791,0.0,0.0,0.0,0.0,0.0,0,0,0,0
21797960000,0,41.605186599999996,-86.3519862,554.36,0.0,0.0,0.0,0.0,0.0,0,0,0,0
21798060000,0,41.605184099999995,-86.35198009999999,554.907,0.0,0.0,0.0,0.0,0.0,0,0,0,0
21798160000,0,41.6051813,-86.35197339999999,555.499,0.0,0.0,0.0,0.0,0.0,0,0,0,0
21798260000,0,41.605178699999996,-86.3519671,556.069,0.0,0.0,0.0,0.0,0.0,0,0,0,0
21798360000,0,41.6051761,-86.35196069999999,556.638,0.0,0.0,0.0,0.0,0.0,0,0,0,0
21798460000,0,41.6051735,-86.3519543,557.208,0.0,0.0,0.0,0.0,0.0,0,0,0,0
21798560000,0,41.605170799999996,-86.3519479,557.778,0.0,0.0,0.0,0.0,0.0,0,0,0,0
21798660000,0,41.6051682,-86.3519415,558.347,0.0,0.0,0.0,0.0,0.0,0,0,0,0
21798760000,0,41.6051657,-86.3519354,558.894,0.0,0.0,0.0,0.0,0.0,0,0,0,0
21798860000,0,41.6051631,-86.351929,559.463,0.0,0.0,0.0,0.0,0.0,0,0,0,0
21798960000,0,41.6051603,-86.35192239999999,560.056,0.0,0.0,0.0,0.0,0.0,0,0,0,0
21799056000,0,41.6051578,-86.3519163,560.602,0.0,0.0,0.0,0.0,0.0,0,0,0,0
21799156000,0,41.6051553,-86.3519101,561.149,0.0,0.0,0.0,0.0,0.0,0,0,0,0
21799260000,0,41.605152499999996,-86.35190349999999,561.741,0.0,0.0,0.0,0.0,0.0,0,0,0,0
21799356000,0,41.605149999999995,-86.3518974,562.288,0.0,0.0,0.0,0.0,0.0,0,0,0,0
21799456000,0,41.6051474,-86.351891,562.858,0.0,0.0,0.0,0.0,0.0,0,0,0,0
21799556000,0,41.6051447,-86.3518844,563.45,0.0,0.0,0.0,0.0,0.0,0,0,0,0
21799660000,0,41.605142,-86.351878,564.02,0.0,0.0,0.0,0.0,0.0,0,0,0,0
21799760000,0,41.6051393,-86.3518714,564.612,0.0,0.0,0.0,0.0,0.0,0,0,0,0
21799860000,0,41.605136699999996,-86.35186499999999,565.182,0.0,0.0,0.0,0.0,0.0,0,0,0,0
21799960000,0,41.6051341,-86.3518589,565.729,0.0,0.0,0.0,0.0,0.0,0,0,0,0
21800056000,0,41.6051316,-86.3518527,566.276,0.0,0.0,0.0,0.0,0.0,0,0,0,0
21800160000,0,41.605128799999996,-86.35184579999999,566.891,0.0,0.0,0.0,0.0,0.0,0,0,0,0
21800260000,0,41.6051262,-86.3518395,567.46,0.0,0.0,0.0,0.0,0.0,0,0,0,0
21800360000,0,41.6051235,-86.3518331,568.03,0.0,0.0,0.0,0.0,0.0,0,0,0,0
21800460000,0,41.605121,-86.35182689999999,568.577,0.0,0.0,0.0,0.0,0.0,0,0,0,0
21800560000,0,41.605118399999995,-86.3518206,569.146,0.0,0.0,0.0,0.0,0.0,0,0,0,0
21800660000,0,41.6051157,-86.35181419999999,569.716,0.0,0.0,0.0,0.0,0.0,0,0,0,0
21800760000,0,41.605112999999996,-86.3518076,570.308,0.0,0.0,0.0,0.0,0.0,0,0,0,0
21800860000,0,41.6051104,-86.3518012,570.878,0.0,0.0,0.0,0.0,0.0,0,0,0,0
21800956000,0,41.6051078,-86.35179509999999,571.424,0.0,0.0,0.0,0.0,0.0,0,0,0,0
21801060000,0,41.605105099999996,-86.35178839999999,572.017,0.0,0.0,0.0,0.0,0.0,0,0,0,0
21801160000,0,41.605102599999995,-86.3517823,572.564,0.0,0.0,0.0,0.0,0.0,0,0,0,0
21801260000,0,41.6050998,-86.35177569999999,573.156,0.0,0.0,0.0,0.0,0.0,0,0,0,0
21801356000,0,41.6050973,-86.3517695,573.703,0.0,0.0,0.0,0.0,0.0,0,0,0,0
21801460000,0,41.6050946,-86.3517629,574.295,0.0,0.0,0.0,0.0,0.0,0,0,0,0
21801560000,0,41.6050919,-86.3517565,574.865,0.0,0.0,0.0,0.0,0.0,0,0,0,0
21801660000,0,41.6050894,-86.3517504,575.412,0.0,0.0,0.0,0.0,0.0,0,0,0,0
21801760000,0,41.605086799999995,-86.35174409999999,575.981,0.0,0.0,0.0,0.0,0.0,0,0,0,0
21801860000,0,41.6050841,-86.3517377,576.551,0.0,0.0,0.0,0.0,0.0,0,0,0,0
21801960000,0,41.605081399999996,-86.351731,577.143,0.0,0.0,0.0,0.0,0.0,0,0,0,0
21802060000,0,41.605078899999995,-86.3517249,577.69,0.0,0.0,0.0,0.0,0.0,0,0,0,0
21802156000,0,41.6050763,-86.3517188,578.237,0.0,0.0,0.0,0.0,0.0,0,0,0,0
21802260000,0,41.6050736,-86.3517122,578.83,0.0,0.0,0.0,0.0,0.0,0,0,0,0
21802360000,0,41.6050709,-86.3517056,579.422,0.0,0.0,0.0,0.0,0.0,0,0,0,0
21802460000,0,41.6050682,-86.3516992,579.992,0.0,0.0,0.0,0.0,0.0,0,0,0,0
21802560000,0,41.605065599999996,-86.3516928,580.561,0.0,0.0,0.0,0.0,0.0,0,0,0,0
21802660000,0,41.605063,-86.35168639999999,581.131,0.0,0.0,0.0,0.0,0.0,0,0,0,0
21802756000,0,41.6050604,-86.3516803,581.678,0.0,0.0,0.0,0.0,0.0,0,0,0,0
21802860000,0,41.605057699999996,-86.35167369999999,582.271,0.0,0.0,0.0,0.0,0.0,0,0,0,0
21802956000,0,41.6050553,-86.3516678,582.795,0.0,0.0,0.0,0.0,0.0,0,0,0,0
21803060000,0,41.6050524,-86.351661,583.41,0.0,0.0,0.0,0.0,0.0,0,0,0,0
21803156000,0,41.6050499,-86.35165479999999,583.957,0.0,0.0,0.0,0.0,0.0,0,0,0,0
21803260000,0,41.605047299999995,-86.3516485,584.527,0.0,0.0,0.0,0.0,0.0,0,0,0,0
21803356000,0,41.6050446,-86.35164209999999,585.096,0.0,0.0,0.0,0.0,0.0,0,0,0,0
21803456000,0,41.605042,-86.3516357,585.666,0.0,0.0,0.0,0.0,0.0,0,0,0,0
21803560000,0,41.605039399999995,-86.3516294,586.236,0.0,0.0,0.0,0.0,0.0,0,0,0,0
21803660000,0,41.6050367,-86.3516227,586.828,0.0,0.0,0.0,0.0,0.0,0,0,0,0
21803760000,0,41.605033999999996,-86.3516164,587.398,0.0,0.0,0.0,0.0,0.0,0,0,0,0
21803860000,0,41.6050314,-86.35161,587.968,0.0,0.0,0.0,0.0,0.0,0,0,0,0
21803960000,0,41.6050288,-86.35160359999999,588.538,0.0,0.0,0.0,0.0,0.0,0,0,0,0
21804060000,0,41.605026099999996,-86.3515973,589.108,0.0,0.0,0.0,0.0,0.0,0,0,0,0
21804156000,0,41.605023599999996,-86.3515912,589.655,0.0,0.0,0.0,0.0,0.0,0,0,0,0
21804260000,0,41.6050209,-86.3515846,590.247,0.0,0.0,0.0,0.0,0.0,0,0,0,0
21804360000,0,41.605018199999996,-86.35157819999999,590.817,0.0,0.0,0.0,0.0,0.0,0,0,0,0
21804456000,0,41.605015699999996,-86.3515721,591.365,0.0,0.0,0.0,0.0,0.0,0,0,0,0
21804556000,0,41.605013199999995,-86.35156599999999,591.912,0.0,0.0,0.0,0.0,0.0,0,0,0,0
21804656000,0,41.6050105,-86.3515594,592.505,0.0,0.0,0.0,0.0,0.0,0,0,0,0
