timestamp,timestamp_sample,gyro_device_id,gyro_bias[0],gyro_bias[1],gyro_bias[2],gyro_bias_limit,gyro_bias_variance[0],gyro_bias_variance[1],gyro_bias_variance[2],accel_device_id,accel_bias[0],accel_bias[1],accel_bias[2],accel_bias_limit,accel_bias_variance[0],accel_bias_variance[1],accel_bias_variance[2],mag_device_id,mag_bias[0],mag_bias[1],mag_bias[2],mag_bias_limit,mag_bias_variance[0],mag_bias_variance[1],mag_bias_variance[2],gyro_bias_valid,gyro_bias_stable,accel_bias_valid,accel_bias_stable,mag_bias_valid,mag_bias_stable
21726064000,21725984000,1310996,0.0010989633,8.238256e-05,-0.0002515601,0.34906584,1.3784023e-07,1.3784046e-07,3.591942e-07,1310996,-0.01539941,-0.001605103,-0.027624337,0.4,0.0013608601,0.0013678733,0.00078123936,197644,0.012141713,-0.0051024673,-0.0013442534,0.5,1.8456873e-05,4.243593e-05,5.22241e-05,1,1,1,0,1,0
21726688000,21726608000,1310996,0.0010705977,9.218564e-05,-0.00025084146,0.34906584,1.3783477e-07,1.3783672e-07,3.5907777e-07,1310996,-0.015403838,-0.0015996675,-0.029772496,0.4,0.0013609022,0.0013679154,0.00078123936,197644,0.012141713,-0.0051024673,-0.0013442534,0.5,1.8456873e-05,4.243593e-05,5.22241e-05,1,1,1,0,1,0
21727312000,21727232000,1310996,0.0010497929,0.00010036727,-0.00024800363,0.34906584,1.3783333e-07,1.3783612e-07,3.589661e-07,1310996,-0.01540871,-0.0015978502,-0.03109868,0.4,0.0013609461,0.0013679585,0.00078123936,197644,0.012141713,-0.0051024673,-0.0013442534,0.5,1.8456873e-05,4.243593e-05,5.22241e-05,1,1,1,0,1,0
21727520000,21727440000,1310996,0.001044829,0.00010100484,-0.00025322463,0.34906584,1.3783148e-07,1.3783452e-07,3.5892958e-07,1310996,-0.015409095,-0.0015961865,-0.032187007,0.4,0.0013609607,0.001367973,0.00078123936,197644,0.012141713,-0.0051024673,-0.0013442534,0.5,1.8456873e-05,4.243593e-05,5.22241e-05,1,1,1,0,1,0
21728520000,21728440000,1310996,0.0010209226,0.00010791101,-0.00024921907,0.34906584,1.3917696e-07,1.3918086e-07,3.5899217e-07,1310996,-0.015412515,-0.0015976869,-0.032348953,0.4,0.0013610299,0.0013680428,0.0007812457,197644,0.012141713,-0.0051024673,-0.0013442534,0.5,1.8456873e-05,4.243593e-05,5.22241e-05,1,1,1,0,1,0
21729184000,21729104000,1310996,0.0009878653,0.00010515876,-0.0002522129,0.34906584,1.3783885e-07,1.3784503e-07,3.5920152e-07,1310996,-0.015415021,-0.0016033367,-0.030528693,0.4,0.0013610759,0.0013680884,0.00078123936,197644,0.012141713,-0.0051024673,-0.0013442534,0.5,1.8456873e-05,4.243593e-05,5.22241e-05,1,1,1,0,1,0
21729392000,21729312000,1310996,0.000984858,0.00010484126,-0.0002517918,0.34906584,1.3784116e-07,1.378472e-07,3.591668e-07,1310996,-0.015414523,-0.0016049432,-0.02924961,0.4,0.0013610903,0.001368103,0.00078123936,197644,0.012141713,-0.0051024673,-0.0013442534,0.5,1.8456873e-05,4.243593e-05,5.22241e-05,1,1,1,0,1,0
21729600000,21729520000,1310996,0.00097627356,0.00010241089,-0.0002535427,0.34906584,1.3783678e-07,1.378435e-07,3.5913072e-07,1310996,-0.0154133225,-0.0016023115,-0.030751944,0.4,0.0013611045,0.0013681168,0.00078123936,197644,0.012141713,-0.0051024673,-0.0013442534,0.5,1.8456873e-05,4.243593e-05,5.22241e-05,1,1,1,0,1,0
21729808000,21729728000,1310996,0.0009655521,9.639144e-05,-0.0002547164,0.34906584,1.3783865e-07,1.3784658e-07,3.5909295e-07,1310996,-0.015411258,-0.0016027448,-0.029550985,0.4,0.0013611186,0.0013681307,0.00078123936,197644,0.012141713,-0.0051024673,-0.0013442534,0.5,1.8456873e-05,4.243593e-05,5.22241e-05,1,1,1,0,1,0
21730016000,21729936000,1310996,0.00096301886,9.085651e-05,-0.00025415857,0.34906584,1.3782731e-07,1.3783527e-07,3.5905717e-07,1310996,-0.015411374,-0.0015973807,-0.03435745,0.4,0.0013611286,0.001368141,0.00078123936,197644,0.012141713,-0.0051024673,-0.0013442534,0.5,1.8456873e-05,4.243593e-05,5.22241e-05,1,1,1,0,1,0
21730432000,21730352000,1310996,0.00096841383,9.054836e-05,-0.00025348942,0.34906584,1.378337e-07,1.3783968e-07,3.5897972e-07,1310996,-0.015412811,-0.0015986236,-0.03247393,0.4,0.0013611566,0.0013681684,0.00078123936,197644,0.012141713,-0.0051024673,-0.0013442534,0.5,1.8456873e-05,4.243593e-05,5.22241e-05,1,1,1,0,1,0
21730848000,21730768000,1310996,0.00096878194,9.066534e-05,-0.00025261566,0.34906584,1.378314e-07,1.3783632e-07,3.589091e-07,1310996,-0.015411862,-0.0015984696,-0.033998318,0.4,0.0013611851,0.0013681978,0.00078123936,197644,0.012141713,-0.0051024673,-0.0013442534,0.5,1.8456873e-05,4.243593e-05,5.22241e-05,1,1,1,0,1,0
21731264000,21731184000,1310996,0.0009717738,8.099099e-05,-0.00025388054,0.34906584,1.3783553e-07,1.3783999e-07,3.5883954e-07,1310996,-0.015412193,-0.0015975276,-0.032200653,0.4,0.0013612132,0.0013682268,0.00078123936,197644,0.012141713,-0.0051024673,-0.0013442534,0.5,1.8456873e-05,4.243593e-05,5.22241e-05,1,1,1,0,1,0
21732264000,21732184000,1310996,0.00097413023,8.217044e-05,-0.0002473149,0.34906584,1.3917872e-07,1.3918147e-07,3.5890844e-07,1310996,-0.015413093,-0.0015983748,-0.031874422,0.4,0.001361281,0.001368296,0.00078124227,197644,0.012141713,-0.0051024673,-0.0013442534,0.5,1.8456873e-05,4.243593e-05,5.22241e-05,1,1,1,0,1,0
21732304000,21732224000,1310996,0.0009830528,8.27859e-05,-0.0002469976,0.34906584,1.3784165e-07,1.3784334e-07,3.586605e-07,1310996,-0.015416489,-0.001598344,-0.02927668,0.4,0.0013612827,0.0013682967,0.00078123936,197644,0.012141713,-0.0051024673,-0.0013442534,0.5,1.8456873e-05,4.243593e-05,5.22241e-05,1,1,1,0,1,0
21732512000,21732432000,1310996,0.0009782101,9.381235e-05,-0.00024700508,0.34906584,1.3785171e-07,1.3785285e-07,3.586241e-07,1310996,-0.015418113,-0.0016025535,-0.024461694,0.4,0.0013612926,0.0013683073,0.00078123936,197644,0.012141713,-0.0051024673,-0.0013442534,0.5,1.8456873e-05,4.243593e-05,5.22241e-05,1,1,1,0,1,0
21732720000,21732640000,1310996,0.00097448286,0.00010664099,-0.00024706958,0.34906584,1.3785603e-07,1.378563e-07,3.5858739e-07,1310996,-0.015418109,-0.0016036119,-0.021703372,0.4,0.0013613055,0.0013683211,0.00078123936,197644,0.012141713,-0.0051024673,-0.0013442534,0.5,1.8456873e-05,4.243593e-05,5.22241e-05,1,1,1,0,1,0
21732928000,21732848000,1310996,0.000976563,0.00011279219,-0.0002460442,0.34906584,1.378571e-07,1.378566e-07,3.5855615e-07,1310996,-0.015418456,-0.0016039463,-0.019767938,0.4,0.00136132,0.0013683358,0.00078123936,197644,0.012141713,-0.0051024673,-0.0013442534,0.5,1.8456873e-05,4.243593e-05,5.22241e-05,1,1,1,0,1,0
21733928000,21733848000,1310996,0.0009774512,0.00011301177,-0.00025502074,0.34906584,1.4565765e-07,1.4565707e-07,3.5920962e-07,1310996,-0.01541918,-0.0016040469,-0.01956898,0.4,0.0013613912,0.0013684067,0.0007812417,197644,0.012141713,-0.0051024673,-0.0013442534,0.5,1.8456873e-05,4.243593e-05,5.22241e-05,1,0,1,0,1,0
21734824000,21734744000,1310996,0.0009769906,0.000116921445,-0.0002535348,0.34906584,1.5109521e-07,1.5109443e-07,3.5901692e-07,1310996,-0.015355632,-0.0016002991,-0.02074391,0.4,0.0013608531,0.001367863,0.00078123936,197644,0.012141713,-0.0051024673,-0.0013442534,0.5,1.8456873e-05,4.243593e-05,5.22241e-05,1,0,1,0,1,0
21735240000,21735160000,1310996,0.0009751767,0.00011906066,-0.00025397306,0.34906584,1.5263359e-07,1.52633e-07,3.589445e-07,1310996,-0.015322272,-0.0015579486,-0.019744072,0.4,0.0013601815,0.0013671851,0.00078123936,197644,0.012141713,-0.0051024673,-0.0013442534,0.5,1.8456873e-05,4.243593e-05,5.22241e-05,1,0,1,0,1,0
21735816000,21735736000,1310996,0.0009728486,0.00012531174,-0.00025525934,0.34906584,1.550299e-07,1.5502955e-07,3.6185108e-07,1310996,-0.01536551,-0.0015610255,-0.018511476,0.4,0.0013592289,0.0013662233,0.00078123936,197644,0.012141713,-0.0051024673,-0.0013442534,0.5,0.0025000002,0.0025000002,0.0025000002,1,0,1,0,1,0
21736024000,21735944000,1310996,0.0009705094,0.0001289888,-0.0002551745,0.34906584,1.557385e-07,1.5573822e-07,3.6351463e-07,1310996,-0.015583615,-0.0016910641,-0.017290674,0.4,0.0013559036,0.0013628642,0.00078123936,197644,0.012141713,-0.0051024673,-0.0013442534,0.5,0.0025000002,0.0025000002,0.0025000002,1,0,1,0,1,0
21736536000,21736456000,1310996,0.00096593937,0.00013034657,-0.0002545651,0.34906584,1.5817375e-07,1.5817314e-07,3.6760682e-07,1310996,-0.015624191,-0.0021818345,-0.01641895,0.4,0.0013383235,0.001345107,0.00078123936,197644,0.012141713,-0.0051024673,-0.0013442534,0.5,0.0025000002,0.0025000002,0.0025000002,1,0,1,0,1,0
21737008000,21736928000,1310996,0.0009643432,0.00013212215,-0.00025416474,0.34906584,1.6055739e-07,1.6055571e-07,3.7137642e-07,1310996,-0.015740171,-0.0023679181,-0.015425449,0.4,0.0012987712,0.0013051719,0.00078123936,197644,0.012141713,-0.0051024673,-0.0013442534,0.5,0.0025000002,0.0025000002,0.0025000002,1,0,1,0,1,0
21737632000,21737552000,1310996,0.00096047856,0.00013391147,-0.00025336706,0.34906584,1.640064e-07,1.6400199e-07,3.7635098e-07,1310996,-0.015802106,-0.0033030165,-0.014797702,0.4,0.0012157131,0.0012213797,0.00078123936,197644,0.012141713,-0.0051024673,-0.0013442534,0.5,0.0025000002,0.0025000002,0.0025000002,1,0,1,0,1,0
21738632000,21738552000,1310996,0.0009575739,0.00013543639,-0.00025171996,0.34906584,1.7065237e-07,1.7064326e-07,3.8429854e-07,1310996,-0.015883975,-0.004005808,-0.014481215,0.4,0.0011075622,0.0011124808,0.00078123994,197644,0.012141713,-0.0051024673,-0.0013442534,0.5,0.0025000002,0.0025000002,0.0025000002,1,0,1,0,1,0
21739032000,21738952000,1310996,0.00095579505,0.00013708018,-0.0002514307,0.34906584,1.7337534e-07,1.7336133e-07,3.874631e-07,1310996,-0.016381033,-0.004561426,-0.013617959,0.4,0.0010702497,0.001075213,0.00078123936,197644,0.012141713,-0.0051024673,-0.0013442534,0.5,0.0025000002,0.0025000002,0.0025000002,1,0,1,0,1,0
21739344000,21739264000,1310996,0.0009545553,0.00013782489,-0.00025092103,0.34906584,1.7566444e-07,1.7564619e-07,3.8993085e-07,1310996,-0.016622491,-0.004952244,-0.013498995,0.4,0.0010555744,0.0010607439,0.0007812428,197644,0.009544185,-0.006953363,0.00021743818,0.5,0.0014246133,0.001546422,0.0016290138,1,0,1,0,1,0
21739416000,21739336000,1310996,0.00095455756,0.0001378247,-0.00025092103,0.34906584,1.7624043e-07,1.7622219e-07,3.9050687e-07,1310996,-0.016623368,-0.004951785,-0.013417139,0.4,0.0010555792,0.001060749,0.00078123936,197644,0.010726579,-0.0062188487,0.001060648,0.5,0.0011220325,0.0012955131,0.0014319224,1,0,1,0,1,0
21739608000,21739528000,1310996,0.0009501914,0.00014151659,-0.00025026323,0.34906584,1.7754347e-07,1.7750874e-07,3.920384e-07,1310996,-0.017588496,-0.006266616,-0.014258702,0.4,0.0010426235,0.0010488408,0.00078123936,197644,0.01100648,-0.0060827476,0.0012066884,0.5,0.00089555484,0.0011049804,0.0012935947,1,0,1,0,1,0
21739816000,21739736000,1310996,0.00094617635,0.00014243042,-0.00024954844,0.34906584,1.7899532e-07,1.7893186e-07,3.9369624e-07,1310996,-0.017739063,-0.007286169,-0.014388699,0.4,0.0010324245,0.0010403966,0.00078123936,197644,0.0112697,-0.005829716,0.0016358437,0.5,0.000768736,0.0010060146,0.0012248198,1,0,1,0,1,0
21740232000,21740152000,1310996,0.0009401715,0.00014105624,-0.00024857037,0.34906584,1.8193286e-07,1.8177641e-07,3.9701493e-07,1310996,-0.01727577,-0.008476944,-0.015451421,0.4,0.0010179377,0.0010301042,0.00078123936,197644,0.011573485,-0.006485338,0.0018120549,0.5,0.00067352434,0.00094070204,0.0011805941,1,0,1,0,1,0
21740808000,21740728000,1310996,0.00093535136,0.00013707895,-0.00024850867,0.34906584,1.860696e-07,1.857568e-07,4.0159668e-07,1310996,-0.016525209,-0.009150368,-0.015992861,0.4,0.0010080081,0.001024009,0.00078123936,197644,0.012298413,-0.0072350665,0.002105859,0.5,0.0006263532,0.0009100563,0.0011596023,1,0,1,0,1,0
21741224000,21741144000,1310996,0.0009318607,0.00013339607,-0.00024877622,0.34906584,1.8882828e-07,1.8831582e-07,4.0485875e-07,1310996,-0.01596885,-0.0094744,-0.016804338,0.4,0.0010007155,0.0010200826,0.00078123936,197644,0.012376303,-0.0074372636,0.0022623176,0.5,0.0006096875,0.0008982858,0.001150956,1,0,1,0,1,0
21742224000,21742144000,1310996,0.000926478,0.000121724996,-0.00024984084,0.34906584,1.9519807e-07,1.9425465e-07,4.1244525e-07,1310996,-0.015065165,-0.009748162,-0.017053291,0.4,0.0009893215,0.001015486,0.0007812405,197644,0.012500364,-0.0076456596,0.0024109418,0.5,0.0005921891,0.00088318234,0.0011379943,1,0,1,0,1,0
21743224000,21743144000,1310996,0.0009214702,0.00011597448,-0.00025271362,0.34906584,2.003878e-07,1.9907131e-07,4.1931014e-07,1310996,-0.014777331,-0.009925472,-0.016710842,0.4,0.0009776847,0.0010126953,0.00078124163,197644,0.01247582,-0.007841352,0.002658605,0.5,0.0005850899,0.0008747185,0.0011278577,1,0,1,0,1,0
21744224000,21744144000,1310996,0.00091754517,0.00010557558,-0.00025567473,0.34906584,2.0370462e-07,2.0212337e-07,4.248539e-07,1310996,-0.014546913,-0.0100218,-0.016142203,0.4,0.0009639407,0.001010606,0.0007812405,197644,0.012542542,-0.008001628,0.0029478504,0.5,0.0005810997,0.00086895813,0.0011183243,1,0,1,0,1,0
21745224000,21745144000,1310996,0.0009166585,9.490109e-05,-0.00025637267,0.34906584,2.0388582e-07,2.0177048e-07,4.2795827e-07,1310996,-0.014367811,-0.010034805,-0.015720377,0.4,0.0009455384,0.0010087496,0.00078123936,197644,0.012400259,-0.008153241,0.003285071,0.5,0.00057797576,0.000864507,0.0011088616,1,0,1,0,1,0
21746224000,21746144000,1310996,0.0009207282,8.5581756e-05,-0.00025391515,0.34906584,2.0458651e-07,2.0133169e-07,4.3005758e-07,1310996,-0.013804104,-0.010028559,-0.016454378,0.4,0.0009305032,0.0010053649,0.00078124,197644,0.012411322,-0.008152398,0.0033059618,0.5,0.0005778032,0.00086419395,0.0011081985,1,0,1,0,1,0
21747224000,21747144000,1310996,0.0009224073,7.648729e-05,-0.00025467965,0.34906584,2.0501676e-07,2.0002011e-07,4.3205233e-07,1310996,-0.0139194485,-0.010102615,-0.015809918,0.4,0.0009165095,0.0010029998,0.0007812417,197644,0.012411322,-0.008152398,0.0033059618,0.5,0.0005778032,0.00086419395,0.0011081985,1,0,1,0,1,0
21748224000,21748144000,1310996,0.0009328885,6.2963976e-05,-0.0002492089,0.34906584,2.0463172e-07,1.9724298e-07,4.3350684e-07,1310996,-0.013760551,-0.010193554,-0.015855188,0.4,0.000903577,0.0010012294,0.00078123936,197644,0.012411322,-0.008152398,0.0033059618,0.5,0.0005778032,0.00086419395,0.0011081985,1,0,1,0,1,0
21748608000,21748528000,1310996,0.00094095396,5.650498e-05,-0.0002434231,0.34906584,2.0348192e-07,1.9469132e-07,4.3333938e-07,1310996,-0.013324068,-0.010216394,-0.016853468,0.4,0.0008979546,0.0010007293,0.00078123936,197644,0.012411322,-0.008152398,0.0033059618,0.5,0.0005778032,0.00086419395,0.0011081985,1,0,1,0,1,0
21749440000,21749360000,1310996,0.00094745745,3.718497e-05,-0.00023897897,0.34906584,2.0183468e-07,1.9021313e-07,4.335278e-07,1310996,-0.012766343,-0.010238763,-0.018204648,0.4,0.00088798325,0.0009996458,0.00078123936,197644,0.012411322,-0.008152398,0.0033059618,0.5,0.0005778032,0.00086419395,0.0011081985,1,0,1,0,1,0
21750424000,21750344000,1310996,0.000953792,2.0446025e-05,-0.00023474665,0.34906584,2.0129548e-07,1.8680595e-07,4.3471698e-07,1310996,-0.012323093,-0.010271719,-0.019431124,0.4,0.00087961234,0.000998554,0.00078123936,197644,0.012411322,-0.008152398,0.0033059618,0.5,0.0005778032,0.00086419395,0.0011081985,1,0,1,0,1,0
21751424000,21751344000,1310996,0.00095831556,1.5579915e-05,-0.00023187275,0.34906584,2.0085892e-07,1.8371425e-07,4.3586948e-07,1310996,-0.012053718,-0.010299964,-0.020270508,0.4,0.0008728904,0.0009973535,0.00078123936,197644,0.012411322,-0.008152398,0.0033059618,0.5,0.0005778032,0.00086419395,0.0011081985,1,0,1,0,1,0
21752424000,21752344000,1310996,0.00096049416,1.5088335e-05,-0.0002343768,0.34906584,2.0101321e-07,1.8143282e-07,4.3733124e-07,1310996,-0.011956849,-0.010368548,-0.020575922,0.4,0.00086772296,0.0009963083,0.00078124285,197644,0.012411322,-0.008152398,0.0033059618,0.5,0.0005778032,0.00086419395,0.0011081985,1,0,1,0,1,0
21753424000,21753344000,1310996,0.0009478541,2.2743421e-05,-0.00025031995,0.34906584,2.0093799e-07,1.7899617e-07,4.3839134e-07,1310996,-0.011988156,-0.010323526,-0.020162206,0.4,0.0008636291,0.0009951974,0.00078124227,197644,0.012411322,-0.008152398,0.0033059618,0.5,0.0005778032,0.00086419395,0.0011081985,1,0,1,0,1,0
21754424000,21754344000,1310996,0.0009396087,3.601523e-05,-0.00026324735,0.34906584,2.0104197e-07,1.7687184e-07,4.393963e-07,1310996,-0.0119867595,-0.010314252,-0.019798614,0.4,0.0008605252,0.0009941144,0.0007812417,197644,0.012411322,-0.008152398,0.0033059618,0.5,0.0005778032,0.00086419395,0.0011081985,1,0,1,0,1,0
21755208000,21755128000,1310996,0.00093279616,6.0277256e-05,-0.00027288054,0.34906584,2.0006237e-07,1.7372004e-07,4.3915097e-07,1310996,-0.01204841,-0.010304696,-0.018556437,0.4,0.0008583542,0.0009932059,0.00078123936,197644,0.012411322,-0.008152398,0.0033059618,0.5,0.0005778032,0.00086419395,0.0011081985,1,0,1,0,1,0
21756040000,21755960000,1310996,0.0009205507,8.692126e-05,-0.0002881653,0.34906584,1.9959795e-07,1.7121464e-07,4.3927062e-07,1310996,-0.012042333,-0.0102479225,-0.017439347,0.4,0.000856687,0.0009922957,0.00078123936,197644,0.012411322,-0.008152398,0.0033059618,0.5,0.0005778032,0.00086419395,0.0011081985,1,0,1,0,1,0
21757032000,21756952000,1310996,0.00090729696,0.000112876696,-0.00030627233,0.34906584,2.002052e-07,1.6982237e-07,4.4027527e-07,1310996,-0.0120617,-0.01019574,-0.015804783,0.4,0.0008553457,0.0009913672,0.00078123936,197644,0.012411322,-0.008152398,0.0033059618,0.5,0.0005778032,0.00086419395,0.0011081985,1,0,1,0,1,0
21757448000,21757368000,1310996,0.0009018522,0.00012578673,-0.00031582723,0.34906584,2.002692e-07,1.6894805e-07,4.404649e-07,1310996,-0.0121044,-0.01019132,-0.01439946,0.4,0.0008548443,0.0009909795,0.00078123936,197644,0.012411322,-0.008152398,0.0033059618,0.5,0.0005778032,0.00086419395,0.0011081985,1,0,1,0,1,0
21758224000,21758144000,1310996,0.0008920866,0.00013971035,-0.00033007248,0.34906584,2.0114376e-07,1.683503e-07,4.4136834e-07,1310996,-0.012151498,-0.01015328,-0.0127890175,0.4,0.00085413613,0.0009903572,0.00078123936,197644,0.012411322,-0.008152398,0.0033059618,0.5,0.0005778032,0.00086419395,0.0011081985,1,0,1,0,1,0
21758640000,21758560000,1310996,0.00088687974,0.00014216208,-0.00033569572,0.34906584,2.0127679e-07,1.675247e-07,4.4151378e-07,1310996,-0.012244493,-0.010122422,-0.011181106,0.4,0.0008537526,0.0009900165,0.00078123936,197644,0.012411322,-0.008152398,0.0033059618,0.5,0.0005778032,0.00086419395,0.0011081985,1,0,1,0,1,0
21759216000,21759136000,1310996,0.000882917,0.00014560545,-0.00034163843,0.34906584,2.0227574e-07,1.6753921e-07,4.4237441e-07,1310996,-0.012296898,-0.010108327,-0.010058914,0.4,0.000853375,0.0009896337,0.00078123936,197644,0.012411322,-0.008152398,0.0033059618,0.5,0.0005778032,0.00086419395,0.0011081985,1,0,1,0,1,0
21759632000,21759552000,1310996,0.0008784645,0.00015084185,-0.00034878025,0.34906584,2.0236571e-07,1.6664615e-07,4.4244908e-07,1310996,-0.012349609,-0.010096021,-0.008550075,0.4,0.00085307576,0.0009893231,0.00078123936,197644,0.012411322,-0.008152398,0.0033059618,0.5,0.0005778032,0.00086419395,0.0011081985,1,0,1,0,1,0
21760032000,21759952000,1310996,0.00088016404,0.0001506253,-0.0003489912,0.34906584,2.0382825e-07,1.6782151e-07,4.435407e-07,1310996,-0.012413188,-0.010121735,-0.0075493613,0.4,0.00085292425,0.0009891225,0.00078123936,197644,0.012411322,-0.008152398,0.0033059618,0.5,0.0005778032,0.00086419395,0.0011081985,1,0,1,0,1,0
21760408000,21760328000,1310996,0.0008820102,0.00015620053,-0.00034839968,0.34906584,2.0364175e-07,1.6659821e-07,4.4344654e-07,1310996,-0.012463356,-0.010152172,-0.0055289217,0.4,0.00085267134,0.0009888549,0.00078123936,197644,0.012411322,-0.008152398,0.0033059618,0.5,0.0005778032,0.00086419395,0.0011081985,1,0,1,0,1,0
21760616000,21760536000,1310996,0.000883075,0.00016276338,-0.00034820687,0.34906584,2.0364719e-07,1.6610429e-07,4.4344873e-07,1310996,-0.012458875,-0.010172058,-0.004393577,0.4,0.0008525502,0.000988714,0.00078123936,197644,0.012411322,-0.008152398,0.0033059618,0.5,0.0005778032,0.00086419395,0.0011081985,1,0,1,0,1,0
21761032000,21760952000,1310996,0.0008873829,0.00017089745,-0.0003467806,0.34906584,2.038086e-07,1.653318e-07,4.4355025e-07,1310996,-0.012470527,-0.010226049,-0.0028396382,0.4,0.00085232063,0.0009884483,0.00078123936,197644,0.012411322,-0.008152398,0.0033059618,0.5,0.0005778032,0.00086419395,0.0011081985,1,0,1,0,1,0
21761448000,21761368000,1310996,0.0008892477,0.00017679967,-0.00034661562,0.34906584,2.054185e-07,1.6668258e-07,4.446808e-07,1310996,-0.012473997,-0.010253564,-0.0018144415,0.4,0.0008522071,0.0009882791,0.00078123936,197644,0.012411322,-0.008152398,0.0033059618,0.5,0.0005778032,0.00086419395,0.0011081985,1,0,1,0,1,0
21761816000,21761736000,1310996,0.0008948338,0.00018407131,-0.00034294193,0.34906584,2.0502154e-07,1.652051e-07,4.4442422e-07,1310996,-0.012465994,-0.010308488,-0.0004941065,0.4,0.00085198804,0.0009880376,0.00078123936,197644,0.012411322,-0.008152398,0.0033059618,0.5,0.0005778032,0.00086419395,0.0011081985,1,0,1,0,1,0
21762232000,21762152000,1310996,0.0008989296,0.00019347713,-0.0003398504,0.34906584,2.0518222e-07,1.6446579e-07,4.4450852e-07,1310996,-0.012453577,-0.010351711,0.0011639127,0.4,0.0008517952,0.0009878038,0.00078123936,197644,0.012411322,-0.008152398,0.0033059618,0.5,0.0005778032,0.00086419395,0.0011081985,1,0,1,0,1,0
21762440000,21762360000,1310996,0.0009036476,0.00020028852,-0.00033630824,0.34906584,2.0531299e-07,1.6417214e-07,4.4457948e-07,1310996,-0.012432923,-0.010395433,0.002308008,0.4,0.0008517073,0.0009876937,0.00078123936,197644,0.012411322,-0.008152398,0.0033059618,0.5,0.0005778032,0.00086419395,0.0011081985,1,0,1,0,1,0
21763104000,21763024000,1310996,0.0009056768,0.00020928377,-0.0003402743,0.34906584,2.071566e-07,1.6537655e-07,4.4565073e-07,1310996,-0.012413148,-0.010437143,0.003360777,0.4,0.00085153274,0.000987427,0.00078123936,197644,0.012411322,-0.008152398,0.0033059618,0.5,0.0005778032,0.00086419395,0.0011081985,1,0,1,0,1,0
21763424000,21763344000,1310996,0.0009104723,0.00021048448,-0.0003378782,0.34906584,2.0661885e-07,1.6381519e-07,4.4537467e-07,1310996,-0.0124289915,-0.010482165,0.004825135,0.4,0.0008513609,0.0009872476,0.00078123936,197644,0.012411322,-0.008152398,0.0033059618,0.5,0.0005778032,0.00086419395,0.0011081985,1,1,1,0,1,0
21763840000,21763760000,1310996,0.00091412716,0.00021786483,-0.0003337164,0.34906584,2.0687077e-07,1.6325838e-07,4.454638e-07,1310996,-0.012405708,-0.010512192,0.0060019996,0.4,0.00085120765,0.0009870583,0.00078123936,197644,0.012411322,-0.008152398,0.0033059618,0.5,0.0005778032,0.00086419395,0.0011081985,1,1,1,0,1,0
21764416000,21764336000,1310996,0.00091757707,0.00022236946,-0.00032942486,0.34906584,2.0793965e-07,1.6354637e-07,4.460986e-07,1310996,-0.012401659,-0.0105395485,0.0076360074,0.4,0.0008510514,0.0009868474,0.00078123936,197644,0.012411322,-0.008152398,0.0033059618,0.5,0.0005778032,0.00086419395,0.0011081985,1,1,1,0,1,0
21765040000,21764960000,1310996,0.00092354644,0.00022427319,-0.00032763917,0.34906584,2.0821717e-07,1.6264765e-07,4.461086e-07,1310996,-0.012403838,-0.010591826,0.008885684,0.4,0.0008508461,0.0009865962,0.00078123936,197644,0.012411322,-0.008152398,0.0033059618,0.5,0.0005778032,0.00086419395,0.0011081985,1,1,1,0,1,0
21765608000,21765528000,1310996,0.0009240619,0.00023163886,-0.0003321022,0.34906584,2.0946976e-07,1.6317308e-07,4.469567e-07,1310996,-0.012372552,-0.010614628,0.010129549,0.4,0.00085072505,0.0009864377,0.00078123936,197644,0.012411322,-0.008152398,0.0033059618,0.5,0.0005778032,0.00086419395,0.0011081985,1,1,1,0,1,0
21766232000,21766152000,1310996,0.00093015446,0.00023362199,-0.00033007993,0.34906584,2.0966039e-07,1.6221404e-07,4.4680223e-07,1310996,-0.012374078,-0.010662165,0.011409964,0.4,0.00085054676,0.0009862229,0.00078123936,197644,0.012411322,-0.008152398,0.0033059618,0.5,0.0005778032,0.00086419395,0.0011081985,1,1,1,0,1,0
21766808000,21766728000,1310996,0.0009293759,0.00023534722,-0.00033412015,0.34906584,2.108328e-07,1.6277741e-07,4.4727236e-07,1310996,-0.012371582,-0.010670181,0.012754411,0.4,0.0008504465,0.0009860784,0.00078123936,197644,0.012411322,-0.008152398,0.0033059618,0.5,0.0005778032,0.00086419395,0.0011081985,1,1,1,0,1,0
21767432000,21767352000,1310996,0.0009289711,0.00024120236,-0.0003303353,0.34906584,2.1093578e-07,1.6179943e-07,4.4698902e-07,1310996,-0.012343229,-0.010662673,0.013988,0.4,0.0008502959,0.0009858977,0.00078123936,197644,0.012411322,-0.008152398,0.0033059618,0.5,0.0005778032,0.00086419395,0.0011081985,1,1,1,0,1,0
21768128000,21768048000,1310996,0.00092915783,0.00024040428,-0.00033352565,0.34906584,2.128497e-07,1.6332808e-07,4.4757303e-07,1310996,-0.012350649,-0.010673157,0.015012393,0.4,0.00085022434,0.0009857665,0.00078123936,197644,0.012411322,-0.008152398,0.0033059618,0.5,0.0005778032,0.00086419395,0.0011081985,1,1,1,0,1,0
21768480000,21768400000,1310996,0.00093114283,0.0002448201,-0.00033245506,0.34906584,2.1243139e-07,1.6214729e-07,4.4712866e-07,1310996,-0.012328031,-0.010685796,0.01603558,0.4,0.00085013715,0.0009856715,0.00078123936,197644,0.012411322,-0.008152398,0.0033059618,0.5,0.0005778032,0.00086419395,0.0011081985,1,1,1,0,1,0
21768840000,21768760000,1310996,0.000933087,0.00023884693,-0.00033070656,0.34906584,2.1221224e-07,1.6124113e-07,4.4680675e-07,1310996,-0.012354526,-0.010695067,0.01734053,0.4,0.000850062,0.0009855868,0.00078123936,197644,0.012411322,-0.008152398,0.0033059618,0.5,0.0005778032,0.00086419395,0.0011081985,1,1,1,0,1,0
21769616000,21769536000,1310996,0.000927812,0.00023385003,-0.00033203757,0.34906584,2.1324298e-07,1.6150604e-07,4.467393e-07,1310996,-0.012379188,-0.010667012,0.018523008,0.4,0.0008499726,0.0009854528,0.00078123936,197644,0.012411322,-0.008152398,0.0033059618,0.5,0.0005778032,0.00086419395,0.0011081985,1,1,1,0,1,0
21770344000,21770264000,1310996,0.0009281754,0.00022312408,-0.00032825192,0.34906584,2.1414263e-07,1.6165963e-07,4.4662926e-07,1310996,-0.012431921,-0.010662422,0.019524045,0.4,0.00084989634,0.0009853417,0.00078123936,197644,0.012411322,-0.008152398,0.0033059618,0.5,0.0005778032,0.00086419395,0.0011081985,1,1,1,0,1,0
21771224000,21771144000,1310996,0.0009257066,0.00020396836,-0.00032864008,0.34906584,2.1429227e-07,1.6071805e-07,4.4555733e-07,1310996,-0.012520044,-0.010650169,0.02070896,0.4,0.00084979413,0.0009852018,0.00078123936,197644,0.012411322,-0.008152398,0.0033059618,0.5,0.0005778032,0.00086419395,0.0011081985,1,1,1,0,1,0
21772224000,21772144000,1310996,0.00092591124,0.00018078958,-0.00032477593,0.34906584,2.1539718e-07,1.6097522e-07,4.4491964e-07,1310996,-0.012622541,-0.010645032,0.021479124,0.4,0.0008497218,0.0009850846,0.00078124,197644,0.012411322,-0.008152398,0.0033059618,0.5,0.0005778032,0.00086419395,0.0011081985,1,1,1,0,1,0
21773224000,21773144000,1310996,0.0009178245,0.00016227027,-0.00032317505,0.34906584,2.1643736e-07,1.6126036e-07,4.440845e-07,1310996,-0.012699999,-0.01060395,0.021967312,0.4,0.000849667,0.0009849877,0.0007812411,197644,0.012411322,-0.008152398,0.0033059618,0.5,0.0005778032,0.00086419395,0.0011081985,1,1,1,0,1,0
21774224000,21774144000,1310996,0.0009041371,0.00015012159,-0.00033027434,0.34906584,2.174234e-07,1.6160699e-07,4.430961e-07,1310996,-0.01274816,-0.010554101,0.022113023,0.4,0.0008496292,0.0009849095,0.00078124,197644,0.012411322,-0.008152398,0.0033059618,0.5,0.0005778032,0.00086419395,0.0011081985,1,1,1,0,1,0
21775224000,21775144000,1310996,0.00089877576,0.00012419187,-0.00033409477,0.34906584,2.1824258e-07,1.6184214e-07,4.4187908e-07,1310996,-0.01284267,-0.0105398875,0.021469962,0.4,0.0008496004,0.0009848442,0.0007812428,197644,0.012411322,-0.008152398,0.0033059618,0.5,0.0005778032,0.00086419395,0.0011081985,1,1,1,0,1,0
21776016000,21775936000,1310996,0.00088492595,0.00010297161,-0.000338589,0.34906584,2.1753459e-07,1.6041007e-07,4.398519e-07,1310996,-0.0129137905,-0.010496049,0.020120604,0.4,0.0008495695,0.0009847882,0.00078123936,197644,0.012411322,-0.008152398,0.0033059618,0.5,0.0005778032,0.00086419395,0.0011081985,1,1,1,0,1,0
21776640000,21776560000,1310996,0.00087928266,8.508081e-05,-0.000348263,0.34906584,2.1746565e-07,1.597876e-07,4.3908645e-07,1310996,-0.012969854,-0.010490392,0.018911418,0.4,0.0008495572,0.000984761,0.00078123936,197644,0.012411322,-0.008152398,0.0033059618,0.5,0.0005778032,0.00086419395,0.0011081985,1,1,1,0,1,0
21777416000,21777336000,1310996,0.0008720329,7.145259e-05,-0.00035258336,0.34906584,2.1806285e-07,1.6018697e-07,4.378462e-07,1310996,-0.013010395,-0.010473628,0.017876416,0.4,0.0008495595,0.0009847371,0.00078123936,197644,0.012411322,-0.008152398,0.0033059618,0.5,0.0005778032,0.00086419395,0.0011081985,1,1,1,0,1,0
21777832000,21777752000,1310996,0.0008691842,5.901741e-05,-0.00035597006,0.34906584,2.1788529e-07,1.5977069e-07,4.369054e-07,1310996,-0.013044701,-0.010472579,0.016456902,0.4,0.00084955833,0.0009847237,0.00078123936,197644,0.012411322,-0.008152398,0.0033059618,0.5,0.0005778032,0.00086419395,0.0011081985,1,1,1,0,1,0
21778832000,21778752000,1310996,0.0008579144,3.3490778e-05,-0.00037176788,0.34906584,2.1834805e-07,1.5999137e-07,4.3510548e-07,1310996,-0.013112468,-0.010458667,0.015506814,0.4,0.0008495735,0.0009847101,0.0007812405,197644,0.012411322,-0.008152398,0.0033059618,0.5,0.0005778032,0.00086419395,0.0011081985,1,1,1,0,1,0
21779448000,21779368000,1310996,0.00084556907,1.8578769e-05,-0.0003835369,0.34906584,2.180605e-07,1.5947401e-07,4.335367e-07,1310996,-0.013146875,-0.010441634,0.01383808,0.4,0.00084958406,0.0009847041,0.00078123936,197644,0.012411322,-0.008152398,0.0033059618,0.5,0.0005778032,0.00086419395,0.0011081985,1,1,1,1,1,0
21780432000,21780352000,1310996,0.00083816756,-4.439767e-06,-0.00039733492,0.34906584,2.1827096e-07,1.5959945e-07,4.314267e-07,1310996,-0.013199091,-0.010440674,0.012465794,0.4,0.0008496123,0.0009847075,0.00078123936,197644,0.012411322,-0.008152398,0.0033059618,0.5,0.0005778032,0.00086419395,0.0011081985,1,1,1,1,1,0
21781008000,21780928000,1310996,0.00083038886,-1.3772743e-05,-0.0004111161,0.34906584,2.1887939e-07,1.6032762e-07,4.304106e-07,1310996,-0.013216233,-0.010438267,0.011360472,0.4,0.0008496354,0.0009847163,0.00078123936,197644,0.012411322,-0.008152398,0.0033059618,0.5,0.0005778032,0.00086419395,0.0011081985,1,1,1,1,1,0
21781424000,21781344000,1310996,0.00082319515,-2.391206e-05,-0.0004208806,0.34906584,2.1845861e-07,1.5977717e-07,4.2924142e-07,1310996,-0.013234851,-0.010433594,0.010286108,0.4,0.0008496485,0.000984721,0.00078123936,197644,0.012411322,-0.008152398,0.0033059618,0.5,0.0005778032,0.00086419395,0.0011081985,1,1,1,1,1,0
21782424000,21782344000,1310996,0.0008193463,-3.826605e-05,-0.0004369643,0.34906584,2.1884053e-07,1.6029993e-07,4.2707842e-07,1310996,-0.013261463,-0.010441004,0.009686773,0.4,0.0008496937,0.0009847449,0.0007812405,197644,0.012411322,-0.008152398,0.0033059618,0.5,0.0005778032,0.00086419395,0.0011081985,1,1,1,1,1,0
21783424000,21783344000,1310996,0.0008105593,-5.458497e-05,-0.00046362897,0.34906584,2.1930393e-07,1.6083497e-07,4.254122e-07,1310996,-0.013286435,-0.0104489615,0.009144687,0.4,0.00084974465,0.0009847793,0.0007812411,197644,0.012411322,-0.008152398,0.0033059618,0.5,0.0005778032,0.00086419395,0.0011081985,1,1,1,1,1,0
21784424000,21784344000,1310996,0.0008108116,-5.8328253e-05,-0.0004842149,0.34906584,2.1928822e-07,1.6105085e-07,4.230026e-07,1310996,-0.01329228,-0.010467568,0.009444538,0.4,0.0008498001,0.0009848181,0.00078123994,197644,0.012411322,-0.008152398,0.0033059618,0.5,0.0005778032,0.00086419395,0.0011081985,1,1,1,1,1,0
21785424000,21785344000,1310996,0.000803284,-5.7971076e-05,-0.0005043217,0.34906584,2.1794311e-07,1.5962792e-07,4.2012317e-07,1310996,-0.013291406,-0.010474449,0.010784361,0.4,0.0008498577,0.0009848624,0.00078123936,197644,0.012411322,-0.008152398,0.0033059618,0.5,0.0005778032,0.00086419395,0.0011081985,1,1,1,1,1,0
21785840000,21785760000,1310996,0.000807114,-5.4295066e-05,-0.00051214994,0.34906584,2.1756244e-07,1.5933749e-07,4.1887267e-07,1310996,-0.01328792,-0.0104854815,0.012046522,0.4,0.00084988296,0.0009848822,0.00078123936,197644,0.012411322,-0.008152398,0.0033059618,0.5,0.0005778032,0.00086419395,0.0011081985,1,1,1,1,1,0
21786416000,21786336000,1310996,0.00080977794,-5.6208173e-05,-0.00052084494,0.34906584,2.178191e-07,1.599026e-07,4.1753427e-07,1310996,-0.013288904,-0.010494486,0.013528508,0.4,0.00084991945,0.0009849113,0.00078123936,197644,0.012411322,-0.008152398,0.0033059618,0.5,0.0005778032,0.00086419395,0.0011081985,1,1,1,1,1,0
21786832000,21786752000,1310996,0.0008094823,-5.4738885e-05,-0.0005272335,0.34906584,2.17317e-07,1.5948511e-07,4.162292e-07,1310996,-0.013286043,-0.010498822,0.014715923,0.4,0.00084994483,0.0009849324,0.00078123936,197644,0.012411322,-0.008152398,0.0033059618,0.5,0.0005778032,0.00086419395,0.0011081985,1,1,1,1,1,0
21787248000,21787168000,1310996,0.00081168907,-4.9727932e-05,-0.0005353969,0.34906584,2.169417e-07,1.5924209e-07,4.1495719e-07,1310996,-0.013279136,-0.010507612,0.016063482,0.4,0.0008499705,0.0009849538,0.00078123936,197644,0.012411322,-0.008152398,0.0033059618,0.5,0.0005778032,0.00086419395,0.0011081985,1,1,1,1,1,0
21787816000,21787736000,1310996,0.00082000974,-5.3758853e-05,-0.00053837674,0.34906584,2.1714493e-07,1.5980072e-07,4.1352405e-07,1310996,-0.013282935,-0.01051894,0.018005649,0.4,0.0008500064,0.0009849841,0.00078123936,197644,0.012411322,-0.008152398,0.0033059618,0.5,0.0005778032,0.00086419395,0.0011081985,1,1,1,1,1,0
21788232000,21788152000,1310996,0.00082265533,-4.99089e-05,-0.00054510747,0.34906584,2.1663655e-07,1.5941457e-07,4.1220193e-07,1310996,-0.013277026,-0.010527508,0.019444363,0.4,0.0008500316,0.0009850065,0.00078123936,197644,0.012411322,-0.008152398,0.0033059618,0.5,0.0005778032,0.00086419395,0.0011081985,1,1,1,1,1,0
21788808000,21788728000,1310996,0.0008279082,-4.7516678e-05,-0.0005534345,0.34906584,2.1697642e-07,1.6015703e-07,4.1083442e-07,1310996,-0.013272881,-0.010539465,0.02062615,0.4,0.00085006776,0.0009850384,0.00078123936,197644,0.012411322,-0.008152398,0.0033059618,0.5,0.0005778032,0.00086419395,0.0011081985,1,1,1,1,1,0
21789224000,21789144000,1310996,0.0008302478,-4.4771223e-05,-0.00055795826,0.34906584,2.163241e-07,1.5960511e-07,4.0946142e-07,1310996,-0.013267577,-0.010547064,0.02204385,0.4,0.00085009215,0.0009850604,0.00078123936,197644,0.012411322,-0.008152398,0.0033059618,0.5,0.0005778032,0.00086419395,0.0011081985,1,1,1,1,1,0
21789640000,21789560000,1310996,0.0008342486,-4.4893517e-05,-0.0005601443,0.34906584,2.1599904e-07,1.5928121e-07,4.0878675e-07,1310996,-0.013265793,-0.010555495,0.023567216,0.4,0.00085011666,0.0009850836,0.00078123936,197644,0.012411322,-0.008152398,0.0033059618,0.5,0.0005778032,0.00086419395,0.0011081985,1,1,1,1,1,0
21790208000,21790128000,1310996,0.00083978905,-4.6130976e-05,-0.0005645515,0.34906584,2.1630512e-07,1.6001731e-07,4.0734932e-07,1310996,-0.013265985,-0.010565847,0.024663154,0.4,0.00085015193,0.000985116,0.00078123936,197644,0.012411322,-0.008152398,0.0033059618,0.5,0.0005778032,0.00086419395,0.0011081985,1,1,1,1,1,0
21790624000,21790544000,1310996,0.0008455268,-4.4370834e-05,-0.00056823465,0.34906584,2.1568313e-07,1.5951656e-07,4.0597658e-07,1310996,-0.013262676,-0.010576216,0.025750352,0.4,0.00085017644,0.000985139,0.00078123936,197644,0.012411322,-0.008152398,0.0033059618,0.5,0.0005778032,0.00086419395,0.0011081985,1,1,1,1,1,0
21791040000,21790960000,1310996,0.0008504964,-4.5526693e-05,-0.0005719453,0.34906584,2.152241e-07,1.5922195e-07,4.0464366e-07,1310996,-0.013262243,-0.01058525,0.027084017,0.4,0.000850201,0.0009851624,0.00078123936,197644,0.012411322,-0.008152398,0.0033059618,0.5,0.0005778032,0.00086419395,0.0011081985,1,1,1,1,1,0
21791608000,21791528000,1310996,0.00084882346,-4.347621e-05,-0.00057852676,0.34906584,2.1534305e-07,1.5973418e-07,4.0314794e-07,1310996,-0.013256346,-0.010587488,0.028696038,0.4,0.0008502358,0.0009851956,0.00078123936,197644,0.012411322,-0.008152398,0.0033059618,0.5,0.0005778032,0.00086419395,0.0011081985,1,1,1,1,1,0
21792240000,21792160000,1310996,0.00084362144,-4.153216e-05,-0.0005898792,0.34906584,2.1460494e-07,1.592452e-07,4.0120395e-07,1310996,-0.013250342,-0.0105849495,0.029998813,0.4,0.00085027295,0.0009852316,0.00078123936,197644,0.012411322,-0.008152398,0.0033059618,0.5,0.0005778032,0.00086419395,0.0011081985,1,1,1,1,1,0
21792808000,21792728000,1310996,0.00083687465,-4.1973366e-05,-0.0005993053,0.34906584,2.1490929e-07,1.5998961e-07,3.9974174e-07,1310996,-0.013247776,-0.010579516,0.0312944,0.4,0.00085030845,0.0009852663,0.00078123936,197644,0.012411322,-0.008152398,0.0033059618,0.5,0.0005778032,0.00086419395,0.0011081985,1,1,1,1,1,0
21793224000,21793144000,1310996,0.000833549,-4.4320455e-05,-0.0006084205,0.34906584,2.1427137e-07,1.5948204e-07,3.9835456e-07,1310996,-0.013247886,-0.010577534,0.03251243,0.4,0.0008503331,0.0009852909,0.00078123936,197644,0.012411322,-0.008152398,0.0033059618,0.5,0.0005778032,0.00086419395,0.0011081985,1,1,1,1,1,0
21793640000,21793560000,1310996,0.0008287314,-4.6718986e-05,-0.000610665,0.34906584,2.1381358e-07,1.5918798e-07,3.9699802e-07,1310996,-0.013248416,-0.0105730165,0.03396309,0.4,0.0008503587,0.0009853161,0.00078123936,197644,0.012411322,-0.008152398,0.0033059618,0.5,0.0005778032,0.00086419395,0.0011081985,1,1,1,1,1,0
21794216000,21794136000,1310996,0.0008264084,-4.6441968e-05,-0.000619878,0.34906584,2.1400264e-07,1.5975289e-07,3.955218e-07,1310996,-0.013246318,-0.010572683,0.035348803,0.4,0.0008503956,0.0009853528,0.00078123936,197644,0.012411322,-0.008152398,0.0033059618,0.5,0.0005778032,0.00086419395,0.0011081985,1,1,1,1,1,0
21794632000,21794552000,1310996,0.0008226606,-5.090875e-05,-0.0006231737,0.34906584,2.1346379e-07,1.5933794e-07,3.9412768e-07,1310996,-0.01325003,-0.010569104,0.03644742,0.4,0.0008504216,0.0009853787,0.00078123936,197644,0.012411322,-0.008152398,0.0033059618,0.5,0.0005778032,0.00086419395,0.0011081985,1,1,1,1,1,0
21795048000,21794968000,1310996,0.00081845565,-5.3792315e-05,-0.000628944,0.34906584,2.130659e-07,1.590991e-07,3.9277361e-07,1310996,-0.01325227,-0.010565015,0.03766223,0.4,0.0008504478,0.000985405,0.00078123936,197644,0.012411322,-0.008152398,0.0033059618,0.5,0.0005778032,0.00086419395,0.0011081985,1,1,1,1,1,0
21795616000,21795536000,1310996,0.00080687855,-5.9854294e-05,-0.0006356763,0.34906584,2.1324445e-07,1.596615e-07,3.9125638e-07,1310996,-0.013257944,-0.010551809,0.039104685,0.4,0.00085048407,0.0009854411,0.00078123936,197644,0.012411322,-0.008152398,0.0033059618,0.5,0.0005778032,0.00086419395,0.0011081985,1,1,1,1,1,0
21796336000,21796256000,1310996,0.0007900275,-7.399522e-05,-0.000647485,0.34906584,2.1313646e-07,1.5991392e-07,3.8932475e-07,1310996,-0.013272538,-0.0105317095,0.040125847,0.4,0.0008505293,0.0009854869,0.00078123936,197644,0.012411322,-0.008152398,0.0033059618,0.5,0.0005778032,0.00086419395,0.0011081985,1,1,1,1,1,0
21797336000,21797256000,1310996,0.0007629299,-8.2840656e-05,-0.0006740841,0.34906584,2.1282659e-07,1.6012132e-07,3.865957e-07,1310996,-0.013280919,-0.010499695,0.041059878,0.4,0.0008505921,0.0009855501,0.00078124,197644,0.012411322,-0.008152398,0.0033059618,0.5,0.0005778032,0.00086419395,0.0011081985,1,1,1,1,1,0
21798336000,21798256000,1310996,0.00073135016,-8.675789e-05,-0.0006892763,0.34906584,2.1269227e-07,1.6057491e-07,3.8396973e-07,1310996,-0.013284401,-0.010467536,0.04188521,0.4,0.0008506565,0.0009856145,0.00078123936,197644,0.012411322,-0.008152398,0.0033059618,0.5,0.0005778032,0.00086419395,0.0011081985,1,1,1,1,1,0
21799152000,21799072000,1310996,0.00071205164,-9.564384e-05,-0.00070260506,0.34906584,2.1303116e-07,1.616044e-07,3.8162153e-07,1310996,-0.013292462,-0.010447925,0.042899337,0.4,0.0008507106,0.0009856697,0.00078123936,197644,0.012411322,-0.008152398,0.0033059618,0.5,0.0005778032,0.00086419395,0.0011081985,1,1,1,1,1,0
21800152000,21800072000,1310996,0.0006735744,-0.00011764698,-0.0007270495,0.34906584,2.115132e-07,1.6003847e-07,3.792276e-07,1310996,-0.013311551,-0.010416699,0.043281976,0.4,0.0008507756,0.0009857366,0.0007812428,197644,0.012411322,-0.008152398,0.0033059618,0.5,0.0005778032,0.00086419395,0.0011081985,1,1,1,1,1,0
21801152000,21801072000,1310996,0.00065265206,-0.00013427027,-0.00074171636,0.34906584,2.1139729e-07,1.6041731e-07,3.7663602e-07,1310996,-0.013325458,-0.010400507,0.044033308,0.4,0.0008508434,0.0009858054,0.00078124227,197644,0.012411322,-0.008152398,0.0033059618,0.5,0.0005778032,0.00086419395,0.0011081985,1,1,1,1,1,0
21802152000,21802072000,1310996,0.0006306481,-0.00016278535,-0.0007612267,0.34906584,2.1114856e-07,1.6077577e-07,3.7343392e-07,1310996,-0.013345042,-0.01038774,0.04390364,0.4,0.0008509115,0.0009858747,0.0007812427,197644,0.012411322,-0.008152398,0.0033059618,0.5,0.0005778032,0.00086419395,0.0011081985,1,1,1,1,1,0
21803152000,21803072000,1310996,0.0006129671,-0.00019476663,-0.0007754769,0.34906584,2.1134275e-07,1.6147865e-07,3.7100207e-07,1310996,-0.01336755,-0.010376661,0.044378113,0.4,0.0008509799,0.0009859444,0.00078124274,197644,0.012411322,-0.008152398,0.0033059618,0.5,0.0005778032,0.00086419395,0.0011081985,1,1,1,1,1,0
21804152000,21804072000,1310996,0.0005938869,-0.00023921694,-0.00079655525,0.34906584,2.0982421e-07,1.5999318e-07,3.6815928e-07,1310996,-0.013392739,-0.010367668,0.04403724,0.4,0.0008510476,0.0009860141,0.0007812421,197644,0.012411322,-0.008152398,0.0033059618,0.5,0.0005778032,0.00086419395,0.0011081985,1,1,1,1,1,0
21805152000,21805072000,1310996,0.0005809757,-0.00026948602,-0.0008176706,0.34906584,2.0963168e-07,1.6021896e-07,3.657913e-07,1310996,-0.013404483,-0.010362719,0.043162953,0.4,0.00085111667,0.0009860848,0.0007812417,197644,0.012411322,-0.008152398,0.0033059618,0.5,0.0005778032,0.00086419395,0.0011081985,1,1,1,1,1,0
21806152000,21806072000,1310996,0.0005656831,-0.00029662767,-0.0008357502,0.34906584,2.0957228e-07,1.6067771e-07,3.6361513e-07,1310996,-0.013417741,-0.010355269,0.043301087,0.4,0.0008511863,0.0009861562,0.0007812405,197644,0.012411322,-0.008152398,0.0033059618,0.5,0.0005778032,0.00086419395,0.0011081985,1,1,1,1,1,0
21806640000,21806560000,1310996,0.00056456396,-0.0003188937,-0.00085455057,0.34906584,2.085175e-07,1.5931873e-07,3.6179057e-07,1310996,-0.013279108,-0.010349104,0.04510092,0.4,0.0008510586,0.0009860101,0.00078123936,197644,0.012411322,-0.008152398,0.0033059618,0.5,0.0005778032,0.00086419395,0.0011081985,1,1,1,1,1,0
21806880000,21806800000,1310996,0.0005672568,-0.0003187967,-0.0008603027,0.34906584,2.0972413e-07,1.6119795e-07,3.6132957e-07,1310996,-0.013279108,-0.010349104,0.04510092,0.4,0.0008510614,0.000986013,0.00078124227,197644,0.011934414,-0.008893522,0.0011830899,0.5,0.00048564412,0.00067540124,0.0008513838,1,1,1,0,1,0
21806944000,21806864000,1310996,0.0005666043,-0.00031964292,-0.0008582106,0.34906584,2.100779e-07,1.6168869e-07,3.6147713e-07,1310996,-0.013279115,-0.010349108,0.04510091,0.4,0.0008510661,0.0009860175,0.00078124687,197644,0.010660468,-0.009429055,0.0023749087,0.5,0.0004338775,0.0005825647,0.0007613882,1,1,1,0,1,0
21807016000,21806936000,1310996,0.0005710261,-0.00035684212,-0.00086488784,0.34906584,2.1039561e-07,1.6078293e-07,3.5705455e-07,1310996,-0.013279121,-0.010349113,0.045100898,0.4,0.0008510666,0.0009860181,0.0007812474,197644,0.011383557,-0.009580918,0.0014967084,0.5,0.00039405606,0.0005300256,0.00070917525,1,1,1,0,1,0
21807160000,21807080000,1310996,0.0005721505,-0.00035604832,-0.00086740055,0.34906584,2.113889e-07,1.6190907e-07,3.5783398e-07,1310996,-0.013279121,-0.010349113,0.045100898,0.4,0.0008510666,0.0009860181,0.0007812474,197644,0.012739711,-0.0086212745,0.0014780528,0.5,0.00033218547,0.0004637449,0.0006225055,1,1,1,0,1,0
21807512000,21807432000,1310996,0.000572171,-0.00040077185,-0.0008770478,0.34906584,2.1375716e-07,1.618048e-07,3.439909e-07,1310996,-0.013073601,-0.010328564,0.045010407,0.4,0.0008509331,0.000985844,0.0007812457,197644,0.013469719,-0.00787508,0.0014722454,0.5,0.0002614041,0.0003923599,0.0005433602,1,1,1,0,1,0
21808040000,21807960000,1310996,0.00056532497,-0.00041495074,-0.0008142381,0.34906584,2.1733004e-07,1.6151094e-07,3.2358886e-07,1310996,-0.012853601,-0.009283573,0.04473767,0.4,0.00084523903,0.0009791818,0.00078123936,197644,0.014300592,-0.00835323,0.001562711,0.5,0.00022173762,0.00035718476,0.00051878614,1,1,1,0,1,0
21808616000,21808536000,1310996,0.00056733744,-0.00041859222,-0.00079189497,0.34906584,2.2170892e-07,1.6274686e-07,3.1872253e-07,1310996,-0.012640018,-0.008277183,0.04477648,0.4,0.0008319198,0.0009637857,0.00078123936,197644,0.015078208,-0.008773723,0.001899555,0.5,0.00019841621,0.00033673234,0.00049760134,1,1,1,0,1,0
21809032000,21808952000,1310996,0.00056945893,-0.0004223358,-0.0007733423,0.34906584,2.2485509e-07,1.6311928e-07,3.152957e-07,1310996,-0.012355424,-0.007208946,0.044678826,0.4,0.00081544375,0.00094516936,0.00078123936,197644,0.015304076,-0.009106423,0.0011454456,0.5,0.00018930268,0.00032676395,0.00047979123,1,1,1,0,1,0
21809496000,21809416000,1310996,0.00057229854,-0.00042148482,-0.0007650845,0.34906584,2.2836586e-07,1.6546319e-07,3.1634912e-07,1310996,-0.012326361,-0.0065110936,0.045070402,0.4,0.0008066876,0.0009352265,0.0007812411,197644,0.015304675,-0.009584579,0.00024900318,0.5,0.00018224712,0.00031877754,0.0004553736,1,1,1,0,1,0
21809808000,21809728000,1310996,0.00057551503,-0.000406728,-0.00075610064,0.34906584,2.3037039e-07,1.652003e-07,3.1586487e-07,1310996,-0.013610365,-0.0056548775,0.045685027,0.4,0.0007861855,0.0009105184,0.00078123936,197644,0.015203481,-0.009638179,6.237934e-05,0.5,0.00017911688,0.00031432774,0.00044744136,1,1,1,0,1,0
21810224000,21810144000,1310996,0.00057805656,-0.00039053778,-0.00075472705,0.34906584,2.32461e-07,1.6615994e-07,3.18217e-07,1310996,-0.014930333,-0.0052977074,0.046872284,0.4,0.00078123936,0.0008868293,0.00078123936,197644,0.015184849,-0.009717196,-0.00010105207,0.5,0.00017600248,0.00031058857,0.0004424221,1,1,1,0,1,0
21810648000,21810568000,1310996,0.0005794273,-0.00037233712,-0.00075488264,0.34906584,2.3335025e-07,1.674473e-07,3.2113326e-07,1310996,-0.01634173,-0.0051135262,0.048272677,0.4,0.00078123936,0.00086405594,0.00078123936,197644,0.015144554,-0.00983013,-0.00021876104,0.5,0.00017313592,0.00030708974,0.00044026342,1,1,1,0,1,0
21811008000,21810928000,1310996,0.0005721028,-0.00036248172,-0.0007508653,0.34906584,2.3355001e-07,1.6914458e-07,3.2301037e-07,1310996,-0.017071646,-0.005624344,0.049197488,0.4,0.00078123936,0.000851394,0.00078123936,197644,0.015081716,-0.009841365,-0.00013501618,0.5,0.00017062988,0.00030433742,0.0004363483,1,1,1,0,1,0
21811216000,21811136000,1310996,0.0005651198,-0.00035528844,-0.0007467412,0.34906584,2.3234092e-07,1.6971953e-07,3.2339227e-07,1310996,-0.017451618,-0.0060939123,0.050607506,0.4,0.00078123936,0.00084000896,0.00078123936,197644,0.015050067,-0.009953726,-1.783615e-05,0.5,0.00016907218,0.00030281415,0.0004343295,1,1,1,0,1,0
21811424000,21811344000,1310996,0.0005582163,-0.0003476803,-0.00074226037,0.34906584,2.3090749e-07,1.7034813e-07,3.2339807e-07,1310996,-0.017791327,-0.0064598513,0.05208036,0.4,0.00078123936,0.00082987937,0.00078123936,197644,0.015112243,-0.010021789,8.643028e-05,0.5,0.00016735775,0.00030122837,0.00043178722,1,1,1,0,1,0
21811632000,21811552000,1310996,0.0005489128,-0.0003423152,-0.00073531724,0.34906584,2.2930325e-07,1.7101459e-07,3.2306113e-07,1310996,-0.017980231,-0.0069000935,0.05351487,0.4,0.00078123936,0.00082095386,0.00078123936,197644,0.015086332,-0.010059125,0.00013000012,0.5,0.00016572938,0.00029981468,0.00042910903,1,1,1,0,1,0
21811840000,21811760000,1310996,0.0005401742,-0.0003374415,-0.0007282467,0.34906584,2.2757823e-07,1.7170669e-07,3.2242852e-07,1310996,-0.018221669,-0.0073361853,0.054669034,0.4,0.00078123936,0.0008131504,0.00078123936,197644,0.01491022,-0.010153608,7.827659e-05,0.5,0.00016405381,0.00029837052,0.0004256095,1,1,1,0,1,0
21812208000,21812128000,1310996,0.0005338737,-0.0003280077,-0.000723696,0.34906584,2.2612146e-07,1.7347172e-07,3.220364e-07,1310996,-0.018550033,-0.0076128766,0.056524824,0.4,0.00078123936,0.0008056074,0.00078123936,197644,0.014849161,-0.010353702,0.00032186633,0.5,0.00016096192,0.0002956906,0.00041728097,1,1,1,0,1,0
21812416000,21812336000,1310996,0.00052190677,-0.00032046487,-0.0007138794,0.34906584,2.2365927e-07,1.740309e-07,3.2044392e-07,1310996,-0.018816182,-0.008081288,0.05786029,0.4,0.00078123936,0.00079943996,0.00078123936,197644,0.014808536,-0.010579394,0.00049663713,0.5,0.00015893207,0.00029377904,0.00041145607,1,1,1,0,1,0
21812624000,21812544000,1310996,0.0005088982,-0.0003173066,-0.0007028035,0.34906584,2.213267e-07,1.7463364e-07,3.1859537e-07,1310996,-0.018746335,-0.008551953,0.05971551,0.4,0.00078123936,0.0007944031,0.00078123936,197644,0.01472996,-0.010683752,0.00054637744,0.5,0.00015772747,0.00029272627,0.00040740723,1,1,1,0,1,0
21812832000,21812752000,1310996,0.0004996283,-0.000315497,-0.0006951135,0.34906584,2.191205e-07,1.7528302e-07,3.163262e-07,1310996,-0.018670123,-0.008841311,0.061111104,0.4,0.00078123936,0.00079031195,0.00078123936,197644,0.01472996,-0.010683752,0.00054637744,0.5,0.00015772747,0.00029272627,0.00040740723,1,1,1,0,1,0
21813040000,21812960000,1310996,0.00048924645,-0.00031311842,-0.0006863579,0.34906584,2.1711787e-07,1.7593578e-07,3.14251e-07,1310996,-0.018590933,-0.00912808,0.06287817,0.4,0.00078123936,0.000786998,0.00078123936,197644,0.01472996,-0.010683752,0.00054637744,0.5,0.00015772747,0.00029272627,0.00040740723,1,1,1,0,1,0
21813248000,21813168000,1310996,0.00048316398,-0.00031303303,-0.00068178575,0.34906584,2.1531037e-07,1.7658273e-07,3.124059e-07,1310996,-0.0184515,-0.009285552,0.06427013,0.4,0.00078123936,0.00078432274,0.00078123936,197644,0.01472996,-0.010683752,0.00054637744,0.5,0.00015772747,0.00029272627,0.00040740723,1,1,1,0,1,0
21813608000,21813528000,1310996,0.00047180775,-0.00031132062,-0.00067263213,0.34906584,2.1424046e-07,1.7822465e-07,3.1113265e-07,1310996,-0.018375602,-0.009536056,0.06604935,0.4,0.00078123936,0.0007820475,0.00078123936,197644,0.01472996,-0.010683752,0.00054637744,0.5,0.00015772747,0.00029272627,0.00040740723,1,1,1,0,1,0
21813816000,21813736000,1310996,0.00046896984,-0.0003091499,-0.00067099516,0.34906584,2.1239408e-07,1.78669e-07,3.0959643e-07,1310996,-0.018373918,-0.009585158,0.06733483,0.4,0.00078123936,0.00078123936,0.00078123936,197644,0.01472996,-0.010683752,0.00054637744,0.5,0.00015772747,0.00029272627,0.00040740723,1,1,1,0,1,0
21814024000,21813944000,1310996,0.00046192348,-0.00030777295,-0.00066646014,0.34906584,2.1080005e-07,1.7911903e-07,3.0838154e-07,1310996,-0.01835915,-0.009723223,0.06840389,0.4,0.00078123936,0.00078123936,0.00078123936,197644,0.01472996,-0.010683752,0.00054637744,0.5,0.00015772747,0.00029272627,0.00040740723,1,1,1,0,1,0
21814232000,21814152000,1310996,0.00046396104,-0.0003083928,-0.00067021477,0.34906584,2.09403e-07,1.795633e-07,3.0744087e-07,1310996,-0.018272156,-0.009688894,0.06980985,0.4,0.00078123936,0.00078123936,0.00078123936,197644,0.01472996,-0.010683752,0.00054637744,0.5,0.00015772747,0.00029272627,0.00040740723,1,1,1,0,1,0
21814440000,21814360000,1310996,0.00046298638,-0.00031122126,-0.0006699552,0.34906584,2.0815813e-07,1.7999233e-07,3.0673328e-07,1310996,-0.01814116,-0.009698803,0.07088404,0.4,0.00078123936,0.00078123936,0.00078123936,197644,0.01472996,-0.010683752,0.00054637744,0.5,0.00015772747,0.00029272627,0.00040740723,1,1,1,0,1,0
21815016000,21814936000,1310996,0.0004685946,-0.00031527123,-0.0006777029,0.34906584,2.0637277e-07,1.8158586e-07,3.064214e-07,1310996,-0.017991785,-0.0096434755,0.073116295,0.4,0.00078123936,0.00078123936,0.00078123936,197644,0.01472996,-0.010683752,0.00054637744,0.5,0.00015772747,0.00029272627,0.00040740723,1,1,1,0,1,0
21815224000,21815144000,1310996,0.0004719429,-0.0003203622,-0.00067990506,0.34906584,2.051663e-07,1.8175841e-07,3.0643886e-07,1310996,-0.017867707,-0.009609734,0.0742012,0.4,0.00078123936,0.00078123936,0.00078123936,197644,0.01472996,-0.010683752,0.00054637744,0.5,0.00015772747,0.00029272627,0.00040740723,1,1,1,0,1,0
21815432000,21815352000,1310996,0.00046994342,-0.00032093874,-0.0006805101,0.34906584,2.0405508e-07,1.819259e-07,3.0636556e-07,1310996,-0.017848691,-0.009627229,0.07532207,0.4,0.00078123936,0.00078123936,0.00078123936,197644,0.01472996,-0.010683752,0.00054637744,0.5,0.00015772747,0.00029272627,0.00040740723,1,1,1,0,1,0
21815640000,21815560000,1310996,0.00046972188,-0.00032315624,-0.0006815317,0.34906584,2.0303534e-07,1.8208016e-07,3.0642303e-07,1310996,-0.01780566,-0.009623475,0.07682903,0.4,0.00078123936,0.00078123936,0.00078123936,197644,0.01472996,-0.010683752,0.00054637744,0.5,0.00015772747,0.00029272627,0.00040740723,1,1,1,0,1,0
21816208000,21816128000,1310996,0.00047661492,-0.0003296635,-0.00068884157,0.34906584,2.0192294e-07,1.8324288e-07,3.0750488e-07,1310996,-0.017746495,-0.009608131,0.07892794,0.4,0.00078123936,0.00078123936,0.00078123936,197644,0.01472996,-0.010683752,0.00054637744,0.5,0.00015772747,0.00029272627,0.00040740723,1,1,1,0,1,0
21816416000,21816336000,1310996,0.00047692534,-0.00033364573,-0.00069040013,0.34906584,2.0071167e-07,1.8308104e-07,3.0779145e-07,1310996,-0.017723298,-0.009606443,0.080086604,0.4,0.00078123936,0.00078123936,0.00078123936,197644,0.01472996,-0.010683752,0.00054637744,0.5,0.00015772747,0.00029272627,0.00040740723,1,1,1,0,1,0
21816832000,21816752000,1310996,0.0004833026,-0.00033686776,-0.00069745234,0.34906584,1.9856161e-07,1.8278708e-07,3.0858752e-07,1310996,-0.017727297,-0.009618435,0.08138807,0.4,0.00078123936,0.00078123936,0.00078123936,197644,0.01472996,-0.010683752,0.00054637744,0.5,0.00015772747,0.00029272627,0.00040740723,1,1,1,0,1,0
21817040000,21816960000,1310996,0.00048631482,-0.0003371787,-0.0006996445,0.34906584,1.9757461e-07,1.8263252e-07,3.0907245e-07,1310996,-0.017750103,-0.009627115,0.08244444,0.4,0.00078123936,0.00078123936,0.00078123936,197644,0.01472996,-0.010683752,0.00054637744,0.5,0.00015772747,0.00029272627,0.00040740723,1,1,1,0,1,0
21818040000,21817960000,1310996,0.0004993465,-0.00032624172,-0.00071060436,0.34906584,1.9392321e-07,1.8216069e-07,3.1211056e-07,1310996,-0.017760545,-0.009707955,0.08343545,0.4,0.00078123936,0.0007812399,0.00078123936,197644,0.01472996,-0.010683752,0.00054637744,0.5,0.00015772747,0.00029272627,0.00040740723,1,1,1,0,1,0
21818448000,21818368000,1310996,0.00050364615,-0.00031790743,-0.0007149268,0.34906584,1.9181742e-07,1.8131485e-07,3.1332044e-07,1310996,-0.017771346,-0.009746666,0.08486169,0.4,0.00078123936,0.00078123936,0.00078123936,197644,0.01472996,-0.010683752,0.00054637744,0.5,0.00015772747,0.00029272627,0.00040740723,1,1,1,0,1,0
21819224000,21819144000,1310996,0.0004999324,-0.0003054784,-0.000718778,0.34906584,1.8920426e-07,1.8050584e-07,3.1596784e-07,1310996,-0.017732497,-0.009701633,0.08616591,0.4,0.00078123936,0.00078123936,0.00078123936,197644,0.01472996,-0.010683752,0.00054637744,0.5,0.00015772747,0.00029272627,0.00040740723,1,1,1,0,1,0
21819680000,21819600000,1310996,0.0004914573,-0.00029152862,-0.0007178834,0.34906584,1.8744636e-07,1.7971689e-07,3.1766766e-07,1310996,-0.017640585,-0.009599062,0.08716175,0.4,0.0007812421,0.0007812422,0.00078123936,197644,0.01472996,-0.010683752,0.00054637744,0.5,0.00015772747,0.00029272627,0.00040740723,1,1,1,0,1,0
21820216000,21820136000,1310996,0.0004857875,-0.00028263498,-0.0007206247,0.34906584,1.8576488e-07,1.7898432e-07,3.1944643e-07,1310996,-0.017602984,-0.009518374,0.088554926,0.4,0.00078123936,0.00078123936,0.00078123936,197644,0.01472996,-0.010683752,0.00054637744,0.5,0.00015772747,0.00029272627,0.00040740723,1,1,1,0,1,0
21820840000,21820760000,1310996,0.00047443653,-0.00027071976,-0.0007206998,0.34906584,1.8264775e-07,1.7698727e-07,3.21557e-07,1310996,-0.017515741,-0.009361593,0.0896446,0.4,0.00078123936,0.00078123936,0.00078123936,197644,0.01472996,-0.010683752,0.00054637744,0.5,0.00015772747,0.00029272627,0.00040740723,1,1,1,0,1,0
21821616000,21821536000,1310996,0.00046434786,-0.00025538588,-0.00072228693,0.34906584,1.8061984e-07,1.759031e-07,3.2427377e-07,1310996,-0.017378762,-0.009217739,0.09098603,0.4,0.00078123936,0.00078123936,0.00078123936,197644,0.01472996,-0.010683752,0.00054637744,0.5,0.00015772747,0.00029272627,0.00040740723,1,1,1,0,1,0
21822240000,21822160000,1310996,0.00045250426,-0.00024154609,-0.0007269324,0.34906584,1.7792047e-07,1.7393288e-07,3.2665596e-07,1310996,-0.017241726,-0.009045585,0.092114285,0.4,0.00078123936,0.00078123936,0.00078123936,197644,0.01472996,-0.010683752,0.00054637744,0.5,0.00015772747,0.00029272627,0.00040740723,1,1,1,0,1,0
21823240000,21823160000,1310996,0.00043535358,-0.00022398568,-0.000733247,0.34906584,1.7536935e-07,1.7217938e-07,3.300268e-07,1310996,-0.017036537,-0.008803688,0.092973955,0.4,0.00078123994,0.00078123994,0.00078123994,197644,0.01472996,-0.010683752,0.00054637744,0.5,0.00015772747,0.00029272627,0.00040740723,1,1,1,0,1,0
21824240000,21824160000,1310996,0.00042086767,-0.00021213842,-0.00074066647,0.34906584,1.7348758e-07,1.7087224e-07,3.3322186e-07,1310996,-0.01688151,-0.008605193,0.093128994,0.4,0.0007812411,0.0007812411,0.0007812411,197644,0.01472996,-0.010683752,0.00054637744,0.5,0.00015772747,0.00029272627,0.00040740723,1,1,1,0,1,0
21825240000,21825160000,1310996,0.0004182913,-0.00020394118,-0.00074831716,0.34906584,1.7188671e-07,1.696999e-07,3.3586943e-07,1310996,-0.016761882,-0.008566505,0.09293761,0.4,0.00078124163,0.00078124163,0.00078124163,197644,0.01472996,-0.010683752,0.00054637744,0.5,0.00015772747,0.00029272627,0.00040740723,1,1,1,0,1,0
21826240000,21826160000,1310996,0.0004231725,-0.00019269517,-0.0007595973,0.34906584,1.7067472e-07,1.6879883e-07,3.3866905e-07,1310996,-0.016599938,-0.008611738,0.092216216,0.4,0.0007812523,0.00078125356,0.0007812422,197644,0.01472996,-0.010683752,0.00054637744,0.5,0.00015772747,0.00029272627,0.00040740723,1,1,1,0,1,0
21826816000,21826736000,1310996,0.00043295042,-0.00018307721,-0.0007666907,0.34906584,1.6842893e-07,1.6673526e-07,3.4021622e-07,1310996,-0.016459143,-0.008710834,0.090988256,0.4,0.00078123936,0.00078123936,0.00078123936,197644,0.01472996,-0.010683752,0.00054637744,0.5,0.00015772747,0.00029272627,0.00040740723,1,1,1,0,1,0
21827232000,21827152000,1310996,0.00043902852,-0.00017483214,-0.0007704358,0.34906584,1.6739779e-07,1.6580658e-07,3.4120745e-07,1310996,-0.016343627,-0.008769837,0.089896925,0.4,0.00078123936,0.00078123936,0.00078123936,197644,0.01472996,-0.010683752,0.00054637744,0.5,0.00015772747,0.00029272627,0.00040740723,1,1,1,0,1,0
21828232000,21828152000,1310996,0.00045161674,-0.00015456007,-0.00077952404,0.34906584,1.6646834e-07,1.6506675e-07,3.4361045e-07,1310996,-0.016112149,-0.008887885,0.08944939,0.4,0.0007812399,0.0007812398,0.00078123994,197644,0.01472996,-0.010683752,0.00054637744,0.5,0.00015772747,0.00029272627,0.00040740723,1,1,1,0,1,0
21828848000,21828768000,1310996,0.00045635633,-0.0001381635,-0.0007846677,0.34906584,1.6526475e-07,1.6398005e-07,3.452471e-07,1310996,-0.015928729,-0.008928154,0.08816835,0.4,0.00078123936,0.00078123936,0.00078123936,197644,0.01472996,-0.010683752,0.00054637744,0.5,0.00015772747,0.00029272627,0.00040740723,1,1,1,0,1,0
21829832000,21829752000,1310996,0.00046845136,-0.00011944928,-0.0007922547,0.34906584,1.6455569e-07,1.6342506e-07,3.4721688e-07,1310996,-0.015738593,-0.009028393,0.08699605,0.4,0.00078123936,0.00078123936,0.00078123936,197644,0.01472996,-0.010683752,0.00054637744,0.5,0.00015772747,0.00029272627,0.00040740723,1,1,1,0,1,0
21830616000,21830536000,1310996,0.00047430967,-0.00010545461,-0.00080060796,0.34906584,1.6440289e-07,1.6337847e-07,3.4872025e-07,1310996,-0.015603949,-0.009071289,0.0854113,0.4,0.00078123936,0.00078123936,0.00078123936,197644,0.01472996,-0.010683752,0.00054637744,0.5,0.00015772747,0.00029272627,0.00040740723,1,1,1,0,1,0
21831616000,21831536000,1310996,0.0004808293,-9.156439e-05,-0.00080387905,0.34906584,1.6445054e-07,1.6354568e-07,3.5050303e-07,1310996,-0.0154838,-0.009120251,0.08552166,0.4,0.00078125176,0.00078125164,0.00078123936,197644,0.01472996,-0.010683752,0.00054637744,0.5,0.00015772747,0.00029272627,0.00040740723,1,1,1,0,1,0
21832616000,21832536000,1310996,0.0004794911,-7.513303e-05,-0.0008040203,0.34906584,1.6416743e-07,1.6337724e-07,3.5212673e-07,1310996,-0.015351981,-0.009114709,0.08566584,0.4,0.00078125246,0.0007812522,0.00078124,197644,0.01472996,-0.010683752,0.00054637744,0.5,0.00015772747,0.00029272627,0.00040740723,1,1,1,0,1,0
