timestamp,roll,pitch,yaw,thrust_body[0],thrust_body[1],thrust_body[2],reset_integral
1743177449813379,0.0039745127,0.0030080033,8.0841244e-05,0.0,0.0,-0.001,0
1743177449817379,0.0036257908,0.0026154055,8.503557e-07,0.0,0.0,-0.001,0
1743177449829379,0.0036017534,0.002167149,-0.0002154407,0.0,0.0,-0.001,0
1743177449849379,0.003429365,0.0025020367,-9.088457e-06,0.0,0.0,-0.001,0
1743177449873379,0.0030593004,0.0024792734,-6.726779e-05,0.0,0.0,-0.001,0
1743177449893379,0.0034784523,0.002245484,0.00015628892,0.0,0.0,-0.001,0
1743177449913379,0.0037687984,0.0017454722,-5.928542e-05,0.0,0.0,-0.001,0
1743177449933379,0.0037656894,0.0014896329,0.00021088363,0.0,0.0,-0.001,0
1743177449953379,0.0032120063,0.001235899,-3.804802e-06,0.0,0.0,-0.001,0
1743177449973379,0.0032024991,0.0004387587,-3.7868842e-05,0.0,0.0,-0.001,0
1743177449993379,0.0032532278,-0.0011137932,-1.8563893e-05,0.0,0.0,-0.001,0
1743177450013379,0.003414906,-0.001212194,0.00027959194,0.0,0.0,-0.001,0
1743177450033379,0.002984971,-0.0011859594,-1.2015807e-05,0.0,0.0,-0.001,0
1743177450053379,0.002960816,-0.0011919306,-0.00023840662,0.0,0.0,-0.001,0
1743177450073379,0.003752655,-0.0004171214,-5.465746e-05,0.0,0.0,-0.001,0
1743177450093379,0.003889339,-0.00011801619,-0.00021404028,0.0,0.0,-0.001,0
1743177450109379,0.0042748367,0.00035093268,-0.00021779537,0.0,0.0,-0.001,0
1743177450133379,0.0035258255,-0.001266435,-0.00016313791,0.0,0.0,-0.001,0
1743177450153379,0.0036419553,-0.001599812,0.0,0.0,0.0,-0.001,0
1743177450173379,0.004414698,-0.0020604583,0.00021487474,0.0,0.0,-0.001,0
1743177450193379,0.004227956,-0.0026385614,4.005432e-05,0.0,0.0,-0.001,0
1743177450213379,0.0041620033,-0.002022928,0.00020569563,0.0,0.0,-0.001,0
1743177450233379,0.0043276288,-0.0017678797,7.802248e-05,0.0,0.0,-0.001,0
1743177450249379,0.004264587,-0.0015350091,5.632639e-05,0.0,0.0,-0.001,0
1743177450273379,0.0038914937,-0.0028645468,0.00019943714,0.0,0.0,-0.001,0
1743177450293379,0.0035465371,-0.0033486995,0.00016021729,0.0,0.0,-0.001,0
1743177450313379,0.003892867,-0.0024290043,7.0512295e-05,0.0,0.0,-0.001,0
1743177450333379,0.003246035,-0.0024425741,0.00017607212,0.0,0.0,-0.001,0
1743177450353379,0.0031777686,-0.0027204768,0.00014519691,0.0,0.0,-0.001,0
1743177450373379,0.0025258136,-0.0022239892,0.0004118085,0.0,0.0,-0.001,0
1743177450393379,0.0035836862,-0.0027800996,0.00014477968,0.0,0.0,-0.001,0
1743177450413379,0.0040540523,-0.0029356782,0.00022655725,0.0,0.0,-0.001,0
1743177450433379,0.0043331184,-0.0030109375,1.0430813e-05,0.0,0.0,-0.001,0
1743177450453379,0.004318568,-0.0036826534,0.00028079748,0.0,0.0,-0.001,0
1743177450473379,0.003924537,-0.0046389913,3.963709e-05,0.0,0.0,-0.001,0
1743177450493379,0.0045950892,-0.0046891132,0.000121831894,0.0,0.0,-0.001,0
1743177450513379,0.004463592,-0.0053004567,-9.179115e-05,0.0,0.0,-0.001,0
1743177450533379,0.004398565,-0.0043649394,-0.0002065301,0.0,0.0,-0.001,0
1743177450553379,0.0045138593,-0.0038724968,-9.512901e-05,0.0,0.0,-0.001,0
1743177450573379,0.0044350084,-0.0032897575,-0.0001539588,0.0,0.0,-0.001,0
1743177450593379,0.0042709582,-0.003294032,-4.339218e-05,0.0,0.0,-0.001,0
1743177450613379,0.0047352454,-0.003932536,-0.00012725592,0.0,0.0,-0.001,0
1743177450629379,0.0053722654,-0.0037974068,-9.5546246e-05,0.0,0.0,-0.001,0
1743177450653379,0.00525653,-0.0039787074,-0.0002169609,0.0,0.0,-0.001,0
1743177450673379,0.0056800875,-0.0039324104,-3.129244e-05,0.0,0.0,-0.001,0
1743177450693379,0.005259459,-0.0037869879,-9.471178e-05,0.0,0.0,-0.001,0
1743177450713379,0.0041880356,-0.0035020688,-1.2516975e-06,0.0,0.0,-0.001,0
1743177450733379,0.0033507536,-0.00434852,-7.176399e-05,0.0,0.0,-0.001,0
1743177450749379,0.0032925913,-0.0038592878,-0.00023657084,0.0,0.0,-0.001,0
1743177450773379,0.0025631553,-0.0038917873,-0.00024867058,0.0,0.0,-0.001,0
1743177450793379,0.0027016555,-0.0037982373,-9.262562e-05,0.0,0.0,-0.001,0
1743177450813379,0.0029396692,-0.0029103311,-0.00016313791,0.0,0.0,-0.001,0
1743177450833379,0.0023983265,-0.0026539478,-1.5437603e-05,0.0,0.0,-0.001,0
1743177450853379,0.0012539105,-0.0021774075,-0.000238657,0.0,0.0,-0.001,0
1743177450869379,0.0016906324,-0.0023964252,0.00011974573,0.0,0.0,-0.001,0
1743177450889379,0.0011478382,-0.002424722,-0.0001013875,0.0,0.0,-0.001,0
1743177450909379,0.00028220145,-0.002783848,-0.00020736456,0.0,0.0,-0.001,0
1743177450933379,3.2257725e-05,-0.0033501156,-8.136034e-05,0.0,0.0,-0.001,0
1743177450953379,-0.00028594694,-0.004104356,-0.00012350082,0.0,0.0,-0.001,0
1743177450973379,-0.00022002989,-0.003580586,-0.00011307001,0.0,0.0,-0.001,0
1743177450989379,-0.00047588232,-0.0039644563,-8.136034e-05,0.0,0.0,-0.001,0
1743177451013379,1.5089725e-05,-0.0036952342,-0.0001026392,0.0,0.0,-0.001,0
1743177451033379,0.0005544977,-0.0042325477,-9.471178e-05,0.0,0.0,-0.001,0
1743177451053379,0.0010359768,-0.004276189,-0.00011599064,0.0,0.0,-0.001,0
1743177451073379,0.00093773426,-0.004349227,-5.13196e-05,0.0,0.0,-0.001,0
1743177451093379,0.001013189,-0.0049993577,-0.000115156174,0.0,0.0,-0.001,0
1743177451113379,0.001026589,-0.004708343,-0.00012934208,0.0,0.0,-0.001,0
1743177451133379,0.0010320593,-0.0054310504,-6.467104e-05,0.0,0.0,-0.001,0
1743177451153379,0.00058510096,-0.0044543804,-5.3822994e-05,0.0,0.0,-0.001,0
1743177451173379,0.0009214926,-0.0038729473,3.9219856e-05,0.0,0.0,-0.001,0
1743177451193379,0.00092518236,-0.0037616633,-8.7201595e-05,0.0,0.0,-0.001,0
1743177451213379,0.0008307599,-0.0041513187,-2.3782253e-05,0.0,0.0,-0.001,0
1743177451233379,0.0007032662,-0.0038768935,-0.00018107891,0.0,0.0,-0.001,0
1743177451253379,-0.00027471903,-0.0039195623,-0.0001322627,0.0,0.0,-0.001,0
1743177451273379,-0.0006984602,-0.0041605537,-4.005432e-05,0.0,0.0,-0.001,0
1743177451293379,-0.00086144987,-0.0040787742,-9.179115e-06,0.0,0.0,-0.001,0
1743177451313379,-0.0005018376,-0.0036476261,-0.000108897686,0.0,0.0,-0.001,0
1743177451333379,-0.0007825179,-0.0033898787,-0.0001335144,0.0,0.0,-0.001,0
1743177451353379,-0.0003809567,-0.0034199527,-1.5437603e-05,0.0,0.0,-0.001,0
1743177451373379,0.00036463424,-0.0027139904,-3.129244e-05,0.0,0.0,-0.001,0
1743177451393379,0.0010946041,-0.0030230887,4.839897e-05,0.0,0.0,-0.001,0
1743177451413379,0.0012166677,-0.0031410328,-4.297495e-05,0.0,0.0,-0.001,0
1743177451433379,0.0013408118,-0.0038358471,-0.00012975931,0.0,0.0,-0.001,0
1743177451453379,0.0018542039,-0.0043489295,-2.002716e-05,0.0,0.0,-0.001,0
1743177451473379,0.00186205,-0.003815837,3.129244e-05,0.0,0.0,-0.001,0
1743177451493379,0.0009224693,-0.0034958771,0.000118911266,0.0,0.0,-0.001,0
1743177451513379,0.001707799,-0.0041156104,1.001358e-05,0.0,0.0,-0.001,0
1743177451529379,0.0015878342,-0.004597827,-5.841255e-06,0.0,0.0,-0.001,0
1743177451553379,0.0010014114,-0.004577746,7.7188015e-05,0.0,0.0,-0.001,0
1743177451573379,0.0013920681,-0.005355489,1.7523766e-05,0.0,0.0,-0.001,0
1743177451589379,0.0014340499,-0.0051656323,-4.965067e-05,0.0,0.0,-0.001,0
1743177451613379,0.0014771989,-0.0042754565,7.259846e-05,0.0,0.0,-0.001,0
1743177451633379,0.0010810117,-0.0038988183,5.8829784e-05,0.0,0.0,-0.001,0
1743177451653379,0.0016570443,-0.004501446,-1.6272068e-05,0.0,0.0,-0.001,0
1743177451669379,0.002184613,-0.0044242516,8.511543e-05,0.0,0.0,-0.001,0
1743177451689379,0.003346345,-0.0046114223,2.4616718e-05,0.0,0.0,-0.001,0
1743177451713379,0.0034895488,-0.0036167789,-8.34465e-06,0.0,0.0,-0.001,0
1743177451733379,0.0041394616,-0.003773023,-0.000118911266,0.0,0.0,-0.001,0
1743177451753379,0.0046266573,-0.00380368,3.671646e-05,0.0,0.0,-0.001,0
1743177451773379,0.0050898087,-0.0039965804,0.00025075674,0.0,0.0,-0.001,0
1743177451793379,0.005380811,-0.004275927,-0.0001205802,0.0,0.0,-0.001,0
1743177451813379,0.005624511,-0.0033900936,5.00679e-06,0.0,0.0,-0.001,0
1743177451829379,0.00536869,-0.003854785,0.0001527071,0.0,0.0,-0.001,0
1743177451853379,0.0062025613,-0.0037709614,-0.000113904476,0.0,0.0,-0.001,0
1743177451869379,0.0063535185,-0.0031955652,-0.00010097027,0.0,0.0,-0.001,0
1743177451893379,0.0059913765,-0.0020502561,4.339218e-05,0.0,0.0,-0.001,0
1743177451913379,0.005553643,-0.0019588778,-1.5854836e-05,0.0,0.0,-0.001,0
1743177451933379,0.005895111,-0.0020670737,-8.678436e-05,0.0,0.0,-0.001,0
1743177451953379,0.0066753766,-0.00069589366,-7.176399e-05,0.0,0.0,-0.001,0
1743177451973379,0.006774779,-0.0006986965,0.0001180768,0.0,0.0,-0.001,0
1743177451993379,0.0065095476,-0.000869976,3.963709e-05,0.0,0.0,-0.001,0
1743177452013379,0.0066751307,-0.0013015892,3.7133694e-05,0.0,0.0,-0.001,0
1743177452033379,0.006912267,-0.00044835245,-6.67572e-06,0.0,0.0,-0.001,0
1743177452053379,0.0067724083,-3.8775557e-05,7.677078e-05,0.0,0.0,-0.001,0
1743177452073379,0.005948243,-0.00050531945,-0.000121831894,0.0,0.0,-0.001,0
1743177452089379,0.0058269617,-0.0007216116,2.2947788e-05,0.0,0.0,-0.001,0
1743177452109379,0.0055801664,-0.00067882857,3.7550926e-05,0.0,0.0,-0.001,0
1743177452129379,0.0056320103,-0.0010689636,-3.838539e-05,0.0,0.0,-0.001,0
1743177452153379,0.005615708,-0.0010526673,-0.00014477968,0.0,0.0,-0.001,0
1743177452173379,0.005038892,-0.0009130566,-0.00026744604,0.0,0.0,-0.001,0
1743177452193379,0.0051737195,-0.00061035785,4.965067e-05,0.0,0.0,-0.001,0
1743177452209379,0.005538674,-0.0012098646,-8.7201595e-05,0.0,0.0,-0.001,0
1743177452233379,0.0050071524,-0.00057568663,-8.094311e-05,0.0,0.0,-0.001,0
1743177452253379,0.0051982235,-0.00032826402,-0.000166893,0.0,0.0,-0.001,0
1743177452269379,0.0052210893,-0.00047978008,9.804964e-05,0.0,0.0,-0.001,0
1743177452293379,0.0053018867,-0.00018640462,-2.4199486e-05,0.0,0.0,-0.001,0
1743177452309379,0.004638963,-0.0002537223,0.0001180768,0.0,0.0,-0.001,0
1743177452333379,0.0045063244,-0.0006118936,6.80089e-05,0.0,0.0,-0.001,0
1743177452353379,0.005054229,-0.00031303358,-9.846687e-05,0.0,0.0,-0.001,0
1743177452373379,0.0056603304,-0.00039782535,-9.429455e-05,0.0,0.0,-0.001,0
1743177452389379,0.0054219896,-0.00089370855,6.967783e-05,0.0,0.0,-0.001,0
1743177452413379,0.0044363667,-0.002009892,-9.262562e-05,0.0,0.0,-0.001,0
1743177452429379,0.004394554,-0.0027284732,-0.000115573406,0.0,0.0,-0.001,0
1743177452453379,0.0035447963,-0.0031300096,-6.508827e-05,0.0,0.0,-0.001,0
1743177452473379,0.0027759343,-0.0031633049,9.596348e-05,0.0,0.0,-0.001,0
1743177452493379,0.0020289926,-0.0026030156,6.842613e-05,0.0,0.0,-0.001,0
1743177452513379,0.001315683,-0.0027602643,4.5478344e-05,0.0,0.0,-0.001,0
1743177452533379,0.0022216404,-0.0016249011,0.00021278858,0.0,0.0,-0.001,0
1743177452549379,0.0023396963,-0.0011778865,-0.0001180768,0.0,0.0,-0.001,0
1743177452573379,0.0030745582,-0.0006326643,-0.0002849698,0.0,0.0,-0.001,0
1743177452593379,0.003344994,-0.0009922826,-6.0081482e-05,0.0,0.0,-0.001,0
1743177452613379,0.0041795713,-0.0011292365,-2.0444393e-05,0.0,0.0,-0.001,0
1743177452633379,0.004803843,-0.0012211056,4.130602e-05,0.0,0.0,-0.001,0
1743177452653379,0.004851667,-0.0016801561,-7.176399e-05,0.0,0.0,-0.001,0
1743177452669379,0.0050230464,-0.001375942,1.6272068e-05,0.0,0.0,-0.001,0
1743177452693379,0.0049868394,-0.0016667689,-1.168251e-05,0.0,0.0,-0.001,0
1743177452713379,0.0049085896,-0.0021686242,3.671646e-05,0.0,0.0,-0.001,0
1743177452733379,0.005180794,-0.0029862903,0.00029957294,0.0,0.0,-0.001,0
1743177452753379,0.006079809,-0.0027872806,8.928776e-05,0.0,0.0,-0.001,0
1743177452773379,0.006446958,-0.0026754239,0.0001026392,0.0,0.0,-0.001,0
1743177452793379,0.0064422525,-0.0026313288,-7.760525e-05,0.0,0.0,-0.001,0
1743177452813379,0.0066162692,-0.003300366,9.596348e-06,0.0,0.0,-0.001,0
1743177452833379,0.0074393083,-0.0030882752,1.0430813e-05,0.0,0.0,-0.001,0
1743177452853379,0.00864876,-0.0036459935,0.00013434887,0.0,0.0,-0.001,0
1743177452873379,0.00913344,-0.0034928997,8.2194805e-05,0.0,0.0,-0.001,0
1743177452893379,0.009427749,-0.0039583873,9.679794e-05,0.0,0.0,-0.001,0
1743177452913379,0.009373523,-0.0041715205,1.6272068e-05,0.0,0.0,-0.001,0
1743177452933379,0.009246516,-0.004102715,3.838539e-05,0.0,0.0,-0.001,0
1743177452953379,0.008549404,-0.004409251,9.012222e-05,0.0,0.0,-0.001,0
1743177452973379,0.008290027,-0.0047124177,-4.297495e-05,0.0,0.0,-0.001,0
1743177452993379,0.007844202,-0.004379986,2.6285648e-05,0.0,0.0,-0.001,0
1743177453009379,0.006939519,-0.004240399,4.172325e-06,0.0,0.0,-0.001,0
1743177453033379,0.0074427095,-0.00424987,-8.970499e-05,0.0,0.0,-0.001,0
1743177453053379,0.008028199,-0.0035300353,-4.8816204e-05,0.0,0.0,-0.001,0
1743177453073379,0.008118586,-0.003566071,2.7120113e-05,0.0,0.0,-0.001,0
1743177453089379,0.0077572195,-0.002208239,-7.259846e-05,0.0,0.0,-0.001,0
1743177453113379,0.00915516,-0.0013541824,-4.005432e-05,0.0,0.0,-0.001,0
1743177453133379,0.009184554,-0.00138415,1.2516975e-06,0.0,0.0,-0.001,0
1743177453153379,0.009910953,-0.0014805244,-2.8371811e-05,0.0,0.0,-0.001,0
1743177453173379,0.0096031055,-0.002322078,-9.804964e-05,0.0,0.0,-0.001,0
1743177453193379,0.009532212,-0.0025477093,-6.7174435e-05,0.0,0.0,-0.001,0
1743177453213379,0.009655053,-0.0018052313,-7.092953e-05,0.0,0.0,-0.001,0
1743177453233379,0.009892057,-0.0007122117,-2.2530556e-05,0.0,0.0,-0.001,0
1743177453253379,0.010064183,-0.0007507795,-6.759167e-05,0.0,0.0,-0.001,0
1743177453269379,0.009964823,-0.0006335116,-0.00014936924,0.0,0.0,-0.001,0
1743177453293379,0.008922693,-0.00030196703,-4.7564507e-05,0.0,0.0,-0.001,0
1743177453313379,0.008985912,-0.00058955187,2.0861626e-06,0.0,0.0,-0.001,0
1743177453333379,0.008098608,-5.7052122e-05,-7.0929527e-06,0.0,0.0,-0.001,0
1743177453353379,0.008366008,0.00040209957,-4.0888786e-05,0.0,0.0,-0.001,0
1743177453373379,0.008162137,-0.00047422023,9.596348e-05,0.0,0.0,-0.001,0
1743177453393379,0.009314171,-0.0009092445,1.2934208e-05,0.0,0.0,-0.001,0
1743177453413379,0.008254929,-0.0011946058,-6.0498714e-05,0.0,0.0,-0.001,0
1743177453433379,0.0077691316,-0.00052026694,-1.1265278e-05,0.0,0.0,-0.001,0
1743177453453379,0.0071873856,-0.00048776137,-5.13196e-05,0.0,0.0,-0.001,0
1743177453473379,0.0061277025,-0.0015855872,-1.5437603e-05,0.0,0.0,-0.001,0
1743177453489379,0.005785713,-0.0024249991,9.346008e-05,0.0,0.0,-0.001,0
1743177453509379,0.005880202,-0.0026482067,-8.636713e-05,0.0,0.0,-0.001,0
1743177453533379,0.005996367,-0.001926245,-4.839897e-05,0.0,0.0,-0.001,0
1743177453553379,0.0057006264,-0.0015748614,6.67572e-05,0.0,0.0,-0.001,0
1743177453573379,0.0060664024,-0.0027311938,0.00018566847,0.0,0.0,-0.001,0
1743177453593379,0.005888684,-0.0027730074,-5.507469e-05,0.0,0.0,-0.001,0
1743177453613379,0.0067662774,-0.002316963,0.00014978647,0.0,0.0,-0.001,0
1743177453633379,0.0070836013,-0.0030385589,1.6272068e-05,0.0,0.0,-0.001,0
1743177453653379,0.007630263,-0.0032975432,-0.00013810396,0.0,0.0,-0.001,0
1743177453673379,0.007919018,-0.003820995,-0.000105559826,0.0,0.0,-0.001,0
1743177453693379,0.00821426,-0.0035137467,-1.5437603e-05,0.0,0.0,-0.001,0
1743177453713379,0.007408334,-0.0035376463,-4.297495e-05,0.0,0.0,-0.001,0
1743177453733379,0.0070375353,-0.0036040223,0.00015187263,0.0,0.0,-0.001,0
1743177453753379,0.00774853,-0.0036353185,-4.7147274e-05,0.0,0.0,-0.001,0
1743177453773379,0.007834281,-0.0030008173,-7.677078e-05,0.0,0.0,-0.001,0
1743177453793379,0.007919789,-0.0031000425,4.5895576e-06,0.0,0.0,-0.001,0
1743177453813379,0.0075120633,-0.00332933,-6.80089e-05,0.0,0.0,-0.001,0
1743177453833379,0.007703495,-0.0047849184,-1.0848045e-05,0.0,0.0,-0.001,0
1743177453853379,0.0067245397,-0.0046084407,-4.0888786e-05,0.0,0.0,-0.001,0
1743177453869379,0.00659227,-0.0037935856,0.0003838539,0.0,0.0,-0.001,0
1743177453893379,0.007106968,-0.0035022595,-0.00012975931,0.0,0.0,-0.001,0
1743177453913379,0.0074766483,-0.003177933,1.8775463e-05,0.0,0.0,-0.001,0
1743177453933379,0.008550536,-0.0031830007,-0.000121831894,0.0,0.0,-0.001,0
1743177453953379,0.008484225,-0.0030550915,0.00012266636,0.0,0.0,-0.001,0
1743177453969379,0.0077484977,-0.0032920102,-2.9623508e-05,0.0,0.0,-0.001,0
1743177453993379,0.006843689,-0.004138832,1.7523766e-05,0.0,0.0,-0.001,0
1743177454013379,0.005753043,-0.004598726,-0.00010430813,0.0,0.0,-0.001,0
1743177454033379,0.005535192,-0.0043659075,-8.3863735e-05,0.0,0.0,-0.001,0
1743177454053379,0.0050612353,-0.0037267157,-0.00016355515,0.0,0.0,-0.001,0
1743177454073379,0.004990824,-0.0032840555,-1.7106533e-05,0.0,0.0,-0.001,0
1743177454093379,0.006028388,-0.0029485621,-0.00012433529,0.0,0.0,-0.001,0
1743177454113379,0.005229211,-0.0028099692,4.7147274e-05,0.0,0.0,-0.001,0
1743177454133379,0.004970181,-0.0021751658,3.129244e-05,0.0,0.0,-0.001,0
1743177454153379,0.00539328,-0.0021521181,-6.467104e-05,0.0,0.0,-0.001,0
1743177454173379,0.005411899,-0.0025074803,-0.00010305643,0.0,0.0,-0.001,0
1743177454189379,0.0048012235,-0.0029142934,-0.00013560057,0.0,0.0,-0.001,0
1743177454213379,0.0043929233,-0.0026042687,-5.13196e-05,0.0,0.0,-0.001,0
1743177454233379,0.004379954,-0.0023639197,-1.41859055e-05,0.0,0.0,-0.001,0
1743177454249379,0.003923449,-0.0019487436,3.5464764e-05,0.0,0.0,-0.001,0
1743177454273379,0.003575387,-0.00097306375,3.7550926e-05,0.0,0.0,-0.001,0
1743177454293379,0.0031621836,-0.0002525556,-1.66893e-05,0.0,0.0,-0.001,0
1743177454309379,0.0025464974,-0.00028109213,7.843971e-05,0.0,0.0,-0.001,0
1743177454333379,0.0019819608,-2.4695837e-05,5.2154064e-05,0.0,0.0,-0.001,0
1743177454353379,0.0022980163,-2.3905086e-06,-6.842613e-05,0.0,0.0,-0.001,0
1743177454373379,0.0025149812,7.1958726e-05,-0.00013977289,0.0,0.0,-0.001,0
1743177454393379,0.002215527,0.00047206893,-1.7523766e-05,0.0,0.0,-0.001,0
1743177454413379,0.0025929227,0.0011043836,1.9609928e-05,0.0,0.0,-0.001,0
1743177454433379,0.001726804,0.0012764101,5.632639e-05,0.0,0.0,-0.001,0
1743177454453379,0.0011909473,0.0017707909,-6.508827e-05,0.0,0.0,-0.001,0
1743177454469379,0.0021832455,0.0015150693,1.8775463e-05,0.0,0.0,-0.001,0
1743177454493379,0.0024541891,0.000920875,1.2516975e-06,0.0,0.0,-0.001,0
1743177454513379,0.0019090577,0.0014468089,-6.67572e-05,0.0,0.0,-0.001,0
1743177454533379,0.0021290013,0.0009869344,3.671646e-05,0.0,0.0,-0.001,0
1743177454553379,0.0016502358,0.00092574145,3.170967e-05,0.0,0.0,-0.001,0
1743177454573379,0.0015833135,0.0012348826,0.00023198128,0.0,0.0,-0.001,0
1743177454593379,0.0010385235,0.0019049074,0.00012600422,0.0,0.0,-0.001,0
1743177454613379,0.0011886315,0.0030729745,0.00031626225,0.0,0.0,-0.001,0
1743177454633379,0.00018891157,0.0037491317,0.00014227629,0.0,0.0,-0.001,0
1743177454653379,-0.00072975596,0.00450119,3.8802624e-05,0.0,0.0,-0.001,0
1743177454669379,-0.0014653321,0.0048592463,5.7578087e-05,0.0,0.0,-0.001,0
1743177454693379,-0.0019585176,0.0032558744,-3.5881996e-05,0.0,0.0,-0.001,0
1743177454713379,-0.0026932638,0.0023522305,3.5464764e-05,0.0,0.0,-0.001,0
1743177454733379,-0.003461371,0.002282334,-8.845329e-05,0.0,0.0,-0.001,0
1743177454753379,-0.0031124428,0.001883655,6.0081482e-05,0.0,0.0,-0.001,0
1743177454773379,-0.0031623964,0.0017648459,-4.130602e-05,0.0,0.0,-0.001,0
1743177454793379,-0.004762751,0.0023312692,1.2099743e-05,0.0,0.0,-0.001,0
1743177454813379,-0.005570568,0.002452467,-0.00015980005,0.0,0.0,-0.001,0
1743177454833379,-0.005568287,0.0020300203,0.00019693375,0.0,0.0,-0.001,0
1743177454853379,-0.0061076917,0.001749398,-0.00011974573,0.0,0.0,-0.001,0
1743177454869379,-0.0056097927,0.0020401105,0.00010931492,0.0,0.0,-0.001,0
1743177454893379,-0.005530394,0.0018617229,-7.3850155e-05,0.0,0.0,-0.001,0
1743177454913379,-0.006278161,0.0013225828,5.298853e-05,0.0,0.0,-0.001,0
1743177454933379,-0.007074837,0.001217305,-7.760525e-05,0.0,0.0,-0.001,0
1743177454953379,-0.007124506,0.0017832095,-5.00679e-05,0.0,0.0,-0.001,0
1743177454973379,-0.007713524,0.0020205374,5.2571297e-05,0.0,0.0,-0.001,0
1743177454993379,-0.007918115,0.002714077,-3.2544136e-05,0.0,0.0,-0.001,0
1743177455013379,-0.0072812117,0.002519456,6.967783e-05,0.0,0.0,-0.001,0
1743177455029379,-0.00701793,0.0032623413,0.0,0.0,0.0,-0.001,0
1743177455053379,-0.0062734797,0.0034089342,-0.0001706481,0.0,0.0,-0.001,0
1743177455073379,-0.006158424,0.004182324,1.4603138e-05,0.0,0.0,-0.001,0
1743177455093379,-0.0060216417,0.0043573035,5.5909157e-05,0.0,0.0,-0.001,0
1743177455113379,-0.0067648324,0.004032731,-0.000100553036,0.0,0.0,-0.001,0
1743177455133379,-0.0069632735,0.0049223113,1.7940998e-05,0.0,0.0,-0.001,0
1743177455149379,-0.0068656374,0.0056964033,3.33786e-05,0.0,0.0,-0.001,0
1743177455173379,-0.0071443687,0.0051930053,-0.00032126904,0.0,0.0,-0.001,0
1743177455193379,-0.0071781687,0.0047339965,5.173683e-05,0.0,0.0,-0.001,0
1743177455213379,-0.0067112655,0.0048696785,4.2140484e-05,0.0,0.0,-0.001,0
1743177455233379,-0.0072432193,0.004258784,8.261204e-05,0.0,0.0,-0.001,0
1743177455253379,-0.007870296,0.003911142,-0.00014644861,0.0,0.0,-0.001,0
1743177455273379,-0.0076172035,0.003425004,-7.0929527e-06,0.0,0.0,-0.001,0
1743177455293379,-0.007729731,0.0035313845,0.0001026392,0.0,0.0,-0.001,0
1743177455313379,-0.007584906,0.0032395588,8.34465e-06,0.0,0.0,-0.001,0
1743177455333379,-0.007369859,0.003450733,5.5491924e-05,0.0,0.0,-0.001,0
1743177455353379,-0.007820271,0.003547183,2.503395e-06,0.0,0.0,-0.001,0
1743177455373379,-0.008166616,0.0038820854,-0.00031000376,0.0,0.0,-0.001,0
1743177455393379,-0.0082998555,0.0025563417,-3.4213066e-05,0.0,0.0,-0.001,0
1743177455413379,-0.0077181086,0.0027338853,0.00021529198,0.0,0.0,-0.001,0
1743177455429379,-0.0072129937,0.002461976,-3.0040741e-05,0.0,0.0,-0.001,0
1743177455453379,-0.0074397735,0.0018167491,8.678436e-05,0.0,0.0,-0.001,0
1743177455473379,-0.0072285202,0.002175652,-2.002716e-05,0.0,0.0,-0.001,0
1743177455489379,-0.0073603354,0.0021374372,6.92606e-05,0.0,0.0,-0.001,0
1743177455513379,-0.007940573,0.003193087,-1.2099743e-05,0.0,0.0,-0.001,0
1743177455533379,-0.008239472,0.0034288208,3.170967e-05,0.0,0.0,-0.001,0
1743177455553379,-0.025126116,-0.030424936,5.6743622e-05,0.0,0.0,-0.006837064,0
1743177455573379,-0.026069181,0.057482667,-0.00014519691,0.0,0.0,-0.009423497,0
1743177455593379,-0.026260361,0.016741185,0.0001527071,0.0,0.0,-0.013189453,0
1743177455613379,-0.02475141,0.013970307,-5.5491924e-05,0.0,0.0,-0.015694749,0
1743177455633379,-0.024456989,0.01330507,8.34465e-05,0.0,0.0,-0.019666102,0
1743177455653379,-0.02361548,0.011885551,0.00012725592,0.0,0.0,-0.022392241,0
1743177455673379,-0.02419564,0.013442377,-1.2934208e-05,0.0,0.0,-0.026580818,0
1743177455693379,-0.026428754,0.012495341,0.00013101101,0.0,0.0,-0.029479317,0
1743177455713379,-0.025666166,0.00965865,-0.00013560057,0.0,0.0,-0.033818427,0
1743177455733379,-0.024835587,0.0056556207,-0.00011140108,0.0,0.0,-0.03689879,0
1743177455753379,-0.022124395,0.0074661807,-3.838539e-05,0.0,0.0,-0.041503794,0
1743177455773379,-0.021915903,0.007913725,0.00012725592,0.0,0.0,-0.044691317,0
1743177455793379,-0.023472873,0.0068831537,-6.67572e-06,0.0,0.0,-0.0494001,0
1743177455809379,-0.020589842,0.0057113157,-6.0498714e-05,0.0,0.0,-0.052529484,0
1743177455829379,-0.022420483,0.0060737985,-0.0001193285,0.0,0.0,-0.055882934,0
1743177455853379,-0.022496302,0.0045929397,-7.677078e-05,0.0,0.0,-0.061161958,0
1743177455869379,-0.021561405,0.0045906263,-0.00014770031,0.0,0.0,-0.06455761,0
1743177455893379,-0.020098023,0.004914795,9.471178e-05,0.0,0.0,-0.06985478,0
1743177455909379,-0.018797483,0.0065822983,-9.596348e-05,0.0,0.0,-0.07346744,0
1743177455933379,-0.014426411,0.0051914663,-1.2516975e-06,0.0,0.0,-0.07914642,0
1743177455953379,-0.012528826,0.0011566444,4.172325e-06,0.0,0.0,-0.08486695,0
1743177455973379,-0.009393184,0.0028906753,0.00015312433,0.0,0.0,-0.0886711,0
1743177455993379,-0.01040528,0.006307243,-8.34465e-06,0.0,0.0,-0.094271705,0
1743177456013379,-0.008818756,0.0065218387,-2.503395e-05,0.0,0.0,-0.0981679,0
1743177456033379,-0.007427848,0.003939428,5.3822994e-05,0.0,0.0,-0.10424081,0
1743177456053379,-0.0075418144,0.0010072547,8.34465e-07,0.0,0.0,-0.108424924,0
1743177456073379,-0.005246416,0.00089175266,0.0002040267,0.0,0.0,-0.11478101,0
1743177456093379,-0.0038671782,0.0013854436,0.00023031235,0.0,0.0,-0.119073816,0
1743177456113379,-0.0032342235,0.00055018754,-0.00010681152,0.0,0.0,-0.1255576,0
1743177456133379,-0.00292954,-0.0018593755,8.636713e-05,0.0,0.0,-0.12991187,0
1743177456153379,-0.0028319196,-0.000993634,-7.7188015e-05,0.0,0.0,-0.13670754,0
1743177456173379,-0.0039381296,0.0018039927,1.6272068e-05,0.0,0.0,-0.14127693,0
1743177456193379,-0.0071326504,0.002148439,0.0,0.0,0.0,-0.14808142,0
1743177456213379,-0.005746684,0.00094540307,-2.3782253e-05,0.0,0.0,-0.1527201,0
1743177456229379,-0.007539532,0.00029853842,-6.0081482e-05,0.0,0.0,-0.15747632,0
1743177456253379,-0.0041845185,0.0031118908,-1.9192696e-05,0.0,0.0,-0.16460407,0
1743177456273379,-0.005641916,0.0035788282,5.00679e-05,0.0,0.0,-0.17217167,0
1743177456293379,-0.0049616825,0.0073849186,-0.00014603138,0.0,0.0,-0.17710449,0
1743177456313379,-0.006169449,0.0071998443,-3.838539e-05,0.0,0.0,-0.1845648,0
1743177456333379,-0.0051546283,0.008015351,-4.839897e-05,0.0,0.0,-0.18961126,0
1743177456353379,-0.009222854,0.0077822884,-3.9219856e-05,0.0,0.0,-0.19730647,0
1743177456373379,-0.008205445,0.0083891535,1.7106533e-05,0.0,0.0,-0.20248006,0
1743177456389379,-0.011760657,0.005551329,-0.00011181831,0.0,0.0,-0.20773794,0
1743177456413379,-0.015451945,0.0056213294,-0.0001514554,0.0,0.0,-0.2158392,0
1743177456433379,-0.014271155,0.0044053565,-0.00015980005,0.0,0.0,-0.2239171,0
1743177456453379,-0.012703945,0.0032911045,5.507469e-05,0.0,0.0,-0.22928242,0
1743177456473379,-0.012836646,-1.9730942e-05,-1.835823e-05,0.0,0.0,-0.23762709,0
1743177456493379,-0.010922792,-0.00078171684,-1.7940998e-05,0.0,0.0,-0.24334094,0
1743177456509379,-0.008464521,-0.0017720285,4.798174e-05,0.0,0.0,-0.24901356,0
1743177456533379,-0.007000815,-0.0068799052,0.0002411604,0.0,0.0,-0.25775054,0
1743177456553379,-0.0031075715,-0.0035803278,-9.512901e-05,0.0,0.0,-0.26670825,0
1743177456573379,-0.0036872549,-0.0022700087,0.00019568205,0.0,0.0,-0.2726923,0
1743177456589379,-0.003931327,-0.0019147685,-0.0001706481,0.0,0.0,-0.27866542,0
1743177456613379,-0.0019484167,-0.0026235085,-4.2557716e-05,0.0,0.0,-0.2876349,0
1743177456633379,-0.0016089461,-0.005170741,7.0929527e-06,0.0,0.0,-0.29690874,0
1743177456653379,-0.002686568,-0.0027610424,-0.00031292439,0.0,0.0,-0.303064,0
1743177456673379,-0.0023615747,-0.0011783977,-5.298853e-05,0.0,0.0,-0.312664,0
1743177456693379,-0.0018026854,0.00027014024,-0.00025326014,0.0,0.0,-0.3188947,0
1743177456713379,-0.0013121141,0.0009811427,6.0081482e-05,0.0,0.0,-0.32839233,0
1743177456733379,-0.0015918175,0.0020676316,6.341934e-05,0.0,0.0,-0.33486924,0
1743177456753379,-0.0036288952,0.004649082,3.963709e-05,0.0,0.0,-0.34483036,0
1743177456773379,-0.0035990025,0.0052311053,0.00011765957,0.0,0.0,-0.3513857,0
1743177456793379,-0.0030881243,0.0046453136,-4.839897e-05,0.0,0.0,-0.3615932,0
1743177456813379,-0.003989444,0.0032793046,9.971857e-05,0.0,0.0,-0.36846986,0
1743177456833379,-0.0024081238,0.003215881,1.66893e-05,0.0,0.0,-0.3755496,0
1743177456853379,-0.0034316417,0.0016202694,-0.00015896559,0.0,0.0,-0.37830105,0
1743177456873379,-0.0041774902,-0.00079956965,9.846687e-05,0.0,0.0,-0.38030303,0
1743177456893379,-0.0016037431,-0.0029336184,2.002716e-05,0.0,0.0,-0.38301802,0
1743177456909379,0.0015480984,-0.0029313574,4.5478344e-05,0.0,0.0,-0.38515955,0
1743177456929379,0.0022643055,-0.0031624474,-8.59499e-05,0.0,0.0,-0.3879753,0
1743177456953379,0.00061220024,-0.0026274426,-5.0485134e-05,0.0,0.0,-0.3902065,0
1743177456973379,2.030679e-05,-0.0047604367,0.00027412176,0.0,0.0,-0.39316103,0
1743177456993379,0.0036193577,-0.005271103,-1.9192696e-05,0.0,0.0,-0.39512685,0
1743177457013379,0.0028608239,-0.0029336729,0.00019860268,0.0,0.0,-0.39805117,0
1743177457033379,0.0019292994,-0.0031792475,7.635355e-05,0.0,0.0,-0.39997137,0
1743177457053379,0.00046209828,-0.005780605,-3.4213066e-05,0.0,0.0,-0.40305546,0
1743177457073379,0.0016078535,-0.0044666873,-7.176399e-05,0.0,0.0,-0.40515402,0
1743177457093379,0.00113083,-0.0026230204,0.00010097027,0.0,0.0,-0.40819734,0
1743177457113379,-0.0023319332,0.0005609974,0.00016480684,0.0,0.0,-0.41035903,0
1743177457133379,-0.0010893447,-0.0019239435,2.2530556e-05,0.0,0.0,-0.41356155,0
1743177457153379,0.002336864,-0.00011147396,8.010864e-05,0.0,0.0,-0.4155902,0
1743177457173379,0.0026247941,0.00021396589,0.0001385212,0.0,0.0,-0.4187643,0
1743177457193379,-0.00028987043,0.00059884146,2.2113323e-05,0.0,0.0,-0.42074534,0
1743177457213379,0.0020011587,-9.243388e-05,4.2140484e-05,0.0,0.0,-0.42409956,0
1743177457233379,0.0037906442,0.0007624051,7.468462e-05,0.0,0.0,-0.4264347,0
1743177457253379,0.0031887654,0.0011133911,4.839897e-05,0.0,0.0,-0.4298604,0
1743177457273379,0.0023674073,-0.0033135284,-6.175041e-05,0.0,0.0,-0.43204677,0
1743177457293379,0.004150276,-0.0038173725,0.00011640787,0.0,0.0,-0.43544006,0
1743177457313379,0.0020642008,-0.0031738537,6.592274e-05,0.0,0.0,-0.43761733,0
1743177457333379,0.003619957,-0.00024264026,1.9192696e-05,0.0,0.0,-0.4412127,0
1743177457349379,0.0028265757,-0.0029389532,3.671646e-05,0.0,0.0,-0.4432469,0
1743177457373379,0.0057649827,-0.0027312934,-6.467104e-05,0.0,0.0,-0.44713053,0
1743177457393379,0.0054760017,-0.0037009828,2.7120113e-05,0.0,0.0,-0.44947848,0
1743177457413379,0.004903141,-0.00015009288,-2.6285648e-05,0.0,0.0,-0.4532599,0
1743177457433379,0.005836339,0.000112549984,-7.635355e-05,0.0,0.0,-0.45548746,0
1743177457453379,0.0036433844,-0.0014030542,-0.000108897686,0.0,0.0,-0.45924702,0
1743177457473379,0.0050783562,-0.0017573304,1.3768673e-05,0.0,0.0,-0.46156314,0
1743177457493379,0.0041192607,-0.003590476,0.00020110607,0.0,0.0,-0.46546128,0
1743177457513379,0.0025957187,-0.005375588,-3.0457973e-05,0.0,0.0,-0.46758395,0
1743177457533379,0.0034733117,-0.0016778663,5.0902367e-05,0.0,0.0,-0.47148308,0
1743177457553379,0.0037080853,0.00016412965,-6.467104e-05,0.0,0.0,-0.4736874,0
1743177457573379,0.002316784,0.0013191771,-6.300211e-05,0.0,0.0,-0.477618,0
1743177457593379,0.0012956755,0.0024547684,0.00012642145,0.0,0.0,-0.47973454,0
1743177457613379,0.00020959973,0.0024700626,-7.7188015e-05,0.0,0.0,-0.48389733,0
1743177457633379,0.0015864631,0.0019176145,2.2113323e-05,0.0,0.0,-0.4861689,0
1743177457653379,0.0018396578,-0.00011537853,5.13196e-05,0.0,0.0,-0.4903579,0
1743177457673379,0.0033889578,-0.001429967,1.7523766e-05,0.0,0.0,-0.49274758,0
1743177457693379,0.004882492,0.0002056543,0.000113904476,0.0,0.0,-0.49699894,0
1743177457713379,0.006256571,-0.0012324835,1.5854836e-05,0.0,0.0,-0.4994579,0
1743177457733379,0.004251523,-1.6937964e-05,0.00015103817,0.0,0.0,-0.5037805,0
1743177457749379,0.0025460883,-0.0015595321,3.0040741e-05,0.0,0.0,-0.50589,0
1743177457773379,0.0026877576,-0.0026211543,0.00014936924,0.0,0.0,-0.5105661,0
1743177457793379,0.0037360862,-0.0032129693,-7.7188015e-05,0.0,0.0,-0.51287144,0
1743177457813379,0.006355738,-0.00021834718,3.3795834e-05,0.0,0.0,-0.5173693,0
1743177457829379,0.0069027166,-0.0013005078,0.00013810396,0.0,0.0,-0.5195468,0
1743177457853379,0.0050353757,0.0017579675,0.00012141466,0.0,0.0,-0.52450603,0
1743177457869379,0.007584141,0.0024196832,0.00015771389,0.0,0.0,-0.5265606,0
1743177457893379,0.0069950293,0.0025917173,-0.000103890896,0.0,0.0,-0.5315993,0
1743177457913379,0.005093651,0.003400832,4.2140484e-05,0.0,0.0,-0.53406966,0
1743177457933379,0.0059879757,-0.0005678561,1.835823e-05,0.0,0.0,-0.53895724,0
1743177457953379,0.7324205,-0.29885185,0.0061646104,0.0,0.0,-0.5448612,0
1743177457973379,0.70433164,-0.28459322,0.005918443,0.0,0.0,-0.5469963,0
1743177457989379,0.5056717,-0.1995849,0.0028488636,0.0,0.0,-0.5444621,0
1743177458013379,0.32331404,-0.117726244,0.0012854934,0.0,0.0,-0.54382986,0
1743177458033379,0.20847371,-0.066578984,0.00073599815,0.0,0.0,-0.54052156,0
1743177458053379,0.12925625,-0.029523347,0.0003951192,0.0,0.0,-0.54178107,0
1743177458069379,0.070473924,-0.006880167,4.965067e-05,0.0,0.0,-0.5400089,0
1743177458093379,-0.0008226596,0.014477443,-0.00018024445,0.0,0.0,-0.53986824,0
1743177458113379,-0.04886066,0.026709788,-0.0003325343,0.0,0.0,-0.53675145,0
1743177458133379,-0.08178582,0.033984333,-0.00041222572,0.0,0.0,-0.5385247,0
1743177458149379,-0.097601965,0.03603349,-0.0006734133,0.0,0.0,-0.53715026,0
1743177458173379,-0.11180836,0.03440698,-0.00069886446,0.0,0.0,-0.5376175,0
1743177458193379,-0.11900216,0.03079763,-0.00052279234,0.0,0.0,-0.53483504,0
1743177458213379,-0.11243551,0.02531964,-0.000328362,0.0,0.0,-0.53726155,0
1743177458233379,-0.10352942,0.02069801,-0.0003529787,0.0,0.0,-0.53445065,0
1743177458253379,-0.08944862,0.0147912735,-0.00038009882,0.0,0.0,-0.5369722,0
1743177458273379,-0.077256106,0.014770086,-0.00014644861,0.0,0.0,-0.53406096,0
1743177458293379,-0.060399197,0.009658514,-0.00015103817,0.0,0.0,-0.53679043,0
1743177458313379,-0.04777384,0.007993847,-0.00012642145,0.0,0.0,-0.5339018,0
1743177458333379,-0.032519583,0.004047096,-0.00016272068,0.0,0.0,-0.53652626,0
1743177458349379,-0.024838574,0.0023124195,-8.2194805e-05,0.0,0.0,-0.535304,0
1743177458373379,-0.013761896,0.0040444834,-0.0001013875,0.0,0.0,-0.5363547,0
1743177458393379,-0.0102182655,0.004012578,-6.67572e-05,0.0,0.0,-0.5332534,0
1743177458413379,-0.0060797483,0.00048111263,0.000121831894,0.0,0.0,-0.5362252,0
1743177458433379,-0.0013878113,0.001212369,-9.512901e-05,0.0,0.0,-0.5330283,0
1743177458453379,-0.00023575732,0.003486569,-3.7550926e-06,0.0,0.0,-0.53617585,0
1743177458473379,-0.0025584982,0.0060221152,0.00014603138,0.0,0.0,-0.5328706,0
1743177458493379,-0.0041819336,0.0044709956,-3.7550926e-06,0.0,0.0,-0.5361249,0
1743177458513379,-0.008396363,0.005872455,8.010864e-05,0.0,0.0,-0.532634,0
1743177458529379,-0.013153691,0.009330687,-4.7147274e-05,0.0,0.0,-0.53586745,0
1743177458549379,-0.0135551775,0.009121993,-0.00022405386,0.0,0.0,-0.5344078,0
1743177458573379,-0.017415756,0.008848739,3.2544136e-05,0.0,0.0,-0.56654507,0
1743177458593379,-0.021584984,0.01070657,2.169609e-05,0.0,0.0,-0.5690208,0
1743177458613379,-0.020952776,0.0112963235,-3.33786e-06,0.0,0.0,-0.5771202,0
1743177458633379,-0.022510093,0.012800518,-6.258488e-05,0.0,0.0,-0.57574195,0
1743177458653379,-0.024549423,0.012410951,-0.000202775,0.0,0.0,-0.58243805,0
1743177458673379,-0.026508663,0.013974038,-0.00012433529,0.0,0.0,-0.5790835,0
1743177458693379,-0.026131416,0.01338933,-0.00014853477,0.0,0.0,-0.5854137,0
1743177458709379,-0.027872007,0.015640326,-0.00013142824,0.0,0.0,-0.5862881,0
1743177458733379,-0.029222509,0.013157526,-0.00014102459,0.0,0.0,-0.5870608,0
1743177458753379,-0.028131036,0.010556908,-0.00015062094,0.0,0.0,-0.58156204,0
1743177458773379,-0.026995646,0.014782385,-0.00021487474,0.0,0.0,-0.58818597,0
1743177458789379,-0.026238613,0.016429437,-0.00012099743,0.0,0.0,-0.5889471,0
1743177458813379,-0.029567437,0.013563934,-1.2516975e-05,0.0,0.0,-0.58990216,0
1743177458833379,-0.02861422,0.010464964,8.34465e-07,0.0,0.0,-0.58397526,0
1743177458853379,-0.025840355,0.00928807,-0.00016105175,0.0,0.0,-0.5916901,0
1743177458873379,-0.02466959,0.004237531,-5.841255e-06,0.0,0.0,-0.585693,0
1743177458889379,-0.023332383,0.0050446573,-7.0929527e-06,0.0,0.0,-0.594061,0
1743177458913379,-0.02172798,0.003332832,9.179115e-06,0.0,0.0,-0.58797365,0
1743177458933379,-0.022912113,0.005680367,3.0457973e-05,0.0,0.0,-0.59703445,0
1743177458953379,-0.02293358,0.007390868,-3.2544136e-05,0.0,0.0,-0.5905418,0
1743177458973379,-0.018476158,0.0051843836,-0.00017982721,0.0,0.0,-0.60011655,0
1743177458993379,-0.01908913,0.0012475608,-4.839897e-05,0.0,0.0,-0.5934681,0
1743177459013379,-0.019274134,0.0013748626,-2.5868416e-05,0.0,0.0,-0.60358024,0
1743177459033379,-0.020006072,0.0073700338,-6.67572e-06,0.0,0.0,-0.5964784,0
1743177459053379,-0.016994707,0.010441765,0.0002782941,0.0,0.0,-0.60688776,0
1743177459073379,-0.019908091,0.010337713,-2.5868416e-05,0.0,0.0,-0.5994434,0
1743177459093379,-0.02077335,0.01061998,-0.00021320581,0.0,0.0,-0.6107698,0
1743177459113379,-0.021259166,0.008428569,1.0430813e-05,0.0,0.0,-0.6029035,0
1743177459133379,-0.018397927,0.0057525267,0.00011599064,0.0,0.0,-0.6147123,0
1743177459153379,-0.015438907,0.0058012595,7.635355e-05,0.0,0.0,-0.6063583,0
1743177459173379,-0.015844736,0.0033640587,0.000102221966,0.0,0.0,-0.61858356,0
1743177459193379,-0.011942083,0.0021454482,3.838539e-05,0.0,0.0,-0.60969955,0
1743177459213379,-0.0080019245,0.000912521,0.000121831894,0.0,0.0,-0.6158382,0
1743177459233379,-0.013560456,0.0034630373,-0.00015813112,0.0,0.0,-0.59808165,0
1743177459253379,-0.00998703,0.006294514,7.843971e-05,0.0,0.0,-0.5988667,0
1743177459273379,-0.011470352,0.006353192,-0.00010764599,0.0,0.0,-0.5816257,0
1743177459293379,-0.011892155,0.0043504913,7.635355e-05,0.0,0.0,-0.5825378,0
1743177459313379,-0.01259067,0.0017780234,-0.0001539588,0.0,0.0,-0.5669152,0
1743177459333379,-0.010704836,0.002057268,-0.00016188622,0.0,0.0,-0.5691572,0
1743177459353379,-0.008539821,0.0010855949,1.50203705e-05,0.0,0.0,-0.55552423,0
1743177459373379,-0.009809893,0.002940444,-8.46982e-05,0.0,0.0,-0.5587402,0
1743177459393379,-0.008833631,0.0032877978,-3.129244e-05,0.0,0.0,-0.5468354,0
1743177459413379,-0.009313354,-0.00030266924,3.46303e-05,0.0,0.0,-0.5510546,0
1743177459429379,-0.010650104,0.0024602641,6.633997e-05,0.0,0.0,-0.54865813,0
1743177459453379,-0.003967855,0.0045802374,-4.965067e-05,0.0,0.0,-0.54550195,0
1743177459473379,-0.003232602,0.00043967084,-2.7954578e-05,0.0,0.0,-0.5363639,0
1743177459493379,-0.003934834,0.0026650566,6.508827e-05,0.0,0.0,-0.541409,0
1743177459513379,-0.0067799133,0.0048658717,-2.670288e-05,0.0,0.0,-0.5328725,0
1743177459533379,-0.00702421,0.0015940089,-0.00017857552,0.0,0.0,-0.53821445,0
1743177459553379,-0.0030643647,-0.0013563341,-4.339218e-05,0.0,0.0,-0.53021026,0
1743177459573379,0.00082253566,-0.0009562186,-8.34465e-06,0.0,0.0,-0.53549236,0
1743177459593379,-0.0013527839,0.0017627825,-1.41859055e-05,0.0,0.0,-0.5280079,0
1743177459613379,0.000112705486,0.002038669,-0.00010597706,0.0,0.0,-0.5332136,0
1743177459633379,0.0027461017,0.00079798966,7.635355e-05,0.0,0.0,-0.52581704,0
1743177459653379,0.002444941,0.00028882315,-2.9206276e-06,0.0,0.0,-0.5308052,0
1743177459673379,0.00080002064,0.003711129,-6.2167645e-05,0.0,0.0,-0.5234954,0
1743177459693379,-5.9192636e-05,0.0016112034,-9.137392e-05,0.0,0.0,-0.52798027,0
1743177459713379,-0.0029423952,0.001339558,0.00014185905,0.0,0.0,-0.52065617,0
1743177459733379,-0.001638817,0.0013106688,0.00032877922,0.0,0.0,-0.5249923,0
1743177459753379,-0.0024726936,0.0041239993,0.00014519691,0.0,0.0,-0.5178829,0
1743177459773379,-2.911345e-05,0.0042744013,0.00033128262,0.0,0.0,-0.52201605,0
1743177459793379,-0.0016416743,0.0050092554,0.00016355515,0.0,0.0,-0.51523626,0
1743177459813379,-0.002987498,0.0032664936,0.00034296513,0.0,0.0,-0.51895183,0
1743177459833379,-0.0019095968,-0.004089173,0.00014144182,0.0,0.0,-0.5124114,0
1743177459853379,-0.0032479316,-0.0056934147,0.00048983097,0.0,0.0,-0.51586854,0
1743177459873379,-0.0034145683,-0.003617214,0.00016772747,0.0,0.0,-0.5093492,0
1743177459893379,-0.0041275704,-0.0019510901,9.7215176e-05,0.0,0.0,-0.512265,0
1743177459913379,-0.0024929736,-0.003642581,6.258488e-05,0.0,0.0,-0.5058831,0
1743177459933379,0.00016540848,-0.0022470662,0.00024491549,0.0,0.0,-0.5084684,0
1743177459949379,0.000975945,-0.0023574294,0.00024574995,0.0,0.0,-0.50700283,0
1743177459973379,0.004675478,-0.0030060618,0.00012725592,0.0,0.0,-0.5105626,0
1743177459989379,0.005813034,-0.004028239,9.2208385e-05,0.0,0.0,-0.51339257,0
1743177460013379,0.007610076,-0.005694652,0.00010472536,0.0,0.0,-0.51750034,0
1743177460033379,0.0052798586,-0.0047044,-2.8371811e-05,0.0,0.0,-0.5154566,0
1743177460053379,0.0029728925,-0.0020698723,-6.67572e-05,0.0,0.0,-0.52371484,0
1743177460073379,0.008034128,-0.0005853253,-2.5451183e-05,0.0,0.0,-0.52093023,0
1743177460093379,0.006484607,0.0008835701,2.670288e-05,0.0,0.0,-0.528395,0
1743177460109379,0.0051894435,-0.00054973544,-0.00033295155,0.0,0.0,-0.53003573,0
1743177460133379,0.0058868397,0.000519273,3.4213066e-05,0.0,0.0,-0.5316085,0
1743177460153379,0.008632863,-5.33337e-05,-5.8829784e-05,0.0,0.0,-0.5270996,0
1743177460173379,0.0063855345,-0.0007179278,-0.00019276142,0.0,0.0,-0.5337352,0
1743177460193379,0.004733992,-0.0021635548,-1.7940998e-05,0.0,0.0,-0.528934,0
1743177460213379,0.004710605,-0.0035681843,0.00014895201,0.0,0.0,-0.5351424,0
1743177460233379,0.004234287,-0.0035004772,-7.259846e-05,0.0,0.0,-0.52968043,0
1743177460253379,0.0035533304,-0.004734278,5.465746e-05,0.0,0.0,-0.53446513,0
1743177460273379,0.0047156936,-0.0061287023,-9.971857e-05,0.0,0.0,-0.53007555,0
1743177460293379,0.0032510501,-0.007184157,-0.0003888607,0.0,0.0,-0.5324462,0
1743177460313379,0.004225389,-0.010086996,-9.137392e-05,0.0,0.0,-0.53052235,0
1743177460333379,0.0032443157,-0.007717738,-0.00016272068,0.0,0.0,-0.5308315,0
1743177460353379,0.004220915,-0.0028300276,-9.638071e-05,0.0,0.0,-0.53000164,0
1743177460373379,0.00399105,-0.0007894972,-0.00021153688,0.0,0.0,-0.5295494,0
1743177460393379,0.00461019,-0.0021152357,-3.963709e-05,0.0,0.0,-0.529259,0
1743177460413379,0.00742756,-0.0057603763,-0.0002374053,0.0,0.0,-0.52886885,0
1743177460433379,0.00977299,-0.0084226625,-0.0002399087,0.0,0.0,-0.5284803,0
1743177460453379,0.008323887,-0.011082923,-0.00037634373,0.0,0.0,-0.5282286,0
1743177460473379,0.0110788895,-0.016788455,-0.0001860857,0.0,0.0,-0.52806306,0
1743177460493379,0.016766574,-0.01674046,0.00012308359,0.0,0.0,-0.5281106,0
1743177460513379,0.016649779,-0.016973166,8.2194805e-05,0.0,0.0,-0.5281705,0
1743177460533379,0.01614334,-0.01737176,0.0001385212,0.0,0.0,-0.5280219,0
1743177460553379,0.02282676,-0.020358283,3.5881996e-05,0.0,0.0,-0.5279626,0
1743177460573379,0.021621678,-0.019917335,-0.00018024445,0.0,0.0,-0.52785695,0
1743177460593379,0.025307968,-0.020435292,2.2947788e-05,0.0,0.0,-0.5276928,0
1743177460613379,0.028145118,-0.020044122,2.171455e-06,0.0,0.0,-0.52774584,0
1743177460633379,0.028804107,-0.023207236,0.00018859096,0.0,0.0,-0.52758574,0
1743177460653379,0.027672961,-0.026756829,0.0005096364,0.0,0.0,-0.5273362,0
1743177460673379,0.03155007,-0.028805071,0.00045244588,0.0,0.0,-0.52731127,0
1743177460689379,0.034471415,-0.02631203,0.0005634121,0.0,0.0,-0.5273688,0
1743177460713379,0.036627773,-0.030407041,0.00061948056,0.0,0.0,-0.52723473,0
1743177460733379,0.03374376,-0.031248963,0.0002284861,0.0,0.0,-0.52738696,0
1743177460753379,0.03972474,-0.033008322,-0.00023960599,0.0,0.0,-0.5275639,0
1743177460773379,0.04343879,-0.036358207,-0.000541193,0.0,0.0,-0.52759326,0
1743177460793379,0.046257637,-0.03620006,-0.001063132,0.0,0.0,-0.5275783,0
1743177460813379,0.04552763,-0.036330827,-0.0015943705,0.0,0.0,-0.52744806,0
1743177460833379,0.051999193,-0.043597795,-0.0018876136,0.0,0.0,-0.52758855,0
1743177460853379,0.054150946,-0.04147924,-0.0021606563,0.0,0.0,-0.5276931,0
1743177460869379,0.053552005,-0.042738285,-0.0020478165,0.0,0.0,-0.5278249,0
1743177460893379,0.05687105,-0.045841154,-0.002319177,0.0,0.0,-0.52785045,0
1743177460913379,0.059289027,-0.053362764,-0.0021147951,0.0,0.0,-0.5280285,0
1743177460933379,0.06095973,-0.05505687,-0.0023385077,0.0,0.0,-0.52791387,0
1743177460953379,0.06809505,-0.06522013,-0.0022966356,0.0,0.0,-0.5278833,0
1743177460973379,0.06963703,-0.06355026,-0.0019627842,0.0,0.0,-0.5279334,0
1743177460993379,0.070671774,-0.066016704,-0.0017754684,0.0,0.0,-0.52807397,0
1743177461013379,0.06890749,-0.067767575,-0.0018699258,0.0,0.0,-0.52810216,0
1743177461033379,0.07644211,-0.06957995,-0.0018888635,0.0,0.0,-0.5279077,0
1743177461053379,0.07483321,-0.070075355,-0.0019634825,0.0,0.0,-0.527928,0
1743177461073379,0.07516548,-0.07163883,-0.0022708443,0.0,0.0,-0.5280158,0
1743177461093379,0.07505482,-0.0699145,-0.0024107075,0.0,0.0,-0.52815276,0
1743177461113379,0.081062175,-0.07429118,-0.0024586471,0.0,0.0,-0.52849454,0
1743177461133379,0.08256189,-0.07688946,-0.0025235375,0.0,0.0,-0.5286303,0
1743177461153379,0.08796488,-0.079980604,-0.0024288632,0.0,0.0,-0.5286294,0
1743177461173379,0.08734127,-0.07841399,-0.0026165266,0.0,0.0,-0.5284873,0
1743177461193379,0.08935026,-0.08149402,-0.0028957583,0.0,0.0,-0.52837336,0
1743177461213379,0.08556362,-0.07829288,-0.0034348194,0.0,0.0,-0.52847755,0
1743177461233379,0.08750864,-0.082350746,-0.003929815,0.0,0.0,-0.52864856,0
1743177461253379,0.08446769,-0.080726035,-0.0043871715,0.0,0.0,-0.5287876,0
1743177461273379,0.089394644,-0.08496912,-0.0041583134,0.0,0.0,-0.52881896,0
1743177461293379,0.087455444,-0.08385796,-0.004329926,0.0,0.0,-0.52878916,0
1743177461313379,0.0880939,-0.08652346,-0.0040176585,0.0,0.0,-0.5288985,0
1743177461333379,0.08283556,-0.08264243,-0.004152605,0.0,0.0,-0.5288579,0
1743177461353379,0.088850014,-0.08782268,-0.004064422,0.0,0.0,-0.52896523,0
1743177461373379,0.0858419,-0.0876292,-0.0046112174,0.0,0.0,-0.52887547,0
1743177461393379,0.0852422,-0.08566526,-0.004904828,0.0,0.0,-0.52886415,0
1743177461413379,0.082765505,-0.08455226,-0.005003133,0.0,0.0,-0.52887785,0
1743177461429379,0.08155958,-0.084955,-0.0050047017,0.0,0.0,-0.5290469,0
1743177461453379,0.08198409,-0.07920977,-0.005409283,0.0,0.0,-0.5294324,0
1743177461473379,0.0865595,-0.08337907,-0.0056524468,0.0,0.0,-0.52949953,0
1743177461493379,0.08275293,-0.08269302,-0.005987791,0.0,0.0,-0.52955574,0
1743177461513379,0.08592213,-0.08472779,-0.006177563,0.0,0.0,-0.52967674,0
1743177461533379,0.08352065,-0.08005838,-0.006598459,0.0,0.0,-0.5298084,0
1743177461553379,0.08316131,-0.0822608,-0.0069230096,0.0,0.0,-0.5299224,0
1743177461573379,0.079987146,-0.08292412,-0.007157001,0.0,0.0,-0.53014076,0
1743177461593379,0.08095684,-0.083848864,-0.0075942143,0.0,0.0,-0.5304548,0
1743177461613379,0.0790856,-0.082513064,-0.008129461,0.0,0.0,-0.53058743,0
1743177461633379,0.07724744,-0.079962514,-0.008892541,0.0,0.0,-0.53062886,0
1743177461653379,0.075848535,-0.07473693,-0.009764922,0.0,0.0,-0.53067404,0
1743177461673379,0.077608146,-0.07120394,-0.010656516,0.0,0.0,-0.53080845,0
1743177461693379,0.073667735,-0.06454309,-0.012037513,0.0,0.0,-0.5308448,0
1743177461713379,0.074675746,-0.06468222,-0.01301089,0.0,0.0,-0.53105956,0
1743177461733379,0.068872325,-0.06181319,-0.013796086,0.0,0.0,-0.5311325,0
1743177461753379,0.067676716,-0.06523977,-0.014602993,0.0,0.0,-0.531228,0
1743177461773379,0.06412185,-0.06290017,-0.015727822,0.0,0.0,-0.53139293,0
1743177461793379,0.06596443,-0.06286428,-0.01658146,0.0,0.0,-0.53169173,0
1743177461813379,0.065186664,-0.0605517,-0.017422162,0.0,0.0,-0.531975,0
1743177461833379,0.064106025,-0.061499055,-0.018175252,0.0,0.0,-0.5321293,0
1743177461853379,0.05764238,-0.05918171,-0.018829035,0.0,0.0,-0.5321361,0
1743177461869379,0.05251789,-0.061890706,-0.019085202,0.0,0.0,-0.5322056,0
1743177461893379,0.052927844,-0.057231296,-0.019767778,0.0,0.0,-0.5322408,0
1743177461909379,0.051425196,-0.057773467,-0.019774444,0.0,0.0,-0.5322784,0
1743177461933379,0.050404463,-0.05472211,-0.020223374,0.0,0.0,-0.53223586,0
1743177461953379,0.05345412,-0.04957342,-0.020634338,0.0,0.0,-0.53239095,0
1743177461973379,0.047248702,-0.050881594,-0.02058551,0.0,0.0,-0.5324547,0
1743177461993379,0.044965237,-0.051945552,-0.020788696,0.0,0.0,-0.5326449,0
1743177462013379,0.044305395,-0.04898864,-0.021012323,0.0,0.0,-0.532847,0
1743177462033379,0.041617017,-0.04939402,-0.020940136,0.0,0.0,-0.532985,0
1743177462053379,0.040667377,-0.046952754,-0.020860437,0.0,0.0,-0.5331314,0
1743177462073379,0.037271407,-0.044189442,-0.020998538,0.0,0.0,-0.53342867,0
1743177462093379,0.037217654,-0.043609824,-0.021109514,0.0,0.0,-0.5336557,0
1743177462113379,0.034466513,-0.03945993,-0.02086084,0.0,0.0,-0.53363115,0
1743177462133379,0.028628036,-0.03420517,-0.021044,0.0,0.0,-0.5335185,0
1743177462153379,0.029872704,-0.034328733,-0.021017294,0.0,0.0,-0.533558,0
1743177462173379,0.032009237,-0.031215953,-0.021258866,0.0,0.0,-0.5335847,0
1743177462193379,0.029817544,-0.027187524,-0.02160016,0.0,0.0,-0.533608,0
1743177462213379,0.0279942,-0.025740635,-0.021087378,0.0,0.0,-0.53355396,0
1743177462233379,0.02752328,-0.02800586,-0.020633845,0.0,0.0,-0.5336469,0
1743177462253379,0.024326885,-0.024471216,-0.020280862,0.0,0.0,-0.53360254,0
1743177462273379,0.024200244,-0.022105917,-0.020145677,0.0,0.0,-0.5337069,0
1743177462293379,0.023288427,-0.019588215,-0.019987127,0.0,0.0,-0.53373873,0
1743177462309379,0.024716591,-0.020386571,-0.019367952,0.0,0.0,-0.533827,0
1743177462333379,0.025222333,-0.01939361,-0.018840985,0.0,0.0,-0.53382665,0
1743177462353379,0.025292845,-0.015206213,-0.018634453,0.0,0.0,-0.5338711,0
1743177462373379,0.0192022,-0.013441744,-0.018172992,0.0,0.0,-0.5338631,0
1743177462389379,0.018763872,-0.01220551,-0.01779498,0.0,0.0,-0.5340081,0
1743177462413379,0.016289646,-0.015894376,-0.016967606,0.0,0.0,-0.5343543,0
1743177462433379,0.015121109,-0.015764302,-0.016170274,0.0,0.0,-0.5343743,0
1743177462453379,0.014421943,-0.012663936,-0.015226493,0.0,0.0,-0.5342901,0
1743177462473379,0.013020947,-0.009542537,-0.01449258,0.0,0.0,-0.53423667,0
1743177462489379,0.010813321,-0.009635008,-0.013996489,0.0,0.0,-0.53433365,0
1743177462513379,0.012894644,-0.005715179,-0.012695976,0.0,0.0,-0.5343548,0
1743177462533379,0.010939672,-0.0071350425,-0.011199779,0.0,0.0,-0.5343257,0
1743177462553379,0.013910341,-0.00386378,-0.01012457,0.0,0.0,-0.5342519,0
1743177462573379,0.0132964095,-0.006503148,-0.008715158,0.0,0.0,-0.5343542,0
1743177462593379,0.015412263,-0.0043734,-0.0073958687,0.0,0.0,-0.5345306,0
1743177462613379,0.013764667,-0.004607043,-0.0062121795,0.0,0.0,-0.53456163,0
1743177462633379,0.013006903,-0.0018181392,-0.005023901,0.0,0.0,-0.5344307,0
1743177462653379,0.009858064,0.0029209885,-0.003307823,0.0,0.0,-0.534453,0
1743177462673379,0.012087919,0.0036553307,-0.002093259,0.0,0.0,-0.5345037,0
1743177462693379,0.01137035,0.0034602066,-0.0008403093,0.0,0.0,-0.53439116,0
1743177462713379,0.011756133,0.0022058366,0.00047939736,0.0,0.0,-0.53437304,0
1743177462733379,0.007979609,0.0002806399,0.0018291448,0.0,0.0,-0.53428227,0
1743177462753379,0.011628717,0.0020765045,0.0030741668,0.0,0.0,-0.5341758,0
1743177462773379,0.009026445,0.0027114542,0.004248677,0.0,0.0,-0.5342375,0
1743177462793379,0.008201752,0.005394445,0.0054916125,0.0,0.0,-0.534171,0
1743177462813379,0.007293761,0.0063449778,0.006511746,0.0,0.0,-0.5341063,0
1743177462833379,0.0044727363,0.008257261,0.0074717985,0.0,0.0,-0.5340892,0
1743177462853379,0.0033040044,0.0092325825,0.008966325,0.0,0.0,-0.53403234,0
1743177462873379,0.0015642977,0.009828335,0.010201334,0.0,0.0,-0.53396297,0
1743177462893379,-9.729353e-05,0.01133605,0.011534809,0.0,0.0,-0.5339197,0
1743177462913379,0.00089414034,0.011524852,0.012762724,0.0,0.0,-0.53409797,0
1743177462929379,0.0029394813,0.0079913745,0.013842939,0.0,0.0,-0.5342642,0
1743177462949379,0.0039697066,0.009532265,0.015344976,0.0,0.0,-0.5343335,0
1743177462973379,0.0061841607,0.011142211,0.017149925,0.0,0.0,-0.5341474,0
1743177462989379,0.0071993247,0.008841263,0.017910957,0.0,0.0,-0.5341705,0
1743177463013379,0.0011627747,0.005734533,0.019423425,0.0,0.0,-0.53407216,0
1743177463029379,0.00024427468,0.009065328,0.02027458,0.0,0.0,-0.53391296,0
1743177463053379,-0.005757261,0.0066558933,0.021724045,0.0,0.0,-0.5340098,0
1743177463069379,-0.006836109,0.008389855,0.02252388,0.0,0.0,-0.53394336,0
1743177463093379,-0.0076937824,0.009958048,0.02348435,0.0,0.0,-0.5340512,0
1743177463113379,-0.0029158965,0.008522232,0.02454704,0.0,0.0,-0.53419274,0
1743177463133379,-0.0049708746,0.011092802,0.025444925,0.0,0.0,-0.5341846,0
1743177463153379,-0.004110586,0.010857383,0.026274383,0.0,0.0,-0.5342163,0
1743177463173379,-0.0057791024,0.010814693,0.026775062,0.0,0.0,-0.53433055,0
1743177463193379,0.00019550693,0.013800639,0.02707547,0.0,0.0,-0.53432566,0
1743177463213379,-0.0026948676,0.0118076615,0.027769744,0.0,0.0,-0.5342821,0
1743177463233379,-0.0072468817,0.014451548,0.027927458,0.0,0.0,-0.53422,0
1743177463253379,-0.006329011,0.013278598,0.02816987,0.0,0.0,-0.5343267,0
1743177463273379,-0.0034952015,0.013490241,0.027893662,0.0,0.0,-0.5341405,0
1743177463293379,-0.00542596,0.011135582,0.027763069,0.0,0.0,-0.53400445,0
1743177463313379,-0.0065601133,0.011378201,0.027583241,0.0,0.0,-0.53385156,0
1743177463333379,-0.007165376,0.012145028,0.027772665,0.0,0.0,-0.53382105,0
1743177463353379,-0.010720532,0.0119646555,0.02801007,0.0,0.0,-0.5335726,0
1743177463373379,-0.011858076,0.010375341,0.028002977,0.0,0.0,-0.5335523,0
1743177463393379,-0.011014979,0.011393683,0.02763915,0.0,0.0,-0.5332811,0
1743177463413379,-0.010419257,0.0121221915,0.02769047,0.0,0.0,-0.5331882,0
1743177463433379,-0.011137698,0.012173405,0.027211905,0.0,0.0,-0.53294265,0
1743177463453379,-0.014683314,0.010980867,0.026956558,0.0,0.0,-0.5329479,0
1743177463469379,-0.014427658,0.010603126,0.026356578,0.0,0.0,-0.5329487,0
1743177463493379,-0.014842596,0.011707232,0.025287628,0.0,0.0,-0.5331268,0
1743177463509379,-0.011979874,0.011197807,0.024970531,0.0,0.0,-0.5332901,0
1743177463533379,-0.01023794,0.0100773405,0.024110198,0.0,0.0,-0.53337115,0
1743177463553379,-0.0107878,0.009588504,0.023349166,0.0,0.0,-0.5333301,0
1743177463573379,-0.010433786,0.007438166,0.02239412,0.0,0.0,-0.5333123,0
1743177463593379,-0.008245386,0.005604502,0.021473706,0.0,0.0,-0.5333594,0
1743177463613379,-0.00880377,0.0035500561,0.020335913,0.0,0.0,-0.5334269,0
1743177463633379,-0.007722985,0.0075871665,0.019193947,0.0,0.0,-0.53335804,0
1743177463653379,-0.009053808,0.0047158273,0.018805921,0.0,0.0,-0.53335273,0
1743177463669379,-0.0075393915,0.004058092,0.018074095,0.0,0.0,-0.5332613,0
1743177463693379,-0.0031044781,0.0037108518,0.017283022,0.0,0.0,-0.53308153,0
1743177463713379,-0.0014854558,0.0030330305,0.016558707,0.0,0.0,-0.53310806,0
1743177463733379,-0.0028217994,0.0037362739,0.015581965,0.0,0.0,-0.5329873,0
1743177463753379,-0.0049322285,0.0057955105,0.014959455,0.0,0.0,-0.5329915,0
1743177463773379,-0.005288083,0.002785396,0.014351964,0.0,0.0,-0.5331161,0
1743177463793379,-0.0054388903,0.0029774494,0.013848782,0.0,0.0,-0.53318363,0
1743177463813379,-0.004701175,0.004438267,0.0131165385,0.0,0.0,-0.533189,0
1743177463833379,-0.0070802383,0.0053424416,0.012609184,0.0,0.0,-0.5331137,0
1743177463853379,-0.009922087,0.0019094013,0.012265801,0.0,0.0,-0.53300804,0
1743177463873379,-0.009444192,0.0007617967,0.011387944,0.0,0.0,-0.53308624,0
1743177463893379,-0.009544585,0.002898438,0.010492146,0.0,0.0,-0.5331723,0
1743177463913379,-0.010704551,0.0028903957,0.009720683,0.0,0.0,-0.53312755,0
1743177463933379,-0.010598008,-0.00028121378,0.008974254,0.0,0.0,-0.53306115,0
1743177463953379,-0.01091541,-0.0020518727,0.008434355,0.0,0.0,-0.532994,0
1743177463973379,-0.010433737,-0.00075787096,0.007879436,0.0,0.0,-0.5328996,0
1743177463993379,-0.010601833,0.0017651138,0.0074446797,0.0,0.0,-0.5327916,0
1743177464013379,-0.0085316,-0.00095621555,0.006896019,0.0,0.0,-0.532822,0
1743177464033379,-0.006423544,-0.0012484363,0.005812049,0.0,0.0,-0.5329208,0
1743177464053379,-0.008336917,-0.0019325608,0.005399406,0.0,0.0,-0.53299195,0
1743177464073379,-0.009613741,0.0020361757,0.004834473,0.0,0.0,-0.53302735,0
1743177464093379,-0.011476409,0.0038395436,0.004315853,0.0,0.0,-0.5329166,0
1743177464113379,-0.01813769,0.0061403676,0.0039545298,0.0,0.0,-0.53294766,0
1743177464133379,-0.013845932,0.0045115533,0.0034150481,0.0,0.0,-0.5329379,0
1743177464149379,-0.010613989,0.0039850585,0.0032773614,0.0,0.0,-0.5329379,0
1743177464173379,-0.008110173,0.00080842455,0.0031392574,0.0,0.0,-0.5331454,0
1743177464193379,-0.007902365,0.0004591653,0.0030374527,0.0,0.0,-0.5332653,0
1743177464213379,-0.008029152,-0.0021032374,0.0031363368,0.0,0.0,-0.5333699,0
1743177464233379,-0.00890518,-0.0028991234,0.0030866861,0.0,0.0,-0.53334415,0
1743177464253379,-0.0090043135,-0.002294709,0.0030299425,0.0,0.0,-0.5333235,0
1743177464273379,-0.0088999495,-0.004231654,0.003093779,0.0,0.0,-0.5331931,0
1743177464293379,-0.0062534623,-0.0021355357,0.0027441382,0.0,0.0,-0.5331726,0
1743177464313379,-0.0067352317,-0.0026909448,0.0027178526,0.0,0.0,-0.53313434,0
1743177464329379,-0.0074666515,0.0009755439,0.002716601,0.0,0.0,-0.53314847,0
1743177464353379,-0.006180916,-0.0041846046,0.0031793118,0.0,0.0,-0.5331959,0
1743177464373379,-0.004294373,-0.0032098277,0.0031213164,0.0,0.0,-0.5330799,0
1743177464393379,-0.0019448996,-0.0036509382,0.0027270317,0.0,0.0,-0.5330254,0
1743177464409379,-0.0010512918,-0.003798106,0.0027683377,0.0,0.0,-0.53311425,0
1743177464433379,0.0015862361,-0.0047953436,0.0031083822,0.0,0.0,-0.53305304,0
1743177464453379,0.0004554242,-0.005014319,0.0030591488,0.0,0.0,-0.5330417,0
1743177464473379,-0.00075393915,-0.002388774,0.0035001636,0.0,0.0,-0.5330582,0
1743177464493379,-0.0028337613,-0.0004627043,0.0036728978,0.0,0.0,-0.5330434,0
1743177464513379,-0.0036815554,-0.0013753579,0.0032368898,0.0,0.0,-0.5330601,0
1743177464533379,-0.0018364675,0.00015817843,0.002870977,0.0,0.0,-0.53302747,0
1743177464553379,-0.0028837398,-0.0023240277,0.0032539964,0.0,0.0,-0.5328937,0
1743177464573379,-0.0020946898,0.0004495759,0.003324926,0.0,0.0,-0.53283995,0
1743177464593379,-0.0029976442,0.0022071379,0.0032544136,0.0,0.0,-0.5329035,0
1743177464613379,-0.0031335838,0.0034830833,0.0033833385,0.0,0.0,-0.5328828,0
1743177464633379,-0.0031190552,0.00025194653,0.0037400723,0.0,0.0,-0.5329673,0
1743177464649379,-0.0038356073,0.0010264594,0.00394994,0.0,0.0,-0.5329539,0
1743177464673379,-0.0022029765,0.003817831,0.0042874813,0.0,0.0,-0.5329309,0
1743177464693379,6.1795115e-05,0.00053858984,0.0049880147,0.0,0.0,-0.53309757,0
1743177464709379,-0.003721945,0.0014497862,0.005235851,0.0,0.0,-0.5330951,0
1743177464733379,-0.0041343644,0.0036996026,0.0055637956,0.0,0.0,-0.5328918,0
1743177464749379,-0.0061795115,0.0007280918,0.006133735,0.0,0.0,-0.5328088,0
1743177464769379,-0.005283773,-0.0011601257,0.0065467954,0.0,0.0,-0.5327146,0
1743177464789379,-0.0038710572,-0.0013395435,0.0073416233,0.0,0.0,-0.5327103,0
1743177464813379,-0.00173961,0.001988041,0.007739246,0.0,0.0,-0.5326122,0
1743177464833379,-0.003501594,0.00022306445,0.008014202,0.0,0.0,-0.53232753,0
1743177464853379,-0.0032824539,0.00302264,0.008133531,0.0,0.0,-0.5323264,0
1743177464873379,-0.0018069744,0.0061376328,0.008861601,0.0,0.0,-0.53219014,0
1743177464893379,-0.0029923655,0.0029337902,0.00939399,0.0,0.0,-0.53226376,0
1743177464913379,-0.0025331639,0.0038399727,0.009535015,0.0,0.0,-0.53232276,0
1743177464933379,0.00026868284,0.00033301592,0.009703159,0.0,0.0,-0.53240806,0
1743177464949379,0.0004386194,0.00038496486,0.009848356,0.0,0.0,-0.53246653,0
1743177464973379,-0.0016526803,0.0031863474,0.0099743605,0.0,0.0,-0.53265524,0
1743177464993379,-0.0035453252,0.0030936247,0.010321915,0.0,0.0,-0.5291749,0
1743177465013379,-0.0042276867,-0.0010429469,0.01104331,0.0,0.0,-0.52413195,0
1743177465033379,-0.0032528155,0.00023392687,0.01132828,0.0,0.0,-0.5212839,0
1743177465053379,-0.004642479,-0.0010518124,0.011518955,0.0,0.0,-0.51674396,0
1743177465073379,-0.0027851388,-0.0020138822,0.011649549,0.0,0.0,-0.5147644,0
1743177465093379,0.00076367334,-0.0010343629,0.011640787,0.0,0.0,-0.5109118,0
1743177465113379,0.0031217672,-0.0028565088,0.012090147,0.0,0.0,-0.51003164,0
1743177465133379,0.010128006,-0.0046318076,0.012458563,0.0,0.0,-0.5069483,0
1743177465153379,0.014044829,-0.0044243084,0.0125440955,0.0,0.0,-0.50682634,0
1743177465173379,0.016783185,-0.0063031986,0.012106836,0.0,0.0,-0.50426954,0
1743177465193379,0.017050754,-0.013028784,0.012360513,0.0,0.0,-0.50497615,0
1743177465213379,0.016020868,-0.013948071,0.012375534,0.0,0.0,-0.50269806,0
1743177465233379,0.012418639,-0.014353163,0.012118101,0.0,0.0,-0.5038892,0
1743177465249379,0.012787376,-0.013439983,0.011830211,0.0,0.0,-0.5053478,0
1743177465273379,0.013212968,-0.011005539,0.011025786,0.0,0.0,-0.5102449,0
1743177465293379,0.013952088,-0.011471262,0.010896862,0.0,0.0,-0.51361036,0
1743177465313379,0.013753336,-0.012542497,0.0108860135,0.0,0.0,-0.5178923,0
1743177465333379,0.010924175,-0.013329292,0.010485053,0.0,0.0,-0.5205528,0
1743177465349379,0.007988423,-0.01002138,0.010054886,0.0,0.0,-0.52301943,0
1743177465373379,-0.0007613003,-0.007995432,0.009663105,0.0,0.0,-0.5261265,0
1743177465393379,-0.002784364,-0.00060621323,0.0086025,0.0,0.0,-0.52850044,0
1743177465413379,-0.006031368,-0.000102855905,0.0077067018,0.0,0.0,-0.53000724,0
1743177465433379,-0.00808746,0.002560253,0.006573081,0.0,0.0,-0.531825,0
1743177465453379,-0.00937707,0.0038839823,0.0062739253,0.0,0.0,-0.5329019,0
1743177465473379,-0.00555047,0.006544479,0.0059384704,0.0,0.0,-0.5340004,0
