timestamp,timestamp_sample,gyro_device_id,gyro_bias[0],gyro_bias[1],gyro_bias[2],gyro_bias_limit,gyro_bias_variance[0],gyro_bias_variance[1],gyro_bias_variance[2],accel_device_id,accel_bias[0],accel_bias[1],accel_bias[2],accel_bias_limit,accel_bias_variance[0],accel_bias_variance[1],accel_bias_variance[2],mag_device_id,mag_bias[0],mag_bias[1],mag_bias[2],mag_bias_limit,mag_bias_variance[0],mag_bias_variance[1],mag_bias_variance[2],gyro_bias_valid,gyro_bias_stable,accel_bias_valid,accel_bias_stable,mag_bias_valid,mag_bias_stable
1743177449813379,1743177449661379,1310988,-0.0008658795,-0.0009258392,-0.00047933284,0.15,4.4014374e-05,4.401441e-05,4.387277e-05,1310988,-0.00083917094,0.0033658512,-0.008023196,0.4,0.035706896,0.035706833,0.0037519932,197388,0.0,0.0,0.0,0.5,0.0025000002,0.0025000002,0.0025000002,1,0,1,0,1,0
1743177450021379,1743177449869379,1310988,-0.00024625423,-0.0006629556,-0.00085043616,0.15,3.670998e-05,3.6710004e-05,3.671527e-05,1310988,-0.00082109997,0.0034211872,-0.0070184674,0.4,0.035373025,0.035372928,0.003428285,197388,0.0,0.0,0.0,0.5,0.0025000002,0.0025000002,0.0025000002,1,0,1,0,1,0
1743177450125379,1743177449973379,1310988,-0.00024766463,-0.00066679326,-0.00085038104,0.15,3.6667603e-05,3.6647074e-05,3.67161e-05,1310988,-0.0011325029,0.0035639477,-0.006946103,0.4,0.034890655,0.035044346,0.0034281611,197388,-0.00016673893,-0.0012757251,-0.0021378652,0.5,0.0019020642,0.0016786676,0.0016684147,1,0,1,0,1,0
1743177450189379,1743177450037379,1310988,-0.00038062662,-0.00048143519,-0.00080546114,0.15,3.151924e-05,3.1500844e-05,3.156561e-05,1310988,-0.0016300395,0.0037856353,-0.0069455393,0.4,0.034699943,0.034888603,0.0034279174,197388,-0.00042976986,-0.0028882043,-0.0040247464,0.5,0.0018003505,0.001516765,0.0015024546,1,0,1,0,1,0
1743177450469379,1743177450317379,1310988,-0.00023041421,-0.00037622583,-0.00077658094,0.15,2.749213e-05,2.7479835e-05,2.7683009e-05,1310988,-0.0003849512,0.0036970554,-0.006935455,0.4,0.031023847,0.031184968,0.0034188407,197388,-8.7425135e-05,-0.0025211652,-0.003693979,0.5,0.0016599087,0.001365788,0.0013490107,1,0,1,0,1,0
1743177450621379,1743177450469379,1310988,-0.00020328742,-0.00028224287,-0.0004388858,0.15,2.436159e-05,2.4353798e-05,2.465016e-05,1310988,0.00044946422,0.004270371,-0.0068787574,0.4,0.027138766,0.027261065,0.003405971,197388,8.513627e-05,-0.0025131071,-0.0035936541,0.5,0.0016249194,0.0013413336,0.0013261026,1,0,1,0,1,0
1743177450677379,1743177450525379,1310988,-0.00020064853,-0.00027705275,-0.0004390304,0.15,2.4304241e-05,2.4297544e-05,2.4649828e-05,1310988,0.00014929571,0.0032784191,-0.006859014,0.4,0.025653018,0.025760913,0.0033998447,197388,7.273596e-05,-0.0024508857,-0.0035997594,0.5,0.0016109329,0.0013328695,0.0013182529,1,0,1,0,1,0
1743177450829379,1743177450677379,1310988,-0.00032207873,-0.00015008908,-0.00050032465,0.15,2.1789094e-05,2.1785814e-05,2.221534e-05,1310988,0.0016180393,0.0032460983,-0.006806219,0.4,0.021218907,0.021290192,0.0033756006,197388,4.1228453e-05,-0.0023311614,-0.0033252186,0.5,0.0015868689,0.001318863,0.0013064052,1,0,1,0,1,0
1743177450989379,1743177450837379,1310988,-0.00029025602,-0.00016078293,-0.0005564345,0.15,1.9737061e-05,1.9736428e-05,2.0218098e-05,1310988,0.002555795,0.002717061,-0.006729294,0.4,0.017213264,0.01725311,0.0033406375,197388,0.00013789341,-0.0020820813,-0.003061628,0.5,0.0015676406,0.0013084142,0.001297972,1,0,1,0,1,0
1743177451357379,1743177451205379,1310988,-0.00036710256,-2.1762611e-05,-0.00027209212,0.15,1.6552243e-05,1.6558335e-05,1.7132745e-05,1310988,0.0017769304,0.0020939894,-0.0064500934,0.4,0.01085672,0.0108553395,0.0032117765,197388,0.00021825741,-0.001974411,-0.0032163132,0.5,0.0015282758,0.001290211,0.0012831101,1,0,1,0,1,0
1743177451661379,1743177451509379,1310988,-0.00039466718,-6.620904e-05,-0.0001032937,0.15,1.5211588e-05,1.5222466e-05,1.5915262e-05,1310988,0.001834142,0.0008279979,-0.006148879,0.4,0.008017676,0.008003743,0.003044873,197388,0.0001662617,-0.0021483307,-0.0032168604,0.5,0.0015102733,0.0012828996,0.0012773683,1,0,1,0,1,0
1743177451765379,1743177451613379,1310988,-0.00042036947,4.705549e-05,-0.00012889972,0.15,1.41665805e-05,1.417938e-05,1.4860427e-05,1310988,0.001255188,0.0016924648,-0.005994649,0.4,0.0073588965,0.0073425653,0.002978282,197388,0.00020764473,-0.0020920224,-0.0032243386,0.5,0.0015030637,0.0012803623,0.0012752154,1,0,1,0,1,0
1743177451957379,1743177451805379,1310988,-0.0006207807,1.2563158e-05,-0.00017745227,0.15,1.3201185e-05,1.3217655e-05,1.3934445e-05,1310988,-0.0011132791,0.000870629,-0.005739243,0.4,0.006604477,0.0065857875,0.0028691522,197388,0.00020769614,-0.002080023,-0.0033830777,0.5,0.0014937451,0.0012772605,0.0012725593,1,0,1,0,1,0
1743177452157379,1743177452005379,1310988,-0.0006918451,-5.5301094e-05,-0.00020106688,0.15,1.231649e-05,1.2334151e-05,1.3118518e-05,1310988,-0.0020274874,0.00013197956,-0.0054120743,0.4,0.0059003457,0.005879777,0.0027098472,197388,0.00026444683,-0.0019997219,-0.0033561285,0.5,0.0014882627,0.0012753413,0.001271047,1,0,1,0,1,0
1743177452573379,1743177452421379,1310988,-0.0006264674,-6.2404215e-05,-0.00014828797,0.15,1.0703311e-05,1.0729726e-05,1.1733991e-05,1310988,-0.0016526671,-0.000548446,-0.0047484995,0.4,0.0050667976,0.005045716,0.0023613367,197388,0.00034137865,-0.0020721145,-0.003356244,0.5,0.0014731649,0.0012708864,0.001267137,1,0,1,0,1,0
1743177452861379,1743177452709379,1310988,-0.00059964205,-7.9365134e-05,-0.00012833116,0.15,9.853772e-06,9.884537e-06,1.1142623e-05,1310988,-0.0013935283,-0.0013421241,-0.0040807975,0.4,0.004750052,0.0047296253,0.0020938274,197388,0.000280096,-0.002148564,-0.0034442598,0.5,0.0014663618,0.0012690241,0.0012654968,1,0,1,0,1,0
1743177452957379,1743177452805379,1310988,-0.0006569606,7.5823805e-06,-0.0002123768,0.15,9.370427e-06,9.40053e-06,1.0614487e-05,1310988,-0.0018634384,-0.00032694265,-0.004057806,0.4,0.0046664807,0.0046458337,0.0020499823,197388,0.00028522694,-0.0022346764,-0.003349955,0.5,0.0014648129,0.0012686109,0.0012651341,1,0,1,0,1,0
1743177453357379,1743177453205379,1310988,-0.0007948935,-2.330491e-05,-0.00018119355,0.15,8.105715e-06,8.14034e-06,9.684401e-06,1310988,-0.0030583288,-0.0007253701,-0.0033160804,0.4,0.004406942,0.0043875375,0.0017160341,197388,0.00028981385,-0.002174091,-0.0032250287,0.5,0.0014565527,0.0012665516,0.0012632856,1,0,1,0,1,0
1743177453693379,1743177453541379,1310988,-0.0008469024,-3.4028963e-05,-0.00020750609,0.15,7.262058e-06,7.299836e-06,9.2704795e-06,1310988,-0.00349445,-0.0009924083,-0.0024559195,0.4,0.004288076,0.0042701405,0.0014569296,197388,0.0002890493,-0.0021597473,-0.003265619,0.5,0.0014509406,0.0012652124,0.0012620668,1,0,1,0,1,0
1743177454541379,1743177454389379,1310988,-0.00087270886,-1.3821732e-05,2.330924e-05,0.15,5.1454062e-06,5.1814573e-06,7.920737e-06,1310988,-0.003089148,-0.001606498,-0.0016715568,0.4,0.0040150224,0.00399873,0.0009987367,197388,0.00023341285,-0.00226671,-0.003221691,0.5,0.0014396195,0.0012626646,0.0012597565,1,0,1,0,1,0
1743177454677379,1743177454525379,1310988,-0.0008576699,-7.446586e-05,7.178234e-05,0.15,4.786235e-06,4.8198076e-06,7.64448e-06,1310988,-0.0030298536,-0.0027711578,-0.0014448614,0.4,0.003962058,0.0039454703,0.0009320867,197388,0.0001989308,-0.002288819,-0.0032242609,0.5,0.0014381851,0.0012623414,0.0012594773,1,0,1,0,1,0
1743177454957379,1743177454805379,1310988,-0.0007576177,-0.00011338877,-4.038364e-05,0.15,4.2094935e-06,4.239119e-06,7.1449786e-06,1310988,-0.00150685,-0.004084536,-0.0012583354,0.4,0.0038673314,0.0038502002,0.00083239377,197388,0.00014321212,-0.0022754893,-0.0031201036,0.5,0.0014356152,0.0012617664,0.001258965,1,0,1,0,1,0
1743177455629379,1743177455477379,1310988,-0.0007131182,-8.787766e-05,-1.8301445e-05,0.15,3.1461457e-06,3.1660445e-06,6.4901988e-06,1310988,-0.0005314377,-0.004095225,-0.00101675,0.4,0.0036785596,0.003660128,0.0006299312,197388,0.00017366953,-0.002293487,-0.003099253,0.5,0.0014301197,0.0012605689,0.0012578949,1,0,1,0,1,0
1743177456157379,1743177456005379,1310988,-0.0008310321,-2.5209467e-05,-2.1216218e-05,0.15,2.5085258e-06,2.5205104e-06,5.9489457e-06,1310988,-0.002198953,-0.0017663996,-0.00066903053,0.4,0.003534802,0.0035146608,0.00051700714,197388,0.00013678023,-0.0023479948,-0.0030860305,0.5,0.0014261956,0.0012598691,0.0012572797,1,0,1,0,1,0
1743177456357379,1743177456205379,1310988,-0.00088837097,-1.4732683e-05,-6.288146e-05,0.15,2.303194e-06,2.3128293e-06,5.7845077e-06,1310988,-0.0031840743,-0.00093890686,-0.00057967973,0.4,0.0034831201,0.003462377,0.00047977,197388,0.00014347082,-0.0023963535,-0.0031168815,0.5,0.0014245145,0.0012595985,0.0012570234,1,0,1,0,1,0
1743177456549379,1743177456397379,1310988,-0.0008289557,-4.1415173e-05,-6.6429915e-05,0.15,2.1391213e-06,2.1470016e-06,5.77252e-06,1310988,-0.0024216375,-0.0016030135,-0.0004711835,0.4,0.0034413256,0.0034201806,0.00044629912,197388,0.00012598814,-0.0023744418,-0.003135727,0.5,0.0014233054,0.0012593329,0.0012567636,1,0,1,0,1,0
1743177456757379,1743177456605379,1310988,-0.00076955714,-7.3216484e-05,-5.2383162e-05,0.15,1.9885663e-06,1.9949975e-06,5.7598063e-06,1310988,-0.0017435257,-0.00243951,-0.00043738054,0.4,0.0034001807,0.0033786013,0.00041616478,197388,9.8021184e-05,-0.0023238081,-0.0032360721,0.5,0.0014223297,0.0012590518,0.0012564736,1,0,1,0,1,0
1743177456965379,1743177456813379,1310988,-0.00070685864,-0.00010177577,-4.541529e-05,0.15,1.8509069e-06,1.8561202e-06,5.7462403e-06,1310988,-0.00092051155,-0.0032901182,-0.00036348886,0.4,0.0033601772,0.003338089,0.00038898498,197388,4.6103927e-05,-0.002326643,-0.00328348,0.5,0.0014215284,0.0012587442,0.0012561562,1,0,1,0,1,0
1743177457173379,1743177457021379,1310988,-0.000648068,-0.000119782424,-4.980334e-05,0.15,1.7255043e-06,1.7297506e-06,5.7318157e-06,1310988,-6.0735045e-05,-0.0039360854,-0.0002834418,0.4,0.0033216688,0.0032990372,0.00036442454,197388,2.3697019e-05,-0.002316274,-0.0033269725,0.5,0.0014207934,0.0012584256,0.0012558285,1,0,1,0,1,0
1743177457381379,1743177457229379,1310988,-0.0005915421,-0.00013387011,-4.974398e-05,0.15,1.611396e-06,1.6148276e-06,5.7165153e-06,1310988,0.000799135,-0.004549842,-0.00020227238,0.4,0.00328487,0.0032616332,0.0003421886,197388,-1.6662229e-05,-0.002325361,-0.003362961,0.5,0.001420259,0.0012581197,0.0012555177,1,0,1,0,1,0
1743177457669379,1743177457517379,1310988,-0.0005384339,-0.00015594941,-3.301432e-05,0.15,1.4811379e-06,1.4838971e-06,5.689202e-06,1310988,0.0014898904,-0.005306804,-4.9151393e-05,0.4,0.0032401604,0.0032162096,0.0003172622,197388,-7.71346e-05,-0.0022973227,-0.003360686,0.5,0.0014198748,0.0012576651,0.0012550546,1,0,1,0,1,0
1743177457901379,1743177457749379,1310988,-0.00048744655,-0.00016806374,-2.605997e-05,0.15,1.3686754e-06,1.3701557e-06,5.6714066e-06,1310988,0.0022756532,-0.0059071775,0.00014373993,0.4,0.0032004488,0.0031754836,0.00029514346,197388,-0.00011122429,-0.002296946,-0.0033952321,0.5,0.0014197223,0.001257414,0.001254817,1,0,1,0,1,0
1743177458061379,1743177457909379,1310988,-0.00037591578,-0.00021646681,-3.402056e-05,0.15,1.3069658e-06,1.3076343e-06,5.659218e-06,1310988,0.0038397089,-0.007577017,0.00033761348,0.4,0.0031777367,0.00315213,0.00028304083,197388,-0.00015877727,-0.0022084771,-0.0033925846,0.5,0.0014196862,0.0012572606,0.0012546729,1,0,1,0,1,0
1743177458269379,1743177458117379,1310988,-0.000406883,-0.00020335993,-3.002069e-05,0.15,1.2294913e-06,1.2235165e-06,5.6412673e-06,1310988,0.003380464,-0.0070253126,0.0012074849,0.4,0.0031496193,0.0031196284,0.00026814244,197388,-0.00030523495,-0.0023319065,-0.003440859,0.5,0.0013451929,0.0012562528,0.0012541293,1,0,1,0,1,0
1743177458581379,1743177458429379,1310988,-0.0004302066,-0.00020289303,-3.395189e-05,0.15,1.1230088e-06,1.1152985e-06,5.608155e-06,1310988,0.0030032387,-0.006753348,0.00217621,0.4,0.0031061198,0.0030734045,0.00024813582,197388,-0.0001274825,-0.002416401,-0.0033284656,0.5,0.0013261201,0.0012523151,0.0012499391,1,0,1,0,1,0
1743177458789379,1743177458637379,1310988,-0.00043781172,-0.00020253015,-4.148222e-05,0.15,1.0589612e-06,1.0503458e-06,5.585949e-06,1310988,0.0028573342,-0.0066194106,0.0031982844,0.4,0.0030767734,0.0030440309,0.00023617018,197388,-0.00014067227,-0.002438531,-0.003429405,0.5,0.0013252904,0.0012515158,0.0012490388,1,0,1,0,1,0
1743177458941379,1743177458789379,1310988,-0.00042573313,-0.00021392551,-3.3000684e-05,0.15,1.0131836e-06,1.0039898e-06,5.5700157e-06,1310988,0.0029478208,-0.0069638807,0.004653179,0.4,0.003053149,0.00302119,0.00022784152,197388,-0.00015061608,-0.0023574133,-0.00342189,0.5,0.001322204,0.0012511081,0.0012486121,1,0,1,0,1,0
1743177459045379,1743177458893379,1310988,-0.0004123584,-0.00022298348,-2.7756074e-05,0.15,9.82783e-07,9.73496e-07,5.5537257e-06,1310988,0.0030825995,-0.0073065897,0.005683119,0.4,0.0030357258,0.0030046387,0.00022256644,197388,-0.00015976994,-0.0023145257,-0.0034097326,0.5,0.0013186212,0.0012508471,0.0012483599,1,0,1,0,1,0
1743177459149379,1743177458997379,1310988,-0.00039530874,-0.00023368427,-2.7987631e-05,0.15,9.539301e-07,9.4453713e-07,5.545009e-06,1310988,0.0032533125,-0.0077533484,0.0067375344,0.4,0.0030179138,0.0029877215,0.00021750301,197388,-0.00018724737,-0.0023064355,-0.00341747,0.5,0.0013143924,0.0012507358,0.001248274,1,0,1,0,1,0
1743177459253379,1743177459101379,1310988,-0.00038224066,-0.00024244978,-2.8655855e-05,0.15,9.2508105e-07,9.159253e-07,5.5279525e-06,1310988,0.0033763463,-0.0081142755,0.007890771,0.4,0.002998758,0.0029695712,0.00021264046,197388,-0.00021731078,-0.0022972347,-0.0034074513,0.5,0.0013098491,0.0012505923,0.0012481568,1,0,1,0,1,0
1743177459357379,1743177459205379,1310988,-0.00037425722,-0.00025132496,-3.3228185e-05,0.15,8.977617e-07,8.8883235e-07,5.51892e-06,1310988,0.0033748648,-0.008413437,0.009059633,0.4,0.0029791517,0.0029508665,0.00020796865,197388,-0.00027215033,-0.002282114,-0.0034118146,0.5,0.0013055359,0.0012505144,0.0012481085,1,0,1,0,1,0
1743177459461379,1743177459309379,1310988,-0.00035380916,-0.00026337468,-3.1190895e-05,0.15,8.7071254e-07,8.6224463e-07,5.5012783e-06,1310988,0.0035692875,-0.009006762,0.009857655,0.4,0.002958512,0.0029311206,0.00020347806,197388,-0.00029863662,-0.0022874402,-0.0034234414,0.5,0.0013017904,0.0012504098,0.0012480323,1,0,1,0,1,0
1743177459573379,1743177459421379,1310988,-0.00033734852,-0.00027523932,-2.8793202e-05,0.15,8.458387e-07,8.3774466e-07,5.492131e-06,1310988,0.003678444,-0.009567477,0.010269371,0.4,0.002938926,0.0029122077,0.0001991603,197388,0.0,0.0,0.0,0.5,0.0025000002,0.0025000002,0.0025000002,1,0,1,0,1,0
1743177459645379,1743177459493379,1310988,-0.00033309948,-0.00028183282,-3.0438376e-05,0.15,8.340856e-07,8.262558e-07,5.4920647e-06,1310988,0.0036339257,-0.009779864,0.010373961,0.4,0.0029276658,0.0029023478,0.00019706006,197388,5.4196873e-05,-0.00068695255,-0.0014287783,0.5,0.0017453243,0.0015022511,0.0014998032,1,0,1,0,1,0
1743177459877379,1743177459725379,1310988,-0.0003032818,-0.00030678278,-3.5740875e-05,0.15,7.822486e-07,7.7515716e-07,5.4914267e-06,1310988,0.0037405984,-0.010820292,0.010446876,0.4,0.002889217,0.0028647822,0.00018715578,197388,-0.0004557001,-0.0007204205,-0.0017949515,0.5,0.0015220882,0.0010757342,0.0010709909,1,0,1,0,1,0
1743177460189379,1743177460037379,1310988,-0.00026921852,-0.00032723427,-4.038674e-05,0.15,7.3160567e-07,7.251137e-07,5.491864e-06,1310988,0.004064083,-0.011735237,0.0099526625,0.4,0.0028577703,0.0028335152,0.00017642432,197388,-6.744912e-05,-0.0011210801,-0.0023670623,0.5,0.0014652759,0.0009530988,0.0009477259,1,0,1,0,1,0
1743177460709379,1743177460557379,1310988,-0.00022611125,-0.0003477916,-4.6966255e-05,0.15,6.6377635e-07,6.5762015e-07,5.4936477e-06,1310988,0.004626354,-0.012609875,0.00958264,0.4,0.0028245128,0.0027994858,0.00016091108,197388,0.00044015393,-0.0013860834,-0.0025311464,0.5,0.0014413046,0.0009048056,0.00089936715,1,0,1,0,1,0
1743177461125379,1743177460973379,1310988,-0.00017794923,-0.00035934598,-5.0479288e-05,0.15,6.1859345e-07,6.1281764e-07,5.495176e-06,1310988,0.005356122,-0.013211147,0.0091271205,0.4,0.002807012,0.002779797,0.00015027291,197388,-2.1597745e-05,-0.0012013305,-0.002288824,0.5,0.0014084225,0.0008869574,0.0008815063,1,0,1,0,1,0
1743177461493379,1743177461341379,1310988,-0.00014516241,-0.0003702011,-5.0096485e-05,0.15,5.858541e-07,5.8122e-07,5.495834e-06,1310988,0.005730705,-0.013680671,0.00863366,0.4,0.0027969081,0.0027660187,0.00014203257,197388,-0.0011418259,-0.0013462459,-0.0022452162,0.5,0.0012955719,0.0008747347,0.000868864,1,0,1,0,1,0
1743177461685379,1743177461533379,1310988,-0.00013406177,-0.00036502298,-5.1982654e-05,0.15,5.743336e-07,5.702141e-07,5.4958496e-06,1310988,0.005812296,-0.013693501,0.008424139,0.4,0.0027934667,0.0027608261,0.00013875538,197388,-0.002154966,-0.001452108,-0.0023253052,0.5,0.0012260587,0.0008685578,0.00086168176,1,0,1,0,1,0
1743177462061379,1743177461909379,1310988,-0.00013396301,-0.0003405758,-5.6672983e-05,0.15,5.466278e-07,5.4294424e-07,5.4953293e-06,1310988,0.0054396517,-0.013511204,0.007847819,0.4,0.0027842955,0.0027474854,0.00013077447,197388,-0.0031533386,-0.0012596548,-0.0025637057,0.5,0.0010904466,0.0008571187,0.000846723,1,0,1,0,1,0
1743177462477379,1743177462325379,1310988,-0.00013943287,-0.0002886804,-6.0235005e-05,0.15,5.189072e-07,5.1385507e-07,5.492908e-06,1310988,0.0048373286,-0.012867759,0.0072922832,0.4,0.0027724144,0.0027321624,0.0001236812,197388,-0.0036554795,-0.0012908791,-0.0022289457,0.5,0.0010470967,0.000843088,0.0008260229,1,0,1,0,1,0
1743177462845379,1743177462693379,1310988,-0.00014068118,-0.00022996188,-6.6983266e-05,0.15,4.900772e-07,4.830189e-07,5.4878947e-06,1310988,0.00438749,-0.012070891,0.006852518,0.4,0.0027579106,0.0027157667,0.000118119344,197388,-0.002959016,-0.0012225929,-0.0023583176,0.5,0.0010216606,0.000830784,0.0008071702,1,0,1,0,1,0
1743177463157379,1743177463005379,1310988,-0.00014322948,-0.00018922988,-6.2596235e-05,0.15,4.635309e-07,4.550028e-07,5.4832244e-06,1310988,0.0039524287,-0.011644312,0.006493844,0.4,0.00274337,0.002700896,0.00011377854,197388,-0.0019802388,-0.0010703123,-0.002044622,0.5,0.0009770549,0.00082370813,0.00079675665,1,0,1,0,1,0
1743177463573379,1743177463421379,1310988,-0.00014229203,-0.00015579596,-6.624311e-05,0.15,4.3092754e-07,4.2127758e-07,5.4727475e-06,1310988,0.003495693,-0.011507566,0.006052964,0.4,0.0027242505,0.0026825557,0.00010853584,197388,-0.0009240342,-0.0009852663,-0.0023071454,0.5,0.0008930001,0.00081500155,0.00078453735,1,0,1,0,1,0
1743177464061379,1743177463909379,1310988,-0.00012505068,-0.0001429422,-6.794023e-05,0.15,4.011494e-07,3.920012e-07,5.451715e-06,1310988,0.0032003075,-0.011873988,0.005569223,0.4,0.002704798,0.002664584,0.00010330191,197388,6.924491e-05,-0.0008456719,-0.0022955947,0.5,0.0008124163,0.0008073308,0.0007735964,1,0,1,0,1,0
1743177464661379,1743177464509379,1310988,-9.522717e-05,-0.00012910433,-9.704203e-05,0.15,3.6935054e-07,3.6310996e-07,5.4172274e-06,1310988,0.002962878,-0.012395071,0.005047362,0.4,0.0026806477,0.0026424811,9.726112e-05,197388,0.0011065574,-0.0009559754,-0.002289432,0.5,0.0007568859,0.0008025637,0.00076618127,1,0,1,0,1,0
1743177465285379,1743177465133379,1310988,-6.8158486e-05,-0.00011262755,-0.00013776848,0.15,3.4323585e-07,3.4022978e-07,5.356464e-06,1310988,0.002409048,-0.013095361,0.0044693295,0.4,0.0026569047,0.0026204817,9.213711e-05,197388,0.0017478405,-0.0010166697,-0.002605616,0.5,0.00073800905,0.00079860806,0.00075965474,1,0,1,0,1,0
1743177465597379,1743177465445379,1310988,-6.227443e-05,-0.000109180306,-0.00014683907,0.15,3.3204378e-07,3.3005577e-07,5.321624e-06,1310988,0.0017133807,-0.013760746,0.0040697986,0.4,0.0026451298,0.0026092138,8.987084e-05,197388,0.0018770825,-0.0009571824,-0.0025866404,0.5,0.0007358042,0.00079726917,0.00075740693,1,0,1,0,1,0
1743177465965379,1743177465813379,1310988,-5.1488147e-05,-0.00010498448,-0.00016180969,0.15,3.1999343e-07,3.189062e-07,5.269334e-06,1310988,0.0010228336,-0.014447852,0.0036655515,0.4,0.00263128,0.002596011,8.7445194e-05,197388,0.0019054974,-0.00094874116,-0.0026142385,0.5,0.0007338163,0.0007955235,0.00075441547,1,0,1,0,1,0
1743177466117379,1743177465965379,1310988,-4.8844333e-05,-0.000105495215,-0.00017410025,0.15,3.152357e-07,3.1434666e-07,5.247352e-06,1310988,0.0003293738,-0.015124253,0.003340834,0.4,0.0026252158,0.0025901885,8.647342e-05,197388,0.0019570154,-0.0009120791,-0.0026686478,0.5,0.0007328154,0.0007949907,0.00075344095,1,0,1,0,1,0
1743177466277379,1743177466125379,1310988,-4.6267523e-05,-0.00010236849,-0.00018519182,0.15,3.1081518e-07,3.1000437e-07,5.2241603e-06,1310988,-0.00040264,-0.01572646,0.003016116,0.4,0.0026188998,0.0025841102,8.553893e-05,197388,0.0018997812,-0.00092688773,-0.0026603574,0.5,0.000731133,0.0007944281,0.0007523677,1,0,1,0,1,0
1743177466485379,1743177466333379,1310988,-4.3970962e-05,-9.714697e-05,-0.00019927601,0.15,3.0525555e-07,3.04457e-07,5.1902134e-06,1310988,-0.0013107313,-0.016407926,0.0026399037,0.4,0.0026100872,0.002575693,8.434966e-05,197388,0.0018532615,-0.0008901346,-0.0026060515,0.5,0.0007279696,0.00079355,0.00075065333,1,1,1,0,1,0
1743177466693379,1743177466541379,1310988,-4.146983e-05,-9.115732e-05,-0.00019259757,0.15,3.0007246e-07,2.9923117e-07,5.1557136e-06,1310988,-0.0022500288,-0.01700788,0.002276894,0.4,0.002600919,0.002567066,8.3220984e-05,197388,0.0017115274,-0.0007967948,-0.0024391518,0.5,0.0007244805,0.00079268817,0.0007489073,1,1,1,0,1,0
1743177466949379,1743177466797379,1310988,-3.974514e-05,-8.339789e-05,-0.00020390088,0.15,2.939762e-07,2.9306065e-07,5.1106476e-06,1310988,-0.0032342398,-0.017613208,0.0018948305,0.4,0.0025892144,0.002556242,8.1890284e-05,197388,0.0015557478,-0.0007601351,-0.0024171919,0.5,0.0007200641,0.0007915617,0.00074663275,1,1,1,0,1,0
1743177467213379,1743177467061379,1310988,-3.945562e-05,-8.2343904e-05,-0.00018122097,0.15,2.883088e-07,2.8734408e-07,5.065339e-06,1310988,-0.004068117,-0.01825221,0.0015698009,0.4,0.0025774895,0.0025455926,8.064179e-05,197388,0.0014632897,-0.0007224088,-0.0022161873,0.5,0.0007160361,0.00079045596,0.0007444441,1,1,1,0,1,0
1743177467573379,1743177467421379,1310988,-4.6842742e-05,-7.118241e-05,-0.00018910498,0.15,2.808496e-07,2.7987687e-07,5.0053313e-06,1310988,-0.005019601,-0.018744588,0.0012684005,0.4,0.0025614875,0.0025313268,7.902226e-05,197388,0.001378641,-0.0006823094,-0.0021380368,0.5,0.00071136595,0.0007891541,0.0007418996,1,1,1,0,1,0
1743177468045379,1743177467893379,1310988,-5.9544458e-05,-6.6924615e-05,-0.00017526778,0.15,2.7200326e-07,2.7116494e-07,4.924263e-06,1310988,-0.005855041,-0.019249143,0.0010055053,0.4,0.0025420352,0.0025142885,7.7135504e-05,197388,0.0013783119,-0.00061533647,-0.002162233,0.5,0.0007066098,0.00078754144,0.0007388591,1,1,1,0,1,0
1743177469045379,1743177468893379,1310988,-8.993779e-05,-8.29965e-05,-0.00010684685,0.15,2.5562272e-07,2.5526552e-07,4.746364e-06,1310988,-0.006475435,-0.019769171,0.00084965874,0.4,0.0025052116,0.0024822394,7.375606e-05,197388,0.0017737945,-0.0006356236,-0.0021477968,0.5,0.00069774507,0.0007849388,0.00073399616,1,1,1,0,1,0
1743177470045379,1743177469893379,1310988,-0.00011101057,-9.387679e-05,-7.0740025e-05,0.15,2.4202427e-07,2.422682e-07,4.567528e-06,1310988,-0.006147691,-0.019159088,0.0010286202,0.4,0.0024718668,0.0024528897,7.100525e-05,197388,0.0019631267,-0.0007621177,-0.0021303624,0.5,0.00068995275,0.0007822698,0.0007292409,1,1,1,0,1,0
1743177470541379,1743177470389379,1310988,-0.000117317526,-8.393861e-05,-5.0974202e-05,0.15,2.3569974e-07,2.3613909e-07,4.4873855e-06,1310988,-0.0054733404,-0.018340418,0.001210475,0.4,0.002454499,0.0024377427,6.974663e-05,197388,0.0017793396,-0.0007596707,-0.0019933744,0.5,0.00068395206,0.00078143453,0.00072472513,1,1,1,0,1,0
1743177470797379,1743177470645379,1310988,-0.00012041336,-4.5373043e-05,-6.651401e-05,0.15,2.3297174e-07,2.3333901e-07,4.456241e-06,1310988,-0.0046725455,-0.017495282,0.001255023,0.4,0.0024443709,0.0024301861,6.915826e-05,197388,0.0017853472,-0.0006238907,-0.0015269916,0.5,0.0006382699,0.00077795255,0.00070505514,1,1,1,0,1,0
1743177470997379,1743177470845379,1310988,-0.00012318911,-1.6365548e-05,-8.27652e-05,0.15,2.3226205e-07,2.3206638e-07,4.436982e-06,1310988,-0.0039882725,-0.016801495,0.0012793173,0.4,0.0024368751,0.0024258052,6.88157e-05,197388,0.000799383,-0.00034490298,-0.00091720663,0.5,0.0005603512,0.0007716156,0.0006759218,1,1,1,0,1,0
1743177471213379,1743177471061379,1310988,-0.0001223751,1.2653602e-05,-9.8960605e-05,0.15,2.3192044e-07,2.2908961e-07,4.4085514e-06,1310988,-0.0031761858,-0.016143177,0.0013088965,0.4,0.0024238375,0.0024192834,6.82589e-05,197388,0.00086093193,-0.00025679113,-0.0007019901,0.5,0.00042541427,0.0007647386,0.00064968667,1,1,1,0,1,0
1743177471893379,1743177471741379,1310988,-0.00012385681,-4.517768e-05,-3.059671e-05,0.15,2.3459451e-07,2.2305076e-07,4.3180853e-06,1310988,-0.0037519648,-0.017107172,0.0016280753,0.4,0.0023919572,0.0024035147,6.6948065e-05,197388,0.0011628686,-0.00021498794,-0.0008896045,0.5,0.0003036988,0.0007564359,0.0006310485,1,1,1,0,1,0
1743177472101379,1743177471949379,1310988,-0.00012655173,-8.786925e-05,-1.1439585e-05,0.15,2.3451197e-07,2.2137796e-07,4.2786146e-06,1310988,-0.0043970034,-0.01790918,0.0017742045,0.4,0.0023814426,0.002398464,6.658726e-05,197388,0.0014425651,-0.00043468198,-0.0010297596,0.5,0.00029964448,0.0007557326,0.0006287694,1,1,1,0,1,0
1743177472413379,1743177472261379,1310988,-0.00013598798,-0.00014204229,5.4561286e-05,0.15,2.3130572e-07,2.188586e-07,4.19453e-06,1310988,-0.005149903,-0.018588973,0.0020080842,0.4,0.0023639635,0.0023888894,6.6076835e-05,197388,0.0018880225,-0.0005734452,-0.0014203732,0.5,0.0002947485,0.0007539776,0.0006211181,1,1,1,0,1,0
1743177473021379,1743177472869379,1310988,-0.00013819811,-0.00016030851,0.00010108768,0.15,2.2177453e-07,2.1441694e-07,4.007652e-06,1310988,-0.004238459,-0.01828659,0.0023109517,0.4,0.002330153,0.0023678024,6.5212575e-05,197388,0.0018283782,-0.00062247564,-0.0015804183,0.5,0.0002729053,0.0007414649,0.0006179342,1,1,1,0,1,0
1743177473397379,1743177473245379,1310988,-0.00013790972,-0.00014957636,0.000103930346,0.15,2.1687609e-07,2.1097254e-07,3.9147662e-06,1310988,-0.0033773875,-0.017690495,0.002408152,0.4,0.0023053966,0.002353354,6.4625674e-05,197388,0.0017058953,-0.0005261467,-0.0015474304,0.5,0.00026051,0.00072643295,0.00061684806,1,1,1,0,1,1
1743177473813379,1743177473661379,1310988,-0.0001328117,-0.00013711622,7.77247e-05,0.15,2.1387268e-07,2.0819454e-07,3.8379803e-06,1310988,-0.0023714371,-0.017161096,0.0024900783,0.4,0.0022811405,0.0023400742,6.407474e-05,197388,0.0014855431,-0.00065452093,-0.0015041324,0.5,0.00025310405,0.0007168071,0.0006158055,1,1,1,0,1,1
1743177474077379,1743177473925379,1310988,-0.00011634722,-0.00012989256,2.9214414e-05,0.15,2.1242693e-07,2.0678495e-07,3.7839402e-06,1310988,-0.001244321,-0.017189812,0.0025412187,0.4,0.0022674445,0.0023332818,6.3751926e-05,197388,0.000906647,-0.00034073307,-0.0012157658,0.5,0.00025021963,0.0007100771,0.000612133,1,1,1,0,1,1
1743177474333379,1743177474181379,1310988,-9.085792e-05,-0.00011482453,-5.5012442e-05,0.15,2.1119301e-07,2.0572249e-07,3.721588e-06,1310988,-0.00029535862,-0.017488351,0.002597948,0.4,0.0022556928,0.0023284913,6.344666e-05,197388,-9.5150135e-05,0.00013905304,-0.0010706335,0.5,0.0002412973,0.00064959546,0.0006067969,1,1,1,0,1,1
1743177474533379,1743177474381379,1310988,-6.540519e-05,-0.000105914696,-0.000100400975,0.15,2.1094733e-07,2.0581146e-07,3.6857227e-06,1310988,8.554736e-05,-0.01807658,0.0026849345,0.4,0.0022477596,0.0023249558,6.3264706e-05,197388,-0.0010385027,-0.0010260012,-0.0004102357,0.5,0.0002212656,0.00052225427,0.0005948446,1,1,1,0,1,1
1743177474645379,1743177474493379,1310988,-3.9240742e-05,-9.574075e-05,-0.0001707816,0.15,2.101746e-07,2.0560904e-07,3.670764e-06,1310988,7.9375444e-05,-0.019344574,0.002863184,0.4,0.0022393013,0.0023182319,6.307365e-05,197388,-0.0019668064,-0.0010825149,-0.0001508169,0.5,0.0002087507,0.00047385835,0.0005897892,1,1,1,0,1,1
1743177474749379,1743177474597379,1310988,-2.5266496e-05,-8.8540684e-05,-0.00021368444,0.15,2.0990167e-07,2.0591882e-07,3.657584e-06,1310988,4.776108e-05,-0.020381646,0.0030156581,0.4,0.0022305208,0.0023096527,6.2924635e-05,197388,-0.0022584843,-0.0012215078,-1.6323493e-06,0.5,0.00018672021,0.000386472,0.00057981187,1,1,1,0,1,1
1743177474853379,1743177474701379,1310988,-1.2894813e-05,-8.000701e-05,-0.0002610466,0.15,2.0966836e-07,2.0636793e-07,3.6493166e-06,1310988,0.00018251126,-0.021877795,0.0031861374,0.4,0.002220693,0.00229691,6.275882e-05,197388,-0.0026215308,-0.0015215004,0.00028960808,0.5,0.00017385898,0.0003499269,0.00057456386,1,1,1,0,1,1
1743177474957379,1743177474805379,1310988,-4.4259546e-06,-7.173827e-05,-0.00030973667,0.15,2.0945984e-07,2.0689406e-07,3.6410047e-06,1310988,0.0005515613,-0.023569457,0.0033331385,0.4,0.0022085991,0.0022787175,6.25634e-05,197388,-0.0028926798,-0.0010890703,0.00037573455,0.5,0.00015266452,0.00029252746,0.00056308997,1,1,1,0,1,1
1743177475061379,1743177474909379,1310988,4.5720935e-06,-6.506387e-05,-0.00034479133,0.15,2.0930379e-07,2.0745426e-07,3.6346432e-06,1310988,0.0007425816,-0.025140762,0.0034723687,0.4,0.0021961206,0.0022545944,6.2345396e-05,197388,-0.0030282373,-0.00094917306,0.0005250131,0.5,0.00014227693,0.00027076248,0.0005573371,1,1,1,0,1,1
1743177475165379,1743177475013379,1310988,1.462279e-05,-5.902997e-05,-0.00036834733,0.15,2.0921493e-07,2.0800383e-07,3.627937e-06,1310988,0.0004934562,-0.026622396,0.0036115285,0.4,0.0021830634,0.0022242283,6.210068e-05,197388,-0.0029123474,-0.0007956187,0.0006046651,0.5,0.00012713198,0.00023841216,0.0005477309,1,1,1,0,1,1
1743177475269379,1743177475117379,1310988,2.3953795e-05,-5.369217e-05,-0.00038074813,0.15,2.0922495e-07,2.0853786e-07,3.6226904e-06,1310988,9.062588e-05,-0.027768727,0.0037298638,0.4,0.0021706242,0.0021885291,6.1838335e-05,197388,-0.0027146293,-0.00089315185,0.00073188014,0.5,0.00012040367,0.00022674612,0.00054369937,1,1,1,0,1,1
1743177475373379,1743177475221379,1310988,3.2726148e-05,-4.803459e-05,-0.00038971985,0.15,2.0932676e-07,2.0904479e-07,3.6169163e-06,1310988,-0.00045279515,-0.028794356,0.0038457755,0.4,0.0021590886,0.0021486857,6.156054e-05,197388,-0.002324325,-0.0010678284,0.0009310228,0.5,0.00011112883,0.00021043955,0.00053697376,1,1,1,0,1,1
1743177475637379,1743177475485379,1310988,4.3974782e-05,-4.0738185e-05,-0.00038068945,0.15,2.0998304e-07,2.1025508e-07,3.6026775e-06,1310988,-0.0012483937,-0.02738921,0.0039531975,0.4,0.002136832,0.00204183,6.084145e-05,197388,-0.0016426119,-0.001227863,0.0009943455,0.5,0.0001001105,0.00019398019,0.0005292666,1,1,1,0,1,1
1743177475685379,1743177475533379,1310988,4.377875e-05,-4.1260995e-05,-0.00037546994,0.15,2.1013986e-07,2.1045071e-07,3.6011281e-06,1310988,-0.0011933951,-0.026309915,0.0039273137,0.4,0.0021334284,0.00202061,6.0698698e-05,197388,-0.0016188576,-0.0012191315,0.0009755012,0.5,9.983869e-05,0.00019397335,0.0005292056,1,1,1,0,1,1
1743177475741379,1743177475589379,1310988,4.2447668e-05,-4.313881e-05,-0.00036632232,0.15,2.1035011e-07,2.1070446e-07,3.5974497e-06,1310988,-0.0010715825,-0.024842769,0.0038649756,0.4,0.002130228,0.001999517,6.0557308e-05,197388,-0.0015963549,-0.0012529882,0.00097252993,0.5,9.829363e-05,0.00019153439,0.0005284661,1,1,1,0,1,1
1743177475789379,1743177475637379,1310988,4.0065184e-05,-4.6123238e-05,-0.0003572011,0.15,2.1050407e-07,2.108957e-07,3.5933372e-06,1310988,-0.0009141371,-0.023073748,0.003776728,0.4,0.0021272062,0.0019789287,6.0418435e-05,197388,-0.0016585637,-0.0011991526,0.0009056994,0.5,9.698479e-05,0.00018938146,0.00052799523,1,1,1,0,1,1
1743177475845379,1743177475693379,1310988,3.7456182e-05,-4.99263e-05,-0.00034700817,0.15,2.107249e-07,2.1115034e-07,3.5887958e-06,1310988,-0.00068633945,-0.021258833,0.003670206,0.4,0.0021242343,0.0019586552,6.0282062e-05,197388,-0.0016519711,-0.0012234835,0.0009081589,0.5,9.5862066e-05,0.000187399,0.0005276491,1,1,1,0,1,1
1743177475893379,1743177475741379,1310988,3.435822e-05,-5.4315286e-05,-0.00033864952,0.15,2.1088663e-07,2.1134353e-07,3.58379e-06,1310988,-0.0005010934,-0.019211095,0.0035542774,0.4,0.0021213004,0.0019389881,6.0148675e-05,197388,-0.0016204484,-0.0011550927,0.00089467986,0.5,9.485867e-05,0.00018546499,0.0005272446,1,1,1,0,1,1
1743177475949379,1743177475797379,1310988,3.093748e-05,-5.973242e-05,-0.00032699772,0.15,2.1116745e-07,2.1160473e-07,3.5832436e-06,1310988,-0.00032069103,-0.01701204,0.0034196384,0.4,0.0021182655,0.0019197285,6.0018163e-05,197388,-0.0016335197,-0.0011185906,0.0008580023,0.5,9.472913e-05,0.00018545764,0.000527211,1,1,1,0,1,1
1743177475997379,1743177475845379,1310988,2.76724e-05,-6.5734115e-05,-0.0003137643,0.15,2.1133958e-07,2.1179997e-07,3.5779115e-06,1310988,-0.00021590358,-0.014696472,0.003269014,0.4,0.0021151092,0.0019010986,5.98906e-05,197388,-0.0016227845,-0.0011002806,0.0008226505,0.5,9.382545e-05,0.00018345157,0.0005265292,1,1,1,0,1,1
1743177476053379,1743177475901379,1310988,2.351655e-05,-7.251562e-05,-0.00030356858,0.15,2.1157584e-07,2.1205736e-07,3.5722346e-06,1310988,-2.2847613e-05,-0.012305813,0.0031219546,0.4,0.0021116626,0.0018828871,5.9765698e-05,197388,-0.0016205925,-0.0010521897,0.0007987021,0.5,9.295749e-05,0.00018129805,0.0005253864,1,1,1,0,1,1
1743177476101379,1743177475949379,1310988,2.0386171e-05,-7.939416e-05,-0.00029005713,0.15,2.1174895e-07,2.1224996e-07,3.5660619e-06,1310988,9.340467e-05,-0.009969722,0.0029714154,0.4,0.002107931,0.0018652569,5.964338e-05,197388,-0.0016235495,-0.0010386758,0.00076174014,0.5,9.209278e-05,0.00017888384,0.0005235457,1,1,1,0,1,1
1743177476157379,1743177476005379,1310988,1.7105269e-05,-8.657217e-05,-0.00027817854,0.15,2.1205757e-07,2.1250835e-07,3.5659118e-06,1310988,0.00020613274,-0.007708275,0.0028249251,0.4,0.0021037152,0.0018479963,5.952316e-05,197388,-0.0016469952,-0.0009927234,0.00072662346,0.5,9.2031725e-05,0.00017887577,0.0005235286,1,1,1,0,1,1
1743177476205379,1743177476053379,1310988,1.3518369e-05,-9.354248e-05,-0.0002762604,0.15,2.1223644e-07,2.1269324e-07,3.559538e-06,1310988,0.00035050415,-0.0056477655,0.0026855299,0.4,0.0020990316,0.0018312279,5.94047e-05,197388,-0.0015469957,-0.0008232081,0.0009117117,0.5,9.1169466e-05,0.00017621016,0.00052112975,1,1,1,0,1,1
1743177476261379,1743177476109379,1310988,1.1343333e-05,-0.00010027977,-0.00026557434,0.15,2.1248275e-07,2.1293405e-07,3.5533672e-06,1310988,0.0003750668,-0.0036241014,0.0025653027,0.4,0.0020936662,0.0018147165,5.9287424e-05,197388,-0.0015494297,-0.00081070163,0.00088036177,0.5,9.027713e-05,0.00017334509,0.0005185816,1,1,1,0,1,1
1743177476309379,1743177476157379,1310988,9.29202e-06,-0.000106639054,-0.00025778395,0.15,2.1267438e-07,2.1310703e-07,3.5476241e-06,1310988,0.00042832084,-0.0017940799,0.0024494221,0.4,0.002087785,0.0017986156,5.9171187e-05,197388,-0.0015815272,-0.00072343985,0.0008862005,0.5,8.935292e-05,0.00017042241,0.000516332,1,1,1,0,1,1
1743177476365379,1743177476213379,1310988,7.936241e-06,-0.000112898306,-0.00025029108,0.15,2.1299503e-07,2.1334124e-07,3.54717e-06,1310988,0.0003184056,-6.371808e-05,0.0023478128,0.4,0.0020812359,0.0017827001,5.9055492e-05,197388,-0.0015966732,-0.0006854047,0.00086281734,0.5,8.932726e-05,0.00017041311,0.00051632384,1,1,1,0,1,1
1743177476413379,1743177476261379,1310988,6.918686e-06,-0.000118485455,-0.00024211733,0.15,2.131964e-07,2.1350087e-07,3.5417686e-06,1310988,0.00026997997,0.0014740059,0.0022549827,0.4,0.0020741732,0.0017670884,5.8940317e-05,197388,-0.0016167783,-0.00069351576,0.0008172947,0.5,8.8357076e-05,0.00016739385,0.00051429897,1,1,1,0,1,1
1743177476469379,1743177476317379,1310988,6.40493e-06,-0.00012415227,-0.00022687683,0.15,2.1346631e-07,2.137149e-07,3.536702e-06,1310988,0.0002535619,0.0030981703,0.0021654172,0.4,0.0020664134,0.0017515477,5.882521e-05,197388,-0.001639992,-0.00089162524,0.00066061725,0.5,8.734236e-05,0.00016427352,0.00051232765,1,1,1,0,1,1
1743177476517379,1743177476365379,1310988,5.7458224e-06,-0.0001293775,-0.00021923191,0.15,2.136775e-07,2.1385972e-07,3.5318023e-06,1310988,0.00025147523,0.0045013507,0.0020817872,0.4,0.0020581398,0.0017362514,5.8710302e-05,197388,-0.0016266776,-0.0008977114,0.0006533534,0.5,8.627882e-05,0.00016102179,0.00051032373,1,1,1,0,1,1
1743177476573379,1743177476421379,1310988,5.276606e-06,-0.00013468623,-0.00021255914,0.15,2.1395466e-07,2.1405863e-07,3.5270848e-06,1310988,0.00016309498,0.0059610815,0.0020122137,0.4,0.002049116,0.0017209669,5.8595007e-05,197388,-0.0015585332,-0.00094451295,0.0006571427,0.5,8.5186766e-05,0.00015770436,0.0005082925,1,1,1,0,1,1
1743177476621379,1743177476469379,1310988,4.6353193e-06,-0.0001396516,-0.00020577549,0.15,2.142165e-07,2.1419287e-07,3.5258656e-06,1310988,0.00016567415,0.007256975,0.0019333832,0.4,0.0020395897,0.0017059081,5.8479687e-05,197388,-0.0015819769,-0.0009118991,0.0006472147,0.5,8.517757e-05,0.00015769347,0.00050828845,1,1,1,0,1,1
1743177476677379,1743177476525379,1310988,4.2039183e-06,-0.00014438022,-0.00020053245,0.15,2.1449547e-07,2.143763e-07,3.5210817e-06,1310988,0.000109176,0.008462978,0.0018629269,0.4,0.0020292609,0.0016908095,5.8363683e-05,197388,-0.001579047,-0.0008710984,0.00066255446,0.5,8.4066836e-05,0.00015433942,0.000506232,1,1,1,0,1,1
1743177476725379,1743177476573379,1310988,4.8516135e-06,-0.00014839767,-0.0001887868,0.15,2.1471264e-07,2.1449132e-07,3.5163096e-06,1310988,0.00010843281,0.00955658,0.0017978612,0.4,0.002018424,0.0016759095,5.8247457e-05,197388,-0.0015983832,-0.0009996532,0.0005753866,0.5,8.295696e-05,0.00015102858,0.0005042029,1,1,1,0,1,1
1743177476781379,1743177476629379,1310988,4.825974e-06,-0.00015345152,-0.00018076552,0.15,2.1499204e-07,2.1465972e-07,3.5115027e-06,1310988,1.7031727e-05,0.0107647,0.0017211216,0.4,0.0020067994,0.0016609925,5.8130514e-05,197388,-0.0015937217,-0.0010435614,0.00053839065,0.5,8.185825e-05,0.00014776691,0.00050210534,1,1,1,0,1,1
1743177476829379,1743177476677379,1310988,4.2872484e-06,-0.0001584719,-0.00017220927,0.15,2.1525122e-07,2.1476335e-07,3.5096252e-06,1310988,8.884059e-05,0.012009748,0.0016382642,0.4,0.0019946923,0.0016463024,5.8013437e-05,197388,-0.0016192439,-0.0010070374,0.0005301204,0.5,8.185325e-05,0.00014775486,0.00050210214,1,1,1,0,1,1
1743177476885379,1743177476733379,1310988,4.0403547e-06,-0.00016427439,-0.00016258955,0.15,2.1552495e-07,2.1491329e-07,3.5043138e-06,1310988,7.560789e-05,0.01339108,0.001547999,0.4,0.0019816721,0.0016315852,5.7895464e-05,197388,-0.0016734925,-0.0009692772,0.0005026169,0.5,8.078018e-05,0.00014450325,0.00049957033,1,1,1,0,1,1
1743177476933379,1743177476781379,1310988,3.5830376e-06,-0.00016975086,-0.00015040208,0.15,2.157275e-07,2.149886e-07,3.4983784e-06,1310988,0.0002115203,0.01468784,0.0014459476,0.4,0.0019680045,0.0016170673,5.777722e-05,197388,-0.0016628384,-0.0009866196,0.0004789835,0.5,7.9736885e-05,0.00014121288,0.0004961317,1,1,1,0,1,1
1743177476989379,1743177476837379,1310988,2.9293121e-06,-0.00017587615,-0.00013620038,0.15,2.1598328e-07,2.1510596e-07,3.4917925e-06,1310988,0.0004051577,0.016108785,0.0013284666,0.4,0.0019532458,0.0016025351,5.7658155e-05,197388,-0.0016944837,-0.00093718024,0.00047666993,0.5,7.872947e-05,0.00013792892,0.0004917301,1,1,1,0,1,1
1743177477037379,1743177476885379,1310988,2.1640572e-06,-0.00018252943,-0.00012285904,0.15,2.1623313e-07,2.1514946e-07,3.4888185e-06,1310988,0.00056784874,0.01768268,0.0012161728,0.4,0.0019377249,0.0015882372,5.7539022e-05,197388,-0.0017290633,-0.000883799,0.00046956452,0.5,7.8723715e-05,0.00013791543,0.0004917259,1,1,1,0,1,1
1743177477093379,1743177476941379,1310988,8.919025e-07,-0.00018864182,-0.0001058351,0.15,2.1647398e-07,2.152194e-07,3.4810016e-06,1310988,0.00094720576,0.019054025,0.001082344,0.4,0.0019208625,0.0015739125,5.7418787e-05,197388,-0.0017348725,-0.0008354569,0.00047631338,0.5,7.77558e-05,0.00013466568,0.00048624093,1,1,1,0,1,1
1743177477141379,1743177476989379,1310988,2.5372478e-07,-0.00019412533,-8.408137e-05,0.15,2.1664299e-07,2.1520111e-07,3.47246e-06,1310988,0.0013703939,0.02039049,0.0009607704,0.4,0.0019030954,0.00155981,5.729824e-05,197388,-0.0016498341,-0.00096443197,0.00036645232,0.5,7.683016e-05,0.0001315448,0.00048017636,1,1,1,0,1,1
1743177477197379,1743177477045379,1310988,-9.454734e-07,-0.00020003697,-6.725869e-05,0.15,2.1686618e-07,2.1520967e-07,3.4632403e-06,1310988,0.001771851,0.021719944,0.00084020157,0.4,0.0018840078,0.0015457536,5.7176967e-05,197388,-0.0016434725,-0.0009087517,0.00039355352,0.5,7.595069e-05,0.00012861987,0.00047394322,1,1,1,0,1,1
1743177477245379,1743177477093379,1310988,-2.102071e-06,-0.00020488679,-5.0243274e-05,0.15,2.1710137e-07,2.1513951e-07,3.4583547e-06,1310988,0.002224999,0.02286688,0.00073479145,0.4,0.0018642575,0.0015320211,5.7056135e-05,197388,-0.0016674512,-0.0008559998,0.00038631243,0.5,7.5937525e-05,0.0001286042,0.0004739337,1,1,1,0,1,1
1743177477301379,1743177477149379,1310988,-3.631001e-06,-0.00020994329,-3.1122614e-05,0.15,2.1731569e-07,2.150888e-07,3.4481732e-06,1310988,0.0027311025,0.023996608,0.0006172794,0.4,0.0018434495,0.0015183814,5.693484e-05,197388,-0.0016957499,-0.0008128999,0.00035039036,0.5,7.5102456e-05,0.0001259063,0.00046795595,1,1,1,0,1,1
1743177477349379,1743177477197379,1310988,-5.498839e-06,-0.00021327252,-1.0197121e-05,0.15,2.1746285e-07,2.1495309e-07,3.4375882e-06,1310988,0.0034689184,0.024842856,0.0005048637,0.4,0.0018222656,0.0015050952,5.6814202e-05,197388,-0.001689814,-0.0007574148,0.0003611869,0.5,7.431417e-05,0.00012343233,0.00046235148,1,1,1,0,1,1
1743177477405379,1743177477253379,1310988,-7.1895697e-06,-0.00021801161,5.707744e-06,0.15,2.1766866e-07,2.1485005e-07,3.426636e-06,1310988,0.003988139,0.02581819,0.0003969641,0.4,0.0018004337,0.0014920281,5.6694033e-05,197388,-0.0017439409,-0.0006248472,0.0004140819,0.5,7.356487e-05,0.00012114725,0.0004571032,1,1,1,0,1,1
1743177477453379,1743177477301379,1310988,-8.721839e-06,-0.0002217294,2.590806e-05,0.15,2.1789322e-07,2.1467825e-07,3.4201198e-06,1310988,0.0046264357,0.026619593,0.00028906114,0.4,0.0017786511,0.0014794287,5.65755e-05,197388,-0.0017573818,-0.00057003275,0.00040520495,0.5,7.3541574e-05,0.00012112916,0.0004570867,1,1,1,0,1,1
1743177477557379,1743177477405379,1310988,-1.1163925e-05,-0.00022648537,6.576551e-05,0.15,2.182309e-07,2.1432413e-07,3.396901e-06,1310988,0.005954434,0.027759507,0.000101492566,0.4,0.0017347714,0.0014552297,5.634113e-05,197388,-0.0016189325,-0.0005268282,0.00048228583,0.5,7.2141294e-05,0.00011703696,0.00044754648,1,1,1,0,1,1
1743177477661379,1743177477509379,1310988,-1.2992916e-05,-0.00023144437,9.734161e-05,0.15,2.1856367e-07,2.1393308e-07,3.373334e-06,1310988,0.006907464,0.028794527,-4.3766922e-05,0.4,0.0016920379,0.0014327472,5.6113262e-05,197388,-0.001450593,-0.00052159873,0.0005405697,0.5,7.084328e-05,0.00011342732,0.0004390837,1,1,1,0,1,1
1743177477765379,1743177477613379,1310988,-1.5460448e-05,-0.0002349088,0.00012589763,0.15,2.1898425e-07,2.1354305e-07,3.354256e-06,1310988,0.007890164,0.029534815,-0.00016778814,0.4,0.0016514357,0.0014121253,5.58935e-05,197388,-0.0014507513,-0.0004193119,0.0005665815,0.5,7.018839e-05,0.00011173218,0.00043513966,1,1,1,0,1,1
1743177477869379,1743177477717379,1310988,-1.7679033e-05,-0.0002380714,0.00015040928,0.15,2.1932227e-07,2.1315677e-07,3.3311912e-06,1310988,0.008829332,0.030143598,-0.00029139267,0.4,0.0016134569,0.0013932921,5.568108e-05,197388,-0.0014712798,-0.00020853661,0.0007437413,0.5,6.898273e-05,0.00010858166,0.0004277727,1,1,1,0,1,1
1743177478029379,1743177477877379,1310988,-1.9897667e-05,-0.00024162051,0.00018516474,0.15,2.1996311e-07,2.1268488e-07,3.3022275e-06,1310988,0.009902362,0.030768625,-0.00042660345,0.4,0.0015622441,0.0013683449,5.537834e-05,197388,-0.001358324,-0.00015009643,0.0007708054,0.5,6.778125e-05,0.000105611754,0.00042099314,1,1,1,0,1,1
1743177478181379,1743177478029379,1310988,-2.0563313e-05,-0.00024651963,0.00021079739,0.15,2.2056274e-07,2.1226592e-07,3.2752607e-06,1310988,0.01065267,0.03154483,-0.00053841213,0.4,0.0015181899,0.0013469893,5.5093024e-05,197388,-0.0012795244,3.305663e-05,0.000992262,0.5,6.66066e-05,0.00010278677,0.00041460097,1,1,1,0,1,1
1743177478389379,1743177478237379,1310988,-2.2690418e-05,-0.00024935592,0.00024222866,0.15,2.214123e-07,2.1193392e-07,3.2417884e-06,1310988,0.011641919,0.032024737,-0.00065028167,0.4,0.0014694913,0.001323121,5.473657e-05,197388,-0.0011656994,0.00016347153,0.0010949835,0.5,6.490133e-05,9.878768e-05,0.0004056787,1,1,1,0,1,1
1743177478701379,1743177478549379,1310988,-2.5962354e-05,-0.00025182587,0.0002793728,0.15,2.2271205e-07,2.1181836e-07,3.1978086e-06,1310988,0.012781556,0.032404497,-0.000771432,0.4,0.0014143176,0.001294976,5.4243443e-05,197388,-0.0011277145,0.00026814087,0.0011024511,0.5,6.2186686e-05,9.269911e-05,0.000392175,1,1,1,0,1,1
1743177479013379,1743177478861379,1310988,-3.0592884e-05,-0.000250191,0.00030993822,0.15,2.241292e-07,2.1208866e-07,3.1641982e-06,1310988,0.013838208,0.03222154,-0.0008774976,0.4,0.0013752931,0.0012735185,5.3788473e-05,197388,-0.00089727517,0.00026749744,0.0009839464,0.5,6.0113107e-05,8.8318055e-05,0.00038256403,1,1,1,0,1,1
1743177479637379,1743177479485379,1310988,-3.858554e-05,-0.00024031874,0.00030778145,0.15,2.2678256e-07,2.1329204e-07,3.1104018e-06,1310988,0.014640222,0.03156198,-0.00094819895,0.4,0.0013262546,0.0012431263,5.293556e-05,197388,-0.000680225,0.00021665906,0.00086504396,0.5,5.536223e-05,7.892674e-05,0.00036345614,1,1,1,0,1,1
1743177480109379,1743177479957379,1310988,-4.525311e-05,-0.0002248021,0.0002765875,0.15,2.2871824e-07,2.146125e-07,3.0844933e-06,1310988,0.014805966,0.030555936,-0.0009360903,0.4,0.0013026631,0.0012265665,5.2303152e-05,197388,-0.00047016676,-5.175945e-05,0.00054094964,0.5,5.2077707e-05,7.271856e-05,0.00035406428,1,1,1,0,1,1
1743177480421379,1743177480269379,1310988,-5.16398e-05,-0.00021140331,0.000231749,0.15,2.2991465e-07,2.1562514e-07,3.0719257e-06,1310988,0.014867163,0.029508699,-0.00093040173,0.4,0.0012893219,0.0012167044,5.1866056e-05,197388,-0.00048637757,-0.0001428147,0.0005591366,0.5,5.0147755e-05,6.9071306e-05,0.000350038,1,1,1,0,1,1
1743177480733379,1743177480581379,1310988,-5.9115493e-05,-0.00019622745,0.00018952416,0.15,2.3090473e-07,2.1671244e-07,3.0593183e-06,1310988,0.015211103,0.028363083,-0.0008953832,0.4,0.001275963,0.0012066893,5.1402913e-05,197388,-0.00039314275,-0.0003982905,0.0003721982,0.5,4.768055e-05,6.439019e-05,0.00034611076,1,1,1,0,1,1
1743177480941379,1743177480789379,1310988,-6.366474e-05,-0.00018342445,0.00015462807,0.15,2.314901e-07,2.1749217e-07,3.050457e-06,1310988,0.015472052,0.027236896,-0.00086398865,0.4,0.0012664603,0.0011994895,5.1075425e-05,197388,-0.00033685844,-0.00052441005,0.000291895,0.5,4.616164e-05,6.147944e-05,0.00034421284,1,1,1,0,1,1
1743177481149379,1743177480997379,1310988,-6.70433e-05,-0.00017091964,0.00012290497,0.15,2.319884e-07,2.183038e-07,3.0398996e-06,1310988,0.015677335,0.02600114,-0.00080790307,0.4,0.0012559673,0.0011914991,5.0728206e-05,197388,-0.0003150387,-0.0005535413,0.0002688943,0.5,4.462151e-05,5.8502705e-05,0.0003425539,1,1,1,0,1,1
1743177481357379,1743177481205379,1310988,-6.6575696e-05,-0.00015831494,0.00010563671,0.15,2.3239828e-07,2.1914744e-07,3.0268343e-06,1310988,0.015767915,0.024713894,-0.0007286506,0.4,0.0012440894,0.0011823999,5.035772e-05,197388,-0.00011950436,-0.00065272354,6.807809e-05,0.5,4.3088592e-05,5.5521272e-05,0.0003410535,1,1,1,0,1,1
1743177481509379,1743177481357379,1310988,-6.6546556e-05,-0.00015012152,9.009012e-05,0.15,2.3263992e-07,2.1977957e-07,3.0159504e-06,1310988,0.015887069,0.02371688,-0.0006784744,0.4,0.0012342267,0.001174802,5.006445e-05,197388,-7.81661e-05,-0.00075656385,-1.5926991e-05,0.5,4.211481e-05,5.362793e-05,0.00034012928,1,1,1,0,1,1
1743177481669379,1743177481517379,1310988,-6.790522e-05,-0.00014286813,7.162233e-05,0.15,2.329017e-07,2.2048661e-07,3.0041374e-06,1310988,0.016102066,0.022724222,-0.000621451,0.4,0.0012236205,0.0011666147,4.975939e-05,197388,-9.808904e-05,-0.00083142397,-4.1300613e-05,0.5,4.121942e-05,5.190146e-05,0.0003392766,1,1,1,0,1,1
1743177481821379,1743177481669379,1310988,-7.495589e-05,-0.00013711756,4.1568623e-05,0.15,2.329832e-07,2.2106161e-07,2.9907028e-06,1310988,0.016941853,0.021789284,-0.0005976793,0.4,0.0012125995,0.0011581982,4.9445276e-05,197388,-1.048667e-05,-0.0008874625,-7.549935e-05,0.5,4.004597e-05,4.9810085e-05,0.0003385805,1,1,1,0,1,1
1743177481981379,1743177481829379,1310988,-8.3253806e-05,-0.0001312302,8.712238e-06,0.15,2.3312745e-07,2.216539e-07,2.9792188e-06,1310988,0.017931964,0.020806659,-0.0005971178,0.4,0.0012020329,0.0011501887,4.9131988e-05,197388,4.699946e-05,-0.0010050155,-0.00013683135,0.5,3.9414226e-05,4.880626e-05,0.00033821273,1,1,1,0,1,1
1743177482085379,1743177481933379,1310988,-8.5540385e-05,-0.00012265694,-2.5899626e-06,0.15,2.3306785e-07,2.219233e-07,2.9695732e-06,1310988,0.018367294,0.019852841,-0.0005651161,0.4,0.0011955559,0.0011453247,4.8926006e-05,197388,4.756998e-05,-0.0009993097,-0.00016241931,0.5,3.8993297e-05,4.818829e-05,0.0003381298,1,1,1,0,1,1
1743177482189379,1743177482037379,1310988,-8.6553366e-05,-0.0001104707,-8.7837225e-06,0.15,2.3298354e-07,2.221637e-07,2.9597545e-06,1310988,0.018734898,0.018746706,-0.00052578695,0.4,0.0011899127,0.0011411442,4.8727128e-05,197388,5.2652547e-05,-0.0010030232,-0.0002305039,0.5,3.8839087e-05,4.7978687e-05,0.00033806558,1,1,1,0,1,1
1743177482293379,1743177482141379,1310988,-9.060884e-05,-9.62769e-05,-1.737585e-05,0.15,2.325209e-07,2.2222677e-07,2.9414418e-06,1310988,0.019358972,0.017596161,-0.00048567972,0.4,0.0011850536,0.0011375244,4.8533366e-05,197388,8.379133e-05,-0.0010836149,-0.00026376706,0.5,3.8645863e-05,4.7786878e-05,0.00033758802,1,1,1,0,1,1
1743177482397379,1743177482245379,1310988,-9.879999e-05,-8.023229e-05,-3.4261044e-05,0.15,2.3194394e-07,2.2216994e-07,2.9224523e-06,1310988,0.020016192,0.016477223,-0.00045620181,0.4,0.0011813225,0.0011349146,4.834992e-05,197388,0.00011118027,-0.0011827792,-0.00030548708,0.5,3.8559363e-05,4.771332e-05,0.00033702108,1,1,1,0,1,1
1743177482501379,1743177482349379,1310988,-0.000111138506,-6.2335814e-05,-5.7338017e-05,0.15,2.3070108e-07,2.2179069e-07,2.8862412e-06,1310988,0.020555122,0.015553961,-0.00042460623,0.4,0.0011783222,0.0011325394,4.8168844e-05,197388,0.0001341738,-0.0012943813,-0.0003625504,0.5,3.843351e-05,4.7628186e-05,0.00033499862,1,1,1,0,1,1
1743177482693379,1743177482541379,1310988,-0.0001307409,-2.7895898e-05,-7.1885486e-05,0.15,2.281523e-07,2.2089986e-07,2.8087472e-06,1310988,0.02122717,0.014741703,-0.00042238945,0.4,0.0011750171,0.0011292736,4.7901707e-05,197388,0.00014553619,-0.0014640505,-0.00028791165,0.5,3.8178085e-05,4.730344e-05,0.00032954552,1,1,1,0,1,1
1743177483021379,1743177482869379,1310988,-0.00016290328,6.428433e-05,-2.7402495e-05,0.15,2.1875752e-07,2.1529101e-07,2.6136306e-06,1310988,0.021270689,0.016098827,-0.0005352495,0.4,0.0011695883,0.0011203628,4.7264744e-05,197388,0.00015991904,-0.001679525,-0.00022551967,0.5,3.7397822e-05,4.6086392e-05,0.0003213344,1,1,1,0,1,1
1743177483173379,1743177483021379,1310988,-0.0001676697,0.00010579696,2.0317988e-05,0.15,2.1339389e-07,2.1212583e-07,2.4976732e-06,1310988,0.021123603,0.017541403,-0.00063867384,0.4,0.0011639653,0.0011101635,4.6935125e-05,197388,0.00014876445,-0.0017040649,-0.00022228296,0.5,3.674812e-05,4.5015226e-05,0.00031552397,1,1,1,0,1,1
1743177483277379,1743177483125379,1310988,-0.00016437576,0.00013524371,7.701666e-05,0.15,2.101319e-07,2.1002593e-07,2.4420735e-06,1310988,0.021291986,0.018646454,-0.0007212844,0.4,0.0011594107,0.001102031,4.6708137e-05,197388,4.2012776e-05,-0.0016572857,-0.00016202011,0.5,3.6450707e-05,4.4558492e-05,0.00031353097,1,1,1,0,1,1
1743177483381379,1743177483229379,1310988,-0.00016089702,0.00016172524,0.00011761301,0.15,2.0657112e-07,2.0785622e-07,2.372181e-06,1310988,0.021486426,0.019812165,-0.00081586855,0.4,0.0011528394,0.0010906819,4.645318e-05,197388,-9.341242e-06,-0.0016582138,-0.0002535997,0.5,3.595077e-05,4.376948e-05,0.00030948088,1,1,1,0,1,1
1743177483485379,1743177483333379,1310988,-0.00015145814,0.00018539907,0.00017141254,0.15,2.0339458e-07,2.0578437e-07,2.3238883e-06,1310988,0.021979446,0.020731524,-0.0009124436,0.4,0.0011456799,0.001078286,4.619576e-05,197388,-8.656055e-05,-0.0016080887,-0.00028532898,0.5,3.5645204e-05,4.3320444e-05,0.0003074428,1,1,1,0,1,1
1743177483645379,1743177483493379,1310988,-0.00013336631,0.00020464703,0.000231148,0.15,1.9861484e-07,2.0279576e-07,2.2377442e-06,1310988,0.023079371,0.021041654,-0.0010020073,0.4,0.0011317653,0.0010545993,4.576983e-05,197388,-0.000171971,-0.0015295213,-0.00040345397,0.5,3.4946257e-05,4.2254873e-05,0.00030309093,1,1,1,0,1,1
1743177483749379,1743177483597379,1310988,-0.000117994765,0.00020884584,0.00026804346,0.15,1.9592005e-07,2.009681e-07,2.2025472e-06,1310988,0.024087314,0.020543417,-0.0010158067,0.4,0.0011218425,0.0010377422,4.5486235e-05,197388,-0.0002395257,-0.0014528168,-0.00048225687,0.5,3.470767e-05,4.190759e-05,0.00030215262,1,1,1,0,1,1
1743177483853379,1743177483701379,1310988,-0.00010149651,0.0002057643,0.00029903374,0.15,1.9331146e-07,1.9923071e-07,2.1597461e-06,1310988,0.025252514,0.019443076,-0.0009888582,0.4,0.0011105103,0.001018956,4.5187768e-05,197388,-0.00031826735,-0.001362481,-0.00057984586,0.5,3.437299e-05,4.139788e-05,0.00030100904,1,1,1,0,1,1
1743177483957379,1743177483805379,1310988,-8.342219e-05,0.000196741,0.00033518113,0.15,1.9111268e-07,1.9763885e-07,2.1350531e-06,1310988,0.026531955,0.01775154,-0.00093016174,0.4,0.0010989117,0.0010001293,4.489635e-05,197388,-0.00039766138,-0.0012224971,-0.00061219797,0.5,3.4205525e-05,4.1158874e-05,0.00030062,1,1,1,0,1,1
1743177484005379,1743177483853379,1310988,-7.578624e-05,0.00018998276,0.00034220092,0.15,1.9001085e-07,1.9684755e-07,2.1184308e-06,1310988,0.027153771,0.016790774,-0.0008882486,0.4,0.001092675,0.0009902886,4.4746448e-05,197388,-0.00042262246,-0.0011796361,-0.0006561902,0.5,3.4085984e-05,4.098088e-05,0.00030038477,1,1,1,0,1,1
1743177484061379,1743177483909379,1310988,-6.762835e-05,0.0001821477,0.00034830763,0.15,1.8902551e-07,1.9614141e-07,2.1030728e-06,1310988,0.027827183,0.015744008,-0.0008438477,0.4,0.0010862384,0.0009803545,4.45966e-05,197388,-0.00043795665,-0.001131142,-0.00068588345,0.5,3.3979093e-05,4.0825045e-05,0.0003002035,1,1,1,0,1,1
1743177484109379,1743177483957379,1310988,-5.9739352e-05,0.00017305103,0.00035377112,0.15,1.8814944e-07,1.9542381e-07,2.099739e-06,1310988,0.028508287,0.014572886,-0.0007878594,0.4,0.0010801106,0.0009710158,4.445499e-05,197388,-0.00046650902,-0.0010843998,-0.0007363179,0.5,3.3957174e-05,4.0803294e-05,0.000300171,1,1,1,0,1,1
1743177484165379,1743177484013379,1310988,-5.1288134e-05,0.00016400471,0.0003564192,0.15,1.8727174e-07,1.9477302e-07,2.0861141e-06,1310988,0.029266348,0.013444257,-0.00074355776,0.4,0.0010734027,0.00096113083,4.430605e-05,197388,-0.000488671,-0.0010469571,-0.0007815754,0.5,3.3863285e-05,4.0670217e-05,0.00030000458,1,1,1,0,1,1
1743177484213379,1743177484061379,1310988,-4.2125797e-05,0.00015533355,0.00036812693,0.15,1.8639055e-07,1.9409273e-07,2.0732987e-06,1310988,0.030030584,0.0122717675,-0.0006903306,0.4,0.0010666376,0.0009514053,4.4158194e-05,197388,-0.00053399254,-0.0009869504,-0.00084220414,0.5,3.3777585e-05,4.0552717e-05,0.0002998182,1,1,1,0,1,1
1743177484269379,1743177484117379,1310988,-3.5618326e-05,0.00014623826,0.00036950113,0.15,1.8561468e-07,1.934958e-07,2.0614277e-06,1310988,0.030647824,0.011180082,-0.0006308333,0.4,0.0010597041,0.0009417379,4.401096e-05,197388,-0.0005504324,-0.00094826554,-0.0008740543,0.5,3.369938e-05,4.044922e-05,0.00029961523,1,1,1,0,1,1
1743177484317379,1743177484165379,1310988,-3.0137962e-05,0.00013707932,0.0003706413,0.15,1.8491278e-07,1.9287971e-07,2.0603259e-06,1310988,0.031191064,0.010098625,-0.00057609647,0.4,0.0010530617,0.00093266147,4.3871165e-05,197388,-0.0005686708,-0.00091307575,-0.0009114176,0.5,3.368429e-05,4.043485e-05,0.0002995959,1,1,1,0,1,1
1743177484373379,1743177484221379,1310988,-2.3727014e-05,0.00012927067,0.00037859453,0.15,1.8422008e-07,1.9233103e-07,2.0495509e-06,1310988,0.03176133,0.009117783,-0.000531274,0.4,0.0010459532,0.0009232704,4.3725726e-05,197388,-0.0006017529,-0.00086555665,-0.00095949316,0.5,3.361342e-05,4.034277e-05,0.00029938994,1,1,1,0,1,1
1743177484421379,1743177484269379,1310988,-1.726567e-05,0.00012121836,0.00037741743,0.15,1.8350963e-07,1.9174787e-07,2.0392404e-06,1310988,0.03243371,0.00817786,-0.0005019511,0.4,0.0010388442,0.00091410987,4.35817e-05,197388,-0.00061631895,-0.0008384421,-0.0009860507,0.5,3.354719e-05,4.0258037e-05,0.0002991821,1,1,1,0,1,1
1743177484525379,1743177484373379,1310988,-6.751812e-06,0.00010672161,0.00036753473,0.15,1.8232495e-07,1.9071446e-07,2.0292778e-06,1310988,0.033615496,0.0065736133,-0.0004494862,0.4,0.0010247293,0.0008965787,4.3302294e-05,197388,-0.0006350356,-0.0008210994,-0.0010426291,0.5,3.3473407e-05,4.016697e-05,0.00029895903,1,1,1,0,1,1
1743177484581379,1743177484429379,1310988,-1.3360334e-06,9.900166e-05,0.00036440932,0.15,1.8177074e-07,1.9025093e-07,2.0197974e-06,1310988,0.03421107,0.005725876,-0.0004174602,0.4,0.0010174409,0.000887889,4.3161377e-05,197388,-0.00064344116,-0.0007990318,-0.001058227,0.5,3.3412736e-05,4.0088493e-05,0.00029874148,1,1,1,0,1,1
1743177484685379,1743177484533379,1310988,4.9709156e-06,8.387397e-05,0.00036454294,0.15,1.8068933e-07,1.8932145e-07,2.0010043e-06,1310988,0.034972392,0.004069942,-0.00033974586,0.4,0.0010028376,0.0008710935,4.2883e-05,197388,-0.0006571952,-0.00073996506,-0.0010715835,0.5,3.3291875e-05,3.9927425e-05,0.00029828024,1,1,1,0,1,1
1743177484789379,1743177484637379,1310988,1.2756136e-05,7.0519854e-05,0.00037285287,0.15,1.797748e-07,1.8847042e-07,1.9917989e-06,1310988,0.03580495,0.002565209,-0.00027891074,0.4,0.0009884089,0.00085522624,4.2613476e-05,197388,-0.00069144875,-0.00067096174,-0.0010980129,0.5,3.322342e-05,3.983386e-05,0.0002980265,1,1,1,0,1,1
1743177484893379,1743177484741379,1310988,1.8918518e-05,6.0205377e-05,0.00037189157,0.15,1.7887898e-07,1.8766725e-07,1.9726685e-06,1310988,0.036568087,0.0014406352,-0.00023378232,0.4,0.0009736016,0.00083971285,4.2342617e-05,197388,-0.00070724386,-0.0006306738,-0.0011197423,0.5,3.309542e-05,3.964817e-05,0.0002974973,1,1,1,0,1,1
1743177484997379,1743177484845379,1310988,2.5969708e-05,4.6290468e-05,0.00036948305,0.15,1.7812471e-07,1.8693068e-07,1.9628794e-06,1310988,0.037453763,1.4544994e-05,-0.00018545147,0.4,0.000958984,0.0008250065,4.2079642e-05,197388,-0.00072811637,-0.00058909843,-0.0011633137,0.5,3.3022665e-05,3.9538536e-05,0.00029719027,1,1,1,0,1,1
1743177485101379,1743177484949379,1310988,3.6170968e-05,3.3392356e-05,0.00036574074,0.15,1.7737456e-07,1.8623223e-07,1.9420122e-06,1310988,0.0386505,-0.0012891109,-0.00016052889,0.4,0.00094393804,0.0008106031,4.1814375e-05,197388,-0.0007694681,-0.0005555989,-0.0012511008,0.5,3.287541e-05,3.9312996e-05,0.00029632513,1,1,1,0,1,1
1743177485149379,1743177484997379,1310988,4.0792413e-05,2.4585908e-05,0.00036206387,0.15,1.769943e-07,1.8587194e-07,1.930883e-06,1310988,0.039247353,-0.0021508683,-0.00012603965,0.4,0.0009363604,0.0008036186,4.168241e-05,197388,-0.00077374716,-0.000533273,-0.0012549363,0.5,3.2794895e-05,3.9189934e-05,0.00029564628,1,1,1,0,1,1
1743177485205379,1743177485053379,1310988,4.5585013e-05,1.553114e-05,0.0003587975,0.15,1.7675367e-07,1.8559808e-07,1.9303727e-06,1310988,0.039852217,-0.0030109233,-0.000100263176,0.4,0.00092893204,0.00079692615,4.155503e-05,197388,-0.0007857361,-0.00051379757,-0.0012766317,0.5,3.2791704e-05,3.9181392e-05,0.00029563435,1,1,1,0,1,1
1743177485253379,1743177485101379,1310988,5.1422237e-05,4.8522384e-06,0.00035226258,0.15,1.7640485e-07,1.8526231e-07,1.918504e-06,1310988,0.04061421,-0.003999214,-7.363706e-05,0.4,0.00092119444,0.0007901955,4.1423446e-05,197388,-0.0007904415,-0.00049554266,-0.0012674235,0.5,3.2706444e-05,3.9051854e-05,0.00029468798,1,1,1,0,1,1
1743177485309379,1743177485157379,1310988,5.5976514e-05,-6.3744164e-06,0.00035064926,0.15,1.7613114e-07,1.8499732e-07,1.906194e-06,1310988,0.041207634,-0.005071574,-2.3807535e-05,0.4,0.0009132887,0.0007835562,4.1291732e-05,197388,-0.00080221647,-0.00046703353,-0.0012912017,0.5,3.2617274e-05,3.8918533e-05,0.00029346708,1,1,1,0,1,1
