timestamp,timestamp_sample,control_mode_flags,output_tracking_error[0],output_tracking_error[1],output_tracking_error[2],filter_fault_flags,pos_horiz_accuracy,pos_vert_accuracy,hdg_test_ratio,vel_test_ratio,pos_test_ratio,hgt_test_ratio,tas_test_ratio,hagl_test_ratio,beta_test_ratio,time_slip,accel_device_id,gyro_device_id,baro_device_id,mag_device_id,mag_inclination_deg,mag_inclination_ref_deg,mag_strength_gs,mag_strength_ref_gs,gps_check_fail_flags,solution_status_flags,reset_count_vel_ne,reset_count_vel_d,reset_count_pos_ne,reset_count_pod_d,reset_count_quat,pre_flt_fail_innov_heading,pre_flt_fail_innov_height,pre_flt_fail_innov_pos_horiz,pre_flt_fail_innov_vel_horiz,pre_flt_fail_innov_vel_vert,pre_flt_fail_mag_field_disturbed,health_flags,timeout_flags
1743177449813379,1743177449661379,2216807107073,0.0012322534,0.005125093,0.0046029314,0,14.142137,0.26017496,nan,nan,nan,0.0075265043,nan,nan,nan,0.0,1310988,1310988,6620172,197388,66.898575,67.84404,0.49977052,0.49967092,0,165,2,1,3,3,0,0,0,0,0,0,0,0,0
1743177449821379,1743177449669379,2216807107073,0.0012023008,0.005095264,0.0044580474,0,14.142138,0.26019198,nan,nan,nan,0.0075265043,nan,nan,nan,0.0,1310988,1310988,6620172,197388,66.898575,67.84404,0.49977052,0.49967092,0,165,2,1,3,3,0,0,0,0,0,0,0,0,0
1743177449829379,1743177449677379,2216807107073,0.001174142,0.00506539,0.002555242,0,14.1421385,0.25949416,nan,nan,nan,0.0064833416,nan,nan,nan,0.0,1310988,1310988,6620172,197388,66.898575,67.84404,0.49977052,0.49967092,0,165,2,1,3,3,0,0,0,0,0,0,0,0,0
1743177449837379,1743177449685379,2216807107073,0.0011439759,0.0050301696,0.00250489,0,14.14214,0.259513,nan,nan,nan,0.0064833416,nan,nan,nan,0.0,1310988,1310988,6620172,197388,66.898575,67.84404,0.49977052,0.49967092,0,165,2,1,3,3,0,0,0,0,0,0,0,0,0
1743177449845379,1743177449693379,2216807107073,0.0011155361,0.004996218,0.0018686276,0,14.142142,0.24526322,nan,nan,nan,0.0065682842,nan,nan,nan,0.0,1310988,1310988,6620172,197388,66.898575,67.84404,0.49977052,0.49967092,0,165,2,1,3,3,0,0,0,0,0,0,0,0,0
1743177449853379,1743177449701379,2216807107073,0.0010884559,0.0049592545,0.0018730196,0,14.142144,0.2452829,nan,nan,nan,0.0065682842,nan,nan,nan,0.0,1310988,1310988,6620172,197388,68.074715,67.84404,0.49095175,0.49967092,0,165,2,1,3,3,0,0,0,0,0,0,0,0,0
1743177449861379,1743177449709379,2216807107073,0.0010612666,0.0049206596,0.0018828727,0,14.142147,0.24530363,nan,nan,nan,0.0065682842,nan,nan,nan,0.0,1310988,1310988,6620172,197388,68.074715,67.84404,0.49095175,0.49967092,0,165,2,1,3,3,0,0,0,0,0,0,0,0,0
1743177449869379,1743177449717379,2216807107073,0.0010345067,0.0048808167,0.0018970413,0,14.14215,0.24532543,nan,nan,nan,0.0065682842,nan,nan,nan,0.0,1310988,1310988,6620172,197388,68.074715,67.84404,0.49095175,0.49967092,0,165,2,1,3,3,0,0,0,0,0,0,0,0,0
1743177449885379,1743177449733379,2216807107073,0.0009827716,0.004796077,0.0022334806,0,14.142158,0.24477206,nan,nan,nan,0.006342399,nan,nan,nan,0.0,1310988,1310988,6620172,197388,68.074715,67.84404,0.49095175,0.49967092,0,165,2,1,3,3,0,0,0,0,0,0,0,0,0
1743177449893379,1743177449741379,2216807107073,0.00096044876,0.0047565787,0.0018641192,0,14.142161,0.23271473,nan,nan,nan,0.006411686,nan,nan,nan,0.0,1310988,1310988,6620172,197388,68.074715,67.84404,0.49095175,0.49967092,0,165,2,1,3,3,0,0,0,0,0,0,0,0,0
1743177449901379,1743177449749379,2216807107073,0.00093850674,0.0047140126,0.0019011429,0,14.142166,0.23273973,nan,nan,nan,0.006411686,nan,nan,nan,0.0,1310988,1310988,6620172,197388,68.074715,67.84404,0.49095175,0.49967092,0,165,2,1,3,3,0,0,0,0,0,0,0,0,0
1743177449909379,1743177449757379,2216807107073,0.00091668963,0.0046684924,0.001939206,0,14.142171,0.23276596,nan,nan,nan,0.006411686,nan,nan,nan,0.0,1310988,1310988,6620172,197388,68.074715,67.84404,0.49095175,0.49967092,0,165,2,1,3,3,0,0,0,0,0,0,0,0,0
1743177449925379,1743177449773379,2216807107073,0.0008437552,0.004575891,0.002015922,0,14.142181,0.23282218,nan,nan,nan,0.006411686,nan,nan,nan,0.0,1310988,1310988,6620172,197388,68.410065,67.84404,0.4934497,0.49967092,0,165,2,1,3,3,0,0,0,0,0,0,0,0,0
1743177449933379,1743177449781379,2216807107073,0.00080957456,0.0045288447,0.0020215053,0,14.142187,0.23233896,nan,nan,nan,0.0061165793,nan,nan,nan,0.0,1310988,1310988,6620172,197388,68.410065,67.84404,0.4934497,0.49967092,0,165,2,1,3,3,0,0,0,0,0,0,0,0,0
1743177449941379,1743177449789379,2216807107073,0.00077368936,0.004477913,0.0020640364,0,14.142194,0.23237027,nan,nan,nan,0.0061165793,nan,nan,nan,0.0,1310988,1310988,6620172,197388,68.410065,67.84404,0.4934497,0.49967092,0,165,2,1,3,3,0,0,0,0,0,0,0,0,0
1743177449949379,1743177449797379,2216807107073,0.0007409292,0.00442939,0.0021179558,0,14.1422,0.22198947,nan,nan,nan,0.006166005,nan,nan,nan,0.0,1310988,1310988,6620172,197388,68.410065,67.84404,0.4934497,0.49967092,0,165,2,1,3,3,0,0,0,0,0,0,0,0,0
1743177449965379,1743177449813379,2216807107073,0.00088879425,0.0034430772,0.0020541023,0,14.142215,0.222056,nan,nan,nan,0.006166005,nan,nan,nan,0.0,1310988,1310988,6620172,197388,68.410065,67.84404,0.4934497,0.49967092,0,165,2,1,3,3,0,0,0,0,0,0,0,0,0
1743177449973379,1743177449821379,2216807107073,0.00088344695,0.0033633348,0.0020478524,0,14.142222,0.22209145,nan,nan,nan,0.006166005,nan,nan,nan,0.0,1310988,1310988,6620172,197388,68.410065,67.84404,0.4934497,0.49967092,0,165,2,1,3,3,0,0,0,0,0,0,0,0,0
1743177449981379,1743177449829379,2216807107073,0.00087986805,0.003280797,0.0020927594,0,14.142231,0.22168276,nan,nan,nan,0.006339269,nan,nan,nan,0.0,1310988,1310988,6620172,197388,68.410065,67.84404,0.4934497,0.49967092,0,165,2,1,3,3,0,0,0,0,0,0,0,0,0
1743177449989379,1743177449837379,2216807107073,0.0008784892,0.0032029802,0.0020698858,0,14.14224,0.22172114,nan,nan,nan,0.006339269,nan,nan,nan,0.0,1310988,1310988,6620172,197388,67.98158,67.84404,0.49181336,0.49967092,0,165,2,1,3,3,0,0,0,0,0,0,0,0,0
1743177450005379,1743177449853379,2216807107073,0.00087941205,0.0030497506,0.0021709076,0,0.014142129,0.21269956,nan,nan,nan,0.0063984278,nan,nan,nan,0.0,1310988,1310988,6620172,197388,67.98158,67.84404,0.49181336,0.49967092,0,165,2,1,3,3,0,0,0,0,0,0,0,0,0
1743177450013379,1743177449861379,2216807107073,0.00088111794,0.0029716247,0.0021534723,0,0.014323783,0.21274109,nan,nan,nan,0.0063984278,nan,nan,nan,0.0,1310988,1310988,6620172,197388,67.98158,67.84404,0.49181336,0.49967092,0,165,2,1,3,3,0,0,0,0,0,0,0,0,0
1743177450021379,1743177449869379,2216807107073,0.00087993836,0.0047950316,0.002208071,0,0.014501329,0.21271184,nan,nan,nan,0.0063984278,nan,nan,nan,0.0,1310988,1310988,6620172,197388,67.98158,67.84404,0.49181336,0.49967092,0,165,2,1,3,3,0,0,0,0,0,0,0,0,0
1743177450029379,1743177449877379,2216807107073,0.00088523165,0.0046570683,0.0022059612,0,0.014938345,0.21275194,nan,nan,nan,0.0063984278,nan,nan,nan,0.0,1310988,1310988,6620172,197388,67.98158,67.84404,0.49181336,0.49967092,0,165,2,1,3,3,0,0,0,0,0,0,0,0,0
1743177450045379,1743177449893379,2216807107073,0.0009004616,0.0044283126,0.004647348,0,0.016259236,0.21244487,nan,nan,nan,0.0074887294,nan,nan,nan,0.0,1310988,1310988,6620172,197388,67.98158,67.84404,0.49181336,0.49967092,0,165,2,1,3,3,0,0,0,0,0,0,0,0,0
1743177450053379,1743177449901379,171865803271,0.0009085483,0.0042963126,0.004813032,0,1.0,0.2044427,nan,0.0,0.0,0.0074791606,nan,nan,nan,0.0,1310988,1310988,6620172,197388,68.268364,67.84404,0.4918856,0.49967092,0,959,3,2,4,3,1,0,0,0,0,0,0,0,0
1743177450061379,1743177449909379,171865803271,0.0009170854,0.0040260493,0.004790006,0,1.0000057,0.20447439,nan,0.0,0.0,0.0074791606,nan,nan,nan,0.0,1310988,1310988,6620172,197388,68.268364,67.84404,0.4918856,0.49967092,0,959,3,2,4,3,1,0,0,0,0,0,0,0,0
1743177450069379,1743177449917379,171865803271,0.00092653796,0.0039414004,0.0047666244,0,1.000023,0.20456944,nan,0.0,0.0,0.0074791606,nan,nan,nan,0.0,1310988,1310988,6620172,197388,68.268364,67.84404,0.4918856,0.49967092,0,959,3,2,4,3,1,0,0,0,0,0,0,0,0
1743177450085379,1743177449933379,171865803271,0.0009469631,0.0033687307,0.0046872525,0,1.0000921,0.20459908,nan,0.0,0.0,0.0071459385,nan,nan,nan,0.0,1310988,1310988,6620172,197388,68.268364,67.84404,0.4918856,0.49967092,0,959,3,2,4,3,1,0,0,0,0,0,0,0,0
1743177450093379,1743177449941379,171865803271,0.0009578053,0.002981188,0.0046617533,0,1.000144,0.20488308,nan,0.0,0.0,0.0071459385,nan,nan,nan,0.0,1310988,1310988,6620172,197388,68.268364,67.84404,0.4918856,0.49967092,0,959,3,2,4,3,1,0,0,0,0,0,0,0,0
1743177450101379,1743177449949379,171865803271,0.00096889894,0.0032900912,0.004878012,0,0.5773702,0.19744386,nan,0.00010424487,1.9433646e-06,0.007134686,nan,nan,nan,0.0,1310988,1310988,6620172,197388,68.268364,67.84404,0.4918856,0.49967092,0,959,3,2,4,3,1,0,0,0,0,0,0,0,0
1743177450109379,1743177449957379,171865803271,0.0009802065,0.0029881422,0.004846465,0,0.57739514,0.197643,nan,0.00010424487,1.9433646e-06,0.007134686,nan,nan,nan,0.0,1310988,1310988,6620172,197388,68.268364,67.84404,0.4918856,0.49967092,0,959,3,2,4,3,1,0,0,0,0,0,0,0,0
1743177450125379,1743177449973379,171865803351,0.0013497996,0.0030877665,0.004782499,0,0.5774751,0.19813882,0.0085513815,0.00010424487,1.9433646e-06,0.007134686,nan,nan,nan,0.0,1310988,1310988,6620172,197388,67.97092,67.84404,0.49229342,0.49967092,0,959,3,2,4,3,1,0,0,0,0,0,0,0,0
1743177450133379,1743177449981379,171865803351,0.0013622221,0.0034259113,0.00475322,0,0.57753,0.19843526,0.0085513815,0.00010424487,1.9433646e-06,0.007134686,nan,nan,nan,0.0,1310988,1310988,6620172,197388,67.97092,67.84404,0.49229342,0.49967092,0,959,3,2,4,3,1,0,0,0,0,0,0,0,0
1743177450141379,1743177449989379,171865803351,0.0013744615,0.003649356,0.005341877,0,0.577595,0.19844444,0.0085513815,0.00010424487,1.9433646e-06,0.0070850467,nan,nan,nan,0.0,1310988,1310988,6620172,197388,67.97092,67.84404,0.49229342,0.49967092,0,959,3,2,4,3,1,0,0,0,0,0,0,0,0
1743177450149379,1743177449997379,171865803351,0.0013863833,0.0043568406,0.0052957814,0,0.57767004,0.19880453,0.0085513815,0.00010424487,1.9433646e-06,0.0070850467,nan,nan,nan,0.0,1310988,1310988,6620172,197388,67.97092,67.84404,0.49229342,0.49967092,0,959,3,2,4,3,1,0,0,0,0,0,0,0,0
1743177450165379,1743177450013379,171865803351,0.0012398681,0.0041909,0.0053896983,0,0.4473895,0.19202557,0.0085513815,0.00020247581,2.9157363e-06,0.007066744,nan,nan,nan,0.0,1310988,1310988,6620172,197388,67.97092,67.84404,0.49229342,0.49967092,0,959,3,2,4,3,1,0,0,0,0,0,0,0,0
1743177450173379,1743177450021379,171865803351,0.0012540733,0.004072726,0.005344432,0,0.4474489,0.19232266,0.0085513815,0.00020247581,2.9157363e-06,0.007066744,nan,nan,nan,0.0,1310988,1310988,6620172,197388,67.97092,67.84404,0.49229342,0.49967092,0,959,3,2,4,3,1,0,0,0,0,0,0,0,0
1743177450181379,1743177450029379,171865803351,0.0012681813,0.0039684074,0.0052991533,0,0.44751698,0.1926417,0.0085513815,0.00020247581,2.9157363e-06,0.007066744,nan,nan,nan,0.0,1310988,1310988,6620172,197388,67.97092,67.84404,0.49229342,0.49967092,0,959,3,2,4,3,1,0,0,0,0,0,0,0,0
1743177450189379,1743177450037379,171865803351,0.0040500737,0.0041182805,0.004119058,0,0.44759384,0.19269022,0.018788552,0.00020247581,2.9157363e-06,0.0055482066,nan,nan,nan,0.0,1310988,1310988,6620172,197388,68.36689,67.84404,0.48305288,0.49967092,0,959,3,2,4,3,1,0,0,0,0,0,0,0,0
1743177450205379,1743177450053379,171865803351,0.0041143144,0.0026687714,0.0042464687,0,0.37821713,0.18651336,0.018788552,0.0017661816,2.3970858e-06,0.005541106,nan,nan,nan,0.0,1310988,1310988,6620172,197388,68.36689,67.84404,0.48305288,0.49967092,0,959,3,2,4,3,1,0,0,0,0,0,0,0,0
1743177450213379,1743177450061379,171865803351,0.004131418,0.0026083426,0.0041515864,0,0.37828326,0.18680972,0.018788552,0.0017661816,2.3970858e-06,0.005541106,nan,nan,nan,0.0,1310988,1310988,6620172,197388,68.36689,67.84404,0.48305288,0.49967092,0,959,3,2,4,3,1,0,0,0,0,0,0,0,0
1743177450221379,1743177450069379,171865803351,0.0041487324,0.0025481677,0.004059005,0,0.3783572,0.1871229,0.018788552,0.0017661816,2.3970858e-06,0.005541106,nan,nan,nan,0.0,1310988,1310988,6620172,197388,68.36689,67.84404,0.48305288,0.49967092,0,959,3,2,4,3,1,0,0,0,0,0,0,0,0
1743177450229379,1743177450077379,171865803351,0.0041661435,0.0024882643,0.003968965,0,0.37843904,0.1874528,0.018788552,0.0017661816,2.3970858e-06,0.005541106,nan,nan,nan,0.0,1310988,1310988,6620172,197388,68.36689,67.84404,0.48305288,0.49967092,0,959,3,2,4,3,1,0,0,0,0,0,0,0,0
1743177450245379,1743177450093379,171865803351,0.0042007635,0.0024937252,0.0044561177,0,0.37862647,0.1878915,0.018788552,0.0017661816,2.3970858e-06,0.0057930523,nan,nan,nan,0.0,1310988,1310988,6620172,197388,68.36689,67.84404,0.48305288,0.49967092,0,959,3,2,4,3,1,0,0,0,0,0,0,0,0
1743177450253379,1743177450101379,171865803351,0.0042181234,0.002432857,0.0043504536,0,0.37873223,0.1882706,0.018788552,0.0017661816,2.3970858e-06,0.0057930523,nan,nan,nan,0.0,1310988,1310988,6620172,197388,68.36689,67.84404,0.48305288,0.49967092,0,959,3,2,4,3,1,0,0,0,0,0,0,0,0
1743177450261379,1743177450109379,171865803351,0.003961583,0.0026255609,0.0044348207,0,0.33381358,0.18209782,0.017614996,0.0015283618,4.2899163e-05,0.005771092,nan,nan,nan,0.0,1310988,1310988,6620172,197388,67.9445,67.84404,0.49100003,0.49967092,0,959,3,2,4,3,1,0,0,0,0,0,0,0,0
1743177450269379,1743177450117379,171865803351,0.0039791674,0.0025637047,0.00433171,0,0.33389947,0.18241951,0.017614996,0.0015283618,4.2899163e-05,0.005771092,nan,nan,nan,0.0,1310988,1310988,6620172,197388,67.9445,67.84404,0.49100003,0.49967092,0,959,3,2,4,3,1,0,0,0,0,0,0,0,0
1743177450285379,1743177450133379,171865803351,0.003964827,0.0024409252,0.0041330103,0,0.3340933,0.18310356,0.017614996,0.0015283618,4.2899163e-05,0.005771092,nan,nan,nan,0.0,1310988,1310988,6620172,197388,67.9445,67.84404,0.49100003,0.49967092,0,959,3,2,4,3,1,0,0,0,0,0,0,0,0
1743177450293379,1743177450141379,171865803351,0.0039326507,0.0024469846,0.0043742154,0,0.33420143,0.18321458,0.017614996,0.0015283618,4.2899163e-05,0.0056561474,nan,nan,nan,0.0,1310988,1310988,6620172,197388,67.9445,67.84404,0.49100003,0.49967092,0,959,3,2,4,3,1,0,0,0,0,0,0,0,0
1743177450301379,1743177450149379,171865803351,0.0039003263,0.0023867423,0.0042697485,0,0.33431712,0.1835897,0.017614996,0.0015283618,4.2899163e-05,0.0056561474,nan,nan,nan,0.0,1310988,1310988,6620172,197388,67.9445,67.84404,0.49100003,0.49967092,0,959,3,2,4,3,1,0,0,0,0,0,0,0,0
1743177450309379,1743177450157379,171865803351,0.0038618885,0.0026588682,0.004350717,0,0.3021874,0.1778324,0.017614996,0.0013312673,5.6967572e-05,0.005638883,nan,nan,nan,0.0,1310988,1310988,6620172,197388,67.9445,67.84404,0.49100003,0.49967092,0,959,3,2,4,3,1,0,0,0,0,0,0,0,0
1743177450325379,1743177450173379,171865803351,0.004781756,0.00253127,0.0041459682,0,0.3023901,0.17849831,0.016352972,0.0013312673,5.6967572e-05,0.005638883,nan,nan,nan,0.0,1310988,1310988,6620172,197388,68.5705,67.84404,0.48987928,0.49967092,0,959,3,2,4,3,1,0,0,0,0,0,0,0,0
1743177450333379,1743177450181379,171865803351,0.0047497177,0.00246956,0.0040467842,0,0.3025021,0.17884842,0.016352972,0.0013312673,5.6967572e-05,0.005638883,nan,nan,nan,0.0,1310988,1310988,6620172,197388,68.5705,67.84404,0.48987928,0.49967092,0,959,3,2,4,3,1,0,0,0,0,0,0,0,0
1743177450341379,1743177450189379,171865803351,0.004717037,0.0024087755,0.0039500264,0,0.30262136,0.17920987,0.016352972,0.0013312673,5.6967572e-05,0.005638883,nan,nan,nan,0.0,1310988,1310988,6620172,197388,68.5705,67.84404,0.48987928,0.49967092,0,959,3,2,4,3,1,0,0,0,0,0,0,0,0
1743177450349379,1743177450197379,171865803351,0.00461047,0.0022708569,0.003434414,0,0.302748,0.17934702,0.016352972,0.0013312673,5.6967572e-05,0.005129593,nan,nan,nan,0.0,1310988,1310988,6620172,197388,68.5705,67.84404,0.48987928,0.49967092,0,959,3,2,4,3,1,0,0,0,0,0,0,0,0
1743177450365379,1743177450213379,171865803351,0.004588353,0.0018046948,0.0031539071,0,0.27834436,0.17426491,0.016352972,0.0011364636,6.953866e-05,0.00511155,nan,nan,nan,0.0,1310988,1310988,6620172,197388,68.5705,67.84404,0.48987928,0.49967092,0,959,3,2,4,3,1,0,0,0,0,0,0,0,0
1743177450373379,1743177450221379,171865803351,0.004479963,0.001765025,0.0030756947,0,0.27845982,0.17460531,0.016352972,0.0011364636,6.953866e-05,0.00511155,nan,nan,nan,0.0,1310988,1310988,6620172,197388,68.5705,67.84404,0.48987928,0.49967092,0,959,3,2,4,3,1,0,0,0,0,0,0,0,0
1743177450381379,1743177450229379,171865803351,0.0043711723,0.001726414,0.0029995993,0,0.2785823,0.1749556,0.016352972,0.0011364636,6.953866e-05,0.00511155,nan,nan,nan,0.0,1310988,1310988,6620172,197388,68.5705,67.84404,0.48987928,0.49967092,0,959,3,2,4,3,1,0,0,0,0,0,0,0,0
1743177450389379,1743177450237379,171865803351,0.0042617987,0.0016888594,0.0029252146,0,0.2787119,0.17531574,0.016352972,0.0011364636,6.953866e-05,0.00511155,nan,nan,nan,0.0,1310988,1310988,6620172,197388,68.5705,67.84404,0.48987928,0.49967092,0,959,3,2,4,3,1,0,0,0,0,0,0,0,0
1743177450405379,1743177450253379,171865803351,0.0027565807,0.0016600782,0.0035631612,0,0.27899304,0.17584425,0.014575584,0.0011364636,6.953866e-05,0.005953999,nan,nan,nan,0.0,1310988,1310988,6620172,197388,67.89612,67.84404,0.49368203,0.49967092,0,959,3,2,4,3,1,0,0,0,0,0,0,0,0
1743177450413379,1743177450261379,171865803351,0.0026310356,0.0022547685,0.0037349083,0,0.2594437,0.17070708,0.014575584,0.0008807771,8.032918e-05,0.0059369896,nan,nan,nan,0.0,1310988,1310988,6620172,197388,67.89612,67.84404,0.49368203,0.49967092,0,959,3,2,4,3,1,0,0,0,0,0,0,0,0
1743177450421379,1743177450269379,171865803351,0.0025274123,0.0022022354,0.0036378086,0,0.25957027,0.1710487,0.014575584,0.0008807771,8.032918e-05,0.0059369896,nan,nan,nan,0.0,1310988,1310988,6620172,197388,67.89612,67.84404,0.49368203,0.49967092,0,959,3,2,4,3,1,0,0,0,0,0,0,0,0
1743177450429379,1743177450277379,171865803351,0.0024232173,0.002152269,0.0035436924,0,0.2597039,0.17139906,0.014575584,0.0008807771,8.032918e-05,0.0059369896,nan,nan,nan,0.0,1310988,1310988,6620172,197388,67.89612,67.84404,0.49368203,0.49967092,0,959,3,2,4,3,1,0,0,0,0,0,0,0,0
1743177450445379,1743177450293379,171865803351,0.0022150644,0.0020572143,0.003361676,0,0.25999284,0.17212583,0.014575584,0.0008807771,8.032918e-05,0.0059369896,nan,nan,nan,0.0,1310988,1310988,6620172,197388,67.89612,67.84404,0.49368203,0.49967092,0,959,3,2,4,3,1,0,0,0,0,0,0,0,0
1743177450453379,1743177450301379,171865803351,0.0021122906,0.0020110582,0.0032592833,0,0.26014847,0.17229332,0.014575584,0.0008807771,8.032918e-05,0.0056730723,nan,nan,nan,0.0,1310988,1310988,6620172,197388,67.89612,67.84404,0.49368203,0.49967092,0,959,3,2,4,3,1,0,0,0,0,0,0,0,0
1743177450461379,1743177450309379,171865803351,0.0002861426,0.001976263,0.003173003,0,0.26031172,0.17267774,0.013828301,0.0008807771,8.032918e-05,0.0056730723,nan,nan,nan,0.0,1310988,1310988,6620172,197388,67.66097,67.84404,0.49144122,0.49967092,0,959,3,2,4,3,1,0,0,0,0,0,0,0,0
1743177450469379,1743177450317379,171865803351,0.00030740869,0.0025497628,0.0033476418,0,0.24417959,0.16777,0.013828301,0.00074075774,9.066548e-05,0.0056569236,nan,nan,nan,0.0,1310988,1310988,6620172,197388,67.66097,67.84404,0.49144122,0.49967092,0,959,3,2,4,3,1,0,0,0,0,0,0,0,0
1743177450485379,1743177450333379,171865803351,0.0003958942,0.0024425152,0.0031785436,0,0.24447556,0.16847752,0.013828301,0.00074075774,9.066548e-05,0.0056569236,nan,nan,nan,0.0,1310988,1310988,6620172,197388,67.66097,67.84404,0.49144122,0.49967092,0,959,3,2,4,3,1,0,0,0,0,0,0,0,0
1743177450493379,1743177450341379,171865803351,0.00048480107,0.0023922597,0.0030973929,0,0.24463467,0.16884296,0.013828301,0.00074075774,9.066548e-05,0.0056569236,nan,nan,nan,0.0,1310988,1310988,6620172,197388,67.66097,67.84404,0.49144122,0.49967092,0,959,3,2,4,3,1,0,0,0,0,0,0,0,0
1743177450501379,1743177450349379,171865803351,0.00058629294,0.0023560333,0.00309967,0,0.24480145,0.169019,0.013828301,0.00074075774,9.066548e-05,0.005418492,nan,nan,nan,0.0,1310988,1310988,6620172,197388,67.66097,67.84404,0.49144122,0.49967092,0,959,3,2,4,3,1,0,0,0,0,0,0,0,0
1743177450509379,1743177450357379,171865803351,0.0006926067,0.0023087726,0.0030194705,0,0.24497604,0.16939941,0.013828301,0.00074075774,9.066548e-05,0.005418492,nan,nan,nan,0.0,1310988,1310988,6620172,197388,67.66097,67.84404,0.49144122,0.49967092,0,959,3,2,4,3,1,0,0,0,0,0,0,0,0
1743177450525379,1743177450373379,171865803351,0.0009681684,0.0026742225,0.0031544592,0,0.23151699,0.16510414,0.013828301,0.0012135254,9.882197e-05,0.0054022395,nan,nan,nan,0.0,1310988,1310988,6620172,197388,67.66097,67.84404,0.49144122,0.49967092,0,959,3,2,4,3,1,0,0,0,0,0,0,0,0
1743177450533379,1743177450381379,171865803351,0.0009278985,0.0026226111,0.0030773925,0,0.23168029,0.16546063,0.012773986,0.0012135254,9.882197e-05,0.0054022395,nan,nan,nan,0.0,1310988,1310988,6620172,197388,67.94965,67.84404,0.49246195,0.49967092,0,959,3,2,4,3,1,0,0,0,0,0,0,0,0
1743177450541379,1743177450389379,171865803351,0.0010396866,0.0025598793,0.0030017504,0,0.23185128,0.16582419,0.012773986,0.0012135254,9.882197e-05,0.0054022395,nan,nan,nan,0.0,1310988,1310988,6620172,197388,67.94965,67.84404,0.49246195,0.49967092,0,959,3,2,4,3,1,0,0,0,0,0,0,0,0
1743177450549379,1743177450397379,171865803351,0.0011494586,0.0025010842,0.0029284465,0,0.23203018,0.16619475,0.012773986,0.0012135254,9.882197e-05,0.0054022395,nan,nan,nan,0.0,1310988,1310988,6620172,197388,67.94965,67.84404,0.49246195,0.49967092,0,959,3,2,4,3,1,0,0,0,0,0,0,0,0
1743177450565379,1743177450413379,171865803351,0.0011208152,0.002320564,0.0031940348,0,0.23241158,0.16676836,0.012773986,0.0012135254,9.882197e-05,0.005534998,nan,nan,nan,0.0,1310988,1310988,6620172,197388,67.94965,67.84404,0.49246195,0.49967092,0,959,3,2,4,3,1,0,0,0,0,0,0,0,0
1743177450573379,1743177450421379,171865803351,0.0011826879,0.0028633748,0.0033381148,0,0.22064123,0.16230556,0.012773986,0.00077533035,0.00010693571,0.005516783,nan,nan,nan,0.0,1310988,1310988,6620172,197388,67.94965,67.84404,0.49246195,0.49967092,0,959,3,2,4,3,1,0,0,0,0,0,0,0,0
1743177450581379,1743177450429379,171865803351,0.0012425801,0.002795521,0.0032543633,0,0.22081578,0.16266067,0.012773986,0.00077533035,0.00010693571,0.005516783,nan,nan,nan,0.0,1310988,1310988,6620172,197388,67.94965,67.84404,0.49246195,0.49967092,0,959,3,2,4,3,1,0,0,0,0,0,0,0,0
1743177450589379,1743177450437379,171865803351,0.0012999548,0.002730855,0.0031731627,0,0.22099826,0.16302225,0.012773986,0.00077533035,0.00010693571,0.005516783,nan,nan,nan,0.0,1310988,1310988,6620172,197388,67.94965,67.84404,0.49246195,0.49967092,0,959,3,2,4,3,1,0,0,0,0,0,0,0,0
1743177450605379,1743177450453379,171865803351,0.002615023,0.0027014187,0.0036638237,0,0.22138782,0.16358599,0.013966212,0.00077533035,0.00010693571,0.0060671135,nan,nan,nan,0.0,1310988,1310988,6620172,197388,68.17101,67.84404,0.490988,0.49967092,0,959,3,2,4,3,1,0,0,0,0,0,0,0,0
1743177450613379,1743177450461379,171865803351,0.00266683,0.0026373083,0.003567222,0,0.22159536,0.16396637,0.013966212,0.00077533035,0.00010693571,0.0060671135,nan,nan,nan,0.0,1310988,1310988,6620172,197388,68.17101,67.84404,0.490988,0.49967092,0,959,3,2,4,3,1,0,0,0,0,0,0,0,0
1743177450621379,1743177450469379,171865803351,0.0026688578,0.0033113984,0.0036770215,0,0.21128824,0.15971787,0.013966212,0.0007511208,0.000115167706,0.0060471995,nan,nan,nan,0.0,1310988,1310988,6620172,197388,68.17101,67.84404,0.490988,0.49967092,0,959,3,2,4,3,1,0,0,0,0,0,0,0,0
1743177450629379,1743177450477379,171865803351,0.0026649619,0.0032319124,0.0035833279,0,0.21147484,0.16007178,0.013966212,0.0007511208,0.000115167706,0.0060471995,nan,nan,nan,0.0,1310988,1310988,6620172,197388,68.17101,67.84404,0.490988,0.49967092,0,959,3,2,4,3,1,0,0,0,0,0,0,0,0
1743177450645379,1743177450493379,171865803351,0.0026485932,0.0030821522,0.0034027826,0,0.21187285,0.16079749,0.013966212,0.0007511208,0.000115167706,0.0060471995,nan,nan,nan,0.0,1310988,1310988,6620172,197388,68.17101,67.84404,0.490988,0.49967092,0,959,3,2,4,3,1,0,0,0,0,0,0,0,0
1743177450653379,1743177450501379,171865803351,0.002635725,0.0030111347,0.0033166858,0,0.21208471,0.16116925,0.013966212,0.0007511208,0.000115167706,0.0060471995,nan,nan,nan,0.0,1310988,1310988,6620172,197388,68.17101,67.84404,0.490988,0.49967092,0,959,3,2,4,3,1,0,0,0,0,0,0,0,0
1743177450661379,1743177450509379,171865803351,0.0026196716,0.0029546795,0.0033044808,0,0.21230546,0.16137539,0.013966212,0.0007511208,0.000115167706,0.0057850746,nan,nan,nan,0.0,1310988,1310988,6620172,197388,68.17101,67.84404,0.490988,0.49967092,0,959,3,2,4,3,1,0,0,0,0,0,0,0,0
1743177450669379,1743177450517379,171865803351,0.002661075,0.0029006975,0.0032204753,0,0.21253528,0.1617585,0.0131114265,0.0007511208,0.000115167706,0.0057850746,nan,nan,nan,0.0,1310988,1310988,6620172,197388,67.95154,67.84404,0.49146962,0.49967092,0,959,3,2,4,3,1,0,0,0,0,0,0,0,0
1743177450685379,1743177450533379,171865803351,0.002504453,0.0026598654,0.0031253737,0,0.20353667,0.15801395,0.0131114265,0.0012890238,0.00012176696,0.0057660546,nan,nan,nan,0.0,1310988,1310988,6620172,197388,67.95154,67.84404,0.49146962,0.49967092,0,959,3,2,4,3,1,0,0,0,0,0,0,0,0
1743177450693379,1743177450541379,171865803351,0.0024782105,0.0026012016,0.003042731,0,0.20375194,0.15837759,0.0131114265,0.0012890238,0.00012176696,0.0057660546,nan,nan,nan,0.0,1310988,1310988,6620172,197388,67.95154,67.84404,0.49146962,0.49967092,0,959,3,2,4,3,1,0,0,0,0,0,0,0,0
1743177450701379,1743177450549379,171865803351,0.0024488147,0.0025447363,0.002962108,0,0.20397612,0.15874673,0.0131114265,0.0012890238,0.00012176696,0.0057660546,nan,nan,nan,0.0,1310988,1310988,6620172,197388,67.95154,67.84404,0.49146962,0.49967092,0,959,3,2,4,3,1,0,0,0,0,0,0,0,0
1743177450709379,1743177450557379,171865803351,0.0024163635,0.0025750617,0.0032788857,0,0.20420948,0.15895747,0.0131114265,0.0012890238,0.00012176696,0.005816607,nan,nan,nan,0.0,1310988,1310988,6620172,197388,67.95154,67.84404,0.49146962,0.49967092,0,959,3,2,4,3,1,0,0,0,0,0,0,0,0
1743177450725379,1743177450573379,171865803351,0.0023634068,0.0032274532,0.0033098713,0,0.19617635,0.15541188,0.0131114265,0.0011200998,0.00015122825,0.005797964,nan,nan,nan,0.0,1310988,1310988,6620172,197388,67.95154,67.84404,0.49146962,0.49967092,0,959,3,2,4,3,1,0,0,0,0,0,0,0,0
1743177450733379,1743177450581379,171865803351,0.0020724258,0.0031795164,0.0032248055,0,0.19639516,0.15576841,0.011951272,0.0011200998,0.00015122825,0.005797964,nan,nan,nan,0.0,1310988,1310988,6620172,197388,67.81938,67.84404,0.49802205,0.49967092,0,959,3,2,4,3,1,0,0,0,0,0,0,0,0
1743177450741379,1743177450589379,171865803351,0.002040305,0.0031079839,0.003140339,0,0.19662297,0.15613014,0.011951272,0.0011200998,0.00015122825,0.005797964,nan,nan,nan,0.0,1310988,1310988,6620172,197388,67.81938,67.84404,0.49802205,0.49967092,0,959,3,2,4,3,1,0,0,0,0,0,0,0,0
1743177450749379,1743177450597379,171865803351,0.0020067052,0.0030398492,0.0030582848,0,0.19685996,0.15649702,0.011951272,0.0011200998,0.00015122825,0.005797964,nan,nan,nan,0.0,1310988,1310988,6620172,197388,67.81938,67.84404,0.49802205,0.49967092,0,959,3,2,4,3,1,0,0,0,0,0,0,0,0
1743177450765379,1743177450613379,171865803351,0.0020186289,0.0033154038,0.0030106697,0,0.19736093,0.15708803,0.011951272,0.0011200998,0.00015122825,0.005555123,nan,nan,nan,0.0,1310988,1310988,6620172,197388,67.81938,67.84404,0.49802205,0.49967092,0,959,3,2,4,3,1,0,0,0,0,0,0,0,0
1743177450773379,1743177450621379,171865803351,0.001950229,0.0032511645,0.002932208,0,0.1976268,0.1574699,0.011951272,0.0011200998,0.00015122825,0.005555123,nan,nan,nan,0.0,1310988,1310988,6620172,197388,67.81938,67.84404,0.49802205,0.49967092,0,959,3,2,4,3,1,0,0,0,0,0,0,0,0
1743177450781379,1743177450629379,171865803351,0.0018912165,0.0039097946,0.0030593306,0,0.1900512,0.15366279,0.011951272,0.0013080497,0.00017159518,0.005537355,nan,nan,nan,0.0,1310988,1310988,6620172,197388,67.81938,67.84404,0.49802205,0.49967092,0,959,3,2,4,3,1,0,0,0,0,0,0,0,0
1743177450789379,1743177450637379,171865803351,0.0018231182,0.0038306508,0.0029835848,0,0.19029054,0.15402253,0.011951272,0.0013080497,0.00017159518,0.005537355,nan,nan,nan,0.0,1310988,1310988,6620172,197388,67.81938,67.84404,0.49802205,0.49967092,0,959,3,2,4,3,1,0,0,0,0,0,0,0,0
1743177450805379,1743177450653379,171865803351,0.0016823262,0.0036714987,0.0028367888,0,0.19079764,0.15475662,0.011213294,0.0013080497,0.00017159518,0.005537355,nan,nan,nan,0.0,1310988,1310988,6620172,197388,68.06877,67.84404,0.4912063,0.49967092,0,959,3,2,4,3,1,0,0,0,0,0,0,0,0
1743177450813379,1743177450661379,171865803351,0.001615185,0.003543921,0.0024136035,0,0.19106592,0.15497905,0.011213294,0.0013080497,0.00017159518,0.004907677,nan,nan,nan,0.0,1310988,1310988,6620172,197388,68.06877,67.84404,0.4912063,0.49967092,0,959,3,2,4,3,1,0,0,0,0,0,0,0,0
1743177450821379,1743177450669379,171865803351,0.0015488877,0.0034741098,0.0023571067,0,0.19134435,0.1553578,0.011213294,0.0013080497,0.00017159518,0.004907677,nan,nan,nan,0.0,1310988,1310988,6620172,197388,68.06877,67.84404,0.4912063,0.49967092,0,959,3,2,4,3,1,0,0,0,0,0,0,0,0
1743177450829379,1743177450677379,171865803351,0.0014913983,0.0040433384,0.002516056,0,0.18439674,0.15169951,0.011213294,0.0014278018,0.00018649244,0.004891481,nan,nan,nan,0.0,1310988,1310988,6620172,197388,68.06877,67.84404,0.4912063,0.49967092,0,959,3,2,4,3,1,0,0,0,0,0,0,0,0
1743177450845379,1743177450693379,171865803351,0.0013663797,0.0038719978,0.0024073527,0,0.18490891,0.15242018,0.011213294,0.0014278018,0.00018649244,0.004891481,nan,nan,nan,0.0,1310988,1310988,6620172,197388,68.06877,67.84404,0.4912063,0.49967092,0,959,3,2,4,3,1,0,0,0,0,0,0,0,0
1743177450853379,1743177450701379,171865803351,0.0013052451,0.0037902202,0.0023554973,0,0.18517962,0.1527874,0.011213294,0.0014278018,0.00018649244,0.004891481,nan,nan,nan,0.0,1310988,1310988,6620172,197388,68.06877,67.84404,0.4912063,0.49967092,0,959,3,2,4,3,1,0,0,0,0,0,0,0,0
1743177450861379,1743177450709379,171865803351,0.0012451006,0.00370981,0.002304736,0,0.18546042,0.1531592,0.011213294,0.0014278018,0.00018649244,0.004891481,nan,nan,nan,0.0,1310988,1310988,6620172,197388,68.06877,67.84404,0.4912063,0.49967092,0,959,3,2,4,3,1,0,0,0,0,0,0,0,0
1743177450869379,1743177450717379,171865803351,0.001913029,0.0037104331,0.0022621655,0,0.18575148,0.15338834,0.019107206,0.0014278018,0.00018649244,0.004671522,nan,nan,nan,0.0,1310988,1310988,6620172,197388,67.51376,67.84404,0.50061524,0.49967092,0,959,3,2,4,3,1,0,0,0,0,0,0,0,0
1743177450885379,1743177450733379,171865803351,0.0017844848,0.004151001,0.002396708,0,0.17956671,0.15020715,0.019107206,0.0015389577,0.000196606,0.004656136,nan,nan,nan,0.0,1310988,1310988,6620172,197388,67.51376,67.84404,0.50061524,0.49967092,0,959,3,2,4,3,1,0,0,0,0,0,0,0,0
1743177450893379,1743177450741379,171865803351,0.0017319354,0.0040601087,0.0023487958,0,0.17983858,0.15056777,0.019107206,0.0015389577,0.000196606,0.004656136,nan,nan,nan,0.0,1310988,1310988,6620172,197388,67.51376,67.84404,0.50061524,0.49967092,0,959,3,2,4,3,1,0,0,0,0,0,0,0,0
1743177450901379,1743177450749379,171865803351,0.0016803439,0.003973611,0.0023024022,0,0.18012041,0.15093276,0.019107206,0.0015389577,0.000196606,0.004656136,nan,nan,nan,0.0,1310988,1310988,6620172,197388,67.51376,67.84404,0.50061524,0.49967092,0,959,3,2,4,3,1,0,0,0,0,0,0,0,0
1743177450909379,1743177450757379,171865803351,0.0016295372,0.003887979,0.002256786,0,0.18041244,0.15130211,0.019107206,0.0015389577,0.000196606,0.004656136,nan,nan,nan,0.0,1310988,1310988,6620172,197388,67.51376,67.84404,0.50061524,0.49967092,0,959,3,2,4,3,1,0,0,0,0,0,0,0,0
1743177450925379,1743177450773379,171865803351,0.0015232404,0.0036994342,0.0019811057,0,0.18102813,0.15191153,0.019107206,0.0015389577,0.000196606,0.0041727694,nan,nan,nan,0.0,1310988,1310988,6620172,197388,67.51376,67.84404,0.50061524,0.49967092,0,959,3,2,4,3,1,0,0,0,0,0,0,0,0
1743177450933379,1743177450781379,171865803351,0.0014604797,0.003968133,0.0021368111,0,0.17498726,0.14847621,0.019107206,0.0015309448,0.00020252282,0.0041594557,nan,nan,nan,0.0,1310988,1310988,6620172,197388,67.51376,67.84404,0.50061524,0.49967092,0,959,3,2,4,3,1,0,0,0,0,0,0,0,0
1743177450941379,1743177450789379,171865803351,0.0014662665,0.0038677761,0.0020979152,0,0.1752701,0.14883506,0.01769082,0.0015309448,0.00020252282,0.0041594557,nan,nan,nan,0.0,1310988,1310988,6620172,197388,68.16132,67.84404,0.49199408,0.49967092,0,959,3,2,4,3,1,0,0,0,0,0,0,0,0
1743177450949379,1743177450797379,171865803351,0.0014190596,0.0037836353,0.0020612613,0,0.17556305,0.14919809,0.01769082,0.0015309448,0.00020252282,0.0041594557,nan,nan,nan,0.0,1310988,1310988,6620172,197388,68.16132,67.84404,0.49199408,0.49967092,0,959,3,2,4,3,1,0,0,0,0,0,0,0,0
1743177450965379,1743177450813379,171865803351,0.0013156349,0.0034942238,0.0019743475,0,0.17617822,0.1499366,0.01769082,0.0015309448,0.00020252282,0.0041594557,nan,nan,nan,0.0,1310988,1310988,6620172,197388,68.16132,67.84404,0.49199408,0.49967092,0,959,3,2,4,3,1,0,0,0,0,0,0,0,0
1743177450973379,1743177450821379,171865803351,0.0012740282,0.0033588593,0.0016722383,0,0.17650262,0.15017393,0.01769082,0.0015309448,0.00020252282,0.0018607242,nan,nan,nan,0.0,1310988,1310988,6620172,197388,68.16132,67.84404,0.49199408,0.49967092,0,959,3,2,4,3,1,0,0,0,0,0,0,0,0
1743177450981379,1743177450829379,171865803351,0.0012340399,0.0032838157,0.0016522538,0,0.17683803,0.15055318,0.01769082,0.0015309448,0.00020252282,0.0018607242,nan,nan,nan,0.0,1310988,1310988,6620172,197388,68.16132,67.84404,0.49199408,0.49967092,0,959,3,2,4,3,1,0,0,0,0,0,0,0,0
1743177450989379,1743177450837379,171865803351,0.0011824588,0.0033999875,0.0017543784,0,0.17110945,0.14719723,0.01769082,0.0014771429,0.00020607888,0.0018532379,nan,nan,nan,0.0,1310988,1310988,6620172,197388,68.16132,67.84404,0.49199408,0.49967092,0,959,3,2,4,3,1,0,0,0,0,0,0,0,0
1743177451005379,1743177450853379,171865803351,0.0010525002,0.0032652859,0.0017100655,0,0.17172496,0.1479233,0.017550018,0.0014771429,0.00020607888,0.0018532379,nan,nan,nan,0.0,1310988,1310988,6620172,197388,67.7596,67.84404,0.49367973,0.49967092,0,959,3,2,4,3,1,0,0,0,0,0,0,0,0
1743177451013379,1743177450861379,171865803351,0.0010189515,0.0031874191,0.0016863743,0,0.17204846,0.14829233,0.017550018,0.0014771429,0.00020607888,0.0018532379,nan,nan,nan,0.0,1310988,1310988,6620172,197388,67.7596,67.84404,0.49367973,0.49967092,0,959,3,2,4,3,1,0,0,0,0,0,0,0,0
1743177451021379,1743177450869379,171865803351,0.0009871423,0.003153547,0.0018413414,0,0.17238277,0.14853169,0.017550018,0.0014771429,0.00020607888,0.0030163578,nan,nan,nan,0.0,1310988,1310988,6620172,197388,67.7596,67.84404,0.49367973,0.49967092,0,959,3,2,4,3,1,0,0,0,0,0,0,0,0
1743177451029379,1743177450877379,171865803351,0.0009377183,0.0030769282,0.0018079767,0,0.1727281,0.14890829,0.017550018,0.0014771429,0.00020607888,0.0030163578,nan,nan,nan,0.0,1310988,1310988,6620172,197388,67.7596,67.84404,0.49367973,0.49967092,0,959,3,2,4,3,1,0,0,0,0,0,0,0,0
1743177451045379,1743177450893379,171865803351,0.00083206716,0.0030905541,0.0018777205,0,0.1676418,0.1460201,0.017550018,0.0014229323,0.0002068031,0.0030058068,nan,nan,nan,0.0,1310988,1310988,6620172,197388,67.7596,67.84404,0.49367973,0.49967092,0,959,3,2,4,3,1,0,0,0,0,0,0,0,0
1743177451053379,1743177450901379,171865803351,0.0007874783,0.0030080217,0.0018411783,0,0.16796452,0.14638324,0.017550018,0.0014229323,0.0002068031,0.0030058068,nan,nan,nan,0.0,1310988,1310988,6620172,197388,67.7596,67.84404,0.49367973,0.49967092,0,959,3,2,4,3,1,0,0,0,0,0,0,0,0
1743177451061379,1743177450909379,171865803351,0.0007442146,0.0029272467,0.0018053557,0,0.16829778,0.1467502,0.017550018,0.0014229323,0.0002068031,0.0030058068,nan,nan,nan,0.0,1310988,1310988,6620172,197388,67.7596,67.84404,0.49367973,0.49967092,0,959,3,2,4,3,1,0,0,0,0,0,0,0,0
1743177451069379,1743177450917379,171865803351,0.0007023221,0.0028487442,0.0017692732,0,0.16864185,0.147121,0.017550018,0.0014229323,0.0002068031,0.0030058068,nan,nan,nan,0.0,1310988,1310988,6620172,197388,67.7596,67.84404,0.49367973,0.49967092,0,959,3,2,4,3,1,0,0,0,0,0,0,0,0
1743177451085379,1743177450933379,171865803351,0.0007463918,0.002717236,0.0018618561,0,0.16936314,0.1477432,0.016247528,0.0014229323,0.0002068031,0.003315101,nan,nan,nan,0.0,1310988,1310988,6620172,197388,68.14232,67.84404,0.49200654,0.49967092,0,959,3,2,4,3,1,0,0,0,0,0,0,0,0
1743177451093379,1743177450941379,171865803351,0.0006878564,0.0027905097,0.0019557269,0,0.16417831,0.14456117,0.016247528,0.0013719525,0.00020578239,0.0033035725,nan,nan,nan,0.0,1310988,1310988,6620172,197388,68.14232,67.84404,0.49200654,0.49967092,0,959,3,2,4,3,1,0,0,0,0,0,0,0,0
1743177451101379,1743177450949379,171865803351,0.0006502593,0.0027082337,0.001909457,0,0.16450943,0.14492242,0.016247528,0.0013719525,0.00020578239,0.0033035725,nan,nan,nan,0.0,1310988,1310988,6620172,197388,68.14232,67.84404,0.49200654,0.49967092,0,959,3,2,4,3,1,0,0,0,0,0,0,0,0
1743177451109379,1743177450957379,171865803351,0.0006138294,0.0026276712,0.0018643071,0,0.16485105,0.14528738,0.016247528,0.0013719525,0.00020578239,0.0033035725,nan,nan,nan,0.0,1310988,1310988,6620172,197388,68.14232,67.84404,0.49200654,0.49967092,0,959,3,2,4,3,1,0,0,0,0,0,0,0,0
1743177451125379,1743177450973379,171865803351,0.00054508646,0.002549914,0.0021585987,0,0.16556667,0.14590171,0.016247528,0.0013719525,0.00020578239,0.004322011,nan,nan,nan,0.0,1310988,1310988,6620172,197388,68.14232,67.84404,0.49200654,0.49967092,0,959,3,2,4,3,1,0,0,0,0,0,0,0,0
1743177451133379,1743177450981379,171865803351,0.0005123776,0.0024713946,0.0021001596,0,0.1659411,0.14627741,0.016247528,0.0013719525,0.00020578239,0.004322011,nan,nan,nan,0.0,1310988,1310988,6620172,197388,68.14232,67.84404,0.49200654,0.49967092,0,959,3,2,4,3,1,0,0,0,0,0,0,0,0
1743177451141379,1743177450989379,171865803351,0.0010702352,0.0026123712,0.0021982333,0,0.16101006,0.1431893,0.015469626,0.0013830096,0.00020398706,0.0043090456,nan,nan,nan,0.0,1310988,1310988,6620172,197388,67.79115,67.84404,0.49011925,0.49967092,0,959,3,2,4,3,1,0,0,0,0,0,0,0,0
1743177451149379,1743177450997379,171865803351,0.0010402976,0.002528263,0.0021380822,0,0.16134945,0.14354888,0.015469626,0.0013830096,0.00020398706,0.0043090456,nan,nan,nan,0.0,1310988,1310988,6620172,197388,67.79115,67.84404,0.49011925,0.49967092,0,959,3,2,4,3,1,0,0,0,0,0,0,0,0
1743177451165379,1743177451013379,171865803351,0.0008767,0.00241449,0.002028435,0,0.16205797,0.14427878,0.015469626,0.0013830096,0.00020398706,0.0043090456,nan,nan,nan,0.0,1310988,1310988,6620172,197388,67.79115,67.84404,0.49011925,0.49967092,0,959,3,2,4,3,1,0,0,0,0,0,0,0,0
1743177451173379,1743177451021379,171865803351,0.00085028715,0.002333028,0.0019718253,0,0.16242911,0.1446491,0.015469626,0.0013830096,0.00020398706,0.0043090456,nan,nan,nan,0.0,1310988,1310988,6620172,197388,67.79115,67.84404,0.49011925,0.49967092,0,959,3,2,4,3,1,0,0,0,0,0,0,0,0
1743177451181379,1743177451029379,171865803351,0.0008248702,0.0022782264,0.0020286844,0,0.16281131,0.14489898,0.015469626,0.0013830096,0.00020398706,0.004190987,nan,nan,nan,0.0,1310988,1310988,6620172,197388,67.79115,67.84404,0.49011925,0.49967092,0,959,3,2,4,3,1,0,0,0,0,0,0,0,0
1743177451189379,1743177451037379,171865803351,0.0008007675,0.0022005525,0.0019701943,0,0.16320476,0.14527613,0.015469626,0.0013830096,0.00020398706,0.004190987,nan,nan,nan,0.0,1310988,1310988,6620172,197388,67.79115,67.84404,0.49011925,0.49967092,0,959,3,2,4,3,1,0,0,0,0,0,0,0,0
1743177451205379,1743177451053379,171865803351,0.00073957164,0.0021937243,0.001993007,0,0.15877977,0.14260343,0.015469626,0.0014841119,0.00020187166,0.0041785375,nan,nan,nan,0.0,1310988,1310988,6620172,197388,67.79115,67.84404,0.49011925,0.49967092,0,959,3,2,4,3,1,0,0,0,0,0,0,0,0
1743177451213379,1743177451061379,171865803351,0.0008117515,0.0021203032,0.0019341119,0,0.1591468,0.14296831,0.014514109,0.0014841119,0.00020187166,0.0041785375,nan,nan,nan,0.0,1310988,1310988,6620172,197388,67.97621,67.84404,0.49159843,0.49967092,0,959,3,2,4,3,1,0,0,0,0,0,0,0,0
1743177451221379,1743177451069379,171865803351,0.0007928137,0.0020419552,0.0018762072,0,0.15952462,0.14333668,0.014514109,0.0014841119,0.00020187166,0.0041785375,nan,nan,nan,0.0,1310988,1310988,6620172,197388,67.97621,67.84404,0.49159843,0.49967092,0,959,3,2,4,3,1,0,0,0,0,0,0,0,0
1743177451229379,1743177451077379,171865803351,0.0007748919,0.0017973047,0.0012148396,0,0.15991333,0.14358784,0.014514109,0.0014841119,0.00020187166,0.004360343,nan,nan,nan,0.0,1310988,1310988,6620172,197388,67.97621,67.84404,0.49159843,0.49967092,0,959,3,2,4,3,1,0,0,0,0,0,0,0,0
1743177451245379,1743177451093379,171865803351,0.00072011724,0.0018907015,0.0012605134,0,0.15573369,0.14101064,0.014514109,0.00154331,0.00019912927,0.004354952,nan,nan,nan,0.0,1310988,1310988,6620172,197388,67.97621,67.84404,0.49159843,0.49967092,0,959,3,2,4,3,1,0,0,0,0,0,0,0,0
1743177451253379,1743177451101379,171865803351,0.0007026724,0.0018181412,0.0012278247,0,0.1560971,0.14137049,0.014514109,0.00154331,0.00019912927,0.004354952,nan,nan,nan,0.0,1310988,1310988,6620172,197388,67.97621,67.84404,0.49159843,0.49967092,0,959,3,2,4,3,1,0,0,0,0,0,0,0,0
1743177451261379,1743177451109379,171865803351,0.0006861628,0.0017469269,0.0011953604,0,0.1564709,0.14173374,0.014514109,0.00154331,0.00019912927,0.004354952,nan,nan,nan,0.0,1310988,1310988,6620172,197388,67.97621,67.84404,0.49159843,0.49967092,0,959,3,2,4,3,1,0,0,0,0,0,0,0,0
1743177451269379,1743177451117379,171865803351,0.00067047845,0.0016780009,0.0011632423,0,0.15685529,0.1421004,0.014514109,0.00154331,0.00019912927,0.004354952,nan,nan,nan,0.0,1310988,1310988,6620172,197388,67.97621,67.84404,0.49159843,0.49967092,0,959,3,2,4,3,1,0,0,0,0,0,0,0,0
1743177451285379,1743177451133379,171865803351,0.00032481627,0.0015843872,0.001201645,0,0.15765643,0.14272535,0.014232918,0.00154331,0.00019912927,0.003952294,nan,nan,nan,0.0,1310988,1310988,6620172,197388,67.72856,67.84404,0.49193454,0.49967092,0,959,3,2,4,3,1,0,0,0,0,0,0,0,0
1743177451293379,1743177451141379,171865803351,0.00031384276,0.0015190624,0.0011651983,0,0.15807363,0.14310189,0.014232918,0.00154331,0.00019912927,0.003952294,nan,nan,nan,0.0,1310988,1310988,6620172,197388,67.72856,67.84404,0.49193454,0.49967092,0,959,3,2,4,3,1,0,0,0,0,0,0,0,0
1743177451301379,1743177451149379,171865803351,0.00029420786,0.0017576779,0.0012853389,0,0.15359789,0.14019413,0.014232918,0.001557506,0.00019484086,0.0039456193,nan,nan,nan,0.0,1310988,1310988,6620172,197388,67.72856,67.84404,0.49193454,0.49967092,0,959,3,2,4,3,1,0,0,0,0,0,0,0,0
1743177451309379,1743177451157379,171865803351,0.0002774059,0.0016853303,0.0012463364,0,0.15397714,0.14055577,0.014232918,0.001557506,0.00019484086,0.0039456193,nan,nan,nan,0.0,1310988,1310988,6620172,197388,67.72856,67.84404,0.49193454,0.49967092,0,959,3,2,4,3,1,0,0,0,0,0,0,0,0
1743177451325379,1743177451173379,171865803351,0.0002476914,0.0015564446,0.0011702656,0,0.1547671,0.141289,0.014232918,0.001557506,0.00019484086,0.0039456193,nan,nan,nan,0.0,1310988,1310988,6620172,197388,67.72856,67.84404,0.49193454,0.49967092,0,959,3,2,4,3,1,0,0,0,0,0,0,0,0
1743177451333379,1743177451181379,171865803351,0.00023525214,0.0015293288,0.0012497305,0,0.1551781,0.14154501,0.014232918,0.001557506,0.00019484086,0.0035979897,nan,nan,nan,0.0,1310988,1310988,6620172,197388,67.72856,67.84404,0.49193454,0.49967092,0,959,3,2,4,3,1,0,0,0,0,0,0,0,0
1743177451341379,1743177451189379,171865803351,0.00022446127,0.0014669861,0.001208526,0,0.15560004,0.14191963,0.014232918,0.001557506,0.00019484086,0.0035979897,nan,nan,nan,0.0,1310988,1310988,6620172,197388,67.72856,67.84404,0.49193454,0.49967092,0,959,3,2,4,3,1,0,0,0,0,0,0,0,0
1743177451349379,1743177451197379,171865803351,0.00026132242,0.0017509913,0.001337551,0,0.15129021,0.13908373,0.013360687,0.001534373,0.00019008183,0.0035903505,nan,nan,nan,0.0,1310988,1310988,6620172,197388,67.9247,67.84404,0.49123022,0.49967092,0,959,3,2,4,3,1,0,0,0,0,0,0,0,0
1743177451365379,1743177451213379,171865803351,0.00019811836,0.0018508676,0.0012796185,0,0.15206833,0.13980745,0.013360687,0.001534373,0.00019008183,0.0035903505,nan,nan,nan,0.0,1310988,1310988,6620172,197388,67.9247,67.84404,0.49123022,0.49967092,0,959,3,2,4,3,1,0,0,0,0,0,0,0,0
1743177451373379,1743177451221379,171865803351,0.00019373833,0.0017838652,0.0012395465,0,0.15247352,0.1401742,0.013360687,0.001534373,0.00019008183,0.0035903505,nan,nan,nan,0.0,1310988,1310988,6620172,197388,67.9247,67.84404,0.49123022,0.49967092,0,959,3,2,4,3,1,0,0,0,0,0,0,0,0
1743177451381379,1743177451229379,171865803351,0.00019186409,0.001719303,0.0012000839,0,0.15288928,0.1405442,0.013360687,0.001534373,0.00019008183,0.0035903505,nan,nan,nan,0.0,1310988,1310988,6620172,197388,67.9247,67.84404,0.49123022,0.49967092,0,959,3,2,4,3,1,0,0,0,0,0,0,0,0
1743177451389379,1743177451237379,171865803351,0.00019243453,0.0016834653,0.0012754188,0,0.15331574,0.14080372,0.013360687,0.001534373,0.00019008183,0.0032706182,nan,nan,nan,0.0,1310988,1310988,6620172,197388,67.9247,67.84404,0.49123022,0.49967092,0,959,3,2,4,3,1,0,0,0,0,0,0,0,0
1743177451405379,1743177451253379,171865803351,0.00021925903,0.0017724346,0.0013249028,0,0.14951663,0.13838044,0.013360687,0.0015181293,0.00018387921,0.003262266,nan,nan,nan,0.0,1310988,1310988,6620172,197388,67.9247,67.84404,0.49123022,0.49967092,0,959,3,2,4,3,1,0,0,0,0,0,0,0,0
1743177451413379,1743177451261379,171865803351,0.00018100641,0.0016710099,0.0012766621,0,0.14991552,0.13874248,0.012682516,0.0015181293,0.00018387921,0.003262266,nan,nan,nan,0.0,1310988,1310988,6620172,197388,68.791245,67.84404,0.49466112,0.49967092,0,959,3,2,4,3,1,0,0,0,0,0,0,0,0
1743177451421379,1743177451269379,171865803351,0.00017896423,0.0016073561,0.0012338964,0,0.15032463,0.13910773,0.012682516,0.0015181293,0.00018387921,0.003262266,nan,nan,nan,0.0,1310988,1310988,6620172,197388,68.791245,67.84404,0.49466112,0.49967092,0,959,3,2,4,3,1,0,0,0,0,0,0,0,0
1743177451429379,1743177451277379,171865803351,0.00017892622,0.0015455517,0.0011921742,0,0.1507441,0.1394762,0.012682516,0.0015181293,0.00018387921,0.003262266,nan,nan,nan,0.0,1310988,1310988,6620172,197388,68.791245,67.84404,0.49466112,0.49967092,0,959,3,2,4,3,1,0,0,0,0,0,0,0,0
1743177451445379,1743177451293379,171865803351,0.00017579492,0.001332565,0.0008578721,0,0.15161464,0.14011127,0.012682516,0.0015181293,0.00018387921,0.0051460788,nan,nan,nan,0.0,1310988,1310988,6620172,197388,68.791245,67.84404,0.49466112,0.49967092,0,959,3,2,4,3,1,0,0,0,0,0,0,0,0
1743177451453379,1743177451301379,171865803351,0.00019392712,0.0015354106,0.0009314679,0,0.1475183,0.1373751,0.012682516,0.0015841984,0.00017808843,0.00514493,nan,nan,nan,0.0,1310988,1310988,6620172,197388,68.791245,67.84404,0.49466112,0.49967092,0,959,3,2,4,3,1,0,0,0,0,0,0,0,0
1743177451461379,1743177451309379,171865803351,0.00019264693,0.0014758237,0.00090685795,0,0.14792138,0.13773592,0.012682516,0.0015841984,0.00017808843,0.00514493,nan,nan,nan,0.0,1310988,1310988,6620172,197388,68.791245,67.84404,0.49466112,0.49967092,0,959,3,2,4,3,1,0,0,0,0,0,0,0,0
1743177451469379,1743177451317379,171865803351,0.00019132432,0.001417508,0.00088286394,0,0.14833446,0.1380999,0.012682516,0.0015841984,0.00017808843,0.00514493,nan,nan,nan,0.0,1310988,1310988,6620172,197388,68.791245,67.84404,0.49466112,0.49967092,0,959,3,2,4,3,1,0,0,0,0,0,0,0,0
1743177451485379,1743177451333379,171865803351,0.00017855229,0.0012980527,0.00083579106,0,0.14919111,0.13883732,0.011292865,0.0015841984,0.00017808843,0.00514493,nan,nan,nan,0.0,1310988,1310988,6620172,197388,68.14977,67.84404,0.4901277,0.49967092,0,959,3,2,4,3,1,0,0,0,0,0,0,0,0
1743177451493379,1743177451341379,171865803351,0.00017708506,0.0012830875,0.0008908814,0,0.14963503,0.13910112,0.011292865,0.0015841984,0.00017808843,0.0046472894,nan,nan,nan,0.0,1310988,1310988,6620172,197388,68.14977,67.84404,0.4901277,0.49967092,0,959,3,2,4,3,1,0,0,0,0,0,0,0,0
1743177451501379,1743177451349379,171865803351,0.00017571512,0.0012302457,0.0008620638,0,0.15008952,0.13947748,0.011292865,0.0015841984,0.00017808843,0.0046472894,nan,nan,nan,0.0,1310988,1310988,6620172,197388,68.14977,67.84404,0.4901277,0.49967092,0,959,3,2,4,3,1,0,0,0,0,0,0,0,0
1743177451509379,1743177451357379,171865803351,0.00018340799,0.0013406479,0.00094271323,0,0.14604336,0.13677074,0.011292865,0.0016077572,0.00017213024,0.0046441313,nan,nan,nan,0.0,1310988,1310988,6620172,197388,68.14977,67.84404,0.4901277,0.49967092,0,959,3,2,4,3,1,0,0,0,0,0,0,0,0
1743177451525379,1743177451373379,171865803351,0.00017539918,0.0012229293,0.0008796797,0,0.14688538,0.1374993,0.011292865,0.0016077572,0.00017213024,0.0046441313,nan,nan,nan,0.0,1310988,1310988,6620172,197388,68.14977,67.84404,0.4901277,0.49967092,0,959,3,2,4,3,1,0,0,0,0,0,0,0,0
1743177451533379,1743177451381379,171865803351,0.00017108096,0.0011657458,0.0008494507,0,0.14732142,0.13786827,0.011292865,0.0016077572,0.00017213024,0.0046441313,nan,nan,nan,0.0,1310988,1310988,6620172,197388,68.14977,67.84404,0.4901277,0.49967092,0,959,3,2,4,3,1,0,0,0,0,0,0,0,0
1743177451541379,1743177451389379,171865803351,0.00016654516,0.0010349061,0.0007337477,0,0.14776763,0.13813297,0.011292865,0.0016077572,0.00017213024,0.0052885246,nan,nan,nan,0.0,1310988,1310988,6620172,197388,68.14977,67.84404,0.4901277,0.49967092,0,959,3,2,4,3,1,0,0,0,0,0,0,0,0
1743177451549379,1743177451397379,171865803351,0.0005221597,0.00095469767,0.0007123417,0,0.1482241,0.13850793,0.010146674,0.0016077572,0.00017213024,0.0052885246,nan,nan,nan,0.0,1310988,1310988,6620172,197388,68.099945,67.84404,0.49055222,0.49967092,0,959,3,2,4,3,1,0,0,0,0,0,0,0,0
1743177451565379,1743177451413379,171865803351,0.0006532179,0.0010151855,0.0006968792,0,0.14471674,0.13621898,0.010146674,0.0016558544,0.00016659684,0.005291895,nan,nan,nan,0.0,1310988,1310988,6620172,197388,68.099945,67.84404,0.49055222,0.49967092,0,959,3,2,4,3,1,0,0,0,0,0,0,0,0
1743177451573379,1743177451421379,171865803351,0.00065309624,0.0009647434,0.0006780224,0,0.1451454,0.13658375,0.010146674,0.0016558544,0.00016659684,0.005291895,nan,nan,nan,0.0,1310988,1310988,6620172,197388,68.099945,67.84404,0.49055222,0.49967092,0,959,3,2,4,3,1,0,0,0,0,0,0,0,0
1743177451581379,1743177451429379,171865803351,0.0006529539,0.00091600657,0.00065978983,0,0.14558388,0.1369516,0.010146674,0.0016558544,0.00016659684,0.005291895,nan,nan,nan,0.0,1310988,1310988,6620172,197388,68.099945,67.84404,0.49055222,0.49967092,0,959,3,2,4,3,1,0,0,0,0,0,0,0,0
1743177451589379,1743177451437379,171865803351,0.00065207435,0.000869481,0.000641747,0,0.14603233,0.13732256,0.010146674,0.0016558544,0.00016659684,0.005291895,nan,nan,nan,0.0,1310988,1310988,6620172,197388,68.099945,67.84404,0.49055222,0.49967092,0,959,3,2,4,3,1,0,0,0,0,0,0,0,0
1743177451605379,1743177451453379,171865803351,0.0006498637,0.00079867756,0.0006117251,0,0.1469596,0.1379674,0.010146674,0.0016558544,0.00016659684,0.0050043124,nan,nan,nan,0.0,1310988,1310988,6620172,197388,68.099945,67.84404,0.49055222,0.49967092,0,959,3,2,4,3,1,0,0,0,0,0,0,0,0
1743177451613379,1743177451461379,171865803351,0.00065154047,0.0009273446,0.00067479635,0,0.14306937,0.13534015,0.010146674,0.0017408642,0.00016091867,0.005006449,nan,nan,nan,0.0,1310988,1310988,6620172,197388,68.099945,67.84404,0.49055222,0.49967092,0,959,3,2,4,3,1,0,0,0,0,0,0,0,0
1743177451621379,1743177451469379,171865803351,0.0007011811,0.0008864771,0.00064899866,0,0.14349991,0.13570386,0.007960921,0.0017408642,0.00016091867,0.005006449,nan,nan,nan,0.0,1310988,1310988,6620172,197388,67.804146,67.84404,0.49046668,0.49967092,0,959,3,2,4,3,1,0,0,0,0,0,0,0,0
1743177451629379,1743177451477379,171865803351,0.0006991881,0.0008375736,0.00062351767,0,0.1439401,0.13607062,0.007960921,0.0017408642,0.00016091867,0.005006449,nan,nan,nan,0.0,1310988,1310988,6620172,197388,67.804146,67.84404,0.49046668,0.49967092,0,959,3,2,4,3,1,0,0,0,0,0,0,0,0
1743177451645379,1743177451493379,171865803351,0.00069538417,0.00069306453,0.00054170674,0,0.1448498,0.13670929,0.007960921,0.0017408642,0.00016091867,0.0049553844,nan,nan,nan,0.0,1310988,1310988,6620172,197388,67.804146,67.84404,0.49046668,0.49967092,0,959,3,2,4,3,1,0,0,0,0,0,0,0,0
1743177451653379,1743177451501379,171865803351,0.00069363136,0.00065194815,0.0005261767,0,0.14531954,0.13708502,0.007960921,0.0017408642,0.00016091867,0.0049553844,nan,nan,nan,0.0,1310988,1310988,6620172,197388,67.804146,67.84404,0.49046668,0.49967092,0,959,3,2,4,3,1,0,0,0,0,0,0,0,0
1743177451661379,1743177451509379,171865803351,0.0007530682,0.0016060482,0.0009158868,0,0.14153546,0.13450769,0.007960921,0.00204169,0.00015590916,0.004960655,nan,nan,nan,0.0,1310988,1310988,6620172,197388,67.804146,67.84404,0.49046668,0.49967092,0,959,3,2,4,3,1,0,0,0,0,0,0,0,0
1743177451669379,1743177451517379,171865803351,0.00075071293,0.0015430389,0.0008896289,0,0.14196812,0.13487053,0.007960921,0.00204169,0.00015590916,0.004960655,nan,nan,nan,0.0,1310988,1310988,6620172,197388,67.804146,67.84404,0.49046668,0.49967092,0,959,3,2,4,3,1,0,0,0,0,0,0,0,0
1743177451685379,1743177451533379,171865803351,0.00042957283,0.0014593803,0.00084497244,0,0.14286168,0.13560534,0.007456474,0.00204169,0.00015590916,0.004960655,nan,nan,nan,0.0,1310988,1310988,6620172,197388,67.701164,67.84404,0.49301785,0.49967092,0,959,3,2,4,3,1,0,0,0,0,0,0,0,0
1743177451693379,1743177451541379,171865803351,0.00042695962,0.0013987437,0.0008208572,0,0.14332284,0.13597734,0.007456474,0.00204169,0.00015590916,0.004960655,nan,nan,nan,0.0,1310988,1310988,6620172,197388,67.701164,67.84404,0.49301785,0.49967092,0,959,3,2,4,3,1,0,0,0,0,0,0,0,0
1743177451701379,1743177451549379,171865803351,0.00042449558,0.0014273291,0.0010424895,0,0.14379373,0.13624936,0.007456474,0.00204169,0.00015590916,0.0030365605,nan,nan,nan,0.0,1310988,1310988,6620172,197388,67.701164,67.84404,0.49301785,0.49967092,0,959,3,2,4,3,1,0,0,0,0,0,0,0,0
1743177451709379,1743177451557379,171865803351,0.00041184595,0.0013684665,0.0010024306,0,0.14427446,0.13662723,0.007456474,0.00204169,0.00015590916,0.0030365605,nan,nan,nan,0.0,1310988,1310988,6620172,197388,67.701164,67.84404,0.49301785,0.49967092,0,959,3,2,4,3,1,0,0,0,0,0,0,0,0
1743177451725379,1743177451573379,171865803351,0.000374565,0.0012446094,0.0010310742,0,0.14095588,0.13443299,0.007456474,0.0019248496,0.00014889671,0.003034372,nan,nan,nan,0.0,1310988,1310988,6620172,197388,67.701164,67.84404,0.49301785,0.49967092,0,959,3,2,4,3,1,0,0,0,0,0,0,0,0
1743177451733379,1743177451581379,171865803351,0.00035683278,0.001184228,0.0009894317,0,0.14140826,0.13480103,0.007456474,0.0019248496,0.00014889671,0.003034372,nan,nan,nan,0.0,1310988,1310988,6620172,197388,67.701164,67.84404,0.49301785,0.49967092,0,959,3,2,4,3,1,0,0,0,0,0,0,0,0
1743177451741379,1743177451589379,171865803351,0.00033929088,0.0011267717,0.0009487049,0,0.14187004,0.13517213,0.007456474,0.0019248496,0.00014889671,0.003034372,nan,nan,nan,0.0,1310988,1310988,6620172,197388,67.701164,67.84404,0.49301785,0.49967092,0,959,3,2,4,3,1,0,0,0,0,0,0,0,0
1743177451749379,1743177451597379,171865803351,0.00032164875,0.0011342097,0.0011242821,0,0.14234129,0.13544504,0.007456474,0.0019248496,0.00014889671,0.002355241,nan,nan,nan,0.0,1310988,1310988,6620172,197388,67.701164,67.84404,0.49301785,0.49967092,0,959,3,2,4,3,1,0,0,0,0,0,0,0,0
1743177451765379,1743177451613379,171865803351,0.0003455538,0.001278339,0.0011801322,0,0.13915437,0.13330725,0.006871966,0.0018645708,0.00014297738,0.002344629,nan,nan,nan,0.0,1310988,1310988,6620172,197388,67.91455,67.84404,0.49184543,0.49967092,0,959,3,2,4,3,1,0,0,0,0,0,0,0,0
1743177451773379,1743177451621379,171865803351,0.0003302498,0.0012156903,0.0011341852,0,0.13959858,0.13367157,0.006871966,0.0018645708,0.00014297738,0.002344629,nan,nan,nan,0.0,1310988,1310988,6620172,197388,67.91455,67.84404,0.49184543,0.49967092,0,959,3,2,4,3,1,0,0,0,0,0,0,0,0
1743177451781379,1743177451629379,171865803351,0.00031426793,0.0011542111,0.0010886289,0,0.14005183,0.13403893,0.006871966,0.0018645708,0.00014297738,0.002344629,nan,nan,nan,0.0,1310988,1310988,6620172,197388,67.91455,67.84404,0.49184543,0.49967092,0,959,3,2,4,3,1,0,0,0,0,0,0,0,0
1743177451789379,1743177451637379,171865803351,0.00029870332,0.0010955498,0.0010445103,0,0.14051425,0.13440931,0.006871966,0.0018645708,0.00014297738,0.002344629,nan,nan,nan,0.0,1310988,1310988,6620172,197388,67.91455,67.84404,0.49184543,0.49967092,0,959,3,2,4,3,1,0,0,0,0,0,0,0,0
1743177451805379,1743177451653379,171865803351,0.00026911977,0.0010521094,0.0011872617,0,0.14146696,0.13505885,0.006871966,0.0018645708,0.00014297738,0.0014989972,nan,nan,nan,0.0,1310988,1310988,6620172,197388,67.91455,67.84404,0.49184543,0.49967092,0,959,3,2,4,3,1,0,0,0,0,0,0,0,0
1743177451813379,1743177451661379,171865803351,0.00025535407,0.000995977,0.0011385191,0,0.14195743,0.1354381,0.006871966,0.0018645708,0.00014297738,0.0014989972,nan,nan,nan,0.0,1310988,1310988,6620172,197388,67.91455,67.84404,0.49184543,0.49967092,0,959,3,2,4,3,1,0,0,0,0,0,0,0,0
1743177451821379,1743177451669379,171865803351,0.00031076037,0.0011404575,0.0012865777,0,0.13830504,0.1329368,0.014913646,0.0019233464,0.00013705358,0.0014934336,nan,nan,nan,0.0,1310988,1310988,6620172,197388,68.27946,67.84404,0.48347574,0.49967092,0,959,3,2,4,3,1,0,0,0,0,0,0,0,0
1743177451829379,1743177451677379,171865803351,0.00029318937,0.001084303,0.0012362552,0,0.13875858,0.13330346,0.014913646,0.0019233464,0.00013705358,0.0014934336,nan,nan,nan,0.0,1310988,1310988,6620172,197388,68.27946,67.84404,0.48347574,0.49967092,0,959,3,2,4,3,1,0,0,0,0,0,0,0,0
1743177451845379,1743177451693379,171865803351,0.00026631862,0.0009767254,0.0011387757,0,0.13969254,0.13404587,0.014913646,0.0019233464,0.00013705358,0.0014934336,nan,nan,nan,0.0,1310988,1310988,6620172,197388,68.27946,67.84404,0.48347574,0.49967092,0,959,3,2,4,3,1,0,0,0,0,0,0,0,0
1743177451853379,1743177451701379,171865803351,0.00025676002,0.00085792644,0.0008904598,0,0.14017317,0.13432291,0.014913646,0.0019233464,0.00013705358,0.0020658367,nan,nan,nan,0.0,1310988,1310988,6620172,197388,68.27946,67.84404,0.48347574,0.49967092,0,959,3,2,4,3,1,0,0,0,0,0,0,0,0
1743177451861379,1743177451709379,171865803351,0.00024740744,0.00080880825,0.00085236545,0,0.14066298,0.13470143,0.014913646,0.0019233464,0.00013705358,0.0020658367,nan,nan,nan,0.0,1310988,1310988,6620172,197388,68.27946,67.84404,0.48347574,0.49967092,0,959,3,2,4,3,1,0,0,0,0,0,0,0,0
1743177451869379,1743177451717379,171865803351,0.00023586219,0.0009978784,0.00101113,0,0.1370965,0.13223995,0.014913646,0.0019816903,0.00013172273,0.0020635827,nan,nan,nan,0.0,1310988,1310988,6620172,197388,68.27946,67.84404,0.48347574,0.49967092,0,959,3,2,4,3,1,0,0,0,0,0,0,0,0
1743177451885379,1743177451733379,171865803351,0.00022026848,0.0009020307,0.00093062944,0,0.13801327,0.1329753,0.014913646,0.0019816903,0.00013172273,0.0020635827,nan,nan,nan,0.0,1310988,1310988,6620172,197388,68.27946,67.84404,0.48347574,0.49967092,0,959,3,2,4,3,1,0,0,0,0,0,0,0,0
1743177451893379,1743177451741379,171865803351,0.00015766306,0.0008594354,0.0008918631,0,0.13848478,0.1333475,0.013991224,0.0019816903,0.00013172273,0.0020635827,nan,nan,nan,0.0,1310988,1310988,6620172,197388,67.792274,67.84404,0.49268177,0.49967092,0,959,3,2,4,3,1,0,0,0,0,0,0,0,0
1743177451901379,1743177451749379,171865803351,0.00015663491,0.0008158567,0.00085473416,0,0.13896523,0.13372272,0.013991224,0.0019816903,0.00013172273,0.0020635827,nan,nan,nan,0.0,1310988,1310988,6620172,197388,67.792274,67.84404,0.49268177,0.49967092,0,959,3,2,4,3,1,0,0,0,0,0,0,0,0
1743177451909379,1743177451757379,171865803351,0.00015619928,0.00086390134,0.0010760685,0,0.1394547,0.134003,0.013991224,0.0019816903,0.00013172273,0.0003799779,nan,nan,nan,0.0,1310988,1310988,6620172,197388,67.792274,67.84404,0.49268177,0.49967092,0,959,3,2,4,3,1,0,0,0,0,0,0,0,0
1743177451925379,1743177451773379,171865803351,0.00017895165,0.00183094,0.0014967157,0,0.13639385,0.13193183,0.013991224,0.0024653575,0.00012598568,0.00037581805,nan,nan,nan,0.0,1310988,1310988,6620172,197388,67.792274,67.84404,0.49268177,0.49967092,0,959,3,2,4,3,1,0,0,0,0,0,0,0,0
1743177451933379,1743177451781379,171865803351,0.000173982,0.0017657573,0.0014514055,0,0.13685623,0.1323005,0.013991224,0.0024653575,0.00012598568,0.00037581805,nan,nan,nan,0.0,1310988,1310988,6620172,197388,67.792274,67.84404,0.49268177,0.49967092,0,959,3,2,4,3,1,0,0,0,0,0,0,0,0
