timestamp,timestamp_sample,output_tracking_error[0],output_tracking_error[1],output_tracking_error[2],control_mode_flags,filter_fault_flags,pos_horiz_accuracy,pos_vert_accuracy,mag_test_ratio,vel_test_ratio,pos_test_ratio,hgt_test_ratio,tas_test_ratio,hagl_test_ratio,beta_test_ratio,time_slip,accel_device_id,gyro_device_id,baro_device_id,mag_device_id,gps_check_fail_flags,innovation_check_flags,solution_status_flags,reset_count_vel_ne,reset_count_vel_d,reset_count_pos_ne,reset_count_pod_d,reset_count_quat,pre_flt_fail_innov_heading,pre_flt_fail_innov_vel_horiz,pre_flt_fail_innov_vel_vert,pre_flt_fail_innov_height,pre_flt_fail_mag_field_disturbed,health_flags,timeout_flags
829260000,829180000,0.0002206506,0.002933207,0.00049878174,67109399,0,0.05608547,0.06013284,0.0032744003,0.010430087,0.0016223276,0.0029911527,0.0,0.0,0.0,0.0,1311004,1311004,6620172,197388,0,0,895,2,1,2,0,4,0,0,0,0,0,0,0
829268000,829188000,0.00021844126,0.0027587179,0.00049695885,67109399,0,0.056085642,0.060132924,0.0032744003,0.010430087,0.0016223276,0.0029911527,0.0,0.0,0.0,0.0,1311004,1311004,6620172,197388,0,0,895,2,1,2,0,4,0,0,0,0,0,0,0
829460000,829380000,0.000117092306,0.0043652863,0.00032198816,67109399,0,0.05605514,0.06011263,0.008512408,0.0020285668,0.0015554398,0.005854151,0.0,0.0,0.0,0.0,1311004,1311004,6620172,197388,0,0,895,2,1,2,0,4,0,0,0,0,0,0,0
829660000,829580000,0.00018387454,0.0050237826,0.0010271383,67109399,0,0.056068942,0.060083624,0.011173973,0.0020285668,0.0015554398,0.0007636988,0.0,0.0,0.0,0.0,1311004,1311004,6620172,197388,0,0,895,2,1,2,0,4,0,0,0,0,0,0,0
829860000,829780000,4.103156e-05,0.004511083,0.0014245021,67109399,0,0.056038726,0.060063526,0.00094602606,0.023760265,0.0016478458,0.0011612407,0.0,0.0,0.0,0.0,1311004,1311004,6620172,197388,0,0,895,2,1,2,0,4,0,0,0,0,0,0,0
830060000,829980000,0.00018035466,0.0038189753,0.0014834277,67109399,0,0.05600859,0.06003463,0.03675267,0.007396174,0.0015088391,0.0023869951,0.0,0.0,0.0,0.0,1311004,1311004,6620172,197388,0,0,895,2,1,2,0,4,0,0,0,0,0,0,0
830260000,830180000,3.296876e-05,0.0028796417,0.0014608963,67109399,0,0.056011945,0.060031686,0.0007403751,0.0131095145,0.0014809435,0.0034331586,0.0,0.0,0.0,0.0,1311004,1311004,6620172,197388,0,0,895,2,1,2,0,4,0,0,0,0,0,0,0
830460000,830380000,3.4876226e-05,0.003129365,0.0015837931,67109399,0,0.055976383,0.060008902,0.00946499,0.014908592,0.0015248031,0.0010923687,0.0,0.0,0.0,0.0,1311004,1311004,6620172,197388,0,0,895,2,1,2,0,4,0,0,0,0,0,0,0
830660000,830580000,0.00016389744,0.0013971211,0.00072378566,67109399,0,0.055941362,0.05997758,0.014327082,0.0018689482,0.0015743806,0.00096247025,0.0,0.0,0.0,0.0,1311004,1311004,6620172,197388,0,0,895,2,1,2,0,4,0,0,0,0,0,0,0
830860000,830780000,0.00015205248,0.0031228936,0.0010681534,67109399,0,0.055950645,0.059955347,0.018235369,0.0018689482,0.0015743806,0.0036467514,0.0,0.0,0.0,0.0,1311004,1311004,6620172,197388,0,0,895,2,1,2,0,4,0,0,0,0,0,0,0
831060000,830980000,0.0001227394,0.0025734159,0.0009983566,67109399,0,0.055916503,0.05993334,0.026439898,0.0042513097,0.0014169341,0.003946652,0.0,0.0,0.0,0.0,1311004,1311004,6620172,197388,0,0,895,2,1,2,0,4,0,0,0,0,0,0,0
831260000,831180000,7.244511e-05,0.0035849893,0.0014097551,67109399,0,0.055926576,0.0599028,0.003144114,0.0042513097,0.0014169341,0.007106939,0.0,0.0,0.0,0.0,1311004,1311004,6620172,197388,0,0,895,2,1,2,0,4,0,0,0,0,0,0,0
831460000,831380000,0.00014186419,0.0046181628,0.0018089528,67109399,0,0.055893287,0.05988126,0.019637855,0.004253658,0.0013952794,0.00031123374,0.0,0.0,0.0,0.0,1311004,1311004,6620172,197388,0,0,895,2,1,2,0,4,0,0,0,0,0,0,0
831660000,831580000,0.000121249315,0.0046670684,0.0019659523,67109399,0,0.05586048,0.05985994,0.0066310284,0.004353545,0.0016139485,0.01162724,0.0,0.0,0.0,0.0,1311004,1311004,6620172,197388,0,0,895,2,1,2,0,4,0,0,0,0,0,0,0
831860000,831780000,7.173185e-05,0.002898455,0.0015708229,67109399,0,0.055828083,0.05983007,0.0033895816,0.0068700565,0.001591812,0.00061287783,0.0,0.0,0.0,0.0,1311004,1311004,6620172,197388,0,0,895,2,1,2,0,4,0,0,0,0,0,0,0
832060000,831980000,0.000109907036,0.0049277022,0.0016398564,67109399,0,0.055796094,0.059809145,0.011177012,0.012969594,0.001639293,0.0021228415,0.0,0.0,0.0,0.0,1311004,1311004,6620172,197388,0,0,895,2,1,2,0,4,0,0,0,0,0,0,0
832260000,832180000,0.00015852385,0.0011888582,0.0005923145,67109399,0,0.055807885,0.059779678,0.009851415,0.012969594,0.001639293,0.0029998764,0.0,0.0,0.0,0.0,1311004,1311004,6620172,197388,0,0,895,2,1,2,0,4,0,0,0,0,0,0,0
832460000,832380000,0.00014063888,0.004187246,0.0010184769,67109399,0,0.055776525,0.05975911,0.0042408644,0.007033785,0.0013927585,0.0059055984,0.0,0.0,0.0,0.0,1311004,1311004,6620172,197388,0,0,895,2,1,2,0,4,0,0,0,0,0,0,0
832660000,832580000,0.00013576483,0.0057076737,0.0017245685,67109399,0,0.055745512,0.0597387,0.0020807663,0.022152465,0.0013951658,0.006504528,0.0,0.0,0.0,0.0,1311004,1311004,6620172,197388,0,0,895,2,1,2,0,4,0,0,0,0,0,0,0
832860000,832780000,0.00012091795,0.003570576,0.0015397994,67109399,0,0.05571481,0.059709746,0.0008583025,0.006863648,0.0016548475,0.010580213,0.0,0.0,0.0,0.0,1311004,1311004,6620172,197388,0,0,895,2,1,2,0,4,0,0,0,0,0,0,0
833060000,832980000,0.00014811485,0.0020530347,0.0010824967,67109399,0,0.055684403,0.059689634,0.024303736,0.007183962,0.001670733,0.003318086,0.0,0.0,0.0,0.0,1311004,1311004,6620172,197388,0,0,895,2,1,2,0,4,0,0,0,0,0,0,0
833260000,833180000,0.00018222642,0.0026274023,0.0008929466,67109399,0,0.055654272,0.059669644,0.0047365353,0.009201113,0.0016921337,0.0052717994,0.0,0.0,0.0,0.0,1311004,1311004,6620172,197388,0,0,895,2,1,2,0,4,0,0,0,0,0,0,0
833460000,833380000,0.00017806388,0.0037764567,0.0012092511,67109399,0,0.055667467,0.05964111,0.012727938,0.009201113,0.0016921337,0.004853334,0.0,0.0,0.0,0.0,1311004,1311004,6620172,197388,0,0,895,2,1,2,0,4,0,0,0,0,0,0,0
833660000,833580000,0.00038216345,0.0072315875,0.0020202426,67109399,0,0.05563772,0.059621353,0.030485801,0.01947039,0.0013571477,0.0028935187,0.0,0.0,0.0,0.0,1311004,1311004,6620172,197388,0,0,895,2,1,2,0,4,0,0,0,0,0,0,0
833860000,833780000,0.00013685317,0.004057947,0.0019935686,67109399,0,0.055651214,0.059593055,0.028997267,0.01947039,0.0013571477,0.0016355051,0.0,0.0,0.0,0.0,1311004,1311004,6620172,197388,0,0,895,2,1,2,0,4,0,0,0,0,0,0,0
834060000,833980000,0.00016917894,0.0043790615,0.0015611906,67109399,0,0.055621766,0.059573494,0.013656574,0.010589109,0.0013864494,0.0004829797,0.0,0.0,0.0,0.0,1311004,1311004,6620172,197388,0,0,895,2,1,2,0,4,0,0,0,0,0,0,0
834260000,834180000,6.141826e-05,0.0019001871,0.00093068444,67109399,0,0.05559249,0.059554014,0.008561521,0.012920267,0.0017639685,0.0028385953,0.0,0.0,0.0,0.0,1311004,1311004,6620172,197388,0,0,895,2,1,2,0,4,0,0,0,0,0,0,0
834460000,834380000,0.00012427854,0.002989674,0.0006499915,67109399,0,0.055563364,0.05952599,0.01828341,0.0100305425,0.001762987,0.002080126,0.0,0.0,0.0,0.0,1311004,1311004,6620172,197388,0,0,895,2,1,2,0,4,0,0,0,0,0,0,0
834660000,834580000,0.00017079613,0.0025296824,0.0006237777,67109399,0,0.05553438,0.059506644,0.009324331,0.017283702,0.00045193068,0.0044897944,0.0,0.0,0.0,0.0,1311004,1311004,6620172,197388,0,0,895,2,1,2,0,4,0,0,0,0,0,0,0
834860000,834780000,0.00015769231,0.004211727,0.00088183815,67109399,0,0.055548314,0.05948735,0.0025674377,0.017283702,0.00045193068,0.0015552997,0.0,0.0,0.0,0.0,1311004,1311004,6620172,197388,0,0,895,2,1,2,0,4,0,0,0,0,0,0,0
835060000,834980000,6.3342115e-05,0.0018907774,0.00080497586,67109399,0,0.055519443,0.05945952,0.0037406264,0.013163688,0.0005212874,0.0050922125,0.0,0.0,0.0,0.0,1311004,1311004,6620172,197388,0,0,895,2,1,2,0,4,0,0,0,0,0,0,0
835260000,835180000,0.00024783955,0.0044924207,0.0006591371,67109399,0,0.055490654,0.059440315,0.029733995,0.002077384,0.0004842661,0.00492657,0.0,0.0,0.0,0.0,1311004,1311004,6620172,197388,0,0,895,2,1,2,0,4,0,0,0,0,0,0,0
835460000,835380000,0.00010528258,0.0012551721,0.00058548455,67109399,0,0.055495642,0.059429824,0.019008089,0.014715415,0.0017491818,0.0031079852,0.0,0.0,0.0,0.0,1311004,1311004,6620172,197388,0,0,895,2,1,2,0,4,0,0,0,0,0,0,0
835660000,835580000,0.000100334386,0.003041339,0.0012463055,67109399,0,0.055461366,0.059407867,0.052968293,0.0012216672,0.0017097017,0.0017401233,0.0,0.0,0.0,0.0,1311004,1311004,6620172,197388,0,0,895,2,1,2,0,4,0,0,0,0,0,0,0
835860000,835780000,4.532812e-05,0.0016436764,0.0009556331,67109399,0,0.055427633,0.05938618,0.0041029532,0.009347358,0.0014409674,0.0005387757,0.0,0.0,0.0,0.0,1311004,1311004,6620172,197388,0,0,895,2,1,2,0,4,0,0,0,0,0,0,0
836060000,835980000,0.00015110342,0.00166043,0.0008742095,67109399,0,0.055436995,0.05935622,0.013998308,0.009347358,0.0014409674,0.008209791,0.0,0.0,0.0,0.0,1311004,1311004,6620172,197388,0,0,895,2,1,2,0,4,0,0,0,0,0,0,0
836260000,836180000,2.9886902e-05,0.00074028515,0.00046556728,1049239,0,0.055404134,0.05933503,0.0074177776,0.017051976,0.00053186715,1.1754944e-38,0.0,0.0,0.0,0.0,1311004,1311004,6620172,197388,0,0,895,2,1,2,0,4,0,0,0,0,0,0,0
836460000,836380000,4.777705e-05,0.00146345,0.0005024884,1049239,0,0.05569851,0.059458833,0.0043079914,0.017051976,0.00053186715,0.002784546,0.0,0.0,0.0,0.0,1311004,1311004,6620172,197388,0,0,895,2,1,2,0,4,0,0,0,0,0,0,0
836660000,836580000,0.00024160635,0.0017568219,0.0007036744,1049239,0,0.0565961,0.059919745,0.050820798,0.004363231,0.0019027165,1.1754944e-38,0.0,0.0,0.0,0.0,1311004,1311004,6620172,197388,0,0,895,2,1,2,0,4,0,0,0,0,0,0,0
836860000,836780000,0.00019094847,0.0018465437,0.00080096273,1049239,0,0.05855149,0.060989566,0.04354734,0.026218954,0.0020929626,1.1754944e-38,0.0,0.0,0.0,0.0,1311004,1311004,6620172,197388,0,0,895,2,1,2,0,4,0,0,0,0,0,0,0
837060000,836980000,3.5967776e-05,0.0018722999,0.000880725,1049239,0,0.06193763,0.06292014,0.013961526,0.0034445578,0.00090626406,0.0014637352,0.0,0.0,0.0,0.0,1311004,1311004,6620172,197388,0,0,895,2,1,2,0,4,0,0,0,0,0,0,0
837260000,837180000,5.7426772e-05,0.0022357018,0.0010224686,1049239,0,0.06701521,0.06597576,0.0028694998,0.029685823,0.002326397,0.002141085,0.0,0.0,0.0,0.0,1311004,1311004,6620172,197388,0,0,895,2,1,2,0,4,0,0,0,0,0,0,0
837460000,837380000,8.576192e-05,0.0018062654,0.0008820955,1049239,0,0.074397236,0.07044333,0.010466524,0.029685823,0.002326397,0.00027024536,0.0,0.0,0.0,0.0,1311004,1311004,6620172,197388,0,0,895,2,1,2,0,4,0,0,0,0,0,0,0
837660000,837580000,6.6739456e-05,0.001095794,0.0007600808,1049239,0,0.08335176,0.0762238,0.008812932,0.02808637,0.003556892,1.1754944e-38,0.0,0.0,0.0,0.0,1311004,1311004,6620172,197388,0,0,895,2,1,2,0,4,0,0,0,0,0,0,0
837860000,837780000,0.00011721727,0.0018671694,0.0019035353,663,0,0.09398402,0.083401315,0.019270927,0.036723915,0.004891406,0.0011576056,0.0,0.0,0.0,0.0,1311004,1311004,6620172,197388,0,0,895,2,1,2,0,4,0,0,0,0,0,0,0
838060000,837980000,0.000104434905,0.00128401,0.0019719384,663,0,0.10599483,0.09187059,0.0056715715,0.02706735,0.0063549755,0.0007138773,0.0,0.0,0.0,0.0,1311004,1311004,6620172,197388,0,0,895,2,1,2,0,4,0,0,0,0,0,0,0
838260000,838180000,0.00013512645,0.0021306055,0.0029603294,663,0,0.11891144,0.101449035,0.016603574,0.03143394,0.0057163206,0.003081863,0.0,0.0,0.0,0.0,1311004,1311004,6620172,197388,0,0,895,2,1,2,0,4,0,0,0,0,0,0,0
838460000,838380000,0.00010915834,0.0033257594,0.004347042,663,0,0.13232052,0.11204106,0.01568653,0.033915564,0.007329844,0.0006902275,0.0,0.0,0.0,0.0,1311004,1311004,6620172,197388,0,0,895,2,1,2,0,4,0,0,0,0,0,0,0
838660000,838580000,0.0052912375,0.0013562987,0.002022501,8389271,0,0.15002613,0.12482793,0.02546689,0.033915564,0.007329844,0.0028451358,0.0,0.0,0.0,0.0,1311004,1311004,6620172,197388,0,0,895,2,1,2,0,5,0,0,0,0,0,0,0
838860000,838780000,0.0045835427,0.0027222044,0.00453889,8389271,0,0.16359036,0.13698067,0.017679,0.027586678,0.009681374,0.0031722884,0.0,0.0,0.0,0.0,1311004,1311004,6620172,197388,0,0,895,2,1,2,0,5,0,0,0,0,0,0,0
839060000,838980000,0.0031896576,0.001101305,0.0019865031,8389271,0,0.18208294,0.15192525,0.0276664,0.027586678,0.009681374,0.003838226,0.0,0.0,0.0,0.0,1311004,1311004,6620172,197388,0,0,895,2,1,2,0,5,0,0,0,0,0,0,0
839260000,839180000,0.0016302939,0.0020503502,0.0041724034,8389271,0,0.1945289,0.16492578,0.022955053,0.025111837,0.012257996,0.005019355,0.0,0.0,0.0,0.0,1311004,1311004,6620172,197388,0,0,895,2,1,2,0,5,0,0,0,0,0,0,0
839460000,839380000,0.0010515995,0.004226995,0.0070188255,8389271,0,0.20627928,0.1781817,0.016330963,0.024363833,0.014100492,0.001746895,0.0,0.0,0.0,0.0,1311004,1311004,6620172,197388,0,0,895,2,1,2,0,5,0,0,0,0,0,0,0
839660000,839580000,0.001277175,0.0050158184,0.008570132,8389271,0,0.21736144,0.19141544,0.024784982,0.029171716,0.015836805,0.004172989,0.0,0.0,0.0,0.0,1311004,1311004,6620172,197388,0,0,895,2,1,2,0,5,0,0,0,0,0,0,0
839860000,839780000,0.00074182585,0.0040064533,0.0074472497,8389271,0,0.22778894,0.2041675,0.010069819,0.013733274,0.014896358,0.0015790277,0.0,0.0,0.0,0.0,1311004,1311004,6620172,197388,0,0,895,2,1,2,0,5,0,0,0,0,0,0,0
840060000,839980000,0.0012437293,0.0006255566,0.0022380103,8389271,0,0.24806945,0.22189793,0.028945789,0.013733274,0.014896358,0.003890884,0.0,0.0,0.0,0.0,1311004,1311004,6620172,197388,0,0,895,2,1,2,0,5,0,0,0,0,0,0,0
840260000,840180000,0.00034582213,0.0026335034,0.004921217,8389271,0,0.25718477,0.23404557,1.7455402e-05,0.016881235,0.014823953,0.003693117,0.0,0.0,0.0,0.0,1311004,1311004,6620172,197388,0,0,895,2,1,2,0,5,0,0,0,0,0,0,0
840460000,840380000,0.0007418557,0.0048850332,0.008631346,8389271,0,0.26553574,0.2462149,0.007042621,0.029798489,0.016367383,0.0016448151,0.0,0.0,0.0,0.0,1311004,1311004,6620172,197388,0,0,895,2,1,2,0,5,0,0,0,0,0,0,0
840660000,840580000,0.00018346265,0.004280591,0.0073667336,8389271,0,0.27311468,0.25791553,0.010112301,0.01248474,0.01568779,0.0039838552,0.0,0.0,0.0,0.0,1311004,1311004,6620172,197388,0,0,895,2,1,2,0,5,0,0,0,0,0,0,0
840860000,840780000,0.00049581256,0.005287389,0.008856782,8389271,0,0.27996534,0.26832628,0.006342847,0.018250575,0.014469972,0.0038235334,0.0,0.0,0.0,0.0,1311004,1311004,6620172,197388,0,0,895,2,1,2,0,5,0,0,0,0,0,0,0
841060000,840980000,0.0002785525,0.005229136,0.009004164,8389271,0,0.28613007,0.27893132,1.6017862e-05,0.01640187,0.014479084,0.0010264007,0.0,0.0,0.0,0.0,1311004,1311004,6620172,197388,0,0,895,2,1,2,0,5,0,0,0,0,0,0,0
841260000,841180000,0.00061186904,0.0011297072,0.0030216419,8389271,0,0.30868417,0.29557204,0.010415446,0.01640187,0.014479084,0.0055013434,0.0,0.0,0.0,0.0,1311004,1311004,6620172,197388,0,0,831,2,1,2,0,5,0,0,0,0,0,0,0
841460000,841380000,0.00035863812,0.00597226,0.0082352115,8389271,0,0.31230107,0.30487654,0.0071199313,0.020003196,0.0125451675,0.00051597966,0.0,0.0,0.0,0.0,1311004,1311004,6620172,197388,0,0,831,2,1,2,0,5,0,0,0,0,0,0,0
841660000,841580000,5.4862885e-05,0.0047602328,0.0073137656,8389271,0,0.3371252,0.3222607,0.012383908,0.020003196,0.0125451675,0.008225642,0.0,0.0,0.0,0.0,1311004,1311004,6620172,197388,0,0,831,2,1,2,0,5,0,0,0,0,0,0,0
841860000,841780000,0.0010545838,0.020115096,0.028860055,8389271,0,0.33706337,0.32862422,0.013372034,0.050859466,0.011421291,0.00050869427,0.0,0.0,0.0,0.0,1311004,1311004,6620172,197388,0,0,831,2,1,2,0,5,0,0,0,0,0,0,0
842060000,841980000,0.0016200435,0.025958728,0.038420256,8389271,0,0.33719575,0.33586136,0.046279617,0.05676807,0.01110466,0.0018305003,0.0,0.0,0.0,0.0,1311004,1311004,6620172,197388,0,0,831,2,1,2,0,5,0,0,0,0,0,0,0
842260000,842180000,0.0021087602,0.028999625,0.041209098,8389271,0,0.33741108,0.34262982,0.016756034,0.07101403,0.011489325,0.00020302179,0.0,0.0,0.0,0.0,1311004,1311004,6620172,197388,0,0,831,2,1,2,0,5,0,0,0,0,0,0,0
842460000,842380000,0.0021065052,0.030669456,0.044330563,8389271,0,0.33764112,0.3472524,0.001750131,0.0775156,0.0106515605,0.005049716,0.0,0.0,0.0,0.0,1311004,1311004,6620172,197388,0,0,831,2,1,2,0,5,0,0,0,0,0,0,0
842660000,842580000,0.00021446888,0.01209048,0.020220246,8389351,0,0.36074358,0.3623386,0.027124267,0.0775156,0.0106515605,0.0009159022,0.0,0.0,0.0,0.0,1311004,1311004,6620172,197388,0,0,831,2,1,2,0,5,0,0,0,0,0,0,0
842860000,842780000,0.002288257,0.02326427,0.03610491,8389351,0,0.35831854,0.36735594,0.013510929,0.09247751,0.005502514,0.0020033307,0.0,0.0,0.0,0.0,1311004,1311004,6620172,197388,0,0,831,2,1,2,0,5,0,0,0,0,0,0,0
843060000,842980000,0.002439952,0.028429393,0.045875914,8389351,0,0.35632488,0.3699645,0.009242544,0.09712027,0.0060677677,0.0028353096,0.0,0.0,0.0,0.0,1311004,1311004,6620172,197388,0,0,831,2,1,2,0,5,0,0,0,0,0,0,0
843260000,843180000,0.00204936,0.029099947,0.051382937,8389351,0,0.35461956,0.37430963,0.0127194235,0.09134075,0.006125892,0.0041583,0.0,0.0,0.0,0.0,1311004,1311004,6620172,197388,0,0,831,2,1,2,0,5,0,0,0,0,0,0,0
843460000,843380000,0.001655136,0.025375973,0.046639033,8389351,0,0.3531125,0.37621254,0.034411244,0.0857881,0.00543783,0.005543957,0.0,0.0,0.0,0.0,1311004,1311004,6620172,197388,0,0,831,2,1,2,0,5,0,0,0,0,0,0,0
843660000,843580000,0.0014963131,0.021635706,0.03838503,8389351,0,0.35174283,0.38000903,0.0210097,0.082606,0.005671999,0.010711677,0.0,0.0,0.0,0.0,1311004,1311004,6620172,197388,0,0,831,2,1,2,0,5,0,0,0,0,0,0,0
843860000,843780000,6.141339e-05,0.0042456216,0.009558398,8389351,0,0.3724862,0.3898778,0.014380188,0.082606,0.005671999,0.0003084832,0.0,0.0,0.0,0.0,1311004,1311004,6620172,197388,0,0,831,2,1,2,0,5,0,0,0,0,0,0,0
844060000,843980000,0.00059008447,0.0076418454,0.01603204,8389351,0,0.368884,0.3926687,0.017113896,0.05672796,0.0048531434,0.0027346422,0.0,0.0,0.0,0.0,1311004,1311004,6620172,197388,0,0,831,2,1,2,0,5,0,0,0,0,0,0,0
844260000,844180000,2.6059048e-05,0.005562677,0.007982903,8389351,0,0.39075342,0.40424052,0.0046971506,0.05672796,0.0048531434,0.0066266595,0.0,0.0,0.0,0.0,1311004,1311004,6620172,197388,0,0,831,2,1,2,0,5,0,0,0,0,0,0,0
844460000,844380000,0.00033845697,0.0049818233,0.013388864,8389351,0,0.38446832,0.40334633,0.0057468135,0.04651137,0.007978877,0.009608996,0.0,0.0,0.0,0.0,1311004,1311004,6620172,197388,0,0,831,2,1,2,0,5,0,0,0,0,0,0,0
844660000,844580000,0.00025428683,0.0076893703,0.022495188,8389351,0,0.37926397,0.40505978,0.0089714965,0.05352298,0.010632656,0.005360519,0.0,0.0,0.0,0.0,1311004,1311004,6620172,197388,0,0,831,2,1,2,0,5,0,0,0,0,0,0,0
844860000,844780000,0.0001771695,0.010665161,0.03164319,8389351,0,0.3747008,0.40398237,0.01907265,0.067095116,0.0056589087,0.0033985886,0.0,0.0,0.0,0.0,1311004,1311004,6620172,197388,0,0,831,2,1,2,0,5,0,0,0,0,0,0,0
845060000,844980000,0.00014856394,0.012558284,0.037623517,8389351,0,0.370702,0.4055351,0.028121106,0.07100204,0.006375458,0.006343312,0.0,0.0,0.0,0.0,1311004,1311004,6620172,197388,0,0,831,2,1,2,0,5,0,0,0,0,0,0,0
845260000,845180000,4.141747e-05,0.00673807,0.014563462,8389351,0,0.3904948,0.41517594,0.017647075,0.07100204,0.006375458,0.0041553713,0.0,0.0,0.0,0.0,1311004,1311004,6620172,197388,0,0,831,2,1,2,0,5,0,0,0,0,0,0,0
845460000,845380000,2.567197e-05,0.010187237,0.024044901,8389351,0,0.38475847,0.41319555,0.029826859,0.06533369,0.006990266,0.0017369041,0.0,0.0,0.0,0.0,1311004,1311004,6620172,197388,0,0,831,2,1,2,0,5,0,0,0,0,0,0,0
845660000,845580000,5.825742e-05,0.012770626,0.030504076,8389351,0,0.37977082,0.41410488,0.01664962,0.06586841,0.0057091736,0.0052343,0.0,0.0,0.0,0.0,1311004,1311004,6620172,197388,0,0,831,2,1,2,0,5,0,0,0,0,0,0,0
845860000,845780000,6.213108e-05,0.011744147,0.02786754,8389351,0,0.3753027,0.4149598,0.018715523,0.049160805,0.003438147,0.0060951808,0.0,0.0,0.0,0.0,1311004,1311004,6620172,197388,0,0,831,2,1,2,0,5,0,0,0,0,0,0,0
846060000,845980000,0.00018015229,0.01670557,0.039979286,8389351,0,0.3713832,0.41290125,0.0013857046,0.08822375,0.007309905,0.0069035175,0.0,0.0,0.0,0.0,1311004,1311004,6620172,197388,0,0,831,2,1,2,0,5,0,0,0,0,0,0,0
846260000,846180000,0.000109104105,0.016018266,0.03944895,8389271,0,0.36784953,0.41370642,0.0036372019,0.07802096,0.006841574,0.006240516,0.0,0.0,0.0,0.0,1311004,1311004,6620172,197388,0,0,831,2,1,2,0,5,0,0,0,0,0,0,0
846460000,846380000,4.499391e-05,0.008959495,0.017625593,8389271,0,0.3859582,0.42171845,0.0007115023,0.07802096,0.006841574,0.011531144,0.0,0.0,0.0,0.0,1311004,1311004,6620172,197388,0,0,831,2,1,2,0,5,0,0,0,0,0,0,0
846660000,846580000,0.00014139504,0.013345219,0.0299513,8389271,0,0.3807758,0.41903526,0.005056653,0.07922568,0.005343173,0.011109776,0.0,0.0,0.0,0.0,1311004,1311004,6620172,197388,0,0,831,2,1,2,0,5,0,0,0,0,0,0,0
846860000,846780000,3.5814664e-05,0.008085811,0.014952639,8389271,0,0.40000394,0.42684355,0.006124455,0.07922568,0.005343173,0.010739466,0.0,0.0,0.0,0.0,1311004,1311004,6620172,197388,0,0,831,2,1,2,0,5,0,0,0,0,0,0,0
847060000,846980000,0.0004024617,0.013619808,0.026386878,8389271,0,0.39296892,0.42364365,0.00924403,0.066880785,0.009505121,0.013086416,0.0,0.0,0.0,0.0,1311004,1311004,6620172,197388,0,0,831,2,1,2,0,5,0,0,0,0,0,0,0
847260000,847180000,0.00032704824,0.014844686,0.032440133,8389271,0,0.3867992,0.42367318,0.0059289746,0.08842786,0.0063344324,0.004920738,0.0,0.0,0.0,0.0,1311004,1311004,6620172,197388,0,0,831,2,1,2,0,5,0,0,0,0,0,0,0
847460000,847380000,0.00018679623,0.016755985,0.041024018,8389271,0,0.38138375,0.42069322,0.022800244,0.09873039,0.005903382,0.005018164,0.0,0.0,0.0,0.0,1311004,1311004,6620172,197388,0,0,831,2,1,2,0,5,0,0,0,0,0,0,0
847660000,847580000,0.00012867375,0.013348247,0.032330964,8389271,0,0.37657648,0.42083687,0.002419744,0.064082004,0.0062558344,0.009267687,0.0,0.0,0.0,0.0,1311004,1311004,6620172,197388,0,0,831,2,1,2,0,5,0,0,0,0,0,0,0
847860000,847780000,4.9811188e-05,0.0046715736,0.008332432,8389271,0,0.3946663,0.42474973,0.00015435464,0.064082004,0.0062558344,0.008878158,0.0,0.0,0.0,0.0,1311004,1311004,6620172,197388,0,0,831,2,1,2,0,5,0,0,0,0,0,0,0
848060000,847980000,0.00039997388,0.0077930363,0.015548198,8389271,0,0.38849857,0.42458132,0.009134231,0.07386364,0.00964321,0.010647762,0.0,0.0,0.0,0.0,1311004,1311004,6620172,197388,0,0,831,2,1,2,0,5,0,0,0,0,0,0,0
848260000,848180000,0.0004606644,0.011009898,0.021811109,8389271,0,0.38306862,0.42446172,0.0016101291,0.07941127,0.008791339,0.008875781,0.0,0.0,0.0,0.0,1311004,1311004,6620172,197388,0,0,831,2,1,2,0,5,0,0,0,0,0,0,0
848460000,848380000,0.000510305,0.01133021,0.021637449,8389271,0,0.3782395,0.4212906,0.019090747,0.065858,0.008705417,0.0031749886,0.0,0.0,0.0,0.0,1311004,1311004,6620172,197388,0,0,831,2,1,2,0,5,0,0,0,0,0,0,0
848660000,848580000,0.000111978814,0.008087489,0.015086959,8389271,0,0.37390932,0.4213073,0.0040803594,0.057669494,0.008014204,0.005664915,0.0,0.0,0.0,0.0,1311004,1311004,6620172,197388,0,0,831,2,1,2,0,5,0,0,0,0,0,0,0
848860000,848780000,0.000209083,0.0073429723,0.013436161,8389271,0,0.3700016,0.418343,0.0082017435,0.06806734,0.008870397,0.0044617145,0.0,0.0,0.0,0.0,1311004,1311004,6620172,197388,0,0,831,2,1,2,0,5,0,0,0,0,0,0,0
849060000,848980000,0.00024192082,0.0039082197,0.010948477,8389271,0,0.3872438,0.4247445,0.0050166366,0.06806734,0.008870397,0.005746349,0.0,0.0,0.0,0.0,1311004,1311004,6620172,197388,0,0,831,2,1,2,0,5,0,0,0,0,0,0,0
849260000,849180000,0.00028635556,0.0030346808,0.006281981,8389271,0,0.38196856,0.4245729,0.0029779421,0.047215965,0.0065384563,0.008751081,0.0,0.0,0.0,0.0,1311004,1311004,6620172,197388,0,0,831,2,1,2,0,5,0,0,0,0,0,0,0
849460000,849380000,0.00014179308,0.005522985,0.014363279,8389271,0,0.40051138,0.42791936,0.022528738,0.047215965,0.0065384563,0.010125921,0.0,0.0,0.0,0.0,1311004,1311004,6620172,197388,0,0,831,2,1,2,0,5,0,0,0,0,0,0,0
849660000,849580000,0.00023716119,0.0024153984,0.004095205,8389271,0,0.39337984,0.42746502,0.002249982,0.050493702,0.0061883978,0.010531808,0.0,0.0,0.0,0.0,1311004,1311004,6620172,197388,0,0,831,2,1,2,0,5,0,0,0,0,0,0,0
849860000,849780000,0.000303081,0.0029609767,0.0038618539,8389271,0,0.38717175,0.4270743,0.048782203,0.040955212,0.005224478,0.009923088,0.0,0.0,0.0,0.0,1311004,1311004,6620172,197388,0,0,831,2,1,2,0,5,0,0,0,0,0,0,0
850060000,849980000,0.00014191373,0.004736988,0.009001891,8389271,0,0.38170162,0.42361203,0.02691533,0.04792899,0.005502193,0.007985296,0.0,0.0,0.0,0.0,1311004,1311004,6620172,197388,0,0,831,2,1,2,0,5,0,0,0,0,0,0,0
850260000,850180000,0.00017586949,0.0038871341,0.0075615537,8389271,0,0.37683338,0.42337024,0.014934829,0.044816863,0.0026527953,0.01583153,0.0,0.0,0.0,0.0,1311004,1311004,6620172,197388,0,0,831,2,1,2,0,5,0,0,0,0,0,0,0
850460000,850380000,3.6817102e-05,0.003788575,0.0098449355,8389271,0,0.39462546,0.42960668,0.00497802,0.044816863,0.0026527953,0.008556075,0.0,0.0,0.0,0.0,1311004,1311004,6620172,197388,0,0,831,2,1,2,0,5,0,0,0,0,0,0,0
850660000,850580000,0.00016694603,0.0049572974,0.01124159,8389271,0,0.38847232,0.42601994,0.01785617,0.016450254,0.0075944066,0.0062238453,0.0,0.0,0.0,0.0,1311004,1311004,6620172,197388,0,0,831,2,1,2,0,5,0,0,0,0,0,0,0
850860000,850780000,0.00025246377,0.0070975884,0.012252851,8389271,0,0.38304684,0.42573503,0.019932834,0.03463531,0.0066560754,0.0061585223,0.0,0.0,0.0,0.0,1311004,1311004,6620172,197388,0,0,831,2,1,2,0,5,0,0,0,0,0,0,0
851060000,850980000,0.00025535142,0.013398833,0.021317564,8389271,0,0.37820715,0.42239806,0.04208509,0.047832545,0.0074461903,0.006397473,0.0,0.0,0.0,0.0,1311004,1311004,6620172,197388,0,0,831,2,1,2,0,5,0,0,0,0,0,0,0
851260000,851180000,0.0007935412,0.018924575,0.03082752,8389271,0,0.37386045,0.42223683,0.011182082,0.06824194,0.0068433797,0.011576764,0.0,0.0,0.0,0.0,1311004,1311004,6620172,197388,0,0,831,2,1,2,0,5,0,0,0,0,0,0,0
851460000,851380000,0.0014810809,0.026703037,0.043983445,9437927,0,0.36992487,0.41910076,0.030085102,0.094206326,0.0075583532,1.1754944e-38,0.0,0.0,0.0,0.0,1311004,1311004,6620172,197388,0,0,831,2,1,2,0,5,0,0,0,0,0,0,0
851660000,851580000,0.00018409261,0.013065803,0.027268454,9437927,0,0.38711113,0.42504582,0.01901636,0.094206326,0.0075583532,1.1754944e-38,0.0,0.0,0.0,0.0,1311004,1311004,6620172,197388,0,0,831,2,1,2,0,5,0,0,0,0,0,0,0
851860000,851780000,0.003192284,0.030227505,0.047583245,9437927,0,0.3818301,0.42480987,0.016029181,0.14442408,0.009866237,1.1754944e-38,0.0,0.0,0.0,0.0,1311004,1311004,6620172,197388,0,0,831,2,1,2,0,5,0,0,0,0,0,0,0
852060000,851980000,0.00022941883,0.012171634,0.026533296,9437927,0,0.400616,0.42775074,0.025527678,0.14442408,0.009866237,1.1754944e-38,0.0,0.0,0.0,0.0,1311004,1311004,6620172,197388,0,0,831,2,1,2,0,5,0,0,0,0,0,0,0
852260000,852180000,0.0041900305,0.03908863,0.062125552,9437927,0,0.39346698,0.4273203,0.0043068756,0.17247231,0.01870965,1.1754944e-38,0.0,0.0,0.0,0.0,1311004,1311004,6620172,197388,0,0,831,2,1,2,0,5,0,0,0,0,0,0,0
852460000,852380000,0.0036760555,0.045545552,0.0745784,9437927,0,0.3872766,0.42380908,0.011762653,0.15098238,0.015191031,1.1754944e-38,0.0,0.0,0.0,0.0,1311004,1311004,6620172,197388,0,0,831,2,1,2,0,5,0,0,0,0,0,0,0
852660000,852580000,0.0028632558,0.044243623,0.075216845,9437927,0,0.38178512,0.42351213,0.008682591,0.13585202,0.011609895,1.1754944e-38,0.0,0.0,0.0,0.0,1311004,1311004,6620172,197388,0,0,831,2,1,2,0,5,0,0,0,0,0,0,0
852860000,852780000,0.0021527063,0.037917636,0.06732379,9437927,0,0.37692228,0.42325845,0.011158862,0.10719743,0.010679089,1.1754944e-38,0.0,0.0,0.0,0.0,1311004,1311004,6620172,197388,0,0,831,2,1,2,0,5,0,0,0,0,0,0,0
853060000,852980000,0.00021207705,0.012557845,0.02867587,9437927,0,0.3950007,0.4259853,0.0076463586,0.10719743,0.010679089,1.1754944e-38,0.0,0.0,0.0,0.0,1311004,1311004,6620172,197388,0,0,831,2,1,2,0,5,0,0,0,0,0,0,0
853260000,853180000,0.0011637651,0.020148164,0.043482017,9437927,0,0.38879082,0.42561257,0.011816003,0.0827258,0.015261689,1.1754944e-38,0.0,0.0,0.0,0.0,1311004,1311004,6620172,197388,0,0,831,2,1,2,0,5,0,0,0,0,0,0,0
853460000,853380000,0.00075135817,0.020364791,0.04731456,9437927,0,0.38332582,0.42222503,0.016428811,0.055273633,0.013038498,1.1754944e-38,0.0,0.0,0.0,0.0,1311004,1311004,6620172,197388,0,0,831,2,1,2,0,5,0,0,0,0,0,0,0
853660000,853580000,0.00042972458,0.019871267,0.04711088,9437927,0,0.37846565,0.42204845,0.012033782,0.053841714,0.010358667,1.1754944e-38,0.0,0.0,0.0,0.0,1311004,1311004,6620172,197388,0,0,831,2,1,2,0,5,0,0,0,0,0,0,0
853860000,853780000,0.00035007225,0.0209163,0.046833158,9437927,0,0.37410972,0.41891336,0.021479534,0.049970802,0.008331809,1.1754944e-38,0.0,0.0,0.0,0.0,1311004,1311004,6620172,197388,0,0,831,2,1,2,0,5,0,0,0,0,0,0,0
854060000,853980000,0.00034196937,0.022143416,0.047421303,9437927,0,0.3701788,0.41891542,0.00980641,0.04835082,0.0085965665,1.1754944e-38,0.0,0.0,0.0,0.0,1311004,1311004,6620172,197388,0,0,831,2,1,2,0,5,0,0,0,0,0,0,0
854260000,854180000,3.65402e-05,0.015913768,0.033059325,9437927,0,0.38734964,0.42478198,0.0044978433,0.04835082,0.0085965665,1.1754944e-38,0.0,0.0,0.0,0.0,1311004,1311004,6620172,197388,0,0,831,2,1,2,0,5,0,0,0,0,0,0,0
854460000,854380000,0.0003870719,0.021156011,0.041848086,9437927,0,0.38206267,0.42152277,0.016092096,0.050649416,0.0062877582,1.1754944e-38,0.0,0.0,0.0,0.0,1311004,1311004,6620172,197388,0,0,831,2,1,2,0,5,0,0,0,0,0,0,0
854660000,854580000,3.728801e-05,0.01564553,0.031208703,9437927,0,0.40054438,0.42763612,0.011552218,0.050649416,0.0062877582,1.1754944e-38,0.0,0.0,0.0,0.0,1311004,1311004,6620172,197388,0,0,831,2,1,2,0,5,0,0,0,0,0,0,0
854860000,854780000,0.0004723755,0.023524847,0.04713998,9437927,0,0.39341146,0.4241302,0.021890609,0.07630429,0.008266697,1.1754944e-38,0.0,0.0,0.0,0.0,1311004,1311004,6620172,197388,0,0,831,2,1,2,0,5,0,0,0,0,0,0,0
855060000,854980000,0.0005026472,0.025726913,0.052007526,9437927,0,0.3871986,0.4238646,0.02044859,0.06655088,0.007244843,1.1754944e-38,0.0,0.0,0.0,0.0,1311004,1311004,6620172,197388,0,0,831,2,1,2,0,5,0,0,0,0,0,0,0
855260000,855180000,0.00046460115,0.025225742,0.051595725,9437927,0,0.38179055,0.4236583,0.01057885,0.06420562,0.007411851,1.1754944e-38,0.0,0.0,0.0,0.0,1311004,1311004,6620172,197388,0,0,831,2,1,2,0,5,0,0,0,0,0,0,0
855460000,855380000,0.00046090336,0.026143566,0.05308166,9437847,0,0.37690797,0.4204305,0.003255689,0.070844546,0.0069958223,1.1754944e-38,0.0,0.0,0.0,0.0,1311004,1311004,6620172,197388,0,0,831,2,1,2,0,5,0,0,0,0,0,0,0
855660000,855580000,0.00013536272,0.014018117,0.028069206,9437847,0,0.39473325,0.426492,0.015506486,0.070844546,0.0069958223,1.1754944e-38,0.0,0.0,0.0,0.0,1311004,1311004,6620172,197388,0,0,831,2,1,2,0,5,0,0,0,0,0,0,0
855860000,855780000,0.0007630865,0.0256754,0.040419485,9437847,0,0.38855165,0.42615327,0.00030154607,0.07624056,0.0063682143,0.0025749742,0.0,0.0,0.0,0.0,1311004,1311004,6620172,197388,0,0,831,2,1,2,0,5,0,0,0,0,0,0,0
856060000,855980000,0.0035820762,0.09381461,0.12155667,9437927,0,0.38294312,0.4227827,0.041642666,0.33626,0.014818951,1.1754944e-38,0.0,0.0,0.0,0.0,1311004,1311004,6620172,197388,0,0,831,2,1,2,0,5,0,0,0,0,0,0,0
856260000,856180000,0.0058349017,0.10663795,0.13043198,9437927,0,0.37817374,0.4225643,0.04471855,0.19349375,0.0068292613,0.0044111265,0.0,0.0,0.0,0.0,1311004,1311004,6620172,197388,0,0,831,2,1,2,0,5,0,0,0,0,0,0,0
856460000,856380000,0.008153276,0.12537074,0.13295352,9437927,0,0.3738646,0.42234173,0.02714959,0.23553602,0.0076939757,1.1754944e-38,0.0,0.0,0.0,0.0,1311004,1311004,6620172,197388,0,0,831,2,1,2,0,5,0,0,0,0,0,0,0
856660000,856580000,0.007649094,0.12855226,0.1286618,9437927,0,0.36997128,0.41908437,0.013787422,0.23700838,0.0076053096,1.1754944e-38,0.0,0.0,0.0,0.0,1311004,1311004,6620172,197388,0,0,831,2,1,2,0,5,0,0,0,0,0,0,0
856860000,856780000,0.00067362824,0.048509322,0.06076304,9437927,0,0.38817716,0.42395377,0.015883472,0.23700838,0.0076053096,0.005573356,0.0,0.0,0.0,0.0,1311004,1311004,6620172,197388,0,0,831,2,1,2,0,5,0,0,0,0,0,0,0
857060000,856980000,0.0048422595,0.073015966,0.09256024,9437927,0,0.38271308,0.42352358,0.02121313,0.19886038,0.019111637,0.002442745,0.0,0.0,0.0,0.0,1311004,1311004,6620172,197388,0,0,831,2,1,2,0,5,0,0,0,0,0,0,0
857260000,857180000,0.00035449874,0.027851546,0.04556579,9437927,0,0.40310743,0.4251359,0.022015266,0.19886038,0.019111637,0.012292826,0.0,0.0,0.0,0.0,1311004,1311004,6620172,197388,0,0,831,2,1,2,0,5,0,0,0,0,0,0,0
857460000,857380000,0.0027951486,0.06342722,0.106201425,9437927,0,0.39540038,0.42455268,0.030105611,0.16179425,0.025808213,0.004768367,0.0,0.0,0.0,0.0,1311004,1311004,6620172,197388,0,0,831,2,1,2,0,5,0,0,0,0,0,0,0
857660000,857580000,0.0017430759,0.06813194,0.12253707,9437927,0,0.3889212,0.4239967,0.038811788,0.16682997,0.01804758,0.0055693244,0.0,0.0,0.0,0.0,1311004,1311004,6620172,197388,0,0,831,2,1,2,0,5,0,0,0,0,0,0,0
857860000,857780000,0.000990508,0.06336191,0.11724648,9437927,0,0.38329235,0.4204048,0.035008833,0.14640775,0.016396664,0.008166539,0.0,0.0,0.0,0.0,1311004,1311004,6620172,197388,0,0,831,2,1,2,0,5,0,0,0,0,0,0,0
858060000,857980000,0.00078046904,0.059675988,0.105421305,9437927,0,0.37830234,0.41991115,0.022784632,0.14029424,0.015269883,0.0022270835,0.0,0.0,0.0,0.0,1311004,1311004,6620172,197388,0,0,831,2,1,2,0,5,0,0,0,0,0,0,0
858260000,858180000,9.27269e-05,0.034936715,0.05718953,9437927,0,0.39651635,0.42388383,0.017704671,0.14029424,0.015269883,0.0015970774,0.0,0.0,0.0,0.0,1311004,1311004,6620172,197388,0,0,831,2,1,2,0,5,0,0,0,0,0,0,0
858460000,858380000,0.00068463816,0.046871778,0.073140904,9437927,0,0.39009318,0.4202577,0.02186099,0.1049373,0.022462945,0.001604085,0.0,0.0,0.0,0.0,1311004,1311004,6620172,197388,0,0,831,2,1,2,0,5,0,0,0,0,0,0,0
858660000,858580000,0.00063519133,0.04817418,0.074528255,9437927,0,0.38445494,0.41975722,0.035268348,0.09074927,0.0200095,0.008051282,0.0,0.0,0.0,0.0,1311004,1311004,6620172,197388,0,0,831,2,1,2,0,5,0,0,0,0,0,0,0
858860000,858780000,0.0009991186,0.051132932,0.074400224,9437927,0,0.37945133,0.4163254,0.014139513,0.08745467,0.016869696,0.003425794,0.0,0.0,0.0,0.0,1311004,1311004,6620172,197388,0,0,831,2,1,2,0,5,0,0,0,0,0,0,0
859060000,858980000,0.0011071688,0.058102377,0.08202501,9437927,0,0.37498027,0.41593465,0.06626791,0.10949847,0.01770883,1.1754944e-38,0.0,0.0,0.0,0.0,1311004,1311004,6620172,197388,0,0,831,2,1,2,0,5,0,0,0,0,0,0,0
859260000,859180000,0.0011580951,0.05626943,0.079470016,9437927,0,0.3709731,0.4155969,0.053969085,0.09982812,0.013017417,0.00461954,0.0,0.0,0.0,0.0,1311004,1311004,6620172,197388,0,0,831,2,1,2,0,5,0,0,0,0,0,0,0
859460000,859380000,5.5638393e-05,0.03003494,0.04647085,9437927,0,0.3884954,0.4162977,0.042787656,0.09982812,0.013017417,0.0025652354,0.0,0.0,0.0,0.0,1311004,1311004,6620172,197388,0,0,831,2,1,2,0,5,0,0,0,0,0,0,0
859660000,859580000,0.0016866124,0.04414535,0.06316178,9437927,0,0.3830476,0.4159093,0.049125534,0.1206531,0.014257,0.0062865512,0.0,0.0,0.0,0.0,1311004,1311004,6620172,197388,0,0,831,2,1,2,0,5,0,0,0,0,0,0,0
859860000,859780000,5.695843e-05,0.025036437,0.039349724,9437927,0,0.4023559,0.419574,0.03626238,0.1206531,0.014257,0.0059969397,0.0,0.0,0.0,0.0,1311004,1311004,6620172,197388,0,0,831,2,1,2,0,5,0,0,0,0,0,0,0
860060000,859980000,0.0018998772,0.045962304,0.06879974,9437927,0,0.3948515,0.4161435,0.020322474,0.1309628,0.013039369,0.005740858,0.0,0.0,0.0,0.0,1311004,1311004,6620172,197388,0,0,831,2,1,2,0,5,0,0,0,0,0,0,0
860260000,860180000,0.001698074,0.049695753,0.07587653,9437927,0,0.38839924,0.4157325,0.029961295,0.11815586,0.012619395,0.0058268458,0.0,0.0,0.0,0.0,1311004,1311004,6620172,197388,0,0,831,2,1,2,0,5,0,0,0,0,0,0,0
860460000,860380000,0.001104517,0.043591376,0.06889512,9437927,0,0.3827634,0.4153508,0.0030315525,0.084965825,0.009627469,0.008872982,0.0,0.0,0.0,0.0,1311004,1311004,6620172,197388,0,0,831,2,1,2,0,5,0,0,0,0,0,0,0
860660000,860580000,0.0008752232,0.037425578,0.059523724,9437927,0,0.37777978,0.4121122,0.025179528,0.08714297,0.010369034,0.0040782923,0.0,0.0,0.0,0.0,1311004,1311004,6620172,197388,0,0,831,2,1,2,0,5,0,0,0,0,0,0,0
860860000,860780000,7.6244956e-05,0.016095204,0.029058035,9437927,0,0.39623293,0.41552827,0.018430294,0.08714297,0.010369034,0.008516086,0.0,0.0,0.0,0.0,1311004,1311004,6620172,197388,0,0,831,2,1,2,0,5,0,0,0,0,0,0,0
861060000,860980000,0.0005350685,0.019526124,0.035601985,9437927,0,0.38982007,0.41517195,0.023621347,0.09879463,0.00644076,0.010142696,0.0,0.0,0.0,0.0,1311004,1311004,6620172,197388,0,0,831,2,1,2,0,5,0,0,0,0,0,0,0
861260000,861180000,0.00046782548,0.018596917,0.033407334,9437927,0,0.38420883,0.411973,0.017538907,0.058299206,0.0063017886,0.008630263,0.0,0.0,0.0,0.0,1311004,1311004,6620172,197388,0,0,831,2,1,2,0,5,0,0,0,0,0,0,0
861460000,861380000,0.00021965861,0.013713254,0.028047042,9437927,0,0.37924376,0.41174024,0.020199908,0.066762805,0.006472203,0.013289681,0.0,0.0,0.0,0.0,1311004,1311004,6620172,197388,0,0,831,2,1,2,0,5,0,0,0,0,0,0,0
861660000,861580000,0.00024993363,0.010954253,0.023077223,9437927,0,0.3748096,0.40877414,0.011866202,0.05066112,0.0053740097,0.0118058715,0.0,0.0,0.0,0.0,1311004,1311004,6620172,197388,0,0,831,2,1,2,0,5,0,0,0,0,0,0,0
861860000,861780000,0.00015236967,0.007913448,0.01785322,9437927,0,0.37081945,0.40867978,0.009317365,0.061839264,0.00399916,0.006041365,0.0,0.0,0.0,0.0,1311004,1311004,6620172,197388,0,0,831,2,1,2,0,5,0,0,0,0,0,0,0
862060000,861980000,1.2644506e-05,0.0049311114,0.012815211,9437927,0,0.38859156,0.41232958,0.017256564,0.061839264,0.00399916,0.01429936,0.0,0.0,0.0,0.0,1311004,1311004,6620172,197388,0,0,831,2,1,2,0,5,0,0,0,0,0,0,0
862260000,862180000,0.0001428923,0.0047441567,0.014220359,9437927,0,0.3831308,0.40948653,0.02973857,0.06322223,0.0029771845,0.0120042935,0.0,0.0,0.0,0.0,1311004,1311004,6620172,197388,0,0,831,2,1,2,0,5,0,0,0,0,0,0,0
862460000,862380000,3.1960437e-05,0.0062728357,0.014798076,9437927,0,0.40252003,0.41352358,0.007619609,0.06322223,0.0029771845,0.010449671,0.0,0.0,0.0,0.0,1311004,1311004,6620172,197388,0,0,831,2,1,2,0,5,0,0,0,0,0,0,0
862660000,862580000,0.00012303122,0.005554984,0.015633257,9437927,0,0.395075,0.41069525,0.017917361,0.07183224,0.004403677,0.014871604,0.0,0.0,0.0,0.0,1311004,1311004,6620172,197388,0,0,831,2,1,2,0,5,0,0,0,0,0,0,0
862860000,862780000,0.00013839226,0.009009862,0.02350504,9437927,0,0.38866192,0.4107997,0.016074488,0.08360534,0.0018947729,0.014727446,0.0,0.0,0.0,0.0,1311004,1311004,6620172,197388,0,0,831,2,1,2,0,5,0,0,0,0,0,0,0
863060000,862980000,8.420617e-05,0.0073913503,0.01874167,9437847,0,0.383057,0.4109523,0.0030047062,0.06044392,0.0029227696,0.007747899,0.0,0.0,0.0,0.0,1311004,1311004,6620172,197388,0,0,831,2,1,2,0,5,0,0,0,0,0,0,0
863260000,863180000,7.895019e-05,0.008014105,0.021071935,9437847,0,0.37803218,0.4083475,0.0036670612,0.0623124,0.00095211325,0.0092697255,0.0,0.0,0.0,0.0,1311004,1311004,6620172,197388,0,0,831,2,1,2,0,5,0,0,0,0,0,0,0
863460000,863380000,2.729398e-05,0.005118722,0.011729348,9437847,0,0.39657995,0.41294834,0.0012928118,0.0623124,0.00095211325,0.013819825,0.0,0.0,0.0,0.0,1311004,1311004,6620172,197388,0,0,831,2,1,2,0,5,0,0,0,0,0,0,0
863660000,863580000,4.0427552e-05,0.008221245,0.018619552,9437847,0,0.39011836,0.4103276,0.013643448,0.07702866,0.0033423665,0.011828654,0.0,0.0,0.0,0.0,1311004,1311004,6620172,197388,0,0,831,2,1,2,0,5,0,0,0,0,0,0,0
863860000,863780000,0.00017512991,0.008910199,0.02110691,9437847,0,0.3844675,0.4106283,0.023618748,0.08413963,0.002770695,0.010160264,0.0,0.0,0.0,0.0,1311004,1311004,6620172,197388,0,0,831,2,1,2,0,5,0,0,0,0,0,0,0
864060000,863980000,7.763679e-05,0.009618537,0.024197396,9437847,0,0.3794692,0.408206,0.0038236494,0.070170656,0.0023416572,0.013224622,0.0,0.0,0.0,0.0,1311004,1311004,6620172,197388,0,0,831,2,1,2,0,5,0,0,0,0,0,0,0
864260000,864180000,2.5264882e-05,0.010945699,0.02591116,9437847,0,0.3750101,0.40865043,0.0067404592,0.07797947,0.0020243828,0.018318253,0.0,0.0,0.0,0.0,1311004,1311004,6620172,197388,0,0,831,2,1,2,0,5,0,0,0,0,0,0,0
864460000,864380000,0.00010755177,0.009212858,0.022095552,9437847,0,0.37100098,0.40911928,0.0075671864,0.06809371,0.0024905014,0.014562029,0.0,0.0,0.0,0.0,1311004,1311004,6620172,197388,0,0,831,2,1,2,0,5,0,0,0,0,0,0,0
864660000,864580000,0.0001346643,0.0044181272,0.009154061,9437847,0,0.38875374,0.4116115,0.01153917,0.06809371,0.0024905014,0.01605607,0.0,0.0,0.0,0.0,1311004,1311004,6620172,197388,0,0,831,2,1,2,0,5,0,0,0,0,0,0,0
864860000,864780000,2.2338481e-05,0.0062242653,0.013120916,9437847,0,0.38327998,0.41208076,0.013576738,0.07410608,0.0033993307,0.019255957,0.0,0.0,0.0,0.0,1311004,1311004,6620172,197388,0,0,831,2,1,2,0,5,0,0,0,0,0,0,0
865060000,864980000,2.2738985e-05,0.005228158,0.009781965,9437847,0,0.40244636,0.41501316,0.00525198,0.07410608,0.0033993307,0.017731017,0.0,0.0,0.0,0.0,1311004,1311004,6620172,197388,0,0,831,2,1,2,0,5,0,0,0,0,0,0,0
865260000,865180000,3.3137505e-05,0.0058710473,0.012736044,9437847,0,0.39506158,0.41536215,0.009739195,0.06874928,0.0028001412,0.018186944,0.0,0.0,0.0,0.0,1311004,1311004,6620172,197388,0,0,831,2,1,2,0,5,0,0,0,0,0,0,0
865460000,865380000,8.928649e-05,0.008375517,0.01800345,8389271,0,0.38859951,0.41572344,0.012199362,0.07531336,0.003733843,0.019070752,0.0,0.0,0.0,0.0,1311004,1311004,6620172,197388,0,0,831,2,1,2,0,5,0,0,0,0,0,0,0
865660000,865580000,5.6144894e-05,0.010546655,0.023716895,8389271,0,0.38301322,0.41323447,0.006221689,0.07178141,0.004635434,0.016179036,0.0,0.0,0.0,0.0,1311004,1311004,6620172,197388,0,0,831,2,1,2,0,5,0,0,0,0,0,0,0
865860000,865780000,9.103429e-05,0.010875379,0.02257293,8389271,0,0.37799624,0.413672,0.00077299884,0.05979517,0.0039172545,0.01576198,0.0,0.0,0.0,0.0,1311004,1311004,6620172,197388,0,0,831,2,1,2,0,5,0,0,0,0,0,0,0
866060000,865980000,8.559552e-05,0.0051845326,0.00970976,8389271,0,0.39623067,0.41686127,0.0036412566,0.05979517,0.0039172545,0.01613744,0.0,0.0,0.0,0.0,1311004,1311004,6620172,197388,0,0,831,2,1,2,0,5,0,0,0,0,0,0,0
866260000,866180000,6.116599e-05,0.0057358583,0.0110905785,8389271,0,0.38984498,0.4171596,0.00038001247,0.057620857,0.0052647777,0.017381903,0.0,0.0,0.0,0.0,1311004,1311004,6620172,197388,0,0,831,2,1,2,0,5,0,0,0,0,0,0,0
866460000,866380000,8.0560945e-05,0.005294752,0.011440447,8389271,0,0.38423878,0.4145551,0.0032043103,0.059864603,0.004837709,0.01066657,0.0,0.0,0.0,0.0,1311004,1311004,6620172,197388,0,0,831,2,1,2,0,5,0,0,0,0,0,0,0
866660000,866580000,7.2446586e-05,0.005964241,0.012670907,8389271,0,0.37926614,0.41494098,0.011068709,0.054034594,0.006068048,0.015448529,0.0,0.0,0.0,0.0,1311004,1311004,6620172,197388,0,0,831,2,1,2,0,5,0,0,0,0,0,0,0
866860000,866780000,6.061881e-05,0.005345458,0.0101779355,8389271,0,0.37481913,0.41534922,0.002120431,0.054411277,0.0052907337,0.015049367,0.0,0.0,0.0,0.0,1311004,1311004,6620172,197388,0,0,831,2,1,2,0,5,0,0,0,0,0,0,0
867060000,866980000,0.00012273974,0.0075513446,0.014707399,8389271,0,0.37081504,0.41287595,0.0031162412,0.069164485,0.006124364,0.007958121,0.0,0.0,0.0,0.0,1311004,1311004,6620172,197388,0,0,831,2,1,2,0,5,0,0,0,0,0,0,0
867260000,867180000,7.620119e-06,0.0035604786,0.008852301,8389271,0,0.38823467,0.41911983,0.0039904118,0.069164485,0.006124364,0.014995317,0.0,0.0,0.0,0.0,1311004,1311004,6620172,197388,0,0,831,2,1,2,0,5,0,0,0,0,0,0,0
867460000,867380000,7.117886e-05,0.0035513924,0.006593089,8389271,0,0.38283387,0.41639534,0.0025225612,0.05257223,0.0051684435,0.009113626,0.0,0.0,0.0,0.0,1311004,1311004,6620172,197388,0,0,831,2,1,2,0,5,0,0,0,0,0,0,0
867660000,867580000,2.4088187e-05,0.0057595535,0.01473043,8389271,0,0.40156716,0.42297214,0.010263277,0.05257223,0.0051684435,0.009494958,0.0,0.0,0.0,0.0,1311004,1311004,6620172,197388,0,0,831,2,1,2,0,5,0,0,0,0,0,0,0
867860000,867780000,4.4898476e-05,0.0015687324,0.0034784998,8389271,0,0.39427432,0.4199479,0.0026675307,0.05405357,0.0073111984,0.01998874,0.0,0.0,0.0,0.0,1311004,1311004,6620172,197388,0,0,831,2,1,2,0,5,0,0,0,0,0,0,0
868060000,867980000,5.553437e-05,0.0024321354,0.0055642664,8389271,0,0.38794187,0.42005694,0.005208537,0.031902853,0.0070889792,0.010981209,0.0,0.0,0.0,0.0,1311004,1311004,6620172,197388,0,0,831,2,1,2,0,5,0,0,0,0,0,0,0
868260000,868180000,0.000130367,0.0050843996,0.010238152,8389271,0,0.38237378,0.41722447,0.0032761418,0.029543662,0.006939382,0.0074001183,0.0,0.0,0.0,0.0,1311004,1311004,6620172,197388,0,0,831,2,1,2,0,5,0,0,0,0,0,0,0
868460000,868380000,0.00011915559,0.0039058034,0.009163446,8389271,0,0.37749267,0.41749462,0.016975561,0.025183942,0.005490999,0.013172856,0.0,0.0,0.0,0.0,1311004,1311004,6620172,197388,0,0,831,2,1,2,0,5,0,0,0,0,0,0,0
868660000,868580000,8.853038e-05,0.0056611286,0.014899769,8389271,0,0.39541605,0.4210311,0.014585608,0.025183942,0.005490999,0.007288344,0.0,0.0,0.0,0.0,1311004,1311004,6620172,197388,0,0,831,2,1,2,0,5,0,0,0,0,0,0,0
868860000,868780000,0.00016913956,0.002588656,0.008329933,8389271,0,0.38915133,0.42110014,0.035285216,0.036122095,0.0026474025,0.009210557,0.0,0.0,0.0,0.0,1311004,1311004,6620172,197388,0,0,831,2,1,2,0,5,0,0,0,0,0,0,0
869060000,868980000,8.296106e-05,0.004648552,0.014164142,8389271,0,0.38363314,0.421192,0.011974348,0.013018358,0.0028800075,0.007687306,0.0,0.0,0.0,0.0,1311004,1311004,6620172,197388,0,0,831,2,1,2,0,5,0,0,0,0,0,0,0
869260000,869180000,5.8026428e-05,0.0055189836,0.013979757,8389271,0,0.37872657,0.41829363,0.004912396,0.010193526,0.0030523452,0.008017076,0.0,0.0,0.0,0.0,1311004,1311004,6620172,197388,0,0,831,2,1,2,0,5,0,0,0,0,0,0,0
869460000,869380000,0.00014490714,0.0047269175,0.01163156,8389271,0,0.3743306,0.4184567,0.015633583,0.022097467,0.0025105076,0.006922386,0.0,0.0,0.0,0.0,1311004,1311004,6620172,197388,0,0,831,2,1,2,0,5,0,0,0,0,0,0,0
869660000,869580000,0.00011697059,0.0049873115,0.013168697,8389271,0,0.3703673,0.418636,0.017824398,0.0140747335,0.000793645,0.008340707,0.0,0.0,0.0,0.0,1311004,1311004,6620172,197388,0,0,831,2,1,2,0,5,0,0,0,0,0,0,0
869860000,869780000,4.9435534e-05,0.005897546,0.01630931,8389271,0,0.38762778,0.42194527,0.006785015,0.0140747335,0.000793645,0.009277195,0.0,0.0,0.0,0.0,1311004,1311004,6620172,197388,0,0,831,2,1,2,0,5,0,0,0,0,0,0,0
870060000,869980000,9.926202e-05,0.007367519,0.01964099,8389271,0,0.3823012,0.42190984,0.0050657038,0.013240256,0.0010027045,0.010112276,0.0,0.0,0.0,0.0,1311004,1311004,6620172,197388,0,0,831,2,1,2,0,5,0,0,0,0,0,0,0
870260000,870180000,6.37816e-05,0.006725335,0.018120578,8389271,0,0.40089974,0.42849597,0.008462297,0.013240256,0.0010027045,0.018268365,0.0,0.0,0.0,0.0,1311004,1311004,6620172,197388,0,0,831,2,1,2,0,5,0,0,0,0,0,0,0
870460000,870380000,0.00011863244,0.008116406,0.019328358,8389271,0,0.39370736,0.4249819,0.0021218613,0.017854584,0.0013540769,0.005941515,0.0,0.0,0.0,0.0,1311004,1311004,6620172,197388,0,0,831,2,1,2,0,5,0,0,0,0,0,0,0
870660000,870580000,0.00013633064,0.0099492585,0.024542132,8389271,0,0.3874506,0.4247252,0.0091303475,0.015632033,0.0020171213,0.004261076,0.0,0.0,0.0,0.0,1311004,1311004,6620172,197388,0,0,831,2,1,2,0,5,0,0,0,0,0,0,0
870860000,870780000,0.00014480561,0.006889094,0.016113559,8389271,0,0.38194165,0.42452487,0.0108385915,0.013585434,0.00061780156,0.014484286,0.0,0.0,0.0,0.0,1311004,1311004,6620172,197388,0,0,831,2,1,2,0,5,0,0,0,0,0,0,0
871060000,870980000,0.000115086266,0.009316807,0.023316117,8389271,0,0.37710828,0.42134273,0.0029549184,0.020500325,0.0009005203,0.002994203,0.0,0.0,0.0,0.0,1311004,1311004,6620172,197388,0,0,831,2,1,2,0,5,0,0,0,0,0,0,0
871260000,871180000,2.7875658e-05,0.006094009,0.016479254,8389271,0,0.3949952,0.42772096,0.0020185185,0.020500325,0.0009005203,0.010060269,0.0,0.0,0.0,0.0,1311004,1311004,6620172,197388,0,0,831,2,1,2,0,5,0,0,0,0,0,0,0
871460000,871380000,0.00016125415,0.0083816,0.021987261,8389271,0,0.38878465,0.4273999,0.008481808,0.02564639,0.0033433102,0.008838896,0.0,0.0,0.0,0.0,1311004,1311004,6620172,197388,0,0,831,2,1,2,0,5,0,0,0,0,0,0,0
871660000,871580000,0.00014738612,0.008237649,0.021708883,8389271,0,0.38331205,0.42400384,0.011673507,0.018732581,0.0025420354,0.000609345,0.0,0.0,0.0,0.0,1311004,1311004,6620172,197388,0,0,831,2,1,2,0,5,0,0,0,0,0,0,0
871860000,871780000,0.00025311447,0.0089598615,0.020529192,8389271,0,0.37844342,0.4238138,0.009470463,0.03823014,0.0037942044,0.0027664239,0.0,0.0,0.0,0.0,1311004,1311004,6620172,197388,0,0,831,2,1,2,0,5,0,0,0,0,0,0,0
872060000,871980000,0.00023034615,0.009369305,0.02109585,8389271,0,0.37408015,0.42064652,0.014195788,0.03515196,0.0038550321,0.0008673603,0.0,0.0,0.0,0.0,1311004,1311004,6620172,197388,0,0,831,2,1,2,0,5,0,0,0,0,0,0,0
872260000,872180000,0.00021691379,0.009253451,0.02303647,8389271,0,0.37014613,0.42060363,0.0047065793,0.026903853,0.0033226307,0.0025753572,0.0,0.0,0.0,0.0,1311004,1311004,6620172,197388,0,0,831,2,1,2,0,5,0,0,0,0,0,0,0
872460000,872380000,0.00010232882,0.0042207805,0.013447232,8389271,0,0.38743135,0.42678964,0.021307267,0.026903853,0.0033226307,0.005437315,0.0,0.0,0.0,0.0,1311004,1311004,6620172,197388,0,0,831,2,1,2,0,5,0,0,0,0,0,0,0
872660000,872580000,0.00021754812,0.0077418606,0.01943639,8389271,0,0.38212875,0.42341146,0.010829695,0.03324575,0.0025103053,0.0022132006,0.0,0.0,0.0,0.0,1311004,1311004,6620172,197388,0,0,831,2,1,2,0,5,0,0,0,0,0,0,0
872860000,872780000,2.2399836e-05,0.0034901362,0.010433125,8389271,0,0.40076557,0.42977014,0.005139914,0.03324575,0.0025103053,0.0059841876,0.0,0.0,0.0,0.0,1311004,1311004,6620172,197388,0,0,831,2,1,2,0,5,0,0,0,0,0,0,0
873060000,872980000,0.00018114584,0.004662823,0.010826416,8389271,0,0.39358756,0.42925486,0.01145359,0.024828222,0.007038683,0.003130389,0.0,0.0,0.0,0.0,1311004,1311004,6620172,197388,0,0,831,2,1,2,0,5,0,0,0,0,0,0,0
873260000,873180000,0.0002288292,0.0075710807,0.017523417,8389271,0,0.38734436,0.42563516,0.0011911946,0.03629839,0.0063508153,0.0022199522,0.0,0.0,0.0,0.0,1311004,1311004,6620172,197388,0,0,831,2,1,2,0,5,0,0,0,0,0,0,0
873460000,873380000,0.00016276883,0.006779348,0.01645567,8389271,0,0.38184822,0.42528623,0.005870336,0.0215474,0.004902945,0.003316698,0.0,0.0,0.0,0.0,1311004,1311004,6620172,197388,0,0,831,2,1,2,0,5,0,0,0,0,0,0,0
873660000,873580000,0.00019502403,0.007317151,0.016761562,8389271,0,0.37696245,0.42500007,0.0065899766,0.03511022,0.0045275725,0.0048972704,0.0,0.0,0.0,0.0,1311004,1311004,6620172,197388,0,0,831,2,1,2,0,5,0,0,0,0,0,0,0
873860000,873780000,4.0664887e-05,0.0019666567,0.005762959,8389271,0,0.39487457,0.42802835,0.011069612,0.03511022,0.0045275725,0.0008541554,0.0,0.0,0.0,0.0,1311004,1311004,6620172,197388,0,0,831,2,1,2,0,5,0,0,0,0,0,0,0
874060000,873980000,0.00018864828,0.0057179164,0.014043243,8389271,0,0.3886783,0.42756537,0.00057849655,0.03268666,0.0068203057,0.0048803184,0.0,0.0,0.0,0.0,1311004,1311004,6620172,197388,0,0,831,2,1,2,0,5,0,0,0,0,0,0,0
874260000,874180000,0.00016743921,0.0069223573,0.018031022,8389271,0,0.3832189,0.42717522,0.0013257591,0.03276618,0.007748347,2.8562352e-05,0.0,0.0,0.0,0.0,1311004,1311004,6620172,197388,0,0,831,2,1,2,0,5,0,0,0,0,0,0,0
874460000,874380000,0.00018368315,0.0049532913,0.01146719,8389271,0,0.37836295,0.42371216,0.014386134,0.034210026,0.0064757713,0.004249784,0.0,0.0,0.0,0.0,1311004,1311004,6620172,197388,0,0,831,2,1,2,0,5,0,0,0,0,0,0,0
874660000,874580000,0.00013870066,0.0050098207,0.012329729,8389271,0,0.3740097,0.4234641,6.6989276e-05,0.023759253,0.0064747077,0.0046819253,0.0,0.0,0.0,0.0,1311004,1311004,6620172,197388,0,0,831,2,1,2,0,5,0,0,0,0,0,0,0
874860000,874780000,7.765585e-05,0.0033743477,0.009830441,8389271,0,0.37008393,0.423271,0.0020209649,0.011813175,0.009228213,0.002066706,0.0,0.0,0.0,0.0,1311004,1311004,6620172,197388,0,0,831,2,1,2,0,5,0,0,0,0,0,0,0
875060000,874980000,1.2148254e-05,0.0025128725,0.006802843,8389271,0,0.3873933,0.4261494,0.013528983,0.011813175,0.009228213,0.0005339905,0.0,0.0,0.0,0.0,1311004,1311004,6620172,197388,0,0,831,2,1,2,0,5,0,0,0,0,0,0,0
875260000,875180000,0.00029016743,0.006129443,0.012299585,8389271,0,0.3820947,0.42578113,0.014581202,0.051439133,0.010990963,0.0022546572,0.0,0.0,0.0,0.0,1311004,1311004,6620172,197388,0,0,831,2,1,2,0,5,0,0,0,0,0,0,0
875460000,875380000,2.1111651e-05,0.0013139743,0.0053648604,8389271,0,0.40075612,0.43204182,0.00604602,0.051439133,0.010990963,0.0023953766,0.0,0.0,0.0,0.0,1311004,1311004,6620172,197388,0,0,831,2,1,2,0,5,0,0,0,0,0,0,0
875660000,875580000,0.0004059569,0.01135235,0.020459361,8389271,0,0.39357248,0.42817593,0.0026769221,0.06942122,0.014941291,0.0019263827,0.0,0.0,0.0,0.0,1311004,1311004,6620172,197388,0,0,831,2,1,2,0,5,0,0,0,0,0,0,0
875860000,875780000,0.00044746266,0.01606051,0.028412063,8389271,0,0.38732496,0.42766884,0.011421639,0.07134615,0.0125310095,0.00083604746,0.0,0.0,0.0,0.0,1311004,1311004,6620172,197388,0,0,831,2,1,2,0,5,0,0,0,0,0,0,0
876060000,875980000,0.00032825125,0.014111777,0.02738048,8389271,0,0.38189805,0.42412394,0.008715704,0.056829832,0.0071108723,0.004209818,0.0,0.0,0.0,0.0,1311004,1311004,6620172,197388,0,0,831,2,1,2,0,5,0,0,0,0,0,0,0
876260000,876180000,0.00028313475,0.011160621,0.021794898,8389271,0,0.37700728,0.42380792,0.0014999708,0.047936644,0.0077472343,0.005587138,0.0,0.0,0.0,0.0,1311004,1311004,6620172,197388,0,0,831,2,1,2,0,5,0,0,0,0,0,0,0
876460000,876380000,6.9004695e-05,0.0007193697,0.0036116655,8389351,0,0.394946,0.42989135,0.028485153,0.047936644,0.0077472343,0.0028385976,0.0,0.0,0.0,0.0,1311004,1311004,6620172,197388,0,0,831,2,1,2,0,5,0,0,0,0,0,0,0
876660000,876580000,0.0001597166,0.0035820003,0.0103904605,8389351,0,0.3887049,0.42618078,0.0069878865,0.026101535,0.008239038,0.005333723,0.0,0.0,0.0,0.0,1311004,1311004,6620172,197388,0,0,831,2,1,2,0,5,0,0,0,0,0,0,0
876860000,876780000,4.9995444e-05,0.0051947557,0.011712462,8389351,0,0.3832211,0.42576635,0.021276115,0.0215082,0.0060761827,0.0029876814,0.0,0.0,0.0,0.0,1311004,1311004,6620172,197388,0,0,831,2,1,2,0,5,0,0,0,0,0,0,0
877060000,876980000,0.00013966691,0.0072473963,0.015299147,8389351,0,0.37835717,0.42541668,0.015112546,0.02161911,0.006014869,0.003672564,0.0,0.0,0.0,0.0,1311004,1311004,6620172,197388,0,0,831,2,1,2,0,5,0,0,0,0,0,0,0
877260000,877180000,0.00016888592,0.008080067,0.01440919,8389351,0,0.37399715,0.42201623,0.008746817,0.022482062,0.0048588435,0.00081709743,0.0,0.0,0.0,0.0,1311004,1311004,6620172,197388,0,0,831,2,1,2,0,5,0,0,0,0,0,0,0
877460000,877380000,8.410797e-05,0.008483174,0.015535733,8389351,0,0.37006924,0.42179546,0.00746933,0.0094100665,0.003481929,0.0002553555,0.0,0.0,0.0,0.0,1311004,1311004,6620172,197388,0,0,831,2,1,2,0,5,0,0,0,0,0,0,0
877660000,877580000,5.9994458e-05,0.007245883,0.014717814,8389351,0,0.38737747,0.42766055,0.027257834,0.0094100665,0.003481929,0.0034065763,0.0,0.0,0.0,0.0,1311004,1311004,6620172,197388,0,0,831,2,1,2,0,5,0,0,0,0,0,0,0
877860000,877780000,5.518181e-05,0.007343338,0.0148896845,8389351,0,0.38200843,0.4241431,0.010098772,0.027490575,0.0028341305,0.00022330502,0.0,0.0,0.0,0.0,1311004,1311004,6620172,197388,0,0,831,2,1,2,0,5,0,0,0,0,0,0,0
878060000,877980000,5.4796594e-05,0.006084948,0.012707758,8389351,0,0.4006237,0.43022862,0.013483383,0.027490575,0.0028341305,0.0032296604,0.0,0.0,0.0,0.0,1311004,1311004,6620172,197388,0,0,831,2,1,2,0,5,0,0,0,0,0,0,0
878260000,878180000,0.0001192591,0.008368134,0.016562963,8389351,0,0.39346293,0.4264757,0.025058724,0.01752633,0.0006286148,0.0061125574,0.0,0.0,0.0,0.0,1311004,1311004,6620172,197388,0,0,831,2,1,2,0,5,0,0,0,0,0,0,0
878460000,878380000,0.00015807129,0.00983154,0.019389704,8389351,0,0.3872358,0.4260336,0.014888719,0.023527864,0.00013364723,0.0006880754,0.0,0.0,0.0,0.0,1311004,1311004,6620172,197388,0,0,831,2,1,2,0,5,0,0,0,0,0,0,0
878660000,878580000,0.00016180454,0.011056206,0.021108037,8389351,0,0.38175339,0.42565262,0.03410305,0.026113158,0.0021611825,0.0050398344,0.0,0.0,0.0,0.0,1311004,1311004,6620172,197388,0,0,831,2,1,2,0,5,0,0,0,0,0,0,0
878860000,878780000,0.00020538653,0.014887949,0.0258993,8389351,0,0.3768871,0.42227286,0.009300459,0.037944227,0.003508492,0.007671794,0.0,0.0,0.0,0.0,1311004,1311004,6620172,197388,0,0,831,2,1,2,0,5,0,0,0,0,0,0,0
879060000,878980000,3.5886074e-05,0.009175576,0.015884688,8389351,0,0.3946683,0.4282649,0.023805112,0.037944227,0.003508492,0.0021584465,0.0,0.0,0.0,0.0,1311004,1311004,6620172,197388,0,0,831,2,1,2,0,5,0,0,0,0,0,0,0
879260000,879180000,0.0003198705,0.015296397,0.027906489,8389351,0,0.38850516,0.42783695,0.0126181515,0.061256215,0.008352693,0.005215648,0.0,0.0,0.0,0.0,1311004,1311004,6620172,197388,0,0,831,2,1,2,0,5,0,0,0,0,0,0,0
879460000,879380000,0.0002985543,0.016575564,0.03180593,8389351,0,0.3830671,0.42433852,0.017274369,0.05287991,0.0063021695,0.0032786503,0.0,0.0,0.0,0.0,1311004,1311004,6620172,197388,0,0,831,2,1,2,0,5,0,0,0,0,0,0,0
879660000,879580000,0.00018678028,0.010809494,0.024581868,8389351,0,0.37821752,0.4240833,0.043148186,0.026876232,0.00662059,0.00027699716,0.0,0.0,0.0,0.0,1311004,1311004,6620172,197388,0,0,831,2,1,2,0,5,0,0,0,0,0,0,0
879860000,879780000,0.0001843774,0.009675731,0.02129121,9437927,0,0.3738799,0.4208603,0.014166031,0.023554662,0.0070842104,1.1754944e-38,0.0,0.0,0.0,0.0,1311004,1311004,6620172,197388,0,0,831,2,1,2,0,5,0,0,0,0,0,0,0
880060000,879980000,0.00024111876,0.010938783,0.020760357,9437847,0,0.36995837,0.42078996,0.015698912,0.030324703,0.0063236034,1.1754944e-38,0.0,0.0,0.0,0.0,1311004,1311004,6620172,197388,0,0,831,2,1,2,0,5,0,0,0,0,0,0,0
880260000,880180000,1.8214238e-05,0.0051772706,0.009204958,9437847,0,0.38693458,0.42361537,0.008024276,0.030324703,0.0063236034,1.1754944e-38,0.0,0.0,0.0,0.0,1311004,1311004,6620172,197388,0,0,831,2,1,2,0,5,0,0,0,0,0,0,0
880460000,880380000,0.00031670398,0.009531115,0.018392643,9437927,0,0.3816765,0.42338133,0.010112953,0.04173462,0.009003773,1.1754944e-38,0.0,0.0,0.0,0.0,1311004,1311004,6620172,197388,0,0,831,2,1,2,0,5,0,0,0,0,0,0,0
880660000,880580000,3.4285218e-05,0.0027729564,0.0071879732,9437927,0,0.3998971,0.42954567,0.00802069,0.04173462,0.009003773,1.1754944e-38,0.0,0.0,0.0,0.0,1311004,1311004,6620172,197388,0,0,831,2,1,2,0,5,0,0,0,0,0,0,0
880860000,880780000,0.0006139492,0.012964133,0.025470797,9437927,0,0.39280605,0.42586467,0.014312601,0.06018107,0.010862418,1.1754944e-38,0.0,0.0,0.0,0.0,1311004,1311004,6620172,197388,0,0,831,2,1,2,0,5,0,0,0,0,0,0,0
881060000,880980000,0.00059148244,0.013797137,0.026660923,9437927,0,0.38663036,0.42547244,0.0624927,0.047840077,0.009820753,1.1754944e-38,0.0,0.0,0.0,0.0,1311004,1311004,6620172,197388,0,0,831,2,1,2,0,5,0,0,0,0,0,0,0
881260000,881180000,0.0003651699,0.01219677,0.023669178,9437927,0,0.38126054,0.4251545,0.008152593,0.04374231,0.008710865,1.1754944e-38,0.0,0.0,0.0,0.0,1311004,1311004,6620172,197388,0,0,831,2,1,2,0,5,0,0,0,0,0,0,0
881460000,881380000,0.00014335565,0.008407611,0.01899694,9437927,0,0.37641588,0.42178237,0.05618024,0.02421364,0.010073117,0.004179868,0.0,0.0,0.0,0.0,1311004,1311004,6620172,197388,0,0,831,2,1,2,0,5,0,0,0,0,0,0,0
881660000,881580000,2.9521452e-05,0.0024351066,0.0068653277,9437927,0,0.39411342,0.4278175,0.021214962,0.02421364,0.010073117,1.1754944e-38,0.0,0.0,0.0,0.0,1311004,1311004,6620172,197388,0,0,831,2,1,2,0,5,0,0,0,0,0,0,0
881860000,881780000,0.00029822608,0.0050752447,0.010471432,9437927,0,0.38799754,0.4274236,0.0065869824,0.03821023,0.009999288,1.1754944e-38,0.0,0.0,0.0,0.0,1311004,1311004,6620172,197388,0,0,831,2,1,2,0,5,0,0,0,0,0,0,0
882060000,881980000,0.00024010758,0.0066589136,0.014153497,9437927,0,0.38260272,0.42395997,0.01622701,0.038578898,0.009870361,1.1754944e-38,0.0,0.0,0.0,0.0,1311004,1311004,6620172,197388,0,0,831,2,1,2,0,5,0,0,0,0,0,0,0
882260000,882180000,7.4531745e-05,0.0054318723,0.013919444,9437927,0,0.37779975,0.42371663,0.013532474,0.026195765,0.007179093,1.1754944e-38,0.0,0.0,0.0,0.0,1311004,1311004,6620172,197388,0,0,831,2,1,2,0,5,0,0,0,0,0,0,0
882460000,882380000,7.17085e-05,0.002416138,0.006938035,9437927,0,0.37349123,0.4235194,0.026244104,0.017234795,0.0066356594,1.1754944e-38,0.0,0.0,0.0,0.0,1311004,1311004,6620172,197388,0,0,831,2,1,2,0,5,0,0,0,0,0,0,0
882660000,882580000,2.9058652e-05,0.0029423502,0.0045148605,9437927,0,0.36960807,0.4203184,0.034823846,0.01044925,0.005641717,1.1754944e-38,0.0,0.0,0.0,0.0,1311004,1311004,6620172,197388,0,0,831,2,1,2,0,5,0,0,0,0,0,0,0
882860000,882780000,7.673549e-05,0.004612413,0.009363629,9437927,0,0.38672042,0.42625996,0.010921737,0.01044925,0.005641717,1.1754944e-38,0.0,0.0,0.0,0.0,1311004,1311004,6620172,197388,0,0,831,2,1,2,0,5,0,0,0,0,0,0,0
883060000,882980000,6.2722735e-05,0.003774036,0.007821006,9437927,0,0.38149217,0.42284164,0.026346477,0.01835679,0.006767063,1.1754944e-38,0.0,0.0,0.0,0.0,1311004,1311004,6620172,197388,0,0,831,2,1,2,0,5,0,0,0,0,0,0,0
883260000,883180000,9.647134e-06,0.004161798,0.00935015,9437927,0,0.39990965,0.42903355,0.015542763,0.01835679,0.006767063,1.1754944e-38,0.0,0.0,0.0,0.0,1311004,1311004,6620172,197388,0,0,831,2,1,2,0,5,0,0,0,0,0,0,0
