timestamp,roll_body,pitch_body,yaw_body,yaw_sp_move_rate,q_d[0],q_d[1],q_d[2],q_d[3],thrust_body[0],thrust_body[1],thrust_body[2],roll_reset_integral,pitch_reset_integral,yaw_reset_integral,fw_control_yaw,apply_flaps
829260000,-0.0,-0.0,-1.1102947,0.0,0.8498228,-0.0,0.0,-0.5270685,0.0,0.0,-0.001,0,0,0,0,0
829268000,-0.0,-0.0,-1.1103318,0.0,0.849813,-0.0,0.0,-0.5270843,0.0,0.0,-0.001,0,0,0,0,0
829316000,-0.0,-0.0,-1.1103095,0.0,0.8498189,-0.0,0.0,-0.5270749,0.0,0.0,-0.001,0,0,0,0,0
829356000,-0.0,-0.0,-1.1102929,0.0,0.84982324,-0.0,0.0,-0.5270678,0.0,0.0,-0.001,0,0,0,0,0
829412000,-0.0,-0.0,-1.1104352,0.0,0.84978575,-0.0,0.0,-0.5271283,0.0,0.0,-0.001,0,0,0,0,0
829460000,-0.0,-0.0,-1.1104568,0.0,0.84978,-0.0,0.0,-0.52713746,0.0,0.0,-0.001,0,0,0,0,0
829516000,-0.0,-0.0,-1.110493,0.0,0.84977055,-0.0,0.0,-0.5271527,0.0,0.0,-0.001,0,0,0,0,0
829556000,-0.0,-0.0,-1.1104333,0.0,0.8497863,-0.0,0.0,-0.52712744,0.0,0.0,-0.001,0,0,0,0,0
829612000,-0.0,-0.0,-1.1104183,0.0,0.8497902,-0.0,0.0,-0.52712107,0.0,0.0,-0.001,0,0,0,0,0
829660000,-0.0,-0.0,-1.1105113,0.0,0.8497657,-0.0,0.0,-0.5271605,0.0,0.0,-0.001,0,0,0,0,0
829708000,-0.0,-0.0,-1.1104814,0.0,0.8497736,-0.0,0.0,-0.5271478,0.0,0.0,-0.001,0,0,0,0,0
829756000,-0.0,-0.0,-1.1104171,0.0,0.8497905,-0.0,0.0,-0.52712053,0.0,0.0,-0.001,0,0,0,0,0
829812000,-0.0,-0.0,-1.1103439,0.0,0.8498098,-0.0,0.0,-0.5270894,0.0,0.0,-0.001,0,0,0,0,0
829860000,-0.0,-0.0,-1.1104666,0.0,0.84977746,-0.0,0.0,-0.5271416,0.0,0.0,-0.001,0,0,0,0,0
829916000,-0.0,-0.0,-1.1103454,0.0,0.8498094,-0.0,0.0,-0.5270901,0.0,0.0,-0.001,0,0,0,0,0
829956000,-0.0,-0.0,-1.1102941,0.0,0.84982294,-0.0,0.0,-0.5270683,0.0,0.0,-0.001,0,0,0,0,0
830012000,-0.0,-0.0,-1.1103096,0.0,0.8498189,-0.0,0.0,-0.52707493,0.0,0.0,-0.001,0,0,0,0,0
830060000,-0.0,-0.0,-1.110332,0.0,0.849813,-0.0,0.0,-0.5270844,0.0,0.0,-0.001,0,0,0,0,0
830116000,-0.0,-0.0,-1.110373,0.0,0.84980214,-0.0,0.0,-0.5271018,0.0,0.0,-0.001,0,0,0,0,0
830156000,-0.0,-0.0,-1.1103745,0.0,0.8498018,-0.0,0.0,-0.5271024,0.0,0.0,-0.001,0,0,0,0,0
830212000,-0.0,-0.0,-1.1104072,0.0,0.84979314,-0.0,0.0,-0.5271164,0.0,0.0,-0.001,0,0,0,0,0
830260000,-0.0,-0.0,-1.1103342,0.0,0.8498124,-0.0,0.0,-0.5270853,0.0,0.0,-0.001,0,0,0,0,0
830308000,-0.0,-0.0,-1.1103617,0.0,0.8498051,-0.0,0.0,-0.52709705,0.0,0.0,-0.001,0,0,0,0,0
830356000,-0.0,-0.0,-1.1102967,0.0,0.8498223,-0.0,0.0,-0.5270694,0.0,0.0,-0.001,0,0,0,0,0
830412000,-0.0,-0.0,-1.1103077,0.0,0.84981936,-0.0,0.0,-0.52707404,0.0,0.0,-0.001,0,0,0,0,0
830460000,-0.0,-0.0,-1.1102619,0.0,0.8498314,-0.0,0.0,-0.5270546,0.0,0.0,-0.001,0,0,0,0,0
830508000,-0.0,-0.0,-1.1102947,0.0,0.8498228,-0.0,0.0,-0.5270685,0.0,0.0,-0.001,0,0,0,0,0
830564000,-0.0,-0.0,-1.1103349,0.0,0.8498122,-0.0,0.0,-0.5270856,0.0,0.0,-0.001,0,0,0,0,0
830612000,-0.0,-0.0,-1.110262,0.0,0.8498314,-0.0,0.0,-0.5270546,0.0,0.0,-0.001,0,0,0,0,0
830660000,-0.0,-0.0,-1.1103154,0.0,0.84981734,-0.0,0.0,-0.5270773,0.0,0.0,-0.001,0,0,0,0,0
830708000,-0.0,-0.0,-1.1103053,0.0,0.84982,-0.0,0.0,-0.527073,0.0,0.0,-0.001,0,0,0,0,0
830756000,-0.0,-0.0,-1.1102078,0.0,0.8498457,-0.0,0.0,-0.52703166,0.0,0.0,-0.001,0,0,0,0,0
830812000,-0.0,-0.0,-1.1101508,0.0,0.8498607,-0.0,0.0,-0.52700734,0.0,0.0,-0.001,0,0,0,0,0
830860000,-0.0,-0.0,-1.110033,0.0,0.8498917,-0.0,0.0,-0.52695733,0.0,0.0,-0.001,0,0,0,0,0
830908000,-0.0,-0.0,-1.110016,0.0,0.84989625,-0.0,0.0,-0.52695006,0.0,0.0,-0.001,0,0,0,0,0
830956000,-0.0,-0.0,-1.1100351,0.0,0.8498912,-0.0,0.0,-0.5269582,0.0,0.0,-0.001,0,0,0,0,0
831012000,-0.0,-0.0,-1.1100397,0.0,0.84989,-0.0,0.0,-0.5269602,0.0,0.0,-0.001,0,0,0,0,0
831060000,-0.0,-0.0,-1.1101229,0.0,0.84986806,-0.0,0.0,-0.5269956,0.0,0.0,-0.001,0,0,0,0,0
831108000,-0.0,-0.0,-1.1101937,0.0,0.8498494,-0.0,0.0,-0.52702564,0.0,0.0,-0.001,0,0,0,0,0
831156000,-0.0,-0.0,-1.1101928,0.0,0.84984964,-0.0,0.0,-0.5270252,0.0,0.0,-0.001,0,0,0,0,0
831212000,-0.0,-0.0,-1.1103122,0.0,0.84981817,-0.0,0.0,-0.52707595,0.0,0.0,-0.001,0,0,0,0,0
831260000,-0.0,-0.0,-1.1103177,0.0,0.84981674,-0.0,0.0,-0.52707833,0.0,0.0,-0.001,0,0,0,0,0
831308000,-0.0,-0.0,-1.1103048,0.0,0.8498201,-0.0,0.0,-0.52707285,0.0,0.0,-0.001,0,0,0,0,0
831356000,-0.0,-0.0,-1.1102145,0.0,0.8498439,-0.0,0.0,-0.52703446,0.0,0.0,-0.001,0,0,0,0,0
831412000,-0.0,-0.0,-1.1101575,0.0,0.84985894,-0.0,0.0,-0.5270103,0.0,0.0,-0.001,0,0,0,0,0
831460000,-0.0,-0.0,-1.1100439,0.0,0.8498889,-0.0,0.0,-0.5269619,0.0,0.0,-0.001,0,0,0,0,0
831516000,-0.0,-0.0,-1.1099267,0.0,0.84991974,-0.0,0.0,-0.52691215,0.0,0.0,-0.001,0,0,0,0,0
831564000,-0.0,-0.0,-1.1098971,0.0,0.84992754,-0.0,0.0,-0.5268996,0.0,0.0,-0.001,0,0,0,0,0
831612000,-0.0,-0.0,-1.1099069,0.0,0.8499249,-0.0,0.0,-0.52690375,0.0,0.0,-0.001,0,0,0,0,0
831660000,-0.0,-0.0,-1.1099107,0.0,0.84992397,-0.0,0.0,-0.5269054,0.0,0.0,-0.001,0,0,0,0,0
831708000,-0.0,-0.0,-1.1099644,0.0,0.84990984,-0.0,0.0,-0.5269281,0.0,0.0,-0.001,0,0,0,0,0
831756000,-0.0,-0.0,-1.1099316,0.0,0.8499185,-0.0,0.0,-0.52691424,0.0,0.0,-0.001,0,0,0,0,0
831812000,-0.0,-0.0,-1.1098739,0.0,0.8499337,-0.0,0.0,-0.5268897,0.0,0.0,-0.001,0,0,0,0,0
831860000,-0.0,-0.0,-1.1097137,0.0,0.8499759,-0.0,0.0,-0.5268217,0.0,0.0,-0.001,0,0,0,0,0
831916000,-0.0,-0.0,-1.1097212,0.0,0.8499739,-0.0,0.0,-0.5268248,0.0,0.0,-0.001,0,0,0,0,0
831964000,-0.0,-0.0,-1.109704,0.0,0.84997845,-0.0,0.0,-0.5268175,0.0,0.0,-0.001,0,0,0,0,0
832012000,-0.0,-0.0,-1.1097434,0.0,0.8499681,-0.0,0.0,-0.52683425,0.0,0.0,-0.001,0,0,0,0,0
832060000,-0.0,-0.0,-1.1097233,0.0,0.8499733,-0.0,0.0,-0.5268257,0.0,0.0,-0.001,0,0,0,0,0
832116000,-0.0,-0.0,-1.1097195,0.0,0.84997433,-0.0,0.0,-0.5268242,0.0,0.0,-0.001,0,0,0,0,0
832156000,-0.0,-0.0,-1.1097109,0.0,0.8499766,-0.0,0.0,-0.5268204,0.0,0.0,-0.001,0,0,0,0,0
832212000,-0.0,-0.0,-1.1095762,0.0,0.85001206,-0.0,0.0,-0.52676326,0.0,0.0,-0.001,0,0,0,0,0
832260000,-0.0,-0.0,-1.10958,0.0,0.85001105,-0.0,0.0,-0.5267648,0.0,0.0,-0.001,0,0,0,0,0
832308000,-0.0,-0.0,-1.1094071,0.0,0.85005665,-0.0,0.0,-0.5266914,0.0,0.0,-0.001,0,0,0,0,0
832356000,-0.0,-0.0,-1.1093844,0.0,0.8500626,-0.0,0.0,-0.52668166,0.0,0.0,-0.001,0,0,0,0,0
832412000,-0.0,-0.0,-1.1094215,0.0,0.85005283,-0.0,0.0,-0.5266974,0.0,0.0,-0.001,0,0,0,0,0
832460000,-0.0,-0.0,-1.1094627,0.0,0.850042,-0.0,0.0,-0.5267149,0.0,0.0,-0.001,0,0,0,0,0
832508000,-0.0,-0.0,-1.1094067,0.0,0.8500567,-0.0,0.0,-0.52669114,0.0,0.0,-0.001,0,0,0,0,0
832556000,-0.0,-0.0,-1.1094649,0.0,0.8500414,-0.0,0.0,-0.5267159,0.0,0.0,-0.001,0,0,0,0,0
832612000,-0.0,-0.0,-1.109603,0.0,0.85000503,-0.0,0.0,-0.5267746,0.0,0.0,-0.001,0,0,0,0,0
832660000,-0.0,-0.0,-1.1095908,0.0,0.85000825,-0.0,0.0,-0.5267694,0.0,0.0,-0.001,0,0,0,0,0
832716000,-0.0,-0.0,-1.109583,0.0,0.8500103,-0.0,0.0,-0.5267661,0.0,0.0,-0.001,0,0,0,0,0
832764000,-0.0,-0.0,-1.1095544,0.0,0.85001785,-0.0,0.0,-0.5267539,0.0,0.0,-0.001,0,0,0,0,0
832812000,-0.0,-0.0,-1.1095194,0.0,0.850027,-0.0,0.0,-0.52673906,0.0,0.0,-0.001,0,0,0,0,0
832860000,-0.0,-0.0,-1.1094011,0.0,0.8500582,-0.0,0.0,-0.5266888,0.0,0.0,-0.001,0,0,0,0,0
832908000,-0.0,-0.0,-1.1093532,0.0,0.8500708,-0.0,0.0,-0.5266684,0.0,0.0,-0.001,0,0,0,0,0
832956000,-0.0,-0.0,-1.1092882,0.0,0.85008794,-0.0,0.0,-0.52664083,0.0,0.0,-0.001,0,0,0,0,0
833012000,-0.0,-0.0,-1.109258,0.0,0.85009587,-0.0,0.0,-0.52662796,0.0,0.0,-0.001,0,0,0,0,0
833060000,-0.0,-0.0,-1.1092964,0.0,0.85008574,-0.0,0.0,-0.5266443,0.0,0.0,-0.001,0,0,0,0,0
833108000,-0.0,-0.0,-1.1092527,0.0,0.8500973,-0.0,0.0,-0.5266257,0.0,0.0,-0.001,0,0,0,0,0
833156000,-0.0,-0.0,-1.1091644,0.0,0.8501205,-0.0,0.0,-0.5265882,0.0,0.0,-0.001,0,0,0,0,0
833212000,-0.0,-0.0,-1.1091659,0.0,0.8501201,-0.0,0.0,-0.5265888,0.0,0.0,-0.001,0,0,0,0,0
833260000,-0.0,-0.0,-1.1092128,0.0,0.8501078,-0.0,0.0,-0.5266087,0.0,0.0,-0.001,0,0,0,0,0
833316000,-0.0,-0.0,-1.1092614,0.0,0.850095,-0.0,0.0,-0.52662945,0.0,0.0,-0.001,0,0,0,0,0
833356000,-0.0,-0.0,-1.1092578,0.0,0.8500959,-0.0,0.0,-0.52662796,0.0,0.0,-0.001,0,0,0,0,0
833412000,-0.0,-0.0,-1.1092262,0.0,0.8501043,-0.0,0.0,-0.5266144,0.0,0.0,-0.001,0,0,0,0,0
833460000,-0.0,-0.0,-1.1093235,0.0,0.85007864,-0.0,0.0,-0.52665585,0.0,0.0,-0.001,0,0,0,0,0
833508000,-0.0,-0.0,-1.1092441,0.0,0.85009956,-0.0,0.0,-0.5266221,0.0,0.0,-0.001,0,0,0,0,0
833556000,-0.0,-0.0,-1.1092689,0.0,0.850093,-0.0,0.0,-0.5266326,0.0,0.0,-0.001,0,0,0,0,0
833612000,-0.0,-0.0,-1.1093435,0.0,0.85007334,-0.0,0.0,-0.5266643,0.0,0.0,-0.001,0,0,0,0,0
833660000,-0.0,-0.0,-1.1093532,0.0,0.8500708,-0.0,0.0,-0.5266684,0.0,0.0,-0.001,0,0,0,0,0
833708000,-0.0,-0.0,-1.1092898,0.0,0.8500875,-0.0,0.0,-0.5266414,0.0,0.0,-0.001,0,0,0,0,0
833764000,-0.0,-0.0,-1.1092303,0.0,0.8501032,-0.0,0.0,-0.5266162,0.0,0.0,-0.001,0,0,0,0,0
833812000,-0.0,-0.0,-1.109146,0.0,0.8501254,-0.0,0.0,-0.52658033,0.0,0.0,-0.001,0,0,0,0,0
833860000,-0.0,-0.0,-1.1091009,0.0,0.85013723,-0.0,0.0,-0.52656114,0.0,0.0,-0.001,0,0,0,0,0
833916000,-0.0,-0.0,-1.1089928,0.0,0.8501657,-0.0,0.0,-0.52651525,0.0,0.0,-0.001,0,0,0,0,0
833956000,-0.0,-0.0,-1.1089686,0.0,0.8501721,-0.0,0.0,-0.52650493,0.0,0.0,-0.001,0,0,0,0,0
834012000,-0.0,-0.0,-1.1090218,0.0,0.8501581,-0.0,0.0,-0.5265276,0.0,0.0,-0.001,0,0,0,0,0
834060000,-0.0,-0.0,-1.108928,0.0,0.8501828,-0.0,0.0,-0.52648765,0.0,0.0,-0.001,0,0,0,0,0
834108000,-0.0,-0.0,-1.1088405,0.0,0.8502058,-0.0,0.0,-0.5264505,0.0,0.0,-0.001,0,0,0,0,0
834156000,-0.0,-0.0,-1.1089228,0.0,0.8501841,-0.0,0.0,-0.5264855,0.0,0.0,-0.001,0,0,0,0,0
834212000,-0.0,-0.0,-1.1089873,0.0,0.85016716,-0.0,0.0,-0.52651286,0.0,0.0,-0.001,0,0,0,0,0
834260000,-0.0,-0.0,-1.1090014,0.0,0.8501634,-0.0,0.0,-0.5265189,0.0,0.0,-0.001,0,0,0,0,0
834308000,-0.0,-0.0,-1.1090369,0.0,0.8501541,-0.0,0.0,-0.526534,0.0,0.0,-0.001,0,0,0,0,0
834364000,-0.0,-0.0,-1.109061,0.0,0.8501477,-0.0,0.0,-0.5265443,0.0,0.0,-0.001,0,0,0,0,0
834412000,-0.0,-0.0,-1.1090158,0.0,0.85015965,-0.0,0.0,-0.52652496,0.0,0.0,-0.001,0,0,0,0,0
834460000,-0.0,-0.0,-1.1089106,0.0,0.8501873,-0.0,0.0,-0.52648026,0.0,0.0,-0.001,0,0,0,0,0
834516000,-0.0,-0.0,-1.1089041,0.0,0.85018903,-0.0,0.0,-0.5264775,0.0,0.0,-0.001,0,0,0,0,0
834564000,-0.0,-0.0,-1.1088626,0.0,0.85019994,-0.0,0.0,-0.52645993,0.0,0.0,-0.001,0,0,0,0,0
834612000,-0.0,-0.0,-1.1088865,0.0,0.8501937,-0.0,0.0,-0.52647,0.0,0.0,-0.001,0,0,0,0,0
834660000,-0.0,-0.0,-1.1089213,0.0,0.8501845,-0.0,0.0,-0.52648485,0.0,0.0,-0.001,0,0,0,0,0
834708000,-0.0,-0.0,-1.1088822,0.0,0.8501948,-0.0,0.0,-0.5264682,0.0,0.0,-0.001,0,0,0,0,0
834756000,-0.0,-0.0,-1.1088276,0.0,0.8502092,-0.0,0.0,-0.52644503,0.0,0.0,-0.001,0,0,0,0,0
834812000,-0.0,-0.0,-1.1087637,0.0,0.85022604,-0.0,0.0,-0.52641785,0.0,0.0,-0.001,0,0,0,0,0
834860000,-0.0,-0.0,-1.1087323,0.0,0.85023427,-0.0,0.0,-0.52640444,0.0,0.0,-0.001,0,0,0,0,0
834908000,-0.0,-0.0,-1.1086236,0.0,0.8502629,-0.0,0.0,-0.52635825,0.0,0.0,-0.001,0,0,0,0,0
834956000,-0.0,-0.0,-1.1086687,0.0,0.850251,-0.0,0.0,-0.52637744,0.0,0.0,-0.001,0,0,0,0,0
835012000,-0.0,-0.0,-1.1087621,0.0,0.85022646,-0.0,0.0,-0.5264172,0.0,0.0,-0.001,0,0,0,0,0
835060000,-0.0,-0.0,-1.1087304,0.0,0.85023475,-0.0,0.0,-0.5264037,0.0,0.0,-0.001,0,0,0,0,0
835108000,-0.0,-0.0,-1.1089456,0.0,0.8501781,-0.0,0.0,-0.52649516,0.0,0.0,-0.001,0,0,0,0,0
835164000,-0.0,-0.0,-1.1089311,0.0,0.85018194,-0.0,0.0,-0.526489,0.0,0.0,-0.001,0,0,0,0,0
835212000,-0.0,-0.0,-1.1088531,0.0,0.8502025,-0.0,0.0,-0.5264559,0.0,0.0,-0.001,0,0,0,0,0
835260000,-0.0,-0.0,-1.1088893,0.0,0.85019296,-0.0,0.0,-0.52647126,0.0,0.0,-0.001,0,0,0,0,0
835308000,-0.0,-0.0,-1.108746,0.0,0.85023063,-0.0,0.0,-0.5264104,0.0,0.0,-0.001,0,0,0,0,0
835356000,-0.0,-0.0,-1.1087779,0.0,0.8502223,-0.0,0.0,-0.5264238,0.0,0.0,-0.001,0,0,0,0,0
835412000,-0.0038235513,0.002791393,-1.1087843,0.0,0.8502196,-0.0008906982,0.0021930553,-0.52642286,0.0,0.0,-0.009652725,0,0,0,0,0
835460000,-0.00275179,0.0025484075,-1.1087146,0.0,0.8502384,-0.00049910217,0.0018076425,-0.52639455,0.0,0.0,-0.016243549,0,0,0,0,0
835508000,-0.002250365,0.0024540469,-1.1087317,0.0,0.850234,-0.00031075813,0.0016355568,-0.52640235,0.0,0.0,-0.023161085,0,0,0,0,0
835564000,-0.0023188123,0.0018878088,-1.1088395,0.0,0.85020566,-0.00048881536,0.0014128815,-0.5264485,0.0,0.0,-0.031545017,0,0,0,0,0
835612000,-0.0015345933,0.0024716184,-1.1088295,0.0,0.8502083,-1.7755149e-06,0.0014546347,-0.5264445,0.0,0.0,-0.039202522,0,0,0,0,0
835660000,-0.0026054885,0.001621412,-1.1087328,0.0,0.8502337,-0.0006808779,0.0013750595,-0.5264032,0.0,0.0,-0.047667652,0,0,0,0,0
835716000,-0.0027478687,0.0020617857,-1.1086348,0.0,0.8502594,-0.000625577,0.0015997135,-0.52636105,0.0,0.0,-0.05746844,0,0,0,0,0
835764000,-0.0026259786,0.0018959626,-1.1087788,0.0,0.8502216,-0.0006172917,0.0014971828,-0.52642256,0.0,0.0,-0.06670096,0,0,0,0,0
835812000,-0.0017156231,0.0021920893,-1.1089108,0.0,0.85018694,-0.00015225426,0.0013834633,-0.52647907,0.0,0.0,-0.076341316,0,0,0,0,0
835860000,-0.0010037175,0.0020585826,-1.1090095,0.0,0.850161,0.00011528411,0.0011393031,-0.5265215,0.0,0.0,-0.086259335,0,0,0,0,0
835908000,-0.0007324704,0.0017434931,-1.1090752,0.0,0.85014385,0.00014766572,0.0009339511,-0.52654976,0.0,0.0,-0.096777014,0,0,0,0,0
835956000,-0.0008547832,0.0015390867,-1.1090766,0.0,0.8501435,4.185948e-05,0.0008792656,-0.52655035,0.0,0.0,-0.10716638,0,0,0,0,0
836012000,-0.0019300454,0.0007526376,-1.1091539,0.0,0.85012305,-0.0006222248,0.00082808227,-0.52658314,0.0,0.0,-0.12062776,0,0,0,0,0
836060000,-0.0018430565,0.00073283794,-1.1091312,0.0,0.85012907,-0.0005904714,0.00079675607,-0.52657354,0.0,0.0,-0.13241136,0,0,0,0,0
836108000,-0.0016344324,0.0017121551,-1.1090107,0.0,0.8501608,-0.00024402085,0.0011580861,-0.52652186,0.0,0.0,-0.1446185,0,0,0,0,0
836156000,-0.0018546577,0.0020757797,-1.1089598,0.0,0.85017407,-0.00024194072,0.0013706262,-0.5264999,0.0,0.0,-0.15721837,0,0,0,0,0
836212000,-0.0014319464,0.0012352373,-1.1087422,0.0,0.85023147,-0.00028362317,0.0009020131,-0.52640814,0.0,0.0,-0.1724313,0,0,0,0,0
836260000,-0.0021587336,0.0012404677,-1.1087707,0.0,0.85022384,-0.0005911995,0.0010955381,-0.5264198,0.0,0.0,-0.18608141,0,0,0,0,0
836308000,-0.00081744505,0.0011131634,-1.1087294,0.0,0.850235,-5.452376e-05,0.00068837794,-0.52640295,0.0,0.0,-0.2001704,0,0,0,0,0
836356000,-0.00039790254,0.0017831252,-1.108618,0.0,0.8502641,0.00030011803,0.0008627829,-0.5263556,0.0,0.0,-0.2146567,0,0,0,0,0
836412000,-0.0008573497,0.002648313,-1.1083727,0.0,0.8503284,0.00033232488,0.0013515587,-0.52625054,0.0,0.0,-0.2311983,0,0,0,0,0
836460000,-0.0002459015,0.0019981617,-1.1082016,0.0,0.85037357,0.00042114107,0.0009142861,-0.5261785,0.0,0.0,-0.24756965,0,0,0,0,0
836516000,-0.0018224454,0.0017986692,-1.1081164,0.0,0.8503961,-0.00030172203,0.0012442232,-0.5261416,0.0,0.0,-0.26502687,0,0,0,0,0
836564000,-0.0011270554,0.002081487,-1.1080981,0.0,0.85040087,6.834705e-05,0.0011815405,-0.526134,0.0,0.0,-0.2820471,0,0,0,0,0
836612000,-0.0022769514,0.0033742595,-1.1076412,0.0,0.85052055,-8.096733e-05,0.0020337077,-0.52593786,0.0,0.0,-0.29691002,0,0,0,0,0
836660000,-0.001512599,0.003551512,-1.1075155,0.0,0.8505535,0.00029057363,0.0019081032,-0.525885,0.0,0.0,-0.31584823,0,0,0,0,0
836716000,-0.0008753472,0.003990376,-1.107643,0.0,0.85051954,0.00067710114,0.0019271376,-0.5259395,0.0,0.0,-0.33512634,0,0,0,0,0
836756000,-0.0012580856,0.0049280534,-1.1076041,0.0,0.85052913,0.00076087227,0.0024265568,-0.5259218,0.0,0.0,-0.35116372,0,0,0,0,0
836812000,-0.0017617943,0.004955071,-1.1076415,0.0,0.8505195,0.00055381533,0.0025704917,-0.525937,0.0,0.0,-0.37241167,0,0,0,0,0
836860000,-0.0012797504,0.004994596,-1.1077019,0.0,0.8505034,0.0007692774,0.0024605142,-0.5259633,0.0,0.0,-0.39148563,0,0,0,0,0
836916000,-0.0017285184,0.0042698397,-1.1074806,0.0,0.8505623,0.0003875883,0.002270372,-0.52586937,0.0,0.0,-0.41384712,0,0,0,0,0
836964000,-0.002411242,0.0055804104,-1.1075897,0.0,0.8505327,0.00044199938,0.0030072175,-0.5259134,0.0,0.0,-0.43378338,0,0,0,0,0
837012000,0.00069604936,0.0060390825,-1.1077095,0.0,0.8504989,0.0018841791,0.0023850764,-0.5259681,0.0,0.0,-0.451183,0,0,0,0,0
837060000,0.0032315876,0.009608146,-1.106582,0.0,0.8507847,0.0038991799,0.0032382095,-0.5254899,0.0,0.0,-0.47083834,0,0,0,0,0
837108000,0.003831737,0.010562309,-1.1060308,0.0,0.8509258,0.0044042114,0.0034876342,-0.52525586,0.0,0.0,-0.48147872,0,0,0,0,0
837164000,0.012034982,0.012168427,-1.1050727,0.0,0.8511457,0.008315148,0.0020205432,-0.52485985,0.0,0.0,-0.4908976,0,0,0,0,0
837212000,0.004458153,0.011146812,-1.1038744,0.0,0.85148853,0.0048203752,0.0035770063,-0.5243389,0.0,0.0,-0.49586353,0,0,0,0,0
837260000,0.007139718,0.011822211,-1.104212,0.0,0.8513905,0.0061396253,0.0031604944,-0.52448696,0.0,0.0,-0.49841002,0,0,0,0,0
837316000,0.0107321525,0.012457914,-1.1046824,0.0,0.85125214,0.007836172,0.002487177,-0.52469254,0.0,0.0,-0.500972,0,0,0,0,0
837356000,0.009318397,0.012684405,-1.1048566,0.0,0.8512109,0.0072941114,0.0029538383,-0.5247648,0.0,0.0,-0.5020586,0,0,0,0,0
837412000,0.011359418,0.012912641,-1.1050172,0.0,0.85115993,0.008222858,0.0025147914,-0.52483606,0.0,0.0,-0.5040239,0,0,0,0,0
837460000,0.013064076,0.012422242,-1.1049654,0.0,0.85116833,0.008819601,0.0018589726,-0.52481544,0.0,0.0,-0.50569946,0,0,0,0,0
837508000,0.013867652,0.012853722,-1.104925,0.0,0.8511734,0.009274761,0.001831935,-0.5247995,0.0,0.0,-0.50608987,0,0,0,0,0
837556000,0.013501795,0.013196919,-1.1048901,0.0,0.8511827,0.009209062,0.002074165,-0.52478474,0.0,0.0,-0.5073404,0,0,0,0,0
837612000,0.014880812,0.013114026,-1.1049249,0.0,0.8511674,0.00977424,0.0016768703,-0.5248006,0.0,0.0,-0.50836766,0,0,0,0,0
837660000,0.015362679,0.012574553,-1.1050768,0.0,0.85112774,0.009837879,0.0013200761,-0.5248648,0.0,0.0,-0.50990695,0,0,0,0,0
837708000,0.015178159,0.013132344,-1.1050049,0.0,0.85114485,0.009905656,0.0016062466,-0.524835,0.0,0.0,-0.5105383,0,0,0,0,0
837764000,0.016218277,0.0130736325,-1.1049155,0.0,0.8511633,0.010332837,0.001308776,-0.52479756,0.0,0.0,-0.5120445,0,0,0,0,0
837812000,0.01628452,0.013534898,-1.1049826,0.0,0.85114306,0.010482093,0.0014873605,-0.524827,0.0,0.0,-0.49972114,0,0,0,0,0
837860000,0.016035143,0.013257208,-1.1050965,0.0,0.8511159,0.01030319,0.0014340292,-0.5248748,0.0,0.0,-0.47339356,0,0,0,0,0
837916000,0.015737498,0.014655359,-1.1050456,0.0,0.85112375,0.010543332,0.0021074435,-0.524855,0.0,0.0,-0.44852796,0,0,0,0,0
837956000,0.016541813,0.014842265,-1.1051444,0.0,0.85109246,0.010934756,0.001975375,-0.5248982,0.0,0.0,-0.43690264,0,0,0,0,0
838012000,0.016633064,0.016881606,-1.1051415,0.0,0.8510814,0.011508695,0.0028193404,-0.5249,0.0,0.0,-0.42887017,0,0,0,0,0
838060000,0.017662467,0.016462907,-1.1050363,0.0,0.85110545,0.011836759,0.0023716078,-0.524856,0.0,0.0,-0.42553633,0,0,0,0,0
838108000,0.017731486,0.01819186,-1.1050324,0.0,0.8510957,0.012319738,0.0030893434,-0.52485704,0.0,0.0,-0.42399043,0,0,0,0,0
838156000,0.017624816,0.019692,-1.1051738,0.0,0.85104966,0.012668182,0.0037548863,-0.5249189,0.0,0.0,-0.42377758,0,0,0,0,0
838212000,0.019631993,0.019920316,-1.1051655,0.0,0.85103714,0.013582173,0.0033253024,-0.5249192,0.0,0.0,-0.42328033,0,0,0,0,0
838260000,0.018592749,0.020536741,-1.105055,0.0,0.851069,0.013301476,0.0038611295,-0.52487123,0.0,0.0,-0.42391655,0,0,0,0,0
838316000,0.017532451,0.021454562,-1.1051066,0.0,0.8510561,0.013091194,0.00452966,-0.524892,0.0,0.0,-0.42476174,0,0,0,0,0
838356000,0.018743915,0.022177259,-1.1051005,0.0,0.85104454,0.013796298,0.00451932,-0.52489287,0.0,0.0,-0.42609176,0,0,0,0,0
838412000,0.017573342,0.021940792,-1.1049922,0.0,0.85108256,0.013235893,0.0047266143,-0.52484375,0.0,0.0,-0.42673054,0,0,0,0,0
838460000,0.01771447,0.022262434,-1.1050932,0.0,0.8510528,0.013380572,0.0048257913,-0.52488744,0.0,0.0,-0.42766103,0,0,0,0,0
838508000,0.0186183,0.022897739,-1.1051155,0.0,0.85103625,0.013931905,0.004858803,-0.52489966,0.0,0.0,-0.42892304,0,0,0,0,0
838556000,0.018925317,0.023100818,-1.105151,0.0,0.85102326,0.014115912,0.0048644,-0.5249157,0.0,0.0,-0.42948905,0,0,0,0,0
838612000,0.017261315,0.022398368,-1.105081,0.0,0.85105807,0.013223377,0.005002651,-0.5248812,0.0,0.0,-0.43053648,0,0,0,0,0
838660000,0.019428778,0.022989754,-1.0712553,0.0,0.8597941,0.01421955,0.004926685,-0.51041913,0.0,0.0,-0.42937115,0,0,0,0,0
838716000,0.018480694,0.021877276,-1.073681,0.0,0.85918903,0.013533834,0.004673917,-0.51145786,0.0,0.0,-0.43013164,0,0,0,0,0
838756000,0.018898513,0.023166541,-1.0751854,0.0,0.8587918,0.014046762,0.005110431,-0.5121066,0.0,0.0,-0.430792,0,0,0,0,0
838812000,0.018490376,0.024541132,-1.0764806,0.0,0.8584526,0.014227103,0.0057960437,-0.51266277,0.0,0.0,-0.43235403,0,0,0,0,0
838860000,0.018465362,0.023890542,-1.0780458,0.0,0.85805625,0.014053981,0.005512169,-0.51333386,0.0,0.0,-0.43375388,0,0,0,0,0
838908000,0.01821208,0.023538323,-1.079031,0.0,0.85780764,0.013857616,0.0054192212,-0.5137554,0.0,0.0,-0.43414202,0,0,0,0,0
838956000,0.017832926,0.023776742,-1.0803154,0.0,0.8574784,0.013759823,0.0056100534,-0.51430535,0.0,0.0,-0.43462592,0,0,0,0,0
839012000,0.017881429,0.023900477,-1.0811151,0.0,0.85727143,0.013814681,0.0056451145,-0.51464844,0.0,0.0,-0.4349124,0,0,0,0,0
839060000,0.017620161,0.024320304,-1.0817147,0.0,0.85711575,0.013812454,0.0058881803,-0.5149049,0.0,0.0,-0.43606722,0,0,0,0,0
839108000,0.016952297,0.0250488,-1.082153,0.0,0.857002,0.01371512,0.0063693607,-0.51509106,0.0,0.0,-0.43638656,0,0,0,0,0
839164000,0.017559957,0.025201,-1.0831738,0.0,0.8567337,0.014017885,0.0062709316,-0.5155304,0.0,0.0,-0.43737397,0,0,0,0,0
839212000,0.01667512,0.026141621,-1.0831738,0.0,0.85673255,0.013881225,0.006901996,-0.5155278,0.0,0.0,-0.43802726,0,0,0,0,0
839260000,0.019014739,0.025667073,-1.0841415,0.0,0.85647,0.014764104,0.006088471,-0.51594967,0.0,0.0,-0.43808848,0,0,0,0,0
839308000,0.017289579,0.026187198,-1.0845319,0.0,0.8563776,0.014160769,0.006753522,-0.5161117,0.0,0.0,-0.43889675,0,0,0,0,0
839364000,0.0168016,0.026245175,-1.0852507,0.0,0.8561951,0.0139692575,0.006899255,-0.51641774,0.0,0.0,-0.438665,0,0,0,0,0
839412000,0.016925367,0.025943581,-1.0857335,0.0,0.8560718,0.013946022,0.0067348024,-0.5166248,0.0,0.0,-0.4400635,0,0,0,0,0
839460000,0.016103333,0.025760636,-1.0859244,0.0,0.8560296,0.013547576,0.006867533,-0.51670367,0.0,0.0,-0.4399351,0,0,0,0,0
839508000,0.017886493,0.024737645,-1.086122,0.0,0.85597396,0.014047183,0.0059675495,-0.5167936,0.0,0.0,-0.44029436,0,0,0,0,0
839556000,0.018067334,0.024856593,-1.0866188,0.0,0.8558434,0.014156791,0.00596822,-0.51700675,0.0,0.0,-0.44142705,0,0,0,0,0
839612000,0.017246692,0.025800535,-1.087325,0.0,0.85565937,0.014051863,0.0065793847,-0.5173068,0.0,0.0,-0.4406985,0,0,0,0,0
839660000,0.017806528,0.024951052,-1.0876443,0.0,0.8555793,0.014072708,0.006068849,-0.5174448,0.0,0.0,-0.44094136,0,0,0,0,0
839716000,0.01989005,0.024644233,-1.087976,0.0,0.8554808,0.014885555,0.005396053,-0.5175924,0.0,0.0,-0.44008982,0,0,0,0,0
839764000,0.019013973,0.024373738,-1.0882531,0.0,0.8554176,0.014441606,0.0055050584,-0.5177083,0.0,0.0,-0.44080865,0,0,0,0,0
839812000,0.019120984,0.023933815,-1.0889192,0.0,0.85524774,0.014375302,0.0052843844,-0.5179929,0.0,0.0,-0.44076765,0,0,0,0,0
839860000,0.020152658,0.025262656,-1.0891336,0.0,0.85517424,0.015161095,0.0055838786,-0.51808876,0.0,0.0,-0.44127303,0,0,0,0,0
839916000,0.019672398,0.024976363,-1.0891399,0.0,0.8551784,0.0148816295,0.005585808,-0.51808995,0.0,0.0,-0.44206735,0,0,0,0,0
839956000,0.020352064,0.024772357,-1.0892581,0.0,0.8551444,0.015119736,0.005321606,-0.51814204,0.0,0.0,-0.44197363,0,0,0,0,0
840012000,0.019961832,0.02439869,-1.0894288,0.0,0.855106,0.014856563,0.005261641,-0.5182136,0.0,0.0,-0.44228992,0,0,0,0,0
840060000,0.019808026,0.02419328,-1.089979,0.0,0.8549661,0.014739035,0.005209601,-0.51844823,0.0,0.0,-0.44268724,0,0,0,0,0
840108000,0.019769348,0.02506676,-1.0902236,0.0,0.8548962,0.014949521,0.005591253,-0.51855356,0.0,0.0,-0.44258443,0,0,0,0,0
840156000,0.019067544,0.025478546,-1.0902236,0.0,0.85489815,0.0147562595,0.0059492565,-0.5185518,0.0,0.0,-0.441892,0,0,0,0,0
840212000,0.009780895,0.02092162,-1.0909663,0.0,0.8547932,0.009607715,0.0064052655,-0.5188404,0.0,0.0,-0.38455433,0,0,0,0,0
840260000,0.011314131,0.021808203,-1.0911748,0.0,0.85472614,0.010493631,0.0063853627,-0.5189339,0.0,0.0,-0.39210755,0,0,0,0,0
840316000,0.0077646384,0.029357838,-1.0911777,0.0,0.8546938,0.0109352,0.010532919,-0.51891047,0.0,0.0,-0.40981686,0,0,0,0,0
840364000,0.008055487,0.028716084,-1.0911305,0.0,0.8547091,0.010892779,0.010183441,-0.5188931,0.0,0.0,-0.42334875,0,0,0,0,0
840412000,0.008702015,0.02939553,-1.0910034,0.0,0.85473347,0.011344665,0.010306808,-0.5188408,0.0,0.0,-0.43344572,0,0,0,0,0
840460000,0.009042593,0.029452924,-1.0907532,0.0,0.854796,0.01150382,0.010244424,-0.51873547,0.0,0.0,-0.4402609,0,0,0,0,0
840508000,0.011507201,0.02882964,-1.0903418,0.0,0.8548927,0.0123936385,0.009341312,-0.51857275,0.0,0.0,-0.4448214,0,0,0,0,0
840556000,0.013496677,0.03046629,-1.0897306,0.0,0.8550251,0.013665345,0.009529289,-0.5183189,0.0,0.0,-0.44833755,0,0,0,0,0
840612000,0.015892448,0.032405876,-1.087729,0.0,0.85550946,0.015182268,0.009752895,-0.5174726,0.0,0.0,-0.45228902,0,0,0,0,0
840660000,0.018226465,0.03375299,-1.0863112,0.0,0.85584503,0.016522126,0.009737031,-0.51687664,0.0,0.0,-0.45365486,0,0,0,0,0
840716000,0.021096826,0.038301006,-1.0828125,0.0,0.8566759,0.018905906,0.010974835,-0.5153916,0.0,0.0,-0.45759848,0,0,0,0,0
840756000,0.02433762,0.041002054,-1.0807865,0.0,0.85713446,0.020978091,0.011318171,-0.5145409,0.0,0.0,-0.45967567,0,0,0,0,0
840812000,0.027267218,0.046584826,-1.0786575,0.0,0.85757804,0.023654694,0.012982913,-0.5136456,0.0,0.0,-0.4602368,0,0,0,0,0
840860000,0.03138914,0.0512896,-1.0764484,0.0,0.858026,0.026613466,0.01397177,-0.51272595,0.0,0.0,-0.46030378,0,0,0,0,0
840908000,0.034432005,0.05541682,-1.0742085,0.0,0.8584928,0.028958576,0.0149955675,-0.51178765,0.0,0.0,-0.46068397,0,0,0,0,0
840956000,0.04435682,0.07005621,-1.0697886,0.0,0.8591874,0.03691485,0.01882431,-0.50998026,0.0,0.0,-0.4649245,0,0,0,0,0
841012000,0.049389172,0.07801966,-1.0676438,0.0,0.8594614,0.04107865,0.021009149,-0.5091141,0.0,0.0,-0.4635999,0,0,0,0,0
841060000,0.052965075,0.08235528,-1.0656905,0.0,0.85977954,0.043693565,0.022006745,-0.5083166,0.0,0.0,-0.46223485,0,0,0,0,0
841108000,0.058906347,0.09030588,-1.0638816,0.0,0.8598983,0.048238095,0.023962336,-0.5076158,0.0,0.0,-0.46191907,0,0,0,0,0
841164000,0.071318224,0.114725076,-1.0608487,0.0,0.8595922,0.05968751,0.031415485,-0.5065093,0.0,0.0,-0.4662082,0,0,0,0,0
841212000,0.07797942,0.12526195,-1.0597646,0.0,0.85928714,0.0651794,0.03430278,-0.5061626,0.0,0.0,-0.4644655,0,0,0,0,0
841260000,0.082021855,0.13390489,-1.059052,0.0,0.85900337,0.069070764,0.037027955,-0.5059361,0.0,0.0,-0.46321315,0,0,0,0,0
841308000,0.089141496,0.14447425,-1.0585004,0.0,0.85845613,0.07476344,0.03980094,-0.50584525,0.0,0.0,-0.46206176,0,0,0,0,0
841364000,0.105182484,0.17389096,-1.0579267,0.0,0.8565769,0.08897147,0.048437376,-0.50597817,0.0,0.0,-0.46610147,0,0,0,0,0
841412000,0.1060271,0.18356924,-1.0578263,0.0,0.8560634,0.091739684,0.05239511,-0.50595856,0.0,0.0,-0.46438414,0,0,0,0,0
841460000,0.112661414,0.19302301,-1.0577945,0.0,0.8552457,0.096927226,0.054787107,-0.5061208,0.0,0.0,-0.4627572,0,0,0,0,0
841516000,0.1271797,0.22465944,-1.0658996,0.0,0.8505348,0.11122584,0.06426923,-0.509989,0.0,0.0,-0.4683492,0,0,0,0,0
841564000,0.1304756,0.23287264,-1.0645337,0.0,0.85016054,0.11462369,0.067029,-0.5095053,0.0,0.0,-0.46669695,0,0,0,0,0
841612000,0.13473025,0.24098995,-1.064527,0.0,0.8493664,0.1184446,0.06942653,-0.50963473,0.0,0.0,-0.46529657,0,0,0,0,0
841660000,0.13810797,0.25021502,-1.0644791,0.0,0.84853137,0.122161195,0.07252356,-0.50971705,0.0,0.0,-0.46400726,0,0,0,0,0
841716000,0.14108542,0.25379175,-1.0643506,0.0,0.84812474,0.124304004,0.07330563,-0.50976384,0.0,0.0,-0.45916006,0,0,0,0,0
841764000,0.15461908,0.28100514,-1.0636866,0.0,0.84534675,0.13671453,0.08155651,-0.5099476,0.0,0.0,-0.46611464,0,0,0,0,0
841812000,0.15732768,0.28771314,-1.0631437,0.0,0.84475857,0.13948283,0.083775304,-0.5098129,0.0,0.0,-0.46423012,0,0,0,0,0
841860000,0.15933053,0.29264188,-1.0625046,0.0,0.84437686,0.14150912,0.08541964,-0.509614,0.0,0.0,-0.46282014,0,0,0,0,0
841916000,0.15952545,0.29840237,-1.0618013,0.0,0.8440628,0.14297006,0.087885775,-0.509307,0.0,0.0,-0.45947546,0,0,0,0,0
841956000,0.16217718,0.30468035,-1.0611088,0.0,0.8435163,0.1455911,0.0899476,-0.50911003,0.0,0.0,-0.45905554,0,0,0,0,0
842012000,0.17153664,0.325514,-1.0598185,0.0,0.84130377,0.15454046,0.096575536,-0.50891876,0.0,0.0,-0.46361616,0,0,0,0,0
842060000,0.17046529,0.32860976,-1.0593151,0.0,0.8412322,0.15481569,0.09821095,-0.5086406,0.0,0.0,-0.4608419,0,0,0,0,0
842116000,0.16828917,0.3270578,-1.0589603,0.0,0.8416317,0.15350664,0.09812783,-0.50839233,0.0,0.0,-0.4571698,0,0,0,0,0
842164000,0.17768055,0.35035017,-1.0586559,0.0,0.8387772,0.16306587,0.10572085,-0.5086113,0.0,0.0,-0.46463138,0,0,0,0,0
842212000,0.17748426,0.34946874,-1.0586257,0.0,0.8388862,0.1627695,0.10539666,-0.5085936,0.0,0.0,-0.4614246,0,0,0,0,0
842260000,0.1737132,0.35013813,-1.0586241,0.0,0.83912754,0.16134883,0.10664153,-0.5083888,0.0,0.0,-0.4579684,0,0,0,0,0
842308000,0.170893,0.3500578,-1.0586241,0.0,0.8393619,0.16014604,0.107324,-0.5082385,0.0,0.0,-0.4553312,0,0,0,0,0
842364000,0.1772373,0.36728826,-1.058678,0.0,0.8371359,0.16695707,0.113063715,-0.5084735,0.0,0.0,-0.46009216,0,0,0,0,0
842412000,0.17586896,0.36437002,-1.0588057,0.0,0.83750933,0.16568984,0.11215558,-0.5084743,0.0,0.0,-0.45644253,0,0,0,0,0
842460000,0.17094766,0.3639933,-1.0590557,0.0,0.8378883,0.16355199,0.11322519,-0.5083051,0.0,0.0,-0.45358524,0,0,0,0,0
842508000,0.165349,0.36328772,-1.0594742,0.0,0.83830583,0.16105962,0.114312865,-0.50816894,0.0,0.0,-0.45074257,0,0,0,0,0
842556000,0.16295458,0.3608412,-1.0600606,0.0,0.838588,0.15949872,0.113830455,-0.50830394,0.0,0.0,-0.4488142,0,0,0,0,0
842612000,0.16906492,0.376872,-1.061563,0.0,0.8361146,0.16601168,0.11898908,-0.50911117,0.0,0.0,-0.45409602,0,0,0,0,0
842660000,0.16636932,0.3732992,-1.0624156,0.0,0.83648056,0.16407347,0.11808285,-0.5093492,0.0,0.0,-0.45108053,0,0,0,0,0
842708000,0.16516225,0.37091857,-1.0632559,0.0,0.83660346,0.16304299,0.11730741,-0.5096573,0.0,0.0,-0.4488052,0,0,0,0,0
842756000,0.16244811,0.36499277,-1.0640748,0.0,0.8372007,0.16052088,0.11540834,-0.5099107,0.0,0.0,-0.44456267,0,0,0,0,0
842812000,0.1668115,0.37769243,-1.0654157,0.0,0.83523595,0.16549793,0.11959358,-0.51057684,0.0,0.0,-0.44929966,0,0,0,0,0
842860000,0.16160691,0.3747611,-1.0658673,0.0,0.83584297,0.16264103,0.119637616,-0.51049125,0.0,0.0,-0.4470171,0,0,0,0,0
842916000,0.15665174,0.36566052,-1.0661507,0.0,0.8370679,0.15837735,0.117005825,-0.5104346,0.0,0.0,-0.4429367,0,0,0,0,0
842956000,0.1559931,0.36445877,-1.0663031,0.0,0.8371982,0.15781851,0.11665022,-0.5104755,0.0,0.0,-0.44247872,0,0,0,0,0
843012000,0.16049275,0.38038903,-1.0663769,0.0,0.8352374,0.16356985,0.12227483,-0.51056075,0.0,0.0,-0.44842368,0,0,0,0,0
843060000,0.1540634,0.37594807,-1.0663769,0.0,0.8362025,0.15980643,0.12202655,-0.51023203,0.0,0.0,-0.44630724,0,0,0,0,0
843116000,0.14742936,0.36617023,-1.0663769,0.0,0.8376824,0.1546534,0.11955777,-0.50997686,0.0,0.0,-0.4421538,0,0,0,0,0
843156000,0.14558513,0.36598366,-1.0663836,0.0,0.837841,0.15383585,0.11994805,-0.509872,0.0,0.0,-0.44146296,0,0,0,0,0
843212000,0.15103911,0.37853956,-1.0665687,0.0,0.8361369,0.15918295,0.123884976,-0.5100866,0.0,0.0,-0.44786626,0,0,0,0,0
843260000,0.14512567,0.3751854,-1.0668155,0.0,0.8368715,0.15590969,0.1239469,-0.5098778,0.0,0.0,-0.44763845,0,0,0,0,0
843316000,0.13816704,0.36341357,-1.067231,0.0,0.83843434,0.15015142,0.12068085,-0.50982195,0.0,0.0,-0.44328782,0,0,0,0,0
843364000,0.13334048,0.3580486,-1.0678539,0.0,0.8391383,0.14685313,0.11958177,-0.5098835,0.0,0.0,-0.44132233,0,0,0,0,0
843412000,0.14148688,0.37591356,-1.0697517,0.0,0.8363334,0.15474774,0.12495697,-0.5108672,0.0,0.0,-0.4494246,0,0,0,0,0
843460000,0.13541271,0.37204427,-1.0709844,0.0,0.836859,0.1513381,0.12477063,-0.51107347,0.0,0.0,-0.4483107,0,0,0,0,0
843516000,0.12961815,0.36200255,-1.0723249,0.0,0.8379008,0.14653197,0.12188573,-0.51146305,0.0,0.0,-0.44431922,0,0,0,0,0
843556000,0.1293824,0.3630873,-1.0737469,0.0,0.83745265,0.14678673,0.12230259,-0.51202416,0.0,0.0,-0.44455895,0,0,0,0,0
843612000,0.13154803,0.37754306,-1.0766706,0.0,0.8351643,0.15143073,0.1276632,-0.51309985,0.0,0.0,-0.4495781,0,0,0,0,0
843660000,0.12744147,0.37319735,-1.0780944,0.0,0.8355252,0.14873578,0.12676834,-0.51352227,0.0,0.0,-0.44750297,0,0,0,0,0
843716000,0.12012603,0.36223403,-1.079445,0.0,0.8367413,0.1430526,0.12390163,-0.5138562,0.0,0.0,-0.44268456,0,0,0,0,0
843764000,0.11652009,0.3569401,-1.0806671,0.0,0.83716714,0.14030619,0.122497715,-0.5142565,0.0,0.0,-0.44045165,0,0,0,0,0
843812000,0.12520869,0.3744211,-1.0825794,0.0,0.83442074,0.14839117,0.1275277,-0.51522696,0.0,0.0,-0.44841924,0,0,0,0,0
843860000,0.12249467,0.3679159,-1.0832084,0.0,0.8350734,0.14568567,0.12542741,-0.5154571,0.0,0.0,-0.44534796,0,0,0,0,0
843916000,0.11858658,0.35713318,-1.0836295,0.0,0.83624136,0.14139962,0.12183884,-0.51561797,0.0,0.0,-0.44099545,0,0,0,0,0
843956000,0.11931246,0.35618532,-1.0838853,0.0,0.83621025,0.14148284,0.12123211,-0.51578856,0.0,0.0,-0.44066942,0,0,0,0,0
844012000,0.12632929,0.36699414,-1.0840653,0.0,0.8346583,0.14711106,0.123985626,-0.5160731,0.0,0.0,-0.44624957,0,0,0,0,0
844060000,0.122483425,0.3604711,-1.0840731,0.0,0.83554333,0.14388548,0.12221579,-0.51597244,0.0,0.0,-0.44388813,0,0,0,0,0
844108000,0.12111958,0.35486063,-1.0840731,0.0,0.83615416,0.14192007,0.12019156,-0.51600283,0.0,0.0,-0.44256434,0,0,0,0,0
844164000,0.11379059,0.3451356,-1.0893551,0.0,0.8361681,0.13674118,0.11760083,-0.5179719,0.0,0.0,-0.43879905,0,0,0,0,0
844212000,0.12387285,0.36277837,-1.0899805,0.0,0.8337018,0.1454014,0.12240529,-0.51847535,0.0,0.0,-0.44639507,0,0,0,0,0
844260000,0.1211973,0.35501495,-1.090026,0.0,0.834595,0.14234823,0.119813725,-0.51849085,0.0,0.0,-0.44357485,0,0,0,0,0
844308000,0.11926227,0.349154,-1.0901538,0.0,0.8352265,0.14008124,0.117827706,-0.5185466,0.0,0.0,-0.4414322,0,0,0,0,0
844356000,0.11904703,0.3461293,-1.0904042,0.0,0.8354458,0.13924831,0.116586566,-0.5186981,0.0,0.0,-0.44029135,0,0,0,0,0
844412000,0.12591629,0.3582338,-1.0914279,0.0,0.8335977,0.14520526,0.119849324,-0.5192941,0.0,0.0,-0.44553015,0,0,0,0,0
844460000,0.122754805,0.35273916,-1.0922824,0.0,0.83410484,0.14256255,0.11828673,-0.5195703,0.0,0.0,-0.44386494,0,0,0,0,0
844516000,0.11675656,0.34193483,-1.0933748,0.0,0.8352024,0.1374109,0.11520199,-0.5198882,0.0,0.0,-0.43992618,0,0,0,0,0
844564000,0.11397982,0.3363644,-1.0946676,0.0,0.8355384,0.1349226,0.11348123,-0.5203783,0.0,0.0,-0.43864205,0,0,0,0,0
844612000,0.110852376,0.33075228,-1.0961058,0.0,0.83585083,0.13228054,0.11182703,-0.5209126,0.0,0.0,-0.43708017,0,0,0,0,0
844660000,0.114986524,0.3478691,-1.0993189,0.0,0.833254,0.13851437,0.11775906,-0.5221441,0.0,0.0,-0.44579175,0,0,0,0,0
844708000,0.11197852,0.3441196,-1.1010011,0.0,0.83335066,0.13641152,0.116847835,-0.52274764,0.0,0.0,-0.4459891,0,0,0,0,0
844756000,0.1080527,0.3379949,-1.1026717,0.0,0.8337075,0.13331921,0.1151794,-0.52334636,0.0,0.0,-0.44363537,0,0,0,0,0
844812000,0.102944754,0.3276405,-1.1042851,0.0,0.83449,0.12864658,0.1120454,-0.5239487,0.0,0.0,-0.44038787,0,0,0,0,0
844860000,0.11055814,0.34737167,-1.1072506,0.0,0.83152604,0.13701299,0.11816264,-0.52519476,0.0,0.0,-0.44899517,0,0,0,0,0
844908000,0.10713098,0.3408848,-1.1085027,0.0,0.83199227,0.1340083,0.11624863,-0.52565855,0.0,0.0,-0.4476949,0,0,0,0,0
844956000,0.105025046,0.33651948,-1.109572,0.0,0.8322236,0.13207927,0.11489447,-0.5260782,0.0,0.0,-0.4457697,0,0,0,0,0
845012000,0.10131567,0.32781643,-1.1103387,0.0,0.8329906,0.12835172,0.11215834,-0.5263773,0.0,0.0,-0.44241697,0,0,0,0,0
845060000,0.10841849,0.3446188,-1.1112651,0.0,0.83085626,0.13565812,0.11729398,-0.5267987,0.0,0.0,-0.44952792,0,0,0,0,0
845116000,0.104670405,0.33492327,-1.1114727,0.0,0.8318815,0.13163225,0.11419108,-0.5268837,0.0,0.0,-0.44688985,0,0,0,0,0
845156000,0.103971906,0.33359966,-1.1115714,0.0,0.8320127,0.13100836,0.11381196,-0.52691406,0.0,0.0,-0.4466637,0,0,0,0,0
845212000,0.11222407,0.3485112,-1.1116035,0.0,0.8301661,0.13825238,0.11790401,-0.527076,0.0,0.0,-0.45311823,0,0,0,0,0
845260000,0.11080661,0.34217858,-1.1085991,0.0,0.83160734,0.13587251,0.11582026,-0.52588356,0.0,0.0,-0.45023203,0,0,0,0,0
845308000,0.108525135,0.33552012,-1.1092296,0.0,0.83216625,0.13326074,0.11357593,-0.5261572,0.0,0.0,-0.44611445,0,0,0,0,0
845364000,0.104797766,0.32496902,-1.1092361,0.0,0.8332912,0.12901199,0.1101143,-0.5261716,0.0,0.0,-0.44131485,0,0,0,0,0
845412000,0.11342648,0.34204328,-1.1094111,0.0,0.8312268,0.13697399,0.11501873,-0.5263752,0.0,0.0,-0.4486217,0,0,0,0,0
845460000,0.1115813,0.33462155,-1.1096601,0.0,0.8319249,0.13432707,0.112364665,-0.52652764,0.0,0.0,-0.44662142,0,0,0,0,0
845508000,0.10967496,0.32723284,-1.1100727,0.0,0.8325656,0.13166828,0.10972914,-0.52674234,0.0,0.0,-0.44397694,0,0,0,0,0
845564000,0.10512854,0.31659755,-1.1106956,0.0,0.8335673,0.12708434,0.1064083,-0.5269653,0.0,0.0,-0.4403089,0,0,0,0,0
845612000,0.113908984,0.3339655,-1.1126579,0.0,0.8310337,0.13529465,0.11127301,-0.52791727,0.0,0.0,-0.44783324,0,0,0,0,0
845660000,0.112162404,0.32770154,-1.1140264,0.0,0.8313188,0.13303927,0.10900846,-0.5285137,0.0,0.0,-0.44636345,0,0,0,0,0
845708000,0.10553206,0.32302642,-1.1155382,0.0,0.831741,0.12916397,0.10869652,-0.52887493,0.0,0.0,-0.44493455,0,0,0,0,0
845764000,0.101172894,0.3130434,-1.1172012,0.0,0.83238214,0.12486724,0.10554785,-0.5295354,0.0,0.0,-0.44208726,0,0,0,0,0
845812000,0.109203555,0.3309405,-1.1208087,0.0,0.8294473,0.13301642,0.11070154,-0.5311016,0.0,0.0,-0.44902188,0,0,0,0,0
845860000,0.106757745,0.32732925,-1.1226577,0.0,0.82941884,0.13117142,0.10971471,-0.53180933,0.0,0.0,-0.44749692,0,0,0,0,0
845908000,0.10407,0.32080927,-1.1244774,0.0,0.8296438,0.12846747,0.10757799,-0.53255445,0.0,0.0,-0.44569018,0,0,0,0,0
845956000,0.103522845,0.3156698,-1.1262475,0.0,0.8296212,0.12700094,0.10545625,-0.53336513,0.0,0.0,-0.4435,0,0,0,0,0
846012000,0.1093678,0.32928547,-1.1294272,0.0,0.82727855,0.13313024,0.109390914,-0.53471494,0.0,0.0,-0.4485954,0,0,0,0,0
846060000,0.107046425,0.3233567,-1.130749,0.0,0.8275689,0.13069959,0.107443996,-0.53525984,0.0,0.0,-0.44774845,0,0,0,0,0
846116000,0.10309157,0.31238067,-1.1318632,0.0,0.8284094,0.12625934,0.1038384,-0.5357369,0.0,0.0,-0.44520792,0,0,0,0,0
846156000,0.103418574,0.31261674,-1.1327133,0.0,0.8281423,0.12650053,0.10379583,-0.5361011,0.0,0.0,-0.445753,0,0,0,0,0
846212000,0.09873559,0.2999681,-1.1333216,0.0,0.8292517,0.121282056,0.09972043,-0.5363656,0.0,0.0,-0.44049218,0,0,0,0,0
846260000,0.10722771,0.3192485,-1.1339754,0.0,0.8270276,0.12987506,0.105467,-0.53668845,0.0,0.0,-0.44858631,0,0,0,0,0
846308000,0.106292635,0.31428936,-1.1341,0.0,0.82745415,0.1281991,0.10363628,-0.5367906,0.0,0.0,-0.44808707,0,0,0,0,0
846364000,0.102616504,0.3031573,-1.1341456,0.0,0.8285485,0.12376695,0.09996341,-0.53683937,0.0,0.0,-0.44481054,0,0,0,0,0
846412000,0.10047362,0.30039206,-1.1341516,0.0,0.828891,0.122154914,0.099381074,-0.5367879,0.0,0.0,-0.44350594,0,0,0,0,0
846460000,0.1105023,0.3181171,-1.1306709,0.0,0.827792,0.13076143,0.10433126,-0.53551555,0.0,0.0,-0.4500832,0,0,0,0,0
846508000,0.10761655,0.3138802,-1.1306773,0.0,0.8283194,0.12846325,0.10332981,-0.5354504,0.0,0.0,-0.44729424,0,0,0,0,0
846556000,0.107183754,0.3094682,-1.130724,0.0,0.82868594,0.12713611,0.10159534,-0.53553194,0.0,0.0,-0.44519576,0,0,0,0,0
846612000,0.10313809,0.30038363,-1.1308508,0.0,0.82961315,0.123093866,0.09886561,-0.5355516,0.0,0.0,-0.4413203,0,0,0,0,0
846660000,0.11299619,0.31799543,-1.1315076,0.0,0.82741404,0.1318052,0.10355734,-0.53599375,0.0,0.0,-0.44967648,0,0,0,0,0
846716000,0.10928714,0.30748156,-1.1321257,0.0,0.82833344,0.12755975,0.10011067,-0.53625554,0.0,0.0,-0.44642836,0,0,0,0,0
846756000,0.109868705,0.30790037,-1.1329764,0.0,0.828035,0.12795252,0.10007565,-0.5366293,0.0,0.0,-0.446276,0,0,0,0,0
846812000,0.10159658,0.299405,-1.1340991,0.0,0.8289117,0.12235907,0.09866978,-0.53684074,0.0,0.0,-0.44265977,0,0,0,0,0
846860000,0.109681986,0.31751838,-1.1369754,0.0,0.82620203,0.13059409,0.10388912,-0.5380915,0.0,0.0,-0.44876844,0,0,0,0,0
846908000,0.10724862,0.31319988,-1.138654,0.0,0.8262553,0.1285439,0.102631636,-0.5387443,0.0,0.0,-0.44706047,0,0,0,0,0
846956000,0.10437069,0.30875564,-1.1404524,0.0,0.82630587,0.1262794,0.10143706,-0.5394281,0.0,0.0,-0.44451383,0,0,0,0,0
847012000,0.09930519,0.29902455,-1.1423347,0.0,0.8268631,0.121716745,0.09862518,-0.54014397,0.0,0.0,-0.44134745,0,0,0,0,0
847060000,0.10878309,0.32090592,-1.1461134,0.0,0.8235186,0.13159022,0.10494585,-0.54174495,0.0,0.0,-0.4506853,0,0,0,0,0
847108000,0.10699902,0.31419703,-1.1479123,0.0,0.82368904,0.12917832,0.10251841,-0.5425304,0.0,0.0,-0.44835025,0,0,0,0,0
847156000,0.10436569,0.30846983,-1.1496351,0.0,0.8238432,0.12666604,0.100738585,-0.5432217,0.0,0.0,-0.44626695,0,0,0,0,0
847212000,0.101455934,0.30033585,-1.1512247,0.0,0.82422227,0.12338873,0.09804416,-0.5438936,0.0,0.0,-0.4431525,0,0,0,0,0
847260000,0.09983424,0.29473066,-1.152701,0.0,0.8243436,0.121301845,0.09606222,-0.54453236,0.0,0.0,-0.4428248,0,0,0,0,0
847308000,0.108246215,0.3138412,-1.15479,0.0,0.821766,0.12994803,0.10158563,-0.5454306,0.0,0.0,-0.45064285,0,0,0,0,0
847356000,0.106751196,0.3087863,-1.1554459,0.0,0.82208455,0.12802301,0.09985078,-0.5457261,0.0,0.0,-0.4492529,0,0,0,0,0
847412000,0.102325186,0.29894435,-1.1559271,0.0,0.82299346,0.12360566,0.09693818,-0.5458995,0.0,0.0,-0.4450852,0,0,0,0,0
847460000,0.10179594,0.29407942,-1.1562064,0.0,0.82331735,0.122103855,0.095043175,-0.54608244,0.0,0.0,-0.44420928,0,0,0,0,0
847508000,0.10876601,0.31343317,-1.1564258,0.0,0.82131845,0.13013601,0.101167925,-0.5461371,0.0,0.0,-0.45231092,0,0,0,0,0
847564000,0.10516409,0.30233935,-1.1564393,0.0,0.82241654,0.12570319,0.097542115,-0.5461824,0.0,0.0,-0.4489321,0,0,0,0,0
847612000,0.10348353,0.29874226,-1.1564395,0.0,0.82279724,0.12405317,0.09650621,-0.5461703,0.0,0.0,-0.44737956,0,0,0,0,0
847660000,0.10409611,0.29401857,-1.1511114,0.0,0.8245697,0.12279357,0.0947029,-0.54409367,0.0,0.0,-0.44564006,0,0,0,0,0
847708000,0.1107997,0.31303912,-1.1517237,0.0,0.8224992,0.13062982,0.100756265,-0.5443151,0.0,0.0,-0.45286554,0,0,0,0,0
847756000,0.109166175,0.3076175,-1.1517702,0.0,0.82302344,0.12852314,0.09894241,-0.5443571,0.0,0.0,-0.44989726,0,0,0,0,0
847812000,0.10430153,0.29911792,-1.1518978,0.0,0.82395595,0.12427052,0.0967214,-0.5443329,0.0,0.0,-0.44595134,0,0,0,0,0
847860000,0.10930156,0.31866464,-1.1525588,0.0,0.8219165,0.13154699,0.103448495,-0.5444695,0.0,0.0,-0.4520352,0,0,0,0,0
847916000,0.10383499,0.30815455,-1.1531746,0.0,0.82293886,0.126542,0.10052769,-0.54465854,0.0,0.0,-0.44696614,0,0,0,0,0
847956000,0.103250355,0.3096971,-1.1540389,0.0,0.8226196,0.12675497,0.10127348,-0.54495305,0.0,0.0,-0.44717553,0,0,0,0,0
848012000,0.09752119,0.2976176,-1.1551648,0.0,0.8235959,0.12123731,0.09774393,-0.54537827,0.0,0.0,-0.44226286,0,0,0,0,0
848060000,0.09619532,0.29272267,-1.1565082,0.0,0.82367426,0.11945001,0.09598999,-0.54596555,0.0,0.0,-0.4415535,0,0,0,0,0
848108000,0.10353678,0.31107077,-1.1597177,0.0,0.8209428,0.12752633,0.10140471,-0.5472723,0.0,0.0,-0.44924474,0,0,0,0,0
848156000,0.09997144,0.30655894,-1.1614982,0.0,0.8210323,0.124946795,0.10039709,-0.54791856,0.0,0.0,-0.44778568,0,0,0,0,0
848212000,0.09636109,0.29755083,-1.163319,0.0,0.8214409,0.12114043,0.0975394,-0.54867655,0.0,0.0,-0.4441529,0,0,0,0,0
848260000,0.095846124,0.29404032,-1.1652559,0.0,0.8212018,0.12007967,0.0961087,-0.5495194,0.0,0.0,-0.4443569,0,0,0,0,0
848308000,0.10272583,0.31274518,-1.1688051,0.0,0.81836784,0.128104,0.10174019,-0.55091965,0.0,0.0,-0.45092854,0,0,0,0,0
848356000,0.10207371,0.31051248,-1.1704582,0.0,0.81812924,0.12732032,0.10089113,-0.5516113,0.0,0.0,-0.4500684,0,0,0,0,0
848412000,0.09618154,0.2993125,-1.1719818,0.0,0.81893545,0.12196415,0.09779173,-0.5521832,0.0,0.0,-0.44499993,0,0,0,0,0
848460000,0.09525924,0.29477185,-1.1733092,0.0,0.8189636,0.1204233,0.09608901,-0.55277824,0.0,0.0,-0.44375083,0,0,0,0,0
848508000,0.10245089,0.31423548,-1.1752822,0.0,0.8164794,0.12872311,0.10201593,-0.55352014,0.0,0.0,-0.4519297,0,0,0,0,0
848564000,0.09882731,0.30346844,-1.1758972,0.0,0.817375,0.12436245,0.09853599,-0.55382556,0.0,0.0,-0.44692224,0,0,0,0,0
848612000,0.09600247,0.2985474,-1.1763092,0.0,0.8178071,0.12189488,0.09726134,-0.55396163,0.0,0.0,-0.44450805,0,0,0,0,0
848660000,0.0947939,0.2937737,-1.1765562,0.0,0.8181669,0.12011802,0.095610134,-0.5541059,0.0,0.0,-0.44357324,0,0,0,0,0
848708000,0.10314898,0.3124679,-1.1767294,0.0,0.8161732,0.12860382,0.10100019,-0.5541853,0.0,0.0,-0.45115516,0,0,0,0,0
848756000,0.0991546,0.30636606,-1.1767356,0.0,0.8169002,0.12532221,0.09958897,-0.5541213,0.0,0.0,-0.44839492,0,0,0,0,0
848812000,0.09462084,0.2974304,-1.1767356,0.0,0.8178564,0.12104777,0.09715702,-0.5540929,0.0,0.0,-0.44406512,0,0,0,0,0
848860000,0.10317689,0.31954283,-1.1767896,0.0,0.81559235,0.1305307,0.103906564,-0.55405265,0.0,0.0,-0.45205036,0,0,0,0,0
848908000,0.09792143,0.31449,-1.1769183,0.0,0.816296,0.127027,0.10327038,-0.55394965,0.0,0.0,-0.4497865,0,0,0,0,0
848956000,0.09653764,0.30817124,-1.1771663,0.0,0.8168055,0.124763876,0.101031885,-0.5541258,0.0,0.0,-0.44777587,0,0,0,0,0
849012000,0.09097659,0.29883695,-1.1775836,0.0,0.8177363,0.11998083,0.098696195,-0.5542301,0.0,0.0,-0.44405496,0,0,0,0,0
849060000,0.088736415,0.2937057,-1.1781951,0.0,0.8180778,0.117700666,0.097163446,-0.5544858,0.0,0.0,-0.442279,0,0,0,0,0
849108000,0.09545475,0.31253844,-1.1800815,0.0,0.8157271,0.12565476,0.10295008,-0.555159,0.0,0.0,-0.44855627,0,0,0,0,0
849164000,0.09018952,0.30280134,-1.1812947,0.0,0.8164581,0.120921545,0.10032568,-0.55561584,0.0,0.0,-0.4447529,0,0,0,0,0
849212000,0.088121966,0.29718113,-1.182646,0.0,0.8166236,0.11861352,0.098504014,-0.5561957,0.0,0.0,-0.44256538,0,0,0,0,0
849260000,0.088328406,0.29584056,-1.1841137,0.0,0.8163014,0.11840406,0.097807474,-0.55683583,0.0,0.0,-0.4424129,0,0,0,0,0
849308000,0.09277689,0.31219885,-1.1869384,0.0,0.8140132,0.12482453,0.10312607,-0.5578228,0.0,0.0,-0.44847396,0,0,0,0,0
849356000,0.09069429,0.30773163,-1.188359,0.0,0.8140878,0.122829236,0.101783305,-0.5584033,0.0,0.0,-0.4466017,0,0,0,0,0
849412000,0.0868572,0.2984073,-1.1896932,0.0,0.81464386,0.11878083,0.09894287,-0.5589784,0.0,0.0,-0.44382495,0,0,0,0,0
849460000,0.08418103,0.29240245,-1.1908759,0.0,0.814907,0.116100825,0.09715423,-0.5594714,0.0,0.0,-0.44126645,0,0,0,0,0
849508000,0.08142648,0.28696308,-1.1919171,0.0,0.81516093,0.11353323,0.09563044,-0.5598908,0.0,0.0,-0.43915585,0,0,0,0,0
849556000,0.08872434,0.30819306,-1.1933588,0.0,0.8127752,0.12240946,0.1022172,-0.5603249,0.0,0.0,-0.4465304,0,0,0,0,0
849612000,0.084795035,0.29826918,-1.1937631,0.0,0.813637,0.1181051,0.099222295,-0.5605363,0.0,0.0,-0.4428983,0,0,0,0,0
849660000,0.08448131,0.2944661,-1.1940029,0.0,0.81386495,0.116942845,0.09773543,-0.56071025,0.0,0.0,-0.44185972,0,0,0,0,0
849708000,0.08181768,0.29014614,-1.1941254,0.0,0.8142947,0.11467508,0.096701995,-0.560734,0.0,0.0,-0.44085273,0,0,0,0,0
849764000,0.08833334,0.30585712,-1.1941744,0.0,0.81274676,0.12165049,0.101318836,-0.5606945,0.0,0.0,-0.44744924,0,0,0,0,0
849812000,0.087133095,0.3005415,-1.1941744,0.0,0.81321555,0.119701385,0.09947479,-0.5607645,0.0,0.0,-0.44521323,0,0,0,0,0
849860000,0.08510262,0.29558966,-1.1941808,0.0,0.81369716,0.1175136,0.098011896,-0.5607862,0.0,0.0,-0.44395027,0,0,0,0,0
849908000,0.0833743,0.29129744,-1.1942272,0.0,0.8140944,0.1156308,0.09673224,-0.56082326,0.0,0.0,-0.4431787,0,0,0,0,0
849964000,0.08823897,0.30582595,-1.1946064,0.0,0.8126337,0.121625446,0.101306245,-0.56086606,0.0,0.0,-0.4488972,0,0,0,0,0
850012000,0.082701966,0.30271578,-1.1950157,0.0,0.813083,0.11854027,0.10155898,-0.56082976,0.0,0.0,-0.44668224,0,0,0,0,0
850060000,0.0824695,0.29799378,-1.1956267,0.0,0.8132713,0.11717606,0.09965186,-0.5611854,0.0,0.0,-0.44573253,0,0,0,0,0
850116000,0.08628535,0.3122086,-1.1974808,0.0,0.8114634,0.1227359,0.104294576,-0.5617701,0.0,0.0,-0.4508779,0,0,0,0,0
850164000,0.08517318,0.30800793,-1.1986622,0.0,0.811517,0.12118832,0.10281499,-0.5623012,0.0,0.0,-0.44957557,0,0,0,0,0
850212000,0.08333141,0.30303302,-1.1999215,0.0,0.811644,0.11913214,0.101220645,-0.56284624,0.0,0.0,-0.44719505,0,0,0,0,0
850260000,0.083130546,0.30054772,-1.2013103,0.0,0.8114478,0.11843357,0.100177474,-0.5634628,0.0,0.0,-0.44640884,0,0,0,0,0
850316000,0.08223488,0.29012194,-1.1900203,-0.118779354,0.8154217,0.11463982,0.09681062,-0.55908215,0.0,0.0,-0.4354326,0,0,0,0,0
850364000,0.07538548,0.27289152,-1.1945647,-0.15377818,0.8157173,0.10731442,0.09139657,-0.56101304,0.0,0.0,-0.42334247,0,0,0,0,0
850412000,0.06688153,0.2536779,-1.1945647,-0.12713143,0.8173874,0.098526835,0.085887045,-0.56106484,0.0,0.0,-0.41436723,0,0,0,0,0
850460000,0.059603393,0.23112792,-1.1945647,-0.10510204,0.8190548,0.08929358,0.078655005,-0.5612391,0.0,0.0,-0.40734082,0,0,0,0,0
850508000,0.05044167,0.21054113,-1.1945647,-0.051720187,0.8205379,0.07981243,0.072752334,-0.56129724,0.0,0.0,-0.39814144,0,0,0,0,0
850564000,0.039616823,0.18351805,-1.1945647,-0.059386235,0.82220626,0.067831494,0.06465862,-0.56142235,0.0,0.0,-0.3907843,0,0,0,0,0
850612000,0.030185325,0.16019313,-1.1945647,-0.04909576,0.8234432,0.05743197,0.057690345,-0.561529,0.0,0.0,-0.39282277,0,0,0,0,0
850660000,0.020962907,0.13691384,-1.1945647,-0.040588427,0.8244818,0.04711413,0.05067664,-0.5616421,0.0,0.0,-0.3983134,0,0,0,0,0
850716000,0.009314034,0.10541596,-1.1945647,-0.01997336,0.82557184,0.03347416,0.040946398,-0.5618132,0.0,0.0,-0.40239134,0,0,0,0,0
850756000,-5.3395554e-05,0.08376791,-1.1945647,-0.016512368,0.8261425,0.02352649,0.034637343,-0.5619033,0.0,0.0,-0.40512186,0,0,0,0,0
850812000,-0.012834131,0.049662363,-1.1945647,-0.018959856,0.8266847,0.00865888,0.024137357,-0.5620807,0.0,0.0,-0.40859708,0,0,0,0,0
850860000,-0.022621501,0.0236675,-1.1945647,-0.015674483,0.8268316,-0.002696943,0.016144637,-0.5622114,0.0,0.0,-0.41299242,0,0,0,0,0
850916000,-0.038858786,-0.017806638,-1.1945647,-0.0077133356,0.82658094,-0.021070069,0.0035655452,-0.56241196,0.0,0.0,-0.4142819,0,0,0,0,0
850956000,-0.050507553,-0.04573389,-1.1945647,-0.006376765,0.8260626,-0.033728927,-0.0047028116,-0.5625485,0.0,0.0,-0.41647726,0,0,0,0,0
851012000,-0.066091835,-0.08817724,-1.1945647,-0.007321939,0.82479364,-0.052066825,-0.017860219,-0.56274825,0.0,0.0,-0.42020646,0,0,0,0,0
851060000,-0.07431083,-0.109964356,-1.1945647,-0.0060531897,0.8238997,-0.061554026,-0.024548957,-0.5628479,0.0,0.0,-0.42520544,0,0,0,0,0
851108000,-0.08529638,-0.13981955,-1.1945647,-0.0029787447,0.8224223,-0.07441691,-0.033787105,-0.5629761,0.0,0.0,-0.42490175,0,0,0,0,0
851156000,-0.09225475,-0.15887429,-1.1945647,-0.0024625864,0.82132494,-0.08258826,-0.039694168,-0.5630532,0.0,0.0,-0.4292492,0,0,0,0,0
851212000,-0.10164966,-0.18197158,-1.1945647,-0.0028275948,0.81978756,-0.09286714,-0.046579115,-0.5631647,0.0,0.0,-0.4324637,0,0,0,0,0
851260000,-0.10528812,-0.20044689,-1.1945647,-0.002337628,0.8186169,-0.09948433,-0.05317348,-0.56315345,0.0,0.0,-0.43706596,0,0,0,0,0
851316000,-0.11661791,-0.23252809,-1.1945647,-0.0011503351,0.8160872,-0.11298966,-0.06320249,-0.56324106,0.0,0.0,-0.43807322,0,0,0,0,0
851364000,-0.12700377,-0.26217768,-1.1945647,-0.0013208395,0.81345534,-0.12538698,-0.07248192,-0.5633071,0.0,0.0,-0.43848884,0,0,0,0,0
851412000,-0.13255693,-0.28152114,-1.1945647,-0.001091964,0.8116658,-0.13295071,-0.07887244,-0.5632956,0.0,0.0,-0.44200626,0,0,0,0,0
851460000,-0.13633783,-0.3031616,-1.1945647,-0.00090274797,0.8097028,-0.14040248,-0.08669866,-0.5631623,0.0,0.0,-0.44552952,0,0,0,0,0
851508000,-0.1420765,-0.32591715,-1.1945647,-0.00044423775,0.8073783,-0.14892453,-0.09442187,-0.56306857,0.0,0.0,-0.44183472,0,0,0,0,0
851564000,-0.1429089,-0.3316539,-1.1945647,-0.0005100834,0.80681545,-0.15082018,-0.09654018,-0.5630116,0.0,0.0,-0.4423259,0,0,0,0,0
851612000,-0.1415208,-0.33421308,-1.1945647,-0.0004216959,0.8066949,-0.1509557,-0.097980164,-0.5628993,0.0,0.0,-0.44296736,0,0,0,0,0
851660000,-0.1413221,-0.333383,-1.1945647,-0.00034862425,0.806783,-0.15064998,-0.09769577,-0.5629043,0.0,0.0,-0.4443623,0,0,0,0,0
851708000,-0.14328393,-0.33837497,-1.1945647,-0.00017155624,0.8061917,-0.15279701,-0.09918995,-0.56291157,0.0,0.0,-0.4397056,0,0,0,0,0
851764000,-0.14352342,-0.33806047,-1.1945647,-0.00019698456,0.8062015,-0.15280817,-0.09899364,-0.5629291,0.0,0.0,-0.44457644,0,0,0,0,0
851812000,-0.14004907,-0.33703002,-1.1945647,-0.00016285099,0.80655706,-0.1511275,-0.099549055,-0.5627755,0.0,0.0,-0.45220494,0,0,0,0,0
851860000,-0.1339957,-0.33693177,-1.1945647,-0.0001346321,0.8070194,-0.1486589,-0.10121166,-0.5624735,0.0,0.0,-0.45718566,0,0,0,0,0
851908000,-0.13311243,-0.33889258,-1.1945647,-6.625178e-05,0.80691284,-0.14883573,-0.10226357,-0.5623893,0.0,0.0,-0.4598139,0,0,0,0,0
851956000,-0.12859318,-0.33613318,-1.1945647,-5.477164e-05,0.8074874,-0.146261,-0.10240344,-0.5622146,0.0,0.0,-0.46257523,0,0,0,0,0
852012000,-0.12534565,-0.33278418,-1.1945647,-6.288998e-05,0.80801207,-0.14403732,-0.1019438,-0.56211853,0.0,0.0,-0.46385917,0,0,0,0,0
852060000,-0.122513525,-0.3284108,-1.1945647,-5.1992374e-05,0.8085864,-0.14170043,-0.100947194,-0.56206644,0.0,0.0,-0.46396655,0,0,0,0,0
852108000,-0.12054111,-0.3250396,-1.1945647,-2.5585186e-05,0.80900836,-0.13998295,-0.10011946,-0.5620376,0.0,0.0,-0.4639263,0,0,0,0,0
852156000,-0.11887158,-0.3180652,-1.1945647,-2.1151774e-05,0.8097007,-0.13740247,-0.09772871,-0.56209826,0.0,0.0,-0.4635818,0,0,0,0,0
852212000,-0.11400283,-0.31051633,-1.1945647,-2.4286923e-05,0.8106399,-0.13336562,-0.09600035,-0.5620147,0.0,0.0,-0.45687985,0,0,0,0,0
852260000,-0.10393609,-0.30499873,-1.1945647,-2.0078474e-05,0.8117297,-0.12777072,-0.09656444,-0.56164473,0.0,0.0,-0.4514512,0,0,0,0,0
852308000,-0.09705207,-0.29931834,-1.1945647,-9.880517e-06,0.81259435,-0.12341585,-0.0961664,-0.5614366,0.0,0.0,-0.4451766,0,0,0,0,0
852364000,-0.087453015,-0.28931338,-1.1945647,-1.1345021e-05,0.8139049,-0.1167606,-0.09475413,-0.5612018,0.0,0.0,-0.44201067,0,0,0,0,0
852412000,-0.07994791,-0.2801828,-1.1945647,-9.379151e-06,0.81497407,-0.11118748,-0.09311114,-0.561057,0.0,0.0,-0.4401542,0,0,0,0,0
852460000,-0.06528434,-0.2725953,-1.1945646,-7.753928e-06,0.81626827,-0.10311128,-0.09410717,-0.5605516,0.0,0.0,-0.43999946,0,0,0,0,0
852516000,-0.05436073,-0.26063114,-1.1945647,-3.815669e-06,0.81756705,-0.09533613,-0.09225456,-0.5603429,0.0,0.0,-0.43770579,0,0,0,0,0
852564000,-0.044848125,-0.24808808,-1.1945647,-4.3812333e-06,0.8187472,-0.08796351,-0.08976609,-0.5602298,0.0,0.0,-0.43666604,0,0,0,0,0
852612000,-0.036125053,-0.23730657,-1.1945647,-3.6220513e-06,0.819717,-0.08139246,-0.08777813,-0.56012,0.0,0.0,-0.437444,0,0,0,0,0
852660000,-0.024941057,-0.2252772,-1.1945647,-2.9944208e-06,0.820775,-0.07345474,-0.085964344,-0.5599491,0.0,0.0,-0.43888292,0,0,0,0,0
852708000,-0.01299644,-0.20743449,-1.1945646,-1.4735393e-06,0.8220279,-0.06356881,-0.08196998,-0.5599197,0.0,0.0,-0.4377875,0,0,0,0,0
852756000,-0.003270791,-0.19259664,-1.1945647,-1.2182038e-06,0.8229466,-0.055420175,-0.078587316,-0.559921,0.0,0.0,-0.43885905,0,0,0,0,0
852812000,0.006453622,-0.17242105,-1.1945647,-1.3987678e-06,0.8239482,-0.04576606,-0.07300401,-0.56007606,0.0,0.0,-0.44005612,0,0,0,0,0
852860000,0.020038718,-0.15628485,-1.1945648,-1.1563887e-06,0.8247423,-0.035640933,-0.070162,-0.5600064,0.0,0.0,-0.44187137,0,0,0,0,0
852908000,0.032709856,-0.13013716,-1.1945647,-5.6905316e-07,0.8256049,-0.023069562,-0.062936015,-0.5602529,0.0,0.0,-0.44191548,0,0,0,0,0
852956000,0.03884847,-0.12074285,-1.1945647,-4.7044733e-07,0.825864,-0.01789472,-0.06078297,-0.5602979,0.0,0.0,-0.44464865,0,0,0,0,0
853012000,0.041208845,-0.122159384,-1.1945647,-5.401778e-07,0.8258573,-0.017318273,-0.062028117,-0.5601896,0.0,0.0,-0.4476962,0,0,0,0,0
853060000,0.040927354,-0.120777175,-1.1945647,-4.465755e-07,0.82588154,-0.017045923,-0.061379477,-0.56023353,0.0,0.0,-0.4507304,0,0,0,0,0
853116000,0.039761364,-0.123653434,-1.1945647,-2.1975757e-07,0.8258149,-0.01833598,-0.062238563,-0.56019634,0.0,0.0,-0.4508394,0,0,0,0,0
853164000,0.036510482,-0.12638353,-1.1945647,-2.5233038e-07,0.82572746,-0.020445628,-0.062453363,-0.5602282,0.0,0.0,-0.4514946,0,0,0,0,0
853212000,0.037501607,-0.12557493,-1.1945647,-2.0860644e-07,0.82575434,-0.019809147,-0.06239767,-0.5602178,0.0,0.0,-0.45292622,0,0,0,0,0
853260000,0.039286375,-0.12424713,-1.1945647,-1.7245902e-07,0.8257986,-0.018698998,-0.062350255,-0.5601959,0.0,0.0,-0.45273584,0,0,0,0,0
853308000,0.039033,-0.12414411,-1.1945647,-8.4866215e-08,0.8257983,-0.01877466,-0.062236823,-0.5602065,0.0,0.0,-0.45039004,0,0,0,0,0
853356000,0.03952045,-0.120650984,-1.1945647,-7.016056e-08,0.82587177,-0.01759141,-0.060933348,-0.56027985,0.0,0.0,-0.45143166,0,0,0,0,0
853412000,0.040510956,-0.11670907,-1.1945647,-8.0559865e-08,0.8259546,-0.01607415,-0.05958563,-0.5603482,0.0,0.0,-0.45088518,0,0,0,0,0
853460000,0.04351136,-0.11082461,-1.1945647,-6.6600414e-08,0.82608014,-0.013180394,-0.057999916,-0.5604051,0.0,0.0,-0.45028907,0,0,0,0,0
853508000,0.042799003,-0.10859905,-1.1945647,-3.2773734e-08,0.82611245,-0.012848804,-0.056882523,-0.5604797,0.0,0.0,-0.44816297,0,0,0,0,0
853556000,0.044357374,-0.102905296,-1.1945647,-2.7094686e-08,0.8262111,-0.010603898,-0.054970983,-0.5605719,0.0,0.0,-0.4493313,0,0,0,0,0
853612000,0.046313114,-0.097590566,-1.1945647,-3.1110698e-08,0.8262966,-0.008301208,-0.053326916,-0.56064355,0.0,0.0,-0.44827083,0,0,0,0,0
853660000,0.047978546,-0.08925794,-1.1945647,-2.5719823e-08,0.8264079,-0.0052693794,-0.05035614,-0.5607909,0.0,0.0,-0.44771108,0,0,0,0,0
853716000,0.04941838,-0.08149435,-1.1945647,-1.2656596e-08,0.8264946,-0.0024905938,-0.047556333,-0.56092685,0.0,0.0,-0.4412423,0,0,0,0,0
853756000,0.04936979,-0.07447939,-1.1945647,-1.0463455e-08,0.8265588,-0.00053738843,-0.044647478,-0.56107646,0.0,0.0,-0.4425203,0,0,0,0,0
853812000,0.04976861,-0.06632598,-1.1945647,-1.2014365e-08,0.8266206,0.0019209913,-0.041393597,-0.561232,0.0,0.0,-0.44414076,0,0,0,0,0
853860000,0.052011684,-0.056738265,-1.1945647,-9.93251e-09,0.8266697,0.0055451067,-0.038064513,-0.56137115,0.0,0.0,-0.44606584,0,0,0,0,0
853908000,0.052978314,-0.050956387,-1.1945647,-4.887739e-09,0.82668823,0.00757105,-0.03594826,-0.5614597,0.0,0.0,-0.44471493,0,0,0,0,0
853956000,0.05331898,-0.04400393,-1.1945647,-4.0407895e-09,0.826703,0.009667456,-0.033172596,-0.5615766,0.0,0.0,-0.44599172,0,0,0,0,0
854012000,0.05206866,-0.036321398,-1.1945647,-4.639721e-09,0.8267164,0.011311441,-0.029648142,-0.5617233,0.0,0.0,-0.44701594,0,0,0,0,0
854060000,0.053542644,-0.028979272,-1.1945647,-3.835748e-09,0.8267021,0.013985628,-0.027029036,-0.56181616,0.0,0.0,-0.44882664,0,0,0,0,0
854108000,0.05311802,-0.02380296,-1.1945647,-1.8875523e-09,0.82669467,0.015265792,-0.024771146,-0.56189793,0.0,0.0,-0.44729364,0,0,0,0,0
854164000,0.051849008,-0.016897203,-1.1945647,-2.1673283e-09,0.82668287,0.016683133,-0.021561159,-0.5620073,0.0,0.0,-0.44786608,0,0,0,0,0
854212000,0.052599493,-0.0115295,-1.1945647,-1.7917727e-09,0.82665265,0.018502584,-0.019553965,-0.5620682,0.0,0.0,-0.4499357,0,0,0,0,0
854260000,0.05175629,-0.0057744635,-1.1945647,-1.4812935e-09,0.8266288,0.01977208,-0.01693867,-0.56214494,0.0,0.0,-0.45252284,0,0,0,0,0
854308000,0.049809486,-0.0034598382,-1.1945647,-7.289371e-10,0.82663363,0.019618152,-0.015434863,-0.5621866,0.0,0.0,-0.45057213,0,0,0,0,0
854364000,0.048537493,0.0011065374,-1.1945647,-8.369812e-10,0.82661587,0.02037612,-0.013189993,-0.56224287,0.0,0.0,-0.45171058,0,0,0,0,0
854412000,0.047379352,0.0045668473,-1.1945647,-6.919487e-10,0.8266025,0.020870157,-0.011434172,-0.56228286,0.0,0.0,-0.45351568,0,0,0,0,0
854460000,0.04616095,0.009181827,-1.1945647,-5.720476e-10,0.82657856,0.02166381,-0.009184059,-0.5623293,0.0,0.0,-0.45458463,0,0,0,0,0
854516000,0.04468133,0.012548614,-1.1945647,-2.8150177e-10,0.8265656,0.02199861,-0.0073763495,-0.5623619,0.0,0.0,-0.45324072,0,0,0,0,0
854556000,0.042244643,0.015036207,-1.1945647,-2.32723e-10,0.82657,0.02169074,-0.005662894,-0.5623874,0.0,0.0,-0.45352066,0,0,0,0,0
854612000,0.042839285,0.020332234,-1.1945647,-2.6721758e-10,0.8265122,0.023424914,-0.0036408536,-0.5624195,0.0,0.0,-0.45465055,0,0,0,0,0
854660000,0.042361464,0.022479312,-1.1945647,-2.2091401e-10,0.8264955,0.023830839,-0.002618925,-0.5624326,0.0,0.0,-0.45535743,0,0,0,0,0
854708000,0.040358324,0.023927476,-1.1945647,-1.0871067e-10,0.8265038,0.023410004,-0.0014569553,-0.56244224,0.0,0.0,-0.4536757,0,0,0,0,0
