timestamp,timestamp_sample,ref_timestamp,ref_lat,ref_lon,x,y,z,delta_xy[0],delta_xy[1],delta_z,vx,vy,vz,z_deriv,delta_vxy[0],delta_vxy[1],delta_vz,ax,ay,az,heading,delta_heading,ref_alt,dist_bottom,eph,epv,evh,evv,vxy_max,vz_max,hagl_min,hagl_max,xy_valid,z_valid,v_xy_valid,v_z_valid,xy_reset_counter,z_reset_counter,vxy_reset_counter,vz_reset_counter,heading_reset_counter,heading_good_for_control,xy_global,z_global,dist_bottom_valid,dist_bottom_sensor_bitfield
829668000,829668000,1032000,41.606704,-86.3556021,-0.4485713,-1.1158732,0.1264491,0.00041495546,0.00015213668,0.0,-0.00278933,-0.0016898203,-0.00018119393,-0.001114054,-0.00028231734,-0.01249773,-0.017066564,-0.11582571,-0.00929329,0.044728566,-1.1120796,-0.011545566,229.4058,0.10010137,0.056068964,0.06008371,0.0070451167,0.005000237,inf,inf,inf,inf,1,1,1,1,2,0,2,1,4,0,1,1,1,0
830172000,830172000,1032000,41.606704,-86.3556021,-0.44767427,-1.1167816,0.12698416,0.00041495546,0.00015213668,0.0,0.0019574813,-0.0049522114,0.0017887348,0.000977191,-0.00028231734,-0.01249773,-0.017066564,-0.008255668,0.018496834,0.09131238,-1.1121441,-0.011545566,229.4058,0.1,0.056016445,0.06002096,0.015291324,0.010986328,inf,inf,inf,inf,1,1,1,1,2,0,2,1,4,0,1,1,1,0
830668000,830668000,1032000,41.606704,-86.3556021,-0.4479337,-1.1162106,0.12679018,0.00041495546,0.00015213668,0.0,-6.232621e-05,-0.0031780442,-0.00015220001,-0.00078448764,-0.00028231734,-0.01249773,-0.017066564,0.058131248,-0.006710428,0.06496527,-1.112042,-0.011545566,229.4058,0.10036199,0.05594648,0.059980206,0.020350281,0.0147659825,inf,inf,inf,inf,1,1,1,1,2,0,2,1,4,0,1,1,1,0
831164000,831164000,1032000,41.606704,-86.3556021,-0.44686174,-1.1169118,0.12606366,0.00041495546,0.00015213668,0.0,0.003887489,-0.0040481896,-0.001698595,-0.002387603,-0.00028231734,-0.01249773,-0.017066564,-0.02803225,-0.02551163,-0.032713696,-1.1119092,-0.011545566,229.4058,0.10011776,0.055904258,0.05990936,0.011467112,0.008185543,inf,inf,inf,inf,1,1,1,1,2,0,2,1,4,0,1,1,1,0
831668000,831668000,1032000,41.606704,-86.3556021,-0.4463491,-1.1172007,0.12578276,0.00041495546,0.00015213668,0.0,0.0034885872,-0.0048386035,-0.00011213675,-0.00027938734,-0.00028231734,-0.01249773,-0.017066564,0.11248496,-0.015281464,-0.15372601,-1.111677,-0.011545566,229.4058,0.1003066,0.055863556,0.059861537,0.017957179,0.012966703,inf,inf,inf,inf,1,1,1,1,2,0,2,1,4,0,1,1,1,0
832172000,832172000,1032000,41.606704,-86.3556021,-0.4473587,-1.1162177,0.12546718,0.00041495546,0.00015213668,0.0,-0.0014810398,-0.0002664741,-0.00036360888,9.103541e-05,-0.00028231734,-0.01249773,-0.017066564,-0.06763234,-0.016721386,0.40245235,-1.1115091,-0.011545566,229.4058,0.100584954,0.055798285,0.059792425,0.008109975,0.0057621803,inf,inf,inf,inf,1,1,1,1,2,0,2,1,4,0,1,1,1,0
832668000,832668000,1032000,41.606704,-86.3556021,-0.44833365,-1.1157836,0.12389648,0.00041495546,0.00015213668,0.0,-0.0023335926,-0.0025921708,-0.004417375,-0.0031078511,-0.00028231734,-0.01249773,-0.017066564,-0.044989835,0.013376428,0.061563145,-1.1114116,-0.011545566,229.4058,0.102015704,0.055747084,0.059730858,0.015288537,0.01098568,inf,inf,inf,inf,1,1,1,1,2,0,2,1,4,0,1,1,1,0
833164000,833164000,1032000,41.606704,-86.3556021,-0.44812766,-1.1151662,0.1255593,0.00041495546,0.00015213668,0.0,-0.0013334847,0.0033168893,0.00023042747,0.0020781388,-0.00028231734,-0.01249773,-0.017066564,0.00023452377,0.0023008655,-0.49134347,-1.1109462,-0.011545566,229.4058,0.10074815,0.055722497,0.059691273,0.020364184,0.014770404,inf,inf,inf,inf,1,1,1,1,2,0,2,1,4,0,1,1,1,0
833668000,833668000,1032000,41.606704,-86.3556021,-0.44733012,-1.1130215,0.12660015,0.00041495546,0.00015213668,0.0,0.00050669414,0.0067728176,0.0006434224,0.002046026,-0.00028231734,-0.01249773,-0.017066564,-0.018896163,0.026324602,0.088591054,-1.1111681,-0.011545566,229.4058,0.1,0.055638295,0.059621714,0.012174612,0.008700716,inf,inf,inf,inf,1,1,1,1,2,0,2,1,4,0,1,1,1,0
834164000,834164000,1032000,41.606704,-86.3556021,-0.44649315,-1.1145321,0.12628031,0.00041495546,0.00015213668,0.0,0.002067303,0.00048033343,-0.0018765449,-0.0008433399,-0.00028231734,-0.01249773,-0.017066564,0.124728695,0.0039720726,0.15938647,-1.1108044,-0.011545566,229.4058,0.10036415,0.055641435,0.059566077,0.017962148,0.012968892,inf,inf,inf,inf,1,1,1,1,2,0,2,1,4,0,1,1,1,0
834668000,834668000,1032000,41.606704,-86.3556021,-0.44649765,-1.1155429,0.1265879,0.00041495546,0.00015213668,0.0,0.0022855927,0.00093265815,0.0037196185,0.004931294,-0.00028231734,-0.01249773,-0.017066564,-0.05034546,-0.009123169,0.055089526,-1.1108363,-0.011545566,229.4058,0.10008782,0.055534456,0.059506755,0.00810899,0.005762187,inf,inf,inf,inf,1,1,1,1,2,0,2,1,4,0,1,1,1,0
835164000,835164000,1032000,41.606704,-86.3556021,-0.44654667,-1.1155455,0.127157,0.00041495546,0.00015213668,0.0,0.0047100023,0.0022430895,-0.0011545966,-0.0005558253,-0.00028231734,-0.01249773,-0.017066564,-0.011355109,0.012337401,-0.05708641,-1.110727,-0.011545566,229.4058,0.1,0.055527348,0.05944638,0.015292309,0.0109863095,inf,inf,inf,inf,1,1,1,1,2,0,2,1,4,0,1,1,1,0
835668000,835668000,1032000,41.606704,-86.3556021,-0.44613227,-1.1158369,0.1282101,0.00041495546,0.00015213668,0.0,0.0051409933,-0.0014959315,0.0023046643,0.0024091336,-0.00028231734,-0.01249773,-0.017066564,0.070008576,-0.043059077,-0.0019027551,-1.1103566,-0.011545566,229.4058,0.1,0.055467017,0.059410766,0.020808386,0.015110514,inf,inf,inf,inf,1,1,1,1,2,0,2,1,4,0,1,1,1,0
836172000,836172000,1032000,41.606704,-86.3556021,-0.44693217,-1.1157815,0.12793079,0.00041495546,0.00015213668,0.0,0.0032063036,-0.00095693045,-0.0033066287,-0.0034564873,-0.00028231734,-0.01249773,-0.017066564,-0.059769902,-0.018395148,-0.6347196,-1.1105435,-0.011545566,229.4058,0.1,0.05542169,0.059331216,0.012849168,0.009192505,inf,inf,inf,inf,1,1,1,1,2,0,2,1,4,0,1,1,1,0
836668000,836668000,1032000,41.606704,-86.3556021,-0.44654128,-1.1165854,0.12632406,0.00041495546,0.00015213668,0.0,0.0031203672,-0.005879339,-0.00023461207,-0.0004334784,-0.00028231734,-0.01249773,-0.017066564,-0.059484698,-0.10023595,-0.17579463,-1.1095375,-0.011545566,229.4058,0.10133156,0.056653466,0.059950422,0.038331546,0.028674185,inf,inf,inf,inf,1,1,1,1,2,0,2,1,4,0,1,1,1,0
837172000,837172000,1032000,41.606704,-86.3556021,-0.44546422,-1.1216644,0.11434826,0.00041495546,0.00015213668,0.0,-0.0154407825,-0.030017845,-0.16184045,-0.1619295,-0.00028231734,-0.01249773,-0.017066564,0.18843152,0.13044213,-1.5587565,-1.1057945,-0.011545566,229.4058,0.11330736,0.06467366,0.06451133,0.05807528,0.044088945,inf,inf,inf,inf,1,1,1,1,2,0,2,1,4,0,1,1,1,0
837668000,837668000,1032000,41.606704,-86.3556021,-0.45290098,-1.1323909,-0.20297675,0.00041495546,0.00015213668,0.0,-0.019657945,-0.013684206,-1.1398101,-1.1394087,-0.00028231734,-0.01249773,-0.017066564,-0.015731366,0.14055952,-2.0502803,-1.1068518,-0.011545566,229.4058,0.43063235,0.08378584,0.07649758,0.07862437,0.058001816,inf,inf,inf,inf,1,1,1,1,2,0,2,1,4,0,1,1,1,0
838172000,838172000,1032000,41.606704,-86.3556021,-0.45956543,-1.1383623,-0.92410564,0.00041495546,0.00015213668,0.0,-0.0012702502,-0.014766355,-1.3426455,-1.3407787,-0.00028231734,-0.01249773,-0.017066564,-0.050004084,-0.1078767,1.2343533,-1.1069627,-0.011545566,229.4058,1.1517613,0.11441942,0.09749314,0.09675517,0.07105452,inf,inf,inf,inf,1,1,1,1,2,0,2,1,4,0,1,1,1,0
838668000,838668000,1032000,41.606704,-86.3556021,-0.46221164,-1.1451607,-1.4490926,0.00041495546,0.00015213668,0.0,0.013227609,-0.0103781605,-0.81482756,-0.8154843,-0.00028231734,-0.01249773,-0.017066564,-0.0054183006,-0.012760943,0.8692694,-1.0711926,0.03919487,229.4058,1.6767483,0.1507704,0.12530108,0.10654334,0.082705915,inf,inf,inf,inf,1,1,1,1,2,0,2,1,5,0,1,1,1,0
839164000,839164000,1032000,41.606704,-86.3556021,-0.4598181,-1.1467955,-1.7684474,0.00041495546,0.00015213668,0.0,0.018143443,-0.0017720738,-0.48718816,-0.49043038,-0.00028231734,-0.01249773,-0.017066564,0.0207844,-0.020175902,0.49021646,-1.0826329,0.03919487,229.4058,1.996103,0.19208479,0.16008367,0.1186881,0.09443233,inf,inf,inf,inf,1,1,1,1,2,0,2,1,5,0,1,1,1,0
839668000,839668000,1032000,41.606704,-86.3556021,-0.46202058,-1.1438487,-1.9628916,0.00041495546,0.00015213668,0.0,0.017015776,0.003315223,-0.30527872,-0.3065111,-0.00028231734,-0.01249773,-0.017066564,0.03278126,-0.03180769,0.2508321,-1.0874104,0.03919487,229.4058,2.1905472,0.2181398,0.19185278,0.12990056,0.10025232,inf,inf,inf,inf,1,1,1,1,2,0,2,1,5,1,1,1,1,0
840172000,840172000,1032000,41.606704,-86.3556021,-0.46823934,-1.1408691,-2.086807,0.00041495546,0.00015213668,0.0,0.019108502,0.0021288642,-0.20217748,-0.20206502,-0.00028231734,-0.01249773,-0.017066564,0.015434264,-0.019625396,0.15240714,-1.0905799,0.03919487,229.4058,2.3144627,0.26054373,0.2320069,0.15787081,0.10956436,inf,inf,inf,inf,1,1,1,1,2,0,2,1,5,1,1,1,1,0
840668000,840668000,1032000,41.606704,-86.3556021,-0.47727796,-1.13838,-2.0820515,0.00041495546,0.00015213668,0.0,-0.0068132705,-0.009206375,0.10686284,0.10298383,-0.00028231734,-0.01249773,-0.017066564,-0.056637887,0.04918583,-0.30935,-1.0914807,0.03919487,229.4058,2.3097072,0.2740306,0.2587438,0.15705208,0.110678956,inf,inf,inf,inf,1,1,1,1,2,0,2,1,5,1,1,1,1,0
841172000,841172000,1032000,41.606704,-86.3556021,-0.4996316,-1.10798,-2.0948005,0.00041495546,0.00015213668,0.0,-0.010076269,0.12726428,-0.18665227,-0.1910627,-0.00028231734,-0.01249773,-0.017066564,0.006950966,0.5482347,-0.8696551,-1.079377,0.03919487,229.4058,2.3224561,0.29846334,0.2885211,0.16652738,0.11364688,inf,inf,inf,inf,1,1,1,1,2,0,2,1,5,1,1,1,0,0
841668000,841668000,1032000,41.606704,-86.3556021,-0.50366896,-0.9311279,-2.2597332,0.00041495546,0.00015213668,0.0,0.0012107207,0.6408338,-0.4838113,-0.48079866,-0.00028231734,-0.01249773,-0.017066564,-0.0694044,1.3820398,-0.62689096,-1.0609995,0.03919487,229.4058,2.4873888,0.33825228,0.3231464,0.18521512,0.11898546,inf,inf,inf,inf,1,1,1,1,2,0,2,1,5,1,1,1,0,0
842172000,842172000,1032000,41.606704,-86.3556021,-0.4730494,-0.43971604,-2.5326805,0.00041495546,0.00015213668,0.0,0.0048087444,1.3945278,-0.6672044,-0.6464627,-0.00028231734,-0.01249773,-0.017066564,-0.03500331,1.6844096,-0.4030122,-1.0602171,0.03919487,229.4058,2.7603362,0.35109994,0.3444728,0.1819246,0.118763365,inf,inf,inf,inf,1,1,1,1,2,0,2,1,5,1,1,1,0,0
842668000,842668000,1032000,41.606704,-86.3556021,-0.41405967,0.38498986,-2.8640358,0.00041495546,0.00015213668,0.0,-0.028823823,1.9804093,-0.7479799,-0.7170554,-0.00028231734,-0.01249773,-0.017066564,-0.23475374,0.8100235,-0.069999196,-1.0671916,0.03919487,229.4058,3.0916915,0.36195302,0.36323294,0.17881697,0.11855167,inf,inf,inf,inf,1,1,1,1,2,0,2,1,5,1,1,1,0,0
843164000,843164000,1032000,41.606704,-86.3556021,-0.36715537,1.4563663,-3.2095156,0.00041495546,0.00015213668,0.0,-0.07437012,2.31394,-0.75735724,-0.7156548,-0.00028231734,-0.01249773,-0.017066564,-0.22032727,0.5775958,0.021597305,-1.078186,0.03919487,229.4058,3.4371712,0.3683009,0.376225,0.17110957,0.11734964,inf,inf,inf,inf,1,1,1,1,2,0,2,1,5,1,1,1,0,0
843668000,843668000,1032000,41.606704,-86.3556021,-0.32224813,2.6777623,-3.5315413,0.00041495546,0.00015213668,0.0,-0.12306235,2.4494936,-0.7602609,-0.69258344,-0.00028231734,-0.01249773,-0.017066564,-0.29962957,0.17099154,-0.19439036,-1.0825016,0.03919487,229.4058,3.759197,0.35263819,0.38081077,0.1523366,0.11349158,inf,inf,inf,inf,1,1,1,1,2,0,2,1,5,1,1,1,0,0
844164000,844164000,1032000,41.606704,-86.3556021,-0.3400763,3.9243743,-3.878077,0.00041495546,0.00015213668,0.0,-0.16709128,2.5029361,-0.7529137,-0.6899692,-0.00028231734,-0.01249773,-0.017066564,-0.19233572,-0.5473888,1.2084895,-1.0889739,0.03919487,229.4058,4.1057324,0.3801072,0.39759946,0.15998326,0.11649622,inf,inf,inf,inf,1,1,1,1,2,0,2,1,5,1,1,1,0,0
844668000,844668000,1032000,41.606704,-86.3556021,-0.39087504,5.204095,-4.2232122,0.00041495546,0.00015213668,0.0,-0.15006723,2.5190623,-0.7417554,-0.6775535,-0.00028231734,-0.01249773,-0.017066564,-0.02219685,-0.028889928,0.04706339,-1.0962808,0.03919487,229.4058,4.4508677,0.38017228,0.40583992,0.1530692,0.11596047,inf,inf,inf,inf,1,1,1,1,2,0,2,1,5,1,1,1,0,0
845172000,845172000,1032000,41.606704,-86.3556021,-0.42455623,6.4856296,-4.528694,0.00041495546,0.00015213668,0.0,-0.12543686,2.5121527,-0.7700032,-0.6747877,-0.00028231734,-0.01249773,-0.017066564,-0.07840057,0.028086243,-0.14623073,-1.1074331,0.03919487,229.4058,4.7563496,0.38162228,0.4100551,0.14993258,0.11546709,inf,inf,inf,inf,1,1,1,1,2,0,2,1,5,1,1,1,0,0
845668000,845668000,1032000,41.606704,-86.3556021,-0.47669905,7.74649,-4.858188,0.00041495546,0.00015213668,0.0,-0.11042616,2.530644,-0.810238,-0.70191133,-0.00028231734,-0.01249773,-0.017066564,0.051838163,-0.03413225,-0.0145659465,-1.1125901,0.03919487,229.4058,5.0858436,0.38058302,0.4148327,0.14673322,0.11523759,inf,inf,inf,inf,1,1,1,1,2,0,2,1,5,1,1,1,0,0
846172000,846172000,1032000,41.606704,-86.3556021,-0.5336739,9.0266285,-5.1892333,0.00041495546,0.00015213668,0.0,-0.06971295,2.5228982,-0.82555884,-0.6990229,-0.00028231734,-0.01249773,-0.017066564,-0.028003477,-0.015920531,-0.33363053,-1.1229548,0.03919487,229.4058,5.4168887,0.38168675,0.41658017,0.14623448,0.11518716,inf,inf,inf,inf,1,1,1,1,2,0,2,1,5,1,1,1,0,0
846668000,846668000,1032000,41.606704,-86.3556021,-0.5746573,10.271124,-5.5257792,0.00041495546,0.00015213668,0.0,-0.03105288,2.5003912,-0.84624547,-0.711293,-0.00028231734,-0.01249773,-0.017066564,0.03733758,0.0050603817,-0.055775106,-1.1314638,0.03919487,229.4058,5.7534347,0.38159516,0.4197358,0.14569001,0.11548229,inf,inf,inf,inf,1,1,1,1,2,0,2,1,5,1,1,1,0,0
847164000,847164000,1032000,41.606704,-86.3556021,-0.6052724,11.501884,-5.883413,0.00041495546,0.00015213668,0.0,-0.007925757,2.4999862,-0.8485446,-0.7195297,-0.00028231734,-0.01249773,-0.017066564,0.008186491,-0.010086041,-0.08254597,-1.1380922,0.03919487,229.4058,6.1110682,0.403213,0.42623252,0.15435997,0.118798696,inf,inf,inf,inf,1,1,1,1,2,0,2,1,5,1,1,1,0,0
847668000,847668000,1032000,41.606704,-86.3556021,-0.6304522,12.748435,-6.211225,0.00041495546,0.00015213668,0.0,0.013706427,2.4988,-0.8648383,-0.709165,-0.00028231734,-0.01249773,-0.017066564,0.096569896,0.10518767,-0.20633364,-1.151626,0.03919487,229.4058,6.4388804,0.3772658,0.42149192,0.14203797,0.115049616,inf,inf,inf,inf,1,1,1,1,2,0,2,1,5,1,1,1,0,0
848172000,848172000,1032000,41.606704,-86.3556021,-0.6345697,14.004444,-6.5774164,0.00041495546,0.00015213668,0.0,0.030305296,2.5122492,-0.88147193,-0.73030233,-0.00028231734,-0.01249773,-0.017066564,-0.0048892233,-0.03302925,-0.06037677,-1.1554793,0.03919487,229.4058,6.805072,0.39901948,0.4274602,0.15200171,0.11873058,inf,inf,inf,inf,1,1,1,1,2,0,2,1,5,1,1,1,0,0
848668000,848668000,1032000,41.606704,-86.3556021,-0.64588296,15.238746,-6.927404,0.00041495546,0.00015213668,0.0,0.03103062,2.50965,-0.89082754,-0.7330096,-0.00028231734,-0.01249773,-0.017066564,0.064137295,-0.002829668,0.17502524,-1.1677268,0.03919487,229.4058,7.1550593,0.37457523,0.42193905,0.14124066,0.11494973,inf,inf,inf,inf,1,1,1,1,2,0,2,1,5,1,1,1,0,0
849164000,849164000,1032000,41.606704,-86.3556021,-0.6418458,16.480083,-7.303639,0.00041495546,0.00015213668,0.0,0.038438886,2.520631,-0.88173395,-0.73975813,-0.00028231734,-0.01249773,-0.017066564,-0.003315206,-0.10319436,0.16894184,-1.1760024,0.03919487,229.4058,7.5312943,0.39694643,0.42678103,0.15259068,0.11880103,inf,inf,inf,inf,1,1,1,1,2,0,2,1,5,1,1,1,0,0
849668000,849668000,1032000,41.606704,-86.3556021,-0.6360437,17.74305,-7.6958137,0.00041495546,0.00015213668,0.0,0.022092262,2.5020497,-0.84993744,-0.7315296,-0.00028231734,-0.01249773,-0.017066564,-0.003452422,-0.04530931,0.037313376,-1.1861954,0.03919487,229.4058,7.923469,0.39411953,0.4281132,0.15076259,0.1186589,inf,inf,inf,inf,1,1,1,1,2,0,2,1,5,1,1,1,0,0
850172000,850172000,1032000,41.606704,-86.3556021,-0.6386045,18.993214,-8.05908,0.00041495546,0.00015213668,0.0,0.018841946,2.4880445,-0.83458024,-0.71734726,-0.00028231734,-0.01249773,-0.017066564,0.041047756,-0.01422277,-0.15098141,-1.1935787,0.03919487,229.4058,8.286736,0.39170274,0.42928505,0.14963858,0.11848069,inf,inf,inf,inf,1,1,1,1,2,0,2,1,5,1,1,1,0,0
850668000,850668000,1032000,41.606704,-86.3556021,-0.6420477,20.198801,-8.374593,0.00041495546,0.00015213668,0.0,0.01546882,2.2845106,-0.44008482,-0.33098415,-0.00028231734,-0.01249773,-0.017066564,0.05014689,-1.0853263,1.6411345,-1.2180495,0.03919487,229.4058,8.602248,0.38918886,0.42665258,0.14806934,0.11780381,inf,inf,inf,inf,1,1,1,1,2,0,2,1,5,1,1,1,0,0
851172000,851172000,1032000,41.606704,-86.3556021,-0.64678997,21.154398,-8.388156,0.00041495546,0.00015213668,0.0,0.017010743,1.3252665,0.1807237,0.27885917,-0.00028231734,-0.01249773,-0.017066564,0.02416271,-2.5369112,1.0989408,-1.2037959,0.03919487,229.4058,8.615811,0.38797784,0.42477977,0.14866523,0.11734286,inf,inf,inf,inf,1,1,1,1,2,0,2,1,5,1,1,1,0,0
851668000,851668000,1032000,41.606704,-86.3556021,-0.69007844,21.536203,-8.160792,0.00041495546,0.00015213668,0.0,0.014300692,0.05841535,0.58450997,0.66556203,-0.00028231734,-0.01249773,-0.017066564,0.11687675,-2.4549692,0.57746834,-1.192887,0.03919487,229.4058,8.388448,0.38784075,0.42566797,0.15473199,0.1170404,inf,inf,inf,inf,1,1,1,1,2,0,2,1,5,1,1,1,0,0
852164000,852164000,1032000,41.606704,-86.3556021,-0.745766,21.345232,-7.824975,0.00041495546,0.00015213668,0.0,0.03334106,-0.84776014,0.5968136,0.65467846,-0.00028231734,-0.01249773,-0.017066564,0.36974308,-1.1066208,-0.39191547,-1.2010705,0.03919487,229.4058,8.05263,0.41131103,0.4295863,0.17006429,0.119942345,inf,inf,inf,inf,1,1,1,1,2,0,2,1,5,1,1,1,0,0
852668000,852668000,1032000,41.606704,-86.3556021,-0.8737822,20.812752,-7.540003,0.00041495546,0.00015213668,0.0,0.047921985,-1.1475431,0.6010165,0.6392499,-0.00028231734,-0.01249773,-0.017066564,0.37861544,0.06269364,0.33468932,-1.2051501,0.03919487,229.4058,7.767658,0.38236365,0.4241028,0.15152678,0.115639694,inf,inf,inf,inf,1,1,1,1,2,0,2,1,5,1,1,1,0,0
853164000,853164000,1032000,41.606704,-86.3556021,-0.94639486,20.255028,-7.215399,0.00041495546,0.00015213668,0.0,0.16089626,-0.89828205,0.7148155,0.7331228,-0.00028231734,-0.01249773,-0.017066564,0.36349577,0.7331847,0.03828847,-1.1929159,0.03919487,229.4058,7.443054,0.4051139,0.42771965,0.15825205,0.119581975,inf,inf,inf,inf,1,1,1,1,2,0,2,1,5,1,1,1,0,0
853668000,853668000,1032000,41.606704,-86.3556021,-0.9200965,19.813768,-6.901609,0.00041495546,0.00015213668,0.0,0.22996707,-0.6644996,0.70000947,0.6804912,-0.00028231734,-0.01249773,-0.017066564,0.11409959,0.4597372,0.14929374,-1.1912665,0.03919487,229.4058,7.1292644,0.37911242,0.4226416,0.14411975,0.11618853,inf,inf,inf,inf,1,1,1,1,2,0,2,1,5,1,1,1,0,0
854164000,854164000,1032000,41.606704,-86.3556021,-0.8303438,19.48509,-6.584016,0.00041495546,0.00015213668,0.0,0.22753876,-0.44894055,0.80116445,0.74871796,-0.00028231734,-0.01249773,-0.017066564,-0.06917086,0.57429105,0.19795254,-1.1897905,0.03919487,229.4058,6.8116713,0.37884617,0.42056742,0.14448145,0.11667735,inf,inf,inf,inf,1,1,1,1,2,0,2,1,5,1,1,1,0,0
854668000,854668000,1032000,41.606704,-86.3556021,-0.72071815,19.290466,-6.2084455,0.00041495546,0.00015213668,0.0,0.16152322,-0.20528471,0.8214127,0.76550275,-0.00028231734,-0.01249773,-0.017066564,-0.12176877,0.35877398,0.00017595675,-1.1914287,0.03919487,229.4058,6.436101,0.40129596,0.4282638,0.15588714,0.12139942,inf,inf,inf,inf,1,1,1,1,2,0,2,1,5,1,1,1,0,0
855164000,855164000,1032000,41.606704,-86.3556021,-0.6319411,19.202122,-5.8571153,0.00041495546,0.00015213668,0.0,0.07536018,-0.041646186,0.8071167,0.7358602,-0.00028231734,-0.01249773,-0.017066564,-0.3435027,0.2107529,-0.041252993,-1.1932342,0.03919487,229.4058,6.0847707,0.39675522,0.42567334,0.15386379,0.12076867,inf,inf,inf,inf,1,1,1,1,2,0,2,1,5,1,1,1,0,0
855668000,855668000,1032000,41.606704,-86.3556021,-0.5718061,19.17481,-5.514273,0.00041495546,0.00015213668,0.0,-0.007818205,0.049013704,0.8254621,0.7343964,-0.00028231734,-0.01249773,-0.017066564,-0.40543008,-0.02647464,1.3909059,-1.1939967,0.03919487,229.4058,5.7419286,0.39547098,0.42711735,0.15393104,0.12098497,inf,inf,inf,inf,1,1,1,1,2,0,2,1,5,1,1,1,0,0
856164000,856164000,1032000,41.606704,-86.3556021,-0.55188936,19.987215,-6.59196,0.00041495546,0.00015213668,0.0,-0.110913716,4.002205,-3.2411504,-3.270879,-0.00028231734,-0.01249773,-0.017066564,-0.03838672,7.915459,0.22881751,-1.152736,0.03919487,229.4058,6.8196154,0.39279684,0.42751616,0.1919551,0.11726347,inf,inf,inf,inf,1,1,1,1,2,0,2,1,5,1,1,1,0,0
856668000,856668000,1032000,41.606704,-86.3556021,-0.39658663,22.495884,-8.34338,0.00041495546,0.00015213668,0.0,-0.053521335,6.0859146,-3.5217388,-3.5727913,-0.00028231734,-0.01249773,-0.017066564,-0.52472115,1.5159494,-0.025929945,-1.2589998,0.03919487,229.4058,8.571035,0.37062898,0.41963613,0.1799103,0.10952328,inf,inf,inf,inf,1,1,1,1,2,0,2,1,5,1,1,1,0,0
857164000,857164000,1032000,41.606704,-86.3556021,-0.26934737,25.583986,-10.116627,0.00041495546,0.00015213668,0.0,-0.20737293,6.226442,-3.2144804,-3.2836914,-0.00028231734,-0.01249773,-0.017066564,-0.3759757,-1.7691001,2.6611474,-1.2815048,0.03919487,229.4058,10.344282,0.39294553,0.42460647,0.18639956,0.108931355,inf,inf,inf,inf,1,1,1,1,2,0,2,1,5,1,1,1,0,0
857668000,857668000,1032000,41.606704,-86.3556021,-0.24274676,28.42824,-11.3642025,0.00041495546,0.00015213668,0.0,-0.22203259,4.606255,-1.5106634,-1.5979066,-0.00028231734,-0.01249773,-0.017066564,-0.19579953,-3.7724144,2.937935,-1.287186,0.03919487,229.4058,11.591858,0.38973975,0.42144722,0.16446875,0.10441254,inf,inf,inf,inf,1,1,1,1,2,0,2,1,5,1,1,1,0,0
858172000,858172000,1032000,41.606704,-86.3556021,-0.26977304,30.477875,-11.917749,0.00041495546,0.00015213668,0.0,-0.25545996,2.9525146,-0.5473291,-0.65730846,-0.00028231734,-0.01249773,-0.017066564,-0.1794445,-2.8826787,1.0981427,-1.2639424,0.03919487,229.4058,12.145405,0.38828933,0.42113835,0.16054292,0.10310599,inf,inf,inf,inf,1,1,1,1,2,0,2,1,5,1,1,1,0,0
858668000,858668000,1032000,41.606704,-86.3556021,-0.41060972,31.761242,-12.13347,0.00041495546,0.00015213668,0.0,-0.26367238,1.8342096,-0.23447093,-0.3282824,-0.00028231734,-0.01249773,-0.017066564,0.06203484,-1.9924691,0.5862069,-1.2623218,0.03919487,229.4058,12.361125,0.3852134,0.42027137,0.16199477,0.1036767,inf,inf,inf,inf,1,1,1,1,2,0,2,1,5,1,1,1,0,0
859164000,859164000,1032000,41.606704,-86.3556021,-0.588084,32.517826,-12.210158,0.00041495546,0.00015213668,0.0,-0.12227133,0.6486425,0.1643339,0.08464726,-0.00028231734,-0.01249773,-0.017066564,0.6854099,-3.7087698,0.9072748,-1.2463249,0.03919487,229.4058,12.437814,0.3840624,0.41656876,0.16292489,0.10325944,inf,inf,inf,inf,1,1,1,1,2,0,2,1,5,1,1,1,0,0
859668000,859668000,1032000,41.606704,-86.3556021,-0.6766743,32.580677,-12.142367,0.00041495546,0.00015213668,0.0,0.08958075,-0.41762012,0.1525818,0.07952261,-0.00028231734,-0.01249773,-0.017066564,0.40433633,-0.7692767,-0.10367582,-1.2493409,0.03919487,229.4058,12.370023,0.3838059,0.41640848,0.16311444,0.09981081,inf,inf,inf,inf,1,1,1,1,2,0,2,1,5,1,1,1,0,0
860172000,860172000,1032000,41.606704,-86.3556021,-0.7009653,32.33707,-12.108605,0.00041495546,0.00015213668,0.0,0.16230847,-0.52673215,0.098553516,0.03197856,-0.00028231734,-0.01249773,-0.017066564,0.2430728,0.23416157,-0.0013327857,-1.2569602,0.03919487,229.4058,12.336261,0.40628034,0.4172156,0.17279664,0.10022697,inf,inf,inf,inf,1,1,1,1,2,0,2,1,5,1,1,1,0,0
860668000,860668000,1032000,41.606704,-86.3556021,-0.738924,32.10127,-12.110538,0.00041495546,0.00015213668,0.0,0.19244635,-0.35015526,0.07247354,-0.0031952902,-0.00028231734,-0.01249773,-0.017066564,0.24405964,0.45573315,-0.05101698,-1.2664785,0.03919487,229.4058,12.338193,0.3786174,0.41259587,0.15507376,0.097686626,inf,inf,inf,inf,1,1,1,1,2,0,2,1,5,1,1,1,0,0
861164000,861164000,1032000,41.606704,-86.3556021,-0.7074075,31.964815,-12.124335,0.00041495546,0.00015213668,0.0,0.23559888,-0.13712975,0.05429668,-0.02837954,-0.00028231734,-0.01249773,-0.017066564,0.00763396,0.42711797,-0.073696546,-1.2658095,0.03919487,229.4058,12.351991,0.40005174,0.41573513,0.16658752,0.10126002,inf,inf,inf,inf,1,1,1,1,2,0,2,1,5,1,1,1,0,0
861668000,861668000,1032000,41.606704,-86.3556021,-0.6529455,31.913063,-12.161798,0.00041495546,0.00015213668,0.0,0.21260661,0.006735055,0.0674175,-0.03403385,-0.00028231734,-0.01249773,-0.017066564,0.10332614,0.2563393,-0.043648355,-1.2694483,0.03919487,229.4058,12.389453,0.37559277,0.4092581,0.15340877,0.10079039,inf,inf,inf,inf,1,1,1,1,2,0,2,1,5,1,1,1,0,0
862164000,862164000,1032000,41.606704,-86.3556021,-0.5903902,31.925476,-12.182344,0.00041495546,0.00015213668,0.0,0.1712942,0.07374297,0.07640682,-0.0262219,-0.00028231734,-0.01249773,-0.017066564,-0.123125,0.11837825,0.030366639,-1.2719388,0.03919487,229.4058,12.41,0.39884815,0.41312978,0.16695644,0.10633108,inf,inf,inf,inf,1,1,1,1,2,0,2,1,5,1,1,1,0,0
862668000,862668000,1032000,41.606704,-86.3556021,-0.53293395,31.959995,-12.196527,0.00041495546,0.00015213668,0.0,0.11258726,0.08597116,0.072887875,-0.02854266,-0.00028231734,-0.01249773,-0.017066564,-0.07374404,-0.001513495,0.05543039,-1.274997,0.03919487,229.4058,12.424182,0.39594266,0.41121957,0.16362071,0.108860314,inf,inf,inf,inf,1,1,1,1,2,0,2,1,5,1,1,1,0,0
863172000,863172000,1032000,41.606704,-86.3556021,-0.50545514,31.992315,-12.233862,0.00041495546,0.00015213668,0.0,0.06121985,0.069670446,0.09004903,-0.030622944,-0.00028231734,-0.01249773,-0.017066564,-0.063114144,-0.04684304,0.21672149,-1.2754918,0.03919487,229.4058,12.461517,0.3934944,0.41256738,0.16066425,0.11152296,inf,inf,inf,inf,1,1,1,1,2,0,2,1,5,1,1,1,0,0
863668000,863668000,1032000,41.606704,-86.3556021,-0.4894235,32.019283,-12.25321,0.00041495546,0.00015213668,0.0,0.035433266,0.048797812,0.10718061,-0.018986026,-0.00028231734,-0.01249773,-0.017066564,-0.0032718298,-0.0659074,-0.0047572586,-1.2769527,0.03919487,229.4058,12.4808655,0.39086327,0.41087008,0.15770578,0.11347801,inf,inf,inf,inf,1,1,1,1,2,0,2,1,5,1,1,1,0,0
864164000,864164000,1032000,41.606704,-86.3556021,-0.48083532,32.042076,-12.284024,0.00041495546,0.00015213668,0.0,0.019932704,0.026232243,0.12399989,-0.019836294,-0.00028231734,-0.01249773,-0.017066564,-0.048232492,-0.08333423,-0.0024345403,-1.2773045,0.03919487,229.4058,12.51168,0.38889363,0.4124479,0.15537958,0.115440264,inf,inf,inf,inf,1,1,1,1,2,0,2,1,5,1,1,1,0,0
864668000,864668000,1032000,41.606704,-86.3556021,-0.47610635,32.051178,-12.307873,0.00041495546,0.00015213668,0.0,0.006472364,0.0086127585,0.15198433,-0.0037076985,-0.00028231734,-0.01249773,-0.017066564,0.056833725,0.039822686,-0.09271229,-1.2780048,0.03919487,229.4058,12.535528,0.38949585,0.4121806,0.15494989,0.1172493,inf,inf,inf,inf,1,1,1,1,2,0,2,1,5,1,1,1,0,0
865164000,865164000,1032000,41.606704,-86.3556021,-0.47069496,32.0539,-12.301413,0.00041495546,0.00015213668,0.0,0.006789632,-0.0034700234,0.1431859,-0.0009520762,-0.00028231734,-0.01249773,-0.017066564,-0.1905407,-0.06530988,-1.1594315,-1.2781413,0.03919487,229.4058,12.529068,0.41323888,0.41689473,0.16486312,0.12217713,inf,inf,inf,inf,1,1,1,1,2,0,2,1,5,1,1,1,0,0
865668000,865668000,1032000,41.606704,-86.3556021,-0.46656924,32.059723,-12.317029,0.00041495546,0.00015213668,0.0,-0.0040556625,-0.0050439374,0.14300007,-0.011278122,-0.00028231734,-0.01249773,-0.017066564,-0.017507628,-0.060406674,0.05897966,-1.2789099,0.03919487,229.4058,12.544684,0.3835875,0.41380498,0.14829502,0.1185345,inf,inf,inf,inf,1,1,1,1,2,0,2,1,5,1,1,1,0,0
866172000,866172000,1032000,41.606704,-86.3556021,-0.45629132,32.06499,-12.326431,0.00041495546,0.00015213668,0.0,-0.00039680774,-0.011855807,0.16191247,0.0055583287,-0.00028231734,-0.01249773,-0.017066564,0.0020140777,-0.11047296,0.082909994,-1.2791313,0.03919487,229.4058,12.554087,0.40715295,0.41946664,0.15858878,0.12314722,inf,inf,inf,inf,1,1,1,1,2,0,2,1,5,1,1,1,0,0
866668000,866668000,1032000,41.606704,-86.3556021,-0.44870472,32.069435,-12.328293,0.00041495546,0.00015213668,0.0,-0.0053847386,-0.012531887,0.15462795,-0.0021786368,-0.00028231734,-0.01249773,-0.017066564,-0.05628821,-0.08389738,0.17561664,-1.2792586,0.03919487,229.4058,12.555948,0.37986344,0.41552243,0.1448255,0.11895771,inf,inf,inf,inf,1,1,1,1,2,0,2,1,5,1,1,1,0,0
867172000,867172000,1032000,41.606704,-86.3556021,-0.44855508,32.07996,-12.328803,0.00041495546,0.00015213668,0.0,-0.018916769,-0.014990209,0.15417075,-0.0006111547,-0.00028231734,-0.01249773,-0.017066564,-0.041116346,-0.10481294,-0.023798147,-1.2792647,0.03919487,229.4058,12.556458,0.38025597,0.41535458,0.14527592,0.11921147,inf,inf,inf,inf,1,1,1,1,2,0,2,1,5,1,1,1,0,0
867668000,867668000,1032000,41.606704,-86.3556021,-0.45342758,32.082497,-12.312088,0.00041495546,0.00015213668,0.0,-0.01796389,-0.023453452,0.14677842,0.00826975,-0.00028231734,-0.01249773,-0.017066564,-0.1386662,-0.059485562,-0.22524227,-1.2792095,0.03919487,229.4058,12.539743,0.40227348,0.42359617,0.15515529,0.12350212,inf,inf,inf,inf,1,1,1,1,2,0,2,1,5,1,1,1,0,0
868172000,868172000,1032000,41.606704,-86.3556021,-0.45518816,32.08063,-12.300683,0.00041495546,0.00015213668,0.0,-0.005290288,-0.025124436,0.12982494,0.0025784585,-0.00028231734,-0.01249773,-0.017066564,-0.23262143,-0.19916558,1.3738552,-1.279146,0.03919487,229.4058,12.528338,0.39831108,0.42279524,0.1522046,0.12267433,inf,inf,inf,inf,1,1,1,1,2,0,2,1,5,1,1,1,0,0
868668000,868668000,1032000,41.606704,-86.3556021,-0.45587713,32.08864,-12.289446,0.00041495546,0.00015213668,0.0,-0.0056107556,-0.023335876,0.11924587,0.0042259884,-0.00028231734,-0.01249773,-0.017066564,-0.0054882294,0.016318113,0.0381199,-1.2789776,0.03919487,229.4058,12.517101,0.39612168,0.4216533,0.15126155,0.12209151,inf,inf,inf,inf,1,1,1,1,2,0,2,1,5,1,1,1,0,0
869164000,869164000,1032000,41.606704,-86.3556021,-0.46104014,32.086185,-12.272613,0.00041495546,0.00015213668,0.0,-0.0024462559,-0.026985163,0.09933914,0.00033699078,-0.00028231734,-0.01249773,-0.017066564,0.06726679,-0.07725486,0.023461813,-1.2787125,0.03919487,229.4058,12.500268,0.39299396,0.42325896,0.14960827,0.12163196,inf,inf,inf,inf,1,1,1,1,2,0,2,1,5,1,1,1,0,0
869668000,869668000,1032000,41.606704,-86.3556021,-0.46945563,32.0818,-12.258341,0.00041495546,0.00015213668,0.0,0.0004120039,-0.019747524,0.081160784,-0.004082437,-0.00028231734,-0.01249773,-0.017066564,0.07085791,0.07270259,0.05055585,-1.2786328,0.03919487,229.4058,12.485996,0.37099567,0.4192312,0.14001502,0.11756462,inf,inf,inf,inf,1,1,1,1,2,0,2,1,5,1,1,1,0,0
870172000,870172000,1032000,41.606704,-86.3556021,-0.47222972,32.07538,-12.238388,0.00041495546,0.00015213668,0.0,0.009625822,-0.018137101,0.063076675,-0.0027099354,-0.00028231734,-0.01249773,-0.017066564,-0.029158909,0.04400985,0.020462023,-1.2787831,0.03919487,229.4058,12.466043,0.39245215,0.42453626,0.15045536,0.121413045,inf,inf,inf,inf,1,1,1,1,2,0,2,1,5,1,1,1,0,0
870668000,870668000,1032000,41.606704,-86.3556021,-0.47102234,32.057747,-12.222516,0.00041495546,0.00015213668,0.0,0.012305554,-0.011037109,0.048033983,-0.0019702124,-0.00028231734,-0.01249773,-0.017066564,0.027143171,0.056636345,-0.18976913,-1.2788361,0.03919487,229.4058,12.450171,0.38829628,0.42537013,0.14768776,0.12063422,inf,inf,inf,inf,1,1,1,1,2,0,2,1,5,1,1,1,0,0
871164000,871164000,1032000,41.606704,-86.3556021,-0.47429883,32.040462,-12.210624,0.00041495546,0.00015213668,0.0,0.017807841,0.0015786868,0.037415806,0.00020504004,-0.00028231734,-0.01249773,-0.017066564,-0.3323566,-0.11383989,1.3559431,-1.2787452,0.03919487,229.4058,12.438279,0.3862766,0.4232477,0.14698808,0.11990848,inf,inf,inf,inf,1,1,1,1,2,0,2,1,5,1,1,1,0,0
871668000,871668000,1032000,41.606704,-86.3556021,-0.47505084,32.033615,-12.195114,0.00041495546,0.00015213668,0.0,0.02098689,0.012024035,0.01950932,-0.002146219,-0.00028231734,-0.01249773,-0.017066564,0.009088663,-0.05059769,-0.089116454,-1.2786832,0.03919487,229.4058,12.42277,0.3841039,0.4246424,0.14577672,0.11957437,inf,inf,inf,inf,1,1,1,1,2,0,2,1,5,1,1,1,0,0
872164000,872164000,1032000,41.606704,-86.3556021,-0.49034432,32.024796,-12.188079,0.00041495546,0.00015213668,0.0,0.018788839,0.019972049,0.007393038,-0.0062813736,-0.00028231734,-0.01249773,-0.017066564,0.18685657,0.078154914,0.0389702,-1.278791,0.03919487,229.4058,12.415734,0.38308692,0.42560226,0.14587533,0.1194776,inf,inf,inf,inf,1,1,1,1,2,0,2,1,5,1,1,1,0,0
872668000,872668000,1032000,41.606704,-86.3556021,-0.49939206,32.025314,-12.178673,0.00041495546,0.00015213668,0.0,0.034139946,0.029502137,-0.0050309077,-0.007915601,-0.00028231734,-0.01249773,-0.017066564,0.04554304,-0.044968303,0.05468254,-1.2785215,0.03919487,229.4058,12.406328,0.3828984,0.42404643,0.14614712,0.11924038,inf,inf,inf,inf,1,1,1,1,2,0,2,1,5,1,1,1,0,0
873172000,873172000,1032000,41.606704,-86.3556021,-0.49776492,32.02917,-12.176739,0.00041495546,0.00015213668,0.0,0.03953069,0.02765319,-0.0075508924,-0.008070289,-0.00028231734,-0.01249773,-0.017066564,0.061224118,-0.031888306,-0.057669416,-1.2785506,0.03919487,229.4058,12.404394,0.4044669,0.43188128,0.15542997,0.12315366,inf,inf,inf,inf,1,1,1,1,2,0,2,1,5,1,1,1,0,0
873668000,873668000,1032000,41.606704,-86.3556021,-0.5079238,32.02769,-12.170364,0.00041495546,0.00015213668,0.0,0.03677872,0.023143867,-0.011449359,-0.0051189438,-0.00028231734,-0.01249773,-0.017066564,0.0727973,0.0027915714,-0.12889044,-1.2783066,0.03919487,229.4058,12.39802,0.37773857,0.4256377,0.14274316,0.11840593,inf,inf,inf,inf,1,1,1,1,2,0,2,1,5,1,1,1,0,0
874172000,874172000,1032000,41.606704,-86.3556021,-0.5132866,32.03518,-12.166579,0.00041495546,0.00015213668,0.0,0.027301636,0.011837351,0.0028640374,0.011595845,-0.00028231734,-0.01249773,-0.017066564,-0.09370979,0.033580996,-0.14136271,-1.2781311,0.03919487,229.4058,12.394235,0.39926153,0.43009377,0.15256296,0.12206875,inf,inf,inf,inf,1,1,1,1,2,0,2,1,5,1,1,1,0,0
874668000,874668000,1032000,41.606704,-86.3556021,-0.5358849,32.034206,-12.150562,0.00041495546,0.00015213668,0.0,0.005976263,0.006912446,-0.01829966,-0.0014040186,-0.00028231734,-0.01249773,-0.017066564,0.07492579,0.09702241,0.17654423,-1.2781591,0.03919487,229.4058,12.378218,0.3747443,0.4240921,0.14149573,0.11768273,inf,inf,inf,inf,1,1,1,1,2,0,2,1,5,1,1,1,0,0
875172000,875172000,1032000,41.606704,-86.3556021,-0.5332063,32.04692,-12.155179,0.00041495546,0.00015213668,0.0,0.12467704,0.058184884,-0.0543867,-0.035914056,-0.00028231734,-0.01249773,-0.017066564,0.65014935,0.22279078,-0.08804171,-1.279329,0.03919487,229.4058,12.382834,0.39799085,0.42862454,0.15306833,0.12175374,inf,inf,inf,inf,1,1,1,1,2,0,2,1,5,1,1,1,0,0
875668000,875668000,1032000,41.606704,-86.3556021,-0.3980025,32.09302,-12.18244,0.00041495546,0.00015213668,0.0,0.6241757,0.12814727,-0.12828548,-0.10812119,-0.00028231734,-0.01249773,-0.017066564,1.4212877,0.11978254,-0.21721521,-1.285928,0.03919487,229.4058,12.410095,0.39437634,0.42883036,0.1509654,0.12116545,inf,inf,inf,inf,1,1,1,1,2,0,2,1,5,1,1,1,0,0
876172000,876172000,1032000,41.606704,-86.3556021,0.06654184,32.171185,-12.246849,0.00041495546,0.00015213668,0.0,1.447828,0.1668616,-0.16377859,-0.14127895,-0.00028231734,-0.01249773,-0.017066564,1.4785554,0.013421002,0.057997115,-1.2905589,0.03919487,229.4058,12.474504,0.39211693,0.42973533,0.1506473,0.1206327,inf,inf,inf,inf,1,1,1,1,2,0,2,1,5,1,1,1,0,0
876668000,876668000,1032000,41.606704,-86.3556021,0.8987367,32.251816,-12.3096895,0.00041495546,0.00015213668,0.0,2.0256205,0.18075575,-0.14646198,-0.11994013,-0.00028231734,-0.01249773,-0.017066564,0.927257,0.06887179,0.035261672,-1.2879176,0.03919487,229.4058,12.537345,0.3895247,0.42682973,0.14973107,0.119572036,inf,inf,inf,inf,1,1,1,1,2,0,2,1,5,1,1,1,0,0
877164000,877164000,1032000,41.606704,-86.3556021,1.973716,32.33398,-12.347399,0.00041495546,0.00015213668,0.0,2.3390813,0.18897162,-0.109151,-0.07388022,-0.00028231734,-0.01249773,-0.017066564,0.38026792,-0.087860145,-0.00037445486,-1.2907155,0.03919487,229.4058,12.575054,0.3875962,0.42714983,0.14857408,0.11908963,inf,inf,inf,inf,1,1,1,1,2,0,2,1,5,1,1,1,0,0
877668000,877668000,1032000,41.606704,-86.3556021,3.1909566,32.419563,-12.381793,0.00041495546,0.00015213668,0.0,2.464862,0.20178837,-0.0676091,-0.040125754,-0.00028231734,-0.01249773,-0.017066564,0.15287718,-0.039748047,0.12530008,-1.2981733,0.03919487,229.4058,12.609448,0.38816866,0.4251324,0.14877695,0.11887221,inf,inf,inf,inf,1,1,1,1,2,0,2,1,5,1,1,1,0,0
878164000,878164000,1032000,41.606704,-86.3556021,4.432699,32.51774,-12.398879,0.00041495546,0.00015213668,0.0,2.5089297,0.21357903,-0.051728282,-0.027787808,-0.00028231734,-0.01249773,-0.017066564,0.1360661,0.021920074,-0.051607437,-1.3034048,0.03919487,229.4058,12.626534,0.41113254,0.43212235,0.15829298,0.12275502,inf,inf,inf,inf,1,1,1,1,2,0,2,1,5,1,1,1,0,0
878668000,878668000,1032000,41.606704,-86.3556021,5.717665,32.621758,-12.404027,0.00041495546,0.00015213668,0.0,2.4771512,0.207456,0.00094285404,0.025518732,-0.00028231734,-0.01249773,-0.017066564,-0.5765162,0.020005465,0.4364391,-1.314156,0.03919487,229.4058,12.631682,0.38248783,0.42628103,0.14392631,0.118043646,inf,inf,inf,inf,1,1,1,1,2,0,2,1,5,1,1,1,0,0
879172000,879172000,1032000,41.606704,-86.3556021,6.8436203,32.713707,-12.365451,0.00041495546,0.00015213668,0.0,1.7744637,0.15571432,0.10400821,0.12092423,-0.00028231734,-0.01249773,-0.017066564,-1.80266,-0.09086402,0.052642014,-1.3221586,0.03919487,229.4058,12.593106,0.40546814,0.43075198,0.15421186,0.12203298,inf,inf,inf,inf,1,1,1,1,2,0,2,1,5,1,1,1,0,0
879668000,879668000,1032000,41.606704,-86.3556021,7.572991,32.790478,-12.296965,0.00041495546,0.00015213668,0.0,1.0618427,0.09894307,0.21080995,0.23263133,-0.00028231734,-0.01249773,-0.017066564,-0.5480846,-0.1513679,1.1226021,-1.3325127,0.03919487,229.4058,12.52462,0.37891755,0.42470285,0.14332013,0.1176107,inf,inf,inf,inf,1,1,1,1,2,0,2,1,5,1,1,1,0,0
880164000,880164000,1032000,41.606704,-86.3556021,8.055501,32.845917,-12.020525,0.00041495546,0.00015213668,0.0,0.6062432,0.04319217,0.80049545,0.8140715,-0.00028231734,-0.01249773,-0.017066564,-1.7642288,-0.12232645,0.6500556,-1.3329867,0.03919487,229.4058,12.24818,0.37857762,0.4224943,0.14296271,0.117518656,inf,inf,inf,inf,1,1,1,1,2,0,2,1,5,1,1,1,0,0
880668000,880668000,1032000,41.606704,-86.3556021,8.182166,32.873196,-11.544628,0.00041495546,0.00015213668,0.0,-0.13865678,-0.01349879,1.0266654,1.0322385,-0.00028231734,-0.01249773,-0.017066564,-1.079303,-0.16507015,-0.44308794,-1.3190672,0.03919487,229.4058,11.772284,0.40068528,0.43019548,0.15451157,0.12154682,inf,inf,inf,inf,1,1,1,1,2,0,2,1,5,1,1,1,0,0
881172000,881172000,1032000,41.606704,-86.3556021,8.053197,32.895447,-11.071279,0.00041495546,0.00015213668,0.0,-0.36800596,-0.041650947,0.8480591,0.86577374,-0.00028231734,-0.01249773,-0.017066564,-0.13943668,-0.02145368,-0.26197457,-1.3127711,0.03919487,229.4058,11.298934,0.39689803,0.42790017,0.1524546,0.12065274,inf,inf,inf,inf,1,1,1,1,2,0,2,1,5,1,1,1,0,0
881668000,881668000,1032000,41.606704,-86.3556021,7.8786573,32.91342,-10.658696,0.00041495546,0.00015213668,0.0,-0.41416517,-0.068910584,0.8273172,0.8377952,-0.00028231734,-0.01249773,-0.017066564,-0.19977362,-0.106339596,-0.016220909,-1.3125887,0.03919487,229.4058,10.886352,0.39480072,0.42844668,0.1508213,0.12050788,inf,inf,inf,inf,1,1,1,1,2,0,2,1,5,1,1,1,0,0
882172000,882172000,1032000,41.606704,-86.3556021,7.6802278,32.90482,-10.239444,0.00041495546,0.00015213668,0.0,-0.39658326,-0.09413391,0.8536533,0.85670555,-0.00028231734,-0.01249773,-0.017066564,0.24689153,-0.06322743,0.31972575,-1.3138599,0.03919487,229.4058,10.467099,0.39259973,0.42634648,0.14881995,0.12004097,inf,inf,inf,inf,1,1,1,1,2,0,2,1,5,1,1,1,0,0
882668000,882668000,1032000,41.606704,-86.3556021,7.5162587,32.879364,-9.814153,0.00041495546,0.00015213668,0.0,-0.2958442,-0.10216673,0.90549093,0.89946955,-0.00028231734,-0.01249773,-0.017066564,0.18830718,-0.04381876,0.110434294,-1.3161901,0.03919487,229.4058,10.041808,0.37022552,0.42091084,0.13851057,0.11620011,inf,inf,inf,inf,1,1,1,1,2,0,2,1,5,1,1,1,0,0
883172000,883172000,1032000,41.606704,-86.3556021,7.400925,32.835766,-9.356334,0.00041495546,0.00015213668,0.0,-0.1828403,-0.08752945,0.8987908,0.89967513,-0.00028231734,-0.01249773,-0.017066564,0.23603302,0.07734113,-0.0022249927,-1.318359,0.03919487,229.4058,9.583989,0.391546,0.4284205,0.14847897,0.12058227,inf,inf,inf,inf,1,1,1,1,2,0,2,1,5,1,1,1,0,0
883668000,883668000,1032000,41.606704,-86.3556021,7.3395395,32.80113,-8.907217,0.00041495546,0.00015213668,0.0,-0.08648713,-0.055152882,0.89334536,0.8975188,-0.00028231734,-0.01249773,-0.017066564,0.14268143,0.080349214,0.0273743,-1.3200094,0.03919487,229.4058,9.134872,0.38739613,0.42559493,0.14575058,0.119681,inf,inf,inf,inf,1,1,1,1,2,0,2,1,5,1,1,1,0,0
884164000,884164000,1032000,41.606704,-86.3556021,7.3269544,32.77891,-8.469183,0.00041495546,0.00015213668,0.0,-0.025243955,-0.026662974,0.8856785,0.8858607,-0.00028231734,-0.01249773,-0.017066564,0.04165134,0.08857566,0.010385115,-1.321275,0.03919487,229.4058,8.696838,0.38550177,0.4262323,0.14523287,0.11957092,inf,inf,inf,inf,1,1,1,1,2,0,2,1,5,1,1,1,0,0
884668000,884668000,1032000,41.606704,-86.3556021,7.336858,32.767094,-8.024143,0.00041495546,0.00015213668,0.0,-0.0018469635,-0.006691009,0.8689797,0.87114865,-0.00028231734,-0.01249773,-0.017066564,0.029048814,-0.002748785,-0.022565076,-1.3220278,0.03919487,229.4058,8.251799,0.3834538,0.42426947,0.1442705,0.119061194,inf,inf,inf,inf,1,1,1,1,2,0,2,1,5,1,1,1,0,0
885172000,885172000,1032000,41.606704,-86.3556021,7.3555965,32.76288,-7.586218,0.00041495546,0.00015213668,0.0,-0.0003298734,0.0019365893,0.8446437,0.8512665,-0.00028231734,-0.01249773,-0.017066564,-0.12793294,0.08215235,-0.10605814,-1.3227066,0.03919487,229.4058,7.8138733,0.3832345,0.42575252,0.14489138,0.11931315,inf,inf,inf,inf,1,1,1,1,2,0,2,1,5,1,1,1,0,0
885668000,885668000,1032000,41.606704,-86.3556021,7.365691,32.763367,-7.170095,0.00041495546,0.00015213668,0.0,-0.011496446,0.01177988,0.81542474,0.82283604,-0.00028231734,-0.01249773,-0.017066564,-0.15112107,-0.046989333,-0.1316099,-1.32251,0.03919487,229.4058,7.3977504,0.38241985,0.42348716,0.14498192,0.119014725,inf,inf,inf,inf,1,1,1,1,2,0,2,1,5,1,1,1,0,0
886172000,886172000,1032000,41.606704,-86.3556021,7.3689303,32.76201,-6.763607,0.00041495546,0.00015213668,0.0,-0.019606369,0.008686479,0.7998837,0.8049867,-0.00028231734,-0.01249773,-0.017066564,-0.05260063,-0.048362877,-0.060976543,-1.3222787,0.03919487,229.4058,6.9912624,0.40392405,0.4312783,0.15416008,0.1230267,inf,inf,inf,inf,1,1,1,1,2,0,2,1,5,1,1,1,0,0
886668000,886668000,1032000,41.606704,-86.3556021,7.3708053,32.7557,-6.369698,0.00041495546,0.00015213668,0.0,-0.023668326,0.012366538,0.7656819,0.77328205,-0.00028231734,-0.01249773,-0.017066564,-0.0724585,0.050375454,-0.010808061,-1.3220336,0.03919487,229.4058,6.5973535,0.37741318,0.42213827,0.14182457,0.118017934,inf,inf,inf,inf,1,1,1,1,2,0,2,1,5,1,1,1,0,0
887172000,887172000,1032000,41.606704,-86.3556021,7.368946,32.756634,-5.9898605,0.00041495546,0.00015213668,0.0,-0.023068413,0.013755909,0.7472723,0.75048107,-0.00028231734,-0.01249773,-0.017066564,-0.010218064,0.07733933,-0.020981828,-1.3219993,0.03919487,229.4058,6.217516,0.3988883,0.42994773,0.15158255,0.12215768,inf,inf,inf,inf,1,1,1,1,2,0,2,1,5,1,1,1,0,0
887668000,887668000,1032000,41.606704,-86.3556021,7.366482,32.756653,-5.6276455,0.00041495546,0.00015213668,0.0,-0.02615375,0.011180177,0.7307613,0.72914493,-0.00028231734,-0.01249773,-0.017066564,0.04613914,-0.030854566,-0.070203155,-1.3218557,0.03919487,229.4058,5.855301,0.37451267,0.4211267,0.14066273,0.117467456,inf,inf,inf,inf,1,1,1,1,2,0,2,1,5,1,1,1,0,0
888172000,888172000,1032000,41.606704,-86.3556021,7.3549013,32.756824,-5.2611303,0.00041495546,0.00015213668,0.0,-0.032273624,0.007915489,0.7080448,0.7098197,-0.00028231734,-0.01249773,-0.017066564,0.030906728,-0.036519673,-0.10246231,-1.3216636,0.03919487,229.4058,5.4887857,0.39767537,0.42910895,0.15191661,0.1219938,inf,inf,inf,inf,1,1,1,1,2,0,2,1,5,1,1,1,0,0
888668000,888668000,1032000,41.606704,-86.3556021,7.340017,32.75947,-4.914291,0.00041495546,0.00015213668,0.0,-0.021767296,0.0062986473,0.69247174,0.69439965,-0.00028231734,-0.01249773,-0.017066564,0.12838542,-0.0053562815,-0.1602937,-1.3218975,0.03919487,229.4058,5.1419463,0.3941863,0.42642823,0.14961474,0.12112796,inf,inf,inf,inf,1,1,1,1,2,0,2,1,5,1,1,1,0,0
889172000,889172000,1032000,41.606704,-86.3556021,7.33229,32.762108,-4.5650897,0.00041495546,0.00015213668,0.0,-0.0102046635,0.00080810324,0.68534017,0.6884739,-0.00028231734,-0.01249773,-0.017066564,-0.028794669,-0.012065479,0.2749822,-1.3219043,0.03919487,229.4058,4.792745,0.39178458,0.4276978,0.14811951,0.120905094,inf,inf,inf,inf,1,1,1,1,2,0,2,1,5,1,1,1,0,0
889668000,889668000,1032000,41.606704,-86.3556021,7.324717,32.77038,-4.231495,0.00041495546,0.00015213668,0.0,-0.008990053,-0.0031999513,0.6975374,0.6913895,-0.00028231734,-0.01249773,-0.017066564,-0.03740165,-0.03302753,0.15290447,-1.3221536,0.03919487,229.4058,4.4591503,0.38933942,0.42538604,0.14682503,0.12027497,inf,inf,inf,inf,1,1,1,1,2,0,2,1,5,1,1,1,0,0
890172000,890172000,1032000,41.606704,-86.3556021,7.322175,32.77596,-3.884418,0.00041495546,0.00015213668,0.0,-0.003922776,-0.013390901,0.70716316,0.6982759,-0.00028231734,-0.01249773,-0.017066564,-0.056206252,-0.037058923,0.098274015,-1.3223412,0.03919487,229.4058,4.1120734,0.38815832,0.42380616,0.14639217,0.11993403,inf,inf,inf,inf,1,1,1,1,2,0,2,1,5,1,1,1,0,0
890668000,890668000,1032000,41.606704,-86.3556021,7.3193545,32.78247,-3.5446644,0.00041495546,0.00015213668,0.0,-0.0028679795,-0.018475095,0.70923454,0.6953547,-0.00028231734,-0.01249773,-0.017066564,0.012062665,-0.04321999,0.02189626,-1.3220396,0.03919487,229.4058,3.77232,0.38799813,0.4248905,0.14704388,0.12013088,inf,inf,inf,inf,1,1,1,1,2,0,2,1,5,1,1,1,0,0
891164000,891164000,1032000,41.606704,-86.3556021,7.3146873,32.780857,-3.2005975,0.00041495546,0.00015213668,0.0,-0.0030878554,-0.02990535,0.71024114,0.6964081,-0.00028231734,-0.01249773,-0.017066564,-0.024805328,-0.009082387,-0.05450944,-1.322054,0.03919487,229.4058,3.4282532,0.4109333,0.4324097,0.15708478,0.12420274,inf,inf,inf,inf,1,1,1,1,2,0,2,1,5,1,1,1,0,0
891668000,891668000,1032000,41.606704,-86.3556021,7.3170695,32.78481,-2.84538,0.00041495546,0.00015213668,0.0,-0.0021019431,-0.032881234,0.71328396,0.7034208,-0.00028231734,-0.01249773,-0.017066564,-0.006591074,-0.04473172,-0.15823455,-1.3220845,0.03919487,229.4058,3.0730357,0.38240156,0.42659727,0.14336607,0.11934784,inf,inf,inf,inf,1,1,1,1,2,0,2,1,5,1,1,1,0,0
892164000,892164000,1032000,41.606704,-86.3556021,7.3188705,32.788246,-2.4949086,0.00041495546,0.00015213668,0.0,-0.0037006787,-0.033971693,0.69587636,0.6906912,-0.00028231734,-0.01249773,-0.017066564,-0.0068218512,0.089501634,0.25043163,-1.3224349,0.03919487,229.4058,2.7225642,0.40466422,0.4306714,0.15367623,0.12302769,inf,inf,inf,inf,1,1,1,1,2,0,2,1,5,1,1,1,0,0
892668000,892668000,1032000,41.606704,-86.3556021,7.32195,32.796303,-2.152335,0.00041495546,0.00015213668,0.0,0.00090427516,-0.03648336,0.696966,0.6875653,-0.00028231734,-0.01249773,-0.017066564,0.023579625,-0.07094817,0.08021102,-1.3223152,0.03919487,229.4058,2.3799906,0.37889764,0.42516994,0.14193407,0.118568696,inf,inf,inf,inf,1,1,1,1,2,0,2,1,5,1,1,1,0,0
893172000,893172000,1032000,41.606704,-86.3556021,7.3293643,32.805363,-1.8173614,0.00041495546,0.00015213668,0.0,-0.009551806,-0.043202434,0.7065706,0.686971,-0.00028231734,-0.01249773,-0.017066564,-0.12956159,-0.015292658,0.053727936,-1.3225583,0.03919487,229.4058,2.045017,0.37936983,0.42351374,0.14288831,0.11853604,inf,inf,inf,inf,1,1,1,1,2,0,2,1,5,1,1,1,0,0
893668000,893668000,1032000,41.606704,-86.3556021,7.3280816,32.80236,-1.4793644,0.00041495546,0.00015213668,0.0,-0.013022545,-0.047568347,0.710094,0.688661,-0.00028231734,-0.01249773,-0.017066564,0.053340506,-0.018558407,0.049074117,-1.3222866,0.03919487,229.4058,1.70702,0.40119368,0.4307389,0.15278028,0.12262522,inf,inf,inf,inf,1,1,1,1,2,0,2,1,5,1,1,1,0,0
894164000,894164000,1032000,41.606704,-86.3556021,7.330299,32.796154,-1.1377375,0.00041495546,0.00015213668,0.0,-0.014376645,-0.05032133,0.7083073,0.6875434,-0.00028231734,-0.01249773,-0.017066564,-0.07655049,-0.059997223,-0.0059037167,-1.3224124,0.03919487,229.4058,1.3653932,0.39676085,0.42787758,0.14996073,0.12158742,inf,inf,inf,inf,1,1,1,1,2,0,2,1,5,1,1,1,0,0
894668000,894668000,1032000,41.606704,-86.3556021,7.335459,32.792168,-0.7953928,0.00041495546,0.00015213668,0.0,-0.022229474,-0.04739426,0.7130906,0.68900293,-0.00028231734,-0.01249773,-0.017066564,-0.11858164,-0.085258596,-0.04245533,-1.3224381,0.03919487,229.4058,1.0230484,0.3953898,0.42909673,0.14948376,0.1215418,inf,inf,inf,inf,1,1,1,1,2,0,2,1,5,1,1,1,0,0
895164000,895164000,1032000,41.606704,-86.3556021,7.3410244,32.787457,-0.45325089,0.00041495546,0.00015213668,0.0,-0.02392883,-0.040370896,0.71115464,0.6889225,-0.00028231734,-0.01249773,-0.017066564,-0.1415814,-0.034698263,0.21824606,-1.322434,0.03919487,229.4058,0.68090653,0.39239746,0.42948723,0.14795016,0.12111841,inf,inf,inf,inf,1,1,1,1,2,0,2,1,5,1,1,1,0,0
895668000,895668000,1032000,41.606704,-86.3556021,7.354561,32.79197,-0.108385354,0.00041495546,0.00015213668,0.0,-0.028901018,-0.038386624,0.7043091,0.68017113,-0.00028231734,-0.01249773,-0.017066564,-0.07253591,0.00783505,0.106774196,-1.3224285,0.03919487,229.4058,0.33604097,0.3706047,0.42139587,0.1386092,0.116838224,inf,inf,inf,inf,1,1,1,1,2,0,2,1,5,1,1,1,0,0
896172000,896172000,1032000,41.606704,-86.3556021,7.3679905,32.79346,0.094561875,0.00041495546,0.00015213668,0.0,-0.038287017,-0.025693117,0.030245306,0.0015782424,-0.00028231734,-0.01249773,-0.017066564,0.14956447,-0.06441358,-1.5163357,-1.3116385,0.03919487,229.4058,0.13309374,0.39214167,0.42892763,0.15112507,0.11884955,inf,inf,inf,inf,1,1,1,1,2,0,2,1,5,1,1,1,0,0
896668000,896668000,1032000,41.606704,-86.3556021,7.371505,32.791634,0.10296436,0.00041495546,0.00015213668,0.0,-0.026627466,-0.026280224,0.03725239,0.012120359,-0.00028231734,-0.01249773,-0.017066564,0.111404516,-0.08738644,-0.514674,-1.3099339,0.03919487,229.4058,0.12469126,0.38802359,0.42577246,0.14979282,0.11008109,inf,inf,inf,inf,1,1,1,1,2,0,2,1,5,1,1,1,0,0
897172000,897172000,1032000,41.606704,-86.3556021,7.377277,32.79474,0.10533494,0.00041495546,0.00015213668,0.0,-0.027443625,-0.023052784,0.051064137,0.02000179,-0.00028231734,-0.01249773,-0.017066564,-0.09032166,-0.010660082,0.20751071,-1.3100783,0.03919487,229.4058,0.1,0.38677496,0.4259025,0.15241508,0.10456082,inf,inf,inf,inf,1,1,1,1,2,0,2,1,5,0,1,1,1,0
897668000,897668000,1032000,41.606704,-86.3556021,7.3765616,32.79487,0.12353712,0.00041495546,0.00015213668,0.0,-0.023252977,-0.027618779,0.055561695,0.030772962,-0.00028231734,-0.01249773,-0.017066564,0.14003976,-0.001921492,0.22628804,-1.3098922,0.03919487,229.4058,0.1,0.38398615,0.42506906,0.15413994,0.10152671,inf,inf,inf,inf,1,1,1,1,2,0,2,1,5,0,1,1,1,0
898164000,898164000,1032000,41.606704,-86.3556021,7.381272,32.79988,0.13730353,0.00041495546,0.00015213668,0.0,-0.020554854,-0.022316685,0.06949043,0.040861644,-0.00028231734,-0.01249773,-0.017066564,-0.0032518355,-0.06744709,0.22765987,-1.3095875,0.03919487,229.4058,0.1,0.38313603,0.42099202,0.15718682,0.10040432,inf,inf,inf,inf,1,1,1,1,2,0,2,1,5,0,1,1,1,0
898668000,898668000,1032000,41.606704,-86.3556021,7.403872,32.826782,0.012319403,0.00041495546,0.00015213668,0.0,-0.0037661288,-0.007454932,0.02179527,-0.12174134,-0.00028231734,-0.01249773,-0.017066564,-0.04373566,-0.09682423,0.8575943,-1.3086832,0.03919487,229.4058,0.1,0.301469,0.31435814,0.013065646,0.009192693,inf,inf,inf,inf,1,1,1,1,2,0,2,1,5,0,1,1,1,0
899172000,899172000,1032000,41.606704,-86.3556021,7.406843,32.829807,-0.030774504,0.00041495546,0.00015213668,0.0,0.002906549,0.0047122063,-0.0020069347,-0.113972664,-0.00028231734,-0.01249773,-0.017066564,0.13003956,0.14888334,-0.15921617,-1.3081288,0.03919487,229.4058,0.12171202,0.2903064,0.30117226,0.0193775,0.0137078995,inf,inf,inf,inf,1,1,1,1,2,0,2,1,5,0,1,1,1,0
899668000,899668000,1032000,41.606704,-86.3556021,7.4053297,32.82788,-0.024094673,0.00041495546,0.00015213668,0.0,0.0006412271,0.0060939877,0.003128534,-0.05443533,-0.00028231734,-0.01249773,-0.017066564,-0.0076738354,-0.022670666,0.08143571,-1.308177,0.03919487,229.4058,0.11992013,0.27270338,0.29218924,0.00937728,0.006627103,inf,inf,inf,inf,1,1,1,1,2,0,2,1,5,0,1,1,1,0
900172000,900172000,1032000,41.606704,-86.3556021,7.4048986,32.825157,-0.015452901,0.00041495546,0.00015213668,0.0,0.0064936476,0.005393264,-0.0021143921,-0.027829187,-0.00028231734,-0.01249773,-0.017066564,0.03119173,0.001863598,0.45093605,-1.3081685,0.03919487,229.4058,0.11619493,0.2677785,0.28437197,0.017114164,0.012059381,inf,inf,inf,inf,1,1,1,1,2,0,2,1,5,0,1,1,1,0
