timestamp,timestamp_sample,output_tracking_error[0],output_tracking_error[1],output_tracking_error[2],control_mode_flags,filter_fault_flags,pos_horiz_accuracy,pos_vert_accuracy,mag_test_ratio,vel_test_ratio,pos_test_ratio,hgt_test_ratio,tas_test_ratio,hagl_test_ratio,beta_test_ratio,time_slip,accel_device_id,gyro_device_id,baro_device_id,mag_device_id,gps_check_fail_flags,innovation_check_flags,solution_status_flags,reset_count_vel_ne,reset_count_vel_d,reset_count_pos_ne,reset_count_pod_d,reset_count_quat,pre_flt_fail_innov_heading,pre_flt_fail_innov_vel_horiz,pre_flt_fail_innov_vel_vert,pre_flt_fail_innov_height,pre_flt_fail_mag_field_disturbed,health_flags,timeout_flags
829264000,829184000,0.0002311755,0.0030066725,0.00052251085,67109399,0,0.056077186,0.060122095,0.004240495,0.0102342665,0.0010554816,0.0026241243,0.0,0.0,0.0,0.0,1311004,1311004,6620172,197644,0,0,895,2,1,2,0,4,0,0,0,0,0,0,0
829272000,829192000,0.00022943442,0.0028347638,0.00052134495,67109399,0,0.056077436,0.06012222,0.004240495,0.0102342665,0.0010554816,0.0026241243,0.0,0.0,0.0,0.0,1311004,1311004,6620172,197644,0,0,895,2,1,2,0,4,0,0,0,0,0,0,0
829464000,829384000,0.00010632561,0.0037849029,0.0002647267,67109399,0,0.056046806,0.060093015,0.00047872658,0.0019106457,0.0009914519,0.0006904674,0.0,0.0,0.0,0.0,1311004,1311004,6620172,197644,0,0,895,2,1,2,0,4,0,0,0,0,0,0,0
829656000,829576000,0.00021527724,0.005162104,0.0009808865,67109399,0,0.05606051,0.06007283,0.020121925,0.0019106457,0.0009914519,0.0011507791,0.0,0.0,0.0,0.0,1311004,1311004,6620172,197644,0,0,895,2,1,2,0,4,0,0,0,0,0,0,0
829864000,829784000,2.140023e-05,0.0040219747,0.0014048022,67109399,0,0.05603035,0.060052767,0.005365155,0.023513747,0.001399609,0.0008003146,0.0,0.0,0.0,0.0,1311004,1311004,6620172,197644,0,0,895,2,1,2,0,4,0,0,0,0,0,0,0
830064000,829984000,0.00010817521,0.0035275263,0.0014513612,67109399,0,0.056000236,0.06002388,0.007334062,0.0076191314,0.0013825528,0.0020182228,0.0,0.0,0.0,0.0,1311004,1311004,6620172,197644,0,0,895,2,1,2,0,4,0,0,0,0,0,0,0
830264000,830184000,9.908045e-05,0.006397869,0.0016821431,67109399,0,0.0559702,0.060003873,0.0044527063,0.012789155,0.0013402678,0.003064386,0.0,0.0,0.0,0.0,1311004,1311004,6620172,197644,0,0,895,2,1,2,0,4,0,0,0,0,0,0,0
830456000,830376000,3.6524936e-05,0.0036263557,0.0017316898,67109399,0,0.055968035,0.059998166,0.0032029524,0.015175346,0.0014066641,0.0014341156,0.0,0.0,0.0,0.0,1311004,1311004,6620172,197644,0,0,895,2,1,2,0,4,0,0,0,0,0,0,0
830664000,830584000,0.000103763174,0.0020091748,0.0007715568,67109399,0,0.055938195,0.05996944,0.005579198,0.0019032514,0.0010328077,0.0013094478,0.0,0.0,0.0,0.0,1311004,1311004,6620172,197644,0,0,895,2,1,2,0,4,0,0,0,0,0,0,0
830864000,830784000,0.000150262,0.0030586023,0.0010860581,67109399,0,0.05594704,0.059946995,0.021136895,0.0019032514,0.0010328077,0.0039954726,0.0,0.0,0.0,0.0,1311004,1311004,6620172,197644,0,0,895,2,1,2,0,4,0,0,0,0,0,0,0
831056000,830976000,0.00012280254,0.0025181295,0.0010216181,67109399,0,0.05590819,0.059922647,0.005857002,0.004401467,0.0012641798,0.004295374,0.0,0.0,0.0,0.0,1311004,1311004,6620172,197644,0,0,895,2,1,2,0,4,0,0,0,0,0,0,0
831256000,831176000,8.284008e-05,0.003686105,0.0014724082,67109399,0,0.05591827,0.05989213,0.0070672436,0.004401467,0.0012641798,0.006732064,0.0,0.0,0.0,0.0,1311004,1311004,6620172,197644,0,0,895,2,1,2,0,4,0,0,0,0,0,0,0
831464000,831384000,0.00010079166,0.0040357234,0.0017463801,67109399,0,0.05588849,0.059872333,0.013203264,0.004323826,0.0012411672,0.00067913474,0.0,0.0,0.0,0.0,1311004,1311004,6620172,197644,0,0,895,2,1,2,0,4,0,0,0,0,0,0,0
831656000,831576000,0.00011594396,0.004609145,0.0019259666,67109399,0,0.05585222,0.059849296,0.002320099,0.004305492,0.0012661826,0.011256725,0.0,0.0,0.0,0.0,1311004,1311004,6620172,197644,0,0,895,2,1,2,0,4,0,0,0,0,0,0,0
831856000,831776000,0.00010224478,0.002892453,0.0015479673,67109399,0,0.055819847,0.059819445,0.014289314,0.0069069993,0.001231497,0.00024236136,0.0,0.0,0.0,0.0,1311004,1311004,6620172,197644,0,0,895,2,1,2,0,4,0,0,0,0,0,0,0
832056000,831976000,9.189857e-05,0.004799888,0.0015931171,67109399,0,0.05578788,0.05979854,0.0064107785,0.013206471,0.0012332371,0.0024916145,0.0,0.0,0.0,0.0,1311004,1311004,6620172,197644,0,0,895,2,1,2,0,4,0,0,0,0,0,0,0
832256000,832176000,0.0001094894,0.0009998033,0.000635049,67109399,0,0.05579967,0.05977781,0.005707644,0.013206471,0.0012332371,0.0038341924,0.0,0.0,0.0,0.0,1311004,1311004,6620172,197644,0,0,895,2,1,2,0,4,0,0,0,0,0,0,0
832456000,832376000,0.00014067053,0.0040226933,0.000983024,67109399,0,0.055768333,0.05974854,0.005698037,0.0073179537,0.0012218265,0.005535082,0.0,0.0,0.0,0.0,1311004,1311004,6620172,197644,0,0,895,2,1,2,0,4,0,0,0,0,0,0,0
832656000,832576000,0.00015122266,0.004484102,0.0014293239,67109399,0,0.05573733,0.059728142,0.013292055,0.02320142,0.0012198978,0.006151448,0.0,0.0,0.0,0.0,1311004,1311004,6620172,197644,0,0,895,2,1,2,0,4,0,0,0,0,0,0,0
832856000,832776000,0.00012614252,0.0042846366,0.001566261,67109399,0,0.05570665,0.059699208,0.0006039767,0.006970396,0.0011959086,0.010234107,0.0,0.0,0.0,0.0,1311004,1311004,6620172,197644,0,0,895,2,1,2,0,4,0,0,0,0,0,0,0
833056000,832976000,0.00015357505,0.002085338,0.0011491583,67109399,0,0.055676263,0.05967911,0.01500239,0.0073868777,0.0011652252,0.002980698,0.0,0.0,0.0,0.0,1311004,1311004,6620172,197644,0,0,895,2,1,2,0,4,0,0,0,0,0,0,0
833256000,833176000,0.0001733728,0.0027732009,0.0009888987,67109399,0,0.055646144,0.059659135,0.0011844595,0.009186137,0.0011975783,0.0049387706,0.0,0.0,0.0,0.0,1311004,1311004,6620172,197644,0,0,895,2,1,2,0,4,0,0,0,0,0,0,0
833464000,833384000,0.00018352772,0.0038784435,0.0012660793,67109399,0,0.055660106,0.059631005,0.003872527,0.009186137,0.0011975783,0.0051872353,0.0,0.0,0.0,0.0,1311004,1311004,6620172,197644,0,0,895,2,1,2,0,4,0,0,0,0,0,0,0
833664000,833584000,0.0003511727,0.0068457336,0.0020139888,67109399,0,0.05563022,0.059611183,0.01889825,0.01918466,0.0011893121,0.0032204452,0.0,0.0,0.0,0.0,1311004,1311004,6620172,197644,0,0,895,2,1,2,0,4,0,0,0,0,0,0,0
833864000,833784000,0.00017646288,0.0038843732,0.0019631477,67109399,0,0.055643577,0.059582833,0.022896789,0.01918466,0.0011893121,0.001315553,0.0,0.0,0.0,0.0,1311004,1311004,6620172,197644,0,0,895,2,1,2,0,4,0,0,0,0,0,0,0
834056000,833976000,0.00016588945,0.004587752,0.0015876703,67109399,0,0.05561367,0.05956305,0.0063062813,0.010601916,0.0012321218,0.00080467557,0.0,0.0,0.0,0.0,1311004,1311004,6620172,197644,0,0,895,2,1,2,0,4,0,0,0,0,0,0,0
834256000,834176000,9.763688e-05,0.002037106,0.000995181,67109399,0,0.055584416,0.05954358,0.034156166,0.012717586,0.0012003722,0.0025177714,0.0,0.0,0.0,0.0,1311004,1311004,6620172,197644,0,0,895,2,1,2,0,4,0,0,0,0,0,0,0
834464000,834384000,0.00011784362,0.002868368,0.00067869097,67109399,0,0.055555485,0.059515662,0.01428124,0.010043015,0.0012013857,0.0017558148,0.0,0.0,0.0,0.0,1311004,1311004,6620172,197644,0,0,895,2,1,2,0,4,0,0,0,0,0,0,0
834664000,834584000,0.00016124689,0.0030096811,0.00056124956,67109399,0,0.055526454,0.0594963,0.010421986,0.016400246,0.0009988218,0.0041646115,0.0,0.0,0.0,0.0,1311004,1311004,6620172,197644,0,0,895,2,1,2,0,4,0,0,0,0,0,0,0
834856000,834776000,0.00019683904,0.004264582,0.00097552896,67109399,0,0.055540275,0.05947696,0.02632461,0.016400246,0.0009988218,0.0018508417,0.0,0.0,0.0,0.0,1311004,1311004,6620172,197644,0,0,895,2,1,2,0,4,0,0,0,0,0,0,0
835056000,834976000,8.790239e-05,0.002122485,0.0008209158,67109399,0,0.05551142,0.059449147,0.0039443816,0.01334877,0.0010738195,0.0047896965,0.0,0.0,0.0,0.0,1311004,1311004,6620172,197644,0,0,895,2,1,2,0,4,0,0,0,0,0,0,0
835264000,835184000,0.00026828004,0.004510275,0.00067888555,67109399,0,0.055482678,0.05942997,0.01684083,0.0023532638,0.0010177994,0.004623182,0.0,0.0,0.0,0.0,1311004,1311004,6620172,197644,0,0,895,2,1,2,0,4,0,0,0,0,0,0,0
835456000,835376000,8.392345e-05,0.0013476578,0.0005997801,67109399,0,0.055487674,0.059419487,0.017883562,0.01459573,0.001198186,0.003413117,0.0,0.0,0.0,0.0,1311004,1311004,6620172,197644,0,0,895,2,1,2,0,4,0,0,0,0,0,0,0
835664000,835584000,0.0001075829,0.0027882066,0.001168588,67109399,0,0.0554591,0.05940039,0.012521612,0.0015557326,0.00130441,0.0014332478,0.0,0.0,0.0,0.0,1311004,1311004,6620172,197644,0,0,895,2,1,2,0,4,0,0,0,0,0,0,0
835856000,835776000,4.525548e-05,0.0020987783,0.0011013156,67109399,0,0.055419687,0.059375867,0.016206617,0.009189099,0.0013099858,0.0008203688,0.0,0.0,0.0,0.0,1311004,1311004,6620172,197644,0,0,895,2,1,2,0,4,0,0,0,0,0,0,0
836056000,835976000,0.00012571523,0.0017847867,0.0008925224,67109399,0,0.055429056,0.059345927,0.018569907,0.009189099,0.0013099858,0.007935173,0.0,0.0,0.0,0.0,1311004,1311004,6620172,197644,0,0,895,2,1,2,0,4,0,0,0,0,0,0,0
836264000,836184000,6.2296436e-05,0.0005753899,0.00038214502,1049239,0,0.055400524,0.059326906,0.019116826,0.017921397,0.0010284933,1.1754944e-38,0.0,0.0,0.0,0.0,1311004,1311004,6620172,197644,0,0,895,2,1,2,0,4,0,0,0,0,0,0,0
836464000,836384000,2.6902962e-05,0.0014148776,0.00042750782,1049239,0,0.055713225,0.059460193,0.00086515286,0.017921397,0.0010284933,0.0030635237,0.0,0.0,0.0,0.0,1311004,1311004,6620172,197644,0,0,895,2,1,2,0,4,0,0,0,0,0,0,0
836656000,836576000,0.00013370374,0.0017348004,0.00066397106,1049239,0,0.05658838,0.05990956,0.029168839,0.004254837,0.0014090155,3.4872123e-06,0.0,0.0,0.0,0.0,1311004,1311004,6620172,197644,0,0,895,2,1,2,0,4,0,0,0,0,0,0,0
836856000,836776000,0.00013301778,0.0018514774,0.000794361,1049239,0,0.05854401,0.060979486,0.012111081,0.025152871,0.0016014725,1.1754944e-38,0.0,0.0,0.0,0.0,1311004,1311004,6620172,197644,0,0,895,2,1,2,0,4,0,0,0,0,0,0,0
837056000,836976000,8.295893e-05,0.0018873897,0.0008849994,1049239,0,0.0619296,0.06292024,0.004263521,0.0033930843,0.0007922359,1.1754944e-38,0.0,0.0,0.0,0.0,1311004,1311004,6620172,197644,0,0,895,2,1,2,0,4,0,0,0,0,0,0,0
837264000,837184000,3.625056e-05,0.0022229038,0.0010141511,1049239,0,0.067257844,0.06611791,0.0050748177,0.027003441,0.0018609383,0.0024662581,0.0,0.0,0.0,0.0,1311004,1311004,6620172,197644,0,0,895,2,1,2,0,4,0,0,0,0,0,0,0
837456000,837376000,5.8222096e-05,0.0018219918,0.0008839202,1049239,0,0.074384056,0.0704331,0.014704843,0.027003441,0.0018609383,0.00045680135,0.0,0.0,0.0,0.0,1311004,1311004,6620172,197644,0,0,895,2,1,2,0,4,0,0,0,0,0,0,0
837656000,837576000,6.148305e-05,0.0011491483,0.00082488713,1049239,0,0.08332826,0.07623023,0.003363733,0.031461723,0.0030757028,1.1754944e-38,0.0,0.0,0.0,0.0,1311004,1311004,6620172,197644,0,0,895,2,1,2,0,4,0,0,0,0,0,0,0
837864000,837784000,0.00018051418,0.00197571,0.0020033696,663,0,0.09445341,0.0837188,0.018937849,0.03991689,0.0044182166,0.0011323241,0.0,0.0,0.0,0.0,1311004,1311004,6620172,197644,0,0,895,2,1,2,0,4,0,0,0,0,0,0,0
838056000,837976000,9.621275e-05,0.0013857351,0.002076526,663,0,0.105934836,0.091850795,0.0010958189,0.027208615,0.005893039,3.4865687e-05,0.0,0.0,0.0,0.0,1311004,1311004,6620172,197644,0,0,895,2,1,2,0,4,0,0,0,0,0,0,0
838256000,838176000,0.00013620623,0.00231131,0.0030848244,663,0,0.11883172,0.101421915,0.010615402,0.031119594,0.0052642636,0.0024517204,0.0,0.0,0.0,0.0,1311004,1311004,6620172,197644,0,0,895,2,1,2,0,4,0,0,0,0,0,0,0
838456000,838376000,9.658425e-05,0.0036711295,0.0047008926,663,0,0.13221651,0.11200412,0.011907105,0.036033835,0.0068940097,0.0007529724,0.0,0.0,0.0,0.0,1311004,1311004,6620172,197644,0,0,895,2,1,2,0,4,0,0,0,0,0,0,0
838656000,838576000,0.0060176905,0.0015468524,0.0022439468,8389271,0,0.1499163,0.1247829,0.03673983,0.036033835,0.0068940097,0.0023074802,0.0,0.0,0.0,0.0,1311004,1311004,6620172,197644,0,0,895,2,1,2,0,5,0,0,0,0,0,0,0
838864000,838784000,0.0042908564,0.002879085,0.004730132,8389271,0,0.16421036,0.13750929,0.006580957,0.02778265,0.009258245,0.00365933,0.0,0.0,0.0,0.0,1311004,1311004,6620172,197644,0,0,895,2,1,2,0,5,0,0,0,0,0,0,0
839064000,838984000,0.0020559535,0.0011811173,0.0020949931,8389271,0,0.18274088,0.15249155,0.032274216,0.02778265,0.009258245,0.0040220083,0.0,0.0,0.0,0.0,1311004,1311004,6620172,197644,0,0,895,2,1,2,0,5,0,0,0,0,0,0,0
839264000,839184000,0.0015476128,0.001911466,0.004015942,8389271,0,0.1951873,0.16551438,0.019253395,0.025057767,0.0118116215,0.0045760404,0.0,0.0,0.0,0.0,1311004,1311004,6620172,197644,0,0,895,2,1,2,0,5,0,0,0,0,0,0,0
839464000,839384000,0.0011762896,0.0040171794,0.006747957,8389271,0,0.20693892,0.1787893,0.018538797,0.024270542,0.01366596,0.0021814443,0.0,0.0,0.0,0.0,1311004,1311004,6620172,197644,0,0,895,2,1,2,0,5,0,0,0,0,0,0,0
839664000,839584000,0.0008358315,0.004757058,0.008216819,8389271,0,0.21802372,0.19175029,0.018453777,0.029211285,0.015418613,0.00070955633,0.0,0.0,0.0,0.0,1311004,1311004,6620172,197644,0,0,895,2,1,2,0,5,0,0,0,0,0,0,0
839856000,839776000,0.0012289541,0.003964138,0.007378615,8389271,0,0.22768718,0.2040656,0.03015974,0.013897996,0.014492743,0.0012874077,0.0,0.0,0.0,0.0,1311004,1311004,6620172,197644,0,0,895,2,1,2,0,5,0,0,0,0,0,0,0
840056000,839976000,0.0009439706,0.00061196246,0.0022078536,8389271,0,0.24793229,0.22178102,0.020200241,0.013897996,0.014492743,0.0041962927,0.0,0.0,0.0,0.0,1311004,1311004,6620172,197644,0,0,895,2,1,2,0,5,0,0,0,0,0,0,0
840256000,840176000,0.0007787092,0.0027480028,0.0050489493,8389271,0,0.25700018,0.23390613,0.01158586,0.017103447,0.014455541,0.0040062647,0.0,0.0,0.0,0.0,1311004,1311004,6620172,197644,0,0,895,2,1,2,0,5,0,0,0,0,0,0,0
840456000,840376000,0.0003478037,0.005306108,0.009476289,8389271,0,0.26530594,0.24605547,0.010536345,0.032819394,0.015999556,0.0019553443,0.0,0.0,0.0,0.0,1311004,1311004,6620172,197644,0,0,895,2,1,2,0,5,0,0,0,0,0,0,0
840664000,840584000,0.00010253855,0.00422516,0.007375091,8389271,0,0.273749,0.25855348,0.0013936494,0.012354119,0.015329393,0.0043273093,0.0,0.0,0.0,0.0,1311004,1311004,6620172,197644,0,0,895,2,1,2,0,5,0,0,0,0,0,0,0
840856000,840776000,0.0006619736,0.005453937,0.009108441,8389271,0,0.279699,0.26813844,0.018018425,0.018317295,0.014108014,0.0034852973,0.0,0.0,0.0,0.0,1311004,1311004,6620172,197644,0,0,895,2,1,2,0,5,0,0,0,0,0,0,0
841056000,840976000,0.00030300414,0.0053741345,0.009223677,8389271,0,0.28582078,0.27872014,0.008583929,0.015899258,0.014125142,0.0013392554,0.0,0.0,0.0,0.0,1311004,1311004,6620172,197644,0,0,895,2,1,2,0,5,0,0,0,0,0,0,0
841264000,841184000,0.00033519097,0.001089082,0.002970723,8389271,0,0.3092441,0.29617402,0.0153185725,0.015899258,0.014125142,0.0052197706,0.0,0.0,0.0,0.0,1311004,1311004,6620172,197644,0,0,831,2,1,2,0,5,0,0,0,0,0,0,0
841464000,841384000,0.000753113,0.0062495186,0.008606376,8389271,0,0.31279966,0.30545875,0.037771445,0.020145629,0.012198121,0.000934676,0.0,0.0,0.0,0.0,1311004,1311004,6620172,197644,0,0,831,2,1,2,0,5,0,0,0,0,0,0,0
841664000,841584000,0.0005844478,0.0050821467,0.007513828,8389271,0,0.33764088,0.32284424,0.012841501,0.020145629,0.012198121,0.007978048,0.0,0.0,0.0,0.0,1311004,1311004,6620172,197644,0,0,831,2,1,2,0,5,0,0,0,0,0,0,0
841856000,841776000,0.00067836256,0.019577188,0.028133865,8389271,0,0.33661604,0.32981384,0.0042794794,0.05198256,0.011028822,0.0049101026,0.0,0.0,0.0,0.0,1311004,1311004,6620172,197644,0,0,831,2,1,2,0,5,0,0,0,0,0,0,0
842056000,841976000,0.0010116006,0.025017979,0.037524797,8389271,0,0.336816,0.33559728,0.0005363837,0.05796383,0.010730944,0.0014026125,0.0,0.0,0.0,0.0,1311004,1311004,6620172,197644,0,0,831,2,1,2,0,5,0,0,0,0,0,0,0
842264000,842184000,0.0018687613,0.027699145,0.03950478,8389271,0,0.33799338,0.34319356,0.009757504,0.07275908,0.011103966,0.0005154907,0.0,0.0,0.0,0.0,1311004,1311004,6620172,197644,0,0,831,2,1,2,0,5,0,0,0,0,0,0,0
842464000,842384000,0.0018570307,0.02976375,0.04335578,8389271,0,0.3382294,0.34780562,0.015910162,0.079822905,0.010267618,0.0054124333,0.0,0.0,0.0,0.0,1311004,1311004,6620172,197644,0,0,831,2,1,2,0,5,0,0,0,0,0,0,0
842656000,842576000,0.00021013415,0.012195034,0.020415884,8389351,0,0.36042133,0.36205724,0.005604172,0.079822905,0.010267618,0.0009393048,0.0,0.0,0.0,0.0,1311004,1311004,6620172,197644,0,0,831,2,1,2,0,5,0,0,0,0,0,0,0
842864000,842784000,0.002423304,0.023962436,0.0371426,8389351,0,0.3588767,0.36788696,0.015802918,0.09565643,0.0027218782,0.0023719291,0.0,0.0,0.0,0.0,1311004,1311004,6620172,197644,0,0,831,2,1,2,0,5,0,0,0,0,0,0,0
843064000,842984000,0.002554128,0.029274682,0.046989072,8389351,0,0.3568062,0.37046698,0.03740964,0.10016498,0.0043833638,0.0024702968,0.0,0.0,0.0,0.0,1311004,1311004,6620172,197644,0,0,831,2,1,2,0,5,0,0,0,0,0,0,0
843264000,843184000,0.0021322125,0.029775595,0.052226923,8389351,0,0.35503876,0.3747852,0.014799865,0.0937454,0.003861476,0.0037898456,0.0,0.0,0.0,0.0,1311004,1311004,6620172,197644,0,0,831,2,1,2,0,5,0,0,0,0,0,0,0
843456000,843376000,0.001761948,0.027092095,0.049189784,8389351,0,0.35266703,0.37589148,0.015425199,0.08779458,0.0052310647,0.005565552,0.0,0.0,0.0,0.0,1311004,1311004,6620172,197644,0,0,831,2,1,2,0,5,0,0,0,0,0,0,0
843664000,843584000,0.0014570236,0.021995602,0.038869314,8389351,0,0.35206744,0.38043684,0.014031428,0.084523425,0.0054993564,0.0107210595,0.0,0.0,0.0,0.0,1311004,1311004,6620172,197644,0,0,831,2,1,2,0,5,0,0,0,0,0,0,0
843856000,843776000,0.00014304806,0.004560295,0.010106475,8389351,0,0.37195504,0.38952613,0.020161565,0.084523425,0.0054993564,0.00031021202,0.0,0.0,0.0,0.0,1311004,1311004,6620172,197644,0,0,831,2,1,2,0,5,0,0,0,0,0,0,0
844056000,843976000,0.0006353773,0.008209289,0.01687805,8389351,0,0.36834744,0.39231768,0.018275194,0.057850886,0.0030531583,0.0023924056,0.0,0.0,0.0,0.0,1311004,1311004,6620172,197644,0,0,831,2,1,2,0,5,0,0,0,0,0,0,0
844256000,844176000,1.7632761e-05,0.00547611,0.007901211,8389351,0,0.39014545,0.40386397,0.035210118,0.057850886,0.0030531583,0.0066430294,0.0,0.0,0.0,0.0,1311004,1311004,6620172,197644,0,0,831,2,1,2,0,5,0,0,0,0,0,0,0
844456000,844376000,0.00037352717,0.0054133693,0.014492221,8389351,0,0.38395885,0.40298668,0.0049973973,0.046689846,0.010221544,0.009622726,0.0,0.0,0.0,0.0,1311004,1311004,6620172,197644,0,0,831,2,1,2,0,5,0,0,0,0,0,0,0
844656000,844576000,0.00026170723,0.008075328,0.023521999,8389351,0,0.37874687,0.40470308,0.007703118,0.05397346,0.008817544,0.005035777,0.0,0.0,0.0,0.0,1311004,1311004,6620172,197644,0,0,831,2,1,2,0,5,0,0,0,0,0,0,0
844864000,844784000,0.00018846548,0.010388039,0.030960351,8389351,0,0.37504026,0.4043577,0.010136269,0.067113034,0.007890479,0.003424529,0.0,0.0,0.0,0.0,1311004,1311004,6620172,197644,0,0,831,2,1,2,0,5,0,0,0,0,0,0,0
845056000,844976000,0.0001460958,0.012732226,0.038128577,8389351,0,0.37031427,0.40519997,0.012986322,0.07116996,0.008433054,0.0060445755,0.0,0.0,0.0,0.0,1311004,1311004,6620172,197644,0,0,831,2,1,2,0,5,0,0,0,0,0,0,0
845264000,845184000,8.426533e-05,0.007034117,0.014779891,8389351,0,0.39089635,0.41555378,0.040844973,0.07116996,0.008433054,0.0042107343,0.0,0.0,0.0,0.0,1311004,1311004,6620172,197644,0,0,831,2,1,2,0,5,0,0,0,0,0,0,0
845464000,845384000,6.109315e-05,0.010469851,0.024308762,8389351,0,0.38510305,0.4135655,0.010767846,0.06592076,0.0050559347,0.0020330504,0.0,0.0,0.0,0.0,1311004,1311004,6620172,197644,0,0,831,2,1,2,0,5,0,0,0,0,0,0,0
845656000,845576000,6.550574e-05,0.01337274,0.032078065,8389351,0,0.3793109,0.41375324,0.03076484,0.06621908,0.004590084,0.00530524,0.0,0.0,0.0,0.0,1311004,1311004,6620172,197644,0,0,831,2,1,2,0,5,0,0,0,0,0,0,0
845856000,845776000,1.2685721e-05,0.012169821,0.028878003,8389351,0,0.37490124,0.41462442,0.024825076,0.04932495,0.0050809565,0.0058113127,0.0,0.0,0.0,0.0,1311004,1311004,6620172,197644,0,0,831,2,1,2,0,5,0,0,0,0,0,0,0
846064000,845984000,0.0001791823,0.016568815,0.039237626,8389351,0,0.37173778,0.41325337,0.005350132,0.08833725,0.0093642315,0.0066291126,0.0,0.0,0.0,0.0,1311004,1311004,6620172,197644,0,0,831,2,1,2,0,5,0,0,0,0,0,0,0
846264000,846184000,0.00011319808,0.015835771,0.038655136,8389271,0,0.3681646,0.41404197,0.0053628674,0.076333076,0.004865721,0.00638678,0.0,0.0,0.0,0.0,1311004,1311004,6620172,197644,0,0,831,2,1,2,0,5,0,0,0,0,0,0,0
846456000,846376000,0.0001618384,0.009063184,0.01812519,8389271,0,0.38554463,0.42137846,0.007935682,0.076333076,0.004865721,0.011316582,0.0,0.0,0.0,0.0,1311004,1311004,6620172,197644,0,0,831,2,1,2,0,5,0,0,0,0,0,0,0
846664000,846584000,0.00013445158,0.013256175,0.02933323,8389271,0,0.38114834,0.41937014,0.015049589,0.079313606,0.007289239,0.011285387,0.0,0.0,0.0,0.0,1311004,1311004,6620172,197644,0,0,831,2,1,2,0,5,0,0,0,0,0,0,0
846864000,846784000,2.8095941e-05,0.008200107,0.0151234465,8389271,0,0.40041816,0.42719227,0.0012364486,0.079313606,0.007289239,0.010541387,0.0,0.0,0.0,0.0,1311004,1311004,6620172,197644,0,0,831,2,1,2,0,5,0,0,0,0,0,0,0
847056000,846976000,0.00052946777,0.014500064,0.028255781,8389271,0,0.3925534,0.42329094,0.0062373294,0.06744381,0.0074582472,0.013272361,0.0,0.0,0.0,0.0,1311004,1311004,6620172,197644,0,0,831,2,1,2,0,5,0,0,0,0,0,0,0
847256000,847176000,0.0003357321,0.015401206,0.033672396,8389271,0,0.38644055,0.4233276,0.011102184,0.08878752,0.008297368,0.0030833725,0.0,0.0,0.0,0.0,1311004,1311004,6620172,197644,0,0,831,2,1,2,0,5,0,0,0,0,0,0,0
847456000,847376000,0.00014701644,0.017149502,0.04183919,8389271,0,0.3810711,0.4203611,0.010194806,0.099062294,0.007709449,0.004829508,0.0,0.0,0.0,0.0,1311004,1311004,6620172,197644,0,0,831,2,1,2,0,5,0,0,0,0,0,0,0
847664000,847584000,0.0001548242,0.013064304,0.031203728,8389271,0,0.37698954,0.42115283,0.0027995072,0.06430017,0.007920235,0.009471836,0.0,0.0,0.0,0.0,1311004,1311004,6620172,197644,0,0,831,2,1,2,0,5,0,0,0,0,0,0,0
847856000,847776000,3.942803e-05,0.004865242,0.0084098745,8389271,0,0.39437094,0.42757866,0.0049203057,0.06430017,0.007920235,0.005416555,0.0,0.0,0.0,0.0,1311004,1311004,6620172,197644,0,0,831,2,1,2,0,5,0,0,0,0,0,0,0
848064000,847984000,0.00040575935,0.008083734,0.015898824,8389271,0,0.38890103,0.42490217,0.0018897934,0.074323006,0.007286082,0.010463525,0.0,0.0,0.0,0.0,1311004,1311004,6620172,197644,0,0,831,2,1,2,0,5,0,0,0,0,0,0,0
848264000,848184000,0.00046305737,0.011477748,0.022619698,8389271,0,0.38342014,0.4247686,0.014648242,0.079449624,0.006631914,0.009097276,0.0,0.0,0.0,0.0,1311004,1311004,6620172,197644,0,0,831,2,1,2,0,5,0,0,0,0,0,0,0
848464000,848384000,0.00045564646,0.011707225,0.022470055,8389271,0,0.37854877,0.42158723,0.011595444,0.06652417,0.006728226,0.0033930824,0.0,0.0,0.0,0.0,1311004,1311004,6620172,197644,0,0,831,2,1,2,0,5,0,0,0,0,0,0,0
848656000,848576000,0.00012368638,0.008553982,0.01624107,8389271,0,0.3735762,0.42097813,0.011639112,0.057621043,0.010044957,0.0058916593,0.0,0.0,0.0,0.0,1311004,1311004,6620172,197644,0,0,831,2,1,2,0,5,0,0,0,0,0,0,0
848856000,848776000,0.00016910024,0.008044175,0.015137796,8389271,0,0.36964718,0.4180163,0.003286675,0.06867493,0.0068798694,0.00427997,0.0,0.0,0.0,0.0,1311004,1311004,6620172,197644,0,0,831,2,1,2,0,5,0,0,0,0,0,0,0
849056000,848976000,0.00010406713,0.003700064,0.010224022,8389271,0,0.3868471,0.4243992,0.0015354883,0.06867493,0.0068798694,0.0059765233,0.0,0.0,0.0,0.0,1311004,1311004,6620172,197644,0,0,831,2,1,2,0,5,0,0,0,0,0,0,0
849256000,849176000,0.00019107817,0.0031441927,0.005929797,8389271,0,0.38155377,0.42423272,0.005308921,0.047395162,0.0046866555,0.008577199,0.0,0.0,0.0,0.0,1311004,1311004,6620172,197644,0,0,831,2,1,2,0,5,0,0,0,0,0,0,0
849464000,849384000,1.8542796e-05,0.0055529955,0.014551583,8389271,0,0.40082586,0.42821926,0.009905435,0.047395162,0.0046866555,0.009963352,0.0,0.0,0.0,0.0,1311004,1311004,6620172,197644,0,0,831,2,1,2,0,5,0,0,0,0,0,0,0
849664000,849584000,0.0001836167,0.002558739,0.004705967,8389271,0,0.3937279,0.42776266,0.014157698,0.05093455,0.008348579,0.010761909,0.0,0.0,0.0,0.0,1311004,1311004,6620172,197644,0,0,831,2,1,2,0,5,0,0,0,0,0,0,0
849864000,849784000,0.0001548971,0.0030267811,0.0036119642,8389271,0,0.38754457,0.42737898,0.004495208,0.0415089,0.007214315,0.009760484,0.0,0.0,0.0,0.0,1311004,1311004,6620172,197644,0,0,831,2,1,2,0,5,0,0,0,0,0,0,0
850056000,849976000,0.00017763897,0.004821204,0.0089534735,8389271,0,0.38139963,0.4232946,0.005652424,0.04796295,0.007361571,0.00783132,0.0,0.0,0.0,0.0,1311004,1311004,6620172,197644,0,0,831,2,1,2,0,5,0,0,0,0,0,0,0
850264000,850184000,0.00024467136,0.0035282557,0.0063463803,8389271,0,0.37724194,0.4236724,0.0088228015,0.044827275,0.0043571857,0.016064204,0.0,0.0,0.0,0.0,1311004,1311004,6620172,197644,0,0,831,2,1,2,0,5,0,0,0,0,0,0,0
850456000,850376000,3.3059787e-05,0.0037814535,0.00965157,8389271,0,0.3943368,0.4292777,0.0031638304,0.044827275,0.0043571857,0.008792254,0.0,0.0,0.0,0.0,1311004,1311004,6620172,197644,0,0,831,2,1,2,0,5,0,0,0,0,0,0,0
850656000,850576000,0.00011513906,0.0051847217,0.011650756,8389271,0,0.388152,0.42570242,0.00025035287,0.014444518,0.0053600925,0.0061745797,0.0,0.0,0.0,0.0,1311004,1311004,6620172,197644,0,0,831,2,1,2,0,5,0,0,0,0,0,0,0
850856000,850776000,0.00013798311,0.007659765,0.012807838,8389271,0,0.3827008,0.4254124,0.007499739,0.032488897,0.0046535637,0.006386967,0.0,0.0,0.0,0.0,1311004,1311004,6620172,197644,0,0,831,2,1,2,0,5,0,0,0,0,0,0,0
851056000,850976000,0.00031998116,0.014532764,0.02268485,8389271,0,0.3778389,0.42207757,0.018918809,0.052116722,0.0056248596,0.006593893,0.0,0.0,0.0,0.0,1311004,1311004,6620172,197644,0,0,831,2,1,2,0,5,0,0,0,0,0,0,0
851264000,851184000,0.00084769545,0.019989397,0.032241903,8389271,0,0.3741343,0.42252558,0.008220173,0.07090635,0.0051923553,0.011829654,0.0,0.0,0.0,0.0,1311004,1311004,6620172,197644,0,0,831,2,1,2,0,5,0,0,0,0,0,0,0
851456000,851376000,0.001713153,0.029085351,0.047049124,9437927,0,0.36952198,0.42181784,0.016201843,0.09776456,0.0060643028,1.1754944e-38,0.0,0.0,0.0,0.0,1311004,1311004,6620172,197644,0,0,831,2,1,2,0,5,0,0,0,0,0,0,0
851656000,851576000,0.00020687211,0.013821835,0.028104672,9437927,0,0.38665006,0.4247051,0.0052370075,0.09776456,0.0060643028,1.1754944e-38,0.0,0.0,0.0,0.0,1311004,1311004,6620172,197644,0,0,831,2,1,2,0,5,0,0,0,0,0,0,0
851864000,851784000,0.0033147703,0.031186063,0.04894733,9437927,0,0.3820626,0.42508718,0.011381357,0.14941783,0.010354784,1.1754944e-38,0.0,0.0,0.0,0.0,1311004,1311004,6620172,197644,0,0,831,2,1,2,0,5,0,0,0,0,0,0,0
852064000,851984000,0.00020587065,0.012256809,0.026619826,9437927,0,0.4008718,0.42802748,0.010564933,0.14941783,0.010354784,1.1754944e-38,0.0,0.0,0.0,0.0,1311004,1311004,6620172,197644,0,0,831,2,1,2,0,5,0,0,0,0,0,0,0
852256000,852176000,0.004351986,0.04170965,0.06563668,9437927,0,0.39292413,0.4269709,0.0050752503,0.17802095,0.019465026,1.1754944e-38,0.0,0.0,0.0,0.0,1311004,1311004,6620172,197644,0,0,831,2,1,2,0,5,0,0,0,0,0,0,0
852456000,852376000,0.0039291764,0.048764214,0.079078995,9437927,0,0.3867342,0.4234645,0.016799403,0.1559255,0.015774105,1.1754944e-38,0.0,0.0,0.0,0.0,1311004,1311004,6620172,197644,0,0,831,2,1,2,0,5,0,0,0,0,0,0,0
852656000,852576000,0.0030301656,0.04632227,0.07842069,9437927,0,0.38131288,0.4231728,0.015405757,0.13911669,0.012095925,1.1754944e-38,0.0,0.0,0.0,0.0,1311004,1311004,6620172,197644,0,0,831,2,1,2,0,5,0,0,0,0,0,0,0
852856000,852776000,0.002224899,0.03929557,0.06977875,9437927,0,0.37650624,0.42293248,0.016799673,0.109645754,0.011132651,1.1754944e-38,0.0,0.0,0.0,0.0,1311004,1311004,6620172,197644,0,0,831,2,1,2,0,5,0,0,0,0,0,0,0
853064000,852984000,0.00015138698,0.012448842,0.028531289,9437927,0,0.39530054,0.42626914,0.02553725,0.109645754,0.011132651,1.1754944e-38,0.0,0.0,0.0,0.0,1311004,1311004,6620172,197644,0,0,831,2,1,2,0,5,0,0,0,0,0,0,0
853264000,853184000,0.0012325058,0.02082884,0.044605132,9437927,0,0.38905022,0.4258858,0.010173555,0.08598788,0.015987827,1.1754944e-38,0.0,0.0,0.0,0.0,1311004,1311004,6620172,197644,0,0,831,2,1,2,0,5,0,0,0,0,0,0,0
853464000,853384000,0.000787333,0.02109653,0.048439395,9437927,0,0.38355255,0.42249137,0.02293166,0.05814909,0.013643176,1.1754944e-38,0.0,0.0,0.0,0.0,1311004,1311004,6620172,197644,0,0,831,2,1,2,0,5,0,0,0,0,0,0,0
853664000,853584000,0.0004499772,0.019906005,0.04704777,9437927,0,0.3787286,0.4223141,0.0060212472,0.053159002,0.010530749,1.1754944e-38,0.0,0.0,0.0,0.0,1311004,1311004,6620172,197644,0,0,831,2,1,2,0,5,0,0,0,0,0,0,0
853856000,853776000,0.00036725466,0.021796852,0.048337497,9437927,0,0.3736775,0.42161703,0.011107896,0.052808907,0.008857522,1.1754944e-38,0.0,0.0,0.0,0.0,1311004,1311004,6620172,197644,0,0,831,2,1,2,0,5,0,0,0,0,0,0,0
854056000,853976000,0.00036692663,0.023232425,0.04920663,9437927,0,0.3697368,0.41858003,0.019687377,0.051034093,0.009057407,1.1754944e-38,0.0,0.0,0.0,0.0,1311004,1311004,6620172,197644,0,0,831,2,1,2,0,5,0,0,0,0,0,0,0
854256000,854176000,4.769087e-05,0.016553761,0.034174412,9437927,0,0.38685423,0.4244338,0.009046208,0.051034093,0.009057407,1.1754944e-38,0.0,0.0,0.0,0.0,1311004,1311004,6620172,197644,0,0,831,2,1,2,0,5,0,0,0,0,0,0,0
854456000,854376000,0.0003849718,0.021679442,0.04277473,9437927,0,0.3816289,0.421187,0.014999124,0.050358947,0.007233945,1.1754944e-38,0.0,0.0,0.0,0.0,1311004,1311004,6620172,197644,0,0,831,2,1,2,0,5,0,0,0,0,0,0,0
854656000,854576000,3.2505446e-05,0.016203927,0.032224406,9437927,0,0.4000631,0.42728895,0.011207211,0.050358947,0.007233945,1.1754944e-38,0.0,0.0,0.0,0.0,1311004,1311004,6620172,197644,0,0,831,2,1,2,0,5,0,0,0,0,0,0,0
854856000,854776000,0.00047577315,0.02404949,0.04802053,9437927,0,0.39299908,0.42379618,0.014327906,0.07592553,0.009422467,1.1754944e-38,0.0,0.0,0.0,0.0,1311004,1311004,6620172,197644,0,0,831,2,1,2,0,5,0,0,0,0,0,0,0
855064000,854984000,0.0004921418,0.025566937,0.05159299,9437927,0,0.3875573,0.42415255,0.0229241,0.066145785,0.008335979,1.1754944e-38,0.0,0.0,0.0,0.0,1311004,1311004,6620172,197644,0,0,831,2,1,2,0,5,0,0,0,0,0,0,0
855256000,855176000,0.0004952504,0.026312275,0.053240877,9437927,0,0.38141122,0.42333314,0.012198594,0.06381444,0.008350854,1.1754944e-38,0.0,0.0,0.0,0.0,1311004,1311004,6620172,197644,0,0,831,2,1,2,0,5,0,0,0,0,0,0,0
855456000,855376000,0.00047196748,0.026920041,0.05428559,9437847,0,0.37657368,0.42011613,0.014057453,0.07047553,0.007854872,1.1754944e-38,0.0,0.0,0.0,0.0,1311004,1311004,6620172,197644,0,0,831,2,1,2,0,5,0,0,0,0,0,0,0
855664000,855584000,8.0873746e-05,0.014231799,0.028504366,9437847,0,0.3951206,0.42679068,0.010397179,0.07047553,0.007854872,1.1754944e-38,0.0,0.0,0.0,0.0,1311004,1311004,6620172,197644,0,0,831,2,1,2,0,5,0,0,0,0,0,0,0
855856000,855776000,0.0007951013,0.02900765,0.048621643,9437847,0,0.38813475,0.42583448,0.03823544,0.106766194,0.007344224,0.002830339,0.0,0.0,0.0,0.0,1311004,1311004,6620172,197644,0,0,831,2,1,2,0,5,0,0,0,0,0,0,0
856056000,855976000,0.0036146464,0.09009054,0.11603417,9437927,0,0.38257945,0.42247447,0.045153294,0.3049011,0.013459408,1.1754944e-38,0.0,0.0,0.0,0.0,1311004,1311004,6620172,197644,0,0,831,2,1,2,0,5,0,0,0,0,0,0,0
856256000,856176000,0.0060888245,0.113092065,0.1377959,9437927,0,0.37779692,0.42225876,0.05046192,0.21752271,0.011339,0.0036181966,0.0,0.0,0.0,0.0,1311004,1311004,6620172,197644,0,0,831,2,1,2,0,5,0,0,0,0,0,0,0
856456000,856376000,0.00859323,0.13467593,0.14332588,9437927,0,0.37347156,0.42204675,0.022518141,0.24255137,0.007951779,0.0010316615,0.0,0.0,0.0,0.0,1311004,1311004,6620172,197644,0,0,831,2,1,2,0,5,0,0,0,0,0,0,0
856664000,856584000,0.007894223,0.1328773,0.13373905,9437927,0,0.37022397,0.41935316,0.013445196,0.24430025,0.007791907,1.1754944e-38,0.0,0.0,0.0,0.0,1311004,1311004,6620172,197644,0,0,831,2,1,2,0,5,0,0,0,0,0,0,0
856856000,856776000,0.0008499015,0.051994298,0.0648278,9437927,0,0.38767552,0.42364985,0.007794921,0.24430025,0.007791907,0.004786515,0.0,0.0,0.0,0.0,1311004,1311004,6620172,197644,0,0,831,2,1,2,0,5,0,0,0,0,0,0,0
857056000,856976000,0.004994768,0.07812112,0.097862765,9437927,0,0.38220912,0.4232297,0.012140608,0.20564437,0.019578319,0.0032512553,0.0,0.0,0.0,0.0,1311004,1311004,6620172,197644,0,0,831,2,1,2,0,5,0,0,0,0,0,0,0
857264000,857184000,0.0003785498,0.028440835,0.046598833,9437927,0,0.4033878,0.42539123,0.038917486,0.20564437,0.019578319,0.011579542,0.0,0.0,0.0,0.0,1311004,1311004,6620172,197644,0,0,831,2,1,2,0,5,0,0,0,0,0,0,0
857464000,857384000,0.002876796,0.06222175,0.10546211,9437927,0,0.3957124,0.42480567,0.020236533,0.15761003,0.025936108,0.0055084773,0.0,0.0,0.0,0.0,1311004,1311004,6620172,197644,0,0,831,2,1,2,0,5,0,0,0,0,0,0,0
857656000,857576000,0.0018005561,0.068161175,0.12399935,9437927,0,0.38849515,0.42369738,0.040506564,0.16124283,0.023224344,0.0052680937,0.0,0.0,0.0,0.0,1311004,1311004,6620172,197644,0,0,831,2,1,2,0,5,0,0,0,0,0,0,0
857856000,857776000,0.0009575489,0.062909976,0.11841227,9437927,0,0.38292265,0.42011392,0.03551616,0.14132996,0.021932006,0.0081976345,0.0,0.0,0.0,0.0,1311004,1311004,6620172,197644,0,0,831,2,1,2,0,5,0,0,0,0,0,0,0
858056000,857976000,0.00083753426,0.063368835,0.11198374,9437927,0,0.37792218,0.4196289,0.016433345,0.15387279,0.014894204,0.002749044,0.0,0.0,0.0,0.0,1311004,1311004,6620172,197644,0,0,831,2,1,2,0,5,0,0,0,0,0,0,0
858256000,858176000,0.00011307562,0.036929633,0.06093266,9437927,0,0.3960887,0.42358634,0.036651064,0.15387279,0.014894204,0.0017433538,0.0,0.0,0.0,0.0,1311004,1311004,6620172,197644,0,0,831,2,1,2,0,5,0,0,0,0,0,0,0
858456000,858376000,0.00074066326,0.05013053,0.078720726,9437927,0,0.38965166,0.41997364,0.019749219,0.1146932,0.022478102,0.0019694166,0.0,0.0,0.0,0.0,1311004,1311004,6620172,197644,0,0,831,2,1,2,0,5,0,0,0,0,0,0,0
858656000,858576000,0.0006635453,0.051491734,0.08018561,9437927,0,0.38400182,0.4194718,0.045635425,0.09852501,0.01991658,0.008256395,0.0,0.0,0.0,0.0,1311004,1311004,6620172,197644,0,0,831,2,1,2,0,5,0,0,0,0,0,0,0
858856000,858776000,0.0010681344,0.05424237,0.079191715,9437927,0,0.3789879,0.41604406,0.01942515,0.08960439,0.016688703,0.0036534595,0.0,0.0,0.0,0.0,1311004,1311004,6620172,197644,0,0,831,2,1,2,0,5,0,0,0,0,0,0,0
859056000,858976000,0.0010757383,0.0589177,0.08380163,9437927,0,0.37456807,0.4156596,0.13305873,0.10031925,0.019612694,1.1754944e-38,0.0,0.0,0.0,0.0,1311004,1311004,6620172,197644,0,0,831,2,1,2,0,5,0,0,0,0,0,0,0
859256000,859176000,0.001198041,0.05923547,0.083858356,9437927,0,0.37054995,0.41532114,0.05053721,0.10377619,0.013897812,0.0049640634,0.0,0.0,0.0,0.0,1311004,1311004,6620172,197644,0,0,831,2,1,2,0,5,0,0,0,0,0,0,0
859456000,859376000,2.7133077e-05,0.031426057,0.04841029,9437927,0,0.38800654,0.4160111,0.049044173,0.10377619,0.013897812,0.0029071874,0.0,0.0,0.0,0.0,1311004,1311004,6620172,197644,0,0,831,2,1,2,0,5,0,0,0,0,0,0,0
859664000,859584000,0.0017225818,0.044156495,0.06320169,9437927,0,0.383345,0.4161254,0.0481639,0.122203216,0.014875069,0.0065169153,0.0,0.0,0.0,0.0,1311004,1311004,6620172,197644,0,0,831,2,1,2,0,5,0,0,0,0,0,0,0
859856000,859776000,6.7126115e-05,0.02573363,0.040200762,9437927,0,0.40187496,0.4192781,0.03628145,0.122203216,0.014875069,0.0063076923,0.0,0.0,0.0,0.0,1311004,1311004,6620172,197644,0,0,831,2,1,2,0,5,0,0,0,0,0,0,0
860056000,859976000,0.0019302473,0.046851885,0.07001182,9437927,0,0.39444417,0.41585422,0.023298336,0.13298824,0.013274877,0.006035174,0.0,0.0,0.0,0.0,1311004,1311004,6620172,197644,0,0,831,2,1,2,0,5,0,0,0,0,0,0,0
860264000,860184000,0.0016903614,0.04912277,0.075126976,9437927,0,0.38879427,0.41594234,0.0255199,0.12016547,0.0132098915,0.0060649994,0.0,0.0,0.0,0.0,1311004,1311004,6620172,197644,0,0,831,2,1,2,0,5,0,0,0,0,0,0,0
860464000,860384000,0.0010928741,0.043030832,0.0680843,9437927,0,0.38317582,0.41555506,0.009086153,0.08682188,0.010188101,0.009157745,0.0,0.0,0.0,0.0,1311004,1311004,6620172,197644,0,0,831,2,1,2,0,5,0,0,0,0,0,0,0
860656000,860576000,0.0009060699,0.038053513,0.060343314,9437927,0,0.37751302,0.41183636,0.02446357,0.08846985,0.010892588,0.0043432214,0.0,0.0,0.0,0.0,1311004,1311004,6620172,197644,0,0,831,2,1,2,0,5,0,0,0,0,0,0,0
860864000,860784000,6.0649872e-05,0.015854055,0.028688915,9437927,0,0.39673316,0.4157399,0.030200504,0.08846985,0.010892588,0.008749072,0.0,0.0,0.0,0.0,1311004,1311004,6620172,197644,0,0,831,2,1,2,0,5,0,0,0,0,0,0,0
861056000,860976000,0.00055997295,0.020742958,0.03752831,9437927,0,0.38949686,0.4148907,0.021321192,0.099267036,0.0073382226,0.01040065,0.0,0.0,0.0,0.0,1311004,1311004,6620172,197644,0,0,831,2,1,2,0,5,0,0,0,0,0,0,0
861256000,861176000,0.0004839188,0.01989934,0.035506144,9437927,0,0.3838576,0.4116967,0.0047244835,0.05972616,0.00718404,0.008873514,0.0,0.0,0.0,0.0,1311004,1311004,6620172,197644,0,0,831,2,1,2,0,5,0,0,0,0,0,0,0
861464000,861384000,0.00023373842,0.014160317,0.028591331,9437927,0,0.37956998,0.41194156,0.012837835,0.067047834,0.0072842618,0.013529456,0.0,0.0,0.0,0.0,1311004,1311004,6620172,197644,0,0,831,2,1,2,0,5,0,0,0,0,0,0,0
861656000,861576000,0.00026051895,0.011966949,0.024793858,9437927,0,0.37441537,0.40850037,0.013351907,0.051299058,0.005731983,0.012013816,0.0,0.0,0.0,0.0,1311004,1311004,6620172,197644,0,0,831,2,1,2,0,5,0,0,0,0,0,0,0
861864000,861784000,0.00015350257,0.008173946,0.018126985,9437927,0,0.371075,0.40887713,0.02537221,0.062299363,0.0043184347,0.006269088,0.0,0.0,0.0,0.0,1311004,1311004,6620172,197644,0,0,831,2,1,2,0,5,0,0,0,0,0,0,0
862056000,861976000,2.4033032e-05,0.0048796153,0.01286469,9437927,0,0.38811958,0.41204587,0.010811356,0.062299363,0.0043184347,0.014498665,0.0,0.0,0.0,0.0,1311004,1311004,6620172,197644,0,0,831,2,1,2,0,5,0,0,0,0,0,0,0
862264000,862184000,0.00013713838,0.0047556814,0.0142780095,9437927,0,0.3833773,0.40969628,0.029466309,0.063771404,0.003293211,0.012225034,0.0,0.0,0.0,0.0,1311004,1311004,6620172,197644,0,0,831,2,1,2,0,5,0,0,0,0,0,0,0
862464000,862384000,1.5217148e-05,0.0063788174,0.015124015,9437927,0,0.40279028,0.41374862,0.02440716,0.063771404,0.003293211,0.010635077,0.0,0.0,0.0,0.0,1311004,1311004,6620172,197644,0,0,831,2,1,2,0,5,0,0,0,0,0,0,0
862656000,862576000,0.00012625141,0.005889429,0.016555341,9437927,0,0.39452347,0.4104011,0.010814211,0.07286871,0.00470292,0.015071526,0.0,0.0,0.0,0.0,1311004,1311004,6620172,197644,0,0,831,2,1,2,0,5,0,0,0,0,0,0,0
862864000,862784000,0.00013232429,0.009043534,0.02346691,9437927,0,0.38885954,0.41101983,0.028503653,0.08382508,0.0024262834,0.014892125,0.0,0.0,0.0,0.0,1311004,1311004,6620172,197644,0,0,831,2,1,2,0,5,0,0,0,0,0,0,0
863064000,862984000,9.846259e-05,0.007965062,0.02205735,9437847,0,0.38322902,0.40836063,0.0054834657,0.06084168,0.0031839737,0.01496839,0.0,0.0,0.0,0.0,1311004,1311004,6620172,197644,0,0,831,2,1,2,0,5,0,0,0,0,0,0,0
863256000,863176000,8.1852646e-05,0.008225433,0.021693533,9437847,0,0.37755224,0.40805736,0.0049413764,0.062437776,0.0015167594,0.009452384,0.0,0.0,0.0,0.0,1311004,1311004,6620172,197644,0,0,831,2,1,2,0,5,0,0,0,0,0,0,0
863456000,863376000,4.948263e-05,0.0051230593,0.011969762,9437847,0,0.39603323,0.41264793,0.010276202,0.062437776,0.0015167594,0.013960242,0.0,0.0,0.0,0.0,1311004,1311004,6620172,197644,0,0,831,2,1,2,0,5,0,0,0,0,0,0,0
863664000,863584000,2.4514258e-05,0.007979181,0.017971901,9437847,0,0.3904018,0.4105614,0.006701954,0.07699476,0.0038486344,0.012010405,0.0,0.0,0.0,0.0,1311004,1311004,6620172,197644,0,0,831,2,1,2,0,5,0,0,0,0,0,0,0
863864000,863784000,0.00015756159,0.008705382,0.020507613,9437847,0,0.38471353,0.41086546,0.01078931,0.08444228,0.0029513587,0.01029026,0.0,0.0,0.0,0.0,1311004,1311004,6620172,197644,0,0,831,2,1,2,0,5,0,0,0,0,0,0,0
864064000,863984000,5.1335464e-05,0.00957307,0.02389488,9437847,0,0.37968478,0.4084416,0.0007348443,0.07083281,0.0025116794,0.013335602,0.0,0.0,0.0,0.0,1311004,1311004,6620172,197644,0,0,831,2,1,2,0,5,0,0,0,0,0,0,0
864264000,864184000,2.709072e-05,0.010921031,0.025688644,9437847,0,0.37519997,0.408882,0.017089749,0.07790385,0.0024063496,0.018474862,0.0,0.0,0.0,0.0,1311004,1311004,6620172,197644,0,0,831,2,1,2,0,5,0,0,0,0,0,0,0
864464000,864384000,6.191846e-05,0.009209027,0.02185874,9437847,0,0.3711693,0.409354,0.011085989,0.068390526,0.0028373548,0.014660897,0.0,0.0,0.0,0.0,1311004,1311004,6620172,197644,0,0,831,2,1,2,0,5,0,0,0,0,0,0,0
864656000,864576000,0.00011366108,0.004447581,0.0094706,9437847,0,0.38818467,0.41128778,0.01518279,0.068390526,0.0028373548,0.016204013,0.0,0.0,0.0,0.0,1311004,1311004,6620172,197644,0,0,831,2,1,2,0,5,0,0,0,0,0,0,0
864864000,864784000,0.00014325498,0.006825246,0.016645832,9437847,0,0.38343757,0.4094841,0.061566576,0.07413319,0.0037160628,0.019437818,0.0,0.0,0.0,0.0,1311004,1311004,6620172,197644,0,0,831,2,1,2,0,5,0,0,0,0,0,0,0
865064000,864984000,7.008275e-06,0.0053070206,0.010055944,9437847,0,0.40261325,0.4152608,0.005301701,0.07413319,0.0037160628,0.01787026,0.0,0.0,0.0,0.0,1311004,1311004,6620172,197644,0,0,831,2,1,2,0,5,0,0,0,0,0,0,0
865256000,865176000,5.173036e-05,0.0061370865,0.013454456,9437847,0,0.39443538,0.41502067,0.00848464,0.06867252,0.003083877,0.018257286,0.0,0.0,0.0,0.0,1311004,1311004,6620172,197644,0,0,831,2,1,2,0,5,0,0,0,0,0,0,0
865456000,865376000,0.00014616184,0.008724019,0.01895061,8389271,0,0.38806197,0.4153851,0.030575052,0.07731604,0.0039838855,0.019199574,0.0,0.0,0.0,0.0,1311004,1311004,6620172,197644,0,0,831,2,1,2,0,5,0,0,0,0,0,0,0
865656000,865576000,6.278815e-05,0.010960863,0.024778856,8389271,0,0.3824756,0.4128982,0.023609659,0.07157449,0.004882947,0.016204331,0.0,0.0,0.0,0.0,1311004,1311004,6620172,197644,0,0,831,2,1,2,0,5,0,0,0,0,0,0,0
865864000,865784000,8.508327e-05,0.010468943,0.021617578,8389271,0,0.37821436,0.41392028,0.0066753696,0.059502106,0.004139764,0.015840627,0.0,0.0,0.0,0.0,1311004,1311004,6620172,197644,0,0,831,2,1,2,0,5,0,0,0,0,0,0,0
866064000,865984000,5.3757703e-05,0.005289497,0.009743218,8389271,0,0.39647457,0.4171232,0.012778118,0.059502106,0.004139764,0.01621954,0.0,0.0,0.0,0.0,1311004,1311004,6620172,197644,0,0,831,2,1,2,0,5,0,0,0,0,0,0,0
866256000,866176000,5.3008567e-05,0.0059030633,0.011504727,8389271,0,0.3893175,0.4168072,0.012456843,0.05752593,0.005478956,0.017459676,0.0,0.0,0.0,0.0,1311004,1311004,6620172,197644,0,0,831,2,1,2,0,5,0,0,0,0,0,0,0
866464000,866384000,3.209442e-05,0.005196334,0.011096508,8389271,0,0.3844219,0.41480473,0.003201234,0.05939421,0.0050337682,0.0107392045,0.0,0.0,0.0,0.0,1311004,1311004,6620172,197644,0,0,831,2,1,2,0,5,0,0,0,0,0,0,0
866664000,866584000,0.00012524256,0.0058564944,0.012292577,8389271,0,0.3794269,0.4151916,0.04486454,0.05387777,0.00624366,0.015518533,0.0,0.0,0.0,0.0,1311004,1311004,6620172,197644,0,0,831,2,1,2,0,5,0,0,0,0,0,0,0
866856000,866776000,5.852476e-05,0.005684768,0.010922258,8389271,0,0.3742877,0.41500676,0.008599484,0.054277133,0.0054554804,0.015044358,0.0,0.0,0.0,0.0,1311004,1311004,6620172,197644,0,0,831,2,1,2,0,5,0,0,0,0,0,0,0
867056000,866976000,0.00012302295,0.007986957,0.01570496,8389271,0,0.3702826,0.41253567,0.013634821,0.068862505,0.006289952,0.007957347,0.0,0.0,0.0,0.0,1311004,1311004,6620172,197644,0,0,831,2,1,2,0,5,0,0,0,0,0,0,0
867256000,867176000,8.919257e-06,0.003409655,0.008364057,8389271,0,0.3876358,0.41875577,0.0042321207,0.068862505,0.006289952,0.015058383,0.0,0.0,0.0,0.0,1311004,1311004,6620172,197644,0,0,831,2,1,2,0,5,0,0,0,0,0,0,0
867464000,867384000,8.454909e-05,0.0035790768,0.006701464,8389271,0,0.38295147,0.41664532,0.013407669,0.05226784,0.0053249155,0.009105948,0.0,0.0,0.0,0.0,1311004,1311004,6620172,197644,0,0,831,2,1,2,0,5,0,0,0,0,0,0,0
867656000,867576000,5.9936705e-05,0.0056418446,0.014344672,8389271,0,0.40090442,0.42258722,0.029594827,0.05226784,0.0053249155,0.0094821,0.0,0.0,0.0,0.0,1311004,1311004,6620172,197644,0,0,831,2,1,2,0,5,0,0,0,0,0,0,0
867864000,867784000,6.638288e-05,0.0014184256,0.0030390455,8389271,0,0.3944606,0.42020044,0.0028300465,0.054304555,0.0074125347,0.020037906,0.0,0.0,0.0,0.0,1311004,1311004,6620172,197644,0,0,831,2,1,2,0,5,0,0,0,0,0,0,0
868056000,867976000,7.2381845e-05,0.0024700186,0.0056383833,8389271,0,0.3874523,0.4196945,0.012643155,0.031654853,0.0071858778,0.010970957,0.0,0.0,0.0,0.0,1311004,1311004,6620172,197644,0,0,831,2,1,2,0,5,0,0,0,0,0,0,0
868256000,868176000,0.00014525265,0.0051371492,0.010857837,8389271,0,0.38194636,0.41986465,0.023773411,0.029377503,0.0070465556,0.0142585775,0.0,0.0,0.0,0.0,1311004,1311004,6620172,197644,0,0,831,2,1,2,0,5,0,0,0,0,0,0,0
868464000,868384000,9.4514646e-05,0.003944771,0.009522625,8389271,0,0.37773225,0.41775337,0.018593874,0.024804814,0.005626831,0.013159173,0.0,0.0,0.0,0.0,1311004,1311004,6620172,197644,0,0,831,2,1,2,0,5,0,0,0,0,0,0,0
868664000,868584000,2.3611012e-05,0.0057975594,0.015405187,8389271,0,0.39568812,0.4213028,0.015912144,0.024804814,0.005626831,0.007276318,0.0,0.0,0.0,0.0,1311004,1311004,6620172,197644,0,0,831,2,1,2,0,5,0,0,0,0,0,0,0
868856000,868776000,0.0001094604,0.0024985955,0.008046937,8389271,0,0.38865978,0.4207316,0.013741976,0.035467874,0.0027647722,0.009263277,0.0,0.0,0.0,0.0,1311004,1311004,6620172,197644,0,0,831,2,1,2,0,5,0,0,0,0,0,0,0
869064000,868984000,0.00012525861,0.0047383625,0.014510178,8389271,0,0.3838382,0.4214541,0.037101343,0.012783641,0.002987207,0.007689998,0.0,0.0,0.0,0.0,1311004,1311004,6620172,197644,0,0,831,2,1,2,0,5,0,0,0,0,0,0,0
869256000,869176000,9.265656e-05,0.0054514795,0.013731607,8389271,0,0.37822405,0.41793513,0.00808343,0.009991289,0.0031589074,0.008018041,0.0,0.0,0.0,0.0,1311004,1311004,6620172,197644,0,0,831,2,1,2,0,5,0,0,0,0,0,0,0
869456000,869376000,0.00012168349,0.004660734,0.011273561,8389271,0,0.3738243,0.41809464,0.0009568585,0.022206549,0.0026090795,0.0069638817,0.0,0.0,0.0,0.0,1311004,1311004,6620172,197644,0,0,831,2,1,2,0,5,0,0,0,0,0,0,0
869664000,869584000,9.064611e-05,0.0050018774,0.013333096,8389271,0,0.37050995,0.41888487,0.01475526,0.014161892,0.00078462187,0.008335621,0.0,0.0,0.0,0.0,1311004,1311004,6620172,197644,0,0,831,2,1,2,0,5,0,0,0,0,0,0,0
869856000,869776000,2.7477072e-05,0.0058302796,0.016114412,8389271,0,0.38705614,0.42157325,0.010432117,0.014161892,0.00078462187,0.009269524,0.0,0.0,0.0,0.0,1311004,1311004,6620172,197644,0,0,831,2,1,2,0,5,0,0,0,0,0,0,0
870056000,869976000,0.00014579344,0.0073434617,0.019572258,8389271,0,0.3818008,0.42154452,0.015630953,0.013037498,0.0010108289,0.010153735,0.0,0.0,0.0,0.0,1311004,1311004,6620172,197644,0,0,831,2,1,2,0,5,0,0,0,0,0,0,0
870264000,870184000,4.3437474e-05,0.006760927,0.018356454,8389271,0,0.40112835,0.42877248,0.013759625,0.013037498,0.0010108289,0.018271202,0.0,0.0,0.0,0.0,1311004,1311004,6620172,197644,0,0,831,2,1,2,0,5,0,0,0,0,0,0,0
870456000,870376000,0.00011267331,0.008091856,0.019255923,8389271,0,0.39323297,0.42462048,0.0065355143,0.017885562,0.0014198087,0.005942456,0.0,0.0,0.0,0.0,1311004,1311004,6620172,197644,0,0,831,2,1,2,0,5,0,0,0,0,0,0,0
870656000,870576000,0.00014509581,0.009918374,0.024428606,8389271,0,0.38703966,0.42437077,0.010336432,0.015625983,0.0019886503,0.004286135,0.0,0.0,0.0,0.0,1311004,1311004,6620172,197644,0,0,831,2,1,2,0,5,0,0,0,0,0,0,0
870864000,870784000,0.00012271969,0.0066656703,0.015372944,8389271,0,0.38228,0.4217088,0.008774639,0.013719815,0.00068281806,0.0035151148,0.0,0.0,0.0,0.0,1311004,1311004,6620172,197644,0,0,831,2,1,2,0,5,0,0,0,0,0,0,0
871064000,870984000,0.00011879025,0.009143827,0.023100836,8389271,0,0.3774705,0.4216238,0.016833205,0.020365544,0.00088365446,0.0030123517,0.0,0.0,0.0,0.0,1311004,1311004,6620172,197644,0,0,831,2,1,2,0,5,0,0,0,0,0,0,0
871264000,871184000,8.695705e-05,0.0060317223,0.016455185,8389271,0,0.39541206,0.4280233,0.0036051176,0.020365544,0.00088365446,0.010058659,0.0,0.0,0.0,0.0,1311004,1311004,6620172,197644,0,0,831,2,1,2,0,5,0,0,0,0,0,0,0
871456000,871376000,0.00014450068,0.00852945,0.02222153,8389271,0,0.38841838,0.4270529,0.0031405762,0.025652053,0.0034262019,0.008851791,0.0,0.0,0.0,0.0,1311004,1311004,6620172,197644,0,0,831,2,1,2,0,5,0,0,0,0,0,0,0
871656000,871576000,0.00015715278,0.008480706,0.02212884,8389271,0,0.38292354,0.42366037,0.004643544,0.018777812,0.002539673,0.00059635594,0.0,0.0,0.0,0.0,1311004,1311004,6620172,197644,0,0,831,2,1,2,0,5,0,0,0,0,0,0,0
871864000,871784000,0.00023892579,0.009022945,0.020712622,8389271,0,0.37872082,0.42409515,0.00924662,0.038285226,0.0038583062,0.002758666,0.0,0.0,0.0,0.0,1311004,1311004,6620172,197644,0,0,831,2,1,2,0,5,0,0,0,0,0,0,0
872064000,871984000,0.00021509916,0.009188841,0.02089686,8389271,0,0.3743877,0.4209296,0.004202797,0.034925286,0.0038317414,0.0008820673,0.0,0.0,0.0,0.0,1311004,1311004,6620172,197644,0,0,831,2,1,2,0,5,0,0,0,0,0,0,0
872256000,872176000,0.00022666896,0.009519299,0.02349366,8389271,0,0.36976683,0.42028096,0.016414506,0.027185654,0.0033327683,0.0025788485,0.0,0.0,0.0,0.0,1311004,1311004,6620172,197644,0,0,831,2,1,2,0,5,0,0,0,0,0,0,0
872456000,872376000,9.581609e-05,0.004300149,0.013568021,8389271,0,0.38701007,0.42644808,0.011445011,0.027185654,0.0033327683,0.0054441844,0.0,0.0,0.0,0.0,1311004,1311004,6620172,197644,0,0,831,2,1,2,0,5,0,0,0,0,0,0,0
872664000,872584000,0.00022736004,0.007517996,0.019031104,8389271,0,0.38246712,0.42370468,0.022116559,0.03311155,0.0024751911,0.0022097637,0.0,0.0,0.0,0.0,1311004,1311004,6620172,197644,0,0,831,2,1,2,0,5,0,0,0,0,0,0,0
872856000,872776000,6.310026e-05,0.0034807175,0.010390375,8389271,0,0.40036106,0.42943233,0.00021196,0.03311155,0.0024751911,0.005984259,0.0,0.0,0.0,0.0,1311004,1311004,6620172,197644,0,0,831,2,1,2,0,5,0,0,0,0,0,0,0
873064000,872984000,0.00017977238,0.004390542,0.010353056,8389271,0,0.3939921,0.42956546,0.00952366,0.024410736,0.00703471,0.0031268934,0.0,0.0,0.0,0.0,1311004,1311004,6620172,197644,0,0,831,2,1,2,0,5,0,0,0,0,0,0,0
873264000,873184000,0.00022423959,0.0072107236,0.01685805,8389271,0,0.38776708,0.42594558,0.0084700715,0.036210258,0.006375173,0.00221387,0.0,0.0,0.0,0.0,1311004,1311004,6620172,197644,0,0,831,2,1,2,0,5,0,0,0,0,0,0,0
873456000,873376000,0.00017666799,0.006762537,0.01639339,8389271,0,0.38158602,0.42497993,0.0027148516,0.021628458,0.0049336283,0.00331154,0.0,0.0,0.0,0.0,1311004,1311004,6620172,197644,0,0,831,2,1,2,0,5,0,0,0,0,0,0,0
873656000,873576000,0.00019073844,0.007282812,0.016685741,8389271,0,0.3767318,0.42469728,0.007254886,0.034853417,0.0045524724,0.004887695,0.0,0.0,0.0,0.0,1311004,1311004,6620172,197644,0,0,831,2,1,2,0,5,0,0,0,0,0,0,0
873856000,873776000,2.7357215e-05,0.0019649202,0.005756486,8389271,0,0.39463007,0.4277175,0.0016765653,0.034853417,0.0045524724,0.0008627994,0.0,0.0,0.0,0.0,1311004,1311004,6620172,197644,0,0,831,2,1,2,0,5,0,0,0,0,0,0,0
874056000,873976000,0.00018012556,0.005901782,0.014377772,8389271,0,0.3883928,0.42725775,0.010958126,0.03247763,0.0069209663,0.0048872945,0.0,0.0,0.0,0.0,1311004,1311004,6620172,197644,0,0,831,2,1,2,0,5,0,0,0,0,0,0,0
874264000,874184000,0.00017893383,0.006924431,0.018053,8389271,0,0.38360533,0.42748758,0.022615211,0.03273904,0.007844553,2.0772395e-05,0.0,0.0,0.0,0.0,1311004,1311004,6620172,197644,0,0,831,2,1,2,0,5,0,0,0,0,0,0,0
874456000,874376000,0.00019667514,0.0053229257,0.012157109,8389271,0,0.37801838,0.42339954,0.0011639823,0.034385327,0.0065549873,0.0042454116,0.0,0.0,0.0,0.0,1311004,1311004,6620172,197644,0,0,831,2,1,2,0,5,0,0,0,0,0,0,0
874664000,874584000,0.00013656207,0.005097854,0.012551201,8389271,0,0.37431106,0.4237642,0.0031164,0.024038905,0.0065321308,0.0046837064,0.0,0.0,0.0,0.0,1311004,1311004,6620172,197644,0,0,831,2,1,2,0,5,0,0,0,0,0,0,0
874864000,874784000,7.594958e-05,0.003298986,0.009691368,8389271,0,0.3704115,0.4235689,0.010921614,0.011481976,0.009268745,0.0020701457,0.0,0.0,0.0,0.0,1311004,1311004,6620172,197644,0,0,831,2,1,2,0,5,0,0,0,0,0,0,0
875056000,874976000,1.948697e-05,0.002484441,0.006772141,8389271,0,0.38702708,0.42583182,0.008171105,0.011481976,0.009268745,0.00054783194,0.0,0.0,0.0,0.0,1311004,1311004,6620172,197644,0,0,831,2,1,2,0,5,0,0,0,0,0,0,0
875264000,875184000,0.00028913445,0.0063121733,0.012586045,8389271,0,0.38241294,0.4260884,0.0013119747,0.052761342,0.01114086,0.0022468923,0.0,0.0,0.0,0.0,1311004,1311004,6620172,197644,0,0,831,2,1,2,0,5,0,0,0,0,0,0,0
875464000,875384000,2.2786056e-05,0.0013234002,0.0052720965,8389271,0,0.4011053,0.4323585,0.0024850806,0.052761342,0.01114086,0.0024143881,0.0,0.0,0.0,0.0,1311004,1311004,6620172,197644,0,0,831,2,1,2,0,5,0,0,0,0,0,0,0
875656000,875576000,0.0003896248,0.0107542705,0.019455392,8389271,0,0.39319924,0.42785475,0.01486802,0.06532566,0.014576832,0.0019488613,0.0,0.0,0.0,0.0,1311004,1311004,6620172,197644,0,0,831,2,1,2,0,5,0,0,0,0,0,0,0
875864000,875784000,0.0004149216,0.014454518,0.02547981,8389271,0,0.38772607,0.42798087,0.00481404,0.06723134,0.012270077,0.00087931164,0.0,0.0,0.0,0.0,1311004,1311004,6620172,197644,0,0,831,2,1,2,0,5,0,0,0,0,0,0,0
876056000,875976000,0.00035699547,0.015001288,0.028625619,8389271,0,0.3815479,0.42695957,0.008885236,0.062261343,0.0085732415,0.0031940138,0.0,0.0,0.0,0.0,1311004,1311004,6620172,197644,0,0,831,2,1,2,0,5,0,0,0,0,0,0,0
876264000,876184000,0.00026852736,0.010462467,0.020481793,8389271,0,0.37737975,0.42411575,0.008454021,0.044441853,0.0068743266,0.0055612293,0.0,0.0,0.0,0.0,1311004,1311004,6620172,197644,0,0,831,2,1,2,0,5,0,0,0,0,0,0,0
876464000,876384000,5.8789174e-05,0.0006457808,0.003305966,8389351,0,0.39536375,0.43020955,0.018506585,0.044441853,0.0068743266,0.0028870294,0.0,0.0,0.0,0.0,1311004,1311004,6620172,197644,0,0,831,2,1,2,0,5,0,0,0,0,0,0,0
876656000,876576000,0.00016577494,0.0035137597,0.009193544,8389351,0,0.3884102,0.42906934,0.010406857,0.024188878,0.0073386836,0.0024640434,0.0,0.0,0.0,0.0,1311004,1311004,6620172,197644,0,0,831,2,1,2,0,5,0,0,0,0,0,0,0
876856000,876776000,6.393057e-05,0.004986478,0.0118471375,8389351,0,0.38289386,0.425461,0.017305708,0.02338789,0.00847449,0.0029245317,0.0,0.0,0.0,0.0,1311004,1311004,6620172,197644,0,0,831,2,1,2,0,5,0,0,0,0,0,0,0
877056000,876976000,0.00014942596,0.0068983315,0.014786744,8389351,0,0.3780044,0.4251058,0.013349352,0.021577133,0.008151908,0.003664736,0.0,0.0,0.0,0.0,1311004,1311004,6620172,197644,0,0,831,2,1,2,0,5,0,0,0,0,0,0,0
877256000,877176000,0.00019196617,0.008086417,0.014344274,8389351,0,0.37368438,0.4248188,0.0075832806,0.02313315,0.0032084326,0.0033206374,0.0,0.0,0.0,0.0,1311004,1311004,6620172,197644,0,0,831,2,1,2,0,5,0,0,0,0,0,0,0
877456000,877376000,7.72314e-05,0.008224357,0.014637748,8389351,0,0.36973202,0.42149717,0.0043455167,0.008343505,0.0056798453,0.00020601775,0.0,0.0,0.0,0.0,1311004,1311004,6620172,197644,0,0,831,2,1,2,0,5,0,0,0,0,0,0,0
877656000,877576000,5.6594403e-05,0.0071323863,0.014311835,8389351,0,0.38699976,0.42734388,0.028704207,0.008343505,0.0056798453,0.0033961544,0.0,0.0,0.0,0.0,1311004,1311004,6620172,197644,0,0,831,2,1,2,0,5,0,0,0,0,0,0,0
877864000,877784000,7.517709e-05,0.007374897,0.015175246,8389351,0,0.38238782,0.42444965,0.023991937,0.027446952,0.0010805952,0.00018349293,0.0,0.0,0.0,0.0,1311004,1311004,6620172,197644,0,0,831,2,1,2,0,5,0,0,0,0,0,0,0
878056000,877976000,6.413498e-05,0.0061450875,0.013003413,8389351,0,0.4002591,0.42990464,0.013437858,0.027446952,0.0010805952,0.0032157784,0.0,0.0,0.0,0.0,1311004,1311004,6620172,197644,0,0,831,2,1,2,0,5,0,0,0,0,0,0,0
878264000,878184000,0.00016142966,0.008341367,0.01691632,8389351,0,0.3939005,0.42679116,0.038387332,0.017243711,0.000985436,0.006086662,0.0,0.0,0.0,0.0,1311004,1311004,6620172,197644,0,0,831,2,1,2,0,5,0,0,0,0,0,0,0
878456000,878376000,0.0001620446,0.009918714,0.020026857,8389351,0,0.38696575,0.42572528,0.0058260486,0.02303654,0.0015878842,0.00068720244,0.0,0.0,0.0,0.0,1311004,1311004,6620172,197644,0,0,831,2,1,2,0,5,0,0,0,0,0,0,0
878664000,878584000,0.0001319192,0.01080233,0.021157918,8389351,0,0.38221613,0.42597038,0.014564657,0.025133478,0.0035593861,0.0050243135,0.0,0.0,0.0,0.0,1311004,1311004,6620172,197644,0,0,831,2,1,2,0,5,0,0,0,0,0,0,0
878856000,878776000,0.000188738,0.014470464,0.025713513,8389351,0,0.37668055,0.42197737,0.025209475,0.03534113,0.004769776,0.0077054696,0.0,0.0,0.0,0.0,1311004,1311004,6620172,197644,0,0,831,2,1,2,0,5,0,0,0,0,0,0,0
879064000,878984000,5.388566e-05,0.00888662,0.015506187,8389351,0,0.395198,0.42859483,0.007297809,0.03534113,0.004769776,0.002165393,0.0,0.0,0.0,0.0,1311004,1311004,6620172,197644,0,0,831,2,1,2,0,5,0,0,0,0,0,0,0
879264000,879184000,0.00033862813,0.015674619,0.028279973,8389351,0,0.38896388,0.42498556,0.06910767,0.0654892,0.006300893,0.003723291,0.0,0.0,0.0,0.0,1311004,1311004,6620172,197644,0,0,831,2,1,2,0,5,0,0,0,0,0,0,0
879456000,879376000,0.0003553347,0.017930284,0.033540916,8389351,0,0.38277066,0.4240314,0.015417447,0.056505486,0.0043483735,0.00323707,0.0,0.0,0.0,0.0,1311004,1311004,6620172,197644,0,0,831,2,1,2,0,5,0,0,0,0,0,0,0
879656000,879576000,0.0001628669,0.01143206,0.025105923,8389351,0,0.3778945,0.42377895,0.055513386,0.025787484,0.004746504,0.00030988737,0.0,0.0,0.0,0.0,1311004,1311004,6620172,197644,0,0,831,2,1,2,0,5,0,0,0,0,0,0,0
879864000,879784000,0.00017287134,0.009293828,0.020361774,9437927,0,0.37425092,0.421164,0.012845916,0.021731796,0.007094186,1.1754944e-38,0.0,0.0,0.0,0.0,1311004,1311004,6620172,197644,0,0,831,2,1,2,0,5,0,0,0,0,0,0,0
880064000,879984000,0.00022313824,0.010235277,0.019381262,9437847,0,0.3703449,0.42109156,0.018260576,0.026812343,0.006279716,1.1754944e-38,0.0,0.0,0.0,0.0,1311004,1311004,6620172,197644,0,0,831,2,1,2,0,5,0,0,0,0,0,0,0
880256000,880176000,1.8874392e-05,0.0050021796,0.008844911,9437847,0,0.38664946,0.42645177,0.0022758315,0.026812343,0.006279716,1.1754944e-38,0.0,0.0,0.0,0.0,1311004,1311004,6620172,197644,0,0,831,2,1,2,0,5,0,0,0,0,0,0,0
880456000,880376000,0.00028938404,0.010249072,0.019740675,9437927,0,0.38136107,0.42308095,0.018982392,0.046040095,0.009133988,1.1754944e-38,0.0,0.0,0.0,0.0,1311004,1311004,6620172,197644,0,0,831,2,1,2,0,5,0,0,0,0,0,0,0
880664000,880584000,2.7801409e-05,0.002974095,0.00759839,9437927,0,0.40031374,0.42986825,0.006999606,0.046040095,0.009133988,1.1754944e-38,0.0,0.0,0.0,0.0,1311004,1311004,6620172,197644,0,0,831,2,1,2,0,5,0,0,0,0,0,0,0
880856000,880776000,0.00062695384,0.013083472,0.02542735,9437927,0,0.3925037,0.4287478,0.017778022,0.06174238,0.010814128,1.1754944e-38,0.0,0.0,0.0,0.0,1311004,1311004,6620172,197644,0,0,831,2,1,2,0,5,0,0,0,0,0,0,0
881056000,880976000,0.0005613539,0.013954292,0.026864607,9437927,0,0.38636786,0.4251775,0.014870963,0.049146384,0.0099622905,1.1754944e-38,0.0,0.0,0.0,0.0,1311004,1311004,6620172,197644,0,0,831,2,1,2,0,5,0,0,0,0,0,0,0
881264000,881184000,0.00037518784,0.012408731,0.02401801,9437927,0,0.38166168,0.42546824,0.013347378,0.045591366,0.008946168,1.1754944e-38,0.0,0.0,0.0,0.0,1311004,1311004,6620172,197644,0,0,831,2,1,2,0,5,0,0,0,0,0,0,0
881456000,881376000,0.00023021667,0.009124522,0.019520469,9437927,0,0.37616047,0.42458874,0.0058439183,0.025198825,0.009288425,1.1754944e-38,0.0,0.0,0.0,0.0,1311004,1311004,6620172,197644,0,0,831,2,1,2,0,5,0,0,0,0,0,0,0
881656000,881576000,6.3150146e-05,0.0027017195,0.0073030237,9437927,0,0.39382413,0.4275081,0.013920806,0.025198825,0.009288425,1.1754944e-38,0.0,0.0,0.0,0.0,1311004,1311004,6620172,197644,0,0,831,2,1,2,0,5,0,0,0,0,0,0,0
881864000,881784000,0.00031760635,0.004992585,0.010288841,9437927,0,0.38846678,0.42775345,0.022118576,0.038919427,0.010090877,1.1754944e-38,0.0,0.0,0.0,0.0,1311004,1311004,6620172,197644,0,0,831,2,1,2,0,5,0,0,0,0,0,0,0
882064000,881984000,0.0002359764,0.006728653,0.014320989,9437927,0,0.38301945,0.4242789,0.019664608,0.039761286,0.010076856,1.1754944e-38,0.0,0.0,0.0,0.0,1311004,1311004,6620172,197644,0,0,831,2,1,2,0,5,0,0,0,0,0,0,0
882256000,882176000,6.565886e-05,0.005767315,0.014633203,9437927,0,0.37748843,0.42341316,0.002375535,0.026420211,0.0071722334,1.1754944e-38,0.0,0.0,0.0,0.0,1311004,1311004,6620172,197644,0,0,831,2,1,2,0,5,0,0,0,0,0,0,0
882456000,882376000,8.030075e-05,0.0026679372,0.0075480654,9437927,0,0.37315458,0.4232184,0.037718385,0.017741358,0.006565112,1.1754944e-38,0.0,0.0,0.0,0.0,1311004,1311004,6620172,197644,0,0,831,2,1,2,0,5,0,0,0,0,0,0,0
882664000,882584000,0.00013818596,0.0032443136,0.0048589036,9437927,0,0.3699521,0.4206221,0.013652577,0.010288065,0.0057046735,1.1754944e-38,0.0,0.0,0.0,0.0,1311004,1311004,6620172,197644,0,0,831,2,1,2,0,5,0,0,0,0,0,0,0
882856000,882776000,6.524889e-05,0.004682781,0.009384737,9437927,0,0.38638365,0.4259493,0.010775631,0.010288065,0.0057046735,1.1754944e-38,0.0,0.0,0.0,0.0,1311004,1311004,6620172,197644,0,0,831,2,1,2,0,5,0,0,0,0,0,0,0
883064000,882984000,5.72003e-05,0.0038382984,0.007903762,9437927,0,0.38182908,0.4231456,0.024310153,0.018423324,0.007000447,1.1754944e-38,0.0,0.0,0.0,0.0,1311004,1311004,6620172,197644,0,0,831,2,1,2,0,5,0,0,0,0,0,0,0
883264000,883184000,3.926972e-05,0.004329415,0.009528993,9437927,0,0.40027794,0.42934668,0.012974764,0.018423324,0.007000447,1.1754944e-38,0.0,0.0,0.0,0.0,1311004,1311004,6620172,197644,0,0,831,2,1,2,0,5,0,0,0,0,0,0,0
