timestamp,timestamp_sample,accel_device_id,gyro_device_id,delta_angle[0],delta_angle[1],delta_angle[2],delta_velocity[0],delta_velocity[1],delta_velocity[2],delta_angle_dt,delta_velocity_dt,delta_velocity_clipping,accel_calibration_count,gyro_calibration_count
829456000,829456000,1311004,1311004,-1.9393035e-05,-2.5054913e-05,-3.8641506e-06,0.00063337595,-0.00022092636,-0.039156493,4000,4000,0,2,0
829960000,829960000,1311004,1311004,-3.8676662e-05,-1.703851e-05,-1.466117e-05,0.000725285,-0.00019088003,-0.039398696,4000,4000,0,2,0
830460000,830460000,1311004,1311004,1.5029066e-05,1.0022303e-05,-3.3602996e-06,0.00063864066,-0.00048602052,-0.039692696,4000,4000,0,2,0
830960000,830960000,1311004,1311004,7.0501906e-06,-1.5062251e-05,-5.2443015e-06,0.00046300518,-0.00058855733,-0.04019092,4000,4000,0,2,0
831460000,831460000,1311004,1311004,2.1779528e-05,-4.664096e-05,-1.0384823e-05,0.00062756415,-0.00066290435,-0.039731916,4000,4000,0,2,0
831960000,831960000,1311004,1311004,-2.006368e-05,-2.462328e-05,-4.9365906e-07,0.00051013107,-0.00041510997,-0.039191652,4000,4000,0,2,0
832456000,832456000,1311004,1311004,2.4132669e-05,-3.3344731e-06,1.6514709e-07,0.0010145836,-0.0005476424,-0.03988245,4000,4000,0,2,0
832960000,832960000,1311004,1311004,-2.4577082e-06,-2.0629534e-05,-2.2327683e-06,0.0006564369,-0.00045160062,-0.039837975,4000,4000,0,2,0
833456000,833456000,1311004,1311004,-7.094996e-06,2.0030213e-05,-1.4879464e-05,0.0005581965,-0.000617811,-0.03966867,4000,4000,0,2,0
833960000,833960000,1311004,1311004,-1.7119371e-05,-8.743747e-07,-7.5434846e-06,0.00055387354,-0.0007845797,-0.039676644,4000,4000,0,2,0
834460000,834460000,1311004,1311004,-3.637266e-08,1.7841352e-06,7.4859154e-06,0.0009764129,-0.00031937414,-0.03924733,4000,4000,0,2,0
834960000,834960000,1311004,1311004,2.1831778e-05,2.1019623e-06,2.8481489e-05,0.0008115729,-0.00064657617,-0.041593835,4000,4000,0,2,0
835456000,835456000,1311004,1311004,1.4304938e-05,-2.8842274e-05,1.8561168e-05,0.0010754734,-0.0004059917,-0.03965509,4000,4000,0,2,0
835956000,835956000,1311004,1311004,6.057098e-05,-6.9787206e-06,-1.606068e-05,0.00081736874,-0.00060377567,-0.03847707,4000,4000,0,2,0
836456000,836456000,1311004,1311004,-4.933891e-06,-9.751389e-06,-2.618545e-05,0.00034126514,-0.0010329979,-0.038731776,4000,4000,0,2,0
836956000,836956000,1311004,1311004,1.4120118e-05,-2.0212728e-05,-1.8167208e-05,0.0009479255,-0.0004884832,-0.03987238,4000,4000,0,2,0
837460000,837460000,1311004,1311004,8.0578e-05,-3.051791e-05,-7.7219354e-08,0.00086528505,-0.00086563855,-0.048541073,4000,4000,0,2,0
837956000,837956000,1311004,1311004,-0.00056854496,-7.093363e-05,4.622002e-05,0.0009824693,-0.00023923768,-0.03782596,4000,4000,0,2,0
838456000,838456000,1311004,1311004,-3.1234147e-05,5.6243894e-06,-1.0485983e-05,0.001279473,-0.00052637863,-0.03541533,4000,4000,0,2,0
838956000,838956000,1311004,1311004,-5.4564803e-06,-3.130884e-05,8.120267e-06,0.0010897601,-0.000561335,-0.03725076,4000,4000,0,2,0
839460000,839460000,1311004,1311004,-6.4448264e-05,3.3511915e-06,3.0267504e-06,0.0013657538,-0.00057769637,-0.03822103,4000,4000,0,2,0
839960000,839960000,1311004,1311004,-2.5230142e-05,3.210175e-05,2.857574e-05,0.0011970919,-4.563654e-05,-0.039060332,4000,4000,0,2,0
840460000,840460000,1311004,1311004,-3.900563e-05,0.000116575655,-8.186144e-06,0.0015325755,-0.0008906194,-0.038231887,4000,4000,0,2,0
840956000,840956000,1311004,1311004,0.0014161192,0.0004942619,6.421002e-05,0.0016085072,0.0008899843,-0.04149191,4000,4000,0,2,0
841460000,841460000,1311004,1311004,-0.00023433099,0.0011815777,0.00012956042,0.0027571346,-0.0023587283,-0.047358785,4000,4000,0,2,0
841960000,841960000,1311004,1311004,0.00026946672,0.00068074773,-9.008493e-05,0.005694771,-0.002604075,-0.041592024,4000,4000,0,2,0
842456000,842456000,1311004,1311004,3.74049e-05,0.00022025687,-5.822393e-05,0.0081806835,-0.0038989277,-0.03938667,4000,4000,0,2,0
842956000,842956000,1311004,1311004,-0.00011930783,-2.3892411e-05,-4.1028554e-05,0.010081551,-0.00465808,-0.038641617,4000,4000,0,2,0
843460000,843460000,1311004,1311004,-0.00019239896,-7.577663e-05,7.3963765e-06,0.011415872,-0.0049332497,-0.038599815,4000,4000,0,2,0
843960000,843960000,1311004,1311004,7.143438e-05,-0.00012216695,-5.4547145e-05,0.011709089,-0.0040996154,-0.037541296,4000,4000,0,2,0
844456000,844456000,1311004,1311004,0.00017226052,5.8717575e-05,-2.6719958e-05,0.011918655,-0.0038815027,-0.03784328,4000,4000,0,2,0
844956000,844956000,1311004,1311004,-4.6570898e-05,3.3441964e-05,-0.00012087422,0.012205782,-0.004043926,-0.0379997,4000,4000,0,2,0
845460000,845460000,1311004,1311004,1.786457e-05,-6.6720626e-05,-3.7767408e-05,0.01170394,-0.003720981,-0.03865909,4000,4000,0,2,0
845956000,845956000,1311004,1311004,-0.00075392163,3.1066807e-06,-3.9968716e-05,0.012299485,-0.004518899,-0.04311845,4000,4000,0,2,0
846460000,846460000,1311004,1311004,7.189191e-05,9.609282e-05,-4.4694276e-05,0.011635536,-0.0035563775,-0.03863224,4000,4000,0,2,0
846960000,846960000,1311004,1311004,-2.2080643e-05,7.0783804e-05,-3.5168636e-05,0.011863372,-0.0037518393,-0.037882302,4000,4000,0,2,0
847460000,847460000,1311004,1311004,-4.700861e-06,-6.47611e-05,-0.00011314924,0.011848452,-0.0035854587,-0.038217228,4000,4000,0,2,0
847960000,847960000,1311004,1311004,-0.00022306913,1.3716348e-05,-9.585535e-06,0.011932618,-0.0030521431,-0.038338587,4000,4000,0,2,0
848460000,848460000,1311004,1311004,0.00011329732,-4.3543074e-05,-9.649156e-05,0.0117700985,-0.003518199,-0.037940428,4000,4000,0,2,0
848960000,848960000,1311004,1311004,-5.2626725e-05,8.9302346e-05,-6.174941e-05,0.01224683,-0.003546321,-0.037953325,4000,4000,0,2,0
849460000,849460000,1311004,1311004,-4.8389527e-05,-0.000121459045,-7.601713e-05,0.011275305,-0.0033562283,-0.038277782,4000,4000,0,2,0
849960000,849960000,1311004,1311004,6.9268775e-05,-3.5871929e-06,-1.0675891e-05,0.011491854,-0.0032915073,-0.038857497,4000,4000,0,2,0
850460000,850460000,1311004,1311004,-0.0012293118,-0.0015152819,-0.00026815027,0.011009002,-0.003683536,-0.038887765,4000,4000,0,2,0
850956000,850956000,1311004,1311004,-0.0008508002,-0.0022933893,0.00011646055,0.009903659,-0.0024122284,-0.035002977,4000,4000,0,2,0
851460000,851460000,1311004,1311004,-0.0005646868,-0.0015627863,1.3488917e-05,0.0033454748,-0.00053210394,-0.038997453,4000,4000,0,2,0
851960000,851960000,1311004,1311004,0.00034744156,0.000105590356,-3.5130033e-05,-0.0025800348,0.0019894214,-0.04155738,4000,4000,0,2,0
852460000,852460000,1311004,1311004,0.00060449843,0.000588092,7.9311714e-05,-0.0050078244,0.0020662365,-0.039071392,4000,4000,0,2,0
852956000,852956000,1311004,1311004,0.0007891408,0.00135767,0.00012520935,-0.005203599,0.00086833286,-0.03870936,4000,4000,0,2,0
853460000,853460000,1311004,1311004,-9.3683615e-05,5.652422e-05,4.4052627e-05,-0.0037682217,0.00015992206,-0.0398112,4000,4000,0,2,0
853960000,853960000,1311004,1311004,2.0997144e-05,0.0004871985,9.36607e-06,-0.00264237,-0.0006529042,-0.039070822,4000,4000,0,2,0
854460000,854460000,1311004,1311004,-0.00013676239,0.00010537224,7.987337e-06,-0.0015475224,-0.0016670087,-0.04065566,4000,4000,0,2,0
854960000,854960000,1311004,1311004,0.00072416983,0.00011303658,-6.414935e-05,-0.00037361623,-0.001460646,-0.0391231,4000,4000,0,2,0
855456000,855456000,1311004,1311004,-1.9077324e-06,3.646881e-05,-2.2011924e-05,0.00088049524,-0.0012561539,-0.039639823,4000,4000,0,2,0
855960000,855960000,1311004,1311004,0.0023118586,0.005628635,-0.00061317335,0.00090305984,-0.00015195359,-0.06622236,4000,4000,0,2,0
856456000,856456000,1311004,1311004,-0.0006781755,-0.0010927607,-0.00028128215,0.014389034,-0.004458299,-0.041984268,4000,4000,0,2,0
856956000,856956000,1311004,1311004,-0.000289882,-0.0007435715,0.000116768744,0.019113792,-0.0058643157,-0.032386534,4000,4000,0,2,0
857460000,857460000,1311004,1311004,-0.00030909173,-0.0016586139,0.00017100049,0.018792322,-0.0050755497,-0.021662975,4000,4000,0,2,0
857960000,857960000,1311004,1311004,-0.00022854886,-0.00023194127,0.00024199668,0.017329846,-0.0037160008,-0.030869316,4000,4000,0,2,0
858456000,858456000,1311004,1311004,7.4946845e-05,-0.00024288349,-5.279092e-06,0.012383373,-0.0017218378,-0.03633379,4000,4000,0,2,0
858960000,858960000,1311004,1311004,-0.0018667663,-0.013444963,-0.00014671829,0.009551505,-0.00024225297,-0.031776603,4000,4000,0,2,0
859460000,859460000,1311004,1311004,0.00027908455,0.0011941851,5.328179e-05,0.00018925722,0.0005543738,-0.041321177,4000,4000,0,2,0
859960000,859960000,1311004,1311004,9.123852e-05,0.00069551304,7.405432e-06,-0.0020234424,0.0006134807,-0.04054315,4000,4000,0,2,0
860456000,860456000,1311004,1311004,0.00031218343,0.00025443753,-6.5005726e-05,-0.0014667242,-1.1374129e-05,-0.04030486,4000,4000,0,2,0
860956000,860956000,1311004,1311004,-0.00024529692,0.00012947977,-4.042784e-06,-0.0006710147,-0.0016874583,-0.03464246,4000,4000,0,2,0
861460000,861460000,1311004,1311004,-2.0725385e-05,3.5619916e-05,-2.532216e-05,0.0004054941,-0.0014135711,-0.03966054,4000,4000,0,2,0
861956000,861956000,1311004,1311004,-1.5949867e-05,-7.470774e-05,-7.73726e-06,0.0004630847,-0.0013211366,-0.039558817,4000,4000,0,2,0
862460000,862460000,1311004,1311004,-7.520038e-05,-9.379992e-05,-3.6674287e-06,0.0006829388,-0.0013178781,-0.039464712,4000,4000,0,2,0
862956000,862956000,1311004,1311004,-5.437687e-05,-2.9317644e-05,1.5358646e-06,0.0008192353,-0.0007548019,-0.039410803,4000,4000,0,2,0
863456000,863456000,1311004,1311004,-1.18127355e-05,-2.0923817e-05,3.6157096e-05,0.0006598646,-0.000805418,-0.0400683,4000,4000,0,2,0
863956000,863956000,1311004,1311004,-9.357238e-05,-5.7250214e-05,6.95325e-07,0.0009386958,-0.0002223596,-0.03989484,4000,4000,0,2,0
864456000,864456000,1311004,1311004,3.7942576e-05,1.8789535e-05,1.6656786e-05,0.00081825914,-0.0007596632,-0.039233185,4000,4000,0,2,0
864956000,864956000,1311004,1311004,2.8522472e-05,4.3683525e-05,2.3419312e-05,0.0009612034,-0.000481806,-0.03915736,4000,4000,0,2,0
865456000,865456000,1311004,1311004,2.991086e-05,-4.3585642e-05,4.070064e-05,0.0011397642,-0.00010378942,-0.03951032,4000,4000,0,2,0
865956000,865956000,1311004,1311004,-0.00018973477,1.9305287e-05,1.631307e-05,0.0009047325,-0.0005840566,-0.038792253,4000,4000,0,2,0
866460000,866460000,1311004,1311004,0.00013808405,-1.0025773e-05,1.6305285e-05,0.0007321967,-0.00034902518,-0.039633922,4000,4000,0,2,0
866960000,866960000,1311004,1311004,5.615681e-05,-3.6430072e-05,7.650031e-06,0.0012079289,-0.0007361958,-0.04014965,4000,4000,0,2,0
867460000,867460000,1311004,1311004,0.0010482152,1.4837229e-05,-7.129003e-05,0.0004563225,0.0011770825,-0.038405158,4000,4000,0,2,0
867960000,867960000,1311004,1311004,4.3289434e-05,8.164568e-06,3.0326715e-05,0.00052490237,-0.0004303858,-0.039671957,4000,4000,0,2,0
868460000,868460000,1311004,1311004,-5.8104757e-05,2.352216e-05,-1.31928e-05,0.00059360865,-0.00065262173,-0.039573167,4000,4000,0,2,0
868956000,868956000,1311004,1311004,-6.582192e-05,1.9672178e-05,1.0541463e-05,0.00077944587,-6.2540406e-05,-0.039657686,4000,4000,0,2,0
869460000,869460000,1311004,1311004,-1.8884715e-05,-3.671107e-05,1.8180208e-05,0.0007324443,0.00013335007,-0.04000379,4000,4000,0,2,0
869960000,869960000,1311004,1311004,-3.411806e-05,-7.560297e-05,1.1800154e-06,0.00048091894,-0.00072159217,-0.040044256,4000,4000,0,2,0
870456000,870456000,1311004,1311004,0.00073884387,-2.7601478e-05,-5.1618736e-05,0.00013974715,-0.0005558705,-0.038976584,4000,4000,0,2,0
870960000,870960000,1311004,1311004,2.9165021e-05,-2.1527456e-05,-1.0941116e-06,0.00018910105,-0.0001127302,-0.039745215,4000,4000,0,2,0
871460000,871460000,1311004,1311004,-3.14985e-05,-2.558161e-05,-1.1353844e-06,0.0007659937,-0.00026902996,-0.039803535,4000,4000,0,2,0
871960000,871960000,1311004,1311004,6.1238155e-05,9.6229505e-06,-2.2298063e-05,0.0008448054,4.1130046e-05,-0.03968653,4000,4000,0,2,0
872460000,872460000,1311004,1311004,-6.2088584e-05,-4.054209e-07,1.2698537e-05,0.00078900484,-0.00037792049,-0.039801933,4000,4000,0,2,0
872960000,872960000,1311004,1311004,-0.00014903428,-2.22821e-05,1.4998525e-05,0.0010268944,-0.00047276437,-0.03983393,4000,4000,0,2,0
873460000,873460000,1311004,1311004,4.6894223e-05,-3.139342e-05,1.0396134e-05,0.0011071496,-8.065395e-05,-0.040579926,4000,4000,0,2,0
873960000,873960000,1311004,1311004,-0.0013975232,-0.00026500045,9.258357e-05,0.00062610186,-0.0009162448,-0.04439116,4000,4000,0,2,0
874460000,874460000,1311004,1311004,0.00017830919,0.00010796558,8.081774e-06,0.00095948426,1.3615308e-06,-0.039940093,4000,4000,0,2,0
874960000,874960000,1311004,1311004,0.0006745389,-5.5751738e-05,-1.2043657e-05,0.0010264133,-7.720572e-05,-0.03990392,4000,4000,0,2,0
875460000,875460000,1311004,1311004,0.001256112,-0.00035605326,-3.1866195e-05,0.00040558272,-0.0024235484,-0.04007447,4000,4000,0,2,0
875960000,875960000,1311004,1311004,0.00059160194,-0.00021968203,-3.116379e-06,0.00018595107,-0.00574825,-0.039639764,4000,4000,0,2,0
876456000,876456000,1311004,1311004,7.541217e-05,-5.7274865e-06,6.754359e-05,-0.0008467878,-0.008947594,-0.038855333,4000,4000,0,2,0
876960000,876960000,1311004,1311004,-4.6587855e-05,6.210623e-05,-2.2875905e-05,-0.0015131469,-0.010673282,-0.038310487,4000,4000,0,2,0
877460000,877460000,1311004,1311004,-1.9959925e-06,-4.079941e-05,-7.2324336e-05,-0.0013980711,-0.01170293,-0.03722038,4000,4000,0,2,0
877956000,877956000,1311004,1311004,-0.000107398795,1.5161557e-05,-3.179978e-05,-0.001233731,-0.012571177,-0.037566587,4000,4000,0,2,0
878460000,878460000,1311004,1311004,-3.455419e-05,5.090163e-06,-0.00011638905,-0.0010668263,-0.012356884,-0.037531488,4000,4000,0,2,0
878960000,878960000,1311004,1311004,-0.0013854055,0.00028277497,-0.000110899244,-0.00063364545,-0.01091931,-0.038519196,4000,4000,0,2,0
879456000,879456000,1311004,1311004,0.00010042372,5.349296e-05,-2.8912727e-05,-3.5841942e-05,-0.006953705,-0.038930718,4000,4000,0,2,0
879956000,879956000,1311004,1311004,-0.0025238267,0.00061228906,2.4137915e-05,0.00027309282,-0.0042605596,-0.03521294,4000,4000,0,2,0
880460000,880460000,1311004,1311004,0.00044467562,-0.00019001239,0.00014092047,0.0008455717,-0.00015626727,-0.03760415,4000,4000,0,2,0
880956000,880956000,1311004,1311004,0.00038186373,-6.767941e-05,0.000107972264,0.0017688256,0.0016953794,-0.039478596,4000,4000,0,2,0
881456000,881456000,1311004,1311004,-0.00014406852,-7.132838e-05,-2.9075381e-06,0.0013107581,0.0022637667,-0.03969229,4000,4000,0,2,0
881960000,881960000,1311004,1311004,0.00024810992,-8.5107786e-05,-2.9962479e-05,0.00067510526,0.0022699009,-0.03916568,4000,4000,0,2,0
882456000,882456000,1311004,1311004,0.0002105058,-4.0411178e-05,1.51126715e-05,0.00020127893,0.0017438398,-0.0390875,4000,4000,0,2,0
882956000,882956000,1311004,1311004,0.00012969578,6.8495724e-06,-7.1642203e-06,0.00056760974,0.0009889171,-0.039599113,4000,4000,0,2,0
883460000,883460000,1311004,1311004,2.4216935e-05,5.668515e-05,-2.0900195e-06,0.0001344055,0.0005085476,-0.039890528,4000,4000,0,2,0
883960000,883960000,1311004,1311004,-9.022877e-05,4.8177503e-06,2.0557978e-05,0.00021634187,-0.00010239121,-0.03986523,4000,4000,0,2,0
884460000,884460000,1311004,1311004,4.3035212e-05,-5.5563596e-06,1.7614277e-05,0.0005164396,-0.0005644408,-0.04050546,4000,4000,0,2,0
884960000,884960000,1311004,1311004,-0.00021477386,2.9482992e-05,6.5060857e-07,0.0008261957,-0.001253658,-0.034527183,4000,4000,0,2,0
885460000,885460000,1311004,1311004,1.9698777e-05,-3.4759738e-05,1.939258e-05,0.00078914507,-0.00041856524,-0.039793298,4000,4000,0,2,0
885960000,885960000,1311004,1311004,4.208346e-06,-3.393645e-05,1.450183e-05,0.00049298926,-0.00031422116,-0.039915137,4000,4000,0,2,0
886456000,886456000,1311004,1311004,-1.2534985e-05,3.7301415e-06,2.9772532e-06,0.0004100353,-0.0003148478,-0.039966337,4000,4000,0,2,0
886960000,886960000,1311004,1311004,8.789531e-06,3.543985e-05,-9.503905e-06,0.0004618412,-0.00013240936,-0.039705757,4000,4000,0,2,0
887456000,887456000,1311004,1311004,-6.496984e-05,2.3196722e-05,-9.208812e-06,0.0005516176,-0.00029183686,-0.040199492,4000,4000,0,2,0
887956000,887956000,1311004,1311004,-5.7766934e-05,8.227747e-06,2.2670784e-07,0.0005898108,0.0002719617,-0.04055316,4000,4000,0,2,0
888456000,888456000,1311004,1311004,8.982127e-05,-3.822865e-05,-5.843199e-06,0.000628993,-4.8806694e-05,-0.039446108,4000,4000,0,2,0
888956000,888956000,1311004,1311004,9.446233e-05,-6.2149275e-06,3.7962047e-06,0.00084202684,-0.00015092081,-0.039605036,4000,4000,0,2,0
889460000,889460000,1311004,1311004,-9.24131e-06,-7.482203e-05,-7.672726e-06,0.0006294109,-6.165922e-05,-0.03924004,4000,4000,0,2,0
889960000,889960000,1311004,1311004,-7.9906815e-05,-1.887527e-05,-9.5146567e-07,0.00094561785,-0.00044667764,-0.03959682,4000,4000,0,2,0
890460000,890460000,1311004,1311004,-5.933578e-05,-2.7731237e-05,4.3099444e-06,0.0007836179,-0.0003681619,-0.039986413,4000,4000,0,2,0
890960000,890960000,1311004,1311004,1.5933432e-05,-3.207333e-05,-3.3156477e-05,0.0010068564,0.00013555627,-0.0400617,4000,4000,0,2,0
891460000,891460000,1311004,1311004,-0.0005442616,-2.2747923e-05,4.9064573e-05,0.00082795596,-5.6431458e-05,-0.038577843,4000,4000,0,2,0
891960000,891960000,1311004,1311004,6.534379e-06,-9.32093e-06,3.1632975e-05,0.0007424412,-0.00080050924,-0.039819214,4000,4000,0,2,0
892460000,892460000,1311004,1311004,-2.077425e-06,1.4525177e-05,8.008629e-06,0.00076123397,-5.1315064e-06,-0.039658375,4000,4000,0,2,0
892960000,892960000,1311004,1311004,-2.8457134e-05,-4.8799928e-05,5.6230947e-06,0.0002673411,-0.0001952065,-0.039609764,4000,4000,0,2,0
893460000,893460000,1311004,1311004,-2.6026717e-05,1.3994097e-05,-1.0471119e-06,0.00061242736,-0.000647708,-0.039892305,4000,4000,0,2,0
893960000,893960000,1311004,1311004,-6.856927e-05,9.04073e-06,2.1963031e-05,0.00032941488,-0.00083674985,-0.04009446,4000,4000,0,2,0
894456000,894456000,1311004,1311004,0.0010745109,3.0238465e-05,-7.5128875e-05,0.00020839824,0.0010672526,-0.03866981,4000,4000,0,2,0
894960000,894960000,1311004,1311004,4.2486892e-05,-3.239448e-05,1.3918521e-05,0.00064240536,-0.0002306628,-0.03947963,4000,4000,0,2,0
895456000,895456000,1311004,1311004,-8.970359e-06,7.0828687e-06,-1.2106062e-05,0.00035577518,-0.00024266665,-0.039285604,4000,4000,0,2,0
895956000,895956000,1311004,1311004,-2.5716829e-05,-3.6221154e-06,1.0125943e-06,0.0005577171,-7.051095e-05,-0.0395521,4000,4000,0,2,0
896460000,896460000,1311004,1311004,0.00017388513,-8.210849e-05,3.0101308e-05,5.012894e-05,0.002480553,-0.027285926,4000,4000,0,2,0
896960000,896960000,1311004,1311004,2.2553895e-05,-3.8106125e-05,1.5460497e-06,2.7778806e-05,-0.000654126,-0.035106573,4000,4000,0,2,0
897460000,897460000,1311004,1311004,3.188284e-05,-1.7117596e-05,-2.0792757e-05,0.0005713638,-7.6890145e-05,-0.042766638,4000,4000,0,2,0
897956000,897956000,1311004,1311004,0.00012723707,-5.470363e-06,-1.3020879e-05,0.00049696997,-0.00023427248,-0.036460064,4000,4000,0,2,0
898456000,898456000,1311004,1311004,-1.6971522e-05,-1.3710776e-05,3.4196695e-05,-2.4324121e-05,0.00038875762,-0.040838473,4000,4000,0,2,0
898956000,898956000,1311004,1311004,1.0002845e-05,-1.764001e-05,1.6003218e-05,0.0007245467,-0.0003554781,-0.038242638,4000,4000,0,2,0
899456000,899456000,1311004,1311004,-0.0001665648,-3.183902e-05,2.3461185e-05,0.00016428996,-2.1360876e-05,-0.03742672,4000,4000,0,3,0
899960000,899960000,1311004,1311004,6.0729376e-06,-2.2343715e-05,-7.5451703e-07,0.00043415144,-0.00034859453,-0.039235834,4000,4000,0,3,0
