timestamp,timestamp_sample,output_tracking_error[0],output_tracking_error[1],output_tracking_error[2],control_mode_flags,filter_fault_flags,pos_horiz_accuracy,pos_vert_accuracy,mag_test_ratio,vel_test_ratio,pos_test_ratio,hgt_test_ratio,tas_test_ratio,hagl_test_ratio,beta_test_ratio,time_slip,accel_device_id,gyro_device_id,baro_device_id,mag_device_id,gps_check_fail_flags,innovation_check_flags,solution_status_flags,reset_count_vel_ne,reset_count_vel_d,reset_count_pos_ne,reset_count_pod_d,reset_count_quat,pre_flt_fail_innov_heading,pre_flt_fail_innov_vel_horiz,pre_flt_fail_innov_vel_vert,pre_flt_fail_innov_height,pre_flt_fail_mag_field_disturbed,health_flags,timeout_flags
829260000,829180000,0.00022107431,0.0029333462,0.0004988129,67109399,0,0.05608543,0.06013289,0.004025692,0.010429758,0.001619701,0.002993768,0.0,0.0,0.0,0.0,1310996,1310996,6620172,197644,0,0,895,2,1,2,0,4,0,0,0,0,0,0,0
829268000,829188000,0.00021877643,0.0027588557,0.0004970666,67109399,0,0.0560856,0.06013298,0.004025692,0.010429758,0.001619701,0.002993768,0.0,0.0,0.0,0.0,1310996,1310996,6620172,197644,0,0,895,2,1,2,0,4,0,0,0,0,0,0,0
829460000,829380000,0.0001186141,0.0043651126,0.0003217443,67109399,0,0.056055095,0.060112685,0.00042899285,0.0020285537,0.001552986,0.005856767,0.0,0.0,0.0,0.0,1310996,1310996,6620172,197644,0,0,895,2,1,2,0,4,0,0,0,0,0,0,0
829660000,829580000,0.00018407057,0.005023646,0.0010270035,67109399,0,0.0560689,0.060083676,0.019965865,0.0020285537,0.001552986,0.0007610833,0.0,0.0,0.0,0.0,1310996,1310996,6620172,197644,0,0,895,2,1,2,0,4,0,0,0,0,0,0,0
829860000,829780000,2.6800688e-05,0.0045107277,0.0014247665,67109399,0,0.056038685,0.060063582,0.0053756833,0.023760233,0.0016452611,0.0011621126,0.0,0.0,0.0,0.0,1310996,1310996,6620172,197644,0,0,895,2,1,2,0,4,0,0,0,0,0,0,0
830060000,829980000,0.000118410266,0.003818835,0.0014832952,67109399,0,0.056008548,0.060034685,0.007243444,0.0073946877,0.0015116979,0.0023887388,0.0,0.0,0.0,0.0,1310996,1310996,6620172,197644,0,0,895,2,1,2,0,4,0,0,0,0,0,0,0
830260000,830180000,3.0343728e-05,0.0028797085,0.0014607802,67109399,0,0.056011904,0.060031738,0.0044481307,0.013109461,0.0014836594,0.0034340303,0.0,0.0,0.0,0.0,1310996,1310996,6620172,197644,0,0,895,2,1,2,0,4,0,0,0,0,0,0,0
830460000,830380000,4.1759682e-05,0.0031294124,0.0015837365,67109399,0,0.055976342,0.060008954,0.0036751202,0.014907918,0.0015274237,0.0010906252,0.0,0.0,0.0,0.0,1310996,1310996,6620172,197644,0,0,895,2,1,2,0,4,0,0,0,0,0,0,0
830660000,830580000,0.000104085666,0.0013972481,0.00072361744,67109399,0,0.05594132,0.059977632,0.005648762,0.0018710806,0.0015720399,0.0009615984,0.0,0.0,0.0,0.0,1310996,1310996,6620172,197644,0,0,895,2,1,2,0,4,0,0,0,0,0,0,0
830860000,830780000,0.00015564823,0.0031228724,0.0010681504,67109399,0,0.055950604,0.0599554,0.021135068,0.0018710806,0.0015720399,0.0036458797,0.0,0.0,0.0,0.0,1310996,1310996,6620172,197644,0,0,895,2,1,2,0,4,0,0,0,0,0,0,0
831060000,830980000,0.00012473897,0.0025735695,0.0009981935,67109399,0,0.055916462,0.059933394,0.0058783614,0.004251336,0.0014194355,0.0039449087,0.0,0.0,0.0,0.0,1310996,1310996,6620172,197644,0,0,895,2,1,2,0,4,0,0,0,0,0,0,0
831260000,831180000,7.640795e-05,0.0035851907,0.0014103489,67109399,0,0.055926535,0.05990285,0.0070744157,0.004251336,0.0014194355,0.0071086823,0.0,0.0,0.0,0.0,1310996,1310996,6620172,197644,0,0,895,2,1,2,0,4,0,0,0,0,0,0,0
831460000,831380000,0.0001132443,0.004618363,0.0018092621,67109399,0,0.055893246,0.05988131,0.013156576,0.0042535784,0.0013978524,0.00030949013,0.0,0.0,0.0,0.0,1310996,1310996,6620172,197644,0,0,895,2,1,2,0,4,0,0,0,0,0,0,0
831660000,831580000,0.00011774745,0.0046672844,0.0019659428,67109399,0,0.055860437,0.05985999,0.002340388,0.004353545,0.0016116255,0.011628112,0.0,0.0,0.0,0.0,1310996,1310996,6620172,197644,0,0,895,2,1,2,0,4,0,0,0,0,0,0,0
831860000,831780000,0.00010400895,0.0028997676,0.0015709578,67109399,0,0.05582805,0.059830125,0.014385724,0.0068761683,0.001590049,0.0006137496,0.0,0.0,0.0,0.0,1310996,1310996,6620172,197644,0,0,895,2,1,2,0,4,0,0,0,0,0,0,0
832060000,831980000,8.729678e-05,0.004927767,0.0016400876,67109399,0,0.05579606,0.0598092,0.006327937,0.012969552,0.0016370359,0.0021219698,0.0,0.0,0.0,0.0,1310996,1310996,6620172,197644,0,0,895,2,1,2,0,4,0,0,0,0,0,0,0
832260000,832180000,0.000111717796,0.0011890514,0.000592345,67109399,0,0.055807848,0.059779737,0.005648602,0.012969552,0.0016370359,0.0029990044,0.0,0.0,0.0,0.0,1310996,1310996,6620172,197644,0,0,895,2,1,2,0,4,0,0,0,0,0,0,0
832460000,832380000,0.00013998455,0.004187124,0.0010184014,67109399,0,0.05577649,0.05975917,0.0057798102,0.007033681,0.0013952837,0.005907342,0.0,0.0,0.0,0.0,1310996,1310996,6620172,197644,0,0,895,2,1,2,0,4,0,0,0,0,0,0,0
832660000,832580000,0.00014751294,0.005707587,0.0017245181,67109399,0,0.055745475,0.05973876,0.013291449,0.02215243,0.0013976672,0.006507144,0.0,0.0,0.0,0.0,1310996,1310996,6620172,197644,0,0,895,2,1,2,0,4,0,0,0,0,0,0,0
832860000,832780000,0.00012009219,0.0035703569,0.001539738,67109399,0,0.05571477,0.059709806,0.0005545481,0.0068611847,0.001652614,0.0105810845,0.0,0.0,0.0,0.0,1310996,1310996,6620172,197644,0,0,895,2,1,2,0,4,0,0,0,0,0,0,0
833060000,832980000,0.00015658821,0.0020528839,0.0010824358,67109399,0,0.05568437,0.05968969,0.0150802,0.007183725,0.001668571,0.0033198297,0.0,0.0,0.0,0.0,1310996,1310996,6620172,197644,0,0,895,2,1,2,0,4,0,0,0,0,0,0,0
833260000,833180000,0.00017547463,0.002627287,0.00089305214,67109399,0,0.055654235,0.0596697,0.00124411,0.009201147,0.0016899002,0.005273543,0.0,0.0,0.0,0.0,1310996,1310996,6620172,197644,0,0,895,2,1,2,0,4,0,0,0,0,0,0,0
833460000,833380000,0.00017973622,0.0037763552,0.0012091501,67109399,0,0.05566743,0.059641164,0.004011356,0.009201147,0.0016899002,0.0048507187,0.0,0.0,0.0,0.0,1310996,1310996,6620172,197644,0,0,895,2,1,2,0,4,0,0,0,0,0,0,0
833660000,833580000,0.000368815,0.0072316,0.0020205488,67109399,0,0.055637684,0.05962141,0.01882518,0.019470436,0.0013596254,0.002891775,0.0,0.0,0.0,0.0,1310996,1310996,6620172,197644,0,0,895,2,1,2,0,4,0,0,0,0,0,0,0
833860000,833780000,0.00017234073,0.004057947,0.0019933395,67109399,0,0.05565118,0.059593108,0.022808619,0.019470436,0.0013596254,0.0016381205,0.0,0.0,0.0,0.0,1310996,1310996,6620172,197644,0,0,895,2,1,2,0,4,0,0,0,0,0,0,0
834060000,833980000,0.00016517848,0.004379148,0.0015613013,67109399,0,0.055621732,0.05957355,0.006459299,0.010589043,0.0013890701,0.0004821079,0.0,0.0,0.0,0.0,1310996,1310996,6620172,197644,0,0,895,2,1,2,0,4,0,0,0,0,0,0,0
834260000,834180000,0.00010070664,0.001899065,0.00093138404,67109399,0,0.055592455,0.05955407,0.03417326,0.012747294,0.00176292,0.0028403392,0.0,0.0,0.0,0.0,1310996,1310996,6620172,197644,0,0,895,2,1,2,0,4,0,0,0,0,0,0,0
834460000,834380000,0.000121141245,0.0029891864,0.0006499793,67109399,0,0.055563334,0.059526045,0.014254699,0.010030486,0.0017607356,0.0020818694,0.0,0.0,0.0,0.0,1310996,1310996,6620172,197644,0,0,895,2,1,2,0,4,0,0,0,0,0,0,0
834660000,834580000,0.00016823638,0.002529466,0.0006237814,67109399,0,0.055534348,0.0595067,0.010448678,0.017283622,0.0004542773,0.004491538,0.0,0.0,0.0,0.0,1310996,1310996,6620172,197644,0,0,895,2,1,2,0,4,0,0,0,0,0,0,0
834860000,834780000,0.00016569413,0.0042117285,0.00088168395,67109399,0,0.05554828,0.059487406,0.026271813,0.017283622,0.0004542773,0.0015526843,0.0,0.0,0.0,0.0,1310996,1310996,6620172,197644,0,0,895,2,1,2,0,4,0,0,0,0,0,0,0
835060000,834980000,9.394809e-05,0.0018907755,0.00080509455,67109399,0,0.055519413,0.059459575,0.0039593307,0.013163316,0.0005236221,0.005094828,0.0,0.0,0.0,0.0,1310996,1310996,6620172,197644,0,0,895,2,1,2,0,4,0,0,0,0,0,0,0
835260000,835180000,0.00026284927,0.0044924566,0.00065914815,67109399,0,0.055490624,0.05944037,0.016822984,0.0020746777,0.0004866663,0.004927442,0.0,0.0,0.0,0.0,1310996,1310996,6620172,197644,0,0,895,2,1,2,0,4,0,0,0,0,0,0,0
835460000,835380000,7.796563e-05,0.0012553663,0.0005853599,67109399,0,0.05549561,0.05942988,0.017829865,0.014717789,0.0017468709,0.0031062416,0.0,0.0,0.0,0.0,1310996,1310996,6620172,197644,0,0,895,2,1,2,0,4,0,0,0,0,0,0,0
835660000,835580000,0.00011683607,0.0030413764,0.0012461654,67109399,0,0.05546133,0.059407923,0.012362337,0.0012214802,0.0017073432,0.0017427386,0.0,0.0,0.0,0.0,1310996,1310996,6620172,197644,0,0,895,2,1,2,0,4,0,0,0,0,0,0,0
835860000,835780000,4.2050335e-05,0.0016438001,0.00095537293,67109399,0,0.0554276,0.05938623,0.016164515,0.009347427,0.0014436594,0.00053616025,0.0,0.0,0.0,0.0,1310996,1310996,6620172,197644,0,0,895,2,1,2,0,4,0,0,0,0,0,0,0
836060000,835980000,0.00011672069,0.0016606356,0.0008740651,67109399,0,0.05543696,0.059356272,0.01839522,0.009347427,0.0014436594,0.008210664,0.0,0.0,0.0,0.0,1310996,1310996,6620172,197644,0,0,895,2,1,2,0,4,0,0,0,0,0,0,0
836260000,836180000,6.695933e-05,0.00074006274,0.00046516213,1049239,0,0.0554041,0.059335083,0.019230029,0.017052015,0.0005342018,1.1754944e-38,0.0,0.0,0.0,0.0,1310996,1310996,6620172,197644,0,0,895,2,1,2,0,4,0,0,0,0,0,0,0
836460000,836380000,2.7133716e-05,0.0014632429,0.0005025656,1049239,0,0.055698477,0.059458885,0.00057376805,0.017052015,0.0005342018,0.0027819304,0.0,0.0,0.0,0.0,1310996,1310996,6620172,197644,0,0,895,2,1,2,0,4,0,0,0,0,0,0,0
836660000,836580000,0.00013439302,0.0017560633,0.0007035269,1049239,0,0.056596067,0.0599198,0.029357692,0.004366867,0.0019006021,1.1754944e-38,0.0,0.0,0.0,0.0,1310996,1310996,6620172,197644,0,0,895,2,1,2,0,4,0,0,0,0,0,0,0
836860000,836780000,0.0001331575,0.0018460043,0.00080062094,1049239,0,0.058551457,0.060989622,0.012101312,0.026218642,0.002091069,1.1754944e-38,0.0,0.0,0.0,0.0,1310996,1310996,6620172,197644,0,0,895,2,1,2,0,4,0,0,0,0,0,0,0
837060000,836980000,8.2254635e-05,0.0018722491,0.00088069786,1049239,0,0.061937585,0.06292019,0.0042574173,0.0034363263,0.0009102419,0.0014611197,0.0,0.0,0.0,0.0,1310996,1310996,6620172,197644,0,0,895,2,1,2,0,4,0,0,0,0,0,0,0
837260000,837180000,3.7548107e-05,0.002192491,0.0009968063,1049239,0,0.06701693,0.06597621,0.004742702,0.026514564,0.0023509455,0.0021358542,0.0,0.0,0.0,0.0,1310996,1310996,6620172,197644,0,0,895,2,1,2,0,4,0,0,0,0,0,0,0
837460000,837380000,5.743864e-05,0.0017956734,0.0008712656,1049239,0,0.07440071,0.07044425,0.014558545,0.026514564,0.0023509455,0.00026414305,0.0,0.0,0.0,0.0,1310996,1310996,6620172,197644,0,0,895,2,1,2,0,4,0,0,0,0,0,0,0
837660000,837580000,5.961356e-05,0.0010820125,0.0007422156,1049239,0,0.08335709,0.076225296,0.0035887558,0.028145669,0.0035616404,1.1754944e-38,0.0,0.0,0.0,0.0,1310996,1310996,6620172,197644,0,0,895,2,1,2,0,4,0,0,0,0,0,0,0
837860000,837780000,0.00018337647,0.001865737,0.0019000187,663,0,0.09399126,0.08340346,0.020189894,0.03678628,0.004899476,0.0011671941,0.0,0.0,0.0,0.0,1310996,1310996,6620172,197644,0,0,895,2,1,2,0,4,0,0,0,0,0,0,0
838060000,837980000,9.375183e-05,0.0012915726,0.0019767715,663,0,0.10600386,0.091873445,0.0012541738,0.027122024,0.00636584,0.0007252087,0.0,0.0,0.0,0.0,1310996,1310996,6620172,197644,0,0,895,2,1,2,0,4,0,0,0,0,0,0,0
838260000,838180000,0.00013204079,0.002134299,0.0029655376,663,0,0.11892201,0.1014526,0.009835829,0.03148497,0.005729683,0.0030949365,0.0,0.0,0.0,0.0,1310996,1310996,6620172,197644,0,0,895,2,1,2,0,4,0,0,0,0,0,0,0
838460000,838380000,9.4891046e-05,0.0033213915,0.004345197,663,0,0.1323323,0.112045296,0.011864231,0.03384706,0.0073451987,0.00067628344,0.0,0.0,0.0,0.0,1310996,1310996,6620172,197644,0,0,895,2,1,2,0,4,0,0,0,0,0,0,0
838660000,838580000,0.005774327,0.0013488585,0.002016692,8389271,0,0.15004002,0.12483299,0.03634269,0.03384706,0.0073451987,0.0028599496,0.0,0.0,0.0,0.0,1310996,1310996,6620172,197644,0,0,895,2,1,2,0,5,0,0,0,0,0,0,0
838860000,838780000,0.004331956,0.0027149294,0.004531368,8389271,0,0.16360475,0.13698627,0.0061820177,0.027606234,0.009698978,0.0031548631,0.0,0.0,0.0,0.0,1310996,1310996,6620172,197644,0,0,895,2,1,2,0,5,0,0,0,0,0,0,0
839060000,838980000,0.00202045,0.0010970159,0.0019782374,8389271,0,0.18209897,0.15193167,0.031964533,0.027606234,0.009698978,0.0038190607,0.0,0.0,0.0,0.0,1310996,1310996,6620172,197644,0,0,895,2,1,2,0,5,0,0,0,0,0,0,0
839260000,839180000,0.0016431772,0.0020495055,0.004170327,8389271,0,0.19454496,0.16493255,0.018976972,0.025103308,0.012274999,0.005039387,0.0,0.0,0.0,0.0,1310996,1310996,6620172,197644,0,0,895,2,1,2,0,5,0,0,0,0,0,0,0
839460000,839380000,0.001235406,0.004227494,0.0070224125,8389271,0,0.20629528,0.17818873,0.018292643,0.024350489,0.014116821,0.0017259949,0.0,0.0,0.0,0.0,1310996,1310996,6620172,197644,0,0,895,2,1,2,0,5,0,0,0,0,0,0,0
839660000,839580000,0.000883026,0.0050193747,0.008571774,8389271,0,0.2173773,0.1914227,0.018343886,0.029145434,0.015851412,0.0041512223,0.0,0.0,0.0,0.0,1310996,1310996,6620172,197644,0,0,895,2,1,2,0,5,0,0,0,0,0,0,0
839860000,839780000,0.0011857186,0.003932819,0.007348088,8389271,0,0.22783495,0.20418844,0.029988825,0.013917158,0.0148926955,0.0015981776,0.0,0.0,0.0,0.0,1310996,1310996,6620172,197644,0,0,895,2,1,2,0,5,0,0,0,0,0,0,0
840060000,839980000,0.00093116093,0.0005930262,0.0021836625,8389271,0,0.2481331,0.22192173,0.019917939,0.013917158,0.0148926955,0.0038717368,0.0,0.0,0.0,0.0,1310996,1310996,6620172,197644,0,0,895,2,1,2,0,5,0,0,0,0,0,0,0
840260000,840180000,0.000798768,0.0026102094,0.004888383,8389271,0,0.2572475,0.23406954,0.011588866,0.016844725,0.014828841,0.0036731057,0.0,0.0,0.0,0.0,1310996,1310996,6620172,197644,0,0,895,2,1,2,0,5,0,0,0,0,0,0,0
840460000,840380000,0.00036310608,0.0048682075,0.008597463,8389271,0,0.2655966,0.24623899,0.010565122,0.029752158,0.016369877,0.0016248086,0.0,0.0,0.0,0.0,1310996,1310996,6620172,197644,0,0,895,2,1,2,0,5,0,0,0,0,0,0,0
840660000,840580000,0.00010378935,0.004266942,0.0073404456,8389271,0,0.2731729,0.25793946,0.0012301342,0.012441898,0.015689274,0.003964721,0.0,0.0,0.0,0.0,1310996,1310996,6620172,197644,0,0,895,2,1,2,0,5,0,0,0,0,0,0,0
840860000,840780000,0.0006012626,0.005277789,0.008839024,8389271,0,0.28002033,0.2683497,0.002595629,0.018213201,0.014470699,0.003843527,0.0,0.0,0.0,0.0,1310996,1310996,6620172,197644,0,0,895,2,1,2,0,5,0,0,0,0,0,0,0
841060000,840980000,0.00031789741,0.005218287,0.008986253,8389271,0,0.28618154,0.27895424,0.010017455,0.016380196,0.014477453,0.0010055419,0.0,0.0,0.0,0.0,1310996,1310996,6620172,197644,0,0,895,2,1,2,0,5,0,0,0,0,0,0,0
841260000,841180000,0.0002724456,0.0011233081,0.0030238526,8389271,0,0.308749,0.29559624,0.012819927,0.016380196,0.014477453,0.0055213226,0.0,0.0,0.0,0.0,1310996,1310996,6620172,197644,0,0,831,2,1,2,0,5,0,0,0,0,0,0,0
841460000,841380000,0.000689136,0.006077111,0.0083097955,8389271,0,0.31235817,0.30489972,0.034003355,0.020394994,0.012522957,0.00049600034,0.0,0.0,0.0,0.0,1310996,1310996,6620172,197644,0,0,831,2,1,2,0,5,0,0,0,0,0,0,0
841660000,841580000,0.00045594425,0.0049476214,0.007369938,8389271,0,0.33719513,0.32228503,0.009246672,0.020394994,0.012522957,0.008246477,0.0,0.0,0.0,0.0,1310996,1310996,6620172,197644,0,0,831,2,1,2,0,5,0,0,0,0,0,0,0
841860000,841780000,0.0006296844,0.02020019,0.029132752,8389271,0,0.33712167,0.32864693,0.007204896,0.052083094,0.011329177,0.0004895962,0.0,0.0,0.0,0.0,1310996,1310996,6620172,197644,0,0,831,2,1,2,0,5,0,0,0,0,0,0,0
842060000,841980000,0.0009577527,0.024233954,0.036569227,8389271,0,0.33733717,0.3359029,0.001288381,0.058205757,0.011000141,0.0018834429,0.0,0.0,0.0,0.0,1310996,1310996,6620172,197644,0,0,831,2,1,2,0,5,0,0,0,0,0,0,0
842260000,842180000,0.0018768453,0.02889129,0.04138675,8389271,0,0.33753142,0.342669,0.0066478685,0.07357671,0.011375296,0.0001492295,0.0,0.0,0.0,0.0,1310996,1310996,6620172,197644,0,0,831,2,1,2,0,5,0,0,0,0,0,0,0
842460000,842380000,0.001908911,0.030173792,0.043874815,8389271,0,0.33782375,0.34730724,0.015695086,0.08051235,0.010538715,0.00497162,0.0,0.0,0.0,0.0,1310996,1310996,6620172,197644,0,0,831,2,1,2,0,5,0,0,0,0,0,0,0
842660000,842580000,0.00015491676,0.011881131,0.019979311,8389351,0,0.36097085,0.36239743,0.0063579604,0.08051235,0.010538715,0.0008378409,0.0,0.0,0.0,0.0,1310996,1310996,6620172,197644,0,0,831,2,1,2,0,5,0,0,0,0,0,0,0
842860000,842780000,0.0024245912,0.023991972,0.03708497,8389351,0,0.35850742,0.36741087,0.01571893,0.09571964,0.004136003,0.001929612,0.0,0.0,0.0,0.0,1310996,1310996,6620172,197644,0,0,831,2,1,2,0,5,0,0,0,0,0,0,0
843060000,842980000,0.0025541033,0.029284086,0.046951525,8389351,0,0.3564851,0.37001494,0.037417416,0.10003237,0.0048280284,0.0029046705,0.0,0.0,0.0,0.0,1310996,1310996,6620172,197644,0,0,831,2,1,2,0,5,0,0,0,0,0,0,0
843260000,843180000,0.0021376743,0.029785898,0.05217787,8389351,0,0.35475755,0.37435666,0.014341014,0.093881324,0.004988165,0.004221587,0.0,0.0,0.0,0.0,1310996,1310996,6620172,197644,0,0,831,2,1,2,0,5,0,0,0,0,0,0,0
843460000,843380000,0.0017253761,0.025940241,0.04730376,8389351,0,0.3532328,0.37625566,0.014843979,0.087935634,0.0054263505,0.0054849987,0.0,0.0,0.0,0.0,1310996,1310996,6620172,197644,0,0,831,2,1,2,0,5,0,0,0,0,0,0,0
843660000,843580000,0.001456268,0.021910124,0.038704574,8389351,0,0.35184866,0.3800494,0.014563977,0.08442413,0.005682507,0.010653597,0.0,0.0,0.0,0.0,1310996,1310996,6620172,197644,0,0,831,2,1,2,0,5,0,0,0,0,0,0,0
843860000,843780000,0.000105426356,0.004072048,0.009200749,8389351,0,0.3726083,0.38991922,0.020703975,0.08442413,0.005682507,0.00036220733,0.0,0.0,0.0,0.0,1310996,1310996,6620172,197644,0,0,831,2,1,2,0,5,0,0,0,0,0,0,0
844060000,843980000,0.000638411,0.007532881,0.015700622,8389351,0,0.36898866,0.39270717,0.019378858,0.05797827,0.003917261,0.0027848952,0.0,0.0,0.0,0.0,1310996,1310996,6620172,197644,0,0,831,2,1,2,0,5,0,0,0,0,0,0,0
844260000,844180000,4.467991e-05,0.005622563,0.008047263,8389351,0,0.39087197,0.40428042,0.013313674,0.05797827,0.003917261,0.0066751596,0.0,0.0,0.0,0.0,1310996,1310996,6620172,197644,0,0,831,2,1,2,0,5,0,0,0,0,0,0,0
844460000,844380000,0.00037648913,0.004856997,0.013158865,8389351,0,0.38456813,0.40338242,0.005535658,0.047199585,0.007088665,0.00965489,0.0,0.0,0.0,0.0,1310996,1310996,6620172,197644,0,0,831,2,1,2,0,5,0,0,0,0,0,0,0
844660000,844580000,0.000265135,0.007604901,0.022325303,8389351,0,0.37934884,0.40509313,0.007722066,0.053498007,0.009820065,0.0054038195,0.0,0.0,0.0,0.0,1310996,1310996,6620172,197644,0,0,831,2,1,2,0,5,0,0,0,0,0,0,0
844860000,844780000,0.00018526876,0.0106018605,0.03154299,8389351,0,0.37477407,0.40401262,0.01028234,0.06705583,0.0049103666,0.00343756,0.0,0.0,0.0,0.0,1310996,1310996,6620172,197644,0,0,831,2,1,2,0,5,0,0,0,0,0,0,0
845060000,844980000,0.0001489703,0.012522055,0.037553366,8389351,0,0.37076607,0.4055632,0.013215623,0.070951104,0.0056856545,0.006381415,0.0,0.0,0.0,0.0,1310996,1310996,6620172,197644,0,0,831,2,1,2,0,5,0,0,0,0,0,0,0
845260000,845180000,8.663874e-05,0.0069385204,0.014922967,8389351,0,0.39056334,0.4152046,0.04074788,0.070951104,0.0056856545,0.0041908687,0.0,0.0,0.0,0.0,1310996,1310996,6620172,197644,0,0,831,2,1,2,0,5,0,0,0,0,0,0,0
845460000,845380000,5.9873797e-05,0.010435248,0.024420667,8389351,0,0.38481757,0.4132215,0.010870168,0.06525782,0.0063618557,0.0017048661,0.0,0.0,0.0,0.0,1310996,1310996,6620172,197644,0,0,831,2,1,2,0,5,0,0,0,0,0,0,0
845660000,845580000,6.198842e-05,0.013021796,0.030917358,8389351,0,0.3798222,0.41412896,0.03087481,0.06578599,0.0051216614,0.0052654683,0.0,0.0,0.0,0.0,1310996,1310996,6620172,197644,0,0,831,2,1,2,0,5,0,0,0,0,0,0,0
845860000,845780000,1.317568e-05,0.011863137,0.027874714,8389351,0,0.37541622,0.41499436,0.024681162,0.04908364,0.006210802,0.0049927905,0.0,0.0,0.0,0.0,1310996,1310996,6620172,197644,0,0,831,2,1,2,0,5,0,0,0,0,0,0,0
846060000,845980000,0.00017955409,0.016905384,0.040163815,8389351,0,0.3714831,0.41293296,0.0053436463,0.08813608,0.006508823,0.006932949,0.0,0.0,0.0,0.0,1310996,1310996,6620172,197644,0,0,831,2,1,2,0,5,0,0,0,0,0,0,0
846260000,846180000,0.00011908316,0.01625589,0.03973031,8389271,0,0.36793807,0.41373605,0.0057606245,0.077924624,0.00609702,0.0062682186,0.0,0.0,0.0,0.0,1310996,1310996,6620172,197644,0,0,831,2,1,2,0,5,0,0,0,0,0,0,0
846460000,846380000,0.00017442407,0.009071773,0.018047635,8389271,0,0.3860565,0.42174965,0.008277053,0.077924624,0.00609702,0.011556238,0.0,0.0,0.0,0.0,1310996,1310996,6620172,197644,0,0,831,2,1,2,0,5,0,0,0,0,0,0,0
846660000,846580000,0.0001381079,0.013682797,0.030467508,8389271,0,0.3808613,0.41906366,0.014784708,0.079110324,0.004635256,0.011131408,0.0,0.0,0.0,0.0,1310996,1310996,6620172,197644,0,0,831,2,1,2,0,5,0,0,0,0,0,0,0
846860000,846780000,2.445473e-05,0.008305766,0.015369019,8389271,0,0.40009782,0.42687333,0.0013236487,0.079110324,0.004635256,0.010757632,0.0,0.0,0.0,0.0,1310996,1310996,6620172,197644,0,0,831,2,1,2,0,5,0,0,0,0,0,0,0
847060000,846980000,0.0005376036,0.014583669,0.028394423,8389271,0,0.3929693,0.4236587,0.0064909374,0.066958494,0.0049923407,0.013095929,0.0,0.0,0.0,0.0,1310996,1310996,6620172,197644,0,0,831,2,1,2,0,5,0,0,0,0,0,0,0
847260000,847180000,0.0003296126,0.01543483,0.033590697,8389271,0,0.3868001,0.42368716,0.01134262,0.08827402,0.006030753,0.004926793,0.0,0.0,0.0,0.0,1310996,1310996,6620172,197644,0,0,831,2,1,2,0,5,0,0,0,0,0,0,0
847460000,847380000,0.00015462363,0.017116372,0.04161925,8389271,0,0.3813848,0.42070585,0.0031558317,0.098578244,0.0056223883,0.0050276835,0.0,0.0,0.0,0.0,1310996,1310996,6620172,197644,0,0,831,2,1,2,0,5,0,0,0,0,0,0,0
847660000,847580000,0.00016511185,0.013676696,0.03277425,8389271,0,0.37657735,0.4208485,0.0025953287,0.063931644,0.0059939236,0.009273741,0.0,0.0,0.0,0.0,1310996,1310996,6620172,197644,0,0,831,2,1,2,0,5,0,0,0,0,0,0,0
847860000,847780000,4.4759654e-05,0.004868807,0.008628572,8389271,0,0.39466146,0.42476046,0.0052606114,0.063931644,0.0059939236,0.008882483,0.0,0.0,0.0,0.0,1310996,1310996,6620172,197644,0,0,831,2,1,2,0,5,0,0,0,0,0,0,0
848060000,847980000,0.0003972511,0.008019448,0.01587014,8389271,0,0.38849425,0.4245912,0.0015664628,0.07370853,0.009395514,0.010652087,0.0,0.0,0.0,0.0,1310996,1310996,6620172,197644,0,0,831,2,1,2,0,5,0,0,0,0,0,0,0
848260000,848180000,0.0004501949,0.011215502,0.022066567,8389271,0,0.38306484,0.42447078,0.015110333,0.079259835,0.008562341,0.008879241,0.0,0.0,0.0,0.0,1310996,1310996,6620172,197644,0,0,831,2,1,2,0,5,0,0,0,0,0,0,0
848460000,848380000,0.00045486868,0.011519976,0.021948043,8389271,0,0.37823597,0.42129868,0.011187729,0.06571084,0.00849334,0.0031767187,0.0,0.0,0.0,0.0,1310996,1310996,6620172,197644,0,0,831,2,1,2,0,5,0,0,0,0,0,0,0
848660000,848580000,0.00012503381,0.008258788,0.015356076,8389271,0,0.3739062,0.42131475,0.011605632,0.057526786,0.00781762,0.00566751,0.0,0.0,0.0,0.0,1310996,1310996,6620172,197644,0,0,831,2,1,2,0,5,0,0,0,0,0,0,0
848860000,848780000,0.00016767037,0.007458796,0.013561639,8389271,0,0.36999857,0.41834968,0.0033954678,0.06792883,0.008686952,0.0044634445,0.0,0.0,0.0,0.0,1310996,1310996,6620172,197644,0,0,831,2,1,2,0,5,0,0,0,0,0,0,0
849060000,848980000,9.879839e-05,0.0038938532,0.010961733,8389271,0,0.38723764,0.42475063,0.0019743722,0.06792883,0.008686952,0.0057454826,0.0,0.0,0.0,0.0,1310996,1310996,6620172,197644,0,0,831,2,1,2,0,5,0,0,0,0,0,0,0
849260000,849180000,0.00018212499,0.003113081,0.006418977,8389271,0,0.38196263,0.42457858,0.005564152,0.047076546,0.0063601467,0.008748483,0.0,0.0,0.0,0.0,1310996,1310996,6620172,197644,0,0,831,2,1,2,0,5,0,0,0,0,0,0,0
849460000,849380000,1.7560216e-05,0.0055301394,0.014384231,8389271,0,0.40050203,0.42792442,0.009787464,0.047076546,0.0063601467,0.010119861,0.0,0.0,0.0,0.0,1310996,1310996,6620172,197644,0,0,831,2,1,2,0,5,0,0,0,0,0,0,0
849660000,849580000,0.00018613697,0.0026205839,0.0043573165,8389271,0,0.39337283,0.4274697,0.014310216,0.05035636,0.006024462,0.010526613,0.0,0.0,0.0,0.0,1310996,1310996,6620172,197644,0,0,831,2,1,2,0,5,0,0,0,0,0,0,0
849860000,849780000,0.00016244472,0.0033662813,0.0043218695,8389271,0,0.3871657,0.42707857,0.0039259973,0.040825352,0.005075045,0.00991876,0.0,0.0,0.0,0.0,1310996,1310996,6620172,197644,0,0,831,2,1,2,0,5,0,0,0,0,0,0,0
850060000,849980000,0.00018304083,0.004997481,0.009218975,8389271,0,0.3816958,0.4236159,0.0055581774,0.047806107,0.0053684195,0.007979237,0.0,0.0,0.0,0.0,1310996,1310996,6620172,197644,0,0,831,2,1,2,0,5,0,0,0,0,0,0,0
850260000,850180000,0.0002501602,0.0040567433,0.0076820366,8389271,0,0.37682813,0.42337373,0.0087229945,0.044699803,0.0025299422,0.0158272,0.0,0.0,0.0,0.0,1310996,1310996,6620172,197644,0,0,831,2,1,2,0,5,0,0,0,0,0,0,0
850460000,850380000,3.9052138e-05,0.003793347,0.00985138,8389271,0,0.3946184,0.42960975,0.004287469,0.044699803,0.0025299422,0.008550016,0.0,0.0,0.0,0.0,1310996,1310996,6620172,197644,0,0,831,2,1,2,0,5,0,0,0,0,0,0,0
850660000,850580000,8.460671e-05,0.004999489,0.011310969,8389271,0,0.38846686,0.42602262,0.0054891827,0.016335549,0.007480204,0.006217786,0.0,0.0,0.0,0.0,1310996,1310996,6620172,197644,0,0,831,2,1,2,0,5,0,0,0,0,0,0,0
850860000,850780000,9.4329196e-05,0.00716638,0.012378253,8389271,0,0.38304198,0.4257375,0.00087249407,0.034526307,0.006551322,0.006151597,0.0,0.0,0.0,0.0,1310996,1310996,6620172,197644,0,0,831,2,1,2,0,5,0,0,0,0,0,0,0
851060000,850980000,0.00036134248,0.013620233,0.021635626,8389271,0,0.37820247,0.4224003,0.011071358,0.047870193,0.0073527554,0.0063905483,0.0,0.0,0.0,0.0,1310996,1310996,6620172,197644,0,0,831,2,1,2,0,5,0,0,0,0,0,0,0
851260000,851180000,0.00087071804,0.01940751,0.031483114,8389271,0,0.37385628,0.4222389,0.014423558,0.071368225,0.006757239,0.011570705,0.0,0.0,0.0,0.0,1310996,1310996,6620172,197644,0,0,831,2,1,2,0,5,0,0,0,0,0,0,0
851460000,851380000,0.001606049,0.027493797,0.044958714,9437927,0,0.36992112,0.41910252,0.017871704,0.09822376,0.0074883667,1.1754944e-38,0.0,0.0,0.0,0.0,1310996,1310996,6620172,197644,0,0,831,2,1,2,0,5,0,0,0,0,0,0,0
851660000,851580000,0.00019585216,0.013248583,0.027447468,9437927,0,0.38710967,0.42504734,0.0072417962,0.09822376,0.0074883667,1.1754944e-38,0.0,0.0,0.0,0.0,1310996,1310996,6620172,197644,0,0,831,2,1,2,0,5,0,0,0,0,0,0,0
851860000,851780000,0.0033147424,0.03111628,0.048799276,9437927,0,0.38182664,0.4248112,0.013768666,0.14989947,0.010441452,1.1754944e-38,0.0,0.0,0.0,0.0,1310996,1310996,6620172,197644,0,0,831,2,1,2,0,5,0,0,0,0,0,0,0
852060000,851980000,0.00019990063,0.012225397,0.026646068,9437927,0,0.40061498,0.42775166,0.010805571,0.14989947,0.010441452,1.1754944e-38,0.0,0.0,0.0,0.0,1310996,1310996,6620172,197644,0,0,831,2,1,2,0,5,0,0,0,0,0,0,0
852260000,852180000,0.004367492,0.04165641,0.06566235,9437927,0,0.39338234,0.42731223,0.006625789,0.17916422,0.019619813,1.1754944e-38,0.0,0.0,0.0,0.0,1310996,1310996,6620172,197644,0,0,831,2,1,2,0,5,0,0,0,0,0,0,0
852460000,852380000,0.003917137,0.04865614,0.07892441,9437927,0,0.38712803,0.42379296,0.019946313,0.15638264,0.01583239,1.1754944e-38,0.0,0.0,0.0,0.0,1310996,1310996,6620172,197644,0,0,831,2,1,2,0,5,0,0,0,0,0,0,0
852660000,852580000,0.003030039,0.046247173,0.07828428,9437927,0,0.38165623,0.42349654,0.016100956,0.14026153,0.012141706,1.1754944e-38,0.0,0.0,0.0,0.0,1310996,1310996,6620172,197644,0,0,831,2,1,2,0,5,0,0,0,0,0,0,0
852860000,852780000,0.0022006212,0.038069483,0.067958474,9437927,0,0.37687087,0.42325163,0.016015617,0.10912175,0.01109157,1.1754944e-38,0.0,0.0,0.0,0.0,1310996,1310996,6620172,197644,0,0,831,2,1,2,0,5,0,0,0,0,0,0,0
853060000,852980000,0.0001349263,0.012408074,0.028582219,9437927,0,0.39494282,0.4259771,0.024748264,0.10912175,0.01109157,1.1754944e-38,0.0,0.0,0.0,0.0,1310996,1310996,6620172,197644,0,0,831,2,1,2,0,5,0,0,0,0,0,0,0
853260000,853180000,0.0012104677,0.020435607,0.044151094,9437927,0,0.3887407,0.42560464,0.007340095,0.085446686,0.01594923,1.1754944e-38,0.0,0.0,0.0,0.0,1310996,1310996,6620172,197644,0,0,831,2,1,2,0,5,0,0,0,0,0,0,0
853460000,853380000,0.000783737,0.020766893,0.048155937,9437927,0,0.38328248,0.42221752,0.025957758,0.05714465,0.013636011,1.1754944e-38,0.0,0.0,0.0,0.0,1310996,1310996,6620172,197644,0,0,831,2,1,2,0,5,0,0,0,0,0,0,0
853660000,853580000,0.0004565448,0.020310871,0.047962908,9437927,0,0.37842745,0.42204133,0.005984294,0.05409345,0.010891211,1.1754944e-38,0.0,0.0,0.0,0.0,1310996,1310996,6620172,197644,0,0,831,2,1,2,0,5,0,0,0,0,0,0,0
853860000,853780000,0.0003610081,0.02144774,0.04775666,9437927,0,0.3740756,0.41890663,0.01117929,0.051400628,0.008812841,1.1754944e-38,0.0,0.0,0.0,0.0,1310996,1310996,6620172,197644,0,0,831,2,1,2,0,5,0,0,0,0,0,0,0
854060000,853980000,0.00034681946,0.022748087,0.048425876,9437927,0,0.37014848,0.4189089,0.019496886,0.04958562,0.009035109,1.1754944e-38,0.0,0.0,0.0,0.0,1310996,1310996,6620172,197644,0,0,831,2,1,2,0,5,0,0,0,0,0,0,0
854260000,854180000,3.8226433e-05,0.016505923,0.03407765,9437927,0,0.387318,0.4247744,0.009007309,0.04958562,0.009035109,1.1754944e-38,0.0,0.0,0.0,0.0,1310996,1310996,6620172,197644,0,0,831,2,1,2,0,5,0,0,0,0,0,0,0
854460000,854380000,0.00039601594,0.021821344,0.043012794,9437927,0,0.38203502,0.42151567,0.01299346,0.051750742,0.0066613536,1.1754944e-38,0.0,0.0,0.0,0.0,1310996,1310996,6620172,197644,0,0,831,2,1,2,0,5,0,0,0,0,0,0,0
854660000,854580000,3.2360436e-05,0.016257979,0.032326598,9437927,0,0.4005154,0.42762813,0.011096519,0.051750742,0.0066613536,1.1754944e-38,0.0,0.0,0.0,0.0,1310996,1310996,6620172,197644,0,0,831,2,1,2,0,5,0,0,0,0,0,0,0
854860000,854780000,0.00048463696,0.024233341,0.04835166,9437927,0,0.3933865,0.42412275,0.01366823,0.0764753,0.008933904,1.1754944e-38,0.0,0.0,0.0,0.0,1310996,1310996,6620172,197644,0,0,831,2,1,2,0,5,0,0,0,0,0,0,0
855060000,854980000,0.0005102655,0.026458247,0.053268448,9437927,0,0.3871765,0.42385748,0.02278619,0.06670758,0.007854398,1.1754944e-38,0.0,0.0,0.0,0.0,1310996,1310996,6620172,197644,0,0,831,2,1,2,0,5,0,0,0,0,0,0,0
855260000,855180000,0.00046477787,0.025962103,0.052849464,9437847,0,0.38177046,0.42365155,0.0075072953,0.06434738,0.007967661,1.1754944e-38,0.0,0.0,0.0,0.0,1310996,1310996,6620172,197644,0,0,831,2,1,2,0,5,0,0,0,0,0,0,0
855460000,855380000,0.00047419846,0.026905991,0.054297514,9437847,0,0.37689134,0.42042422,0.013174448,0.070972286,0.0075089755,1.1754944e-38,0.0,0.0,0.0,0.0,1310996,1310996,6620172,197644,0,0,831,2,1,2,0,5,0,0,0,0,0,0,0
855660000,855580000,0.00010303722,0.014504475,0.029046047,9437847,0,0.39471632,0.42648527,0.011095032,0.070972286,0.0075089755,1.1754944e-38,0.0,0.0,0.0,0.0,1310996,1310996,6620172,197644,0,0,831,2,1,2,0,5,0,0,0,0,0,0,0
855860000,855780000,0.0006547381,0.026096167,0.041420978,9437847,0,0.38853687,0.42614684,0.00089471944,0.07612633,0.0068504154,0.0027290406,0.0,0.0,0.0,0.0,1310996,1310996,6620172,197644,0,0,831,2,1,2,0,5,0,0,0,0,0,0,0
856060000,855980000,0.0035277277,0.0945021,0.122660905,9437927,0,0.3829304,0.4227768,0.05229437,0.3358695,0.015232548,1.1754944e-38,0.0,0.0,0.0,0.0,1310996,1310996,6620172,197644,0,0,831,2,1,2,0,5,0,0,0,0,0,0,0
856260000,856180000,0.0060733994,0.10891691,0.13269871,9437927,0,0.37815902,0.4225586,0.031596966,0.19588572,0.0069054007,0.0045539523,0.0,0.0,0.0,0.0,1310996,1310996,6620172,197644,0,0,831,2,1,2,0,5,0,0,0,0,0,0,0
856460000,856380000,0.008475796,0.12964092,0.13650425,9437927,0,0.3738548,0.42233643,0.023515338,0.24461824,0.0078079714,1.1754944e-38,0.0,0.0,0.0,0.0,1310996,1310996,6620172,197644,0,0,831,2,1,2,0,5,0,0,0,0,0,0,0
856660000,856580000,0.007938853,0.13324757,0.13290286,9437927,0,0.3699625,0.41907945,0.011167963,0.24500868,0.0077153007,1.1754944e-38,0.0,0.0,0.0,0.0,1310996,1310996,6620172,197644,0,0,831,2,1,2,0,5,0,0,0,0,0,0,0
856860000,856780000,0.00067863666,0.050270133,0.06291151,9437927,0,0.3881682,0.42394882,0.0052511473,0.24500868,0.0077153007,0.0056954017,0.0,0.0,0.0,0.0,1310996,1310996,6620172,197644,0,0,831,2,1,2,0,5,0,0,0,0,0,0,0
857060000,856980000,0.005020818,0.07543334,0.09531066,9437927,0,0.38270527,0.42351896,0.012267053,0.20587018,0.0195945,0.0025578712,0.0,0.0,0.0,0.0,1310996,1310996,6620172,197644,0,0,831,2,1,2,0,5,0,0,0,0,0,0,0
857260000,857180000,0.0003564169,0.028266862,0.046424814,9437927,0,0.40310448,0.42513183,0.04800892,0.20587018,0.0195945,0.012395822,0.0,0.0,0.0,0.0,1310996,1310996,6620172,197644,0,0,831,2,1,2,0,5,0,0,0,0,0,0,0
857460000,857380000,0.0029087828,0.064264104,0.10747372,9437927,0,0.39539772,0.4245489,0.01984867,0.16247667,0.026436973,0.0048670415,0.0,0.0,0.0,0.0,1310996,1310996,6620172,197644,0,0,831,2,1,2,0,5,0,0,0,0,0,0,0
857660000,857580000,0.0017639255,0.06458637,0.11796703,9437927,0,0.38898107,0.4239932,0.03960605,0.14879085,0.02492179,0.005661065,0.0,0.0,0.0,0.0,1310996,1310996,6620172,197644,0,0,831,2,1,2,0,5,0,0,0,0,0,0,0
857860000,857780000,0.00096077356,0.062231954,0.11570306,9437927,0,0.3833439,0.42040193,0.037573043,0.14894743,0.016856516,0.008444414,0.0,0.0,0.0,0.0,1310996,1310996,6620172,197644,0,0,831,2,1,2,0,5,0,0,0,0,0,0,0
858060000,857980000,0.0007963303,0.060002815,0.10578126,9437927,0,0.37834963,0.41990888,0.018092081,0.1426678,0.01569412,0.002501466,0.0,0.0,0.0,0.0,1310996,1310996,6620172,197644,0,0,831,2,1,2,0,5,0,0,0,0,0,0,0
858260000,858180000,8.093872e-05,0.035716616,0.05806995,9437927,0,0.39657667,0.42388296,0.032443248,0.1426678,0.01569412,0.0018662866,0.0,0.0,0.0,0.0,1310996,1310996,6620172,197644,0,0,831,2,1,2,0,5,0,0,0,0,0,0,0
858460000,858380000,0.00072165555,0.048251454,0.07504821,9437927,0,0.39014456,0.42025718,0.01914394,0.10710555,0.022922011,0.0018698456,0.0,0.0,0.0,0.0,1310996,1310996,6620172,197644,0,0,831,2,1,2,0,5,0,0,0,0,0,0,0
858660000,858580000,0.00063127297,0.04960823,0.076783195,9437927,0,0.3844994,0.41975704,0.046279594,0.09272823,0.02042864,0.008312733,0.0,0.0,0.0,0.0,1310996,1310996,6620172,197644,0,0,831,2,1,2,0,5,0,0,0,0,0,0,0
858860000,858780000,0.0010567015,0.05283002,0.0768816,9437927,0,0.37949046,0.4163257,0.023747506,0.08985692,0.017237376,0.0036863864,0.0,0.0,0.0,0.0,1310996,1310996,6620172,197644,0,0,831,2,1,2,0,5,0,0,0,0,0,0,0
859060000,858980000,0.0011283818,0.059746843,0.084480315,9437927,0,0.37501505,0.41593543,0.097935356,0.11100089,0.018053234,1.1754944e-38,0.0,0.0,0.0,0.0,1310996,1310996,6620172,197644,0,0,831,2,1,2,0,5,0,0,0,0,0,0,0
859260000,859180000,0.001189676,0.057911143,0.08195127,9437927,0,0.37100452,0.41559798,0.050353996,0.10301273,0.01337166,0.004880991,0.0,0.0,0.0,0.0,1310996,1310996,6620172,197644,0,0,831,2,1,2,0,5,0,0,0,0,0,0,0
859460000,859380000,2.174167e-05,0.03104699,0.047900297,9437927,0,0.38853374,0.4162998,0.047849197,0.10301273,0.01337166,0.0028206334,0.0,0.0,0.0,0.0,1310996,1310996,6620172,197644,0,0,831,2,1,2,0,5,0,0,0,0,0,0,0
859660000,859580000,0.0017560669,0.045641907,0.065198995,9437927,0,0.3830809,0.41591156,0.04805189,0.124605104,0.014633324,0.0065359003,0.0,0.0,0.0,0.0,1310996,1310996,6620172,197644,0,0,831,2,1,2,0,5,0,0,0,0,0,0,0
859860000,859780000,6.481436e-05,0.02578218,0.040340975,9437927,0,0.4023961,0.41957727,0.036923386,0.124605104,0.014633324,0.006247136,0.0,0.0,0.0,0.0,1310996,1310996,6620172,197644,0,0,831,2,1,2,0,5,0,0,0,0,0,0,0
860060000,859980000,0.0019290976,0.04587165,0.068820156,9437927,0,0.39496928,0.4161472,0.023977952,0.13339327,0.013179192,0.005973747,0.0,0.0,0.0,0.0,1310996,1310996,6620172,197644,0,0,831,2,1,2,0,5,0,0,0,0,0,0,0
860260000,860180000,0.0017038647,0.050383326,0.07692426,9437927,0,0.38849947,0.41573665,0.025887916,0.12166126,0.013091224,0.006053685,0.0,0.0,0.0,0.0,1310996,1310996,6620172,197644,0,0,831,2,1,2,0,5,0,0,0,0,0,0,0
860460000,860380000,0.0011429096,0.04446034,0.070128694,9437927,0,0.38285002,0.41535518,0.009150744,0.087862514,0.01005943,0.009099805,0.0,0.0,0.0,0.0,1310996,1310996,6620172,197644,0,0,831,2,1,2,0,5,0,0,0,0,0,0,0
860660000,860580000,0.00090122205,0.03726801,0.059291128,9437927,0,0.3779218,0.4121173,0.02477805,0.08834046,0.010135499,0.004289566,0.0,0.0,0.0,0.0,1310996,1310996,6620172,197644,0,0,831,2,1,2,0,5,0,0,0,0,0,0,0
860860000,860780000,5.6404344e-05,0.015908152,0.028745728,9437927,0,0.3964047,0.4155357,0.030771015,0.08834046,0.010135499,0.008725609,0.0,0.0,0.0,0.0,1310996,1310996,6620172,197644,0,0,831,2,1,2,0,5,0,0,0,0,0,0,0
861060000,860980000,0.00055952056,0.019723635,0.035827093,9437927,0,0.38996673,0.41517994,0.021566093,0.099099144,0.0067107994,0.010343572,0.0,0.0,0.0,0.0,1310996,1310996,6620172,197644,0,0,831,2,1,2,0,5,0,0,0,0,0,0,0
861260000,861180000,0.0004720508,0.018873492,0.033785377,9437927,0,0.38433668,0.4119812,0.005275546,0.05991792,0.0065563153,0.008824218,0.0,0.0,0.0,0.0,1310996,1310996,6620172,197644,0,0,831,2,1,2,0,5,0,0,0,0,0,0,0
861460000,861380000,0.00023393174,0.0139405625,0.028344529,9437927,0,0.37935585,0.4117489,0.012085618,0.06702536,0.0067129824,0.013477587,0.0,0.0,0.0,0.0,1310996,1310996,6620172,197644,0,0,831,2,1,2,0,5,0,0,0,0,0,0,0
861660000,861580000,0.00025745257,0.011199967,0.023365831,9437927,0,0.3749082,0.4087831,0.013643384,0.050901275,0.0056274277,0.011986856,0.0,0.0,0.0,0.0,1310996,1310996,6620172,197644,0,0,831,2,1,2,0,5,0,0,0,0,0,0,0
861860000,861780000,0.0001550127,0.0080781905,0.018037518,9437927,0,0.3709073,0.40868908,0.024467774,0.062069148,0.004232177,0.0062162997,0.0,0.0,0.0,0.0,1310996,1310996,6620172,197644,0,0,831,2,1,2,0,5,0,0,0,0,0,0,0
862060000,861980000,2.4725405e-05,0.0050372602,0.013083889,9437927,0,0.38869232,0.4123408,0.011235538,0.062069148,0.004232177,0.014471679,0.0,0.0,0.0,0.0,1310996,1310996,6620172,197644,0,0,831,2,1,2,0,5,0,0,0,0,0,0,0
862260000,862180000,0.00013906969,0.0047540623,0.014381945,9437927,0,0.38321826,0.40949762,0.027001306,0.063427866,0.0032311874,0.012168827,0.0,0.0,0.0,0.0,1310996,1310996,6620172,197644,0,0,831,2,1,2,0,5,0,0,0,0,0,0,0
862460000,862380000,1.3446827e-05,0.006426326,0.015163273,9437927,0,0.40262026,0.41353652,0.024878297,0.063427866,0.0032311874,0.010610723,0.0,0.0,0.0,0.0,1310996,1310996,6620172,197644,0,0,831,2,1,2,0,5,0,0,0,0,0,0,0
862660000,862580000,0.0001271345,0.005654738,0.015853431,9437927,0,0.39515853,0.41070786,0.011064351,0.07201208,0.004658753,0.015027466,0.0,0.0,0.0,0.0,1310996,1310996,6620172,197644,0,0,831,2,1,2,0,5,0,0,0,0,0,0,0
862860000,862780000,0.00013108616,0.009369933,0.024240136,9437927,0,0.3886562,0.41080818,0.028743342,0.08368388,0.0019047657,0.01487812,0.0,0.0,0.0,0.0,1310996,1310996,6620172,197644,0,0,831,2,1,2,0,5,0,0,0,0,0,0,0
863060000,862980000,9.674129e-05,0.0075728414,0.0191397,9437847,0,0.38305235,0.41096032,0.006456552,0.06059325,0.0031811357,0.007895962,0.0,0.0,0.0,0.0,1310996,1310996,6620172,197644,0,0,831,2,1,2,0,5,0,0,0,0,0,0,0
863260000,863180000,7.984034e-05,0.008122239,0.02131446,9437847,0,0.37802827,0.408355,0.0041941795,0.062451713,0.0010576592,0.009409151,0.0,0.0,0.0,0.0,1310996,1310996,6620172,197644,0,0,831,2,1,2,0,5,0,0,0,0,0,0,0
863460000,863380000,4.697553e-05,0.0052113524,0.012031705,9437847,0,0.39656785,0.41295567,0.0093614375,0.062451713,0.0010576592,0.013956634,0.0,0.0,0.0,0.0,1310996,1310996,6620172,197644,0,0,831,2,1,2,0,5,0,0,0,0,0,0,0
863660000,863580000,2.2542712e-05,0.008276035,0.018759267,9437847,0,0.39010847,0.41033435,0.0058634947,0.07715297,0.0035294977,0.011958541,0.0,0.0,0.0,0.0,1310996,1310996,6620172,197644,0,0,831,2,1,2,0,5,0,0,0,0,0,0,0
863860000,863780000,0.00015686182,0.008896556,0.02110534,9437847,0,0.38445905,0.41063452,0.011246252,0.08425207,0.0029726943,0.010286691,0.0,0.0,0.0,0.0,1310996,1310996,6620172,197644,0,0,831,2,1,2,0,5,0,0,0,0,0,0,0
864060000,863980000,4.765708e-05,0.009653303,0.024237875,9437847,0,0.37946174,0.40821162,0.0017700383,0.070271544,0.002526604,0.013345859,0.0,0.0,0.0,0.0,1310996,1310996,6620172,197644,0,0,831,2,1,2,0,5,0,0,0,0,0,0,0
864260000,864180000,1.7341623e-05,0.010988467,0.025937807,9437847,0,0.37500334,0.4086557,0.003019197,0.07807179,0.0020994714,0.018434297,0.0,0.0,0.0,0.0,1310996,1310996,6620172,197644,0,0,831,2,1,2,0,5,0,0,0,0,0,0,0
864460000,864380000,6.1579565e-05,0.009249275,0.022101846,9437847,0,0.37099472,0.4091241,0.011857785,0.06817589,0.0025641657,0.014675461,0.0,0.0,0.0,0.0,1310996,1310996,6620172,197644,0,0,831,2,1,2,0,5,0,0,0,0,0,0,0
864660000,864580000,0.00010347736,0.004547304,0.009399438,9437847,0,0.388743,0.41161564,0.01434068,0.06817589,0.0025641657,0.016165175,0.0,0.0,0.0,0.0,1310996,1310996,6620172,197644,0,0,831,2,1,2,0,5,0,0,0,0,0,0,0
864860000,864780000,1.3074809e-05,0.006278174,0.01321431,9437847,0,0.38327077,0.41208452,0.0006527361,0.074176304,0.0034530023,0.019359874,0.0,0.0,0.0,0.0,1310996,1310996,6620172,197644,0,0,831,2,1,2,0,5,0,0,0,0,0,0,0
865060000,864980000,1.1572283e-05,0.005327979,0.010033642,9437847,0,0.40243325,0.41501606,0.0045361873,0.074176304,0.0034530023,0.017831448,0.0,0.0,0.0,0.0,1310996,1310996,6620172,197644,0,0,831,2,1,2,0,5,0,0,0,0,0,0,0
865260000,865180000,5.51414e-05,0.0061386446,0.013295526,9437847,0,0.3949684,0.41535655,0.007800016,0.068838395,0.0028415495,0.018282188,0.0,0.0,0.0,0.0,1310996,1310996,6620172,197644,0,0,831,2,1,2,0,5,0,0,0,0,0,0,0
865460000,865380000,0.0001406868,0.008504396,0.018296052,8389271,0,0.38851997,0.4157178,0.029819177,0.0753513,0.0037390415,0.019162523,0.0,0.0,0.0,0.0,1310996,1310996,6620172,197644,0,0,831,2,1,2,0,5,0,0,0,0,0,0,0
865660000,865580000,6.401815e-05,0.010906781,0.024503348,8389271,0,0.3828743,0.41322094,0.023755591,0.07183198,0.004645188,0.016264766,0.0,0.0,0.0,0.0,1310996,1310996,6620172,197644,0,0,831,2,1,2,0,5,0,0,0,0,0,0,0
865860000,865780000,8.756076e-05,0.0110396715,0.022966383,8389271,0,0.37787428,0.41365832,0.0073644356,0.05981277,0.0039188196,0.015844237,0.0,0.0,0.0,0.0,1310996,1310996,6620172,197644,0,0,831,2,1,2,0,5,0,0,0,0,0,0,0
866060000,865980000,6.0500657e-05,0.0053019035,0.009903479,8389271,0,0.39608508,0.41684404,0.013415151,0.05981277,0.0039188196,0.016216232,0.0,0.0,0.0,0.0,1310996,1310996,6620172,197644,0,0,831,2,1,2,0,5,0,0,0,0,0,0,0
866260000,866180000,5.6372483e-05,0.0058343573,0.011260897,8389271,0,0.38971978,0.41714263,0.013161024,0.057632226,0.0052590324,0.01745897,0.0,0.0,0.0,0.0,1310996,1310996,6620172,197644,0,0,831,2,1,2,0,5,0,0,0,0,0,0,0
866460000,866380000,3.0508923e-05,0.0053110747,0.011502556,8389271,0,0.38412976,0.41453877,0.0039873524,0.059873432,0.0048334016,0.010739302,0.0,0.0,0.0,0.0,1310996,1310996,6620172,197644,0,0,831,2,1,2,0,5,0,0,0,0,0,0,0
866660000,866580000,0.00012405922,0.00594935,0.012668982,8389271,0,0.37917027,0.41492498,0.044291228,0.054039594,0.0060681608,0.015518672,0.0,0.0,0.0,0.0,1310996,1310996,6620172,197644,0,0,831,2,1,2,0,5,0,0,0,0,0,0,0
866860000,866780000,5.8261427e-05,0.005339582,0.0101313405,8389271,0,0.37473398,0.41533348,0.0078527555,0.05441291,0.0052930294,0.015116902,0.0,0.0,0.0,0.0,1310996,1310996,6620172,197644,0,0,831,2,1,2,0,5,0,0,0,0,0,0,0
867060000,866980000,0.00011884894,0.007503283,0.014598698,8389271,0,0.3707391,0.41286087,0.012905649,0.06916436,0.0061274003,0.008023065,0.0,0.0,0.0,0.0,1310996,1310996,6620172,197644,0,0,831,2,1,2,0,5,0,0,0,0,0,0,0
867260000,867180000,5.8419264e-06,0.003594197,0.008976428,8389271,0,0.38814852,0.4191022,0.004754217,0.06916436,0.0061274003,0.015057658,0.0,0.0,0.0,0.0,1310996,1310996,6620172,197644,0,0,831,2,1,2,0,5,0,0,0,0,0,0,0
867460000,867380000,8.244947e-05,0.0035892727,0.0067033255,8389271,0,0.3827587,0.41637868,0.012654235,0.052565727,0.005158227,0.009173367,0.0,0.0,0.0,0.0,1310996,1310996,6620172,197644,0,0,831,2,1,2,0,5,0,0,0,0,0,0,0
867660000,867580000,5.5503955e-05,0.0057885386,0.014841684,8389271,0,0.40148354,0.42295328,0.029073076,0.052565727,0.005158227,0.009552095,0.0,0.0,0.0,0.0,1310996,1310996,6620172,197644,0,0,831,2,1,2,0,5,0,0,0,0,0,0,0
867860000,867780000,6.434442e-05,0.0015697667,0.0034705878,8389271,0,0.3942028,0.41993037,0.0020396686,0.054040536,0.007291504,0.020041557,0.0,0.0,0.0,0.0,1310996,1310996,6620172,197644,0,0,831,2,1,2,0,5,0,0,0,0,0,0,0
868060000,867980000,6.8728055e-05,0.002468727,0.0056699202,8389271,0,0.38788003,0.4200402,0.011801055,0.031888332,0.0070714466,0.011034021,0.0,0.0,0.0,0.0,1310996,1310996,6620172,197644,0,0,831,2,1,2,0,5,0,0,0,0,0,0,0
868260000,868180000,0.00014439956,0.0050798776,0.010258249,8389271,0,0.38231975,0.4172089,0.0016747637,0.029526476,0.006924758,0.007449468,0.0,0.0,0.0,0.0,1310996,1310996,6620172,197644,0,0,831,2,1,2,0,5,0,0,0,0,0,0,0
868460000,868380000,9.402517e-05,0.0038737128,0.009166709,8389271,0,0.37744513,0.4174798,0.018134838,0.025164576,0.0054778093,0.013219606,0.0,0.0,0.0,0.0,1310996,1310996,6620172,197644,0,0,831,2,1,2,0,5,0,0,0,0,0,0,0
868660000,868580000,2.1786116e-05,0.00567702,0.014959368,8389271,0,0.39536518,0.4210153,0.01650063,0.025164576,0.0054778093,0.007333359,0.0,0.0,0.0,0.0,1310996,1310996,6620172,197644,0,0,831,2,1,2,0,5,0,0,0,0,0,0,0
868860000,868780000,0.000104182305,0.0025922852,0.008376514,8389271,0,0.38910726,0.4210853,0.013146045,0.0360988,0.0026312699,0.009253844,0.0,0.0,0.0,0.0,1310996,1310996,6620172,197644,0,0,831,2,1,2,0,5,0,0,0,0,0,0,0
869060000,868980000,6.468082e-05,0.004644124,0.0142069915,8389271,0,0.38359457,0.42117795,0.0058667944,0.012994215,0.0028704738,0.0077288626,0.0,0.0,0.0,0.0,1310996,1310996,6620172,197644,0,0,831,2,1,2,0,5,0,0,0,0,0,0,0
869260000,869180000,8.908561e-05,0.005523298,0.014025641,8389271,0,0.3786926,0.41828057,0.007214321,0.0099127805,0.0030457452,0.008056034,0.0,0.0,0.0,0.0,1310996,1310996,6620172,197644,0,0,831,2,1,2,0,5,0,0,0,0,0,0,0
869460000,869380000,0.0001184725,0.004699127,0.011640102,8389271,0,0.37430072,0.41844428,0.0003395554,0.022070888,0.0025024242,0.0069596153,0.0,0.0,0.0,0.0,1310996,1310996,6620172,197644,0,0,831,2,1,2,0,5,0,0,0,0,0,0,0
869660000,869580000,8.7539775e-05,0.004979435,0.01320778,8389271,0,0.3703409,0.41862422,0.013985203,0.013947546,0.00081131235,0.008375334,0.0,0.0,0.0,0.0,1310996,1310996,6620172,197644,0,0,831,2,1,2,0,5,0,0,0,0,0,0,0
869860000,869780000,1.8739192e-05,0.005906882,0.016353257,8389271,0,0.38760084,0.4219332,0.012034053,0.013947546,0.00081131235,0.00931009,0.0,0.0,0.0,0.0,1310996,1310996,6620172,197644,0,0,831,2,1,2,0,5,0,0,0,0,0,0,0
870060000,869980000,0.00014312704,0.0073781805,0.01968437,8389271,0,0.3822776,0.42189848,0.014770557,0.013365657,0.0010332341,0.010143442,0.0,0.0,0.0,0.0,1310996,1310996,6620172,197644,0,0,831,2,1,2,0,5,0,0,0,0,0,0,0
870260000,870180000,4.188638e-05,0.0067277965,0.018154811,8389271,0,0.40087593,0.42848426,0.014650558,0.013365657,0.0010332341,0.018297799,0.0,0.0,0.0,0.0,1310996,1310996,6620172,197644,0,0,831,2,1,2,0,5,0,0,0,0,0,0,0
870460000,870380000,0.000111949324,0.008012788,0.019165764,8389271,0,0.39376554,0.42498168,0.0073898104,0.018013269,0.0012937845,0.005964017,0.0,0.0,0.0,0.0,1310996,1310996,6620172,197644,0,0,831,2,1,2,0,5,0,0,0,0,0,0,0
870660000,870580000,0.00013963932,0.0097290715,0.024150297,8389271,0,0.38757315,0.42473528,0.0095882155,0.015377935,0.002060696,0.00427752,0.0,0.0,0.0,0.0,1310996,1310996,6620172,197644,0,0,831,2,1,2,0,5,0,0,0,0,0,0,0
870860000,870780000,0.00011953385,0.0067819036,0.015921174,8389271,0,0.3820486,0.4245347,0.009176145,0.013411748,0.0006076135,0.014498127,0.0,0.0,0.0,0.0,1310996,1310996,6620172,197644,0,0,831,2,1,2,0,5,0,0,0,0,0,0,0
871060000,870980000,0.000121250894,0.009302238,0.023305098,8389271,0,0.37720293,0.42135212,0.016224012,0.020624693,0.0009240464,0.0030089177,0.0,0.0,0.0,0.0,1310996,1310996,6620172,197644,0,0,831,2,1,2,0,5,0,0,0,0,0,0,0
871260000,871180000,9.0148584e-05,0.006087469,0.016486961,8389271,0,0.39510974,0.42773348,0.003106408,0.020624693,0.0009240464,0.010072381,0.0,0.0,0.0,0.0,1310996,1310996,6620172,197644,0,0,831,2,1,2,0,5,0,0,0,0,0,0,0
871460000,871380000,0.00014238551,0.00839719,0.022049977,8389271,0,0.38888347,0.42741203,0.003837824,0.025465542,0.0033226588,0.008850144,0.0,0.0,0.0,0.0,1310996,1310996,6620172,197644,0,0,831,2,1,2,0,5,0,0,0,0,0,0,0
871660000,871580000,0.00015304958,0.00826097,0.02177702,8389271,0,0.3833985,0.42401534,0.004063505,0.01856877,0.0025655164,0.0005989582,0.0,0.0,0.0,0.0,1310996,1310996,6620172,197644,0,0,831,2,1,2,0,5,0,0,0,0,0,0,0
871860000,871780000,0.00023724962,0.008969318,0.020591341,8389271,0,0.37851986,0.42382494,0.008533213,0.038078118,0.0037774565,0.0027569016,0.0,0.0,0.0,0.0,1310996,1310996,6620172,197644,0,0,831,2,1,2,0,5,0,0,0,0,0,0,0
872060000,871980000,0.00021529893,0.0093771,0.021158155,8389271,0,0.37414825,0.4206571,0.0038974422,0.035011373,0.003873388,0.0008760162,0.0,0.0,0.0,0.0,1310996,1310996,6620172,197644,0,0,831,2,1,2,0,5,0,0,0,0,0,0,0
872260000,872180000,0.00022360458,0.009272362,0.023103612,8389271,0,0.37020704,0.42061394,0.01553828,0.026773417,0.0033380631,0.0025831475,0.0,0.0,0.0,0.0,1310996,1310996,6620172,197644,0,0,831,2,1,2,0,5,0,0,0,0,0,0,0
872460000,872380000,9.075227e-05,0.00423625,0.013503288,8389271,0,0.38750136,0.4268022,0.010892601,0.026773417,0.0033380631,0.005444237,0.0,0.0,0.0,0.0,1310996,1310996,6620172,197644,0,0,831,2,1,2,0,5,0,0,0,0,0,0,0
872660000,872580000,0.00022858096,0.007760861,0.019489441,8389271,0,0.38218996,0.4234233,0.021607812,0.033113465,0.0025286577,0.002207141,0.0,0.0,0.0,0.0,1310996,1310996,6620172,197644,0,0,831,2,1,2,0,5,0,0,0,0,0,0,0
872860000,872780000,6.846997e-05,0.0034967642,0.010463116,8389271,0,0.40083444,0.4297839,0.0016875925,0.033113465,0.0025286577,0.0059885117,0.0,0.0,0.0,0.0,1310996,1310996,6620172,197644,0,0,831,2,1,2,0,5,0,0,0,0,0,0,0
873060000,872980000,0.00018120225,0.004675634,0.010869259,8389271,0,0.39364645,0.42926785,0.010177698,0.024715511,0.007010708,0.00313558,0.0,0.0,0.0,0.0,1310996,1310996,6620172,197644,0,0,831,2,1,2,0,5,0,0,0,0,0,0,0
873260000,873180000,0.00022681255,0.0073141423,0.017068034,8389271,0,0.38746825,0.42565715,0.009195526,0.036092803,0.0062657758,0.0022199505,0.0,0.0,0.0,0.0,1310996,1310996,6620172,197644,0,0,831,2,1,2,0,5,0,0,0,0,0,0,0
873460000,873380000,0.0001699735,0.006676883,0.016279962,8389271,0,0.3819564,0.42530718,0.0021816797,0.021480827,0.0048909867,0.0033166953,0.0,0.0,0.0,0.0,1310996,1310996,6620172,197644,0,0,831,2,1,2,0,5,0,0,0,0,0,0,0
873660000,873580000,0.00019251023,0.007280836,0.01669593,8389271,0,0.37705776,0.42502004,0.0077988924,0.03505558,0.0045173373,0.0048955358,0.0,0.0,0.0,0.0,1310996,1310996,6620172,197644,0,0,831,2,1,2,0,5,0,0,0,0,0,0,0
873860000,873780000,2.7901036e-05,0.0019725577,0.0057685426,8389271,0,0.39498323,0.4280507,0.0018605954,0.03505558,0.0045173373,0.0008576163,0.0,0.0,0.0,0.0,1310996,1310996,6620172,197644,0,0,831,2,1,2,0,5,0,0,0,0,0,0,0
874060000,873980000,0.00017886295,0.005731668,0.014080458,8389271,0,0.3887723,0.42758647,0.012919882,0.032640085,0.0068064416,0.004882911,0.0,0.0,0.0,0.0,1310996,1310996,6620172,197644,0,0,831,2,1,2,0,5,0,0,0,0,0,0,0
874260000,874180000,0.00017685215,0.006944155,0.018085288,8389271,0,0.38330114,0.4271952,0.022113789,0.032809813,0.0077340007,2.5965757e-05,0.0,0.0,0.0,0.0,1310996,1310996,6620172,197644,0,0,831,2,1,2,0,5,0,0,0,0,0,0,0
874460000,874380000,0.00019131399,0.004986307,0.011536179,8389271,0,0.37843543,0.4237307,0.00061189994,0.03418831,0.0064614126,0.0042480505,0.0,0.0,0.0,0.0,1310996,1310996,6620172,197644,0,0,831,2,1,2,0,5,0,0,0,0,0,0,0
874660000,874580000,0.00013551582,0.005034154,0.012385799,8389271,0,0.37407386,0.42348176,0.0034987973,0.023795974,0.0064602806,0.004680191,0.0,0.0,0.0,0.0,1310996,1310996,6620172,197644,0,0,831,2,1,2,0,5,0,0,0,0,0,0,0
874860000,874780000,7.6123164e-05,0.0033936126,0.009877397,8389271,0,0.37014118,0.42328778,0.009619707,0.011801669,0.009215229,0.0020693012,0.0,0.0,0.0,0.0,1310996,1310996,6620172,197644,0,0,831,2,1,2,0,5,0,0,0,0,0,0,0
875060000,874980000,2.484557e-05,0.0025035457,0.0068065235,8389271,0,0.38745567,0.4261674,0.009241082,0.011801669,0.009215229,0.00053658657,0.0,0.0,0.0,0.0,1310996,1310996,6620172,197644,0,0,831,2,1,2,0,5,0,0,0,0,0,0,0
875260000,875180000,0.0002805185,0.0061454833,0.012342078,8389271,0,0.38214922,0.42579815,0.0024858569,0.051415432,0.010978355,0.0022572526,0.0,0.0,0.0,0.0,1310996,1310996,6620172,197644,0,0,831,2,1,2,0,5,0,0,0,0,0,0,0
875460000,875380000,2.1253263e-05,0.0013230427,0.0053731333,8389271,0,0.4008148,0.4320601,0.0014856171,0.051415432,0.010978355,0.0023988364,0.0,0.0,0.0,0.0,1310996,1310996,6620172,197644,0,0,831,2,1,2,0,5,0,0,0,0,0,0,0
875660000,875580000,0.0004128973,0.011366665,0.020486405,8389271,0,0.3936228,0.4281926,0.014914559,0.06937999,0.01492643,0.0019307085,0.0,0.0,0.0,0.0,1310996,1310996,6620172,197644,0,0,831,2,1,2,0,5,0,0,0,0,0,0,0
875860000,875780000,0.00039952897,0.014161927,0.02492221,8389271,0,0.38744217,0.42769408,0.004425242,0.062588744,0.011410618,0.00086114544,0.0,0.0,0.0,0.0,1310996,1310996,6620172,197644,0,0,831,2,1,2,0,5,0,0,0,0,0,0,0
876060000,875980000,0.00032384985,0.0135277985,0.026303055,8389271,0,0.38200033,0.4241473,0.0148779005,0.05797043,0.0077986596,0.0042331833,0.0,0.0,0.0,0.0,1310996,1310996,6620172,197644,0,0,831,2,1,2,0,5,0,0,0,0,0,0,0
876260000,876180000,0.0002912035,0.011227082,0.021897633,8389271,0,0.3770973,0.42383012,0.007610515,0.04895031,0.008378233,0.005608772,0.0,0.0,0.0,0.0,1310996,1310996,6620172,197644,0,0,831,2,1,2,0,5,0,0,0,0,0,0,0
876460000,876380000,6.627109e-05,0.0008257268,0.0037570894,8389351,0,0.39504826,0.42991564,0.019982534,0.04895031,0.008378233,0.0028602309,0.0,0.0,0.0,0.0,1310996,1310996,6620172,197644,0,0,831,2,1,2,0,5,0,0,0,0,0,0,0
876660000,876580000,0.00017757756,0.0036945532,0.010629577,8389351,0,0.3887933,0.4262031,0.010618982,0.02700635,0.008852394,0.00535622,0.0,0.0,0.0,0.0,1310996,1310996,6620172,197644,0,0,831,2,1,2,0,5,0,0,0,0,0,0,0
876860000,876780000,5.5276585e-05,0.004969272,0.01141557,8389351,0,0.38329834,0.42578742,0.016846651,0.021566676,0.006634592,0.0030075856,0.0,0.0,0.0,0.0,1310996,1310996,6620172,197644,0,0,831,2,1,2,0,5,0,0,0,0,0,0,0
877060000,876980000,0.0001490519,0.007094886,0.0149978995,8389351,0,0.37842512,0.4254366,0.012514962,0.021673251,0.00653315,0.0036907382,0.0,0.0,0.0,0.0,1310996,1310996,6620172,197644,0,0,831,2,1,2,0,5,0,0,0,0,0,0,0
877260000,877180000,0.00018945395,0.007923004,0.013970633,8389351,0,0.3740574,0.42203465,0.007907331,0.023355149,0.0053434256,0.00083354267,0.0,0.0,0.0,0.0,1310996,1310996,6620172,197644,0,0,831,2,1,2,0,5,0,0,0,0,0,0,0
877460000,877380000,8.0726546e-05,0.008254552,0.014970631,8389351,0,0.3701229,0.42181292,0.0037502053,0.008852627,0.003929221,0.00027093635,0.0,0.0,0.0,0.0,1310996,1310996,6620172,197644,0,0,831,2,1,2,0,5,0,0,0,0,0,0,0
877660000,877580000,5.750447e-05,0.007121981,0.014408185,8389351,0,0.38743636,0.42767906,0.02831031,0.008852627,0.003929221,0.0034212875,0.0,0.0,0.0,0.0,1310996,1310996,6620172,197644,0,0,831,2,1,2,0,5,0,0,0,0,0,0,0
877860000,877780000,7.417201e-05,0.0071761166,0.014514835,8389351,0,0.3820624,0.4241601,0.024166927,0.027536135,0.0032912581,0.00023801878,0.0,0.0,0.0,0.0,1310996,1310996,6620172,197644,0,0,831,2,1,2,0,5,0,0,0,0,0,0,0
878060000,877980000,6.302981e-05,0.0059830807,0.012517134,8389351,0,0.4006796,0.43024647,0.0135511495,0.027536135,0.0032912581,0.0032452357,0.0,0.0,0.0,0.0,1310996,1310996,6620172,197644,0,0,831,2,1,2,0,5,0,0,0,0,0,0,0
878260000,878180000,0.00016199047,0.008168802,0.016182886,8389351,0,0.39351097,0.42649204,0.03850188,0.01699735,0.0010643058,0.0061255354,0.0,0.0,0.0,0.0,1310996,1310996,6620172,197644,0,0,831,2,1,2,0,5,0,0,0,0,0,0,0
878460000,878380000,0.00016047372,0.009668269,0.01904082,8389351,0,0.38727748,0.42604867,0.0058421516,0.023124825,0.00030400848,0.00070105755,0.0,0.0,0.0,0.0,1310996,1310996,6620172,197644,0,0,831,2,1,2,0,5,0,0,0,0,0,0,0
878660000,878580000,0.00013623192,0.010879031,0.020741528,8389351,0,0.38179138,0.42566672,0.013476398,0.025778882,0.0017957661,0.005052812,0.0,0.0,0.0,0.0,1310996,1310996,6620172,197644,0,0,831,2,1,2,0,5,0,0,0,0,0,0,0
878860000,878780000,0.00019742895,0.014731257,0.025598105,8389351,0,0.37692046,0.42228577,0.01829182,0.037689563,0.0031809246,0.0076605375,0.0,0.0,0.0,0.0,1310996,1310996,6620172,197644,0,0,831,2,1,2,0,5,0,0,0,0,0,0,0
879060000,878980000,5.4146647e-05,0.0091425525,0.015841762,8389351,0,0.39470342,0.4282781,0.0038703529,0.037689563,0.0031809246,0.0021471947,0.0,0.0,0.0,0.0,1310996,1310996,6620172,197644,0,0,831,2,1,2,0,5,0,0,0,0,0,0,0
879260000,879180000,0.00031505243,0.015210032,0.02781554,8389351,0,0.38853565,0.4278493,0.06839025,0.060877707,0.008001213,0.005224301,0.0,0.0,0.0,0.0,1310996,1310996,6620172,197644,0,0,831,2,1,2,0,5,0,0,0,0,0,0,0
879460000,879380000,0.00033126585,0.016725346,0.031928454,8389351,0,0.38309222,0.4243498,0.015255945,0.052475747,0.0059641595,0.0032873044,0.0,0.0,0.0,0.0,1310996,1310996,6620172,197644,0,0,831,2,1,2,0,5,0,0,0,0,0,0,0
879660000,879580000,0.00017466524,0.010938766,0.024731886,8389351,0,0.37823957,0.4240939,0.033439778,0.02647956,0.0063072275,0.0002692065,0.0,0.0,0.0,0.0,1310996,1310996,6620172,197644,0,0,831,2,1,2,0,5,0,0,0,0,0,0,0
879860000,879780000,0.00018092751,0.009787439,0.021484386,9437927,0,0.37390038,0.4208701,0.016912768,0.023222579,0.006799709,1.1754944e-38,0.0,0.0,0.0,0.0,1310996,1310996,6620172,197644,0,0,831,2,1,2,0,5,0,0,0,0,0,0,0
880060000,879980000,0.00023647687,0.011123916,0.021100888,9437847,0,0.3699764,0.4207991,0.01924333,0.029989678,0.0060487804,1.1754944e-38,0.0,0.0,0.0,0.0,1310996,1310996,6620172,197644,0,0,831,2,1,2,0,5,0,0,0,0,0,0,0
880260000,880180000,6.382801e-05,0.0052634366,0.009484185,9437847,0,0.38695288,0.42362428,0.02434264,0.029989678,0.0060487804,1.1754944e-38,0.0,0.0,0.0,0.0,1310996,1310996,6620172,197644,0,0,831,2,1,2,0,5,0,0,0,0,0,0,0
880460000,880380000,0.0002717394,0.009497646,0.018625053,9437927,0,0.3816925,0.42338958,0.01937506,0.041494746,0.009095661,1.1754944e-38,0.0,0.0,0.0,0.0,1310996,1310996,6620172,197644,0,0,831,2,1,2,0,5,0,0,0,0,0,0,0
880660000,880580000,2.8400676e-05,0.0028497933,0.007374812,9437927,0,0.39991394,0.42955375,0.0062743705,0.041494746,0.009095661,1.1754944e-38,0.0,0.0,0.0,0.0,1310996,1310996,6620172,197644,0,0,831,2,1,2,0,5,0,0,0,0,0,0,0
880860000,880780000,0.0006335036,0.013287097,0.025999198,9437927,0,0.3928203,0.42587203,0.018609347,0.061739933,0.010793617,1.1754944e-38,0.0,0.0,0.0,0.0,1310996,1310996,6620172,197644,0,0,831,2,1,2,0,5,0,0,0,0,0,0,0
881060000,880980000,0.00056829886,0.014043238,0.027244383,9437927,0,0.3866426,0.42547926,0.01265478,0.04923653,0.009937498,1.1754944e-38,0.0,0.0,0.0,0.0,1310996,1310996,6620172,197644,0,0,831,2,1,2,0,5,0,0,0,0,0,0,0
881260000,881180000,0.0003834816,0.012894956,0.024962265,9437927,0,0.38121215,0.42515156,0.014514387,0.045604974,0.0089133885,1.1754944e-38,0.0,0.0,0.0,0.0,1310996,1310996,6620172,197644,0,0,831,2,1,2,0,5,0,0,0,0,0,0,0
881460000,881380000,0.00023164753,0.009240543,0.020006638,9437927,0,0.37637228,0.42177933,0.0056183487,0.025255991,0.009821882,0.0041945837,0.0,0.0,0.0,0.0,1310996,1310996,6620172,197644,0,0,831,2,1,2,0,5,0,0,0,0,0,0,0
881660000,881580000,6.768775e-05,0.0026673502,0.0071099643,9437927,0,0.3940528,0.42781255,0.013779274,0.025255991,0.009821882,1.1754944e-38,0.0,0.0,0.0,0.0,1310996,1310996,6620172,197644,0,0,831,2,1,2,0,5,0,0,0,0,0,0,0
881860000,881780000,0.00031457283,0.005292451,0.010808745,9437927,0,0.38795254,0.4274187,0.008885288,0.038991556,0.010064026,1.1754944e-38,0.0,0.0,0.0,0.0,1310996,1310996,6620172,197644,0,0,831,2,1,2,0,5,0,0,0,0,0,0,0
882060000,881980000,0.00023444562,0.006759992,0.014353244,9437927,0,0.3825628,0.42395523,0.019235577,0.039207894,0.009918952,1.1754944e-38,0.0,0.0,0.0,0.0,1310996,1310996,6620172,197644,0,0,831,2,1,2,0,5,0,0,0,0,0,0,0
882260000,882180000,6.0957645e-05,0.0055108094,0.014040159,9437927,0,0.3777641,0.42371204,0.0025898316,0.026278066,0.0070499163,1.1754944e-38,0.0,0.0,0.0,0.0,1310996,1310996,6620172,197644,0,0,831,2,1,2,0,5,0,0,0,0,0,0,0
882460000,882380000,8.00851e-05,0.002442844,0.0070109647,9437927,0,0.37345913,0.4235149,0.037359796,0.017614413,0.006433952,1.1754944e-38,0.0,0.0,0.0,0.0,1310996,1310996,6620172,197644,0,0,831,2,1,2,0,5,0,0,0,0,0,0,0
882660000,882580000,0.00014037592,0.0032836765,0.0048542805,9437927,0,0.36957535,0.42031392,0.013614849,0.010366899,0.005767738,1.1754944e-38,0.0,0.0,0.0,0.0,1310996,1310996,6620172,197644,0,0,831,2,1,2,0,5,0,0,0,0,0,0,0
882860000,882780000,6.12525e-05,0.0047271885,0.009512574,9437927,0,0.3866877,0.4262542,0.010893628,0.010366899,0.005767738,1.1754944e-38,0.0,0.0,0.0,0.0,1310996,1310996,6620172,197644,0,0,831,2,1,2,0,5,0,0,0,0,0,0,0
883060000,882980000,5.9008922e-05,0.0038073908,0.007846089,9437927,0,0.3814632,0.4228362,0.023667892,0.01827142,0.0068847574,1.1754944e-38,0.0,0.0,0.0,0.0,1310996,1310996,6620172,197644,0,0,831,2,1,2,0,5,0,0,0,0,0,0,0
883260000,883180000,4.1104886e-05,0.004318356,0.009532043,9437927,0,0.39987716,0.42902693,0.012959015,0.01827142,0.0068847574,1.1754944e-38,0.0,0.0,0.0,0.0,1310996,1310996,6620172,197644,0,0,831,2,1,2,0,5,0,0,0,0,0,0,0
