timestamp,time_utc_usec,device_id,lat,lon,alt,alt_ellipsoid,s_variance_m_s,c_variance_rad,eph,epv,hdop,vdop,noise_per_ms,jamming_indicator,vel_m_s,vel_n_m_s,vel_e_m_s,vel_d_m_s,cog_rad,timestamp_time_relative,heading,heading_offset,heading_accuracy,automatic_gain_control,fix_type,jamming_state,vel_ned_valid,satellites_used
829792000,1694470181435612,0,416066999,-863556156,229267,229267,0.25,0.5,1.0,1.0,0.0,0.0,0,0,0.0,0.0,0.01,-0.049999997,1.1643091,0,nan,nan,0.0,0,3,0,1,10
830624000,1694470182267612,0,416066999,-863556155,229270,229270,0.25,0.5,1.0,1.0,0.0,0.0,0,0,0.0,0.0,0.0,0.0,2.5005333,0,nan,nan,0.0,0,3,0,1,10
831820000,1694470183467612,0,416066999,-863556156,229273,229273,0.25,0.5,1.0,1.0,0.0,0.0,0,0,0.0,0.01,-0.01,0.0,5.565506,0,nan,nan,0.0,0,3,0,1,10
832808000,1694470184455612,0,416066999,-863556156,229280,229280,0.25,0.5,1.0,1.0,0.0,0.0,0,0,0.0,0.0,0.01,0.0,2.0961404,0,nan,nan,0.0,0,3,0,1,10
833600000,1694470185243612,0,416067000,-863556156,229272,229272,0.25,0.5,1.0,1.0,0.0,0.0,0,0,0.0,0.03,0.0,-0.04,6.153158,0,nan,nan,0.0,0,3,0,1,10
834992000,1694470186635612,0,416067000,-863556155,229266,229266,0.25,0.5,1.0,1.0,0.0,0.0,0,0,0.0,0.01,0.02,-0.02,1.1102039,0,nan,nan,0.0,0,3,0,1,10
835824000,1694470187467612,0,416067000,-863556156,229271,229271,0.25,0.5,1.0,1.0,0.0,0.0,0,0,0.0,0.0,0.0,-0.02,4.20188,0,nan,nan,0.0,0,3,0,1,10
836812000,1694470188459612,0,416066999,-863556156,229269,229269,0.25,0.5,1.0,1.0,0.0,0.0,0,0,0.0,0.0,0.01,0.049999997,1.7217673,0,nan,nan,0.0,0,3,0,1,10
837800000,1694470189447612,0,416066997,-863556157,229625,229625,0.25,0.5,1.0,1.0,0.0,0.0,0,0,0.049999997,-0.04,-0.049999997,-1.17,4.053004,0,nan,nan,0.0,0,3,0,1,10
838800000,1694470190443611,0,416066994,-863556160,230873,230873,0.25,0.5,1.0,1.0,0.0,0.0,0,0,0.02,-0.03,0.0,-0.82,3.1450832,0,nan,nan,0.0,0,3,0,1,10
839828000,1694470191475612,0,416066991,-863556159,231384,231384,0.25,0.5,1.0,1.0,0.0,0.0,0,0,0.03,-0.01,0.01,-0.28,2.322335,0,nan,nan,0.0,0,3,0,1,10
840816000,1694470192459612,0,416066990,-863556155,231467,231467,0.25,0.5,1.0,1.0,0.0,0.0,0,0,0.03,-0.04,0.02,0.08,2.6241024,0,nan,nan,0.0,0,3,0,1,10
841804000,1694470193451612,0,416066990,-863556128,231630,231630,0.25,0.5,1.0,1.0,0.0,0.0,0,0,0.68,0.089999996,0.65999997,-0.44,1.4227923,0,nan,nan,0.0,0,3,0,1,10
842792000,1694470194439612,0,416067003,-863555961,232227,232227,0.25,0.5,1.0,1.0,0.0,0.0,0,0,2.02,0.13,2.01,-0.66999996,1.5020303,0,nan,nan,0.0,0,3,0,1,10
843624000,1694470195271612,0,416067010,-863555731,232790,232790,0.25,0.5,1.0,1.0,0.0,0.0,0,0,2.45,0.04,2.46,-0.68,1.5538666,0,nan,nan,0.0,0,3,0,1,10
844820000,1694470196467612,0,416067003,-863555367,233537,233537,0.25,0.5,1.0,1.0,0.0,0.0,0,0,2.54,-0.08,2.53,-0.58,1.6043066,0,nan,nan,0.0,0,3,0,1,10
845812000,1694470197451612,0,416066993,-863555066,234140,234140,0.25,0.5,1.0,1.0,0.0,0.0,0,0,2.53,-0.11,2.54,-0.69,1.6158257,0,nan,nan,0.0,0,3,0,1,10
846604000,1694470198247612,0,416066986,-863554824,234644,234644,0.25,0.5,1.0,1.0,0.0,0.0,0,0,2.49,-0.08,2.48,-0.65999997,1.6048301,0,nan,nan,0.0,0,3,0,1,10
847992000,1694470199639612,0,416066981,-863554408,235608,235608,0.25,0.5,1.0,1.0,0.0,0.0,0,0,2.47,-0.01,2.48,-0.71999997,1.574985,0,nan,nan,0.0,0,3,0,1,10
848824000,1694470200471612,0,416066982,-863554159,236238,236238,0.25,0.5,1.0,1.0,0.0,0.0,0,0,2.48,0.01,2.48,-0.72999996,1.5660839,0,nan,nan,0.0,0,3,0,1,10
849812000,1694470201459612,0,416066982,-863553862,236976,236976,0.25,0.5,1.0,1.0,0.0,0.0,0,0,2.47,0.0,2.47,-0.75,1.5714945,0,nan,nan,0.0,0,3,0,1,10
850800000,1694470202443611,0,416066982,-863553572,237650,237650,0.25,0.5,1.0,1.0,0.0,0.0,0,0,2.25,0.0,2.25,-0.28,1.5748105,0,nan,nan,0.0,0,3,0,1,10
851800000,1694470203447612,0,416066972,-863553425,237394,237394,0.25,0.5,1.0,1.0,0.0,0.0,0,0,0.22,-0.22999999,-0.01,0.69,3.2042499,0,nan,nan,0.0,0,3,0,1,10
852828000,1694470204475612,0,416066950,-863553531,236764,236764,0.25,0.5,1.0,1.0,0.0,0.0,0,0,1.25,-0.14,-1.26,0.62,4.600862,0,nan,nan,0.0,0,3,0,1,10
853816000,1694470205463611,0,416066955,-863553648,236155,236155,0.25,0.5,1.0,1.0,0.0,0.0,0,0,0.77,0.22999999,-0.72999996,0.59,5.022534,0,nan,nan,0.0,0,3,0,1,10
854804000,1694470206451612,0,416066977,-863553708,235488,235488,0.25,0.5,1.0,1.0,0.0,0.0,0,0,0.34,0.22999999,-0.24,0.64,5.4733524,0,nan,nan,0.0,0,3,0,1,10
855792000,1694470207435612,0,416066992,-863553718,234822,234822,0.25,0.5,1.0,1.0,0.0,0.0,0,0,0.099999994,0.089999996,0.049999997,0.65,0.5030039,0,nan,nan,0.0,0,3,0,1,10
856624000,1694470208267612,0,416067012,-863553401,237258,237258,0.25,0.5,1.0,1.0,0.0,0.0,0,0,5.8399997,0.45,5.83,-3.6599998,1.4929546,0,nan,nan,0.0,0,3,0,1,10
857820000,1694470209467612,0,416067027,-863552535,240943,240943,0.25,0.5,1.0,1.0,0.0,0.0,0,0,4.62,-0.12,4.6,-1.5,1.5976744,0,nan,nan,0.0,0,3,0,1,10
858808000,1694470210455612,0,416066999,-863552170,241618,241618,0.25,0.5,1.0,1.0,0.0,0.0,0,0,1.9,-0.44,1.8199999,-0.29,1.8123498,0,nan,nan,0.0,0,3,0,1,10
859596000,1694470211243612,0,416066975,-863552089,241655,241655,0.25,0.5,1.0,1.0,0.0,0.0,0,0,0.29,-0.17999999,-0.21,0.13,4.0006437,0,nan,nan,0.0,0,3,0,1,10
860992000,1694470212635612,0,416066970,-863552168,241671,241671,0.25,0.5,1.0,1.0,0.0,0.0,0,0,0.31,0.099999994,-0.29,-0.16,5.045747,0,nan,nan,0.0,0,3,0,1,10
861824000,1694470213467612,0,416066980,-863552182,241770,241770,0.25,0.5,1.0,1.0,0.0,0.0,0,0,0.14999999,0.16,0.0,-0.08,6.2611938,0,nan,nan,0.0,0,3,0,1,10
862812000,1694470214459612,0,416066993,-863552176,241860,241860,0.25,0.5,1.0,1.0,0.0,0.0,0,0,0.11,0.07,0.06,-0.12,0.7326892,0,nan,nan,0.0,0,3,0,1,10
863800000,1694470215447612,0,416066996,-863552168,241960,241960,0.25,0.5,1.0,1.0,0.0,0.0,0,0,0.06,0.0,0.06,-0.089999996,1.6313592,0,nan,nan,0.0,0,3,0,1,10
864800000,1694470216443611,0,416066998,-863552164,242009,242009,0.25,0.5,1.0,1.0,0.0,0.0,0,0,0.02,0.01,0.01,-0.02,0.7244861,0,nan,nan,0.0,0,3,0,1,10
865828000,1694470217475612,0,416067000,-863552162,242028,242028,0.25,0.5,1.0,1.0,0.0,0.0,0,0,0.02,0.03,0.01,0.0,0.35098568,0,nan,nan,0.0,0,3,0,1,10
866816000,1694470218459612,0,416067001,-863552160,242005,242005,0.25,0.5,1.0,1.0,0.0,0.0,0,0,0.01,0.0,0.01,0.03,1.9156733,0,nan,nan,0.0,0,3,0,1,10
867804000,1694470219451612,0,416067000,-863552158,241930,241930,0.25,0.5,1.0,1.0,0.0,0.0,0,0,0.0,-0.02,-0.01,0.02,3.6229544,0,nan,nan,0.0,0,3,0,1,10
868792000,1694470220439612,0,416066999,-863552160,241870,241870,0.25,0.5,1.0,1.0,0.0,0.0,0,0,0.02,-0.01,-0.01,0.04,3.8931313,0,nan,nan,0.0,0,3,0,1,10
869624000,1694470221271612,0,416066998,-863552162,241793,241793,0.25,0.5,1.0,1.0,0.0,0.0,0,0,0.03,-0.01,0.0,0.07,3.585779,0,nan,nan,0.0,0,3,0,1,10
870820000,1694470222467612,0,416066997,-863552167,241721,241721,0.25,0.5,1.0,1.0,0.0,0.0,0,0,0.04,-0.01,-0.03,0.02,4.335223,0,nan,nan,0.0,0,3,0,1,10
871808000,1694470223451612,0,416066995,-863552171,241660,241660,0.25,0.5,1.0,1.0,0.0,0.0,0,0,0.03,-0.04,-0.02,0.0,3.6498325,0,nan,nan,0.0,0,3,0,1,10
872596000,1694470224243612,0,416066994,-863552171,241618,241618,0.25,0.5,1.0,1.0,0.0,0.0,0,0,0.02,-0.02,0.0,0.06,2.997603,0,nan,nan,0.0,0,3,0,1,10
873992000,1694470225639612,0,416066991,-863552170,241574,241574,0.25,0.5,1.0,1.0,0.0,0.0,0,0,0.03,-0.01,0.04,0.04,1.9797269,0,nan,nan,0.0,0,3,0,1,10
874824000,1694470226471612,0,416066987,-863552168,241537,241537,0.25,0.5,1.0,1.0,0.0,0.0,0,0,0.049999997,-0.01,0.02,0.0,2.1436133,0,nan,nan,0.0,0,3,0,1,10
875812000,1694470227451612,0,416067001,-863552158,241563,241563,0.25,0.5,1.0,1.0,0.0,0.0,0,0,0.62,0.61,0.13,-0.14999999,0.2206096,0,nan,nan,0.0,0,3,0,1,10
876800000,1694470228443611,0,416067128,-863552140,241688,241688,0.25,0.5,1.0,1.0,0.0,0.0,0,0,2.06,2.07,0.17,-0.089999996,0.08325221,0,nan,nan,0.0,0,3,0,1,10
877804000,1694470229447612,0,416067341,-863552120,241759,241759,0.25,0.5,1.0,1.0,0.0,0.0,0,0,2.51,2.49,0.19,0.0,0.07644542,0,nan,nan,0.0,0,3,0,1,10
878828000,1694470230475612,0,416067577,-863552094,241768,241768,0.25,0.5,1.0,1.0,0.0,0.0,0,0,2.49,2.48,0.19999999,0.02,0.082205005,0,nan,nan,0.0,0,3,0,1,10
879812000,1694470231463611,0,416067733,-863552073,241633,241633,0.25,0.5,1.0,1.0,0.0,0.0,0,0,1.09,1.0799999,0.13,0.28,0.1277581,0,nan,nan,0.0,0,3,0,1,10
880804000,1694470232451612,0,416067780,-863552060,240827,240827,0.25,0.5,1.0,1.0,0.0,0.0,0,0,0.16,-0.14999999,0.08,1.1,2.6352725,0,nan,nan,0.0,0,3,0,1,10
881792000,1694470233435612,0,416067750,-863552056,239943,239943,0.25,0.5,1.0,1.0,0.0,0.0,0,0,0.39999998,-0.41,-0.01,0.83,3.1885421,0,nan,nan,0.0,0,3,0,1,10
882624000,1694470234267612,0,416067721,-863552062,239213,239213,0.25,0.5,1.0,1.0,0.0,0.0,0,0,0.32999998,-0.32,-0.11,0.91999996,3.4686673,0,nan,nan,0.0,0,3,0,1,10
883820000,1694470235467612,0,416067701,-863552074,238123,238123,0.25,0.5,1.0,1.0,0.0,0.0,0,0,0.08,-0.04,-0.06,0.85999995,4.073773,0,nan,nan,0.0,0,3,0,1,10
884808000,1694470236455612,0,416067702,-863552078,237252,237252,0.25,0.5,1.0,1.0,0.0,0.0,0,0,0.04,0.02,-0.03,0.87,5.2110295,0,nan,nan,0.0,0,3,0,1,10
885600000,1694470237243612,0,416067704,-863552080,236584,236584,0.25,0.5,1.0,1.0,0.0,0.0,0,0,0.02,0.04,-0.01,0.79999995,5.880189,0,nan,nan,0.0,0,3,0,1,10
886992000,1694470238635612,0,416067704,-863552082,235487,235487,0.25,0.5,1.0,1.0,0.0,0.0,0,0,0.0,0.0,0.0,0.75,5.265833,0,nan,nan,0.0,0,3,0,1,10
887824000,1694470239467612,0,416067703,-863552081,234886,234886,0.25,0.5,1.0,1.0,0.0,0.0,0,0,0.03,-0.02,0.0,0.75,2.9626963,0,nan,nan,0.0,0,3,0,1,10
888812000,1694470240459612,0,416067700,-863552079,234201,234201,0.25,0.5,1.0,1.0,0.0,0.0,0,0,0.03,-0.03,0.0,0.69,3.144036,0,nan,nan,0.0,0,3,0,1,10
889800000,1694470241447612,0,416067698,-863552076,233534,233534,0.25,0.5,1.0,1.0,0.0,0.0,0,0,0.02,0.0,0.0,0.71,3.240029,0,nan,nan,0.0,0,3,0,1,10
890800000,1694470242443611,0,416067697,-863552075,232847,232847,0.25,0.5,1.0,1.0,0.0,0.0,0,0,0.01,-0.01,0.01,0.68,2.2485077,0,nan,nan,0.0,0,3,0,1,10
891828000,1694470243475612,0,416067697,-863552074,232142,232142,0.25,0.5,1.0,1.0,0.0,0.0,0,0,0.01,0.0,0.01,0.7,1.4631095,0,nan,nan,0.0,0,3,0,1,10
892816000,1694470244459612,0,416067699,-863552073,231473,231473,0.25,0.5,1.0,1.0,0.0,0.0,0,0,0.02,0.01,0.0,0.62,0.26843163,0,nan,nan,0.0,0,3,0,1,10
893804000,1694470245451612,0,416067701,-863552073,230822,230822,0.25,0.5,1.0,1.0,0.0,0.0,0,0,0.01,0.01,-0.01,0.68,5.5157638,0,nan,nan,0.0,0,3,0,1,10
894792000,1694470246439612,0,416067702,-863552074,230138,230138,0.25,0.5,1.0,1.0,0.0,0.0,0,0,0.01,0.01,-0.02,0.66999996,5.257281,0,nan,nan,0.0,0,3,0,1,10
895624000,1694470247271612,0,416067703,-863552074,229575,229575,0.25,0.5,1.0,1.0,0.0,0.0,0,0,0.02,0.02,0.01,0.62,0.41922805,0,nan,nan,0.0,0,3,0,1,10
896820000,1694470248467612,0,416067705,-863552074,229275,229275,0.25,0.5,1.0,1.0,0.0,0.0,0,0,0.0,0.0,-0.01,0.0,5.086762,0,nan,nan,0.0,0,3,0,1,10
897808000,1694470249451612,0,416067705,-863552075,229265,229265,0.25,0.5,1.0,1.0,0.0,0.0,0,0,0.0,0.01,0.0,-0.02,0.07138396,0,nan,nan,0.0,0,3,0,1,10
898596000,1694470250247612,0,416067705,-863552074,229270,229270,0.25,0.5,1.0,1.0,0.0,0.0,0,0,0.0,0.0,0.01,-0.06,1.025381,0,nan,nan,0.0,0,3,0,1,10
899992000,1694470251639612,0,416067705,-863552075,229267,229267,0.25,0.5,1.0,1.0,0.0,0.0,0,0,0.0,-0.01,0.0,0.0,3.2403781,0,nan,nan,0.0,0,3,0,1,10
