timestamp,roll,pitch,yaw,thrust_body[0],thrust_body[1],thrust_body[2]
829264000,-0.14313143,-0.14065607,0.00041523075,0.0,0.0,-0.001
829268000,-0.14304164,-0.14042553,0.00045145163,0.0,0.0,-0.001
829284000,-0.14227054,-0.1399977,0.00035200696,0.0,0.0,-0.001
829300000,-0.14106944,-0.14004445,0.00032134715,0.0,0.0,-0.001
829324000,-0.14166678,-0.13969585,0.0003687169,0.0,0.0,-0.001
829344000,-0.14154054,-0.14006631,0.00029723856,0.0,0.0,-0.001
829364000,-0.14126682,-0.14009783,0.00020140619,0.0,0.0,-0.001
829380000,-0.14047498,-0.13987303,0.0004687977,0.0,0.0,-0.001
829404000,-0.13933384,-0.13936016,0.00035286264,0.0,0.0,-0.001
829424000,-0.1389583,-0.13899972,0.00034505222,0.0,0.0,-0.001
829440000,-0.13912174,-0.13890098,0.0003636926,0.0,0.0,-0.001
829460000,-0.13902202,-0.13881479,0.00035645362,0.0,0.0,-0.001
829484000,-0.13912535,-0.13867182,0.00033673554,0.0,0.0,-0.001
829500000,-0.14007284,-0.13845299,0.0003213615,0.0,0.0,-0.001
829520000,-0.13992783,-0.13842762,0.0003566664,0.0,0.0,-0.001
829544000,-0.13995036,-0.13814117,0.00032909706,0.0,0.0,-0.001
829564000,-0.14104418,-0.1379878,0.00029938685,0.0,0.0,-0.001
829580000,-0.14065546,-0.13769692,0.00018878636,0.0,0.0,-0.001
829604000,-0.1410766,-0.1371786,0.0003906618,0.0,0.0,-0.001
829624000,-0.14165084,-0.13689724,0.00029888237,0.0,0.0,-0.001
829640000,-0.14141774,-0.136616,0.00036463386,0.0,0.0,-0.001
829664000,-0.14119935,-0.13683349,0.00033719363,0.0,0.0,-0.001
829680000,-0.14053433,-0.13611461,0.00030093436,0.0,0.0,-0.001
829704000,-0.14079824,-0.13565087,0.00027724422,0.0,0.0,-0.001
829720000,-0.1415876,-0.13486205,0.00021626198,0.0,0.0,-0.001
829740000,-0.14184022,-0.13488182,0.00043192192,0.0,0.0,-0.001
829760000,-0.14222102,-0.13448367,0.0003261629,0.0,0.0,-0.001
829784000,-0.14177392,-0.13456139,0.0002863301,0.0,0.0,-0.001
829800000,-0.1417813,-0.13476436,0.00032191095,0.0,0.0,-0.001
829820000,-0.14255357,-0.13482179,0.00029497824,0.0,0.0,-0.001
829844000,-0.14265272,-0.13461548,0.00043774856,0.0,0.0,-0.001
829864000,-0.14328472,-0.13382632,0.0003852343,0.0,0.0,-0.001
829884000,-0.14359006,-0.13423175,0.00026858444,0.0,0.0,-0.001
829900000,-0.14366354,-0.13437471,0.00020874504,0.0,0.0,-0.001
829924000,-0.14507666,-0.1346453,0.0003185016,0.0,0.0,-0.001
829940000,-0.14487267,-0.13457431,0.00023322314,0.0,0.0,-0.001
829964000,-0.14449011,-0.13444068,0.0004235877,0.0,0.0,-0.001
829980000,-0.1446402,-0.13430835,0.000284512,0.0,0.0,-0.001
830004000,-0.14512955,-0.13475242,0.00032554058,0.0,0.0,-0.001
830020000,-0.14437316,-0.13494775,0.00030886935,0.0,0.0,-0.001
830044000,-0.14405943,-0.1346193,0.000429635,0.0,0.0,-0.001
830064000,-0.14370102,-0.13496377,0.00031763525,0.0,0.0,-0.001
830080000,-0.14336291,-0.13546085,0.00034145504,0.0,0.0,-0.001
830104000,-0.14289762,-0.1353054,0.00028386846,0.0,0.0,-0.001
830124000,-0.14268552,-0.13571607,0.0003552025,0.0,0.0,-0.001
830144000,-0.14152433,-0.13648058,0.00025415755,0.0,0.0,-0.001
830160000,-0.14131889,-0.13630566,0.00032687362,0.0,0.0,-0.001
830180000,-0.14111745,-0.13637128,0.0003609252,0.0,0.0,-0.001
830204000,-0.14060652,-0.13693418,0.0003355482,0.0,0.0,-0.001
830220000,-0.1407378,-0.13681974,0.00037553423,0.0,0.0,-0.001
830244000,-0.14165264,-0.13654521,0.00025194808,0.0,0.0,-0.001
830260000,-0.14120993,-0.13662371,0.0002416074,0.0,0.0,-0.001
830284000,-0.14107949,-0.13674529,0.00029110195,0.0,0.0,-0.001
830304000,-0.14160523,-0.13700232,0.00035378258,0.0,0.0,-0.001
830324000,-0.14152439,-0.13748361,0.00021220492,0.0,0.0,-0.001
830344000,-0.14092223,-0.13713595,0.0003438121,0.0,0.0,-0.001
830360000,-0.14106275,-0.13728598,0.0003567009,0.0,0.0,-0.001
830380000,-0.14173092,-0.1371069,0.00029679187,0.0,0.0,-0.001
830404000,-0.14145662,-0.13677612,0.00037943167,0.0,0.0,-0.001
830424000,-0.14219129,-0.13718572,0.00030241348,0.0,0.0,-0.001
830444000,-0.14160977,-0.1369614,0.00030717926,0.0,0.0,-0.001
830464000,-0.14167255,-0.13731876,0.0003497925,0.0,0.0,-0.001
830484000,-0.14146996,-0.13745688,0.00039381985,0.0,0.0,-0.001
830504000,-0.14064603,-0.13741472,0.00035103306,0.0,0.0,-0.001
830520000,-0.13990429,-0.137211,0.0003223335,0.0,0.0,-0.001
830540000,-0.13950633,-0.13703856,0.0003262954,0.0,0.0,-0.001
830564000,-0.13932636,-0.13706882,0.0003694833,0.0,0.0,-0.001
830584000,-0.13912578,-0.13691382,0.0003423473,0.0,0.0,-0.001
830600000,-0.13947411,-0.13710198,0.00029521406,0.0,0.0,-0.001
830620000,-0.13960958,-0.1369819,0.00028027172,0.0,0.0,-0.001
830644000,-0.13876657,-0.13722284,0.0003495175,0.0,0.0,-0.001
830660000,-0.13960777,-0.13684873,0.00035914584,0.0,0.0,-0.001
830680000,-0.13889755,-0.1366089,0.00031989766,0.0,0.0,-0.001
830704000,-0.1392646,-0.13718787,0.00032008038,0.0,0.0,-0.001
830724000,-0.14019123,-0.13784207,0.00031992944,0.0,0.0,-0.001
830744000,-0.13997371,-0.13808213,0.00033638976,0.0,0.0,-0.001
830764000,-0.14051901,-0.13757604,0.00021359063,0.0,0.0,-0.001
830780000,-0.14023125,-0.13788383,0.0002787267,0.0,0.0,-0.001
830800000,-0.14071275,-0.13740323,0.0003558347,0.0,0.0,-0.001
830820000,-0.14039777,-0.1372111,0.00034314216,0.0,0.0,-0.001
830844000,-0.14066792,-0.13690205,0.0002173486,0.0,0.0,-0.001
830860000,-0.14028108,-0.13710396,0.00026166035,0.0,0.0,-0.001
830884000,-0.14019,-0.1370163,0.00039379142,0.0,0.0,-0.001
830900000,-0.13996439,-0.13687323,0.00036075694,0.0,0.0,-0.001
830920000,-0.14015147,-0.13728425,0.00036009133,0.0,0.0,-0.001
830940000,-0.1392402,-0.13762127,0.00037021146,0.0,0.0,-0.001
830964000,-0.13905466,-0.1378805,0.00037688354,0.0,0.0,-0.001
830984000,-0.13844855,-0.13759959,0.00031059058,0.0,0.0,-0.001
831004000,-0.13829729,-0.13744068,0.00023674166,0.0,0.0,-0.001
831020000,-0.13824052,-0.13742438,0.00042965222,0.0,0.0,-0.001
831044000,-0.1382081,-0.13744982,0.00026583378,0.0,0.0,-0.001
831060000,-0.13796577,-0.13757849,0.00049542764,0.0,0.0,-0.001
831080000,-0.13743487,-0.13791358,0.00034112416,0.0,0.0,-0.001
831104000,-0.1371627,-0.13768218,0.0003404415,0.0,0.0,-0.001
831124000,-0.13733613,-0.13792805,0.00029250994,0.0,0.0,-0.001
831144000,-0.13795936,-0.13741659,0.0003307478,0.0,0.0,-0.001
831160000,-0.13774335,-0.13755211,0.00033784483,0.0,0.0,-0.001
831180000,-0.13789533,-0.13826409,0.00028173008,0.0,0.0,-0.001
831200000,-0.13819623,-0.13900104,0.00039291813,0.0,0.0,-0.001
831220000,-0.13799092,-0.13954571,0.00037625642,0.0,0.0,-0.001
831244000,-0.13724509,-0.1399248,0.0003956427,0.0,0.0,-0.001
831260000,-0.13819952,-0.13959606,0.00025978917,0.0,0.0,-0.001
831284000,-0.13767512,-0.13975511,0.00035709038,0.0,0.0,-0.001
831304000,-0.13662717,-0.14002098,0.0003095271,0.0,0.0,-0.001
831324000,-0.13754934,-0.14053136,0.000261021,0.0,0.0,-0.001
831340000,-0.13660699,-0.1406031,0.00029302886,0.0,0.0,-0.001
831360000,-0.13672651,-0.14084344,0.00029458402,0.0,0.0,-0.001
831384000,-0.13662145,-0.14090458,0.0003289998,0.0,0.0,-0.001
831400000,-0.13632378,-0.14108887,0.0003279222,0.0,0.0,-0.001
831420000,-0.13609727,-0.14137742,0.00021203663,0.0,0.0,-0.001
831444000,-0.13684142,-0.14167356,0.00033780315,0.0,0.0,-0.001
831460000,-0.13597186,-0.14116865,0.00024627228,0.0,0.0,-0.001
831480000,-0.136385,-0.14152224,0.00032398256,0.0,0.0,-0.001
831504000,-0.13591675,-0.14183094,0.00033883427,0.0,0.0,-0.001
831520000,-0.13565359,-0.14226896,0.00032516973,0.0,0.0,-0.001
831544000,-0.13481502,-0.14249562,0.00031516512,0.0,0.0,-0.001
831564000,-0.13517903,-0.14253205,0.00024840195,0.0,0.0,-0.001
831580000,-0.1347214,-0.14267561,0.00035923827,0.0,0.0,-0.001
831604000,-0.13599536,-0.14272918,0.00035690865,0.0,0.0,-0.001
831620000,-0.13570984,-0.14319897,0.0003365878,0.0,0.0,-0.001
831640000,-0.13449726,-0.14334075,0.00037077576,0.0,0.0,-0.001
831660000,-0.1349268,-0.1434389,0.00030496897,0.0,0.0,-0.001
831684000,-0.13449228,-0.14337696,0.000330698,0.0,0.0,-0.001
831704000,-0.13414882,-0.14410995,0.0003894609,0.0,0.0,-0.001
831720000,-0.13446033,-0.14443894,0.00031948608,0.0,0.0,-0.001
831744000,-0.1332283,-0.14464724,0.00037698852,0.0,0.0,-0.001
831760000,-0.13285619,-0.14513999,0.00033921015,0.0,0.0,-0.001
831784000,-0.13262883,-0.14535697,0.0002473556,0.0,0.0,-0.001
831804000,-0.13244951,-0.14515999,0.00028201795,0.0,0.0,-0.001
831824000,-0.13301052,-0.14555852,0.00027072814,0.0,0.0,-0.001
831840000,-0.13341711,-0.14601353,0.00030357356,0.0,0.0,-0.001
831860000,-0.13289094,-0.14625365,0.00025580014,0.0,0.0,-0.001
831884000,-0.1325793,-0.14617544,0.00042763902,0.0,0.0,-0.001
831900000,-0.13306302,-0.14623052,0.0002638628,0.0,0.0,-0.001
831924000,-0.1324264,-0.1464191,0.0002841302,0.0,0.0,-0.001
831944000,-0.13280094,-0.14664625,0.00035588627,0.0,0.0,-0.001
831964000,-0.13250321,-0.14700273,0.00035069234,0.0,0.0,-0.001
831984000,-0.1317391,-0.14629298,0.00029885757,0.0,0.0,-0.001
832000000,-0.1318466,-0.14668491,0.0003471685,0.0,0.0,-0.001
832024000,-0.1313582,-0.14665167,0.00032187096,0.0,0.0,-0.001
832044000,-0.1308489,-0.14726812,0.0003409214,0.0,0.0,-0.001
832064000,-0.13165034,-0.14735945,0.00034919326,0.0,0.0,-0.001
832080000,-0.13128293,-0.14724648,0.00037878,0.0,0.0,-0.001
832100000,-0.1309132,-0.14668857,0.00022262892,0.0,0.0,-0.001
832120000,-0.13143694,-0.14638884,0.00027384007,0.0,0.0,-0.001
832144000,-0.13174787,-0.14598444,0.00036738208,0.0,0.0,-0.001
832160000,-0.13211364,-0.145703,0.00030868364,0.0,0.0,-0.001
832184000,-0.13249546,-0.14576268,0.00031693463,0.0,0.0,-0.001
832200000,-0.13177833,-0.14580241,0.00024821085,0.0,0.0,-0.001
832220000,-0.13170402,-0.14570299,0.00038403546,0.0,0.0,-0.001
832240000,-0.1320433,-0.1457419,0.00032415346,0.0,0.0,-0.001
832260000,-0.13180111,-0.14545164,0.00027670772,0.0,0.0,-0.001
832284000,-0.13200304,-0.14570712,0.0002788866,0.0,0.0,-0.001
832300000,-0.13216479,-0.14542322,0.00022103335,0.0,0.0,-0.001
832320000,-0.13208206,-0.14525379,0.00031260517,0.0,0.0,-0.001
832340000,-0.13155979,-0.14546023,0.00041849585,0.0,0.0,-0.001
832360000,-0.13185373,-0.14544193,0.00033823756,0.0,0.0,-0.001
832380000,-0.1311193,-0.14547515,0.00034008003,0.0,0.0,-0.001
832404000,-0.13123953,-0.14572652,0.00039204967,0.0,0.0,-0.001
832424000,-0.13243659,-0.14565964,0.00034313684,0.0,0.0,-0.001
832440000,-0.13186215,-0.14561445,0.00033640556,0.0,0.0,-0.001
832464000,-0.13263187,-0.14514732,0.00030358418,0.0,0.0,-0.001
832480000,-0.13339096,-0.14493075,0.00032667993,0.0,0.0,-0.001
832500000,-0.132573,-0.14493789,0.00027292536,0.0,0.0,-0.001
832520000,-0.13286802,-0.1448533,0.0003323447,0.0,0.0,-0.001
832540000,-0.13341081,-0.14532977,0.00029625493,0.0,0.0,-0.001
832560000,-0.13246356,-0.14543472,0.0003662273,0.0,0.0,-0.001
832580000,-0.13254274,-0.14605497,0.00035842403,0.0,0.0,-0.001
832604000,-0.13260813,-0.14650387,0.00035368747,0.0,0.0,-0.001
832624000,-0.13149431,-0.14650933,0.0002951579,0.0,0.0,-0.001
832644000,-0.13157018,-0.14643712,0.00034156023,0.0,0.0,-0.001
832660000,-0.13172507,-0.14601228,0.00034996873,0.0,0.0,-0.001
832680000,-0.13156451,-0.14617202,0.00033474067,0.0,0.0,-0.001
832700000,-0.13179308,-0.14632474,0.00033094236,0.0,0.0,-0.001
832724000,-0.13242905,-0.14655071,0.00032855268,0.0,0.0,-0.001
832744000,-0.13249534,-0.14647126,0.0003280094,0.0,0.0,-0.001
832764000,-0.13260028,-0.14673617,0.00040251296,0.0,0.0,-0.001
832780000,-0.13331056,-0.1466472,0.00038439519,0.0,0.0,-0.001
832804000,-0.13342501,-0.146635,0.00028696677,0.0,0.0,-0.001
832820000,-0.13407686,-0.14672068,0.0001586825,0.0,0.0,-0.001
832840000,-0.13373853,-0.14696023,0.00032233744,0.0,0.0,-0.001
832860000,-0.13373731,-0.14649951,0.00025117182,0.0,0.0,-0.001
832880000,-0.1339806,-0.14682853,0.0003323558,0.0,0.0,-0.001
832900000,-0.13385344,-0.14716527,0.00034199396,0.0,0.0,-0.001
832924000,-0.13428819,-0.14708567,0.000374941,0.0,0.0,-0.001
832940000,-0.13470836,-0.14710952,0.0003359073,0.0,0.0,-0.001
832960000,-0.13413122,-0.14761756,0.00034624097,0.0,0.0,-0.001
832980000,-0.13380732,-0.14787629,0.00027059583,0.0,0.0,-0.001
833000000,-0.1341843,-0.14785251,0.00031433455,0.0,0.0,-0.001
833020000,-0.13346505,-0.14803632,0.0003497526,0.0,0.0,-0.001
833040000,-0.1335746,-0.14825644,0.00036298324,0.0,0.0,-0.001
833060000,-0.1335445,-0.14855497,0.00031656193,0.0,0.0,-0.001
833084000,-0.13338946,-0.1494818,0.0003219247,0.0,0.0,-0.001
833104000,-0.13300532,-0.14995444,0.00034886776,0.0,0.0,-0.001
833124000,-0.13330604,-0.15097782,0.00022023816,0.0,0.0,-0.001
833140000,-0.13346961,-0.15091072,0.0003709237,0.0,0.0,-0.001
833160000,-0.13383336,-0.15043938,0.00032451746,0.0,0.0,-0.001
833180000,-0.13320285,-0.15121037,0.00036936233,0.0,0.0,-0.001
833200000,-0.13334729,-0.15107483,0.0003253419,0.0,0.0,-0.001
833224000,-0.1339985,-0.1506353,0.00033201755,0.0,0.0,-0.001
833240000,-0.13334215,-0.15059185,0.0003742367,0.0,0.0,-0.001
833260000,-0.13283326,-0.1501324,0.00035433017,0.0,0.0,-0.001
833280000,-0.13387439,-0.15025729,0.0004038729,0.0,0.0,-0.001
833300000,-0.13352865,-0.1506438,0.00034485705,0.0,0.0,-0.001
833324000,-0.13353439,-0.15006258,0.00035828588,0.0,0.0,-0.001
833340000,-0.13408522,-0.15018027,0.00034456735,0.0,0.0,-0.001
833360000,-0.13407087,-0.15050657,0.00028505275,0.0,0.0,-0.001
833380000,-0.13407795,-0.15074041,0.0002750521,0.0,0.0,-0.001
833404000,-0.1342593,-0.1513782,0.00038501923,0.0,0.0,-0.001
833420000,-0.13363904,-0.15137726,0.00033188888,0.0,0.0,-0.001
833444000,-0.13399084,-0.15182425,0.00040289352,0.0,0.0,-0.001
833464000,-0.13403028,-0.1525357,0.00037372636,0.0,0.0,-0.001
833480000,-0.1335602,-0.15260567,0.0002934862,0.0,0.0,-0.001
833504000,-0.13391936,-0.15251388,0.00035985297,0.0,0.0,-0.001
833524000,-0.13467261,-0.15275392,0.0003573092,0.0,0.0,-0.001
833540000,-0.1348071,-0.15255894,0.0003141512,0.0,0.0,-0.001
833564000,-0.13518669,-0.15225501,0.00037377301,0.0,0.0,-0.001
833584000,-0.13516158,-0.15177752,0.0003947076,0.0,0.0,-0.001
833604000,-0.1347597,-0.15116848,0.00040763387,0.0,0.0,-0.001
833620000,-0.13471843,-0.15105943,0.0003847399,0.0,0.0,-0.001
833640000,-0.13462974,-0.1509828,0.00033692858,0.0,0.0,-0.001
833660000,-0.1337223,-0.15054591,0.00037312892,0.0,0.0,-0.001
833684000,-0.13387854,-0.1505762,0.00030568172,0.0,0.0,-0.001
833704000,-0.13346942,-0.14998016,0.00030880692,0.0,0.0,-0.001
833724000,-0.13261157,-0.14944318,0.00030569168,0.0,0.0,-0.001
833744000,-0.13296169,-0.14878781,0.0003598208,0.0,0.0,-0.001
833764000,-0.13191067,-0.14905673,0.00023296887,0.0,0.0,-0.001
833780000,-0.1318001,-0.14932534,0.00026377162,0.0,0.0,-0.001
833800000,-0.13235077,-0.14909229,0.00035501926,0.0,0.0,-0.001
833820000,-0.13228573,-0.14885888,0.00038292052,0.0,0.0,-0.001
833840000,-0.13188627,-0.14879203,0.00032049205,0.0,0.0,-0.001
833864000,-0.13319318,-0.1489712,0.00036067923,0.0,0.0,-0.001
833884000,-0.13233058,-0.14880961,0.0002587395,0.0,0.0,-0.001
833904000,-0.13234961,-0.14902224,0.00032698794,0.0,0.0,-0.001
833920000,-0.13309368,-0.14918296,0.00037395154,0.0,0.0,-0.001
833940000,-0.1330492,-0.14910747,0.00028415315,0.0,0.0,-0.001
833960000,-0.13309392,-0.14869682,0.00037267295,0.0,0.0,-0.001
833984000,-0.13341576,-0.14853112,0.00035594104,0.0,0.0,-0.001
834000000,-0.13275991,-0.14856644,0.00035259052,0.0,0.0,-0.001
834024000,-0.1321345,-0.14855741,0.0003636876,0.0,0.0,-0.001
834040000,-0.13242403,-0.14819403,0.00031116753,0.0,0.0,-0.001
834060000,-0.13147011,-0.14884128,0.00024589986,0.0,0.0,-0.001
834080000,-0.13141112,-0.14890145,0.00030808116,0.0,0.0,-0.001
834100000,-0.13189359,-0.14836077,0.0003464536,0.0,0.0,-0.001
834120000,-0.13175495,-0.14845401,0.00038151082,0.0,0.0,-0.001
834140000,-0.13231182,-0.14849526,0.00032032834,0.0,0.0,-0.001
834164000,-0.13329183,-0.14816709,0.00037057468,0.0,0.0,-0.001
834184000,-0.1333864,-0.14844368,0.0004052095,0.0,0.0,-0.001
834204000,-0.13373576,-0.1482251,0.00026247386,0.0,0.0,-0.001
834224000,-0.13299483,-0.14842784,0.0003690848,0.0,0.0,-0.001
834240000,-0.13258477,-0.14835127,0.00038238242,0.0,0.0,-0.001
834260000,-0.13246375,-0.14807601,0.00037894642,0.0,0.0,-0.001
834284000,-0.13338964,-0.14789322,0.00038819612,0.0,0.0,-0.001
834300000,-0.13353892,-0.14796057,0.00036496873,0.0,0.0,-0.001
834320000,-0.13418092,-0.14793848,0.00034026935,0.0,0.0,-0.001
834344000,-0.13445447,-0.14786644,0.0003614687,0.0,0.0,-0.001
834364000,-0.1340215,-0.1481887,0.00036397178,0.0,0.0,-0.001
834384000,-0.13407122,-0.14805917,0.0003143185,0.0,0.0,-0.001
834404000,-0.13357258,-0.14756036,0.00033384562,0.0,0.0,-0.001
834420000,-0.13378377,-0.14750206,0.00025477773,0.0,0.0,-0.001
834444000,-0.1346646,-0.14813262,0.00029461112,0.0,0.0,-0.001
834460000,-0.13454951,-0.14805596,0.00026144393,0.0,0.0,-0.001
834480000,-0.13425559,-0.14840761,0.0002994503,0.0,0.0,-0.001
834504000,-0.13542292,-0.14921106,0.0003700041,0.0,0.0,-0.001
834520000,-0.13457485,-0.14942425,0.00032190836,0.0,0.0,-0.001
834540000,-0.13370843,-0.14902477,0.000374185,0.0,0.0,-0.001
834564000,-0.13488944,-0.14851832,0.00028452388,0.0,0.0,-0.001
834584000,-0.1344393,-0.14941205,0.00036428258,0.0,0.0,-0.001
834600000,-0.13401173,-0.1500329,0.0003395345,0.0,0.0,-0.001
834624000,-0.13407367,-0.15065244,0.00032836696,0.0,0.0,-0.001
834640000,-0.13408524,-0.15080388,0.00040373454,0.0,0.0,-0.001
834660000,-0.13337547,-0.1517102,0.00040752953,0.0,0.0,-0.001
834680000,-0.134536,-0.15208259,0.00031025763,0.0,0.0,-0.001
834704000,-0.13307184,-0.15232915,0.00033447833,0.0,0.0,-0.001
834724000,-0.13258302,-0.15247446,0.00030848375,0.0,0.0,-0.001
834740000,-0.13268158,-0.15251951,0.00037430128,0.0,0.0,-0.001
834760000,-0.13259745,-0.15265897,0.00031288082,0.0,0.0,-0.001
834780000,-0.13265021,-0.1529443,0.00032569858,0.0,0.0,-0.001
834804000,-0.13206159,-0.15246211,0.00022401033,0.0,0.0,-0.001
834824000,-0.13161701,-0.15233967,0.0003498227,0.0,0.0,-0.001
834840000,-0.1319418,-0.15212242,0.0003358908,0.0,0.0,-0.001
834860000,-0.1327406,-0.15206024,0.00035777874,0.0,0.0,-0.001
834884000,-0.13229515,-0.15193206,0.00027248415,0.0,0.0,-0.001
834900000,-0.1333665,-0.15215793,0.00037593476,0.0,0.0,-0.001
834920000,-0.13227001,-0.15251444,0.00038263688,0.0,0.0,-0.001
834944000,-0.13276081,-0.15207627,0.00037178677,0.0,0.0,-0.001
834960000,-0.13363913,-0.15254323,0.0003291896,0.0,0.0,-0.001
834984000,-0.13282008,-0.15272245,0.000414914,0.0,0.0,-0.001
835004000,-0.1333591,-0.15256673,0.00031127327,0.0,0.0,-0.001
835024000,-0.13374378,-0.15186973,0.00028420368,0.0,0.0,-0.001
835044000,-0.1335078,-0.15168469,0.00036325448,0.0,0.0,-0.001
835060000,-0.13398752,-0.15187672,0.00041816305,0.0,0.0,-0.001
835084000,-0.13423455,-0.15197241,0.00057090574,0.0,0.0,-0.001
835100000,-0.13389786,-0.15199654,0.000448137,0.0,0.0,-0.001
835124000,-0.13491088,-0.1521507,0.00030646994,0.0,0.0,-0.001
835140000,-0.1348449,-0.15142156,0.00034892265,0.0,0.0,-0.001
835164000,-0.13416503,-0.15149337,0.00033677672,0.0,0.0,-0.001
835184000,-0.13411078,-0.15113166,0.00032936237,0.0,0.0,-0.001
835200000,-0.1338964,-0.15084802,0.0003194445,0.0,0.0,-0.001
835220000,-0.13476458,-0.15103127,0.000347133,0.0,0.0,-0.001
835240000,-0.13561368,-0.15123679,0.00041797958,0.0,0.0,-0.001
835264000,-0.13587725,-0.15130624,0.00031325128,0.0,0.0,-0.001
835280000,-0.135808,-0.1511548,0.00033527924,0.0,0.0,-0.001
835300000,-0.13633922,-0.15158911,0.00033747172,0.0,0.0,-0.001
835320000,-0.13645098,-0.15055011,0.00036203623,0.0,0.0,-0.001
835344000,-0.13588487,-0.15103926,0.00038756902,0.0,0.0,-0.001
835364000,-0.13629855,-0.15077552,0.0004011863,0.0,0.0,-0.001
835380000,-0.160577,-0.12012745,0.00025246205,0.0,0.0,-0.004430215
835400000,-0.1706802,-0.12370718,0.00025955672,0.0,0.0,-0.007639392
835420000,-0.17046735,-0.1259945,1.224184e-05,0.0,0.0,-0.009652725
835444000,-0.16687065,-0.13013184,7.1382594e-05,0.0,0.0,-0.012706693
835460000,-0.16211778,-0.12989137,0.00023902363,0.0,0.0,-0.01490205
835484000,-0.1573999,-0.12994161,0.0003570734,0.0,0.0,-0.018271929
835500000,-0.16103294,-0.13233806,0.00036401532,0.0,0.0,-0.020668678
835524000,-0.15476404,-0.13091123,0.0005437747,0.0,0.0,-0.024008736
835544000,-0.15728122,-0.12920122,0.00042333076,0.0,0.0,-0.028011749
835564000,-0.15058976,-0.1320023,0.00045456795,0.0,0.0,-0.03007913
835580000,-0.15109341,-0.13483152,0.000261786,0.0,0.0,-0.032835606
835604000,-0.14828135,-0.13329366,0.000131167,0.0,0.0,-0.036718182
835620000,-0.14760755,-0.1291966,-2.3808016e-05,0.0,0.0,-0.039202522
835640000,-0.14921242,-0.13278404,-0.00015308426,0.0,0.0,-0.043517973
835664000,-0.1567651,-0.13730232,-1.4783882e-05,0.0,0.0,-0.047667652
835684000,-0.15830359,-0.13662279,4.6280536e-05,0.0,0.0,-0.0503876
835700000,-0.15483056,-0.13566725,0.0003209714,0.0,0.0,-0.053249236
835720000,-0.15943667,-0.13295639,0.00039952915,0.0,0.0,-0.05746844
835744000,-0.15476094,-0.13273479,0.0005761143,0.0,0.0,-0.06213536
835764000,-0.15507798,-0.13483113,0.0007422925,0.0,0.0,-0.06555967
835780000,-0.15451005,-0.13791867,0.000559701,0.0,0.0,-0.0683762
835804000,-0.15180428,-0.13539873,0.0008154259,0.0,0.0,-0.07333468
835820000,-0.1493358,-0.13269204,0.00054470374,0.0,0.0,-0.076341316
835844000,-0.14449656,-0.13333292,0.00062755676,0.0,0.0,-0.08120709
835860000,-0.14365211,-0.13468502,0.0004698652,0.0,0.0,-0.084347986
835880000,-0.14363012,-0.13578846,0.00047993788,0.0,0.0,-0.08981251
835904000,-0.13961136,-0.13887477,0.00031457844,0.0,0.0,-0.094904445
835920000,-0.14094378,-0.13560939,0.00025967398,0.0,0.0,-0.09810638
835940000,-0.14106244,-0.13908763,0.00039524172,0.0,0.0,-0.101886876
835960000,-0.14182693,-0.13913335,0.00042409272,0.0,0.0,-0.10716638
835980000,-0.14231032,-0.14078191,0.00040600053,0.0,0.0,-0.11084824
836000000,-0.14837265,-0.14407405,0.00036318664,0.0,0.0,-0.1166186
836020000,-0.15071958,-0.14625925,0.0001851047,0.0,0.0,-0.12062776
836040000,-0.14774416,-0.14791974,0.00016269505,0.0,0.0,-0.12649031
836064000,-0.1514025,-0.14625014,4.488587e-05,0.0,0.0,-0.13241136
836084000,-0.15225923,-0.14561616,-2.7928842e-05,0.0,0.0,-0.13633004
836100000,-0.150657,-0.1428645,0.00028575017,0.0,0.0,-0.14034146
836124000,-0.14721349,-0.1409167,-1.1726438e-05,0.0,0.0,-0.14650123
836140000,-0.14869365,-0.14136863,5.385941e-05,0.0,0.0,-0.15104929
836160000,-0.1500994,-0.1351128,-0.00019182009,0.0,0.0,-0.15721837
836184000,-0.1490629,-0.14159127,-8.5479434e-05,0.0,0.0,-0.1634342
836200000,-0.1462397,-0.1429742,-0.000117766795,0.0,0.0,-0.1676646
836220000,-0.14597276,-0.14369719,0.00040405022,0.0,0.0,-0.1724313
836240000,-0.14870088,-0.14429544,0.00023285608,0.0,0.0,-0.17902179
836260000,-0.1542199,-0.14673409,0.00015379256,0.0,0.0,-0.18317159
836284000,-0.15153095,-0.14716029,-3.2828517e-05,0.0,0.0,-0.19050764
836300000,-0.14083652,-0.14354897,3.889367e-07,0.0,0.0,-0.19462812
836324000,-0.14176008,-0.14342812,-0.00034714324,0.0,0.0,-0.20156556
836340000,-0.13721006,-0.1404936,5.556842e-06,0.0,0.0,-0.20694622
836360000,-0.13769841,-0.13967137,-0.00013951283,0.0,0.0,-0.2146567
836380000,-0.13935909,-0.13712928,-5.724294e-05,0.0,0.0,-0.21948464
836404000,-0.14465025,-0.13924006,-0.00014507271,0.0,0.0,-0.226662
836420000,-0.14120956,-0.13217515,-0.0001220155,0.0,0.0,-0.2311983
836440000,-0.13896695,-0.12960015,-0.00015098338,0.0,0.0,-0.23944162
836460000,-0.14418098,-0.13350733,4.0471536e-05,0.0,0.0,-0.24427448
836484000,-0.14746462,-0.13835855,0.00016112284,0.0,0.0,-0.25174528
836500000,-0.15230113,-0.14128146,0.00019832782,0.0,0.0,-0.25629756
836520000,-0.151846,-0.14027186,0.0002285144,0.0,0.0,-0.26502687
836540000,-0.13831216,-0.13238701,0.00030654544,0.0,0.0,-0.27066353
836564000,-0.14932466,-0.13625309,-0.0004979524,0.0,0.0,-0.2773883
836584000,-0.15206693,-0.13360886,-0.001052071,0.0,0.0,-0.28586084
836600000,-0.15352067,-0.12645023,-0.0007593523,0.0,0.0,-0.2932291
836620000,-0.15603131,-0.12791155,-0.00016532332,0.0,0.0,-0.29691002
836644000,-0.15848382,-0.1279068,0.00034347357,0.0,0.0,-0.30716354
836660000,-0.14988597,-0.12552837,0.00045912736,0.0,0.0,-0.31160566
836684000,-0.14568149,-0.12333811,0.0005142954,0.0,0.0,-0.32145104
836704000,-0.14688368,-0.12733947,0.00017074216,0.0,0.0,-0.33037406
836724000,-0.14762653,-0.123734646,-0.0002871596,0.0,0.0,-0.33512634
836740000,-0.14506793,-0.13306262,-6.746337e-05,0.0,0.0,-0.34223726
836760000,-0.1490608,-0.11448983,0.00012496658,0.0,0.0,-0.35116372
836780000,-0.15246566,-0.11339204,0.00074124866,0.0,0.0,-0.3570132
836800000,-0.15504213,-0.11031413,0.0007445463,0.0,0.0,-0.36620992
836820000,-0.15240884,-0.11285261,0.00040825226,0.0,0.0,-0.37241167
836840000,-0.15018989,-0.114067554,0.0004123896,0.0,0.0,-0.38158616
836860000,-0.1477402,-0.114163816,-0.00033236886,0.0,0.0,-0.38703552
836880000,-0.15750632,-0.117723525,-0.00022814659,0.0,0.0,-0.3977827
836900000,-0.157861,-0.12306693,0.00053476193,0.0,0.0,-0.40408322
836924000,-0.1538065,-0.11834509,0.0005852191,0.0,0.0,-0.41384712
836944000,-0.15819289,-0.11316543,0.0003472729,0.0,0.0,-0.4237842
836964000,-0.1575247,-0.10750179,0.00047713445,0.0,0.0,-0.43032598
836984000,-0.16247606,-0.10630914,0.00039558831,0.0,0.0,-0.44054076
837004000,-0.14594527,-0.11338812,-0.0010916722,0.0,0.0,-0.44432127
837020000,-0.10246845,-0.101733394,-0.0027090271,0.0,0.0,-0.451183
837044000,-0.064787716,-0.0900266,-0.003888839,0.0,0.0,-0.46149763
837064000,-0.03585293,-0.06920468,-0.001336631,0.0,0.0,-0.47083834
837080000,-0.016542902,-0.06502268,-0.0022025397,0.0,0.0,-0.4743138
837100000,-0.077562526,-0.06908174,-0.0020048632,0.0,0.0,-0.47795364
837124000,-0.08678188,-0.081842706,-0.003385738,0.0,0.0,-0.4829374
837144000,-0.019115776,-0.07810686,-0.0017933529,0.0,0.0,-0.48726845
837164000,0.027299248,-0.077407956,-0.00280985,0.0,0.0,-0.48979884
837180000,0.033243593,-0.0793815,-0.00072869804,0.0,0.0,-0.4918467
837200000,0.02959591,-0.08569046,-0.0007174608,0.0,0.0,-0.4944999
837220000,0.009897679,-0.0907129,0.00088765024,0.0,0.0,-0.49586353
837240000,0.013661758,-0.08368253,0.0016075936,0.0,0.0,-0.4976694
837264000,0.026702385,-0.090532735,0.0014771468,0.0,0.0,-0.49841002
837280000,0.05047874,-0.08926685,0.0018348293,0.0,0.0,-0.50006354
837304000,0.075346045,-0.08454526,0.0006516247,0.0,0.0,-0.5006039
837324000,0.085406765,-0.08690306,0.0005010802,0.0,0.0,-0.500972
837344000,0.07435224,-0.09053524,-0.00010613958,0.0,0.0,-0.5016092
837360000,0.06970008,-0.085759535,7.797284e-06,0.0,0.0,-0.5020586
837384000,0.066328324,-0.08893649,0.00048169316,0.0,0.0,-0.5028401
837400000,0.066931814,-0.08701941,0.0008673293,0.0,0.0,-0.50347847
837420000,0.06593344,-0.084533446,0.00018934689,0.0,0.0,-0.5040239
837440000,0.059266075,-0.08862034,0.00013817374,0.0,0.0,-0.5043712
837464000,0.07132709,-0.089718424,0.00020747329,0.0,0.0,-0.50569946
837480000,0.08591348,-0.08182359,0.00017858617,0.0,0.0,-0.50571555
837504000,0.07492096,-0.08472972,0.000106269945,0.0,0.0,-0.5060459
837524000,0.067341834,-0.08331369,0.00016101658,0.0,0.0,-0.5062745
837544000,0.05994347,-0.08507187,0.00031068607,0.0,0.0,-0.50689435
837560000,0.052338038,-0.08034341,0.0004470596,0.0,0.0,-0.5073404
837584000,0.056168288,-0.082518354,0.00029809392,0.0,0.0,-0.5079515
837600000,0.054861143,-0.077930346,0.00022676625,0.0,0.0,-0.50835407
837624000,0.058755122,-0.07837315,0.0007292914,0.0,0.0,-0.509743
837640000,0.050265,-0.08281233,0.00080300396,0.0,0.0,-0.50980985
837660000,0.04996744,-0.08159095,0.0005548537,0.0,0.0,-0.50982934
837684000,0.043461736,-0.08756673,0.00014271963,0.0,0.0,-0.5100805
837700000,0.043085273,-0.087182134,2.803626e-05,0.0,0.0,-0.5103143
837724000,0.04137692,-0.072498836,4.9737166e-05,0.0,0.0,-0.5107517
837744000,0.042850852,-0.07228294,0.00037219125,0.0,0.0,-0.5113697
837764000,0.045590904,-0.07213535,0.00049875776,0.0,0.0,-0.51179165
837780000,0.052494813,-0.07009705,0.0006459512,0.0,0.0,-0.51231945
837800000,0.041692983,-0.0723928,0.00065965526,0.0,0.0,-0.5105641
837820000,0.037150614,-0.069353335,0.00053562794,0.0,0.0,-0.49972114
837844000,0.04464285,-0.0691951,0.00028050342,0.0,0.0,-0.4860876
837860000,0.040296994,-0.07038179,0.00020050508,0.0,0.0,-0.4761883
837880000,0.035751052,-0.06616797,7.683592e-05,0.0,0.0,-0.46456927
837900000,0.03417718,-0.0654302,0.00013911467,0.0,0.0,-0.4566734
837920000,0.031867888,-0.056896992,0.0004929662,0.0,0.0,-0.44852796
837940000,0.033557795,-0.05168155,0.00044369162,0.0,0.0,-0.44319198
837960000,0.044981994,-0.05082865,-3.817358e-05,0.0,0.0,-0.43690264
837984000,0.027633822,-0.0454232,0.0002458772,0.0,0.0,-0.43401465
838000000,0.03082546,-0.039683077,0.000116088704,0.0,0.0,-0.43107536
838020000,0.037324782,-0.026983531,-8.0895625e-05,0.0,0.0,-0.42887017
838040000,0.041968625,-0.027903354,-2.3535473e-05,0.0,0.0,-0.42683277
838064000,0.05125184,-0.030661551,0.000165059,0.0,0.0,-0.42553633
838080000,0.053438306,-0.03040518,0.00012595231,0.0,0.0,-0.4248403
838104000,0.053475298,-0.024301384,0.00028119213,0.0,0.0,-0.4242668
838124000,0.047002643,-0.022062927,0.0005003478,0.0,0.0,-0.42385173
838140000,0.04700591,-0.021488607,0.00052709074,0.0,0.0,-0.42262104
838160000,0.034489274,-0.015253981,0.00020341293,0.0,0.0,-0.42377758
838184000,0.04793678,-0.012376128,7.420267e-05,0.0,0.0,-0.4232795
838204000,0.04807076,-0.017625105,-8.13487e-05,0.0,0.0,-0.4232599
838220000,0.04801052,-0.021756148,-4.6321024e-05,0.0,0.0,-0.42328033
838240000,0.044425257,-0.023590894,-0.0002097655,0.0,0.0,-0.42341936
838260000,0.035958245,-0.026437933,-4.4466502e-05,0.0,0.0,-0.4237889
838280000,0.027772063,-0.024799418,0.00028632965,0.0,0.0,-0.42423314
838300000,0.030105937,-0.031580288,0.00035831548,0.0,0.0,-0.42470518
838320000,0.013843402,-0.02621219,0.00017829712,0.0,0.0,-0.42476174
838344000,0.015907567,-0.020951761,7.7829754e-05,0.0,0.0,-0.4261893
838360000,0.026455827,-0.021420177,-0.00015075489,0.0,0.0,-0.42609176
838380000,0.027150843,-0.022479242,-0.00011257122,0.0,0.0,-0.42625335
838404000,0.026572976,-0.029646887,0.00037765078,0.0,0.0,-0.42668408
838424000,0.020215448,-0.032619298,0.00029910004,0.0,0.0,-0.4268344
838440000,0.021937916,-0.038392846,0.00025817365,0.0,0.0,-0.4270707
838460000,0.021564363,-0.034797627,0.00027212698,0.0,0.0,-0.42745662
838480000,0.03467572,-0.031534668,0.00038219054,0.0,0.0,-0.42802513
838504000,0.036284342,-0.02518638,0.00025753834,0.0,0.0,-0.42902306
838524000,0.03465136,-0.024450434,0.00022542762,0.0,0.0,-0.4288948
838540000,0.04675421,-0.021208812,0.00019884353,0.0,0.0,-0.42894164
838560000,0.041014116,-0.02450773,-1.24422e-05,0.0,0.0,-0.42948905
838580000,0.036761157,-0.026588243,0.101318106,0.0,0.0,-0.4298717
838600000,0.040707044,-0.03673162,-0.09905479,0.0,0.0,-0.43033692
838624000,0.02774584,-0.03584528,0.0014385505,0.0,0.0,-0.43040973
838644000,0.028329205,-0.03364598,0.003803514,0.0,0.0,-0.43039504
838664000,0.044399507,-0.030131446,0.0028550986,0.0,0.0,-0.42937115
838684000,0.032148365,-0.025681963,0.006355988,0.0,0.0,-0.43070698
838700000,0.023940103,-0.02643931,0.008420824,0.0,0.0,-0.43027216
838724000,0.02885778,-0.036667503,0.004404569,0.0,0.0,-0.43013164
838744000,0.030557174,-0.026004622,0.006332627,0.0,0.0,-0.43046784
838760000,0.035173133,-0.024818882,0.00348593,0.0,0.0,-0.430792
838780000,0.034872163,-0.019703628,0.0046389666,0.0,0.0,-0.4310615
838804000,0.030620942,-0.014862709,0.0029969935,0.0,0.0,-0.43189964
838824000,0.029656112,-0.012006453,0.0015246472,0.0,0.0,-0.43258163
838840000,0.0372158,-0.013345557,0.0023101894,0.0,0.0,-0.43202806
838860000,0.0278267,-0.014287265,0.002298868,0.0,0.0,-0.433836
838880000,0.0341975,-0.022843398,0.0035735422,0.0,0.0,-0.43363985
838900000,0.029478159,-0.027726183,0.00164943,0.0,0.0,-0.43382737
838924000,0.028604731,-0.029574657,0.0026401116,0.0,0.0,-0.434197
838940000,0.023128435,-0.030733394,0.001906808,0.0,0.0,-0.43429098
838960000,0.026434444,-0.027219562,0.0009178398,0.0,0.0,-0.43462592
838980000,0.031052636,-0.025033059,0.00197384,0.0,0.0,-0.4349337
839000000,0.026036503,-0.020232936,0.0028628658,0.0,0.0,-0.4354985
839020000,0.026972389,-0.021332383,0.0015624461,0.0,0.0,-0.4349124
839040000,0.019437347,-0.018785173,0.0021157903,0.0,0.0,-0.43635923
839060000,0.026955202,-0.015977975,0.0011104404,0.0,0.0,-0.4360447
839080000,0.021175845,-0.012860965,0.0020013463,0.0,0.0,-0.43611088
839104000,0.021492928,-0.008478379,0.0015873143,0.0,0.0,-0.4362763
839124000,0.02078014,-0.010108274,0.0021785544,0.0,0.0,-0.4365028
839140000,0.025569437,-0.011031767,0.00117886,0.0,0.0,-0.43669042
839164000,0.029227233,-0.015906705,0.0022294358,0.0,0.0,-0.437206
839180000,0.03361981,-0.010869884,0.0013630241,0.0,0.0,-0.43744764
839204000,0.021693455,-0.0061155856,0.0020365075,0.0,0.0,-0.4370048
839220000,0.020876281,-0.0082108695,0.002520084,0.0,0.0,-0.43802726
839244000,0.035558116,-0.013836926,0.0010632101,0.0,0.0,-0.4379289
839264000,0.043481022,-0.016167756,0.0011167016,0.0,0.0,-0.43808848
839280000,0.03969877,-0.014439019,0.0014949304,0.0,0.0,-0.43832016
839304000,0.031874765,-0.014112648,0.0011330673,0.0,0.0,-0.43873096
839320000,0.021772677,-0.014030066,0.0013918142,0.0,0.0,-0.43904105
839340000,0.01777399,-0.016322948,0.0008905659,0.0,0.0,-0.43922165
839364000,0.023726862,-0.016349416,0.0015928906,0.0,0.0,-0.4394651
839384000,0.017863888,-0.013524723,0.0013434484,0.0,0.0,-0.4404112
839404000,0.0060162004,-0.014398325,0.0018670361,0.0,0.0,-0.44030324
839420000,0.021537248,-0.01714666,0.00059077516,0.0,0.0,-0.4400635
839444000,0.026358854,-0.019605586,0.00081096415,0.0,0.0,-0.43987662
839464000,0.022377715,-0.020143177,0.0006458957,0.0,0.0,-0.4399351
839484000,0.027029078,-0.017979737,0.0011588684,0.0,0.0,-0.43994036
839500000,0.030715669,-0.021474801,0.0011776537,0.0,0.0,-0.44012994
839520000,0.03374535,-0.028026892,0.0018866303,0.0,0.0,-0.44034836
839540000,0.047668763,-0.026900785,0.0008629007,0.0,0.0,-0.44041872
839560000,0.03639747,-0.022903217,0.0015896508,0.0,0.0,-0.44142705
839580000,0.0261315,-0.022905057,0.0012257416,0.0,0.0,-0.44123104
839600000,0.02449982,-0.012658754,0.0016531146,0.0,0.0,-0.44086304
839620000,0.02466646,-0.008886031,0.00080749893,0.0,0.0,-0.4406985
839640000,0.018819524,-0.0058678603,0.001185108,0.0,0.0,-0.44073153
839664000,0.02502124,-0.014586408,0.00094544684,0.0,0.0,-0.44094136
839680000,0.02905642,-0.013344973,0.0012579464,0.0,0.0,-0.4408444
839700000,0.034059703,-0.010721125,0.00071169465,0.0,0.0,-0.44104353
839720000,0.051880185,-0.016580991,0.0011559294,0.0,0.0,-0.44008982
839744000,0.033772808,-0.015557548,0.0008290215,0.0,0.0,-0.4413759
839764000,0.03296706,-0.019430742,0.0011388097,0.0,0.0,-0.44099614
839784000,0.029933212,-0.017312793,0.00070336583,0.0,0.0,-0.4406279
839800000,0.03338218,-0.01879773,0.0010859512,0.0,0.0,-0.44069672
839820000,0.028655352,-0.020818165,0.00036771112,0.0,0.0,-0.44076765
839840000,0.025503509,-0.013383635,0.00059113494,0.0,0.0,-0.44106936
839860000,0.030623551,-0.007484033,0.00011335267,0.0,0.0,-0.44126278
839880000,0.03420658,-0.0072008353,0.0001510615,0.0,0.0,-0.44128543
839904000,0.017139537,-0.007821352,0.00022801271,0.0,0.0,-0.44088125
839924000,0.023986809,-0.0065386165,0.00036785065,0.0,0.0,-0.44206735
839944000,0.031932775,-0.010845788,0.00024624518,0.0,0.0,-0.44201055
839964000,0.03283854,-0.010613665,0.00054031744,0.0,0.0,-0.44197363
839984000,0.029215915,-0.014018377,0.00031722992,0.0,0.0,-0.44207665
840004000,0.025961366,-0.0172978,0.0007678387,0.0,0.0,-0.4421398
840020000,0.025662806,-0.015481268,0.0010415773,0.0,0.0,-0.44228992
840040000,0.027568258,-0.015644658,0.0009051952,0.0,0.0,-0.44260728
840064000,0.025253968,-0.01564413,0.00030711305,0.0,0.0,-0.44268724
840080000,0.012865501,-0.0131008215,0.000699926,0.0,0.0,-0.44212794
840104000,0.009957506,-0.0060104122,0.000540724,0.0,0.0,-0.4427935
840120000,0.01955781,-0.0033255895,0.00076174556,0.0,0.0,-0.4423648
840144000,0.020166794,0.00034099736,0.0011307241,0.0,0.0,-0.4420005
840164000,0.016820816,0.00043396684,0.0015683834,0.0,0.0,-0.441892
840180000,0.0152595835,0.0017425184,0.001608947,0.0,0.0,-0.4417642
840200000,0.018076882,-0.0005535943,0.0017673364,0.0,0.0,-0.44209114
840224000,-0.06562019,-0.044616148,0.00021035156,0.0,0.0,-0.3847543
840240000,-0.06576235,-0.046621233,0.00019535908,0.0,0.0,-0.38581675
840260000,-0.061795052,-0.040405966,0.0003528905,0.0,0.0,-0.3887877
840284000,-0.033845197,-0.022842672,0.00025717606,0.0,0.0,-0.3971987
840300000,-0.032869738,0.00751909,0.0004555899,0.0,0.0,-0.40213245
840320000,-0.037459582,0.050192937,0.00030685426,0.0,0.0,-0.40981686
840344000,-0.023577847,0.05371128,0.00026991844,0.0,0.0,-0.41691044
840364000,-0.014857253,0.04807913,0.0005503759,0.0,0.0,-0.42124295
840380000,-0.00743107,0.04252499,0.00070231984,0.0,0.0,-0.42527696
840400000,0.005884922,0.03502524,0.0014628777,0.0,0.0,-0.43050826
840424000,0.028638098,0.026583802,0.0018097536,0.0,0.0,-0.43420684
840444000,0.013854674,0.015614305,0.002315226,0.0,0.0,-0.437041
840464000,0.023089036,0.013029251,0.0032389225,0.0,0.0,-0.4402609
840480000,0.034175284,0.013907725,0.003295275,0.0,0.0,-0.44171447
840500000,0.041686866,0.007610127,0.004734258,0.0,0.0,-0.44363683
840520000,0.046445694,-0.009687425,0.004805805,0.0,0.0,-0.44534466
840544000,0.060557816,0.009111246,0.006545389,0.0,0.0,-0.44750804
840564000,0.05366146,0.004450095,0.0067523336,0.0,0.0,-0.44833755
840580000,0.044063974,0.00011608947,0.009165313,0.0,0.0,-0.45000145
840604000,0.0640334,0.01259092,0.012301756,0.0,0.0,-0.4515092
840624000,0.05145921,0.015546695,0.012237688,0.0,0.0,-0.45273343
840640000,0.047430415,0.009686741,0.011951583,0.0,0.0,-0.45246658
840664000,0.058351662,0.023080535,0.0154065695,0.0,0.0,-0.45365486
840684000,0.07208662,0.052793887,0.019371413,0.0,0.0,-0.45565668
840704000,0.05597474,0.04041196,0.019179188,0.0,0.0,-0.45534122
840720000,0.06255968,0.05241751,0.023856686,0.0,0.0,-0.45759848
840740000,0.054138917,0.031053713,0.02318497,0.0,0.0,-0.45722318
840764000,0.06999728,0.05781834,0.027882475,0.0,0.0,-0.45967567
840780000,0.07223304,0.04860863,0.027304256,0.0,0.0,-0.4585381
840800000,0.05017235,0.04261855,0.026757468,0.0,0.0,-0.4580663
840820000,0.067317374,0.08598204,0.031648125,0.0,0.0,-0.4602368
840844000,0.0957694,0.124975264,0.036451522,0.0,0.0,-0.4622575
840864000,0.08688398,0.102477126,0.035828125,0.0,0.0,-0.46030378
840884000,0.10488028,0.14091597,0.040737256,0.0,0.0,-0.46356353
840904000,0.0897254,0.10739235,0.040095292,0.0,0.0,-0.4614468
840924000,0.12018127,0.16033092,0.044313673,0.0,0.0,-0.4647954
840940000,0.112109505,0.13419743,0.04336782,0.0,0.0,-0.46305087
840960000,0.13373297,0.17954253,0.04715391,0.0,0.0,-0.4649245
840980000,0.11302293,0.15624742,0.045541503,0.0,0.0,-0.4639716
841004000,0.13726157,0.20690936,0.04873871,0.0,0.0,-0.46601856
841020000,0.12891886,0.1837613,0.047688648,0.0,0.0,-0.4635999
841040000,0.15151986,0.22147366,0.0505747,0.0,0.0,-0.4655909
841064000,0.12184889,0.15857247,0.048850853,0.0,0.0,-0.46223485
841084000,0.15541378,0.22902003,0.050671067,0.0,0.0,-0.4661824
841100000,0.13951653,0.19316927,0.049641646,0.0,0.0,-0.4641116
841124000,0.18146428,0.2543988,0.049848694,0.0,0.0,-0.4668952
841144000,0.14023596,0.2136056,0.04814648,0.0,0.0,-0.4638135
841164000,0.18151452,0.31592688,0.047542952,0.0,0.0,-0.46769622
841180000,0.16556722,0.27199194,0.046489533,0.0,0.0,-0.4647515
841200000,0.13870665,0.2168211,0.04502818,0.0,0.0,-0.46054742
841224000,0.17992209,0.29134625,0.043059226,0.0,0.0,-0.463125
841240000,0.22142068,0.37491482,0.040883742,0.0,0.0,-0.46682107
841260000,0.18796554,0.3170706,0.039692774,0.0,0.0,-0.4644668
841284000,0.13899332,0.2310845,0.03903029,0.0,0.0,-0.46055463
841304000,0.19071819,0.31095904,0.03572368,0.0,0.0,-0.46266586
841320000,0.2534577,0.42126402,0.03149426,0.0,0.0,-0.46816078
841344000,0.2035135,0.32946593,0.031179978,0.0,0.0,-0.46325982
841364000,0.2657902,0.44121006,0.025636123,0.0,0.0,-0.4676163
841384000,0.21962918,0.35347724,0.025789656,0.0,0.0,-0.4631452
841404000,0.23223212,0.44318083,0.020455938,0.0,0.0,-0.46742994
841424000,0.1737967,0.3453186,0.020762064,0.0,0.0,-0.46290758
841444000,0.2256966,0.4420567,0.014877938,0.0,0.0,-0.46773118
841460000,0.19690755,0.36417234,0.015429747,0.0,0.0,-0.46468022
841484000,0.251417,0.45463938,0.009059792,0.0,0.0,-0.46847054
841504000,0.203661,0.36010632,0.010369284,0.0,0.0,-0.4637695
841524000,0.27102545,0.46822274,-0.018342819,0.0,0.0,-0.4683492
841544000,0.20853664,0.35653275,-0.016162762,0.0,0.0,-0.46312666
841564000,0.26977235,0.4716064,-0.019166287,0.0,0.0,-0.468475
841584000,0.20712866,0.3648987,-0.016627667,0.0,0.0,-0.4635019
841604000,0.2685065,0.47315285,-0.02275322,0.0,0.0,-0.46875864
841624000,0.21029189,0.36753878,-0.019613609,0.0,0.0,-0.4635843
841644000,0.2689304,0.48081928,-0.02551233,0.0,0.0,-0.46830568
841664000,0.20871243,0.37953523,-0.022175882,0.0,0.0,-0.46400726
841680000,0.2893432,0.5068271,-0.028259754,0.0,0.0,-0.46925902
841704000,0.22925372,0.38285643,-0.02352472,0.0,0.0,-0.4632359
841724000,0.18112984,0.2892507,-0.020088311,0.0,0.0,-0.45916006
841744000,0.2169025,0.3606463,-0.023205917,0.0,0.0,-0.4620894
841764000,0.16803487,0.27495912,-0.020055875,0.0,0.0,-0.45856148
841780000,0.2361599,0.4003266,-0.025304692,0.0,0.0,-0.46415907
841800000,0.29849228,0.50686836,-0.02942072,0.0,0.0,-0.4684049
841820000,0.24061638,0.43657395,-0.025763834,0.0,0.0,-0.46423012
841840000,0.17945758,0.33905953,-0.020976279,0.0,0.0,-0.4594264
841860000,0.24688494,0.45449984,-0.024893675,0.0,0.0,-0.46485713
841884000,0.18145698,0.3358834,-0.018827247,0.0,0.0,-0.4590163
841900000,0.25371167,0.48169854,-0.024118237,0.0,0.0,-0.46509096
841924000,0.1901519,0.3772836,-0.018886806,0.0,0.0,-0.45947546
841940000,0.25948483,0.49742293,-0.02358889,0.0,0.0,-0.46517062
841960000,0.19075267,0.38047987,-0.01781187,0.0,0.0,-0.45905554
841984000,0.22273652,0.45258638,-0.02021372,0.0,0.0,-0.46164703
842004000,0.17959566,0.36905795,-0.016341718,0.0,0.0,-0.45862746
842020000,0.2342948,0.4719853,-0.020560091,0.0,0.0,-0.46361616
842040000,0.17028436,0.3634317,-0.014528527,0.0,0.0,-0.45720848
842060000,0.22968535,0.4777095,-0.019120157,0.0,0.0,-0.46295255
842080000,0.17233098,0.3694445,-0.012700838,0.0,0.0,-0.45702434
842100000,0.23442657,0.4832433,-0.017409235,0.0,0.0,-0.46286404
842120000,0.17579895,0.37036854,-0.011021923,0.0,0.0,-0.4571698
842140000,0.23270917,0.4876845,-0.016320502,0.0,0.0,-0.46294835
842164000,0.15994823,0.36564028,-0.008958199,0.0,0.0,-0.45586687
842180000,0.22929476,0.48690602,-0.014895833,0.0,0.0,-0.46273652
842204000,0.17562264,0.36689466,-0.0077598486,0.0,0.0,-0.45576462
842220000,0.24224882,0.4842219,-0.0136766555,0.0,0.0,-0.4614246
842240000,0.1708186,0.38071632,-0.0072039226,0.0,0.0,-0.45483363
842260000,0.22937162,0.49821112,-0.012495114,0.0,0.0,-0.46023247
842284000,0.15956059,0.38886663,-0.0051928153,0.0,0.0,-0.45375276
842300000,0.21771924,0.5071816,-0.010789169,0.0,0.0,-0.4595005
842320000,0.15970033,0.39714178,-0.0037319937,0.0,0.0,-0.45318353
842344000,0.19773102,0.47654465,-0.0068694823,0.0,0.0,-0.4566508
842364000,0.15449944,0.3999736,-0.0018307421,0.0,0.0,-0.45238525
842384000,0.21084258,0.47348922,-0.0052619125,0.0,0.0,-0.45516077
842404000,0.18442729,0.39025503,-0.00023413388,0.0,0.0,-0.45070815
842424000,0.2302738,0.47231293,-0.004501865,0.0,0.0,-0.4542331
842440000,0.18291685,0.39952496,7.544729e-05,0.0,0.0,-0.45002913
842460000,0.22972326,0.5175849,-0.0059771347,0.0,0.0,-0.4555915
842480000,0.15564078,0.4148683,0.0008063407,0.0,0.0,-0.44962692
842500000,0.19245036,0.54601544,-0.0059942123,0.0,0.0,-0.45577908
842524000,0.12766594,0.42817906,0.0018258537,0.0,0.0,-0.44904763
842544000,0.1837284,0.5055357,-0.0029110026,0.0,0.0,-0.4533607
842560000,0.14872609,0.4261648,0.002235781,0.0,0.0,-0.4488142
842584000,0.20499437,0.5141319,-0.00344395,0.0,0.0,-0.45228636
842604000,0.17564657,0.43212715,0.0014706227,0.0,0.0,-0.44818425
842620000,0.23914726,0.5428098,-0.0056595965,0.0,0.0,-0.45409602
842644000,0.17878458,0.41845775,0.0014467562,0.0,0.0,-0.44759816
842660000,0.23952673,0.53084546,-0.0065040244,0.0,0.0,-0.45327607
842684000,0.18834344,0.41295767,-8.083709e-05,0.0,0.0,-0.44675407
842700000,0.24975346,0.51876724,-0.007606834,0.0,0.0,-0.45149788
842720000,0.18944319,0.41213676,-0.0017567531,0.0,0.0,-0.44637626
842740000,0.2542693,0.5217118,-0.009033848,0.0,0.0,-0.4515752
842764000,0.2019623,0.40045765,-0.0020094165,0.0,0.0,-0.44456267
842780000,0.26288506,0.5072903,-0.008848055,0.0,0.0,-0.45003092
842800000,0.19238944,0.38859275,-0.0018590039,0.0,0.0,-0.44344234
842824000,0.21498176,0.47551003,-0.0060400274,0.0,0.0,-0.4471965
842844000,0.16031076,0.40298483,-0.00060745014,0.0,0.0,-0.4431389
842864000,0.1846823,0.4885503,-0.004391394,0.0,0.0,-0.4470171
842880000,0.13681723,0.41061267,0.0010503045,0.0,0.0,-0.44241503
842900000,0.2042044,0.5381478,-0.0045095813,0.0,0.0,-0.44958708
842920000,0.14547978,0.4217634,0.0032952414,0.0,0.0,-0.4429367
842944000,0.19241641,0.48979148,0.0009851549,0.0,0.0,-0.44648492
842960000,0.15395744,0.41316962,0.005854494,0.0,0.0,-0.44247872
842984000,0.18477991,0.4955991,0.002742918,0.0,0.0,-0.44613707
843004000,0.14724244,0.42203274,0.00749136,0.0,0.0,-0.4420151
843024000,0.17399903,0.52157164,0.004272381,0.0,0.0,-0.44643685
843044000,0.1284639,0.45107478,0.009397371,0.0,0.0,-0.44279703
843064000,0.15188861,0.5278859,0.007427262,0.0,0.0,-0.44630724
843084000,0.118376434,0.45733008,0.012429822,0.0,0.0,-0.44341186
843100000,0.18082649,0.5672876,0.007963387,0.0,0.0,-0.44882172
843120000,0.11651293,0.44090372,0.015542528,0.0,0.0,-0.4421538
843144000,0.15558234,0.5152031,0.012984828,0.0,0.0,-0.44569075
843160000,0.11735337,0.4322791,0.017522976,0.0,0.0,-0.44146296
843180000,0.18002352,0.53158444,0.012713371,0.0,0.0,-0.4471477
843200000,0.12624381,0.41488728,0.018733164,0.0,0.0,-0.44126663
843224000,0.1660766,0.5041726,0.015193732,0.0,0.0,-0.44613242
843244000,0.12453586,0.42724153,0.01980955,0.0,0.0,-0.4418469
843260000,0.18168598,0.5699907,0.01333001,0.0,0.0,-0.4498471
843280000,0.12073682,0.4484519,0.019953175,0.0,0.0,-0.44352692
843300000,0.18489437,0.56512976,0.014532986,0.0,0.0,-0.44930005
843324000,0.12896807,0.44356114,0.0213021,0.0,0.0,-0.44328782
843340000,0.19255567,0.55838203,0.014747505,0.0,0.0,-0.44915664
843364000,0.1311334,0.4392581,0.020677324,0.0,0.0,-0.4433026
843380000,0.18574837,0.55109304,0.013692467,0.0,0.0,-0.44914684
843404000,0.12627995,0.43432096,0.019438973,0.0,0.0,-0.44328356
843420000,0.20856819,0.5574343,0.011001974,0.0,0.0,-0.4494246
843440000,0.12776163,0.4575039,0.016111834,0.0,0.0,-0.44465306
843460000,0.17741528,0.56981385,0.008449714,0.0,0.0,-0.4503818
843484000,0.120714284,0.44945574,0.0144378245,0.0,0.0,-0.44427738
843504000,0.16193269,0.52451086,0.008156861,0.0,0.0,-0.4481263
843520000,0.12791333,0.44052687,0.0120764,0.0,0.0,-0.44431922
843540000,0.19540733,0.5656735,0.003325695,0.0,0.0,-0.45039776
843560000,0.13681617,0.44182557,0.008823368,0.0,0.0,-0.44455895
843580000,0.1784519,0.5731044,-0.0003168059,0.0,0.0,-0.4507428
843604000,0.12540531,0.45521912,0.004683425,0.0,0.0,-0.44461668
843620000,0.16648036,0.5620058,-0.0034335395,0.0,0.0,-0.4495781
843644000,0.10603762,0.45107365,0.0018577348,0.0,0.0,-0.44434562
843664000,0.14384314,0.516555,-0.003729656,0.0,0.0,-0.44750297
843680000,0.10113787,0.4280143,0.000653524,0.0,0.0,-0.44319344
843700000,0.15977903,0.5352322,-0.0065917177,0.0,0.0,-0.44876572
843720000,0.09028988,0.4053068,-0.0002242271,0.0,0.0,-0.44268456
843744000,0.12640041,0.47617722,-0.005426801,0.0,0.0,-0.4463715
843764000,0.08675337,0.39407504,-0.0016034469,0.0,0.0,-0.44244495
843780000,0.15372473,0.5074139,-0.008305414,0.0,0.0,-0.44811773
843804000,0.08575593,0.38750926,-0.002712075,0.0,0.0,-0.44176832
843820000,0.1608946,0.511381,-0.00942952,0.0,0.0,-0.44841924
843840000,0.10339364,0.3802631,-0.0035683159,0.0,0.0,-0.44180977
843864000,0.14942816,0.45983285,-0.0077628936,0.0,0.0,-0.44534796
843884000,0.113531314,0.37505692,-0.0038291244,0.0,0.0,-0.44143453
843904000,0.15363236,0.44756335,-0.007276913,0.0,0.0,-0.4448828
843924000,0.11782936,0.36941394,-0.003639203,0.0,0.0,-0.44099545
843940000,0.18184316,0.48574167,-0.008500968,0.0,0.0,-0.44661978
843964000,0.119758405,0.36640665,-0.0032440044,0.0,0.0,-0.44066942
843980000,0.17803042,0.47151116,-0.0074491194,0.0,0.0,-0.4453784
844000000,0.11563164,0.361328,-0.0026767808,0.0,0.0,-0.4407676
844024000,0.14858247,0.4320546,-0.0048381123,0.0,0.0,-0.44420516
844044000,0.10018198,0.3518233,-0.0009992578,0.0,0.0,-0.4402214
844064000,0.12757789,0.42226717,-0.0028814194,0.0,0.0,-0.44388813
844084000,0.08229525,0.34029022,0.0006792,0.0,0.0,-0.44045368
844100000,0.14350477,0.4617316,-0.0037747147,0.0,0.0,-0.44643724
844120000,0.08011508,0.34037858,0.0017603787,0.0,0.0,-0.44063392
844140000,0.1403922,0.4601361,-0.016002225,0.0,0.0,-0.4463516
844164000,0.06386158,0.33254865,-0.010041811,0.0,0.0,-0.43983772
844180000,0.12741958,0.46716458,-0.016226675,0.0,0.0,-0.44677815
844200000,0.06195567,0.33630502,-0.010313087,0.0,0.0,-0.4403364
844220000,0.13588016,0.46740037,-0.014775185,0.0,0.0,-0.44639507
844240000,0.08011418,0.34279573,-0.00925497,0.0,0.0,-0.44044515
844260000,0.13305308,0.446831,-0.012609169,0.0,0.0,-0.4456373
844280000,0.06797784,0.3181912,-0.006680016,0.0,0.0,-0.43950126
844304000,0.107270874,0.3925118,-0.009211986,0.0,0.0,-0.4433109
844324000,0.07084342,0.3090789,-0.005181968,0.0,0.0,-0.43954355
844344000,0.109036036,0.39671272,-0.008743401,0.0,0.0,-0.44315654
844360000,0.078893825,0.32835463,-0.0055836756,0.0,0.0,-0.44029135
844380000,0.15006827,0.45594528,-0.011088244,0.0,0.0,-0.44600442
844400000,0.08672039,0.33169153,-0.005461605,0.0,0.0,-0.43996143
844420000,0.13976948,0.446513,-0.011036969,0.0,0.0,-0.44553015
844440000,0.07009991,0.31974766,-0.005302113,0.0,0.0,-0.43989533
844464000,0.09966998,0.39153016,-0.009959632,0.0,0.0,-0.44386494
844484000,0.04951015,0.30560887,-0.006026141,0.0,0.0,-0.44025007
844504000,0.08224527,0.37974322,-0.011099146,0.0,0.0,-0.44430256
844524000,0.03140358,0.29259652,-0.0067084953,0.0,0.0,-0.43992618
844540000,-0.0048758294,0.21550758,-0.0032033748,0.0,0.0,-0.43741032
844564000,0.03213089,0.28294006,-0.008452013,0.0,0.0,-0.44048065
844580000,0.09859882,0.4054032,-0.016319782,0.0,0.0,-0.44623315
844604000,0.0461055,0.28914386,-0.010673893,0.0,0.0,-0.44081143
844620000,-1.6579725e-05,0.2048105,-0.0067408998,0.0,0.0,-0.43708017
844644000,0.026176948,0.2660596,-0.012311607,0.0,0.0,-0.44105992
844664000,0.047889926,0.36076915,-0.019171884,0.0,0.0,-0.44579175
844684000,0.009110059,0.2859106,-0.015483868,0.0,0.0,-0.4425915
844700000,-0.033205267,0.20275721,-0.011621066,0.0,0.0,-0.43849942
844724000,0.008249453,0.30340445,-0.018423501,0.0,0.0,-0.4439615
844740000,-0.026589671,0.22249156,-0.014423333,0.0,0.0,-0.44013378
844760000,0.020099025,0.30205655,-0.020373374,0.0,0.0,-0.44363537
844780000,-0.010957604,0.2188884,-0.016081072,0.0,0.0,-0.44010317
844800000,0.034321934,0.29165345,-0.021844834,0.0,0.0,-0.44381294
844820000,0.0015977584,0.20989035,-0.018040946,0.0,0.0,-0.44038787
844840000,0.043652184,0.29483777,-0.024018565,0.0,0.0,-0.4445553
844860000,0.1046896,0.42205474,-0.031269457,0.0,0.0,-0.45069373
844884000,0.045027677,0.28739977,-0.025460338,0.0,0.0,-0.44477034
844904000,0.079112984,0.3610803,-0.03061172,0.0,0.0,-0.44981438
844924000,0.035882358,0.27272865,-0.026489427,0.0,0.0,-0.44572887
844944000,0.07743959,0.3550644,-0.030775083,0.0,0.0,-0.44967532
844964000,0.038052157,0.2648064,-0.026118528,0.0,0.0,-0.4457697
844980000,0.0006828946,0.17806515,-0.022001918,0.0,0.0,-0.44208002
845000000,0.04884184,0.27338654,-0.025966559,0.0,0.0,-0.44607246
845024000,0.09265,0.34920752,-0.028761437,0.0,0.0,-0.44982672
845044000,0.04626658,0.26349255,-0.024743896,0.0,0.0,-0.44611356
845060000,0.007232744,0.17946167,-0.021276135,0.0,0.0,-0.44277632
845080000,0.031105276,0.2655861,-0.02388171,0.0,0.0,-0.44754958
845104000,0.06822284,0.33631504,-0.025287688,0.0,0.0,-0.45105618
845124000,0.034983654,0.2445859,-0.020689871,0.0,0.0,-0.44688985
845140000,-0.0019674497,0.1574783,-0.01649432,0.0,0.0,-0.44322023
845160000,0.03496095,0.23562953,-0.01802325,0.0,0.0,-0.4466637
845180000,-0.0056357346,0.15143345,-0.014095662,0.0,0.0,-0.44314694
845204000,0.050829493,0.26531586,-0.017185085,0.0,0.0,-0.44792694
845220000,0.10724363,0.37038887,-0.020520229,0.0,0.0,-0.45311823
845240000,0.05261855,0.24152385,-0.015316138,0.0,0.0,-0.44650614
845264000,0.07450956,0.31037986,-0.008820304,0.0,0.0,-0.45023203
845280000,0.02533736,0.2088323,-0.0046201977,0.0,0.0,-0.44564974
845300000,0.081813805,0.3159547,-0.009558568,0.0,0.0,-0.4504569
845320000,0.020686017,0.18143599,-0.004331075,0.0,0.0,-0.44411322
845340000,0.077486716,0.2985559,-0.007938142,0.0,0.0,-0.44939664
845364000,0.014349498,0.17056464,-0.0030853278,0.0,0.0,-0.44336593
845380000,0.07270628,0.28596887,-0.0070732823,0.0,0.0,-0.44848815
845400000,0.0073544597,0.16262138,-0.002126031,0.0,0.0,-0.4427556
845420000,0.073343575,0.27462325,-0.0061657983,0.0,0.0,-0.4486217
845440000,0.006201625,0.14976595,-0.0009971758,0.0,0.0,-0.44375283
845464000,0.039903995,0.21201676,-0.0033402122,0.0,0.0,-0.44662142
845480000,0.0020445844,0.12553865,0.000270224,0.0,0.0,-0.44266266
845500000,0.06563203,0.24474578,-0.0045408355,0.0,0.0,-0.44791946
845524000,0.0094635235,0.11801297,0.00076495466,0.0,0.0,-0.4422147
845540000,0.06505048,0.24486005,-0.0051698713,0.0,0.0,-0.44780716
845564000,0.0040046014,0.12607017,-0.00047227665,0.0,0.0,-0.4422217
845580000,0.062666245,0.24646375,-0.006633933,0.0,0.0,-0.44750533
845600000,0.015682165,0.116760775,-0.0017615109,0.0,0.0,-0.44132173
845620000,0.06042629,0.25047016,-0.008857106,0.0,0.0,-0.44783324
845640000,0.000844653,0.12541397,-0.004046286,0.0,0.0,-0.44263393
845664000,0.048230425,0.20869918,-0.009989296,0.0,0.0,-0.44636345
845680000,0.008559604,0.12997621,-0.006567573,0.0,0.0,-0.442899
845700000,0.036847576,0.2658015,-0.014801578,0.0,0.0,-0.44850865
845724000,-0.030637175,0.13897698,-0.009600207,0.0,0.0,-0.4432407
845744000,0.010749587,0.22436915,-0.01648439,0.0,0.0,-0.44735304
845764000,-0.025469564,0.14238174,-0.012883928,0.0,0.0,-0.44390455
845780000,0.048934028,0.2614131,-0.021307057,0.0,0.0,-0.4493382
845800000,-0.008532156,0.13884905,-0.01614775,0.0,0.0,-0.4440715
845820000,0.049132288,0.2518745,-0.023970198,0.0,0.0,-0.44902188
845840000,-0.006922648,0.12586868,-0.018548924,0.0,0.0,-0.4434937
845860000,0.065530986,0.2667911,-0.02741096,0.0,0.0,-0.44947708
845884000,0.007237562,0.13708997,-0.022247829,0.0,0.0,-0.4439234
845900000,0.06481758,0.25168407,-0.030428097,0.0,0.0,-0.44927588
845924000,0.0044508995,0.12250947,-0.025050763,0.0,0.0,-0.4439158
845940000,0.06593146,0.24307907,-0.033295166,0.0,0.0,-0.44945204
845960000,0.02918594,0.113196954,-0.028086463,0.0,0.0,-0.4435
845984000,0.05816272,0.20262152,-0.034089208,0.0,0.0,-0.4477867
846004000,0.00981806,0.11511069,-0.029920748,0.0,0.0,-0.44357246
846024000,0.054409355,0.18964562,-0.035010424,0.0,0.0,-0.44681484
846040000,0.012535622,0.10327215,-0.030870415,0.0,0.0,-0.44343725
846064000,0.046444535,0.18270378,-0.03513308,0.0,0.0,-0.44774845
846084000,0.002601999,0.09251691,-0.030431788,0.0,0.0,-0.4443677
846100000,0.057276227,0.21342458,-0.036130093,0.0,0.0,-0.45021465
846124000,0.0005025612,0.08691421,-0.0299869,0.0,0.0,-0.44520792
846144000,0.044643022,0.16276477,-0.033395547,0.0,0.0,-0.44793373
846160000,-0.00064931513,0.093680434,-0.029535532,0.0,0.0,-0.445753
846180000,0.051829062,0.21109162,-0.033451017,0.0,0.0,-0.45066857
846204000,-4.7543534e-05,0.08137693,-0.027027473,0.0,0.0,-0.44453847
846220000,-0.041529637,-0.0079517905,-0.022805678,0.0,0.0,-0.44049218
846240000,-0.0017002117,0.07531321,-0.025059942,0.0,0.0,-0.44445497
846260000,-0.043329213,-0.0028245598,-0.021008015,0.0,0.0,-0.44137692
846284000,-0.0010450608,0.09208083,-0.02325561,0.0,0.0,-0.445218
846300000,-0.029942123,0.016059656,-0.019482248,0.0,0.0,-0.4421993
846324000,0.018829294,0.107911885,-0.020716943,0.0,0.0,-0.44593227
846340000,-0.028052183,0.034294706,-0.016705533,0.0,0.0,-0.44324312
846364000,0.012847338,0.11666489,-0.017603194,0.0,0.0,-0.4467123
846380000,-0.017952433,0.040447205,-0.014014232,0.0,0.0,-0.44304216
846400000,0.01989056,0.14612786,-0.016129784,0.0,0.0,-0.44710737
846424000,0.061242588,0.22450158,-0.006487281,0.0,0.0,-0.4505729
846440000,0.02461254,0.1381372,-0.0028768596,0.0,0.0,-0.44669196
846464000,0.056169465,0.21413884,-0.006761638,0.0,0.0,-0.4500832
846484000,0.012326266,0.12789269,-0.00329351,0.0,0.0,-0.44633818
846500000,-0.019415991,0.041271448,5.6872515e-05,0.0,0.0,-0.4427118
846520000,0.009032521,0.1322602,-0.0023579577,0.0,0.0,-0.446519
846544000,0.044458386,0.20934471,-0.005117241,0.0,0.0,-0.44940332
846564000,0.013210297,0.1166169,-0.0015511509,0.0,0.0,-0.44519576
846580000,-0.023394601,0.031219734,0.0016171159,0.0,0.0,-0.44128284
846604000,0.015496957,0.11638656,-0.0014221539,0.0,0.0,-0.44458473
846624000,0.060822923,0.19787784,-0.004756124,0.0,0.0,-0.44872743
846644000,0.023541106,0.10630807,-0.001333795,0.0,0.0,-0.4454333
846664000,0.068801515,0.18430267,-0.005014272,0.0,0.0,-0.44967648
846680000,0.039026733,0.0903784,-0.0016638521,0.0,0.0,-0.44565585
846704000,0.06558963,0.17611054,-0.005884959,0.0,0.0,-0.45036072
846724000,0.027063329,0.08642459,-0.0024380116,0.0,0.0,-0.44642836
846740000,-0.008640967,0.008855384,0.00049337914,0.0,0.0,-0.44281253
846764000,0.031148246,0.09399622,-0.0043946574,0.0,0.0,-0.446276
846780000,-0.017502323,0.004827477,-0.001055445,0.0,0.0,-0.44272816
846804000,-0.010781691,0.10058768,-0.006796328,0.0,0.0,-0.44618157
846824000,0.028564079,0.18947724,-0.012786534,0.0,0.0,-0.44984618
846840000,-0.007966483,0.10420941,-0.009395851,0.0,0.0,-0.4461336
846864000,0.039275467,0.17897983,-0.015342616,0.0,0.0,-0.44876844
846884000,-0.0013840828,0.10443033,-0.011961653,0.0,0.0,-0.44630587
846904000,0.03891904,0.17352487,-0.01847652,0.0,0.0,-0.44912398
846920000,0.004218133,0.08888466,-0.015367721,0.0,0.0,-0.4451017
846944000,0.04377138,0.16376916,-0.022193551,0.0,0.0,-0.44832686
846964000,0.009120297,0.08004931,-0.018828854,0.0,0.0,-0.44451383
846984000,0.043931633,0.15856685,-0.026232384,0.0,0.0,-0.44790146
847004000,-0.0007093813,0.07546063,-0.022784358,0.0,0.0,-0.4443274
847020000,-0.030363673,-0.009101698,-0.019298602,0.0,0.0,-0.44134745
847044000,0.020255769,0.07522089,-0.02597256,0.0,0.0,-0.44515514
847060000,-0.024908956,-0.0024736742,-0.02223619,0.0,0.0,-0.4426232
847080000,0.029559478,0.08766698,-0.029251715,0.0,0.0,-0.446597
847104000,0.076377295,0.16738473,-0.03492724,0.0,0.0,-0.450196
847124000,0.03530577,0.07541269,-0.030409217,0.0,0.0,-0.44653812
847144000,-0.020348618,-0.057576466,-0.0246537,0.0,0.0,-0.4411262
847164000,0.028318103,0.065065965,-0.03182194,0.0,0.0,-0.44626695
847184000,-0.021905832,-0.05193473,-0.026631476,0.0,0.0,-0.4411642
847200000,0.03306392,0.07859974,-0.033939756,0.0,0.0,-0.4465383
847220000,0.0069011054,0.00521276,-0.030042214,0.0,0.0,-0.4431525
847240000,0.042418413,0.10221074,-0.035249915,0.0,0.0,-0.44813436
847260000,-0.010848303,0.01540222,-0.030530177,0.0,0.0,-0.4445178
847280000,0.041651078,0.10749219,-0.034631036,0.0,0.0,-0.4482657
847300000,0.00936855,0.029808626,-0.029965349,0.0,0.0,-0.444904
847320000,0.042585198,0.11641995,-0.033524707,0.0,0.0,-0.44886625
847340000,0.0061551756,0.031702667,-0.029018082,0.0,0.0,-0.44546837
847360000,0.04570429,0.1175142,-0.032101166,0.0,0.0,-0.4492529
847380000,0.0028923012,0.03412498,-0.02777018,0.0,0.0,-0.4456884
847400000,0.04468745,0.09891298,-0.03008946,0.0,0.0,-0.44823432
847420000,-0.013643392,0.015218253,-0.025893912,0.0,0.0,-0.4450852
847440000,0.02599459,0.10178225,-0.028179042,0.0,0.0,-0.44907138
847464000,-0.024280898,-0.031376056,-0.021693798,0.0,0.0,-0.44420928
847484000,0.033355653,0.0970066,-0.024782205,0.0,0.0,-0.44985947
847504000,-0.030364197,-0.028678749,-0.019133203,0.0,0.0,-0.44502312
847520000,0.022527594,0.09741734,-0.022480007,0.0,0.0,-0.45056772
847544000,-0.033420615,-0.03253806,-0.016833447,0.0,0.0,-0.44537348
847564000,0.020730073,0.08955631,-0.019803224,0.0,0.0,-0.45068294
847584000,-0.026368976,-0.04268004,-0.014463903,0.0,0.0,-0.44462764
847604000,0.024719022,0.10546811,-0.018057743,0.0,0.0,-0.45141715
847624000,-0.027020976,-0.028013324,-0.012856722,0.0,0.0,-0.44538072
847644000,0.038951017,0.11572509,-0.0024364763,0.0,0.0,-0.45095444
847664000,-0.014603456,-0.018679902,0.0030946694,0.0,0.0,-0.44564006
847684000,0.034441065,0.10554385,-0.0020111771,0.0,0.0,-0.45097026
847704000,-0.027668774,-0.022223983,0.0027928152,0.0,0.0,-0.4457841
847724000,0.01758314,0.1005663,-0.0011617817,0.0,0.0,-0.45089892
