timestamp,timestamp_sample,q[0],q[1],q[2],q[3],delta_q_reset[0],delta_q_reset[1],delta_q_reset[2],delta_q_reset[3],quat_reset_counter
829264000,829264000,0.84973097,0.0108763175,0.0024491092,-0.5270987,0.9999784,8.8967245e-10,-8.430345e-11,-0.0065758377,4
829268000,829268000,0.8497277,0.010865336,0.0024408128,-0.5271043,0.9999784,8.8967245e-10,-8.430345e-11,-0.0065758377,4
829272000,829272000,0.84972656,0.010848421,0.0024348947,-0.52710634,0.9999784,8.8967245e-10,-8.430345e-11,-0.0065758377,4
829276000,829276000,0.84972584,0.010837593,0.0024327177,-0.5271079,0.9999784,8.8967245e-10,-8.430345e-11,-0.0065758377,4
829280000,829280000,0.84972584,0.010829621,0.0024350137,-0.527108,0.9999784,8.8967245e-10,-8.430345e-11,-0.0065758377,4
829284000,829284000,0.8497254,0.010816433,0.0024430621,-0.52710897,0.9999784,8.8967245e-10,-8.430345e-11,-0.0065758377,4
829288000,829288000,0.8497244,0.010823946,0.0024338784,-0.52711046,0.9999784,8.8967245e-10,-8.430345e-11,-0.0065758377,4
829292000,829292000,0.84972614,0.010835375,0.0024228438,-0.5271075,0.9999784,8.8967245e-10,-8.430345e-11,-0.0065758377,4
829300000,829300000,0.849729,0.010761088,0.0024804848,-0.52710414,0.9999784,8.8967245e-10,-8.430345e-11,-0.0065758377,4
829308000,829308000,0.84973216,0.010806158,0.0024383422,-0.5270983,0.9999784,8.8967245e-10,-8.430345e-11,-0.0065758377,4
829312000,829312000,0.8497345,0.010797996,0.0024369399,-0.52709466,0.9999784,8.8967245e-10,-8.430345e-11,-0.0065758377,4
829316000,829316000,0.8497348,0.010778944,0.0024473462,-0.52709454,0.9999784,8.8967245e-10,-8.430345e-11,-0.0065758377,4
829320000,829320000,0.84973407,0.010768171,0.0024527623,-0.52709585,0.9999784,8.8967245e-10,-8.430345e-11,-0.0065758377,4
829324000,829324000,0.8497323,0.010779057,0.0024466394,-0.5270986,0.9999784,8.8967245e-10,-8.430345e-11,-0.0065758377,4
829332000,829332000,0.8497302,0.010795588,0.0024447746,-0.5271017,0.9999784,8.8967245e-10,-8.430345e-11,-0.0065758377,4
829336000,829336000,0.8497289,0.010796853,0.0024561575,-0.5271038,0.9999784,8.8967245e-10,-8.430345e-11,-0.0065758377,4
829340000,829340000,0.8497298,0.010791982,0.0024656667,-0.52710223,0.9999784,8.8967245e-10,-8.430345e-11,-0.0065758377,4
829344000,829344000,0.8497342,0.010783948,0.0024678106,-0.52709544,0.9999784,8.8967245e-10,-8.430345e-11,-0.0065758377,4
829352000,829352000,0.8497386,0.010791999,0.002465484,-0.52708805,0.9999784,8.8967245e-10,-8.430345e-11,-0.0065758377,4
829356000,829356000,0.84973896,0.010789249,0.0024720717,-0.5270875,0.9999784,8.8967245e-10,-8.430345e-11,-0.0065758377,4
829364000,829364000,0.8497524,0.010771879,0.0024776107,-0.52706623,0.9999784,8.8967245e-10,-8.430345e-11,-0.0065758377,4
829368000,829368000,0.8497555,0.0107666645,0.0024859423,-0.5270611,0.9999784,8.8967245e-10,-8.430345e-11,-0.0065758377,4
829372000,829372000,0.84975517,0.010759143,0.0024876231,-0.527062,0.9999784,8.8967245e-10,-8.430345e-11,-0.0065758377,4
829380000,829380000,0.8497434,0.010727911,0.0024902015,-0.5270815,0.9999784,8.8967245e-10,-8.430345e-11,-0.0065758377,4
829384000,829384000,0.84973717,0.010721126,0.0024849027,-0.5270918,0.9999784,8.8967245e-10,-8.430345e-11,-0.0065758377,4
829392000,829392000,0.8497138,0.010721813,0.0024833286,-0.5271295,0.9999784,8.8967245e-10,-8.430345e-11,-0.0065758377,4
829396000,829396000,0.84970593,0.010707187,0.0024905782,-0.52714235,0.9999784,8.8967245e-10,-8.430345e-11,-0.0065758377,4
829404000,829404000,0.849705,0.010659223,0.0024985243,-0.52714485,0.9999784,8.8967245e-10,-8.430345e-11,-0.0065758377,4
829408000,829408000,0.8497037,0.010649985,0.0024887878,-0.5271471,0.9999784,8.8967245e-10,-8.430345e-11,-0.0065758377,4
829412000,829412000,0.84970343,0.010647161,0.0024863326,-0.5271475,0.9999784,8.8967245e-10,-8.430345e-11,-0.0065758377,4
829416000,829416000,0.84970367,0.010642738,0.0024862408,-0.5271474,0.9999784,8.8967245e-10,-8.430345e-11,-0.0065758377,4
829420000,829420000,0.84970236,0.010634687,0.0024884234,-0.52714956,0.9999784,8.8967245e-10,-8.430345e-11,-0.0065758377,4
829424000,829424000,0.84970134,0.010630959,0.0024924218,-0.5271513,0.9999784,8.8967245e-10,-8.430345e-11,-0.0065758377,4
829428000,829428000,0.84970146,0.010626627,0.002492387,-0.5271512,0.9999784,8.8967245e-10,-8.430345e-11,-0.0065758377,4
829432000,829432000,0.8497012,0.010615546,0.0024935189,-0.52715164,0.9999784,8.8967245e-10,-8.430345e-11,-0.0065758377,4
829436000,829436000,0.8496981,0.010620665,0.002491543,-0.5271566,0.9999784,8.8967245e-10,-8.430345e-11,-0.0065758377,4
829440000,829440000,0.8496952,0.010635805,0.0024828636,-0.5271611,0.9999784,8.8967245e-10,-8.430345e-11,-0.0065758377,4
829448000,829448000,0.84970015,0.0106607,0.0024706302,-0.5271528,0.9999784,8.8967245e-10,-8.430345e-11,-0.0065758377,4
829452000,829452000,0.8496998,0.010656394,0.0024759443,-0.52715343,0.9999784,8.8967245e-10,-8.430345e-11,-0.0065758377,4
829456000,829456000,0.8496973,0.010637525,0.0024810187,-0.5271577,0.9999784,8.8967245e-10,-8.430345e-11,-0.0065758377,4
829460000,829460000,0.84969807,0.010628564,0.0024817672,-0.52715665,0.9999784,8.8967245e-10,-8.430345e-11,-0.0065758377,4
829468000,829468000,0.8496945,0.01061855,0.002479864,-0.5271628,0.9999784,8.8967245e-10,-8.430345e-11,-0.0065758377,4
829472000,829472000,0.8496898,0.010611013,0.0024718298,-0.5271705,0.9999784,8.8967245e-10,-8.430345e-11,-0.0065758377,4
829476000,829476000,0.849689,0.010610249,0.0024695536,-0.5271717,0.9999784,8.8967245e-10,-8.430345e-11,-0.0065758377,4
829480000,829480000,0.84968954,0.010616471,0.0024723893,-0.5271706,0.9999784,8.8967245e-10,-8.430345e-11,-0.0065758377,4
829484000,829484000,0.84968835,0.010629303,0.0024717804,-0.52717227,0.9999784,8.8967245e-10,-8.430345e-11,-0.0065758377,4
829492000,829492000,0.8496905,0.010652973,0.0024580543,-0.5271686,0.9999784,8.8967245e-10,-8.430345e-11,-0.0065758377,4
829496000,829496000,0.84969205,0.010655434,0.0024476498,-0.52716583,0.9999784,8.8967245e-10,-8.430345e-11,-0.0065758377,4
829500000,829500000,0.84969175,0.010667609,0.0024337608,-0.5271664,0.9999784,8.8967245e-10,-8.430345e-11,-0.0065758377,4
829508000,829508000,0.8496892,0.01068467,0.0024093767,-0.52717024,0.9999784,8.8967245e-10,-8.430345e-11,-0.0065758377,4
829516000,829516000,0.84968835,0.010653512,0.0024243775,-0.5271721,0.9999784,8.8967245e-10,-8.430345e-11,-0.0065758377,4
829520000,829520000,0.8496862,0.010660037,0.0024367238,-0.5271753,0.9999784,8.8967245e-10,-8.430345e-11,-0.0065758377,4
829528000,829528000,0.8496951,0.0106740985,0.0024536962,-0.5271606,0.9999784,8.8967245e-10,-8.430345e-11,-0.0065758377,4
829532000,829532000,0.84970176,0.010664482,0.002448985,-0.5271501,0.9999784,8.8967245e-10,-8.430345e-11,-0.0065758377,4
829540000,829540000,0.84970206,0.010645613,0.0024245696,-0.52715003,0.9999784,8.8967245e-10,-8.430345e-11,-0.0065758377,4
829544000,829544000,0.84970254,0.0106526455,0.002422847,-0.52714944,0.9999784,8.8967245e-10,-8.430345e-11,-0.0065758377,4
829548000,829548000,0.8497026,0.010650887,0.0024322222,-0.52714914,0.9999784,8.8967245e-10,-8.430345e-11,-0.0065758377,4
829556000,829556000,0.849704,0.010661525,0.002413371,-0.52714676,0.9999784,8.8967245e-10,-8.430345e-11,-0.0065758377,4
829560000,829560000,0.8497056,0.010678629,0.0023947498,-0.527144,0.9999784,8.8967245e-10,-8.430345e-11,-0.0065758377,4
829564000,829564000,0.849707,0.010699773,0.0023836505,-0.52714115,0.9999784,8.8967245e-10,-8.430345e-11,-0.0065758377,4
829568000,829568000,0.8497071,0.010697886,0.002388133,-0.527141,0.9999784,8.8967245e-10,-8.430345e-11,-0.0065758377,4
829576000,829576000,0.8497085,0.010673358,0.002393044,-0.5271394,0.9999784,8.8967245e-10,-8.430345e-11,-0.0065758377,4
829580000,829580000,0.84971863,0.010672872,0.0023814463,-0.5271231,0.9999784,8.8967245e-10,-8.430345e-11,-0.0065758377,4
829588000,829588000,0.8497224,0.010672901,0.0023585549,-0.5271172,0.9999784,8.8967245e-10,-8.430345e-11,-0.0065758377,4
829596000,829596000,0.8497193,0.01067482,0.0023502978,-0.5271222,0.9999784,8.8967245e-10,-8.430345e-11,-0.0065758377,4
829600000,829600000,0.84971786,0.01067679,0.00234742,-0.5271244,0.9999784,8.8967245e-10,-8.430345e-11,-0.0065758377,4
829604000,829604000,0.8497139,0.010677562,0.0023447024,-0.5271307,0.9999784,8.8967245e-10,-8.430345e-11,-0.0065758377,4
829608000,829608000,0.8497106,0.0106735965,0.0023405252,-0.5271362,0.9999784,8.8967245e-10,-8.430345e-11,-0.0065758377,4
829612000,829612000,0.8497081,0.010671788,0.0023337407,-0.5271403,0.9999784,8.8967245e-10,-8.430345e-11,-0.0065758377,4
829620000,829620000,0.8497104,0.010692994,0.0023177955,-0.5271364,0.9999784,8.8967245e-10,-8.430345e-11,-0.0065758377,4
829624000,829624000,0.8497137,0.010696448,0.0023145285,-0.52713096,0.9999784,8.8967245e-10,-8.430345e-11,-0.0065758377,4
829628000,829628000,0.84971374,0.0107036345,0.0023052392,-0.52713054,0.9999784,8.8967245e-10,-8.430345e-11,-0.0065758377,4
829632000,829632000,0.8497105,0.010695536,0.0023048648,-0.5271361,0.9999784,8.8967245e-10,-8.430345e-11,-0.0065758377,4
829636000,829636000,0.8497065,0.010680082,0.0023078134,-0.5271429,0.9999784,8.8967245e-10,-8.430345e-11,-0.0065758377,4
829640000,829640000,0.84970367,0.01067724,0.0023079219,-0.5271475,0.9999784,8.8967245e-10,-8.430345e-11,-0.0065758377,4
829648000,829648000,0.8496965,0.010667251,0.0023133205,-0.5271592,0.9999784,8.8967245e-10,-8.430345e-11,-0.0065758377,4
829652000,829652000,0.84969074,0.010658578,0.0023152067,-0.5271687,0.9999784,8.8967245e-10,-8.430345e-11,-0.0065758377,4
829660000,829660000,0.8496838,0.010662661,0.0023212517,-0.52717984,0.9999784,8.8967245e-10,-8.430345e-11,-0.0065758377,4
829664000,829664000,0.8496833,0.010673393,0.002324152,-0.52718025,0.9999784,8.8967245e-10,-8.430345e-11,-0.0065758377,4
829668000,829668000,0.8496824,0.010669862,0.0023202423,-0.52718174,0.9999784,8.8967245e-10,-8.430345e-11,-0.0065758377,4
829672000,829672000,0.84968024,0.010651789,0.0023122085,-0.5271856,0.9999784,8.8967245e-10,-8.430345e-11,-0.0065758377,4
829676000,829676000,0.8496796,0.010633987,0.0023096236,-0.52718717,0.9999784,8.8967245e-10,-8.430345e-11,-0.0065758377,4
829680000,829680000,0.8496827,0.0106209535,0.0023096425,-0.5271824,0.9999784,8.8967245e-10,-8.430345e-11,-0.0065758377,4
829684000,829684000,0.8496838,0.010611142,0.0023058162,-0.5271808,0.9999784,8.8967245e-10,-8.430345e-11,-0.0065758377,4
829692000,829692000,0.8496811,0.010629583,0.0022840071,-0.5271849,0.9999784,8.8967245e-10,-8.430345e-11,-0.0065758377,4
829700000,829700000,0.8496869,0.010631594,0.0022709724,-0.5271755,0.9999784,8.8967245e-10,-8.430345e-11,-0.0065758377,4
829704000,829704000,0.84969205,0.010619796,0.0022801897,-0.5271675,0.9999784,8.8967245e-10,-8.430345e-11,-0.0065758377,4
829708000,829708000,0.8496924,0.01062187,0.0022714776,-0.52716684,0.9999784,8.8967245e-10,-8.430345e-11,-0.0065758377,4
829712000,829712000,0.8496918,0.010631516,0.002251806,-0.52716774,0.9999784,8.8967245e-10,-8.430345e-11,-0.0065758377,4
829716000,829716000,0.849698,0.010636384,0.002234354,-0.5271577,0.9999784,8.8967245e-10,-8.430345e-11,-0.0065758377,4
829720000,829720000,0.84970874,0.010633896,0.0022201238,-0.52714044,0.9999784,8.8967245e-10,-8.430345e-11,-0.0065758377,4
829728000,829728000,0.8497152,0.010625492,0.0022128513,-0.5271303,0.9999784,8.8967245e-10,-8.430345e-11,-0.0065758377,4
829732000,829732000,0.84971,0.010626343,0.0022206393,-0.5271387,0.9999784,8.8967245e-10,-8.430345e-11,-0.0065758377,4
829736000,829736000,0.8497041,0.0106301885,0.00222539,-0.5271481,0.9999784,8.8967245e-10,-8.430345e-11,-0.0065758377,4
829740000,829740000,0.8497002,0.010646405,0.0022136513,-0.5271541,0.9999784,8.8967245e-10,-8.430345e-11,-0.0065758377,4
829744000,829744000,0.84970045,0.010668699,0.0021956165,-0.5271533,0.9999784,8.8967245e-10,-8.430345e-11,-0.0065758377,4
829748000,829748000,0.8497025,0.010680544,0.0021809004,-0.52714986,0.9999784,8.8967245e-10,-8.430345e-11,-0.0065758377,4
829752000,829752000,0.8497051,0.010686234,0.002167542,-0.52714545,0.9999784,8.8967245e-10,-8.430345e-11,-0.0065758377,4
829756000,829756000,0.8497089,0.010671653,0.002173012,-0.5271396,0.9999784,8.8967245e-10,-8.430345e-11,-0.0065758377,4
829760000,829760000,0.84970963,0.010652697,0.0021838138,-0.52713877,0.9999784,8.8967245e-10,-8.430345e-11,-0.0065758377,4
829764000,829764000,0.8497088,0.010647937,0.0021852069,-0.52714026,0.9999784,8.8967245e-10,-8.430345e-11,-0.0065758377,4
829768000,829768000,0.84971327,0.010640838,0.0021848797,-0.5271332,0.9999784,8.8967245e-10,-8.430345e-11,-0.0065758377,4
829772000,829772000,0.8497185,0.010634492,0.0021796834,-0.5271248,0.9999784,8.8967245e-10,-8.430345e-11,-0.0065758377,4
829780000,829780000,0.84971744,0.010640215,0.002189522,-0.52712643,0.9999784,8.8967245e-10,-8.430345e-11,-0.0065758377,4
829784000,829784000,0.8497216,0.0106338225,0.0022007842,-0.5271198,0.9999784,8.8967245e-10,-8.430345e-11,-0.0065758377,4
829788000,829788000,0.84972656,0.010631306,0.0022021064,-0.5271119,0.9999784,8.8967245e-10,-8.430345e-11,-0.0065758377,4
829792000,829792000,0.8497267,0.010634308,0.0022045346,-0.52711165,0.9999784,8.8967245e-10,-8.430345e-11,-0.0065758377,4
829796000,829796000,0.84972453,0.010636503,0.0022087556,-0.52711505,0.9999784,8.8967245e-10,-8.430345e-11,-0.0065758377,4
829800000,829800000,0.8497252,0.010640094,0.0022102515,-0.5271139,0.9999784,8.8967245e-10,-8.430345e-11,-0.0065758377,4
829804000,829804000,0.849727,0.010660654,0.0022037027,-0.52711064,0.9999784,8.8967245e-10,-8.430345e-11,-0.0065758377,4
829808000,829808000,0.849727,0.010686638,0.002197011,-0.5271101,0.9999784,8.8967245e-10,-8.430345e-11,-0.0065758377,4
829816000,829816000,0.8497304,0.010693836,0.0021913538,-0.52710456,0.9999784,8.8967245e-10,-8.430345e-11,-0.0065758377,4
829820000,829820000,0.8497316,0.010678209,0.002190463,-0.5271028,0.9999784,8.8967245e-10,-8.430345e-11,-0.0065758377,4
829824000,829824000,0.8497291,0.010674764,0.0021771234,-0.5271071,0.9999784,8.8967245e-10,-8.430345e-11,-0.0065758377,4
829828000,829828000,0.84972245,0.010682255,0.0021633354,-0.5271176,0.9999784,8.8967245e-10,-8.430345e-11,-0.0065758377,4
829836000,829836000,0.8497109,0.01067984,0.002168573,-0.5271362,0.9999784,8.8967245e-10,-8.430345e-11,-0.0065758377,4
829840000,829840000,0.84970623,0.010676698,0.0021752466,-0.527144,0.9999784,8.8967245e-10,-8.430345e-11,-0.0065758377,4
829844000,829844000,0.849701,0.010676955,0.0021773076,-0.52715224,0.9999784,8.8967245e-10,-8.430345e-11,-0.0065758377,4
829848000,829848000,0.84969735,0.010676064,0.0021775984,-0.5271583,0.9999784,8.8967245e-10,-8.430345e-11,-0.0065758377,4
829852000,829852000,0.8496964,0.010673779,0.0021755693,-0.52715987,0.9999784,8.8967245e-10,-8.430345e-11,-0.0065758377,4
829856000,829856000,0.8496973,0.010679613,0.0021594076,-0.5271584,0.9999784,8.8967245e-10,-8.430345e-11,-0.0065758377,4
829860000,829860000,0.8496958,0.01068489,0.0021373597,-0.5271606,0.9999784,8.8967245e-10,-8.430345e-11,-0.0065758377,4
829864000,829864000,0.84969085,0.010683727,0.002121296,-0.5271687,0.9999784,8.8967245e-10,-8.430345e-11,-0.0065758377,4
829868000,829868000,0.84968495,0.0107000545,0.0021081863,-0.5271781,0.9999784,8.8967245e-10,-8.430345e-11,-0.0065758377,4
829872000,829872000,0.8496804,0.010712971,0.0021128755,-0.5271851,0.9999784,8.8967245e-10,-8.430345e-11,-0.0065758377,4
829880000,829880000,0.84968066,0.010707683,0.00212955,-0.5271846,0.9999784,8.8967245e-10,-8.430345e-11,-0.0065758377,4
829884000,829884000,0.84968466,0.010710059,0.0021312833,-0.5271781,0.9999784,8.8967245e-10,-8.430345e-11,-0.0065758377,4
829888000,829888000,0.8496894,0.010718784,0.0021372442,-0.5271702,0.9999784,8.8967245e-10,-8.430345e-11,-0.0065758377,4
829892000,829892000,0.8496971,0.010724932,0.0021409942,-0.52715784,0.9999784,8.8967245e-10,-8.430345e-11,-0.0065758377,4
829896000,829896000,0.8497038,0.010721928,0.0021391832,-0.52714694,0.9999784,8.8967245e-10,-8.430345e-11,-0.0065758377,4
829900000,829900000,0.849709,0.010717625,0.0021363301,-0.5271388,0.9999784,8.8967245e-10,-8.430345e-11,-0.0065758377,4
829904000,829904000,0.84971684,0.010714673,0.0021326148,-0.5271262,0.9999784,8.8967245e-10,-8.430345e-11,-0.0065758377,4
829908000,829908000,0.8497227,0.0107200155,0.0021281769,-0.52711666,0.9999784,8.8967245e-10,-8.430345e-11,-0.0065758377,4
829916000,829916000,0.84972703,0.01074044,0.002127227,-0.52710927,0.9999784,8.8967245e-10,-8.430345e-11,-0.0065758377,4
829920000,829920000,0.84972817,0.010763418,0.0021201232,-0.527107,0.9999784,8.8967245e-10,-8.430345e-11,-0.0065758377,4
829924000,829924000,0.84972805,0.010792166,0.002108207,-0.5271066,0.9999784,8.8967245e-10,-8.430345e-11,-0.0065758377,4
829932000,829932000,0.84972614,0.0108103715,0.0020919049,-0.52710956,0.9999784,8.8967245e-10,-8.430345e-11,-0.0065758377,4
829936000,829936000,0.8497309,0.010796435,0.0020970195,-0.5271019,0.9999784,8.8967245e-10,-8.430345e-11,-0.0065758377,4
829940000,829940000,0.8497363,0.01078044,0.002110929,-0.5270937,0.9999784,8.8967245e-10,-8.430345e-11,-0.0065758377,4
829948000,829948000,0.84974116,0.010779446,0.0021070756,-0.5270858,0.9999784,8.8967245e-10,-8.430345e-11,-0.0065758377,4
829952000,829952000,0.8497397,0.010783439,0.0021049408,-0.52708805,0.9999784,8.8967245e-10,-8.430345e-11,-0.0065758377,4
829956000,829956000,0.8497399,0.010784378,0.0021059227,-0.5270876,0.9999784,8.8967245e-10,-8.430345e-11,-0.0065758377,4
829964000,829964000,0.84973204,0.010758453,0.0021158797,-0.52710086,0.9999784,8.8967245e-10,-8.430345e-11,-0.0065758377,4
829968000,829968000,0.8497256,0.010751495,0.002117483,-0.52711135,0.9999784,8.8967245e-10,-8.430345e-11,-0.0065758377,4
829972000,829972000,0.84972507,0.010747322,0.002120387,-0.52711236,0.9999784,8.8967245e-10,-8.430345e-11,-0.0065758377,4
829980000,829980000,0.84972966,0.010761692,0.0021050826,-0.5271046,0.9999784,8.8967245e-10,-8.430345e-11,-0.0065758377,4
829988000,829988000,0.8497314,0.010760565,0.0021063213,-0.5271019,0.9999784,8.8967245e-10,-8.430345e-11,-0.0065758377,4
829992000,829992000,0.8497323,0.0107647395,0.002106496,-0.5271003,0.9999784,8.8967245e-10,-8.430345e-11,-0.0065758377,4
829996000,829996000,0.8497328,0.01077801,0.0021041664,-0.5270992,0.9999784,8.8967245e-10,-8.430345e-11,-0.0065758377,4
830004000,830004000,0.8497337,0.010797777,0.002111838,-0.5270974,0.9999784,8.8967245e-10,-8.430345e-11,-0.0065758377,4
830008000,830008000,0.8497353,0.010789604,0.0021234092,-0.52709496,0.9999784,8.8967245e-10,-8.430345e-11,-0.0065758377,4
830012000,830012000,0.8497358,0.010778521,0.0021424456,-0.5270942,0.9999784,8.8967245e-10,-8.430345e-11,-0.0065758377,4
830016000,830016000,0.84973675,0.010774087,0.002147933,-0.52709275,0.9999784,8.8967245e-10,-8.430345e-11,-0.0065758377,4
830020000,830020000,0.84973854,0.010767771,0.0021432913,-0.5270901,0.9999784,8.8967245e-10,-8.430345e-11,-0.0065758377,4
830024000,830024000,0.8497392,0.010763815,0.0021384668,-0.52708906,0.9999784,8.8967245e-10,-8.430345e-11,-0.0065758377,4
830028000,830028000,0.84973824,0.010765827,0.002136238,-0.5270907,0.9999784,8.8967245e-10,-8.430345e-11,-0.0065758377,4
830036000,830036000,0.8497373,0.01075727,0.0021276246,-0.5270924,0.9999784,8.8967245e-10,-8.430345e-11,-0.0065758377,4
830044000,830044000,0.8497286,0.010743364,0.0021368552,-0.5271067,0.9999784,8.8967245e-10,-8.430345e-11,-0.0065758377,4
830048000,830048000,0.8497265,0.010747996,0.002139864,-0.52710974,0.9999784,8.8967245e-10,-8.430345e-11,-0.0065758377,4
830056000,830056000,0.8497275,0.010745259,0.002160749,-0.5271082,0.9999784,8.8967245e-10,-8.430345e-11,-0.0065758377,4
830064000,830064000,0.8497321,0.010736536,0.0021636002,-0.5271011,0.9999784,8.8967245e-10,-8.430345e-11,-0.0065758377,4
830068000,830068000,0.8497302,0.010748808,0.00215647,-0.52710396,0.9999784,8.8967245e-10,-8.430345e-11,-0.0065758377,4
830072000,830072000,0.8497295,0.010755355,0.002157246,-0.527105,0.9999784,8.8967245e-10,-8.430345e-11,-0.0065758377,4
830076000,830076000,0.84973115,0.010748407,0.0021776338,-0.5271022,0.9999784,8.8967245e-10,-8.430345e-11,-0.0065758377,4
830080000,830080000,0.84973073,0.01073513,0.0021969618,-0.52710307,0.9999784,8.8967245e-10,-8.430345e-11,-0.0065758377,4
830088000,830088000,0.8497182,0.010728343,0.0021859389,-0.5271236,0.9999784,8.8967245e-10,-8.430345e-11,-0.0065758377,4
830092000,830092000,0.8497104,0.01072278,0.0021855521,-0.527136,0.9999784,8.8967245e-10,-8.430345e-11,-0.0065758377,4
830096000,830096000,0.8497079,0.010717174,0.0021869717,-0.5271404,0.9999784,8.8967245e-10,-8.430345e-11,-0.0065758377,4
830104000,830104000,0.8497165,0.010708683,0.002202909,-0.5271267,0.9999784,8.8967245e-10,-8.430345e-11,-0.0065758377,4
830112000,830112000,0.8497195,0.010682951,0.002234632,-0.527122,0.9999784,8.8967245e-10,-8.430345e-11,-0.0065758377,4
830116000,830116000,0.8497201,0.010687749,0.0022345285,-0.527121,0.9999784,8.8967245e-10,-8.430345e-11,-0.0065758377,4
830124000,830124000,0.8497179,0.010710675,0.0022285937,-0.5271241,0.9999784,8.8967245e-10,-8.430345e-11,-0.0065758377,4
830128000,830128000,0.84971404,0.01071322,0.0022380955,-0.52713037,0.9999784,8.8967245e-10,-8.430345e-11,-0.0065758377,4
830132000,830132000,0.8497113,0.010699773,0.0022531098,-0.5271348,0.9999784,8.8967245e-10,-8.430345e-11,-0.0065758377,4
830136000,830136000,0.8497098,0.010684287,0.0022718685,-0.52713746,0.9999784,8.8967245e-10,-8.430345e-11,-0.0065758377,4
830144000,830144000,0.8497208,0.01067825,0.0022986692,-0.52711993,0.9999784,8.8967245e-10,-8.430345e-11,-0.0065758377,4
830148000,830148000,0.84972316,0.01067288,0.0023022937,-0.527116,0.9999784,8.8967245e-10,-8.430345e-11,-0.0065758377,4
830156000,830156000,0.84971976,0.010669577,0.0022993279,-0.52712154,0.9999784,8.8967245e-10,-8.430345e-11,-0.0065758377,4
830160000,830160000,0.84972054,0.010663417,0.0022964745,-0.52712065,0.9999784,8.8967245e-10,-8.430345e-11,-0.0065758377,4
830164000,830164000,0.8497192,0.010660039,0.002303211,-0.52712274,0.9999784,8.8967245e-10,-8.430345e-11,-0.0065758377,4
830168000,830168000,0.8497171,0.010660563,0.0023131315,-0.5271262,0.9999784,8.8967245e-10,-8.430345e-11,-0.0065758377,4
830172000,830172000,0.84971344,0.010659647,0.0023126875,-0.52713203,0.9999784,8.8967245e-10,-8.430345e-11,-0.0065758377,4
830176000,830176000,0.84970987,0.010654869,0.0023089494,-0.52713805,0.9999784,8.8967245e-10,-8.430345e-11,-0.0065758377,4
830180000,830180000,0.8497109,0.010655866,0.0023053028,-0.5271362,0.9999784,8.8967245e-10,-8.430345e-11,-0.0065758377,4
830184000,830184000,0.84971523,0.010661128,0.0023032897,-0.52712905,0.9999784,8.8967245e-10,-8.430345e-11,-0.0065758377,4
830188000,830188000,0.84971774,0.0106689725,0.0023034704,-0.52712506,0.9999784,8.8967245e-10,-8.430345e-11,-0.0065758377,4
830196000,830196000,0.8497212,0.010651277,0.0023357517,-0.5271196,0.9999784,8.8967245e-10,-8.430345e-11,-0.0065758377,4
830204000,830204000,0.84972095,0.010648188,0.0023470244,-0.5271199,0.9999784,8.8967245e-10,-8.430345e-11,-0.0065758377,4
830208000,830208000,0.84971416,0.010644882,0.0023453624,-0.52713114,0.9999784,8.8967245e-10,-8.430345e-11,-0.0065758377,4
830212000,830212000,0.8497113,0.010648445,0.0023374842,-0.5271355,0.9999784,8.8967245e-10,-8.430345e-11,-0.0065758377,4
830216000,830216000,0.8497109,0.010651002,0.0023338958,-0.5271363,0.9999784,8.8967245e-10,-8.430345e-11,-0.0065758377,4
830220000,830220000,0.8497073,0.010651092,0.0023375314,-0.527142,0.9999784,8.8967245e-10,-8.430345e-11,-0.0065758377,4
830224000,830224000,0.8497023,0.010649638,0.0023345808,-0.5271501,0.9999784,8.8967245e-10,-8.430345e-11,-0.0065758377,4
830228000,830228000,0.849701,0.0106387455,0.0023223788,-0.52715236,0.9999784,8.8967245e-10,-8.430345e-11,-0.0065758377,4
830236000,830236000,0.84971035,0.010657598,0.002296273,-0.527137,0.9999784,8.8967245e-10,-8.430345e-11,-0.0065758377,4
830244000,830244000,0.84971774,0.010686213,0.002297902,-0.5271245,0.9999784,8.8967245e-10,-8.430345e-11,-0.0065758377,4
830248000,830248000,0.84971905,0.010682831,0.0023065617,-0.5271227,0.9999784,8.8967245e-10,-8.430345e-11,-0.0065758377,4
830252000,830252000,0.8497216,0.010672962,0.002314832,-0.5271185,0.9999784,8.8967245e-10,-8.430345e-11,-0.0065758377,4
830256000,830256000,0.84972644,0.010668569,0.0023146132,-0.5271108,0.9999784,8.8967245e-10,-8.430345e-11,-0.0065758377,4
830260000,830260000,0.8497304,0.010667559,0.0023148179,-0.5271045,0.9999784,8.8967245e-10,-8.430345e-11,-0.0065758377,4
830264000,830264000,0.8497309,0.010672402,0.002321443,-0.5271036,0.9999784,8.8967245e-10,-8.430345e-11,-0.0065758377,4
830268000,830268000,0.8497295,0.010673849,0.002327701,-0.52710587,0.9999784,8.8967245e-10,-8.430345e-11,-0.0065758377,4
830276000,830276000,0.8497275,0.010661841,0.0023327281,-0.5271092,0.9999784,8.8967245e-10,-8.430345e-11,-0.0065758377,4
830284000,830284000,0.8497315,0.010664947,0.0023244391,-0.52710265,0.9999784,8.8967245e-10,-8.430345e-11,-0.0065758377,4
830288000,830288000,0.849729,0.010663888,0.0023232216,-0.5271069,0.9999784,8.8967245e-10,-8.430345e-11,-0.0065758377,4
830292000,830292000,0.8497261,0.010659205,0.0023242554,-0.5271115,0.9999784,8.8967245e-10,-8.430345e-11,-0.0065758377,4
830296000,830296000,0.84972596,0.010667313,0.0023235476,-0.52711153,0.9999784,8.8967245e-10,-8.430345e-11,-0.0065758377,4
830304000,830304000,0.8497244,0.010697316,0.0023210861,-0.52711356,0.9999784,8.8967245e-10,-8.430345e-11,-0.0065758377,4
830308000,830308000,0.84972245,0.010715887,0.0023170183,-0.5271164,0.9999784,8.8967245e-10,-8.430345e-11,-0.0065758377,4
830312000,830312000,0.8497236,0.010712178,0.002330461,-0.5271146,0.9999784,8.8967245e-10,-8.430345e-11,-0.0065758377,4
830316000,830316000,0.8497299,0.01069838,0.0023456865,-0.5271047,0.9999784,8.8967245e-10,-8.430345e-11,-0.0065758377,4
830324000,830324000,0.8497414,0.01070754,0.002346414,-0.5270859,0.9999784,8.8967245e-10,-8.430345e-11,-0.0065758377,4
830328000,830328000,0.8497413,0.010707438,0.002349456,-0.5270861,0.9999784,8.8967245e-10,-8.430345e-11,-0.0065758377,4
830332000,830332000,0.84974176,0.01070194,0.0023458067,-0.52708536,0.9999784,8.8967245e-10,-8.430345e-11,-0.0065758377,4
830340000,830340000,0.8497388,0.010675353,0.002340703,-0.52709085,0.9999784,8.8967245e-10,-8.430345e-11,-0.0065758377,4
830344000,830344000,0.8497378,0.010668925,0.0023476558,-0.52709234,0.9999784,8.8967245e-10,-8.430345e-11,-0.0065758377,4
830348000,830348000,0.84974056,0.010666633,0.0023551136,-0.5270879,0.9999784,8.8967245e-10,-8.430345e-11,-0.0065758377,4
830352000,830352000,0.8497419,0.010668804,0.0023616967,-0.5270858,0.9999784,8.8967245e-10,-8.430345e-11,-0.0065758377,4
830356000,830356000,0.84974,0.010673195,0.0023588086,-0.52708864,0.9999784,8.8967245e-10,-8.430345e-11,-0.0065758377,4
830360000,830360000,0.8497378,0.01067995,0.0023506363,-0.52709204,0.9999784,8.8967245e-10,-8.430345e-11,-0.0065758377,4
830364000,830364000,0.8497363,0.0106866285,0.0023493962,-0.5270945,0.9999784,8.8967245e-10,-8.430345e-11,-0.0065758377,4
830368000,830368000,0.84973544,0.0107042575,0.0023425412,-0.52709556,0.9999784,8.8967245e-10,-8.430345e-11,-0.0065758377,4
830372000,830372000,0.8497359,0.01071943,0.0023296652,-0.5270945,0.9999784,8.8967245e-10,-8.430345e-11,-0.0065758377,4
830376000,830376000,0.84973764,0.0107181305,0.0023225467,-0.52709174,0.9999784,8.8967245e-10,-8.430345e-11,-0.0065758377,4
830380000,830380000,0.8497398,0.0107062515,0.002322613,-0.5270885,0.9999784,8.8967245e-10,-8.430345e-11,-0.0065758377,4
830388000,830388000,0.8497407,0.010688627,0.002309484,-0.5270877,0.9999784,8.8967245e-10,-8.430345e-11,-0.0065758377,4
830396000,830396000,0.8497399,0.010688497,0.002297321,-0.52708894,0.9999784,8.8967245e-10,-8.430345e-11,-0.0065758377,4
830404000,830404000,0.8497357,0.010683623,0.0023150037,-0.52709574,0.9999784,8.8967245e-10,-8.430345e-11,-0.0065758377,4
830408000,830408000,0.84973663,0.010685738,0.0023174651,-0.5270941,0.9999784,8.8967245e-10,-8.430345e-11,-0.0065758377,4
830416000,830416000,0.8497362,0.0107073765,0.0023222298,-0.5270944,0.9999784,8.8967245e-10,-8.430345e-11,-0.0065758377,4
830424000,830424000,0.84973896,0.010730297,0.002312844,-0.5270895,0.9999784,8.8967245e-10,-8.430345e-11,-0.0065758377,4
830428000,830428000,0.849745,0.010726508,0.0023087172,-0.5270798,0.9999784,8.8967245e-10,-8.430345e-11,-0.0065758377,4
830436000,830436000,0.8497556,0.010712574,0.002307464,-0.527063,0.9999784,8.8967245e-10,-8.430345e-11,-0.0065758377,4
830440000,830440000,0.8497576,0.010696971,0.002318783,-0.52706,0.9999784,8.8967245e-10,-8.430345e-11,-0.0065758377,4
830444000,830444000,0.84975845,0.0106961895,0.002319675,-0.52705884,0.9999784,8.8967245e-10,-8.430345e-11,-0.0065758377,4
830452000,830452000,0.84975404,0.0106926225,0.002321463,-0.5270658,0.9999784,8.8967245e-10,-8.430345e-11,-0.0065758377,4
830456000,830456000,0.84975106,0.010694748,0.0023261693,-0.5270706,0.9999784,8.8967245e-10,-8.430345e-11,-0.0065758377,4
830464000,830464000,0.8497476,0.010709659,0.0023345232,-0.527076,0.9999784,8.8967245e-10,-8.430345e-11,-0.0065758377,4
830468000,830468000,0.84974873,0.010711496,0.0023386634,-0.5270739,0.9999784,8.8967245e-10,-8.430345e-11,-0.0065758377,4
830472000,830472000,0.8497505,0.010714436,0.0023445778,-0.52707094,0.9999784,8.8967245e-10,-8.430345e-11,-0.0065758377,4
830476000,830476000,0.84974927,0.010713976,0.0023501483,-0.52707297,0.9999784,8.8967245e-10,-8.430345e-11,-0.0065758377,4
830484000,830484000,0.849744,0.010704147,0.002346938,-0.5270817,0.9999784,8.8967245e-10,-8.430345e-11,-0.0065758377,4
830488000,830488000,0.84974295,0.010712282,0.0023415734,-0.5270833,0.9999784,8.8967245e-10,-8.430345e-11,-0.0065758377,4
830492000,830492000,0.8497429,0.010709432,0.0023467683,-0.52708346,0.9999784,8.8967245e-10,-8.430345e-11,-0.0065758377,4
830496000,830496000,0.8497416,0.01069017,0.0023558678,-0.52708584,0.9999784,8.8967245e-10,-8.430345e-11,-0.0065758377,4
830500000,830500000,0.84973806,0.010670681,0.002362641,-0.5270919,0.9999784,8.8967245e-10,-8.430345e-11,-0.0065758377,4
830504000,830504000,0.84973663,0.010664054,0.002368886,-0.52709436,0.9999784,8.8967245e-10,-8.430345e-11,-0.0065758377,4
830508000,830508000,0.84974074,0.010655425,0.0023737685,-0.5270877,0.9999784,8.8967245e-10,-8.430345e-11,-0.0065758377,4
830512000,830512000,0.84974504,0.010644487,0.0023719096,-0.5270812,0.9999784,8.8967245e-10,-8.430345e-11,-0.0065758377,4
830516000,830516000,0.84974635,0.010633128,0.0023734928,-0.5270791,0.9999784,8.8967245e-10,-8.430345e-11,-0.0065758377,4
830520000,830520000,0.8497474,0.01062303,0.0023811774,-0.5270778,0.9999784,8.8967245e-10,-8.430345e-11,-0.0065758377,4
830528000,830528000,0.8497377,0.01060876,0.0023943016,-0.52709365,0.9999784,8.8967245e-10,-8.430345e-11,-0.0065758377,4
830532000,830532000,0.8497332,0.0106006665,0.002398305,-0.52710086,0.9999784,8.8967245e-10,-8.430345e-11,-0.0065758377,4
830536000,830536000,0.84973437,0.0105981445,0.0023949777,-0.5270992,0.9999784,8.8967245e-10,-8.430345e-11,-0.0065758377,4
830540000,830540000,0.8497337,0.010599252,0.0023844135,-0.5271002,0.9999784,8.8967245e-10,-8.430345e-11,-0.0065758377,4
830544000,830544000,0.8497314,0.010601056,0.0023790698,-0.52710396,0.9999784,8.8967245e-10,-8.430345e-11,-0.0065758377,4
830548000,830548000,0.8497318,0.010610224,0.0023703636,-0.5271031,0.9999784,8.8967245e-10,-8.430345e-11,-0.0065758377,4
830552000,830552000,0.84973323,0.010605636,0.0023707883,-0.5271009,0.9999784,8.8967245e-10,-8.430345e-11,-0.0065758377,4
830556000,830556000,0.8497348,0.010593835,0.0023838347,-0.5270986,0.9999784,8.8967245e-10,-8.430345e-11,-0.0065758377,4
830560000,830560000,0.84973425,0.010592426,0.002390457,-0.52709955,0.9999784,8.8967245e-10,-8.430345e-11,-0.0065758377,4
830564000,830564000,0.8497311,0.010591648,0.0023910915,-0.5271046,0.9999784,8.8967245e-10,-8.430345e-11,-0.0065758377,4
830568000,830568000,0.8497308,0.010586315,0.0023902548,-0.5271052,0.9999784,8.8967245e-10,-8.430345e-11,-0.0065758377,4
830572000,830572000,0.8497336,0.0105792945,0.002391665,-0.5271008,0.9999784,8.8967245e-10,-8.430345e-11,-0.0065758377,4
830576000,830576000,0.8497344,0.010577625,0.0023955738,-0.52709955,0.9999784,8.8967245e-10,-8.430345e-11,-0.0065758377,4
830580000,830580000,0.84973234,0.010580249,0.0023943596,-0.5271028,0.9999784,8.8967245e-10,-8.430345e-11,-0.0065758377,4
830584000,830584000,0.84973115,0.010577643,0.0023896245,-0.52710485,0.9999784,8.8967245e-10,-8.430345e-11,-0.0065758377,4
830592000,830592000,0.8497363,0.010569178,0.0023847122,-0.52709675,0.9999784,8.8967245e-10,-8.430345e-11,-0.0065758377,4
830600000,830600000,0.8497446,0.010599546,0.002388547,-0.52708274,0.9999784,8.8967245e-10,-8.430345e-11,-0.0065758377,4
830604000,830604000,0.8497459,0.010614007,0.0023847676,-0.52708036,0.9999784,8.8967245e-10,-8.430345e-11,-0.0065758377,4
830612000,830612000,0.84974986,0.010622215,0.002380932,-0.5270738,0.9999784,8.8967245e-10,-8.430345e-11,-0.0065758377,4
830616000,830616000,0.84975535,0.010610156,0.0023825495,-0.52706516,0.9999784,8.8967245e-10,-8.430345e-11,-0.0065758377,4
830620000,830620000,0.84975487,0.010602378,0.0023791064,-0.52706605,0.9999784,8.8967245e-10,-8.430345e-11,-0.0065758377,4
830628000,830628000,0.8497499,0.01058169,0.002387058,-0.5270746,0.9999784,8.8967245e-10,-8.430345e-11,-0.0065758377,4
830632000,830632000,0.84974825,0.010575458,0.0023980187,-0.52707714,0.9999784,8.8967245e-10,-8.430345e-11,-0.0065758377,4
830636000,830636000,0.8497472,0.010575396,0.0024057713,-0.52707887,0.9999784,8.8967245e-10,-8.430345e-11,-0.0065758377,4
830640000,830640000,0.8497464,0.010574334,0.0024117834,-0.5270802,0.9999784,8.8967245e-10,-8.430345e-11,-0.0065758377,4
830644000,830644000,0.84974533,0.0105696665,0.0024150226,-0.52708197,0.9999784,8.8967245e-10,-8.430345e-11,-0.0065758377,4
830648000,830648000,0.84974194,0.010568233,0.002413312,-0.5270874,0.9999784,8.8967245e-10,-8.430345e-11,-0.0065758377,4
830652000,830652000,0.84973896,0.010581411,0.002398768,-0.52709204,0.9999784,8.8967245e-10,-8.430345e-11,-0.0065758377,4
830656000,830656000,0.8497376,0.01059704,0.0023809394,-0.527094,0.9999784,8.8967245e-10,-8.430345e-11,-0.0065758377,4
830660000,830660000,0.8497362,0.010598467,0.0023725533,-0.52709645,0.9999784,8.8967245e-10,-8.430345e-11,-0.0065758377,4
830664000,830664000,0.8497355,0.010596383,0.002366475,-0.52709746,0.9999784,8.8967245e-10,-8.430345e-11,-0.0065758377,4
830668000,830668000,0.8497356,0.01058252,0.0023727096,-0.5270975,0.9999784,8.8967245e-10,-8.430345e-11,-0.0065758377,4
830676000,830676000,0.84973586,0.010556984,0.002383453,-0.5270978,0.9999784,8.8967245e-10,-8.430345e-11,-0.0065758377,4
830680000,830680000,0.84973645,0.010557919,0.002381999,-0.52709657,0.9999784,8.8967245e-10,-8.430345e-11,-0.0065758377,4
830688000,830688000,0.8497399,0.0105592925,0.0023916606,-0.5270909,0.9999784,8.8967245e-10,-8.430345e-11,-0.0065758377,4
830696000,830696000,0.8497368,0.010577531,0.0024077352,-0.52709574,0.9999784,8.8967245e-10,-8.430345e-11,-0.0065758377,4
830700000,830700000,0.84973586,0.010589196,0.0024026365,-0.5270969,0.9999784,8.8967245e-10,-8.430345e-11,-0.0065758377,4
830704000,830704000,0.84973675,0.0105922,0.0023985973,-0.52709544,0.9999784,8.8967245e-10,-8.430345e-11,-0.0065758377,4
830708000,830708000,0.8497388,0.010593535,0.0024049745,-0.5270921,0.9999784,8.8967245e-10,-8.430345e-11,-0.0065758377,4
830712000,830712000,0.84974134,0.010593936,0.0024107625,-0.52708787,0.9999784,8.8967245e-10,-8.430345e-11,-0.0065758377,4
830720000,830720000,0.84974265,0.0106351795,0.0023986488,-0.52708507,0.9999784,8.8967245e-10,-8.430345e-11,-0.0065758377,4
830724000,830724000,0.8497433,0.01065507,0.0024024902,-0.52708364,0.9999784,8.8967245e-10,-8.430345e-11,-0.0065758377,4
830728000,830728000,0.84974563,0.010671101,0.0024000003,-0.5270796,0.9999784,8.8967245e-10,-8.430345e-11,-0.0065758377,4
830732000,830732000,0.84974664,0.0106691,0.0024018246,-0.52707773,0.9999784,8.8967245e-10,-8.430345e-11,-0.0065758377,4
830736000,830736000,0.8497472,0.010659548,0.0024147066,-0.52707726,0.9999784,8.8967245e-10,-8.430345e-11,-0.0065758377,4
830744000,830744000,0.84974855,0.0106518045,0.002420312,-0.5270752,0.9999784,8.8967245e-10,-8.430345e-11,-0.0065758377,4
830752000,830752000,0.84975636,0.010661641,0.0024074956,-0.5270624,0.9999784,8.8967245e-10,-8.430345e-11,-0.0065758377,4
830756000,830756000,0.84976345,0.010668175,0.0023934767,-0.5270509,0.9999784,8.8967245e-10,-8.430345e-11,-0.0065758377,4
830764000,830764000,0.8497749,0.010662631,0.0023808926,-0.52703255,0.9999784,8.8967245e-10,-8.430345e-11,-0.0065758377,4
830772000,830772000,0.8497787,0.010647811,0.0023999813,-0.52702665,0.9999784,8.8967245e-10,-8.430345e-11,-0.0065758377,4
830776000,830776000,0.8497819,0.010649055,0.0024069166,-0.5270215,0.9999784,8.8967245e-10,-8.430345e-11,-0.0065758377,4
830780000,830780000,0.8497838,0.010658007,0.002404078,-0.52701825,0.9999784,8.8967245e-10,-8.430345e-11,-0.0065758377,4
830784000,830784000,0.849782,0.010665795,0.0023975954,-0.52702093,0.9999784,8.8967245e-10,-8.430345e-11,-0.0065758377,4
830788000,830788000,0.84977907,0.010682368,0.0023800447,-0.5270256,0.9999784,8.8967245e-10,-8.430345e-11,-0.0065758377,4
830792000,830792000,0.8497755,0.01069268,0.002365711,-0.5270312,0.9999784,8.8967245e-10,-8.430345e-11,-0.0065758377,4
830796000,830796000,0.84977317,0.010687092,0.0023630986,-0.5270348,0.9999784,8.8967245e-10,-8.430345e-11,-0.0065758377,4
830800000,830800000,0.84977144,0.01066671,0.002367099,-0.5270381,0.9999784,8.8967245e-10,-8.430345e-11,-0.0065758377,4
830804000,830804000,0.84977305,0.01064227,0.0023735575,-0.5270359,0.9999784,8.8967245e-10,-8.430345e-11,-0.0065758377,4
830808000,830808000,0.84977823,0.010634256,0.0023722257,-0.5270279,0.9999784,8.8967245e-10,-8.430345e-11,-0.0065758377,4
830816000,830816000,0.8497769,0.010642698,0.0023670532,-0.5270299,0.9999784,8.8967245e-10,-8.430345e-11,-0.0065758377,4
830820000,830820000,0.8497779,0.010646187,0.0023673677,-0.5270281,0.9999784,8.8967245e-10,-8.430345e-11,-0.0065758377,4
830824000,830824000,0.8497815,0.010647258,0.002370955,-0.52702236,0.9999784,8.8967245e-10,-8.430345e-11,-0.0065758377,4
830828000,830828000,0.8497833,0.010645386,0.002373888,-0.5270193,0.9999784,8.8967245e-10,-8.430345e-11,-0.0065758377,4
830832000,830832000,0.8497841,0.010640939,0.0023708504,-0.52701837,0.9999784,8.8967245e-10,-8.430345e-11,-0.0065758377,4
830836000,830836000,0.84978473,0.010638084,0.0023643181,-0.52701735,0.9999784,8.8967245e-10,-8.430345e-11,-0.0065758377,4
830844000,830844000,0.84979564,0.010649836,0.0023451275,-0.5269997,0.9999784,8.8967245e-10,-8.430345e-11,-0.0065758377,4
830848000,830848000,0.8497994,0.010657022,0.002345952,-0.5269933,0.9999784,8.8967245e-10,-8.430345e-11,-0.0065758377,4
830852000,830852000,0.8498029,0.010670825,0.0023433054,-0.5269874,0.9999784,8.8967245e-10,-8.430345e-11,-0.0065758377,4
830860000,830860000,0.84981006,0.010637412,0.002366311,-0.5269765,0.9999784,8.8967245e-10,-8.430345e-11,-0.0065758377,4
830864000,830864000,0.8498134,0.010633293,0.0023715019,-0.5269712,0.9999784,8.8967245e-10,-8.430345e-11,-0.0065758377,4
830868000,830868000,0.8498164,0.01063387,0.0023731582,-0.5269664,0.9999784,8.8967245e-10,-8.430345e-11,-0.0065758377,4
830876000,830876000,0.8498185,0.010641405,0.0023599018,-0.5269628,0.9999784,8.8967245e-10,-8.430345e-11,-0.0065758377,4
830884000,830884000,0.84981287,0.010630511,0.0023649938,-0.5269721,0.9999784,8.8967245e-10,-8.430345e-11,-0.0065758377,4
830888000,830888000,0.8498113,0.01062955,0.0023587137,-0.5269746,0.9999784,8.8967245e-10,-8.430345e-11,-0.0065758377,4
830892000,830892000,0.84981203,0.010630781,0.0023579283,-0.5269734,0.9999784,8.8967245e-10,-8.430345e-11,-0.0065758377,4
830900000,830900000,0.84980947,0.01061569,0.0023647486,-0.5269779,0.9999784,8.8967245e-10,-8.430345e-11,-0.0065758377,4
830908000,830908000,0.8498144,0.010644239,0.0023530128,-0.52696925,0.9999784,8.8967245e-10,-8.430345e-11,-0.0065758377,4
830912000,830912000,0.84981924,0.010660722,0.0023497518,-0.5269612,0.9999784,8.8967245e-10,-8.430345e-11,-0.0065758377,4
830920000,830920000,0.8498172,0.0106365215,0.0023788374,-0.5269649,0.9999784,8.8967245e-10,-8.430345e-11,-0.0065758377,4
830924000,830924000,0.849812,0.010623759,0.0023894515,-0.5269736,0.9999784,8.8967245e-10,-8.430345e-11,-0.0065758377,4
830928000,830928000,0.8498067,0.010620992,0.002395064,-0.5269819,0.9999784,8.8967245e-10,-8.430345e-11,-0.0065758377,4
830932000,830932000,0.84980553,0.010616433,0.0024017205,-0.5269839,0.9999784,8.8967245e-10,-8.430345e-11,-0.0065758377,4
830936000,830936000,0.849805,0.010607675,0.0024128049,-0.5269851,0.9999784,8.8967245e-10,-8.430345e-11,-0.0065758377,4
830940000,830940000,0.84980196,0.010603431,0.002421127,-0.5269898,0.9999784,8.8967245e-10,-8.430345e-11,-0.0065758377,4
830944000,830944000,0.849799,0.010597164,0.0024262748,-0.52699476,0.9999784,8.8967245e-10,-8.430345e-11,-0.0065758377,4
830948000,830948000,0.84980047,0.0105995815,0.00242408,-0.5269925,0.9999784,8.8967245e-10,-8.430345e-11,-0.0065758377,4
830952000,830952000,0.84980583,0.01061212,0.0024230236,-0.5269836,0.9999784,8.8967245e-10,-8.430345e-11,-0.0065758377,4
830960000,830960000,0.84980935,0.010620259,0.0024302516,-0.52697766,0.9999784,8.8967245e-10,-8.430345e-11,-0.0065758377,4
830964000,830964000,0.8498055,0.010602242,0.0024388721,-0.5269842,0.9999784,8.8967245e-10,-8.430345e-11,-0.0065758377,4
830968000,830968000,0.849801,0.010583383,0.0024492457,-0.5269918,0.9999784,8.8967245e-10,-8.430345e-11,-0.0065758377,4
830972000,830972000,0.8498001,0.01058547,0.0024478142,-0.52699304,0.9999784,8.8967245e-10,-8.430345e-11,-0.0065758377,4
830976000,830976000,0.84980184,0.010587704,0.0024455932,-0.5269904,0.9999784,8.8967245e-10,-8.430345e-11,-0.0065758377,4
830984000,830984000,0.84980506,0.010565417,0.0024432903,-0.5269857,0.9999784,8.8967245e-10,-8.430345e-11,-0.0065758377,4
830988000,830988000,0.8498067,0.010559012,0.0024451297,-0.5269831,0.9999784,8.8967245e-10,-8.430345e-11,-0.0065758377,4
830996000,830996000,0.84980524,0.010549543,0.002449871,-0.5269857,0.9999784,8.8967245e-10,-8.430345e-11,-0.0065758377,4
831004000,831004000,0.8498138,0.010553594,0.0024403343,-0.52697176,0.9999784,8.8967245e-10,-8.430345e-11,-0.0065758377,4
831008000,831008000,0.8498142,0.010555503,0.002438805,-0.52697116,0.9999784,8.8967245e-10,-8.430345e-11,-0.0065758377,4
831016000,831016000,0.8498038,0.01054345,0.0024476289,-0.5269881,0.9999784,8.8967245e-10,-8.430345e-11,-0.0065758377,4
831020000,831020000,0.8497998,0.010550468,0.002441091,-0.52699435,0.9999784,8.8967245e-10,-8.430345e-11,-0.0065758377,4
831024000,831024000,0.84979784,0.0105579775,0.002436047,-0.5269973,0.9999784,8.8967245e-10,-8.430345e-11,-0.0065758377,4
831028000,831028000,0.8497991,0.010556122,0.002432997,-0.5269954,0.9999784,8.8967245e-10,-8.430345e-11,-0.0065758377,4
831032000,831032000,0.84979886,0.010559523,0.002421045,-0.5269959,0.9999784,8.8967245e-10,-8.430345e-11,-0.0065758377,4
831036000,831036000,0.84979844,0.010553163,0.0024226704,-0.5269967,0.9999784,8.8967245e-10,-8.430345e-11,-0.0065758377,4
831044000,831044000,0.8498043,0.01054969,0.0024432058,-0.52698725,0.9999784,8.8967245e-10,-8.430345e-11,-0.0065758377,4
831048000,831048000,0.84980446,0.010551763,0.0024458026,-0.5269867,0.9999784,8.8967245e-10,-8.430345e-11,-0.0065758377,4
831052000,831052000,0.8498031,0.010548288,0.0024506156,-0.526989,0.9999784,8.8967245e-10,-8.430345e-11,-0.0065758377,4
831056000,831056000,0.8497976,0.010542024,0.002452822,-0.52699816,0.9999784,8.8967245e-10,-8.430345e-11,-0.0065758377,4
831060000,831060000,0.8497875,0.0105420565,0.0024562126,-0.5270145,0.9999784,8.8967245e-10,-8.430345e-11,-0.0065758377,4
831068000,831068000,0.8497771,0.01053093,0.002473486,-0.52703136,0.9999784,8.8967245e-10,-8.430345e-11,-0.0065758377,4
831072000,831072000,0.8497792,0.01052749,0.002477526,-0.52702785,0.9999784,8.8967245e-10,-8.430345e-11,-0.0065758377,4
831076000,831076000,0.84978414,0.010529305,0.0024838995,-0.5270198,0.9999784,8.8967245e-10,-8.430345e-11,-0.0065758377,4
831080000,831080000,0.84978294,0.010526848,0.0024873703,-0.5270218,0.9999784,8.8967245e-10,-8.430345e-11,-0.0065758377,4
831084000,831084000,0.8497759,0.01053403,0.0024711706,-0.5270331,0.9999784,8.8967245e-10,-8.430345e-11,-0.0065758377,4
831092000,831092000,0.8497741,0.010546531,0.00245726,-0.5270359,0.9999784,8.8967245e-10,-8.430345e-11,-0.0065758377,4
831096000,831096000,0.84977204,0.010543927,0.0024702174,-0.5270391,0.9999784,8.8967245e-10,-8.430345e-11,-0.0065758377,4
831104000,831104000,0.84976906,0.010507287,0.0024841342,-0.52704453,0.9999784,8.8967245e-10,-8.430345e-11,-0.0065758377,4
831108000,831108000,0.84976923,0.010501194,0.002484639,-0.5270444,0.9999784,8.8967245e-10,-8.430345e-11,-0.0065758377,4
831116000,831116000,0.84976965,0.010511805,0.0024846473,-0.5270436,0.9999784,8.8967245e-10,-8.430345e-11,-0.0065758377,4
831124000,831124000,0.8497729,0.010522666,0.0024907046,-0.5270382,0.9999784,8.8967245e-10,-8.430345e-11,-0.0065758377,4
831128000,831128000,0.8497764,0.010517759,0.002493528,-0.5270326,0.9999784,8.8967245e-10,-8.430345e-11,-0.0065758377,4
831132000,831132000,0.8497769,0.010507143,0.002494304,-0.527032,0.9999784,8.8967245e-10,-8.430345e-11,-0.0065758377,4
831140000,831140000,0.84977293,0.010529358,0.002467723,-0.5270381,0.9999784,8.8967245e-10,-8.430345e-11,-0.0065758377,4
831144000,831144000,0.8497726,0.0105371075,0.0024483341,-0.52703846,0.9999784,8.8967245e-10,-8.430345e-11,-0.0065758377,4
831148000,831148000,0.8497714,0.010538781,0.0024383755,-0.5270406,0.9999784,8.8967245e-10,-8.430345e-11,-0.0065758377,4
831156000,831156000,0.8497693,0.01052328,0.00244643,-0.5270441,0.9999784,8.8967245e-10,-8.430345e-11,-0.0065758377,4
831160000,831160000,0.8497682,0.010530899,0.0024609747,-0.5270456,0.9999784,8.8967245e-10,-8.430345e-11,-0.0065758377,4
831164000,831164000,0.84977084,0.010534399,0.0024798925,-0.5270412,0.9999784,8.8967245e-10,-8.430345e-11,-0.0065758377,4
831168000,831168000,0.8497718,0.010538187,0.0024911384,-0.5270395,0.9999784,8.8967245e-10,-8.430345e-11,-0.0065758377,4
831172000,831172000,0.8497707,0.0105464,0.0024934062,-0.5270411,0.9999784,8.8967245e-10,-8.430345e-11,-0.0065758377,4
831176000,831176000,0.8497719,0.010553712,0.0024930604,-0.52703905,0.9999784,8.8967245e-10,-8.430345e-11,-0.0065758377,4
831180000,831180000,0.8497751,0.010558896,0.0024902404,-0.52703387,0.9999784,8.8967245e-10,-8.430345e-11,-0.0065758377,4
831184000,831184000,0.8497777,0.010557793,0.002486315,-0.52702963,0.9999784,8.8967245e-10,-8.430345e-11,-0.0065758377,4
831188000,831188000,0.8497756,0.010556289,0.002494001,-0.52703303,0.9999784,8.8967245e-10,-8.430345e-11,-0.0065758377,4
831192000,831192000,0.8497681,0.010562323,0.0025088938,-0.5270449,0.9999784,8.8967245e-10,-8.430345e-11,-0.0065758377,4
831196000,831196000,0.8497599,0.010571197,0.0025182806,-0.5270582,0.9999784,8.8967245e-10,-8.430345e-11,-0.0065758377,4
831200000,831200000,0.84975374,0.010594761,0.002515887,-0.52706736,0.9999784,8.8967245e-10,-8.430345e-11,-0.0065758377,4
831204000,831204000,0.8497508,0.010617735,0.002509421,-0.52707165,0.9999784,8.8967245e-10,-8.430345e-11,-0.0065758377,4
831212000,831212000,0.84973615,0.010620719,0.0025092761,-0.5270952,0.9999784,8.8967245e-10,-8.430345e-11,-0.0065758377,4
831216000,831216000,0.8497321,0.010609077,0.0025278397,-0.5271021,0.9999784,8.8967245e-10,-8.430345e-11,-0.0065758377,4
831220000,831220000,0.84973234,0.010601123,0.0025471721,-0.5271017,0.9999784,8.8967245e-10,-8.430345e-11,-0.0065758377,4
831224000,831224000,0.84973377,0.010592302,0.0025600132,-0.52709955,0.9999784,8.8967245e-10,-8.430345e-11,-0.0065758377,4
831228000,831228000,0.84973633,0.010592556,0.0025621862,-0.5270952,0.9999784,8.8967245e-10,-8.430345e-11,-0.0065758377,4
831232000,831232000,0.8497394,0.010597723,0.0025662072,-0.52709025,0.9999784,8.8967245e-10,-8.430345e-11,-0.0065758377,4
831240000,831240000,0.8497377,0.010586149,0.0025815896,-0.52709305,0.9999784,8.8967245e-10,-8.430345e-11,-0.0065758377,4
831244000,831244000,0.8497345,0.010577002,0.0025869648,-0.52709866,0.9999784,8.8967245e-10,-8.430345e-11,-0.0065758377,4
831248000,831248000,0.8497304,0.0105785765,0.0025924756,-0.527105,0.9999784,8.8967245e-10,-8.430345e-11,-0.0065758377,4
831256000,831256000,0.8497312,0.010611157,0.00256178,-0.5271031,0.9999784,8.8967245e-10,-8.430345e-11,-0.0065758377,4
831260000,831260000,0.8497347,0.010612454,0.0025434035,-0.5270975,0.9999784,8.8967245e-10,-8.430345e-11,-0.0065758377,4
831264000,831264000,0.849733,0.01061557,0.002530144,-0.5271005,0.9999784,8.8967245e-10,-8.430345e-11,-0.0065758377,4
831268000,831268000,0.8497302,0.010609358,0.0025352237,-0.5271051,0.9999784,8.8967245e-10,-8.430345e-11,-0.0065758377,4
831276000,831276000,0.8497281,0.0105931265,0.0025543508,-0.52710867,0.9999784,8.8967245e-10,-8.430345e-11,-0.0065758377,4
831284000,831284000,0.8497258,0.010592382,0.0025661592,-0.5271123,0.9999784,8.8967245e-10,-8.430345e-11,-0.0065758377,4
831288000,831288000,0.84972924,0.010580093,0.0025714426,-0.5271069,0.9999784,8.8967245e-10,-8.430345e-11,-0.0065758377,4
831296000,831296000,0.84973365,0.010560499,0.0025901436,-0.5271001,0.9999784,8.8967245e-10,-8.430345e-11,-0.0065758377,4
831300000,831300000,0.8497335,0.010552455,0.002603412,-0.5271005,0.9999784,8.8967245e-10,-8.430345e-11,-0.0065758377,4
831304000,831304000,0.84973544,0.010550655,0.0026095517,-0.5270973,0.9999784,8.8967245e-10,-8.430345e-11,-0.0065758377,4
831308000,831308000,0.84973884,0.010554423,0.002608456,-0.527092,0.9999784,8.8967245e-10,-8.430345e-11,-0.0065758377,4
831316000,831316000,0.849744,0.010573476,0.0026201245,-0.5270829,0.9999784,8.8967245e-10,-8.430345e-11,-0.0065758377,4
831324000,831324000,0.84975046,0.01060907,0.0026069202,-0.5270719,0.9999784,8.8967245e-10,-8.430345e-11,-0.0065758377,4
831332000,831332000,0.849756,0.010584023,0.0026324643,-0.52706337,0.9999784,8.8967245e-10,-8.430345e-11,-0.0065758377,4
831336000,831336000,0.84975886,0.010576421,0.0026380396,-0.52705896,0.9999784,8.8967245e-10,-8.430345e-11,-0.0065758377,4
831340000,831340000,0.84976,0.010566629,0.0026381083,-0.52705735,0.9999784,8.8967245e-10,-8.430345e-11,-0.0065758377,4
831344000,831344000,0.8497577,0.010559964,0.0026312182,-0.5270612,0.9999784,8.8967245e-10,-8.430345e-11,-0.0065758377,4
831352000,831352000,0.8497574,0.010576761,0.0026355966,-0.52706134,0.9999784,8.8967245e-10,-8.430345e-11,-0.0065758377,4
831356000,831356000,0.8497621,0.010584102,0.0026430332,-0.52705365,0.9999784,8.8967245e-10,-8.430345e-11,-0.0065758377,4
831360000,831360000,0.8497657,0.01057928,0.0026460742,-0.5270479,0.9999784,8.8967245e-10,-8.430345e-11,-0.0065758377,4
831364000,831364000,0.8497634,0.010570246,0.0026505738,-0.52705157,0.9999784,8.8967245e-10,-8.430345e-11,-0.0065758377,4
831368000,831368000,0.8497582,0.010579923,0.0026509913,-0.5270598,0.9999784,8.8967245e-10,-8.430345e-11,-0.0065758377,4
831376000,831376000,0.84976494,0.010590753,0.0026517776,-0.5270489,0.9999784,8.8967245e-10,-8.430345e-11,-0.0065758377,4
831380000,831380000,0.8497664,0.010591026,0.0026459729,-0.52704656,0.9999784,8.8967245e-10,-8.430345e-11,-0.0065758377,4
831384000,831384000,0.8497669,0.010576097,0.0026520877,-0.5270459,0.9999784,8.8967245e-10,-8.430345e-11,-0.0065758377,4
831388000,831388000,0.8497703,0.01056093,0.0026658236,-0.52704066,0.9999784,8.8967245e-10,-8.430345e-11,-0.0065758377,4
831392000,831392000,0.8497729,0.010565091,0.002666297,-0.5270365,0.9999784,8.8967245e-10,-8.430345e-11,-0.0065758377,4
831396000,831396000,0.8497743,0.010568187,0.002663063,-0.5270341,0.9999784,8.8967245e-10,-8.430345e-11,-0.0065758377,4
831400000,831400000,0.8497746,0.010567401,0.0026696587,-0.52703345,0.9999784,8.8967245e-10,-8.430345e-11,-0.0065758377,4
831404000,831404000,0.8497722,0.01056777,0.002681227,-0.5270373,0.9999784,8.8967245e-10,-8.430345e-11,-0.0065758377,4
831412000,831412000,0.84977716,0.010567688,0.002694453,-0.5270294,0.9999784,8.8967245e-10,-8.430345e-11,-0.0065758377,4
831416000,831416000,0.84978163,0.010561141,0.0026924235,-0.5270221,0.9999784,8.8967245e-10,-8.430345e-11,-0.0065758377,4
831420000,831420000,0.8497885,0.01056511,0.0026901036,-0.5270113,0.9999784,8.8967245e-10,-8.430345e-11,-0.0065758377,4
831424000,831424000,0.84979314,0.010577809,0.0026916966,-0.52700347,0.9999784,8.8967245e-10,-8.430345e-11,-0.0065758377,4
831428000,831428000,0.8497934,0.010583823,0.0026937518,-0.52700293,0.9999784,8.8967245e-10,-8.430345e-11,-0.0065758377,4
831436000,831436000,0.8497963,0.010620636,0.002672838,-0.52699757,0.9999784,8.8967245e-10,-8.430345e-11,-0.0065758377,4
831444000,831444000,0.8497962,0.010608846,0.002682556,-0.5269979,0.9999784,8.8967245e-10,-8.430345e-11,-0.0065758377,4
831448000,831448000,0.84979624,0.01058228,0.002691375,-0.5269983,0.9999784,8.8967245e-10,-8.430345e-11,-0.0065758377,4
831456000,831456000,0.84980524,0.010558485,0.002699343,-0.5269841,0.9999784,8.8967245e-10,-8.430345e-11,-0.0065758377,4
831460000,831460000,0.8498074,0.010552972,0.0026843208,-0.5269811,0.9999784,8.8967245e-10,-8.430345e-11,-0.0065758377,4
831468000,831468000,0.84980494,0.0105694905,0.0026703272,-0.5269847,0.9999784,8.8967245e-10,-8.430345e-11,-0.0065758377,4
831476000,831476000,0.8498034,0.010582588,0.0026758064,-0.5269868,0.9999784,8.8967245e-10,-8.430345e-11,-0.0065758377,4
831480000,831480000,0.84980434,0.01058283,0.0026889227,-0.5269854,0.9999784,8.8967245e-10,-8.430345e-11,-0.0065758377,4
831488000,831488000,0.8498177,0.010604716,0.0026865525,-0.5269632,0.9999784,8.8967245e-10,-8.430345e-11,-0.0065758377,4
831492000,831492000,0.849821,0.010610906,0.002685826,-0.5269578,0.9999784,8.8967245e-10,-8.430345e-11,-0.0065758377,4
831496000,831496000,0.84982085,0.010611465,0.002681051,-0.5269579,0.9999784,8.8967245e-10,-8.430345e-11,-0.0065758377,4
831500000,831500000,0.8498189,0.010594061,0.0026918396,-0.5269616,0.9999784,8.8967245e-10,-8.430345e-11,-0.0065758377,4
831504000,831504000,0.8498186,0.010569684,0.0027175038,-0.5269624,0.9999784,8.8967245e-10,-8.430345e-11,-0.0065758377,4
831508000,831508000,0.8498228,0.010562859,0.0027359645,-0.52695554,0.9999784,8.8967245e-10,-8.430345e-11,-0.0065758377,4
831516000,831516000,0.84983784,0.010568465,0.0027418963,-0.5269314,0.9999784,8.8967245e-10,-8.430345e-11,-0.0065758377,4
831520000,831520000,0.84983844,0.0105699785,0.0027462796,-0.5269301,0.9999784,8.8967245e-10,-8.430345e-11,-0.0065758377,4
831524000,831524000,0.84983706,0.010562545,0.002752461,-0.52693254,0.9999784,8.8967245e-10,-8.430345e-11,-0.0065758377,4
831528000,831528000,0.84983426,0.01055186,0.002754359,-0.5269373,0.9999784,8.8967245e-10,-8.430345e-11,-0.0065758377,4
831536000,831536000,0.8498271,0.010533883,0.0027585293,-0.5269491,0.9999784,8.8967245e-10,-8.430345e-11,-0.0065758377,4
831540000,831540000,0.84982604,0.010539447,0.0027703212,-0.5269506,0.9999784,8.8967245e-10,-8.430345e-11,-0.0065758377,4
831544000,831544000,0.8498276,0.0105370805,0.0027813013,-0.5269481,0.9999784,8.8967245e-10,-8.430345e-11,-0.0065758377,4
831548000,831548000,0.84983,0.010538784,0.0027765846,-0.52694446,0.9999784,8.8967245e-10,-8.430345e-11,-0.0065758377,4
831556000,831556000,0.8498375,0.0105679985,0.0027610331,-0.52693164,0.9999784,8.8967245e-10,-8.430345e-11,-0.0065758377,4
831560000,831560000,0.84984267,0.010571907,0.0027667289,-0.5269234,0.9999784,8.8967245e-10,-8.430345e-11,-0.0065758377,4
831564000,831564000,0.8498456,0.0105552515,0.002772678,-0.52691877,0.9999784,8.8967245e-10,-8.430345e-11,-0.0065758377,4
831572000,831572000,0.8498477,0.01054821,0.0027814445,-0.5269156,0.9999784,8.8967245e-10,-8.430345e-11,-0.0065758377,4
831576000,831576000,0.84984624,0.010543896,0.0027941638,-0.52691776,0.9999784,8.8967245e-10,-8.430345e-11,-0.0065758377,4
831580000,831580000,0.8498452,0.010537827,0.002792927,-0.52691966,0.9999784,8.8967245e-10,-8.430345e-11,-0.0065758377,4
831584000,831584000,0.8498452,0.010535588,0.0027836335,-0.52691996,0.9999784,8.8967245e-10,-8.430345e-11,-0.0065758377,4
831592000,831592000,0.84984565,0.0105427345,0.0027847458,-0.52691877,0.9999784,8.8967245e-10,-8.430345e-11,-0.0065758377,4
831600000,831600000,0.8498447,0.010580894,0.0027691165,-0.52691966,0.9999784,8.8967245e-10,-8.430345e-11,-0.0065758377,4
831604000,831604000,0.849843,0.01059956,0.0027581244,-0.5269223,0.9999784,8.8967245e-10,-8.430345e-11,-0.0065758377,4
831608000,831608000,0.8498416,0.010600967,0.0027626734,-0.52692425,0.9999784,8.8967245e-10,-8.430345e-11,-0.0065758377,4
831612000,831612000,0.84984255,0.010590835,0.0027768526,-0.5269231,0.9999784,8.8967245e-10,-8.430345e-11,-0.0065758377,4
831616000,831616000,0.8498428,0.010593331,0.0027830396,-0.5269224,0.9999784,8.8967245e-10,-8.430345e-11,-0.0065758377,4
831620000,831620000,0.8498423,0.010599835,0.0027886373,-0.5269231,0.9999784,8.8967245e-10,-8.430345e-11,-0.0065758377,4
831624000,831624000,0.84984297,0.01060212,0.0027954176,-0.52692205,0.9999784,8.8967245e-10,-8.430345e-11,-0.0065758377,4
831628000,831628000,0.8498439,0.01059578,0.002799395,-0.52692056,0.9999784,8.8967245e-10,-8.430345e-11,-0.0065758377,4
831632000,831632000,0.8498431,0.010575824,0.0028066742,-0.5269223,0.9999784,8.8967245e-10,-8.430345e-11,-0.0065758377,4
831640000,831640000,0.84983623,0.010546761,0.0028307273,-0.5269337,0.9999784,8.8967245e-10,-8.430345e-11,-0.0065758377,4
831648000,831648000,0.8498395,0.010538977,0.0028310746,-0.5269288,0.9999784,8.8967245e-10,-8.430345e-11,-0.0065758377,4
831652000,831652000,0.84983915,0.01054367,0.0028365299,-0.5269291,0.9999784,8.8967245e-10,-8.430345e-11,-0.0065758377,4
831656000,831656000,0.8498387,0.010559418,0.002832471,-0.52692956,0.9999784,8.8967245e-10,-8.430345e-11,-0.0065758377,4
831660000,831660000,0.84984165,0.010569898,0.0028228492,-0.5269246,0.9999784,8.8967245e-10,-8.430345e-11,-0.0065758377,4
831668000,831668000,0.8498427,0.0105668735,0.002814505,-0.526923,0.9999784,8.8967245e-10,-8.430345e-11,-0.0065758377,4
831672000,831672000,0.8498421,0.010558882,0.002823621,-0.5269241,0.9999784,8.8967245e-10,-8.430345e-11,-0.0065758377,4
831680000,831680000,0.84984624,0.010551517,0.0028262374,-0.52691746,0.9999784,8.8967245e-10,-8.430345e-11,-0.0065758377,4
831684000,831684000,0.8498448,0.0105475485,0.002832723,-0.52692,0.9999784,8.8967245e-10,-8.430345e-11,-0.0065758377,4
831688000,831688000,0.84984225,0.010548832,0.002839576,-0.5269239,0.9999784,8.8967245e-10,-8.430345e-11,-0.0065758377,4
831696000,831696000,0.8498398,0.010558811,0.0028560245,-0.5269276,0.9999784,8.8967245e-10,-8.430345e-11,-0.0065758377,4
831700000,831700000,0.8498368,0.010558735,0.0028667233,-0.52693236,0.9999784,8.8967245e-10,-8.430345e-11,-0.0065758377,4
831704000,831704000,0.84983164,0.010552846,0.0028771712,-0.52694076,0.9999784,8.8967245e-10,-8.430345e-11,-0.0065758377,4
831708000,831708000,0.8498275,0.010559702,0.0028778187,-0.52694744,0.9999784,8.8967245e-10,-8.430345e-11,-0.0065758377,4
831712000,831712000,0.8498265,0.0105701545,0.0028760536,-0.52694863,0.9999784,8.8967245e-10,-8.430345e-11,-0.0065758377,4
831716000,831716000,0.8498261,0.010572572,0.0028805214,-0.52694947,0.9999784,8.8967245e-10,-8.430345e-11,-0.0065758377,4
831720000,831720000,0.8498274,0.010577223,0.0028834532,-0.526947,0.9999784,8.8967245e-10,-8.430345e-11,-0.0065758377,4
831724000,831724000,0.8498316,0.010566218,0.0028954248,-0.5269405,0.9999784,8.8967245e-10,-8.430345e-11,-0.0065758377,4
831728000,831728000,0.84983295,0.010550457,0.002911141,-0.52693856,0.9999784,8.8967245e-10,-8.430345e-11,-0.0065758377,4
831732000,831732000,0.84983414,0.010547155,0.002916618,-0.52693665,0.9999784,8.8967245e-10,-8.430345e-11,-0.0065758377,4
831740000,831740000,0.84984124,0.01052816,0.0029205836,-0.52692574,0.9999784,8.8967245e-10,-8.430345e-11,-0.0065758377,4
831744000,831744000,0.849837,0.010525083,0.0029295837,-0.52693236,0.9999784,8.8967245e-10,-8.430345e-11,-0.0065758377,4
831748000,831748000,0.84983253,0.010528451,0.0029358463,-0.5269395,0.9999784,8.8967245e-10,-8.430345e-11,-0.0065758377,4
831756000,831756000,0.8498363,0.010530826,0.0029550833,-0.5269334,0.9999784,8.8967245e-10,-8.430345e-11,-0.0065758377,4
831760000,831760000,0.8498359,0.010521955,0.002963693,-0.5269342,0.9999784,8.8967245e-10,-8.430345e-11,-0.0065758377,4
831764000,831764000,0.84983206,0.0105120065,0.0029686403,-0.52694046,0.9999784,8.8967245e-10,-8.430345e-11,-0.0065758377,4
