timestamp,timestamp_sample,gps_hvel[0],gps_hvel[1],gps_vvel,gps_hpos[0],gps_hpos[1],gps_vpos,ev_hvel[0],ev_hvel[1],ev_vvel,ev_hpos[0],ev_hpos[1],ev_vpos,rng_vpos,baro_vpos,aux_hvel[0],aux_hvel[1],aux_vvel,flow[0],flow[1],heading,mag_field[0],mag_field[1],mag_field[2],drag[0],drag[1],airspeed,beta,hagl,hagl_rate
829564000,829484000,-0.002207146,-0.0012827875,0.004566937,0.007771045,-0.0010204315,0.0,0.0,0.0,0.0,0.0,0.0,0.0,0.0,-0.12130737,0.0,0.0,nan,0.0,0.0,-0.008366942,-0.0025306568,0.0020155162,0.0016839206,0.0,0.0,0.0,0.0,0.0,0.0
830060000,829980000,0.0009582691,-0.011101969,0.002045765,-0.0029073358,0.0075644255,0.0,0.0,0.0,0.0,0.0,0.0,0.0,0.0,-0.041809082,0.0,0.0,nan,0.0,0.0,0.005660057,-0.0025306568,0.0020155162,0.0016839206,0.0,0.0,0.0,0.0,0.0,0.0
830556000,830476000,-0.0005095141,0.022381915,-0.010577123,-0.0030905604,0.0076431036,0.0,0.0,0.0,0.0,0.0,0.0,0.0,0.0,-0.007217407,0.0,0.0,nan,0.0,0.0,-0.008643031,-0.0025306568,0.0020155162,0.0016839206,0.0,0.0,0.0,0.0,0.0,0.0
831060000,830980000,0.00044437288,-0.0014368683,0.009568357,-0.0031643212,0.007102728,0.0,0.0,0.0,0.0,0.0,0.0,0.0,0.0,0.06904602,0.0,0.0,nan,0.0,0.0,-0.0045933723,-0.0025306568,0.0020155162,0.0016839206,0.0,0.0,0.0,0.0,0.0,0.0
831564000,831484000,0.0018908506,-0.0012486622,-0.009573186,-0.003105998,0.0069947243,0.0,0.0,0.0,0.0,0.0,0.0,0.0,0.0,-0.00010681152,0.0,0.0,nan,0.0,0.0,-0.00219059,-0.0025306568,0.0020155162,0.0016839206,0.0,0.0,0.0,0.0,0.0,0.0
832060000,831980000,0.0015764503,0.0012339348,-0.029189525,0.008191556,0.0069948435,0.0,0.0,0.0,0.0,0.0,0.0,0.0,0.0,0.037139893,0.0,0.0,nan,0.0,0.0,-0.004944682,-0.0025306568,0.0020155162,0.0016839206,0.0,0.0,0.0,0.0,0.0,0.0
832556000,832476000,-0.010553405,-6.2378735e-05,-0.011607209,-0.0029322803,0.0069818497,0.0,0.0,0.0,0.0,0.0,0.0,0.0,0.0,-0.013977051,0.0,0.0,nan,0.0,0.0,-0.0066189766,-0.0025306568,0.0020155162,0.0016839206,0.0,0.0,0.0,0.0,0.0,0.0
833060000,832980000,-0.00020983683,0.010778531,-0.009838703,0.008349329,0.0066953897,0.0,0.0,0.0,0.0,0.0,0.0,0.0,0.0,-0.05810547,0.0,0.0,nan,0.0,0.0,-0.011783719,-0.0025306568,0.0020155162,0.0016839206,0.0,0.0,0.0,0.0,0.0,0.0
833556000,833476000,0.0016072881,0.0013733006,0.02070513,0.008456051,0.0068439245,0.0,0.0,0.0,0.0,0.0,0.0,0.0,0.0,0.07702637,0.0,0.0,nan,0.0,0.0,-0.0109068155,-0.0025306568,0.0020155162,0.0016839206,0.0,0.0,0.0,0.0,0.0,0.0
834060000,833980000,0.012974059,0.0018060796,-0.023839395,-0.0020044744,0.006950736,0.0,0.0,0.0,0.0,0.0,0.0,0.0,0.0,0.00843811,0.0,0.0,nan,0.0,0.0,0.0050473213,-0.0025306568,0.0020155162,0.0016839206,0.0,0.0,0.0,0.0,0.0,0.0
834564000,834484000,0.0012670362,0.000102955906,-0.022581901,0.00881049,-0.001568079,0.0,0.0,0.0,0.0,0.0,0.0,0.0,0.0,-0.065475464,0.0,0.0,nan,0.0,0.0,-0.016009927,-0.0025306568,0.0020155162,0.0016839206,0.0,0.0,0.0,0.0,0.0,0.0
835060000,834980000,-0.009721408,-0.019762667,0.018749367,-0.0026201308,-0.0012440681,0.0,0.0,0.0,0.0,0.0,0.0,0.0,0.0,-0.08917236,0.0,0.0,nan,0.0,0.0,-0.0030938387,-0.0025306568,0.0020155162,0.0016839206,0.0,0.0,0.0,0.0,0.0,0.0
835564000,835484000,0.022096455,0.008077762,0.0042580436,0.008741081,-0.0013507605,0.0,0.0,0.0,0.0,0.0,0.0,0.0,0.0,0.056732178,0.0,0.0,nan,0.0,0.0,-0.017883778,-0.0025306568,0.0020155162,0.0016839206,0.0,0.0,0.0,0.0,0.0,0.0
836060000,835980000,0.0036299939,7.48044e-05,0.021040443,-0.0023653507,0.0072238445,0.0,0.0,0.0,0.0,0.0,0.0,0.0,0.0,-0.14370728,0.0,0.0,nan,0.0,0.0,-0.014374137,-0.0025306568,0.0020155162,0.0016839206,0.0,0.0,0.0,0.0,0.0,0.0
836564000,836484000,0.011491403,0.019968247,0.03837847,-0.0026730597,-0.0012544394,0.0,0.0,0.0,0.0,0.0,0.0,0.0,0.0,0.0,0.0,0.0,nan,0.0,0.0,-0.018102288,-0.0025306568,0.0020155162,0.0016839206,0.0,0.0,0.0,0.0,0.0,0.0
837060000,836980000,-0.0039122375,-0.0051935758,-0.0023413156,0.00050479174,0.004555464,0.0,0.0,0.0,0.0,0.0,0.0,0.0,0.0,0.02557373,0.0,0.0,nan,0.0,0.0,-0.0033267736,-0.0025306568,0.0020155162,0.0016839206,0.0,0.0,0.0,0.0,0.0,0.0
837556000,837476000,0.0046680756,-0.04017362,-0.055984773,0.011767566,0.0017516613,0.0,0.0,0.0,0.0,0.0,0.0,0.0,0.0,0.030654907,0.0,0.0,nan,0.0,0.0,-0.0058419704,-0.0025306568,0.0020155162,0.0016839206,0.0,0.0,0.0,0.0,0.0,0.0
838060000,837980000,0.041648205,0.0031951545,-0.010368228,0.03191328,-0.0058071613,0.0,0.0,0.0,0.0,0.0,0.0,0.0,0.0,-0.0126953125,0.0,0.0,nan,0.0,0.0,-0.0009800196,-0.0025306568,0.0020155162,0.0016839206,0.0,0.0,0.0,0.0,0.0,0.0
838564000,838484000,0.033350736,-0.016194757,0.07727063,0.036881298,0.0058482885,0.0,0.0,0.0,0.0,0.0,0.0,0.0,0.0,-0.049301147,0.0,0.0,nan,0.0,0.0,-0.011347175,-0.0025306568,0.0020155162,0.0016839206,0.0,0.0,0.0,0.0,0.0,0.0
839060000,838980000,0.042759337,-0.0072865086,0.047926247,0.048802614,0.010610342,0.0,0.0,0.0,0.0,0.0,0.0,0.0,0.0,0.06689453,0.0,0.0,nan,0.0,0.0,0.025765538,-0.0025306568,0.0020155162,0.0016839206,0.0,0.0,0.0,0.0,0.0,0.0
839564000,839484000,0.03813475,-0.030426746,-0.029056013,0.07131931,0.00052523613,0.0,0.0,0.0,0.0,0.0,0.0,0.0,0.0,-0.07675171,0.0,0.0,nan,0.0,0.0,0.020186424,-0.0025306568,0.0020155162,0.0016839206,0.0,0.0,0.0,0.0,0.0,0.0
840060000,839980000,0.02199732,-0.006180502,-0.004605353,0.07542229,0.0045751333,0.0,0.0,0.0,0.0,0.0,0.0,0.0,0.0,0.06788635,0.0,0.0,nan,0.0,0.0,0.01580429,-0.0025306568,0.0020155162,0.0016839206,0.0,0.0,0.0,0.0,0.0,0.0
840564000,840484000,0.015782949,-0.025781054,0.068969674,0.083265185,-0.008658171,0.0,0.0,0.0,0.0,0.0,0.0,0.0,0.0,-0.09057617,0.0,0.0,nan,0.0,0.0,0.010383964,-0.0025306568,0.0020155162,0.0016839206,0.0,0.0,0.0,0.0,0.0,0.0
841060000,840980000,0.013423851,-0.02646976,-0.0005237181,0.07387981,-0.020694375,0.0,0.0,0.0,0.0,0.0,0.0,0.0,0.0,0.017654419,0.0,0.0,nan,0.0,0.0,0.007904649,-0.0025306568,0.0020155162,0.0016839206,0.0,0.0,0.0,0.0,0.0,0.0
841564000,841484000,-0.033334278,0.0060498863,-0.036497653,0.064133406,-0.01248765,0.0,0.0,0.0,0.0,0.0,0.0,0.0,0.0,-0.06211853,0.0,0.0,nan,0.0,0.0,0.0005800724,-0.0025306568,0.0020155162,0.0016839206,0.0,0.0,0.0,0.0,0.0,0.0
842060000,841980000,-0.0959028,0.04407555,-0.07180315,0.056579113,-0.017066777,0.0,0.0,0.0,0.0,0.0,0.0,0.0,0.0,-0.033111572,0.0,0.0,nan,0.0,0.0,-0.0010136366,-0.0025306568,0.0020155162,0.0016839206,0.0,0.0,0.0,0.0,0.0,0.0
842556000,842476000,-0.13183141,0.014979005,-0.06604028,0.054231316,-0.021668807,0.0,0.0,0.0,0.0,0.0,0.0,0.0,0.0,-0.02748108,0.0,0.0,nan,0.0,0.0,-0.012335539,-0.0013560131,-0.00011983514,-0.002448678,0.0,0.0,0.0,0.0,0.0,0.0
843060000,842980000,-0.16364595,-0.018105507,-0.09365225,0.023968875,-0.024917066,0.0,0.0,0.0,0.0,0.0,0.0,0.0,0.0,-0.051116943,0.0,0.0,nan,0.0,0.0,-0.012335539,0.0059738085,0.0035018474,0.0006592572,0.0,0.0,0.0,0.0,0.0,0.0
843564000,843484000,-0.142245,-0.0057992935,-0.10260463,0.027998745,-0.019886136,0.0,0.0,0.0,0.0,0.0,0.0,0.0,0.0,-0.0059814453,0.0,0.0,nan,0.0,0.0,-0.012335539,-0.00019493327,-3.0696392e-05,-0.0010557771,0.0,0.0,0.0,0.0,0.0,0.0
844060000,843980000,-0.093534365,-0.03256917,-0.083824694,0.01041618,-0.020266056,0.0,0.0,0.0,0.0,0.0,0.0,0.0,0.0,-0.049041748,0.0,0.0,nan,0.0,0.0,-0.012335539,0.001058884,-0.0017065555,-0.0029741824,0.0,0.0,0.0,0.0,0.0,0.0
844564000,844484000,-0.07632969,-0.0149858,-0.08838618,-0.003160894,-0.0367918,0.0,0.0,0.0,0.0,0.0,0.0,0.0,0.0,-0.049209595,0.0,0.0,nan,0.0,0.0,-0.012335539,-0.0034780651,-0.0021416396,-0.00080662966,0.0,0.0,0.0,0.0,0.0,0.0
845060000,844980000,-0.056346282,-0.017109632,-0.16500038,0.019946367,-0.029445171,0.0,0.0,0.0,0.0,0.0,0.0,0.0,0.0,-0.11242676,0.0,0.0,nan,0.0,0.0,-0.012335539,-0.00092177466,0.002011463,-0.00168401,0.0,0.0,0.0,0.0,0.0,0.0
845564000,845484000,-0.010431148,-0.011346579,-0.15184867,0.016708404,-0.03301382,0.0,0.0,0.0,0.0,0.0,0.0,0.0,0.0,-0.14952087,0.0,0.0,nan,0.0,0.0,-0.012335539,0.006390296,-0.003876835,-0.005943954,0.0,0.0,0.0,0.0,0.0,0.0
846060000,845980000,0.03464818,0.008143187,-0.20487386,0.018710434,-0.033704758,0.0,0.0,0.0,0.0,0.0,0.0,0.0,0.0,-0.122177124,0.0,0.0,nan,0.0,0.0,-0.012335539,-0.00028206408,0.0008100122,0.00017595291,0.0,0.0,0.0,0.0,0.0,0.0
846556000,846476000,0.007906251,0.022772074,-0.18110883,0.013754547,-0.031555176,0.0,0.0,0.0,0.0,0.0,0.0,0.0,0.0,-0.1517334,0.0,0.0,nan,0.0,0.0,-0.0041321516,-0.00028206408,0.0008100122,0.00017595291,0.0,0.0,0.0,0.0,0.0,0.0
847060000,846980000,0.056230158,0.04646969,-0.1559853,0.018543899,-0.025959969,0.0,0.0,0.0,0.0,0.0,0.0,0.0,0.0,-0.23086548,0.0,0.0,nan,0.0,0.0,0.005092263,-0.00028206408,0.0008100122,0.00017595291,0.0,0.0,0.0,0.0,0.0,0.0
847564000,847484000,0.018035263,0.032514095,-0.22943717,0.0110477805,-0.029176712,0.0,0.0,0.0,0.0,0.0,0.0,0.0,0.0,-0.13406372,0.0,0.0,nan,0.0,0.0,-0.004797101,-0.00028206408,0.0008100122,0.00017595291,0.0,0.0,0.0,0.0,0.0,0.0
848060000,847980000,0.034762964,0.026392698,-0.17164153,0.015658677,-0.04879856,0.0,0.0,0.0,0.0,0.0,0.0,0.0,0.0,-0.18778992,0.0,0.0,nan,0.0,0.0,0.0012278557,-0.00028206408,0.0008100122,0.00017595291,0.0,0.0,0.0,0.0,0.0,0.0
848564000,848484000,0.054074477,0.025212765,-0.15289217,0.008038521,-0.04403591,0.0,0.0,0.0,0.0,0.0,0.0,0.0,0.0,-0.13418579,0.0,0.0,nan,0.0,0.0,-0.022143483,-0.00028206408,0.0008100122,0.00017595291,0.0,0.0,0.0,0.0,0.0,0.0
849060000,848980000,0.01967637,0.030727625,-0.15795308,-0.008774757,-0.044979095,0.0,0.0,0.0,0.0,0.0,0.0,0.0,0.0,-0.10128784,0.0,0.0,nan,0.0,0.0,0.0015466213,-0.00028206408,0.0008100122,0.00017595291,0.0,0.0,0.0,0.0,0.0,0.0
849556000,849476000,0.026937416,0.021556139,-0.10960537,0.0016797185,-0.032995224,0.0,0.0,0.0,0.0,0.0,0.0,0.0,0.0,-0.15589905,0.0,0.0,nan,0.0,0.0,-0.0058715343,-0.00028206408,0.0008100122,0.00017595291,0.0,0.0,0.0,0.0,0.0,0.0
850060000,849980000,0.027164906,0.027693748,-0.11133003,0.0064322352,-0.027860641,0.0,0.0,0.0,0.0,0.0,0.0,0.0,0.0,-0.14067078,0.0,0.0,nan,0.0,0.0,-0.0043519735,-0.00028206408,0.0008100122,0.00017595291,0.0,0.0,0.0,0.0,0.0,0.0
850564000,850484000,0.016642325,0.017089128,-0.10406011,0.0040418506,-0.013118744,0.0,0.0,0.0,0.0,0.0,0.0,0.0,0.0,-0.19467163,0.0,0.0,nan,0.0,0.0,0.00058698654,-0.00028206408,0.0008100122,0.00017595291,0.0,0.0,0.0,0.0,0.0,0.0
851060000,850980000,0.058176883,-0.0761261,-0.087909825,0.014135778,-0.038122177,0.0,0.0,0.0,0.0,0.0,0.0,0.0,0.0,-0.11265564,0.0,0.0,nan,0.0,0.0,-0.008665323,-0.00028206408,0.0008100122,0.00017595291,0.0,0.0,0.0,0.0,0.0,0.0
851556000,851476000,0.15720096,-0.100099206,-0.054985046,0.017281532,-0.038772583,0.0,0.0,0.0,0.0,0.0,0.0,0.0,0.0,0.0,0.0,0.0,nan,0.0,0.0,0.003690958,-0.0006850213,-0.0026236475,0.0014298856,0.0,0.0,0.0,0.0,0.0,0.0
852060000,851980000,0.24293932,-0.05514393,-0.07658374,0.05416882,-0.034894943,0.0,0.0,0.0,0.0,0.0,0.0,0.0,0.0,0.0,0.0,0.0,nan,0.0,0.0,0.003690958,-0.0014811158,0.0016973242,8.0764294e-05,0.0,0.0,0.0,0.0,0.0,0.0
852564000,852484000,0.2545287,0.026184559,-0.0047439337,0.08225131,-0.031982422,0.0,0.0,0.0,0.0,0.0,0.0,0.0,0.0,0.0,0.0,0.0,nan,0.0,0.0,0.003690958,0.0011231899,-0.0023881495,-0.0018993914,0.0,0.0,0.0,0.0,0.0,0.0
853060000,852980000,0.17538184,0.11043191,-0.0005053878,0.057511628,-0.0009975433,0.0,0.0,0.0,0.0,0.0,0.0,0.0,0.0,0.0,0.0,0.0,nan,0.0,0.0,0.003690958,-0.00028017163,0.00069999695,-0.003791511,0.0,0.0,0.0,0.0,0.0,0.0
853564000,853484000,0.09132053,0.08975923,0.12331045,0.07076919,0.015573502,0.0,0.0,0.0,0.0,0.0,0.0,0.0,0.0,0.0,0.0,0.0,nan,0.0,0.0,0.003690958,0.00041781366,4.476309e-05,-0.0013818741,0.0,0.0,0.0,0.0,0.0,0.0
854060000,853980000,-0.002554357,0.07886022,0.112978876,0.046787918,0.018472672,0.0,0.0,0.0,0.0,0.0,0.0,0.0,0.0,0.0,0.0,0.0,nan,0.0,0.0,0.003690958,-0.0021869838,0.002963975,-0.0011324883,0.0,0.0,0.0,0.0,0.0,0.0
854556000,854476000,-0.0431007,0.08267084,0.10409856,0.034561515,0.034513474,0.0,0.0,0.0,0.0,0.0,0.0,0.0,0.0,0.0,0.0,0.0,nan,0.0,0.0,0.003690958,0.0006746799,0.0012369454,-9.354949e-05,0.0,0.0,0.0,0.0,0.0,0.0
855060000,854980000,-0.05871199,0.06566884,0.15558809,0.021681726,0.040800095,0.0,0.0,0.0,0.0,0.0,0.0,0.0,0.0,0.0,0.0,0.0,nan,0.0,0.0,0.003690958,-0.001617372,0.0034512728,-0.0011225045,0.0,0.0,0.0,0.0,0.0,0.0
855556000,855476000,-0.08077523,0.017592276,0.16538775,0.0070144534,0.038936615,0.0,0.0,0.0,0.0,0.0,0.0,0.0,0.0,0.0,0.0,0.0,nan,0.0,0.0,0.0013985634,-3.246963e-05,0.0017760694,0.00034311414,0.0,0.0,0.0,0.0,0.0,0.0
856060000,855980000,-0.23568147,0.5448884,-0.2620418,-0.023500443,0.079034805,0.0,0.0,0.0,0.0,0.0,0.0,0.0,0.0,0.0,0.0,0.0,nan,0.0,0.0,0.01526165,0.0011805147,-0.002506256,-0.008739889,0.0,0.0,0.0,0.0,0.0,0.0
856556000,856476000,-0.41813865,0.18029976,0.15186787,-0.040454566,0.008365631,0.0,0.0,0.0,0.0,0.0,0.0,0.0,0.0,0.10545349,0.0,0.0,nan,0.0,0.0,0.01526165,0.001253888,-0.0013147593,0.003499806,0.0,0.0,0.0,0.0,0.0,0.0
857060000,856980000,-0.348607,-0.079152584,0.13883328,-0.101663366,-0.070611954,0.0,0.0,0.0,0.0,0.0,0.0,0.0,0.0,0.04508972,0.0,0.0,nan,0.0,0.0,0.01526165,0.0008113086,0.0018908978,-0.001364857,0.0,0.0,0.0,0.0,0.0,0.0
857556000,857476000,-0.24937375,-0.26516438,0.2546804,-0.13755119,-0.10000229,0.0,0.0,0.0,0.0,0.0,0.0,0.0,0.0,0.17893982,0.0,0.0,nan,0.0,0.0,0.01526165,-0.0018221289,0.005198553,-0.00033211708,0.0,0.0,0.0,0.0,0.0,0.0
858060000,857980000,-0.012337282,-0.22954988,0.1448152,-0.06495683,-0.0813961,0.0,0.0,0.0,0.0,0.0,0.0,0.0,0.0,0.0440979,0.0,0.0,nan,0.0,0.0,0.01526165,0.0008960087,8.812547e-05,0.0027637482,0.0,0.0,0.0,0.0,0.0,0.0
858556000,858476000,0.08924979,-0.17315745,0.12111834,-0.0433819,-0.11907959,0.0,0.0,0.0,0.0,0.0,0.0,0.0,0.0,0.13246155,0.0,0.0,nan,0.0,0.0,0.01526165,-0.0057800636,0.0013871193,0.010293961,0.0,0.0,0.0,0.0,0.0,0.0
859060000,858980000,0.15464088,-0.17838347,0.0932481,-0.02796179,-0.09354782,0.0,0.0,0.0,0.0,0.0,0.0,0.0,0.0,0.0,0.0,0.0,nan,0.0,0.0,0.01526165,-0.014874734,0.0013786703,0.0077062547,0.0,0.0,0.0,0.0,0.0,0.0
859564000,859484000,0.1670393,-0.1152997,0.14003125,-0.024528205,-0.069244385,0.0,0.0,0.0,0.0,0.0,0.0,0.0,0.0,0.15852356,0.0,0.0,nan,0.0,0.0,0.01526165,-0.0030499846,0.0011793375,0.0021379888,0.0,0.0,0.0,0.0,0.0,0.0
860060000,859980000,0.2193163,0.025792718,0.12055092,0.0685519,-0.06348801,0.0,0.0,0.0,0.0,0.0,0.0,0.0,0.0,0.105285645,0.0,0.0,nan,0.0,0.0,0.01526165,0.00045464933,-0.0004478544,0.00363034,0.0,0.0,0.0,0.0,0.0,0.0
860556000,860476000,0.14262044,0.061247826,0.1170839,0.037537634,-0.052215576,0.0,0.0,0.0,0.0,0.0,0.0,0.0,0.0,0.15803528,0.0,0.0,nan,0.0,0.0,0.01526165,-0.0062650964,-0.0022464246,-0.0024780035,0.0,0.0,0.0,0.0,0.0,0.0
861060000,860980000,0.11647469,0.044240102,0.22858886,0.033883333,-0.03486252,0.0,0.0,0.0,0.0,0.0,0.0,0.0,0.0,0.1822815,0.0,0.0,nan,0.0,0.0,0.01526165,-0.0003675893,0.0013317168,0.003258735,0.0,0.0,0.0,0.0,0.0,0.0
861564000,861484000,0.06029153,0.028184965,0.15464978,0.019516528,-0.03481102,0.0,0.0,0.0,0.0,0.0,0.0,0.0,0.0,0.17979431,0.0,0.0,nan,0.0,0.0,0.01526165,0.0020172074,0.0018787235,-0.0019662678,0.0,0.0,0.0,0.0,0.0,0.0
862060000,861980000,0.044359043,0.017794851,0.1433006,0.02191782,-0.018564224,0.0,0.0,0.0,0.0,0.0,0.0,0.0,0.0,0.25500488,0.0,0.0,nan,0.0,0.0,0.01526165,0.0007893145,0.0004889965,0.0016955435,0.0,0.0,0.0,0.0,0.0,0.0
862564000,862484000,0.049531683,0.018052101,0.14668593,0.016767263,-0.011835098,0.0,0.0,0.0,0.0,0.0,0.0,0.0,0.0,0.18605042,0.0,0.0,nan,0.0,0.0,0.01526165,-0.0040446073,-0.00048311055,0.001656115,0.0,0.0,0.0,0.0,0.0,0.0
863060000,862980000,0.023132708,-0.0048233494,0.1404871,0.016511738,-0.006286621,0.0,0.0,0.0,0.0,0.0,0.0,0.0,0.0,0.1391449,0.0,0.0,nan,0.0,0.0,0.005043268,0.00064811856,-0.0023092926,0.004334539,0.0,0.0,0.0,0.0,0.0,0.0
863556000,863476000,0.026645347,0.009981353,0.14485762,0.0041727126,-0.0054855347,0.0,0.0,0.0,0.0,0.0,0.0,0.0,0.0,0.24378967,0.0,0.0,nan,0.0,0.0,-0.00055384636,0.00064811856,-0.0023092926,0.004334539,0.0,0.0,0.0,0.0,0.0,0.0
864060000,863980000,0.0015733894,0.009793585,0.16329162,0.013103068,-0.008483887,0.0,0.0,0.0,0.0,0.0,0.0,0.0,0.0,0.2351532,0.0,0.0,nan,0.0,0.0,0.0013825893,0.00064811856,-0.0023092926,0.004334539,0.0,0.0,0.0,0.0,0.0,0.0
864556000,864476000,0.019663943,0.008922335,0.15845232,0.011883467,-0.013278961,0.0,0.0,0.0,0.0,0.0,0.0,0.0,0.0,0.18154907,0.0,0.0,nan,0.0,0.0,-0.013929963,0.00064811856,-0.0023092926,0.004334539,0.0,0.0,0.0,0.0,0.0,0.0
865060000,864980000,0.0010138126,-0.0031502517,0.17271605,0.0010558069,-0.017917633,0.0,0.0,0.0,0.0,0.0,0.0,0.0,0.0,0.31425476,0.0,0.0,nan,0.0,0.0,-0.0035432577,0.00064811856,-0.0023092926,0.004334539,0.0,0.0,0.0,0.0,0.0,0.0
865564000,865484000,0.00818601,-0.012222197,0.17571664,-0.0037952662,-0.019428253,0.0,0.0,0.0,0.0,0.0,0.0,0.0,0.0,0.31022644,0.0,0.0,nan,0.0,0.0,-0.011136055,0.00064811856,-0.0023092926,0.004334539,0.0,0.0,0.0,0.0,0.0,0.0
866060000,865980000,-0.029384019,-0.011780055,0.13939741,-0.011264116,-0.020324707,0.0,0.0,0.0,0.0,0.0,0.0,0.0,0.0,0.28581238,0.0,0.0,nan,0.0,0.0,0.010478735,0.00064811856,-0.0023092926,0.004334539,0.0,0.0,0.0,0.0,0.0,0.0
866564000,866484000,0.0008099862,-0.012105959,0.13966839,0.0012048185,-0.02508545,0.0,0.0,0.0,0.0,0.0,0.0,0.0,0.0,0.38937378,0.0,0.0,nan,0.0,0.0,9.179115e-05,0.00064811856,-0.0023092926,0.004334539,0.0,0.0,0.0,0.0,0.0,0.0
867060000,866980000,0.01220952,-0.039513722,0.16115238,-0.008463502,-0.03173065,0.0,0.0,0.0,0.0,0.0,0.0,0.0,0.0,0.14138794,0.0,0.0,nan,0.0,0.0,-0.010080814,0.00064811856,-0.0023092926,0.004334539,0.0,0.0,0.0,0.0,0.0,0.0
867564000,867484000,-0.02022709,-0.017048212,0.122623526,-0.015997738,-0.026763916,0.0,0.0,0.0,0.0,0.0,0.0,0.0,0.0,0.1877594,0.0,0.0,nan,0.0,0.0,0.0062100887,0.00064811856,-0.0023092926,0.004334539,0.0,0.0,0.0,0.0,0.0,0.0
868060000,867980000,-0.009115293,-0.015324034,0.074456945,-0.009510726,-0.03673935,0.0,0.0,0.0,0.0,0.0,0.0,0.0,0.0,0.19448853,0.0,0.0,nan,0.0,0.0,-0.009218097,0.00064811856,-0.0023092926,0.004334539,0.0,0.0,0.0,0.0,0.0,0.0
868564000,868484000,0.016311122,-0.019339478,0.058674775,-0.0074052215,-0.028404236,0.0,0.0,0.0,0.0,0.0,0.0,0.0,0.0,0.23097229,0.0,0.0,nan,0.0,0.0,-0.012077212,0.00064811856,-0.0023092926,0.004334539,0.0,0.0,0.0,0.0,0.0,0.0
869060000,868980000,0.014069863,-0.016499547,0.030317552,-0.003089726,-0.014896393,0.0,0.0,0.0,0.0,0.0,0.0,0.0,0.0,0.13623047,0.0,0.0,nan,0.0,0.0,-0.0045827627,0.00064811856,-0.0023092926,0.004334539,0.0,0.0,0.0,0.0,0.0,0.0
869564000,869484000,0.02747866,-0.029007196,0.051444165,-0.010144711,-0.012966156,0.0,0.0,0.0,0.0,0.0,0.0,0.0,0.0,0.16815186,0.0,0.0,nan,0.0,0.0,-0.0010561943,0.00064811856,-0.0023092926,0.004334539,0.0,0.0,0.0,0.0,0.0,0.0
870060000,869980000,0.013832362,0.021332346,0.00087557733,-0.005360633,0.0016975403,0.0,0.0,0.0,0.0,0.0,0.0,0.0,0.0,0.17880249,0.0,0.0,nan,0.0,0.0,-0.011538029,0.00064811856,-0.0023092926,0.004334539,0.0,0.0,0.0,0.0,0.0,0.0
870556000,870476000,0.013421818,0.02888904,-0.007962294,0.0067279637,0.005458832,0.0,0.0,0.0,0.0,0.0,0.0,0.0,0.0,0.15452576,0.0,0.0,nan,0.0,0.0,0.00026726723,0.00064811856,-0.0023092926,0.004334539,0.0,0.0,0.0,0.0,0.0,0.0
871060000,870980000,0.0017726636,0.03285663,-0.040504906,0.00055384636,0.0047912598,0.0,0.0,0.0,0.0,0.0,0.0,0.0,0.0,0.05303955,0.0,0.0,nan,0.0,0.0,-0.012673616,0.00064811856,-0.0023092926,0.004334539,0.0,0.0,0.0,0.0,0.0,0.0
871564000,871484000,0.040740684,0.0021183153,-0.057259113,0.017258972,0.013538361,0.0,0.0,0.0,0.0,0.0,0.0,0.0,0.0,0.072250366,0.0,0.0,nan,0.0,0.0,-0.007047415,0.00064811856,-0.0023092926,0.004334539,0.0,0.0,0.0,0.0,0.0,0.0
872060000,871980000,0.0557164,0.02143982,-0.011026225,0.009922564,0.020069122,0.0,0.0,0.0,0.0,0.0,0.0,0.0,0.0,0.0154418945,0.0,0.0,nan,0.0,0.0,-0.0030446053,0.00064811856,-0.0023092926,0.004334539,0.0,0.0,0.0,0.0,0.0,0.0
872556000,872476000,0.042558096,0.01671501,-0.039615013,0.01265946,0.017284393,0.0,0.0,0.0,0.0,0.0,0.0,0.0,0.0,0.022354126,0.0,0.0,nan,0.0,0.0,-0.011615157,0.00064811856,-0.0023092926,0.004334539,0.0,0.0,0.0,0.0,0.0,0.0
873060000,872980000,0.039667003,0.029456852,-0.002804235,0.03646177,0.026367188,0.0,0.0,0.0,0.0,0.0,0.0,0.0,0.0,0.055282593,0.0,0.0,nan,0.0,0.0,0.007950783,0.00064811856,-0.0023092926,0.004334539,0.0,0.0,0.0,0.0,0.0,0.0
873564000,873484000,0.034298252,0.02355943,-0.024838272,0.025384545,0.015701294,0.0,0.0,0.0,0.0,0.0,0.0,0.0,0.0,-0.038131714,0.0,0.0,nan,0.0,0.0,-0.0067546368,0.00064811856,-0.0023092926,0.004334539,0.0,0.0,0.0,0.0,0.0,0.0
874060000,873980000,0.052205652,-0.016240038,-0.05101055,0.03535396,0.013767242,0.0,0.0,0.0,0.0,0.0,0.0,0.0,0.0,-0.08609009,0.0,0.0,nan,0.0,0.0,0.010093212,0.00064811856,-0.0023092926,0.004334539,0.0,0.0,0.0,0.0,0.0,0.0
874564000,874484000,0.054462675,0.0046184454,0.009426162,0.03350246,0.002002716,0.0,0.0,0.0,0.0,0.0,0.0,0.0,0.0,-0.013168335,0.0,0.0,nan,0.0,0.0,-0.006554842,0.00064811856,-0.0023092926,0.004334539,0.0,0.0,0.0,0.0,0.0,0.0
875060000,874980000,0.018754184,-0.010575121,-0.019544423,0.047715962,0.0002975464,0.0,0.0,0.0,0.0,0.0,0.0,0.0,0.0,-0.009460449,0.0,0.0,nan,0.0,0.0,0.007219434,0.00064811856,-0.0023092926,0.004334539,0.0,0.0,0.0,0.0,0.0,0.0
875564000,875484000,0.08208114,0.011592686,-0.050322004,0.056956112,-0.004043579,0.0,0.0,0.0,0.0,0.0,0.0,0.0,0.0,-0.05807495,0.0,0.0,nan,0.0,0.0,-0.0010253191,0.00064811856,-0.0023092926,0.004334539,0.0,0.0,0.0,0.0,0.0,0.0
876060000,875980000,0.092543185,0.017407015,-0.070833705,0.04047011,-0.0059051514,0.0,0.0,0.0,0.0,0.0,0.0,0.0,0.0,-0.07463074,0.0,0.0,nan,0.0,0.0,-0.011623263,0.00064811856,-0.0023092926,0.004334539,0.0,0.0,0.0,0.0,0.0,0.0
876564000,876484000,0.07802832,0.026867256,-0.012975037,0.04344716,-0.015609741,0.0,0.0,0.0,0.0,0.0,0.0,0.0,0.0,-0.07533264,0.0,0.0,nan,0.0,0.0,0.009702563,-0.0015927032,-0.0033747554,0.0033970475,0.0,0.0,0.0,0.0,0.0,0.0
877060000,876980000,0.002129078,0.032411322,-0.050497085,0.033874273,0.002292633,0.0,0.0,0.0,0.0,0.0,0.0,0.0,0.0,-0.06506348,0.0,0.0,nan,0.0,0.0,0.009702563,-0.0009828731,-0.0019363165,-0.0018826127,0.0,0.0,0.0,0.0,0.0,0.0
877564000,877484000,-0.014068127,0.012263,-0.013637237,0.020345211,-0.00039291382,0.0,0.0,0.0,0.0,0.0,0.0,0.0,0.0,-0.008377075,0.0,0.0,nan,0.0,0.0,0.009702563,0.0024111047,-0.002507031,0.00021931529,0.0,0.0,0.0,0.0,0.0,0.0
878060000,877980000,-0.008992195,0.012644097,-0.06416828,0.017077208,-0.0016441345,0.0,0.0,0.0,0.0,0.0,0.0,0.0,0.0,-0.05722046,0.0,0.0,nan,0.0,0.0,0.009702563,-0.0020536408,0.0017847717,0.0011787117,0.0,0.0,0.0,0.0,0.0,0.0
878564000,878484000,-0.036991358,0.025652125,-0.03183297,0.0015792847,-4.196167e-05,0.0,0.0,0.0,0.0,0.0,0.0,0.0,0.0,-0.034454346,0.0,0.0,nan,0.0,0.0,0.009702563,-0.0018154159,3.966689e-05,-0.0032075346,0.0,0.0,0.0,0.0,0.0,0.0
879060000,878980000,-0.0600307,0.0018710643,0.01031005,-0.016494751,-0.00963974,0.0,0.0,0.0,0.0,0.0,0.0,0.0,0.0,0.037857056,0.0,0.0,nan,0.0,0.0,0.009702563,-0.0003835261,-0.00040873885,-0.00058728456,0.0,0.0,0.0,0.0,0.0,0.0
879564000,879484000,-0.083655596,-0.0423688,-0.047460973,-0.030948639,-0.013339996,0.0,0.0,0.0,0.0,0.0,0.0,0.0,0.0,-0.06317139,0.0,0.0,nan,0.0,0.0,0.009702563,-0.0010148436,0.0052250028,0.007311821,0.0,0.0,0.0,0.0,0.0,0.0
880060000,879980000,-0.04754311,-0.038963303,0.00067931414,-0.03131962,-0.024852753,0.0,0.0,0.0,0.0,0.0,0.0,0.0,0.0,0.0,0.0,0.0,nan,0.0,0.0,-0.015034914,0.0028952807,-0.0018723458,-0.0015776455,0.0,0.0,0.0,0.0,0.0,0.0
880564000,880484000,-0.06602472,-0.053390417,0.0073094964,-0.043554306,-0.04718399,0.0,0.0,0.0,0.0,0.0,0.0,0.0,0.0,0.0,0.0,0.0,nan,0.0,0.0,-0.005635619,-0.0004948452,-0.0023030937,0.0013750792,0.0,0.0,0.0,0.0,0.0,0.0
881060000,880980000,-0.00059974194,-0.0790724,-0.038836956,-0.041724205,-0.05161667,0.0,0.0,0.0,0.0,0.0,0.0,0.0,0.0,0.0,0.0,0.0,nan,0.0,0.0,-0.005635619,-0.0003995672,0.0019422024,0.0019197464,0.0,0.0,0.0,0.0,0.0,0.0
881556000,881476000,-0.03565651,-0.04031721,0.019762278,-0.050927162,-0.043891907,0.0,0.0,0.0,0.0,0.0,0.0,0.0,0.0,0.0,0.0,0.0,nan,0.0,0.0,-0.005635619,-0.001762256,0.0002759993,0.00182724,0.0,0.0,0.0,0.0,0.0,0.0
882060000,881980000,-0.009896427,-0.06257565,0.028540611,-0.03198099,-0.05146408,0.0,0.0,0.0,0.0,0.0,0.0,0.0,0.0,0.0,0.0,0.0,nan,0.0,0.0,-0.005635619,-0.00220906,0.0029271245,-0.00017848611,0.0,0.0,0.0,0.0,0.0,0.0
882564000,882484000,-0.010312676,-0.027996413,-0.0062050223,-0.033332348,-0.03300476,0.0,0.0,0.0,0.0,0.0,0.0,0.0,0.0,0.0,0.0,0.0,nan,0.0,0.0,-0.005635619,-0.0025632158,0.000857234,-0.0013477206,0.0,0.0,0.0,0.0,0.0,0.0
883060000,882980000,-0.011327043,-0.011710048,-0.042586923,-0.027491093,-0.035713196,0.0,0.0,0.0,0.0,0.0,0.0,0.0,0.0,0.0,0.0,0.0,nan,0.0,0.0,-0.005635619,-0.0012793168,-0.003587097,0.0020922124,0.0,0.0,0.0,0.0,0.0,0.0
883556000,883476000,-0.011446521,-0.0015701577,-0.0019634962,-0.02469635,-0.03578949,0.0,0.0,0.0,0.0,0.0,0.0,0.0,0.0,0.0,0.0,0.0,nan,0.0,0.0,-0.005635619,-0.0012427047,0.0001538992,-0.00023531914,0.0,0.0,0.0,0.0,0.0,0.0
884060000,883980000,-0.036749832,0.01892757,0.0031903982,-0.022173405,-0.028961182,0.0,0.0,0.0,0.0,0.0,0.0,0.0,0.0,0.0,0.0,0.0,nan,0.0,0.0,-0.00078463554,-0.0019874126,0.00026197731,0.00088626146,0.0,0.0,0.0,0.0,0.0,0.0
884564000,884484000,-0.036900207,0.020181373,-0.02675587,-0.023348331,-0.025123596,0.0,0.0,0.0,0.0,0.0,0.0,0.0,0.0,0.0,0.0,0.0,nan,0.0,0.0,-0.006224036,-0.0019874126,0.00026197731,0.00088626146,0.0,0.0,0.0,0.0,0.0,0.0
885060000,884980000,-0.06000167,0.017533913,-0.04423213,-0.015594959,-0.015888214,0.0,0.0,0.0,0.0,0.0,0.0,0.0,0.0,0.0,0.0,0.0,nan,0.0,0.0,-0.0070962906,-0.0019874126,0.00026197731,0.00088626146,0.0,0.0,0.0,0.0,0.0,0.0
885564000,885484000,-0.005765372,-0.0013067288,-0.010706902,-0.013546944,-0.010108948,0.0,0.0,0.0,0.0,0.0,0.0,0.0,0.0,0.0,0.0,0.0,nan,0.0,0.0,0.0007548332,-0.0019874126,0.00026197731,0.00088626146,0.0,0.0,0.0,0.0,0.0,0.0
886060000,885980000,-0.02068936,0.03196518,-0.02590239,-0.017757893,-0.0063323975,0.0,0.0,0.0,0.0,0.0,0.0,0.0,0.0,0.0,0.0,0.0,nan,0.0,0.0,-0.00021064281,-0.0019874126,0.00026197731,0.00088626146,0.0,0.0,0.0,0.0,0.0,0.0
886556000,886476000,-0.02193048,0.0040635993,-0.012156069,-0.014901161,-0.0073242188,0.0,0.0,0.0,0.0,0.0,0.0,0.0,0.0,0.0,0.0,0.0,nan,0.0,0.0,-0.016803026,-0.0019874126,0.00026197731,0.00088626146,0.0,0.0,0.0,0.0,0.0,0.0
887060000,886980000,-0.02839045,0.01306872,0.008295834,-0.017017365,0.0045433044,0.0,0.0,0.0,0.0,0.0,0.0,0.0,0.0,0.0,0.0,0.0,nan,0.0,0.0,-0.006137967,-0.0019874126,0.00026197731,0.00088626146,0.0,0.0,0.0,0.0,0.0,0.0
887564000,887484000,-0.0167273,0.004094622,0.05146891,-0.016125679,0.0040359497,0.0,0.0,0.0,0.0,0.0,0.0,0.0,0.0,0.0,0.0,0.0,nan,0.0,0.0,-0.032755375,-0.0019874126,0.00026197731,0.00088626146,0.0,0.0,0.0,0.0,0.0,0.0
888060000,887980000,-0.009180268,0.008892156,-0.020125628,-0.011909485,-0.0026550293,0.0,0.0,0.0,0.0,0.0,0.0,0.0,0.0,0.0,0.0,0.0,nan,0.0,0.0,-0.00044167042,-0.0019874126,0.00026197731,0.00088626146,0.0,0.0,0.0,0.0,0.0,0.0
888556000,888476000,0.0068108626,0.0075686364,0.008400381,-0.0099544525,-0.009666443,0.0,0.0,0.0,0.0,0.0,0.0,0.0,0.0,0.0,0.0,0.0,nan,0.0,0.0,0.010768175,-0.0019874126,0.00026197731,0.00088626146,0.0,0.0,0.0,0.0,0.0,0.0
889060000,888980000,0.015687006,-0.016861469,0.008404434,-0.0068974495,-0.014282227,0.0,0.0,0.0,0.0,0.0,0.0,0.0,0.0,0.0,0.0,0.0,nan,0.0,0.0,-0.0044294596,-0.0019874126,0.00026197731,0.00088626146,0.0,0.0,0.0,0.0,0.0,0.0
889556000,889476000,-0.0022674128,-0.017427644,0.048281014,-0.0013341904,-0.01751709,0.0,0.0,0.0,0.0,0.0,0.0,0.0,0.0,0.0,0.0,0.0,nan,0.0,0.0,0.004637122,-0.0019874126,0.00026197731,0.00088626146,0.0,0.0,0.0,0.0,0.0,0.0
890060000,889980000,0.0034527266,-0.004819091,0.015217006,0.0050377846,-0.02173233,0.0,0.0,0.0,0.0,0.0,0.0,0.0,0.0,0.0,0.0,0.0,nan,0.0,0.0,-0.006043315,-0.0019874126,0.00026197731,0.00088626146,0.0,0.0,0.0,0.0,0.0,0.0
890564000,890484000,-0.0046269237,-0.020738918,0.03482175,0.012861729,-0.024242401,0.0,0.0,0.0,0.0,0.0,0.0,0.0,0.0,0.0,0.0,0.0,nan,0.0,0.0,-0.023414493,-0.0019874126,0.00026197731,0.00088626146,0.0,0.0,0.0,0.0,0.0,0.0
891060000,890980000,0.0058998447,-0.030363498,0.030336082,0.011308193,-0.02399826,0.0,0.0,0.0,0.0,0.0,0.0,0.0,0.0,0.0,0.0,0.0,nan,0.0,0.0,-0.0085042715,-0.0019874126,0.00026197731,0.00088626146,0.0,0.0,0.0,0.0,0.0,0.0
891556000,891476000,-0.02617702,-0.039008547,0.0017516017,0.0084171295,-0.031547546,0.0,0.0,0.0,0.0,0.0,0.0,0.0,0.0,0.0,0.0,0.0,nan,0.0,0.0,-0.0048880577,-0.0019874126,0.00026197731,0.00088626146,0.0,0.0,0.0,0.0,0.0,0.0
892060000,891980000,0.00026527885,-0.03765538,0.010900438,0.013720512,-0.02462387,0.0,0.0,0.0,0.0,0.0,0.0,0.0,0.0,0.0,0.0,0.0,nan,0.0,0.0,0.0028009415,-0.0019874126,0.00026197731,0.00088626146,0.0,0.0,0.0,0.0,0.0,0.0
892556000,892476000,-0.01456218,-0.054126322,0.014766872,-0.010178089,-0.031944275,0.0,0.0,0.0,0.0,0.0,0.0,0.0,0.0,0.0,0.0,0.0,nan,0.0,0.0,-0.000646472,-0.0019874126,0.00026197731,0.00088626146,0.0,0.0,0.0,0.0,0.0,0.0
893060000,892980000,-0.013796555,-0.035387162,0.015884042,0.0014715195,-0.025074005,0.0,0.0,0.0,0.0,0.0,0.0,0.0,0.0,0.0,0.0,0.0,nan,0.0,0.0,-0.015438437,-0.0019874126,0.00026197731,0.00088626146,0.0,0.0,0.0,0.0,0.0,0.0
893556000,893476000,-0.012032374,-0.066137865,0.057911932,-0.0102062225,-0.032188416,0.0,0.0,0.0,0.0,0.0,0.0,0.0,0.0,0.0,0.0,0.0,nan,0.0,0.0,0.0025357008,-0.0019874126,0.00026197731,0.00088626146,0.0,0.0,0.0,0.0,0.0,0.0
894060000,893980000,-0.010922733,-0.02830932,0.01888138,-0.018834114,-0.02563095,0.0,0.0,0.0,0.0,0.0,0.0,0.0,0.0,0.0,0.0,0.0,nan,0.0,0.0,-0.0053122044,-0.0019874126,0.00026197731,0.00088626146,0.0,0.0,0.0,0.0,0.0,0.0
894556000,894476000,-0.014670052,-0.049143128,0.027159393,-0.012242794,-0.031589508,0.0,0.0,0.0,0.0,0.0,0.0,0.0,0.0,0.0,0.0,0.0,nan,0.0,0.0,-0.0061973333,-0.0019874126,0.00026197731,0.00088626146,0.0,0.0,0.0,0.0,0.0,0.0
895060000,894980000,-0.05421505,-0.04727245,0.008833468,-0.03306532,-0.030143738,0.0,0.0,0.0,0.0,0.0,0.0,0.0,0.0,0.0,0.0,0.0,nan,0.0,0.0,0.00021648407,-0.0019874126,0.00026197731,0.00088626146,0.0,0.0,0.0,0.0,0.0,0.0
895556000,895476000,-0.04098311,-0.04703501,0.08177215,-0.018964767,-0.027519226,0.0,0.0,0.0,0.0,0.0,0.0,0.0,0.0,0.008331299,0.0,0.0,nan,0.0,0.0,-0.009663463,-0.0019874126,0.00026197731,0.00088626146,0.0,0.0,0.0,0.0,0.0,0.0
896060000,895980000,-0.086348236,-0.031135814,0.040752053,-0.027244091,-0.019752502,0.0,0.0,0.0,0.0,0.0,0.0,0.0,0.0,0.0,0.0,0.0,nan,0.0,0.0,0.0024842024,-0.0019874126,0.00026197731,0.00088626146,0.0,0.0,0.0,0.0,0.0,0.0
896564000,896484000,-0.03664076,-0.030157104,0.024073644,-0.026503086,-0.031143188,0.0,0.0,0.0,0.0,0.0,0.0,0.0,0.0,0.0013275146,0.0,0.0,nan,0.0,0.0,-0.006513953,-0.0019874126,0.00026197731,0.00088626146,0.0,0.0,0.0,0.0,0.0,0.0
897060000,896980000,-0.02486908,-0.025272593,0.035359874,-0.019004822,-0.025287628,0.0,0.0,0.0,0.0,0.0,0.0,0.0,0.0,0.0,0.0,0.0,nan,0.0,0.0,-0.0045628548,-0.0019874126,0.00026197731,0.00088626146,0.0,0.0,0.0,0.0,0.0,0.0
897564000,897484000,-0.02608788,-0.026058735,0.034129813,-0.022265911,-0.027484894,0.0,0.0,0.0,0.0,0.0,0.0,0.0,0.0,-0.062088013,0.0,0.0,nan,0.0,0.0,-0.013504863,-0.0019874126,0.00026197731,0.00088626146,0.0,0.0,0.0,0.0,0.0,0.0
898060000,897980000,-0.021576922,-0.022442358,0.065621294,-0.015618801,-0.010429382,0.0,0.0,0.0,0.0,0.0,0.0,0.0,0.0,-0.054779053,0.0,0.0,nan,0.0,0.0,-0.01717019,-0.0019874126,0.00026197731,0.00088626146,0.0,0.0,0.0,0.0,0.0,0.0
898564000,898484000,-0.030320253,-0.022826817,0.05782579,-0.014575958,-0.010139465,0.0,0.0,0.0,0.0,0.0,0.0,0.0,0.0,-0.14802551,0.0,0.0,nan,0.0,0.0,-0.0067210197,-0.0019874126,0.00026197731,0.00088626146,0.0,0.0,0.0,0.0,0.0,0.0
899060000,898980000,0.0005593727,0.00036796124,-0.043500893,0.0034861565,0.010677338,0.0,0.0,0.0,0.0,0.0,0.0,0.0,0.0,-0.27497864,0.0,0.0,nan,0.0,0.0,-0.013935804,-0.0019874126,0.00026197731,0.00088626146,0.0,0.0,0.0,0.0,0.0,0.0
899564000,899484000,-0.0010829878,0.030269867,0.0023389752,0.004135132,0.010871887,0.0,0.0,0.0,0.0,0.0,0.0,0.0,0.0,-0.15119934,0.0,0.0,nan,0.0,0.0,-0.02472508,-0.0019874126,0.00026197731,0.00088626146,0.0,0.0,0.0,0.0,0.0,0.0
900060000,899980000,0.010922276,-0.0025878674,0.001369759,0.0038523674,0.010169983,0.0,0.0,0.0,0.0,0.0,0.0,0.0,0.0,-0.17732239,0.0,0.0,nan,0.0,0.0,-0.0067561865,-0.0019874126,0.00026197731,0.00088626146,0.0,0.0,0.0,0.0,0.0,0.0
