timestamp,timestamp_sample,output_tracking_error[0],output_tracking_error[1],output_tracking_error[2],control_mode_flags,filter_fault_flags,pos_horiz_accuracy,pos_vert_accuracy,mag_test_ratio,vel_test_ratio,pos_test_ratio,hgt_test_ratio,tas_test_ratio,hagl_test_ratio,beta_test_ratio,time_slip,accel_device_id,gyro_device_id,baro_device_id,mag_device_id,gps_check_fail_flags,innovation_check_flags,solution_status_flags,reset_count_vel_ne,reset_count_vel_d,reset_count_pos_ne,reset_count_pod_d,reset_count_quat,pre_flt_fail_innov_heading,pre_flt_fail_innov_vel_horiz,pre_flt_fail_innov_vel_vert,pre_flt_fail_innov_height,pre_flt_fail_mag_field_disturbed,health_flags,timeout_flags
829260000,829180000,0.00022065271,0.0029332282,0.0004988884,67109399,0,0.056085348,0.060132857,0.0032782143,0.010430005,0.0016208326,0.002993768,0.0,0.0,0.0,0.0,1310996,1310996,6620172,197388,0,0,895,2,1,2,0,4,0,0,0,0,0,0,0
829268000,829188000,0.0002184416,0.00275874,0.00049715233,67109399,0,0.05608552,0.060132947,0.0032782143,0.010430005,0.0016208326,0.002993768,0.0,0.0,0.0,0.0,1310996,1310996,6620172,197388,0,0,895,2,1,2,0,4,0,0,0,0,0,0,0
829460000,829380000,0.00011710588,0.0043651406,0.00032159025,67109399,0,0.056055013,0.06011265,0.008516832,0.0020285868,0.0015539866,0.005856767,0.0,0.0,0.0,0.0,1310996,1310996,6620172,197388,0,0,895,2,1,2,0,4,0,0,0,0,0,0,0
829660000,829580000,0.00018396802,0.0050237807,0.0010272146,67109399,0,0.05606882,0.060083643,0.011186788,0.0020285868,0.0015539866,0.0007610833,0.0,0.0,0.0,0.0,1310996,1310996,6620172,197388,0,0,895,2,1,2,0,4,0,0,0,0,0,0,0
829860000,829780000,4.1291652e-05,0.0045109414,0.0014246932,67109399,0,0.0560386,0.06006355,0.0009428224,0.02376022,0.0016463628,0.0011638561,0.0,0.0,0.0,0.0,1310996,1310996,6620172,197388,0,0,895,2,1,2,0,4,0,0,0,0,0,0,0
830060000,829980000,0.00018051827,0.0038189043,0.001483312,67109399,0,0.056008466,0.06003465,0.03678944,0.0073957755,0.0015094347,0.0023887388,0.0,0.0,0.0,0.0,1310996,1310996,6620172,197388,0,0,895,2,1,2,0,4,0,0,0,0,0,0,0
830260000,830180000,3.3080447e-05,0.0028796468,0.0014608278,67109399,0,0.056011822,0.060031705,0.00074083277,0.013109501,0.0014815152,0.003435774,0.0,0.0,0.0,0.0,1310996,1310996,6620172,197388,0,0,895,2,1,2,0,4,0,0,0,0,0,0,0
830460000,830380000,3.4852565e-05,0.0031293507,0.00158392,67109399,0,0.05597626,0.06000892,0.009463465,0.014908408,0.0015253748,0.0010897534,0.0,0.0,0.0,0.0,1310996,1310996,6620172,197388,0,0,895,2,1,2,0,4,0,0,0,0,0,0,0
830660000,830580000,0.0001643278,0.0013971041,0.00072391017,67109399,0,0.055941243,0.0599776,0.01433883,0.0018693743,0.0015729809,0.00096072664,0.0,0.0,0.0,0.0,1310996,1310996,6620172,197388,0,0,895,2,1,2,0,4,0,0,0,0,0,0,0
830860000,830780000,0.00015232516,0.0031229183,0.0010683134,67109399,0,0.055950522,0.059955366,0.018247267,0.0018693743,0.0015729809,0.0036450077,0.0,0.0,0.0,0.0,1310996,1310996,6620172,197388,0,0,895,2,1,2,0,4,0,0,0,0,0,0,0
831060000,830980000,0.0001227457,0.002573427,0.000998271,67109399,0,0.05591638,0.05993336,0.026463088,0.004251316,0.0014174583,0.003944037,0.0,0.0,0.0,0.0,1310996,1310996,6620172,197388,0,0,895,2,1,2,0,4,0,0,0,0,0,0,0
831260000,831180000,7.242913e-05,0.0035849942,0.0014099592,67109399,0,0.055926457,0.059902817,0.0031456396,0.004251316,0.0014174583,0.007109554,0.0,0.0,0.0,0.0,1310996,1310996,6620172,197388,0,0,895,2,1,2,0,4,0,0,0,0,0,0,0
831460000,831380000,0.00014176074,0.0046182075,0.00180915,67109399,0,0.055893168,0.059881277,0.019658297,0.0042535756,0.0013958274,0.00030861833,0.0,0.0,0.0,0.0,1310996,1310996,6620172,197388,0,0,895,2,1,2,0,4,0,0,0,0,0,0,0
831660000,831580000,0.000121238576,0.004667098,0.0019659374,67109399,0,0.055860355,0.059859958,0.006633164,0.0043535717,0.0016125547,0.011629856,0.0,0.0,0.0,0.0,1310996,1310996,6620172,197388,0,0,895,2,1,2,0,4,0,0,0,0,0,0,0
831860000,831780000,7.174618e-05,0.0028996665,0.0015707094,67109399,0,0.05582797,0.059830092,0.0033901918,0.0068788296,0.0015909364,0.0006154932,0.0,0.0,0.0,0.0,1310996,1310996,6620172,197388,0,0,895,2,1,2,0,4,0,0,0,0,0,0,0
832060000,831980000,0.00010977758,0.004927806,0.0016399818,67109399,0,0.055795982,0.059809167,0.011186624,0.012969558,0.0016379174,0.0021202262,0.0,0.0,0.0,0.0,1310996,1310996,6620172,197388,0,0,895,2,1,2,0,4,0,0,0,0,0,0,0
832260000,832180000,0.00015866669,0.0011889321,0.0005924783,67109399,0,0.05580777,0.059779704,0.009850195,0.012969558,0.0016379174,0.002997261,0.0,0.0,0.0,0.0,1310996,1310996,6620172,197388,0,0,895,2,1,2,0,4,0,0,0,0,0,0,0
832460000,832380000,0.00014067168,0.0041872384,0.0010184672,67109399,0,0.05577641,0.059759136,0.0042373557,0.007033738,0.0013932827,0.005907342,0.0,0.0,0.0,0.0,1310996,1310996,6620172,197388,0,0,895,2,1,2,0,4,0,0,0,0,0,0,0
832660000,832580000,0.0001357584,0.005707598,0.0017245188,67109399,0,0.0557454,0.059738725,0.002071155,0.02215243,0.0013956899,0.006507144,0.0,0.0,0.0,0.0,1310996,1310996,6620172,197388,0,0,895,2,1,2,0,4,0,0,0,0,0,0,0
832860000,832780000,0.000120978126,0.0035705098,0.0015397784,67109399,0,0.055714697,0.059709772,0.0008630319,0.006863063,0.0016534477,0.010581956,0.0,0.0,0.0,0.0,1310996,1310996,6620172,197388,0,0,895,2,1,2,0,4,0,0,0,0,0,0,0
833060000,832980000,0.00014827005,0.002053013,0.0010824935,67109399,0,0.05568429,0.05968966,0.024326771,0.007183907,0.0016693453,0.0033207014,0.0,0.0,0.0,0.0,1310996,1310996,6620172,197388,0,0,895,2,1,2,0,4,0,0,0,0,0,0,0
833260000,833180000,0.00018224333,0.0026274645,0.0008929326,67109399,0,0.05565416,0.059669666,0.0047403495,0.009201103,0.0016907162,0.0052744146,0.0,0.0,0.0,0.0,1310996,1310996,6620172,197388,0,0,895,2,1,2,0,4,0,0,0,0,0,0,0
833460000,833380000,0.0001780946,0.0037764425,0.0012091637,67109399,0,0.055667356,0.059641134,0.012745636,0.009201103,0.0016907162,0.0048507187,0.0,0.0,0.0,0.0,1310996,1310996,6620172,197388,0,0,895,2,1,2,0,4,0,0,0,0,0,0,0
833660000,833580000,0.00038220364,0.007231607,0.0020202505,67109399,0,0.05563761,0.059621375,0.030513873,0.019470405,0.0013576957,0.0028909033,0.0,0.0,0.0,0.0,1310996,1310996,6620172,197388,0,0,895,2,1,2,0,4,0,0,0,0,0,0,0
833860000,833780000,0.0001370889,0.0040579876,0.0019935665,67109399,0,0.055651106,0.059593078,0.02903022,0.019470405,0.0013576957,0.0016389923,0.0,0.0,0.0,0.0,1310996,1310996,6620172,197388,0,0,895,2,1,2,0,4,0,0,0,0,0,0,0
834060000,833980000,0.00016910706,0.0043789847,0.0015612057,67109399,0,0.055621658,0.059573516,0.013671984,0.0105890585,0.0013869974,0.0004812361,0.0,0.0,0.0,0.0,1310996,1310996,6620172,197388,0,0,895,2,1,2,0,4,0,0,0,0,0,0,0
834260000,834180000,6.1416904e-05,0.0018989036,0.0009306507,67109399,0,0.055592377,0.059554037,0.008571438,0.012748043,0.0017637061,0.0028403392,0.0,0.0,0.0,0.0,1310996,1310996,6620172,197388,0,0,895,2,1,2,0,4,0,0,0,0,0,0,0
834460000,834380000,0.00012412218,0.0029891848,0.0006499503,67109399,0,0.055563256,0.05952601,0.018300343,0.010030526,0.0017615455,0.0020818694,0.0,0.0,0.0,0.0,1310996,1310996,6620172,197388,0,0,895,2,1,2,0,4,0,0,0,0,0,0,0
834660000,834580000,0.00017065188,0.0025293685,0.0006237384,67109399,0,0.055534273,0.059506666,0.009332111,0.01728375,0.0004533899,0.004491538,0.0,0.0,0.0,0.0,1310996,1310996,6620172,197388,0,0,895,2,1,2,0,4,0,0,0,0,0,0,0
834860000,834780000,0.00015769836,0.0042116004,0.0008817277,67109399,0,0.055548206,0.059487373,0.0025712517,0.01728375,0.0004533899,0.0015526843,0.0,0.0,0.0,0.0,1310996,1310996,6620172,197388,0,0,895,2,1,2,0,4,0,0,0,0,0,0,0
835060000,834980000,6.3641426e-05,0.0018906536,0.00080492836,67109399,0,0.055519335,0.05945954,0.0037398634,0.013163658,0.0005227526,0.005094828,0.0,0.0,0.0,0.0,1310996,1310996,6620172,197388,0,0,895,2,1,2,0,4,0,0,0,0,0,0,0
835260000,835180000,0.00024782273,0.004492398,0.00065928506,67109399,0,0.055490546,0.05944034,0.029764812,0.002076682,0.00048576103,0.0049283137,0.0,0.0,0.0,0.0,1310996,1310996,6620172,197388,0,0,895,2,1,2,0,4,0,0,0,0,0,0,0
835460000,835380000,0.00010525834,0.0012551636,0.0005854035,67109399,0,0.055495534,0.05942985,0.019023651,0.014715905,0.0017476988,0.0031062416,0.0,0.0,0.0,0.0,1310996,1310996,6620172,197388,0,0,895,2,1,2,0,4,0,0,0,0,0,0,0
835660000,835580000,0.0001005742,0.00304128,0.0012461892,67109399,0,0.055461258,0.05940789,0.053021226,0.0012216124,0.0017082246,0.0017436105,0.0,0.0,0.0,0.0,1310996,1310996,6620172,197388,0,0,895,2,1,2,0,4,0,0,0,0,0,0,0
835860000,835780000,4.5463083e-05,0.0016436024,0.000955655,67109399,0,0.055427525,0.0593862,0.004102495,0.00934742,0.0014416584,0.00053616025,0.0,0.0,0.0,0.0,1310996,1310996,6620172,197388,0,0,895,2,1,2,0,4,0,0,0,0,0,0,0
836060000,835980000,0.00015107653,0.0016604145,0.00087421696,67109399,0,0.055436887,0.059356242,0.014019056,0.00934742,0.0014416584,0.008211535,0.0,0.0,0.0,0.0,1310996,1310996,6620172,197388,0,0,895,2,1,2,0,4,0,0,0,0,0,0,0
836260000,836180000,2.9933393e-05,0.0007401793,0.00046538815,1049239,0,0.05540403,0.059335053,0.0074310503,0.017052025,0.00053332036,1.1754944e-38,0.0,0.0,0.0,0.0,1310996,1310996,6620172,197388,0,0,895,2,1,2,0,4,0,0,0,0,0,0,0
836460000,836380000,4.8093447e-05,0.0014634005,0.0005026102,1049239,0,0.055698406,0.059458856,0.004311805,0.017052025,0.00053332036,0.0027819304,0.0,0.0,0.0,0.0,1310996,1310996,6620172,197388,0,0,895,2,1,2,0,4,0,0,0,0,0,0,0
836660000,836580000,0.00024178645,0.0017567767,0.00070365856,1049239,0,0.056596,0.05991977,0.050865803,0.004363855,0.0019013407,1.1754944e-38,0.0,0.0,0.0,0.0,1310996,1310996,6620172,197388,0,0,895,2,1,2,0,4,0,0,0,0,0,0,0
836860000,836780000,0.00019135201,0.0018465598,0.000800938,1049239,0,0.058551386,0.060989592,0.043588225,0.026218556,0.0020916467,1.1754944e-38,0.0,0.0,0.0,0.0,1310996,1310996,6620172,197388,0,0,895,2,1,2,0,4,0,0,0,0,0,0,0
837060000,836980000,3.5857967e-05,0.001872286,0.00088073924,1049239,0,0.061937522,0.06292017,0.013979527,0.0034428851,0.0009073121,0.0014611197,0.0,0.0,0.0,0.0,1310996,1310996,6620172,197388,0,0,895,2,1,2,0,4,0,0,0,0,0,0,0
837260000,837180000,5.686694e-05,0.002191072,0.0009961394,1049239,0,0.06701687,0.065976195,0.0028608039,0.026503302,0.0023502072,0.0021349825,0.0,0.0,0.0,0.0,1310996,1310996,6620172,197388,0,0,895,2,1,2,0,4,0,0,0,0,0,0,0
837460000,837380000,8.634733e-05,0.0017953805,0.00087105174,1049239,0,0.07440066,0.07044425,0.010473237,0.026503302,0.0023502072,0.0002632713,0.0,0.0,0.0,0.0,1310996,1310996,6620172,197388,0,0,895,2,1,2,0,4,0,0,0,0,0,0,0
837660000,837580000,6.683448e-05,0.0010841322,0.00074297795,1049239,0,0.08335705,0.07622532,0.008821475,0.028145378,0.003557439,1.1754944e-38,0.0,0.0,0.0,0.0,1310996,1310996,6620172,197388,0,0,895,2,1,2,0,4,0,0,0,0,0,0,0
837860000,837780000,0.00011741324,0.0018653551,0.0018996607,663,0,0.09399123,0.08340351,0.019285878,0.036786124,0.004893296,0.0011680658,0.0,0.0,0.0,0.0,1310996,1310996,6620172,197388,0,0,895,2,1,2,0,4,0,0,0,0,0,0,0
838060000,837980000,0.00010455856,0.0012888018,0.001974735,663,0,0.10600385,0.09187352,0.0056734025,0.027096773,0.0063583553,0.0007252087,0.0,0.0,0.0,0.0,1310996,1310996,6620172,197388,0,0,895,2,1,2,0,4,0,0,0,0,0,0,0
838260000,838180000,0.00013524982,0.0021310109,0.002962135,663,0,0.11892202,0.10145268,0.016627982,0.03145855,0.0057209567,0.0030949365,0.0,0.0,0.0,0.0,1310996,1310996,6620172,197388,0,0,895,2,1,2,0,4,0,0,0,0,0,0,0
838460000,838380000,0.00010967199,0.0033199093,0.004342437,663,0,0.13233232,0.11204541,0.015717043,0.0338469,0.007335269,0.00067541195,0.0,0.0,0.0,0.0,1310996,1310996,6620172,197388,0,0,895,2,1,2,0,4,0,0,0,0,0,0,0
838660000,838580000,0.0051727355,0.0013489721,0.002015604,8389271,0,0.15004008,0.12483313,0.0247423,0.0338469,0.007335269,0.0028608209,0.0,0.0,0.0,0.0,1310996,1310996,6620172,197388,0,0,895,2,1,2,0,5,0,0,0,0,0,0,0
838860000,838780000,0.004473138,0.0027140288,0.0045299516,8389271,0,0.16360483,0.13698643,0.01712363,0.02759317,0.009687576,0.003154863,0.0,0.0,0.0,0.0,1310996,1310996,6620172,197388,0,0,895,2,1,2,0,5,0,0,0,0,0,0,0
839060000,838980000,0.003125393,0.0010931485,0.0019766253,8389271,0,0.18209912,0.15193188,0.02722138,0.02759317,0.009687576,0.0038190607,0.0,0.0,0.0,0.0,1310996,1310996,6620172,197388,0,0,895,2,1,2,0,5,0,0,0,0,0,0,0
839260000,839180000,0.0015964935,0.00204844,0.0041695163,8389271,0,0.19454518,0.16493279,0.02255893,0.025109109,0.01226396,0.0050402577,0.0,0.0,0.0,0.0,1310996,1310996,6620172,197388,0,0,895,2,1,2,0,5,0,0,0,0,0,0,0
839460000,839380000,0.0010236502,0.0042333356,0.007026615,8389271,0,0.20629552,0.17818896,0.01598883,0.024356937,0.014105937,0.0017259949,0.0,0.0,0.0,0.0,1310996,1310996,6620172,197388,0,0,895,2,1,2,0,5,0,0,0,0,0,0,0
839660000,839580000,0.0012555441,0.005018303,0.008572463,8389271,0,0.21737756,0.19142294,0.024505775,0.029160783,0.015841579,0.0041512223,0.0,0.0,0.0,0.0,1310996,1310996,6620172,197388,0,0,895,2,1,2,0,5,0,0,0,0,0,0,0
839860000,839780000,0.0007214809,0.0039398377,0.0073526395,8389271,0,0.2278352,0.20418869,0.009797479,0.013927103,0.014882868,0.0015981774,0.0,0.0,0.0,0.0,1310996,1310996,6620172,197388,0,0,895,2,1,2,0,5,0,0,0,0,0,0,0
840060000,839980000,0.0012258793,0.00059058855,0.002183913,8389271,0,0.24813338,0.22192203,0.028716546,0.013927103,0.014882868,0.0038708667,0.0,0.0,0.0,0.0,1310996,1310996,6620172,197388,0,0,895,2,1,2,0,5,0,0,0,0,0,0,0
840260000,840180000,0.00033610154,0.0026171869,0.004894126,8389271,0,0.25724778,0.23406987,0.00025340426,0.016850539,0.014819221,0.0036731057,0.0,0.0,0.0,0.0,1310996,1310996,6620172,197388,0,0,895,2,1,2,0,5,0,0,0,0,0,0,0
840460000,840380000,0.00073298893,0.0048717,0.008601269,8389271,0,0.26559684,0.24623929,0.0068354397,0.02975361,0.016361078,0.0016239388,0.0,0.0,0.0,0.0,1310996,1310996,6620172,197388,0,0,895,2,1,2,0,5,0,0,0,0,0,0,0
840660000,840580000,0.0001914423,0.004270673,0.0073447567,8389271,0,0.27317312,0.25793973,0.010321975,0.012452423,0.01568042,0.003963852,0.0,0.0,0.0,0.0,1310996,1310996,6620172,197388,0,0,895,2,1,2,0,5,0,0,0,0,0,0,0
840860000,840780000,0.00048808777,0.005278487,0.008840136,8389271,0,0.2800205,0.26835,0.0061529037,0.01821492,0.014461901,0.003843527,0.0,0.0,0.0,0.0,1310996,1310996,6620172,197388,0,0,895,2,1,2,0,5,0,0,0,0,0,0,0
841060000,840980000,0.0002696692,0.0052224044,0.008991614,8389271,0,0.2861817,0.2789545,0.00022636564,0.016379805,0.014469797,0.0010055419,0.0,0.0,0.0,0.0,1310996,1310996,6620172,197388,0,0,895,2,1,2,0,5,0,0,0,0,0,0,0
841260000,841180000,0.0006010815,0.0011306852,0.003020481,8389271,0,0.30874914,0.29559654,0.010180903,0.016379805,0.014469797,0.0055213226,0.0,0.0,0.0,0.0,1310996,1310996,6620172,197388,0,0,831,2,1,2,0,5,0,0,0,0,0,0,0
841460000,841380000,0.0003516758,0.0059910244,0.008259296,8389271,0,0.31235832,0.30490002,0.006835212,0.020080077,0.012531558,0.00049600034,0.0,0.0,0.0,0.0,1310996,1310996,6620172,197388,0,0,831,2,1,2,0,5,0,0,0,0,0,0,0
841660000,841580000,6.5007545e-05,0.0047632335,0.007321453,8389271,0,0.33719525,0.32228535,0.012736004,0.020080077,0.012531558,0.008246477,0.0,0.0,0.0,0.0,1310996,1310996,6620172,197388,0,0,831,2,1,2,0,5,0,0,0,0,0,0,0
841860000,841780000,0.0010464797,0.020153973,0.02891935,8389271,0,0.33712178,0.3286472,0.013756593,0.05104021,0.01139851,0.0004887281,0.0,0.0,0.0,0.0,1310996,1310996,6620172,197388,0,0,831,2,1,2,0,5,0,0,0,0,0,0,0
842060000,841980000,0.0015869788,0.024465187,0.03613178,8389271,0,0.33733732,0.3359032,0.045820333,0.05675558,0.011063014,0.0018834429,0.0,0.0,0.0,0.0,1310996,1310996,6620172,197388,0,0,831,2,1,2,0,5,0,0,0,0,0,0,0
842260000,842180000,0.0020773204,0.028653676,0.040615864,8389271,0,0.33753157,0.3426693,0.01623394,0.07134255,0.011451697,0.0001492295,0.0,0.0,0.0,0.0,1310996,1310996,6620172,197388,0,0,831,2,1,2,0,5,0,0,0,0,0,0,0
842460000,842380000,0.0021048668,0.02976429,0.042823903,8389271,0,0.33782387,0.34730753,0.0022404375,0.07801876,0.010593933,0.00497162,0.0,0.0,0.0,0.0,1310996,1310996,6620172,197388,0,0,831,2,1,2,0,5,0,0,0,0,0,0,0
842660000,842580000,0.00015748478,0.011686048,0.01953848,8389351,0,0.3609704,0.36239773,0.02681594,0.07801876,0.010593933,0.0008378409,0.0,0.0,0.0,0.0,1310996,1310996,6620172,197388,0,0,831,2,1,2,0,5,0,0,0,0,0,0,0
842860000,842780000,0.002305951,0.023231976,0.036062736,8389351,0,0.35850742,0.36741114,0.013386466,0.0928219,0.004131898,0.001929612,0.0,0.0,0.0,0.0,1310996,1310996,6620172,197388,0,0,831,2,1,2,0,5,0,0,0,0,0,0,0
843060000,842980000,0.002449849,0.02838507,0.045792274,8389351,0,0.3564852,0.37001523,0.009258638,0.09740362,0.0048251525,0.0029046705,0.0,0.0,0.0,0.0,1310996,1310996,6620172,197388,0,0,831,2,1,2,0,5,0,0,0,0,0,0,0
843260000,843180000,0.0020540422,0.028981829,0.051171884,8389351,0,0.35475764,0.37435696,0.012766112,0.091569774,0.0049868017,0.004221587,0.0,0.0,0.0,0.0,1310996,1310996,6620172,197388,0,0,831,2,1,2,0,5,0,0,0,0,0,0,0
843460000,843380000,0.0016581714,0.025282135,0.04647187,8389351,0,0.35323286,0.37625602,0.03444009,0.08596816,0.0054725925,0.0054849987,0.0,0.0,0.0,0.0,1310996,1310996,6620172,197388,0,0,831,2,1,2,0,5,0,0,0,0,0,0,0
843660000,843580000,0.0014971264,0.02147799,0.03805223,8389351,0,0.35184872,0.3800497,0.021030063,0.082741775,0.005714774,0.0106553305,0.0,0.0,0.0,0.0,1310996,1310996,6620172,197388,0,0,831,2,1,2,0,5,0,0,0,0,0,0,0
843860000,843780000,6.1994e-05,0.0039942362,0.009112416,8389351,0,0.37260774,0.38991955,0.014395857,0.082741775,0.005714774,0.00036047425,0.0,0.0,0.0,0.0,1310996,1310996,6620172,197388,0,0,831,2,1,2,0,5,0,0,0,0,0,0,0
844060000,843980000,0.0005874524,0.0073528253,0.015498447,8389351,0,0.36898822,0.3927075,0.017149232,0.056810047,0.0038933428,0.0027831623,0.0,0.0,0.0,0.0,1310996,1310996,6620172,197388,0,0,831,2,1,2,0,5,0,0,0,0,0,0,0
844260000,844180000,2.5621652e-05,0.005507538,0.007799447,8389351,0,0.39087048,0.40428072,0.00470854,0.056810047,0.0038933428,0.0066716946,0.0,0.0,0.0,0.0,1310996,1310996,6620172,197388,0,0,831,2,1,2,0,5,0,0,0,0,0,0,0
844460000,844380000,0.00033610087,0.0047801677,0.013053076,8389351,0,0.38456655,0.40338266,0.0057363757,0.04653793,0.0070424536,0.009650559,0.0,0.0,0.0,0.0,1310996,1310996,6620172,197388,0,0,831,2,1,2,0,5,0,0,0,0,0,0,0
844660000,844580000,0.00025321273,0.007580667,0.022279473,8389351,0,0.37934792,0.4050934,0.008983218,0.05339634,0.0097842,0.005399489,0.0,0.0,0.0,0.0,1310996,1310996,6620172,197388,0,0,831,2,1,2,0,5,0,0,0,0,0,0,0
844860000,844780000,0.00017676524,0.01059452,0.031505328,8389351,0,0.37477326,0.4040129,0.019105501,0.06695168,0.004880922,0.0034340953,0.0,0.0,0.0,0.0,1310996,1310996,6620172,197388,0,0,831,2,1,2,0,5,0,0,0,0,0,0,0
845060000,844980000,0.00014833912,0.012497327,0.037491463,8389351,0,0.3707652,0.40556344,0.028126298,0.07084471,0.0056592296,0.0063770846,0.0,0.0,0.0,0.0,1310996,1310996,6620172,197388,0,0,831,2,1,2,0,5,0,0,0,0,0,0,0
845260000,845180000,4.1227366e-05,0.0067653353,0.01460128,8389351,0,0.3905623,0.41520485,0.017610507,0.07084471,0.0056592296,0.004183076,0.0,0.0,0.0,0.0,1310996,1310996,6620172,197388,0,0,831,2,1,2,0,5,0,0,0,0,0,0,0
845460000,845380000,2.5468471e-05,0.010208127,0.02405314,8389351,0,0.3848167,0.41322172,0.029820086,0.065147415,0.0063091125,0.0017135246,0.0,0.0,0.0,0.0,1310996,1310996,6620172,197388,0,0,831,2,1,2,0,5,0,0,0,0,0,0,0
845660000,845580000,6.0232087e-05,0.012800897,0.030521048,8389351,0,0.37982142,0.41412917,0.016639011,0.06567238,0.0050831293,0.0052576754,0.0,0.0,0.0,0.0,1310996,1310996,6620172,197388,0,0,831,2,1,2,0,5,0,0,0,0,0,0,0
845860000,845780000,6.3301704e-05,0.011607176,0.027413668,8389351,0,0.37541538,0.41499457,0.018722305,0.048967667,0.0061836545,0.0049858633,0.0,0.0,0.0,0.0,1310996,1310996,6620172,197388,0,0,831,2,1,2,0,5,0,0,0,0,0,0,0
846060000,845980000,0.00018230031,0.016648898,0.039722115,8389351,0,0.3714825,0.41293317,0.0014263634,0.08802003,0.0064858026,0.0069242907,0.0,0.0,0.0,0.0,1310996,1310996,6620172,197388,0,0,831,2,1,2,0,5,0,0,0,0,0,0,0
846260000,846180000,0.000110229674,0.016012385,0.039317314,8389271,0,0.36793762,0.41373622,0.0036156406,0.07780809,0.006076198,0.0062604253,0.0,0.0,0.0,0.0,1310996,1310996,6620172,197388,0,0,831,2,1,2,0,5,0,0,0,0,0,0,0
846460000,846380000,4.6049296e-05,0.0089804465,0.017625146,8389271,0,0.3860563,0.42174977,0.0007616184,0.07780809,0.006076198,0.011545849,0.0,0.0,0.0,0.0,1310996,1310996,6620172,197388,0,0,831,2,1,2,0,5,0,0,0,0,0,0,0
846660000,846580000,0.00014173162,0.013384539,0.02998358,8389271,0,0.3808611,0.41906378,0.005014725,0.078989364,0.004617239,0.011121019,0.0,0.0,0.0,0.0,1310996,1310996,6620172,197388,0,0,831,2,1,2,0,5,0,0,0,0,0,0,0
846860000,846780000,3.5023528e-05,0.008103746,0.014976382,8389271,0,0.40009755,0.42687342,0.006080847,0.078989364,0.004617239,0.010743783,0.0,0.0,0.0,0.0,1310996,1310996,6620172,197388,0,0,831,2,1,2,0,5,0,0,0,0,0,0,0
847060000,846980000,0.00041319706,0.014180691,0.027748985,8389271,0,0.39296922,0.4236588,0.009209683,0.066832826,0.004982804,0.013082947,0.0,0.0,0.0,0.0,1310996,1310996,6620172,197388,0,0,831,2,1,2,0,5,0,0,0,0,0,0,0
847260000,847180000,0.00034027558,0.015098842,0.033015814,8389271,0,0.38680005,0.42368725,0.0058788164,0.08814945,0.006021573,0.0049112155,0.0,0.0,0.0,0.0,1310996,1310996,6620172,197388,0,0,831,2,1,2,0,5,0,0,0,0,0,0,0
847460000,847380000,0.00018548749,0.016832406,0.041209914,8389271,0,0.3813847,0.42070594,0.022760103,0.098454915,0.0056137517,0.005014699,0.0,0.0,0.0,0.0,1310996,1310996,6620172,197388,0,0,831,2,1,2,0,5,0,0,0,0,0,0,0
847660000,847580000,0.00012759131,0.013349855,0.032339513,8389271,0,0.37657726,0.42084855,0.0023739755,0.063810125,0.005987302,0.009258162,0.0,0.0,0.0,0.0,1310996,1310996,6620172,197388,0,0,831,2,1,2,0,5,0,0,0,0,0,0,0
847860000,847780000,5.1127463e-05,0.0046618395,0.008271983,8389271,0,0.39466107,0.42476055,0.00020438676,0.063810125,0.005987302,0.008866903,0.0,0.0,0.0,0.0,1310996,1310996,6620172,197388,0,0,831,2,1,2,0,5,0,0,0,0,0,0,0
848060000,847980000,0.00040170242,0.007766603,0.015470536,8389271,0,0.38849425,0.4245913,0.009183808,0.07358603,0.009401206,0.010636507,0.0,0.0,0.0,0.0,1310996,1310996,6620172,197388,0,0,831,2,1,2,0,5,0,0,0,0,0,0,0
848260000,848180000,0.00046214927,0.010961549,0.021676134,8389271,0,0.38306484,0.42447087,0.0016492218,0.07913947,0.008566385,0.008864525,0.0,0.0,0.0,0.0,1310996,1310996,6620172,197388,0,0,831,2,1,2,0,5,0,0,0,0,0,0,0
848460000,848380000,0.0005124316,0.011294089,0.021524725,8389271,0,0.378236,0.42129877,0.01914627,0.06559252,0.008496467,0.0031611382,0.0,0.0,0.0,0.0,1310996,1310996,6620172,197388,0,0,831,2,1,2,0,5,0,0,0,0,0,0,0
848660000,848580000,0.00011193403,0.008043943,0.014963267,8389271,0,0.37390602,0.42131484,0.00412494,0.057410125,0.00782075,0.0056527937,0.0,0.0,0.0,0.0,1310996,1310996,6620172,197388,0,0,831,2,1,2,0,5,0,0,0,0,0,0,0
848860000,848780000,0.00021044047,0.0072848345,0.013289163,8389271,0,0.36999837,0.41834977,0.008237045,0.067814626,0.008691004,0.004448728,0.0,0.0,0.0,0.0,1310996,1310996,6620172,197388,0,0,831,2,1,2,0,5,0,0,0,0,0,0,0
849060000,848980000,0.00024271017,0.0039018705,0.01094839,8389271,0,0.38723698,0.4247507,0.004980109,0.067814626,0.008691004,0.0057290373,0.0,0.0,0.0,0.0,1310996,1310996,6620172,197388,0,0,831,2,1,2,0,5,0,0,0,0,0,0,0
849260000,849180000,0.00028788883,0.0030292594,0.0062938808,8389271,0,0.3819626,0.42457867,0.0030216223,0.04696137,0.006380001,0.008732037,0.0,0.0,0.0,0.0,1310996,1310996,6620172,197388,0,0,831,2,1,2,0,5,0,0,0,0,0,0,0
849460000,849380000,0.0001412825,0.005525429,0.014371377,8389271,0,0.40050212,0.42792448,0.02250118,0.04696137,0.006380001,0.010100823,0.0,0.0,0.0,0.0,1310996,1310996,6620172,197388,0,0,831,2,1,2,0,5,0,0,0,0,0,0,0
849660000,849580000,0.00023906122,0.0024444936,0.0041933456,8389271,0,0.39337212,0.42746973,0.0022900181,0.050238896,0.006053437,0.010508439,0.0,0.0,0.0,0.0,1310996,1310996,6620172,197388,0,0,831,2,1,2,0,5,0,0,0,0,0,0,0
849860000,849780000,0.000300786,0.0029304724,0.0037707095,8389271,0,0.38716507,0.4270786,0.048771072,0.04071001,0.005098177,0.009900584,0.0,0.0,0.0,0.0,1310996,1310996,6620172,197388,0,0,831,2,1,2,0,5,0,0,0,0,0,0,0
850060000,849980000,0.00014130124,0.0046957727,0.008882353,8389271,0,0.38169578,0.4236159,0.0269071,0.04769338,0.005385326,0.007961926,0.0,0.0,0.0,0.0,1310996,1310996,6620172,197388,0,0,831,2,1,2,0,5,0,0,0,0,0,0,0
850260000,850180000,0.0001769084,0.003846201,0.007443634,8389271,0,0.37682813,0.4233738,0.014978069,0.044590212,0.002543552,0.015809024,0.0,0.0,0.0,0.0,1310996,1310996,6620172,197388,0,0,831,2,1,2,0,5,0,0,0,0,0,0,0
850460000,850380000,3.696176e-05,0.0037895436,0.009844427,8389271,0,0.39461842,0.42960984,0.0049490854,0.044590212,0.002543552,0.00853011,0.0,0.0,0.0,0.0,1310996,1310996,6620172,197388,0,0,831,2,1,2,0,5,0,0,0,0,0,0,0
850660000,850580000,0.0001684434,0.0049911747,0.011311523,8389271,0,0.3884663,0.42602277,0.017795246,0.01622729,0.007499668,0.0061978796,0.0,0.0,0.0,0.0,1310996,1310996,6620172,197388,0,0,831,2,1,2,0,5,0,0,0,0,0,0,0
850860000,850780000,0.00025076358,0.0071468707,0.012385064,8389271,0,0.3830415,0.42573762,0.019823324,0.034421146,0.006566393,0.0061334204,0.0,0.0,0.0,0.0,1310996,1310996,6620172,197388,0,0,831,2,1,2,0,5,0,0,0,0,0,0,0
851060000,850980000,0.00025642558,0.013447891,0.021441957,8389271,0,0.37820247,0.4224004,0.041941147,0.04793685,0.007363424,0.006372371,0.0,0.0,0.0,0.0,1310996,1310996,6620172,197388,0,0,831,2,1,2,0,5,0,0,0,0,0,0,0
851260000,851180000,0.0008008316,0.018988539,0.030951569,8389271,0,0.37385622,0.42223895,0.010937908,0.06856988,0.0067664427,0.011552527,0.0,0.0,0.0,0.0,1310996,1310996,6620172,197388,0,0,831,2,1,2,0,5,0,0,0,0,0,0,0
851460000,851380000,0.0014918849,0.026789559,0.044115882,9437927,0,0.36992106,0.4191026,0.02990869,0.094614394,0.007488735,1.1754944e-38,0.0,0.0,0.0,0.0,1310996,1310996,6620172,197388,0,0,831,2,1,2,0,5,0,0,0,0,0,0,0
851660000,851580000,0.00018638579,0.01308192,0.027275337,9437927,0,0.38710654,0.42504746,0.018894738,0.094614394,0.007488735,1.1754944e-38,0.0,0.0,0.0,0.0,1310996,1310996,6620172,197388,0,0,831,2,1,2,0,5,0,0,0,0,0,0,0
851860000,851780000,0.0032061837,0.03032669,0.04771123,9437927,0,0.3818261,0.4248113,0.015930908,0.14497755,0.009929758,1.1754944e-38,0.0,0.0,0.0,0.0,1310996,1310996,6620172,197388,0,0,831,2,1,2,0,5,0,0,0,0,0,0,0
852060000,851980000,0.00023073878,0.012180337,0.0264995,9437927,0,0.40061158,0.42775184,0.025621789,0.14497755,0.009929758,1.1754944e-38,0.0,0.0,0.0,0.0,1310996,1310996,6620172,197388,0,0,831,2,1,2,0,5,0,0,0,0,0,0,0
852260000,852180000,0.004221272,0.04055466,0.064029984,9437927,0,0.39338005,0.42731243,0.0042738332,0.17371203,0.01882184,1.1754944e-38,0.0,0.0,0.0,0.0,1310996,1310996,6620172,197388,0,0,831,2,1,2,0,5,0,0,0,0,0,0,0
852460000,852380000,0.0037871879,0.047320776,0.0768829,9437927,0,0.3871263,0.42379317,0.011767193,0.15161768,0.015192422,1.1754944e-38,0.0,0.0,0.0,0.0,1310996,1310996,6620172,197388,0,0,831,2,1,2,0,5,0,0,0,0,0,0,0
852660000,852580000,0.0029415754,0.0450977,0.07643854,9437927,0,0.38165438,0.42349684,0.00870458,0.13613792,0.011596554,1.1754944e-38,0.0,0.0,0.0,0.0,1310996,1310996,6620172,197388,0,0,831,2,1,2,0,5,0,0,0,0,0,0,0
852860000,852780000,0.0021220227,0.037296396,0.06664615,9437927,0,0.37686962,0.4232519,0.011092511,0.105750725,0.010636179,1.1754944e-38,0.0,0.0,0.0,0.0,1310996,1310996,6620172,197388,0,0,831,2,1,2,0,5,0,0,0,0,0,0,0
853060000,852980000,0.00015304932,0.012377287,0.02848348,9437927,0,0.3949391,0.4259774,0.0075970436,0.105750725,0.010636179,1.1754944e-38,0.0,0.0,0.0,0.0,1310996,1310996,6620172,197388,0,0,831,2,1,2,0,5,0,0,0,0,0,0,0
853260000,853180000,0.0011799136,0.02036967,0.04398384,9437927,0,0.3887376,0.42560497,0.011929289,0.08313905,0.015422808,1.1754944e-38,0.0,0.0,0.0,0.0,1310996,1310996,6620172,197388,0,0,831,2,1,2,0,5,0,0,0,0,0,0,0
853460000,853380000,0.0007610463,0.020722497,0.048039876,9437927,0,0.3832792,0.42221785,0.016490677,0.05568525,0.013186001,1.1754944e-38,0.0,0.0,0.0,0.0,1310996,1310996,6620172,197388,0,0,831,2,1,2,0,5,0,0,0,0,0,0,0
853660000,853580000,0.00043691596,0.020224888,0.047831852,9437927,0,0.37842453,0.42204157,0.012065091,0.0540859,0.010494286,1.1754944e-38,0.0,0.0,0.0,0.0,1310996,1310996,6620172,197388,0,0,831,2,1,2,0,5,0,0,0,0,0,0,0
853860000,853780000,0.00035674465,0.021219969,0.047474623,9437927,0,0.37407315,0.41890687,0.02154069,0.05086283,0.008456806,1.1754944e-38,0.0,0.0,0.0,0.0,1310996,1310996,6620172,197388,0,0,831,2,1,2,0,5,0,0,0,0,0,0,0
854060000,853980000,0.00034751292,0.02239373,0.04795859,9437927,0,0.3701462,0.41890916,0.009833271,0.04910078,0.00871167,1.1754944e-38,0.0,0.0,0.0,0.0,1310996,1310996,6620172,197388,0,0,831,2,1,2,0,5,0,0,0,0,0,0,0
854260000,854180000,3.7024794e-05,0.01600382,0.033272777,9437927,0,0.38731438,0.4247747,0.0045855674,0.04910078,0.00871167,1.1754944e-38,0.0,0.0,0.0,0.0,1310996,1310996,6620172,197388,0,0,831,2,1,2,0,5,0,0,0,0,0,0,0
854460000,854380000,0.0003913538,0.021289889,0.042134747,9437927,0,0.38203183,0.42151594,0.016168276,0.051359214,0.006629267,1.1754944e-38,0.0,0.0,0.0,0.0,1310996,1310996,6620172,197388,0,0,831,2,1,2,0,5,0,0,0,0,0,0,0
854660000,854580000,3.776286e-05,0.015709575,0.031348724,9437927,0,0.4005117,0.42762837,0.011539347,0.051359214,0.006629267,1.1754944e-38,0.0,0.0,0.0,0.0,1310996,1310996,6620172,197388,0,0,831,2,1,2,0,5,0,0,0,0,0,0,0
854860000,854780000,0.0004768091,0.023632254,0.04735412,9437927,0,0.3933833,0.42412302,0.021818623,0.07642314,0.008898328,1.1754944e-38,0.0,0.0,0.0,0.0,1310996,1310996,6620172,197388,0,0,831,2,1,2,0,5,0,0,0,0,0,0,0
855060000,854980000,0.0005065397,0.025851246,0.052254178,9437927,0,0.3871741,0.42385775,0.02038189,0.06664904,0.007820252,1.1754944e-38,0.0,0.0,0.0,0.0,1310996,1310996,6620172,197388,0,0,831,2,1,2,0,5,0,0,0,0,0,0,0
855260000,855180000,0.00046754544,0.025338462,0.051815737,9437927,0,0.38176912,0.4236518,0.010517234,0.06428578,0.007939358,1.1754944e-38,0.0,0.0,0.0,0.0,1310996,1310996,6620172,197388,0,0,831,2,1,2,0,5,0,0,0,0,0,0,0
855460000,855380000,0.00046308935,0.02623106,0.053246934,9437847,0,0.37688917,0.42042443,0.0033136155,0.070908256,0.0074850675,1.1754944e-38,0.0,0.0,0.0,0.0,1310996,1310996,6620172,197388,0,0,831,2,1,2,0,5,0,0,0,0,0,0,0
855660000,855580000,0.00013483729,0.014069457,0.028180055,9437847,0,0.39471433,0.4264855,0.0154631995,0.070908256,0.0074850675,1.1754944e-38,0.0,0.0,0.0,0.0,1310996,1310996,6620172,197388,0,0,831,2,1,2,0,5,0,0,0,0,0,0,0
855860000,855780000,0.00076495885,0.025748774,0.04050569,9437847,0,0.3885351,0.42614704,0.000209009,0.07619975,0.0068327887,0.0027558724,0.0,0.0,0.0,0.0,1310996,1310996,6620172,197388,0,0,831,2,1,2,0,5,0,0,0,0,0,0,0
856060000,855980000,0.0035883712,0.09390378,0.12164017,9437927,0,0.3829285,0.42277697,0.041485958,0.3362582,0.015238065,1.1754944e-38,0.0,0.0,0.0,0.0,1310996,1310996,6620172,197388,0,0,831,2,1,2,0,5,0,0,0,0,0,0,0
856260000,856180000,0.005853337,0.10684955,0.13062549,9437927,0,0.3781609,0.42255884,0.044625115,0.19344562,0.0067935516,0.004580786,0.0,0.0,0.0,0.0,1310996,1310996,6620172,197388,0,0,831,2,1,2,0,5,0,0,0,0,0,0,0
856460000,856380000,0.008177869,0.12572804,0.1332559,9437927,0,0.3738533,0.42233664,0.026976602,0.23632273,0.00766344,1.1754944e-38,0.0,0.0,0.0,0.0,1310996,1310996,6620172,197388,0,0,831,2,1,2,0,5,0,0,0,0,0,0,0
856660000,856580000,0.007670653,0.12894751,0.1290495,9437927,0,0.36996132,0.41907957,0.013810882,0.2377221,0.0075755627,1.1754944e-38,0.0,0.0,0.0,0.0,1310996,1310996,6620172,197388,0,0,831,2,1,2,0,5,0,0,0,0,0,0,0
856860000,856780000,0.0006756807,0.048671614,0.06100724,9437927,0,0.3881685,0.42394894,0.01591668,0.2377221,0.0075755627,0.005723965,0.0,0.0,0.0,0.0,1310996,1310996,6620172,197388,0,0,831,2,1,2,0,5,0,0,0,0,0,0,0
857060000,856980000,0.0048566437,0.07324331,0.09288154,9437927,0,0.38270545,0.42351907,0.021270141,0.19946195,0.019114435,0.0025864362,0.0,0.0,0.0,0.0,1310996,1310996,6620172,197388,0,0,831,2,1,2,0,5,0,0,0,0,0,0,0
857260000,857180000,0.00035560827,0.027934544,0.04580025,9437927,0,0.40310112,0.4251318,0.022104178,0.19946195,0.019114435,0.012426981,0.0,0.0,0.0,0.0,1310996,1310996,6620172,197388,0,0,831,2,1,2,0,5,0,0,0,0,0,0,0
857460000,857380000,0.0028014658,0.06353321,0.106431454,9437927,0,0.39539474,0.42454886,0.029962989,0.16193043,0.025827292,0.0048964703,0.0,0.0,0.0,0.0,1310996,1310996,6620172,197388,0,0,831,2,1,2,0,5,0,0,0,0,0,0,0
857660000,857580000,0.0016688781,0.064036645,0.117209315,9437927,0,0.38898158,0.42399338,0.038659416,0.14825818,0.024900516,0.0056922226,0.0,0.0,0.0,0.0,1310996,1310996,6620172,197388,0,0,831,2,1,2,0,5,0,0,0,0,0,0,0
857860000,857780000,0.0009604269,0.062075015,0.1154417,9437927,0,0.3833442,0.4204021,0.034937777,0.14874299,0.016925607,0.00846692,0.0,0.0,0.0,0.0,1310996,1310996,6620172,197388,0,0,831,2,1,2,0,5,0,0,0,0,0,0,0
858060000,857980000,0.00080132845,0.059767414,0.10558423,9437927,0,0.37834767,0.41990897,0.02257148,0.14236332,0.015739733,0.0025265673,0.0,0.0,0.0,0.0,1310996,1310996,6620172,197388,0,0,831,2,1,2,0,5,0,0,0,0,0,0,0
858260000,858180000,9.3355724e-05,0.03515396,0.057548027,9437927,0,0.39657453,0.42388305,0.017557796,0.14236332,0.015739733,0.0018896585,0.0,0.0,0.0,0.0,1310996,1310996,6620172,197388,0,0,831,2,1,2,0,5,0,0,0,0,0,0,0
858460000,858380000,0.00069445616,0.047340572,0.07402626,9437927,0,0.39014274,0.42025724,0.021805514,0.106845774,0.022975998,0.0018940842,0.0,0.0,0.0,0.0,1310996,1310996,6620172,197388,0,0,831,2,1,2,0,5,0,0,0,0,0,0,0
858660000,858580000,0.0006444391,0.048685815,0.075497136,9437927,0,0.38449794,0.4197571,0.035109583,0.09243974,0.02046283,0.008334376,0.0,0.0,0.0,0.0,1310996,1310996,6620172,197388,0,0,831,2,1,2,0,5,0,0,0,0,0,0,0
858860000,858780000,0.0010044299,0.051501993,0.07512615,9437927,0,0.37948924,0.41632575,0.013986128,0.08761606,0.017278947,0.00370803,0.0,0.0,0.0,0.0,1310996,1310996,6620172,197388,0,0,831,2,1,2,0,5,0,0,0,0,0,0,0
859060000,858980000,0.0011127243,0.058516283,0.082720734,9437927,0,0.37501404,0.41593543,0.06614475,0.11083125,0.018083425,1.1754944e-38,0.0,0.0,0.0,0.0,1310996,1310996,6620172,197388,0,0,831,2,1,2,0,5,0,0,0,0,0,0,0
859260000,859180000,0.0011643635,0.05660349,0.08004816,9437927,0,0.37100348,0.41559798,0.053672723,0.100066476,0.013362089,0.0049035,0.0,0.0,0.0,0.0,1310996,1310996,6620172,197388,0,0,831,2,1,2,0,5,0,0,0,0,0,0,0
859460000,859380000,5.5706205e-05,0.030114044,0.0465471,9437927,0,0.38853252,0.4162998,0.04258017,0.100066476,0.013362089,0.002842277,0.0,0.0,0.0,0.0,1310996,1310996,6620172,197388,0,0,831,2,1,2,0,5,0,0,0,0,0,0,0
859660000,859580000,0.0016905597,0.0442429,0.06328677,9437927,0,0.38307995,0.41591159,0.049096506,0.12097622,0.0146348,0.006557545,0.0,0.0,0.0,0.0,1310996,1310996,6620172,197388,0,0,831,2,1,2,0,5,0,0,0,0,0,0,0
859860000,859780000,5.8057503e-05,0.025038466,0.039270088,9437927,0,0.40239406,0.4195773,0.036131155,0.12097622,0.0146348,0.0062679136,0.0,0.0,0.0,0.0,1310996,1310996,6620172,197388,0,0,831,2,1,2,0,5,0,0,0,0,0,0,0
860060000,859980000,0.0018829557,0.04467024,0.06705727,9437927,0,0.3949677,0.41614726,0.020712266,0.12991604,0.012840303,0.0059936596,0.0,0.0,0.0,0.0,1310996,1310996,6620172,197388,0,0,831,2,1,2,0,5,0,0,0,0,0,0,0
860260000,860180000,0.0016577301,0.049149945,0.07507603,9437927,0,0.38849816,0.4157367,0.029887231,0.11869609,0.013081685,0.006071867,0.0,0.0,0.0,0.0,1310996,1310996,6620172,197388,0,0,831,2,1,2,0,5,0,0,0,0,0,0,0
860460000,860380000,0.0011140804,0.04339152,0.068545274,9437927,0,0.38284898,0.41535527,0.0029826818,0.08540523,0.010049144,0.00911712,0.0,0.0,0.0,0.0,1310996,1310996,6620172,197388,0,0,831,2,1,2,0,5,0,0,0,0,0,0,0
860660000,860580000,0.00086126826,0.03637739,0.058015134,9437927,0,0.37792018,0.41211736,0.025148183,0.08629636,0.010121525,0.004306018,0.0,0.0,0.0,0.0,1310996,1310996,6620172,197388,0,0,831,2,1,2,0,5,0,0,0,0,0,0,0
860860000,860780000,4.997497e-05,0.015613253,0.028373765,9437927,0,0.39640313,0.41553578,0.018401872,0.08629636,0.010121525,0.008741193,0.0,0.0,0.0,0.0,1310996,1310996,6620172,197388,0,0,831,2,1,2,0,5,0,0,0,0,0,0,0
861060000,860980000,0.0005418504,0.01942181,0.03544825,9437927,0,0.38996544,0.41518,0.023602607,0.099072024,0.0067177783,0.010359159,0.0,0.0,0.0,0.0,1310996,1310996,6620172,197388,0,0,831,2,1,2,0,5,0,0,0,0,0,0,0
861260000,861180000,0.00047049852,0.01864654,0.0334945,9437927,0,0.3843348,0.41198123,0.017556664,0.05870547,0.0065574194,0.008838072,0.0,0.0,0.0,0.0,1310996,1310996,6620172,197388,0,0,831,2,1,2,0,5,0,0,0,0,0,0,0
861460000,861380000,0.00022092048,0.013802682,0.028196944,9437927,0,0.3793542,0.4117489,0.02018899,0.06698673,0.00671188,0.013489709,0.0,0.0,0.0,0.0,1310996,1310996,6620172,197388,0,0,831,2,1,2,0,5,0,0,0,0,0,0,0
861660000,861580000,0.00025147627,0.011074574,0.023275087,9437927,0,0.3749073,0.40878314,0.011873014,0.05086055,0.0054936516,0.011998979,0.0,0.0,0.0,0.0,1310996,1310996,6620172,197388,0,0,831,2,1,2,0,5,0,0,0,0,0,0,0
861860000,861780000,0.0001531513,0.008005662,0.017979361,9437927,0,0.3709065,0.40868914,0.009314304,0.062019184,0.0041056564,0.006226692,0.0,0.0,0.0,0.0,1310996,1310996,6620172,197388,0,0,831,2,1,2,0,5,0,0,0,0,0,0,0
862060000,861980000,1.263918e-05,0.004952874,0.012879615,9437927,0,0.38869134,0.41234082,0.01723721,0.062019184,0.0041056564,0.014481204,0.0,0.0,0.0,0.0,1310996,1310996,6620172,197388,0,0,831,2,1,2,0,5,0,0,0,0,0,0,0
862260000,862180000,0.00014362541,0.0047904314,0.014273077,9437927,0,0.38321742,0.40949768,0.029716445,0.06337303,0.0030823366,0.012178352,0.0,0.0,0.0,0.0,1310996,1310996,6620172,197388,0,0,831,2,1,2,0,5,0,0,0,0,0,0,0
862460000,862380000,3.1625652e-05,0.006293095,0.014868885,9437927,0,0.4026177,0.41353652,0.0075935293,0.06337303,0.0030823366,0.010619382,0.0,0.0,0.0,0.0,1310996,1310996,6620172,197388,0,0,831,2,1,2,0,5,0,0,0,0,0,0,0
862660000,862580000,0.0001236508,0.005580373,0.015667131,9437927,0,0.39515772,0.4107079,0.017889697,0.071955256,0.00450437,0.015034393,0.0,0.0,0.0,0.0,1310996,1310996,6620172,197388,0,0,831,2,1,2,0,5,0,0,0,0,0,0,0
862860000,862780000,0.00013588712,0.009332436,0.024132933,9437927,0,0.3886555,0.41080818,0.016045831,0.08362163,0.0019345,0.014885048,0.0,0.0,0.0,0.0,1310996,1310996,6620172,197388,0,0,831,2,1,2,0,5,0,0,0,0,0,0,0
863060000,862980000,8.718813e-05,0.0075306618,0.019012839,9437847,0,0.38305175,0.41096035,0.003012034,0.060530074,0.0030451843,0.007901157,0.0,0.0,0.0,0.0,1310996,1310996,6620172,197388,0,0,831,2,1,2,0,5,0,0,0,0,0,0,0
863260000,863180000,7.9579935e-05,0.0080797635,0.021209411,9437847,0,0.3780276,0.40835503,0.0036580595,0.062385757,0.0010808278,0.009414347,0.0,0.0,0.0,0.0,1310996,1310996,6620172,197388,0,0,831,2,1,2,0,5,0,0,0,0,0,0,0
863460000,863380000,2.696682e-05,0.0051089223,0.0117418505,9437847,0,0.39656723,0.4129557,0.0013028854,0.062385757,0.0010808278,0.013959232,0.0,0.0,0.0,0.0,1310996,1310996,6620172,197388,0,0,831,2,1,2,0,5,0,0,0,0,0,0,0
863660000,863580000,4.049323e-05,0.008192918,0.018576443,9437847,0,0.39010787,0.41033435,0.013635825,0.077082045,0.0034532463,0.011960274,0.0,0.0,0.0,0.0,1310996,1310996,6620172,197388,0,0,831,2,1,2,0,5,0,0,0,0,0,0,0
863860000,863780000,0.00017521612,0.008871357,0.021016903,9437847,0,0.38445866,0.41063452,0.023619832,0.08417997,0.0028699567,0.010287557,0.0,0.0,0.0,0.0,1310996,1310996,6620172,197388,0,0,831,2,1,2,0,5,0,0,0,0,0,0,0
864060000,863980000,7.7922516e-05,0.009595656,0.024130495,9437847,0,0.37946138,0.40821162,0.0038148,0.0701988,0.0024335776,0.013346724,0.0,0.0,0.0,0.0,1310996,1310996,6620172,197388,0,0,831,2,1,2,0,5,0,0,0,0,0,0,0
864260000,864180000,2.4931896e-05,0.010919257,0.025820661,9437847,0,0.375003,0.40865573,0.006732989,0.07799831,0.0021156666,0.018434297,0.0,0.0,0.0,0.0,1310996,1310996,6620172,197388,0,0,831,2,1,2,0,5,0,0,0,0,0,0,0
864460000,864380000,0.000108142536,0.009192907,0.021999,9437847,0,0.37099445,0.40912414,0.0075543704,0.06810204,0.0025774252,0.014673729,0.0,0.0,0.0,0.0,1310996,1310996,6620172,197388,0,0,831,2,1,2,0,5,0,0,0,0,0,0,0
864660000,864580000,0.00013495964,0.004434349,0.0091884965,9437847,0,0.3887428,0.41161567,0.011524068,0.06810204,0.0025774252,0.016163442,0.0,0.0,0.0,0.0,1310996,1310996,6620172,197388,0,0,831,2,1,2,0,5,0,0,0,0,0,0,0
864860000,864780000,2.2424205e-05,0.0062082056,0.013054499,9437847,0,0.38327056,0.41208452,0.013607116,0.07409877,0.0034713815,0.019357275,0.0,0.0,0.0,0.0,1310996,1310996,6620172,197388,0,0,831,2,1,2,0,5,0,0,0,0,0,0,0
865060000,864980000,2.2230792e-05,0.005248395,0.009853356,9437847,0,0.4024331,0.41501606,0.0052399267,0.07409877,0.0034713815,0.01782712,0.0,0.0,0.0,0.0,1310996,1310996,6620172,197388,0,0,831,2,1,2,0,5,0,0,0,0,0,0,0
865260000,865180000,3.4203746e-05,0.006074463,0.013162906,9437847,0,0.39496827,0.41535658,0.009729586,0.06875756,0.0028576823,0.018276993,0.0,0.0,0.0,0.0,1310996,1310996,6620172,197388,0,0,831,2,1,2,0,5,0,0,0,0,0,0,0
865460000,865380000,8.9141664e-05,0.008484807,0.018209947,8389271,0,0.38851988,0.4157178,0.012191439,0.075272284,0.0037522563,0.019155597,0.0,0.0,0.0,0.0,1310996,1310996,6620172,197388,0,0,831,2,1,2,0,5,0,0,0,0,0,0,0
865660000,865580000,5.4022614e-05,0.010866248,0.024417242,8389271,0,0.38287425,0.41322094,0.006207957,0.071754746,0.004658416,0.016259572,0.0,0.0,0.0,0.0,1310996,1310996,6620172,197388,0,0,831,2,1,2,0,5,0,0,0,0,0,0,0
865860000,865780000,9.26525e-05,0.010995688,0.022841996,8389271,0,0.3778742,0.41365835,0.00078642956,0.059737608,0.0039320593,0.015837312,0.0,0.0,0.0,0.0,1310996,1310996,6620172,197388,0,0,831,2,1,2,0,5,0,0,0,0,0,0,0
866060000,865980000,8.600201e-05,0.005187264,0.009756408,8389271,0,0.39608505,0.41684407,0.0036627776,0.059737608,0.0039320593,0.016209306,0.0,0.0,0.0,0.0,1310996,1310996,6620172,197388,0,0,831,2,1,2,0,5,0,0,0,0,0,0,0
866260000,866180000,6.127626e-05,0.005759481,0.011130538,8389271,0,0.38971975,0.41714266,0.0003575782,0.057556342,0.00527225,0.017452043,0.0,0.0,0.0,0.0,1310996,1310996,6620172,197388,0,0,831,2,1,2,0,5,0,0,0,0,0,0,0
866460000,866380000,8.0328566e-05,0.0052911593,0.011413456,8389271,0,0.38412973,0.4145388,0.0032285778,0.059799846,0.004845162,0.010732376,0.0,0.0,0.0,0.0,1310996,1310996,6620172,197388,0,0,831,2,1,2,0,5,0,0,0,0,0,0,0
866660000,866580000,7.172951e-05,0.0059442073,0.012585531,8389271,0,0.37917027,0.41492498,0.011050708,0.053968593,0.00607846,0.015511746,0.0,0.0,0.0,0.0,1310996,1310996,6620172,197388,0,0,831,2,1,2,0,5,0,0,0,0,0,0,0
866860000,866780000,5.9573507e-05,0.0053126696,0.010060128,8389271,0,0.37473404,0.41533348,0.002099829,0.05434408,0.005301127,0.0151082445,0.0,0.0,0.0,0.0,1310996,1310996,6620172,197388,0,0,831,2,1,2,0,5,0,0,0,0,0,0,0
867060000,866980000,0.00012165447,0.007496041,0.0145574035,8389271,0,0.3707391,0.41286084,0.003091672,0.069097474,0.0061340304,0.008015272,0.0,0.0,0.0,0.0,1310996,1310996,6620172,197388,0,0,831,2,1,2,0,5,0,0,0,0,0,0,0
867260000,867180000,7.5841585e-06,0.0035816878,0.008952948,8389271,0,0.38814855,0.41910216,0.004025668,0.069097474,0.0061340304,0.015049,0.0,0.0,0.0,0.0,1310996,1310996,6620172,197388,0,0,831,2,1,2,0,5,0,0,0,0,0,0,0
867460000,867380000,7.104166e-05,0.003558592,0.0066118883,8389271,0,0.38275868,0.41637868,0.002493108,0.05249968,0.0051677846,0.00916471,0.0,0.0,0.0,0.0,1310996,1310996,6620172,197388,0,0,831,2,1,2,0,5,0,0,0,0,0,0,0
867660000,867580000,2.3754414e-05,0.0057819034,0.014824684,8389271,0,0.4014835,0.42295328,0.010239169,0.05249968,0.0051677846,0.009542573,0.0,0.0,0.0,0.0,1310996,1310996,6620172,197388,0,0,831,2,1,2,0,5,0,0,0,0,0,0,0
867860000,867780000,4.4024815e-05,0.0015539431,0.0034096607,8389271,0,0.39420283,0.41993034,0.0026977495,0.053975496,0.007303239,0.020032033,0.0,0.0,0.0,0.0,1310996,1310996,6620172,197388,0,0,831,2,1,2,0,5,0,0,0,0,0,0,0
868060000,867980000,5.50845e-05,0.002441348,0.0056037754,8389271,0,0.38788003,0.4200402,0.0051824423,0.031826083,0.0070839287,0.011024499,0.0,0.0,0.0,0.0,1310996,1310996,6620172,197388,0,0,831,2,1,2,0,5,0,0,0,0,0,0,0
868260000,868180000,0.00012978104,0.005073121,0.010234523,8389271,0,0.38231978,0.41720888,0.0032469942,0.029467057,0.006935048,0.007439945,0.0,0.0,0.0,0.0,1310996,1310996,6620172,197388,0,0,831,2,1,2,0,5,0,0,0,0,0,0,0
868460000,868380000,0.000118297234,0.003895208,0.0091897575,8389271,0,0.37744513,0.41747978,0.016949778,0.025107807,0.0054881084,0.013209219,0.0,0.0,0.0,0.0,1310996,1310996,6620172,197388,0,0,831,2,1,2,0,5,0,0,0,0,0,0,0
868660000,868580000,8.7854954e-05,0.005674626,0.014959597,8389271,0,0.39536515,0.42101526,0.01456028,0.025107807,0.0054881084,0.007322972,0.0,0.0,0.0,0.0,1310996,1310996,6620172,197388,0,0,831,2,1,2,0,5,0,0,0,0,0,0,0
868860000,868780000,0.00016846255,0.0026041092,0.008397618,8389271,0,0.38910717,0.42108527,0.035269972,0.036043342,0.00264302,0.009243456,0.0,0.0,0.0,0.0,1310996,1310996,6620172,197388,0,0,831,2,1,2,0,5,0,0,0,0,0,0,0
869060000,868980000,8.223872e-05,0.004663235,0.014234292,8389271,0,0.38359448,0.42117792,0.011947646,0.012941173,0.0028792948,0.007718474,0.0,0.0,0.0,0.0,1310996,1310996,6620172,197388,0,0,831,2,1,2,0,5,0,0,0,0,0,0,0
869260000,869180000,5.7681264e-05,0.0055337176,0.014046087,8389271,0,0.37869257,0.41828057,0.0049497876,0.010106951,0.003053102,0.008045646,0.0,0.0,0.0,0.0,1310996,1310996,6620172,197388,0,0,831,2,1,2,0,5,0,0,0,0,0,0,0
869460000,869380000,0.00014457564,0.0047323545,0.011681074,8389271,0,0.37430066,0.41844428,0.0156071875,0.022022748,0.0025105227,0.0069500925,0.0,0.0,0.0,0.0,1310996,1310996,6620172,197388,0,0,831,2,1,2,0,5,0,0,0,0,0,0,0
869660000,869580000,0.0001162577,0.004999774,0.013229564,8389271,0,0.37034085,0.41862425,0.017795868,0.014008529,0.000802616,0.008364947,0.0,0.0,0.0,0.0,1310996,1310996,6620172,197388,0,0,831,2,1,2,0,5,0,0,0,0,0,0,0
869860000,869780000,4.907003e-05,0.0059038657,0.016348572,8389271,0,0.38760075,0.42193323,0.00675297,0.014008529,0.000802616,0.009299704,0.0,0.0,0.0,0.0,1310996,1310996,6620172,197388,0,0,831,2,1,2,0,5,0,0,0,0,0,0,0
870060000,869980000,9.91278e-05,0.007375169,0.01968219,8389271,0,0.38227758,0.4218985,0.0050325897,0.013298501,0.001015157,0.010133921,0.0,0.0,0.0,0.0,1310996,1310996,6620172,197388,0,0,831,2,1,2,0,5,0,0,0,0,0,0,0
870260000,870180000,6.323347e-05,0.0067246156,0.01814925,8389271,0,0.4008759,0.42848432,0.008427963,0.013298501,0.001015157,0.018287413,0.0,0.0,0.0,0.0,1310996,1310996,6620172,197388,0,0,831,2,1,2,0,5,0,0,0,0,0,0,0
870460000,870380000,0.000118037206,0.008010648,0.019153148,8389271,0,0.39376545,0.4249817,0.0021584881,0.017937755,0.0013171898,0.0059536314,0.0,0.0,0.0,0.0,1310996,1310996,6620172,197388,0,0,831,2,1,2,0,5,0,0,0,0,0,0,0
870660000,870580000,0.00013246087,0.009729318,0.0241493,8389271,0,0.38757315,0.42473534,0.009104714,0.015528064,0.0020452735,0.004267999,0.0,0.0,0.0,0.0,1310996,1310996,6620172,197388,0,0,831,2,1,2,0,5,0,0,0,0,0,0,0
870860000,870780000,0.00014271673,0.0067877257,0.01592349,8389271,0,0.3820486,0.4245348,0.010816469,0.013561148,0.00062769925,0.014488608,0.0,0.0,0.0,0.0,1310996,1310996,6620172,197388,0,0,831,2,1,2,0,5,0,0,0,0,0,0,0
871060000,870980000,0.00011579034,0.009298372,0.023298267,8389271,0,0.37720287,0.42135218,0.0029291292,0.020560112,0.0009108037,0.0029993956,0.0,0.0,0.0,0.0,1310996,1310996,6620172,197388,0,0,831,2,1,2,0,5,0,0,0,0,0,0,0
871260000,871180000,2.8020399e-05,0.0060874675,0.016487412,8389271,0,0.39510968,0.4277335,0.0020470566,0.020560112,0.0009108037,0.010062861,0.0,0.0,0.0,0.0,1310996,1310996,6620172,197388,0,0,831,2,1,2,0,5,0,0,0,0,0,0,0
871460000,871380000,0.00016124877,0.008399447,0.022050185,8389271,0,0.38888338,0.4274121,0.008460904,0.025618024,0.0033489885,0.008841489,0.0,0.0,0.0,0.0,1310996,1310996,6620172,197388,0,0,831,2,1,2,0,5,0,0,0,0,0,0,0
871660000,871580000,0.00014745633,0.008260919,0.021782607,8389271,0,0.3833984,0.4240154,0.011711053,0.018702377,0.0025508143,0.0006076137,0.0,0.0,0.0,0.0,1310996,1310996,6620172,197388,0,0,831,2,1,2,0,5,0,0,0,0,0,0,0
871860000,871780000,0.0002529259,0.008981688,0.02060062,8389271,0,0.3785197,0.42382503,0.009442387,0.038198654,0.0037955793,0.0027655573,0.0,0.0,0.0,0.0,1310996,1310996,6620172,197388,0,0,831,2,1,2,0,5,0,0,0,0,0,0,0
872060000,871980000,0.00023018906,0.00938975,0.021169543,8389271,0,0.37414813,0.42065716,0.014172445,0.03511933,0.0038616078,0.0008673599,0.0,0.0,0.0,0.0,1310996,1310996,6620172,197388,0,0,831,2,1,2,0,5,0,0,0,0,0,0,0
872260000,872180000,0.00021683885,0.009273361,0.023109388,8389271,0,0.37020692,0.420614,0.0046780445,0.02687077,0.0033262759,0.0025744908,0.0,0.0,0.0,0.0,1310996,1310996,6620172,197388,0,0,831,2,1,2,0,5,0,0,0,0,0,0,0
872460000,872380000,0.00010194795,0.0042299395,0.01349293,8389271,0,0.3875012,0.42680225,0.021289878,0.02687077,0.0033262759,0.005435582,0.0,0.0,0.0,0.0,1310996,1310996,6620172,197388,0,0,831,2,1,2,0,5,0,0,0,0,0,0,0
872660000,872580000,0.00021708269,0.00775448,0.019482497,8389271,0,0.38218978,0.42342335,0.010808792,0.033211727,0.0025132166,0.002214931,0.0,0.0,0.0,0.0,1310996,1310996,6620172,197388,0,0,831,2,1,2,0,5,0,0,0,0,0,0,0
872860000,872780000,2.2566961e-05,0.0034924338,0.0104551455,8389271,0,0.40083417,0.42978397,0.0051696724,0.033211727,0.0025132166,0.005979858,0.0,0.0,0.0,0.0,1310996,1310996,6620172,197388,0,0,831,2,1,2,0,5,0,0,0,0,0,0,0
873060000,872980000,0.00018104665,0.0046672695,0.010845573,8389271,0,0.39364618,0.42926788,0.011485335,0.024794776,0.0070299394,0.003127791,0.0,0.0,0.0,0.0,1310996,1310996,6620172,197388,0,0,831,2,1,2,0,5,0,0,0,0,0,0,0
873260000,873180000,0.00022723887,0.0073079485,0.01704707,8389271,0,0.387468,0.42565718,0.00116449,0.036166716,0.0062844115,0.0022121612,0.0,0.0,0.0,0.0,1310996,1310996,6620172,197388,0,0,831,2,1,2,0,5,0,0,0,0,0,0,0
873460000,873380000,0.00015771027,0.006664765,0.016255748,8389271,0,0.38195616,0.42530718,0.005896738,0.021546446,0.0049090404,0.0033097712,0.0,0.0,0.0,0.0,1310996,1310996,6620172,197388,0,0,831,2,1,2,0,5,0,0,0,0,0,0,0
873660000,873580000,0.00019579254,0.007276958,0.016690979,8389271,0,0.37705758,0.42502004,0.0066150045,0.035106078,0.004531257,0.004887747,0.0,0.0,0.0,0.0,1310996,1310996,6620172,197388,0,0,831,2,1,2,0,5,0,0,0,0,0,0,0
873860000,873780000,4.0358078e-05,0.001964008,0.0057558194,8389271,0,0.39498302,0.4280507,0.011102881,0.035106078,0.004531257,0.00086367415,0.0,0.0,0.0,0.0,1310996,1310996,6620172,197388,0,0,831,2,1,2,0,5,0,0,0,0,0,0,0
874060000,873980000,0.00018867278,0.0057281493,0.014070455,8389271,0,0.38877207,0.42758647,0.0005549967,0.032680206,0.0068209465,0.0048889695,0.0,0.0,0.0,0.0,1310996,1310996,6620172,197388,0,0,831,2,1,2,0,5,0,0,0,0,0,0,0
874260000,874180000,0.00016735819,0.006935855,0.018068656,8389271,0,0.3833009,0.42719522,0.0012969187,0.032824103,0.0077467393,1.990708e-05,0.0,0.0,0.0,0.0,1310996,1310996,6620172,197388,0,0,831,2,1,2,0,5,0,0,0,0,0,0,0
874460000,874380000,0.0001836822,0.0049686586,0.011509739,8389271,0,0.37843522,0.4237307,0.014418489,0.03420308,0.006472875,0.004241992,0.0,0.0,0.0,0.0,1310996,1310996,6620172,197388,0,0,831,2,1,2,0,5,0,0,0,0,0,0,0
874660000,874580000,0.00013863051,0.00502369,0.012367203,8389271,0,0.3740737,0.42348176,4.5015586e-05,0.023807736,0.0064704735,0.0046749976,0.0,0.0,0.0,0.0,1310996,1310996,6620172,197388,0,0,831,2,1,2,0,5,0,0,0,0,0,0,0
874860000,874780000,7.767497e-05,0.0033866572,0.009862352,8389271,0,0.37014106,0.42328775,0.001999297,0.01180586,0.00922331,0.0020744938,0.0,0.0,0.0,0.0,1310996,1310996,6620172,197388,0,0,831,2,1,2,0,5,0,0,0,0,0,0,0
875060000,874980000,1.2182551e-05,0.002507927,0.0067996397,8389271,0,0.38745555,0.4261674,0.0135183055,0.01180586,0.00922331,0.0005417793,0.0,0.0,0.0,0.0,1310996,1310996,6620172,197388,0,0,831,2,1,2,0,5,0,0,0,0,0,0,0
875260000,875180000,0.00029008623,0.006138555,0.012325581,8389271,0,0.38214907,0.42579815,0.0145720495,0.05142835,0.010985375,0.00226158,0.0,0.0,0.0,0.0,1310996,1310996,6620172,197388,0,0,831,2,1,2,0,5,0,0,0,0,0,0,0
875460000,875380000,2.1171569e-05,0.0013166625,0.0053649554,8389271,0,0.4008146,0.4320601,0.006034119,0.05142835,0.010985375,0.0024040288,0.0,0.0,0.0,0.0,1310996,1310996,6620172,197388,0,0,831,2,1,2,0,5,0,0,0,0,0,0,0
875660000,875580000,0.00040596395,0.011358864,0.020475771,8389271,0,0.3936227,0.4281926,0.002664868,0.069405876,0.0149336625,0.0019350356,0.0,0.0,0.0,0.0,1310996,1310996,6620172,197388,0,0,831,2,1,2,0,5,0,0,0,0,0,0,0
875860000,875780000,0.00039915915,0.014161288,0.024927478,8389271,0,0.38744208,0.42769405,0.011456278,0.06262537,0.011419375,0.00086547283,0.0,0.0,0.0,0.0,1310996,1310996,6620172,197388,0,0,831,2,1,2,0,5,0,0,0,0,0,0,0
876060000,875980000,0.0003215309,0.013509566,0.02628401,8389271,0,0.38200027,0.4241473,0.008695258,0.058008607,0.007807361,0.0042375107,0.0,0.0,0.0,0.0,1310996,1310996,6620172,197388,0,0,831,2,1,2,0,5,0,0,0,0,0,0,0
876260000,876180000,0.00029291338,0.011196405,0.021858415,8389271,0,0.37709728,0.42383006,0.0015208762,0.048989065,0.00838788,0.0056131,0.0,0.0,0.0,0.0,1310996,1310996,6620172,197388,0,0,831,2,1,2,0,5,0,0,0,0,0,0,0
876460000,876380000,6.863369e-05,0.0007760741,0.0037129475,8389351,0,0.3950479,0.42991564,0.028285991,0.048989065,0.00838788,0.0028654234,0.0,0.0,0.0,0.0,1310996,1310996,6620172,197388,0,0,831,2,1,2,0,5,0,0,0,0,0,0,0
876660000,876580000,0.00016451231,0.0036232315,0.010553158,8389351,0,0.388793,0.42620313,0.0070329085,0.02706812,0.008872613,0.005359682,0.0,0.0,0.0,0.0,1310996,1310996,6620172,197388,0,0,831,2,1,2,0,5,0,0,0,0,0,0,0
876860000,876780000,5.3391697e-05,0.004963149,0.011388811,8389351,0,0.383298,0.42578742,0.021312635,0.021565286,0.0066551985,0.003011913,0.0,0.0,0.0,0.0,1310996,1310996,6620172,197388,0,0,831,2,1,2,0,5,0,0,0,0,0,0,0
877060000,876980000,0.00014144446,0.0070202677,0.014892023,8389351,0,0.37842485,0.4254366,0.015064663,0.021670708,0.0065489453,0.003695066,0.0,0.0,0.0,0.0,1310996,1310996,6620172,197388,0,0,831,2,1,2,0,5,0,0,0,0,0,0,0
877260000,877180000,0.00016954368,0.007837299,0.013827504,8389351,0,0.37405702,0.42203465,0.008702027,0.022644794,0.005354217,0.0008378705,0.0,0.0,0.0,0.0,1310996,1310996,6620172,197388,0,0,831,2,1,2,0,5,0,0,0,0,0,0,0
877460000,877380000,8.2709834e-05,0.008221371,0.014900965,8389351,0,0.37012255,0.42181292,0.007415351,0.008817583,0.0039435425,0.0002743988,0.0,0.0,0.0,0.0,1310996,1310996,6620172,197388,0,0,831,2,1,2,0,5,0,0,0,0,0,0,0
877660000,877580000,6.0362658e-05,0.007113613,0.014403876,8389351,0,0.3874353,0.42767906,0.027230471,0.008817583,0.0039435425,0.0034247497,0.0,0.0,0.0,0.0,1310996,1310996,6620172,197388,0,0,831,2,1,2,0,5,0,0,0,0,0,0,0
877860000,877780000,5.4234173e-05,0.007180912,0.014517714,8389351,0,0.38205892,0.42416012,0.010072624,0.027528306,0.003293464,0.00024148087,0.0,0.0,0.0,0.0,1310996,1310996,6620172,197388,0,0,831,2,1,2,0,5,0,0,0,0,0,0,0
878060000,877980000,5.5042412e-05,0.00601298,0.012548384,8389351,0,0.40067783,0.43024647,0.013458059,0.027528306,0.003293464,0.003247832,0.0,0.0,0.0,0.0,1310996,1310996,6620172,197388,0,0,831,2,1,2,0,5,0,0,0,0,0,0,0
878260000,878180000,0.00011663464,0.008232895,0.016256072,8389351,0,0.39350945,0.42649207,0.025027053,0.017047452,0.001054862,0.006128997,0.0,0.0,0.0,0.0,1310996,1310996,6620172,197388,0,0,831,2,1,2,0,5,0,0,0,0,0,0,0
878460000,878380000,0.00015604713,0.009689165,0.019064099,8389351,0,0.38727614,0.4260487,0.014916363,0.023120811,0.00031355466,0.0007036541,0.0,0.0,0.0,0.0,1310996,1310996,6620172,197388,0,0,831,2,1,2,0,5,0,0,0,0,0,0,0
878660000,878580000,0.00015997904,0.010924864,0.020794557,8389351,0,0.38178867,0.42566675,0.03413235,0.025765587,0.0017827193,0.005054543,0.0,0.0,0.0,0.0,1310996,1310996,6620172,197388,0,0,831,2,1,2,0,5,0,0,0,0,0,0,0
878860000,878780000,0.00020368643,0.0147800585,0.025637962,8389351,0,0.37691817,0.4222858,0.009256864,0.037647933,0.0031587633,0.0076588066,0.0,0.0,0.0,0.0,1310996,1310996,6620172,197388,0,0,831,2,1,2,0,5,0,0,0,0,0,0,0
879060000,878980000,3.5763525e-05,0.009157073,0.015857061,8389351,0,0.39470023,0.42827812,0.023855489,0.037647933,0.0031587633,0.0021454636,0.0,0.0,0.0,0.0,1310996,1310996,6620172,197388,0,0,831,2,1,2,0,5,0,0,0,0,0,0,0
879260000,879180000,0.00031851674,0.0152600985,0.02782835,8389351,0,0.38853288,0.42784935,0.012682979,0.06099656,0.008016545,0.0052268975,0.0,0.0,0.0,0.0,1310996,1310996,6620172,197388,0,0,831,2,1,2,0,5,0,0,0,0,0,0,0
879460000,879380000,0.00029732735,0.016545128,0.031737685,8389351,0,0.38309124,0.42434984,0.017126957,0.05266057,0.0059920955,0.003289901,0.0,0.0,0.0,0.0,1310996,1310996,6620172,197388,0,0,831,2,1,2,0,5,0,0,0,0,0,0,0
879660000,879580000,0.0001865516,0.010794401,0.024534024,8389351,0,0.37823868,0.42409393,0.043217704,0.02669146,0.0063336235,0.00026660968,0.0,0.0,0.0,0.0,1310996,1310996,6620172,197388,0,0,831,2,1,2,0,5,0,0,0,0,0,0,0
879860000,879780000,0.00018469359,0.009679778,0.02128626,9437927,0,0.3738986,0.42087013,0.0141359195,0.023402248,0.0068178396,1.1754944e-38,0.0,0.0,0.0,0.0,1310996,1310996,6620172,197388,0,0,831,2,1,2,0,5,0,0,0,0,0,0,0
880060000,879980000,0.00024133499,0.010949513,0.020791369,9437847,0,0.36997485,0.42079914,0.015740566,0.030199168,0.0060757636,1.1754944e-38,0.0,0.0,0.0,0.0,1310996,1310996,6620172,197388,0,0,831,2,1,2,0,5,0,0,0,0,0,0,0
880260000,880180000,1.8151335e-05,0.0052096616,0.009295086,9437847,0,0.3869505,0.4236243,0.007989793,0.030199168,0.0060757636,1.1754944e-38,0.0,0.0,0.0,0.0,1310996,1310996,6620172,197388,0,0,831,2,1,2,0,5,0,0,0,0,0,0,0
880460000,880380000,0.00031746557,0.009561765,0.018468637,9437927,0,0.3816904,0.4233896,0.010106226,0.041629873,0.008995658,1.1754944e-38,0.0,0.0,0.0,0.0,1310996,1310996,6620172,197388,0,0,831,2,1,2,0,5,0,0,0,0,0,0,0
880660000,880580000,3.4139495e-05,0.0028018793,0.007258439,9437927,0,0.39991012,0.4295538,0.008219781,0.041629873,0.008995658,1.1754944e-38,0.0,0.0,0.0,0.0,1310996,1310996,6620172,197388,0,0,831,2,1,2,0,5,0,0,0,0,0,0,0
880860000,880780000,0.0006160928,0.012997794,0.025543472,9437927,0,0.39281744,0.42587212,0.014156613,0.060344435,0.010644704,1.1754944e-38,0.0,0.0,0.0,0.0,1310996,1310996,6620172,197388,0,0,831,2,1,2,0,5,0,0,0,0,0,0,0
881060000,880980000,0.0005927566,0.01383835,0.026728895,9437927,0,0.38664028,0.42547935,0.0623826,0.04800553,0.009825872,1.1754944e-38,0.0,0.0,0.0,0.0,1310996,1310996,6620172,197388,0,0,831,2,1,2,0,5,0,0,0,0,0,0,0
881260000,881180000,0.00037104497,0.012576369,0.0243485,9437927,0,0.38120252,0.42515162,0.008126432,0.044269796,0.008782545,1.1754944e-38,0.0,0.0,0.0,0.0,1310996,1310996,6620172,197388,0,0,831,2,1,2,0,5,0,0,0,0,0,0,0
881460000,881380000,0.00014954887,0.008600363,0.019341554,9437927,0,0.37636444,0.42177942,0.056147616,0.024291981,0.009858024,0.0041928524,0.0,0.0,0.0,0.0,1310996,1310996,6620172,197388,0,0,831,2,1,2,0,5,0,0,0,0,0,0,0
881660000,881580000,2.7918957e-05,0.0024743807,0.0069277016,9437927,0,0.3940497,0.42781264,0.021199275,0.024291981,0.009858024,1.1754944e-38,0.0,0.0,0.0,0.0,1310996,1310996,6620172,197388,0,0,831,2,1,2,0,5,0,0,0,0,0,0,0
881860000,881780000,0.0002989002,0.005105851,0.010558352,9437927,0,0.3879424,0.4274188,0.006513729,0.038289964,0.009986172,1.1754944e-38,0.0,0.0,0.0,0.0,1310996,1310996,6620172,197388,0,0,831,2,1,2,0,5,0,0,0,0,0,0,0
882060000,881980000,0.0002405801,0.0066756494,0.014216303,9437927,0,0.3825545,0.42395532,0.016247906,0.03865378,0.009860158,1.1754944e-38,0.0,0.0,0.0,0.0,1310996,1310996,6620172,197388,0,0,831,2,1,2,0,5,0,0,0,0,0,0,0
882260000,882180000,7.457514e-05,0.005455877,0.013991138,9437927,0,0.37775704,0.42371213,0.013548577,0.026282258,0.0070092734,1.1754944e-38,0.0,0.0,0.0,0.0,1310996,1310996,6620172,197388,0,0,831,2,1,2,0,5,0,0,0,0,0,0,0
882460000,882380000,7.1684626e-05,0.0024322853,0.0070081283,9437927,0,0.37345305,0.42351496,0.026279863,0.017294146,0.006478594,1.1754944e-38,0.0,0.0,0.0,0.0,1310996,1310996,6620172,197388,0,0,831,2,1,2,0,5,0,0,0,0,0,0,0
882660000,882580000,2.8947223e-05,0.0029353045,0.0045193383,9437927,0,0.3695738,0.42031395,0.03481242,0.010367871,0.0056351223,1.1754944e-38,0.0,0.0,0.0,0.0,1310996,1310996,6620172,197388,0,0,831,2,1,2,0,5,0,0,0,0,0,0,0
882860000,882780000,7.70899e-05,0.0046108947,0.009343258,9437927,0,0.38668025,0.42625424,0.010901286,0.010367871,0.0056351223,1.1754944e-38,0.0,0.0,0.0,0.0,1310996,1310996,6620172,197388,0,0,831,2,1,2,0,5,0,0,0,0,0,0,0
883060000,882980000,6.285517e-05,0.0037639425,0.007783151,9437927,0,0.3814569,0.42283624,0.026347484,0.018276816,0.0067656375,1.1754944e-38,0.0,0.0,0.0,0.0,1310996,1310996,6620172,197388,0,0,831,2,1,2,0,5,0,0,0,0,0,0,0
883260000,883180000,9.908431e-06,0.004159689,0.009313944,9437927,0,0.39986932,0.429027,0.015554666,0.018276816,0.0067656375,1.1754944e-38,0.0,0.0,0.0,0.0,1310996,1310996,6620172,197388,0,0,831,2,1,2,0,5,0,0,0,0,0,0,0
