timestamp,timestamp_sample,ref_timestamp,ref_lat,ref_lon,x,y,z,delta_xy[0],delta_xy[1],delta_z,vx,vy,vz,z_deriv,delta_vxy[0],delta_vxy[1],delta_vz,ax,ay,az,heading,delta_heading,ref_alt,dist_bottom,eph,epv,evh,evv,vxy_max,vz_max,hagl_min,hagl_max,xy_valid,z_valid,v_xy_valid,v_z_valid,xy_reset_counter,z_reset_counter,vxy_reset_counter,vz_reset_counter,heading_reset_counter,heading_good_for_control,xy_global,z_global,dist_bottom_valid,dist_bottom_sensor_bitfield
829684000,829684000,1036000,41.606704,-86.3556021,-0.44988197,-1.1164074,0.1302181,0.0004888793,0.00011499188,0.0,-0.0033686096,-0.0019410995,0.00063612865,-0.00028031145,-0.00022161186,-0.012446839,-0.016992074,-0.034167234,-0.02910908,0.03885844,-1.1105142,-0.0131517695,229.40579,0.10008548,0.056061573,0.060073495,0.009055438,0.006442292,inf,inf,inf,inf,1,1,1,1,2,0,2,1,4,0,1,1,1,0
830180000,830180000,1036000,41.606704,-86.3556021,-0.44898355,-1.1173972,0.1307126,0.0004888793,0.00011499188,0.0,0.0015987164,-0.0047741467,0.003292964,0.0024732132,-0.00022161186,-0.012446839,-0.016992074,-0.045116175,0.012215341,0.305877,-1.1104089,-0.0131517695,229.40579,0.1,0.056010682,0.060011573,0.015853276,0.011401636,inf,inf,inf,inf,1,1,1,1,2,0,2,1,4,0,1,1,1,0
830684000,830684000,1036000,41.606704,-86.3556021,-0.44924948,-1.1169144,0.1302679,0.0004888793,0.00011499188,0.0,-0.00040988962,-0.0035403299,0.00045107404,-0.00021904497,-0.00022161186,-0.012446839,-0.016992074,-0.034852747,-0.039107993,0.027898634,-1.11031,-0.0131517695,229.40579,0.10013063,0.055911142,0.059955683,0.0014142136,0.001,inf,inf,inf,inf,1,1,1,1,2,0,2,1,4,0,1,1,1,0
831180000,831180000,1036000,41.606704,-86.3556021,-0.44832516,-1.117618,0.12963332,0.0004888793,0.00011499188,0.0,0.002859641,-0.0038098148,-0.0012384782,-0.0018696645,-0.00022161186,-0.012446839,-0.016992074,-0.0328861,-0.0111015495,-0.03336469,-1.1101683,-0.0131517695,229.40579,0.10025467,0.05589809,0.059899807,0.0128506115,0.0091925,inf,inf,inf,inf,1,1,1,1,2,0,2,1,4,0,1,1,1,0
831684000,831684000,1036000,41.606704,-86.3556021,-0.4478948,-1.1179054,0.12962608,0.0004888793,0.00011499188,0.0,0.003165448,-0.005240468,0.00033962622,0.00016455691,-0.00022161186,-0.012446839,-0.016992074,-0.0002971285,-0.026390214,-0.01813012,-1.1099,-0.0131517695,229.40579,0.10023551,0.055863403,0.059846252,0.01894401,0.0137046855,inf,inf,inf,inf,1,1,1,1,2,0,2,1,4,0,1,1,1,0
832180000,832180000,1036000,41.606704,-86.3556021,-0.44888967,-1.1170158,0.12924598,0.0004888793,0.00011499188,0.0,-0.0021715437,-0.000912962,-0.0014792181,-0.0010925188,-0.00022161186,-0.012446839,-0.016992074,-0.03928591,-0.0118986145,-0.27099907,-1.1097088,-0.0131517695,229.40579,0.1005439,0.055790983,0.059782356,0.0090565365,0.0064422777,inf,inf,inf,inf,1,1,1,1,2,0,2,1,4,0,1,1,1,0
832684000,832684000,1036000,41.606704,-86.3556021,-0.4498946,-1.1166602,0.12760077,0.0004888793,0.00011499188,0.0,-0.0035637403,-0.0023936925,-0.0049196305,-0.0036851354,-0.00022161186,-0.012446839,-0.016992074,-0.016132787,0.04940147,-0.01789077,-1.1095877,-0.0131517695,229.40579,0.101857916,0.05574367,0.059722733,0.016399628,0.011805981,inf,inf,inf,inf,1,1,1,1,2,0,2,1,4,0,1,1,1,0
833180000,833180000,1036000,41.606704,-86.3556021,-0.4496166,-1.1159626,0.12895942,0.0004888793,0.00011499188,0.0,-0.00050431746,0.0033470686,-0.001166359,0.0006181562,-0.00022161186,-0.012446839,-0.016992074,0.06957757,0.054734513,0.0149309,-1.1091511,-0.0131517695,229.40579,0.100767374,0.05568711,0.059666853,0.0014142136,0.001,inf,inf,inf,inf,1,1,1,1,2,0,2,1,4,0,1,1,1,0
833684000,833684000,1036000,41.606704,-86.3556021,-0.4487694,-1.1139585,0.12998809,0.0004888793,0.00011499188,0.0,0.00024474447,0.0055245548,0.0012437835,0.0026237695,-0.00022161186,-0.012446839,-0.016992074,-0.024775501,-0.051835123,0.15975527,-1.1093332,-0.0131517695,229.40579,0.1,0.055632655,0.05960389,0.013494369,0.00966442,inf,inf,inf,inf,1,1,1,1,2,0,2,1,4,0,1,1,1,0
834180000,834180000,1036000,41.606704,-86.3556021,-0.4479067,-1.1153908,0.12956704,0.0004888793,0.00011499188,0.0,0.0016308208,0.00025253254,-0.0012198114,-0.00016328602,-0.00022161186,-0.012446839,-0.016992074,-0.024159545,-0.002929064,-0.0034571325,-1.1089791,-0.0131517695,229.40579,0.10038562,0.055641487,0.059559755,0.01895131,0.013707168,inf,inf,inf,inf,1,1,1,1,2,0,2,1,4,0,1,1,1,0
834684000,834684000,1036000,41.606704,-86.3556021,-0.44785336,-1.1162262,0.12995395,0.0004888793,0.00011499188,0.0,0.0026324384,0.00090895774,0.00092323933,0.0021093835,-0.00022161186,-0.012446839,-0.016992074,0.08483222,0.022587385,0.049734425,-1.1088579,-0.0131517695,229.40579,0.1,0.05552759,0.059488416,0.009918674,0.0070642144,inf,inf,inf,inf,1,1,1,1,2,0,2,1,4,0,1,1,1,0
835180000,835180000,1036000,41.606704,-86.3556021,-0.44787514,-1.1162205,0.13021411,0.0004888793,0.00011499188,0.0,0.0037083088,0.0021892302,-0.0009598856,-0.00034918735,-0.00022161186,-0.012446839,-0.016992074,-0.06267862,0.044743408,0.035772968,-1.1089501,-0.0131517695,229.40579,0.1,0.055524122,0.059438463,0.016400944,0.011806595,inf,inf,inf,inf,1,1,1,1,2,0,2,1,4,0,1,1,1,0
835684000,835684000,1036000,41.606704,-86.3556021,-0.44750383,-1.1164575,0.13139182,0.0004888793,0.00011499188,0.0,0.004327957,-0.0013931149,0.0037576307,0.003869037,-0.00022161186,-0.012446839,-0.016992074,-0.028579088,-0.078213,0.2370625,-1.1086563,-0.0131517695,229.40579,0.1,0.055426147,0.059383657,0.004213997,0.0029834385,inf,inf,inf,inf,1,1,1,1,2,0,2,1,4,0,1,1,1,0
836180000,836180000,1036000,41.606704,-86.3556021,-0.4481136,-1.1163828,0.13073874,0.0004888793,0.00011499188,0.0,0.0030730944,-0.00073053356,-0.001742813,-0.0019064333,-0.00022161186,-0.012446839,-0.016992074,0.011308253,0.062749095,0.25789434,-1.1087341,-0.0131517695,229.40579,0.1,0.055415455,0.05932185,0.013494758,0.00966442,inf,inf,inf,inf,1,1,1,1,2,0,2,1,4,0,1,1,1,0
836684000,836684000,1036000,41.606704,-86.3556021,-0.44771516,-1.1172943,0.12921512,0.0004888793,0.00011499188,0.0,0.0031340243,-0.005362077,-0.0081677,-0.008309214,-0.00022161186,-0.012446839,-0.016992074,0.0017787059,0.015320819,-1.0030233,-1.1076008,-0.0131517695,229.40579,0.10137066,0.056766685,0.060004953,0.038998894,0.02919622,inf,inf,inf,inf,1,1,1,1,2,0,2,1,4,0,1,1,1,0
837180000,837180000,1036000,41.606704,-86.3556021,-0.44720995,-1.122537,0.11641941,0.0004888793,0.00011499188,0.0,-0.015300233,-0.029520502,-0.17094275,-0.17099725,-0.00022161186,-0.012446839,-0.016992074,0.14319253,0.036850777,-1.5749242,-1.103892,-0.0131517695,229.40579,0.11416637,0.06488702,0.06462089,0.058404457,0.044327088,inf,inf,inf,inf,1,1,1,1,2,0,2,1,4,0,1,1,1,0
837684000,837684000,1036000,41.606704,-86.3556021,-0.4555585,-1.1333044,-0.21581286,0.0004888793,0.00011499188,0.0,-0.020447224,-0.012319819,-1.168334,-1.1678627,-0.00022161186,-0.012446839,-0.016992074,-0.0012231295,0.091696985,-2.0400164,-1.1050049,-0.0131517695,229.40579,0.44639865,0.084640875,0.07704043,0.07936576,0.058460865,inf,inf,inf,inf,1,1,1,1,2,0,2,1,4,0,1,1,1,0
838180000,838180000,1036000,41.606704,-86.3556021,-0.46317872,-1.1393169,-0.9286729,0.0004888793,0.00011499188,0.0,-0.005152247,-0.015406077,-1.3350512,-1.3332615,-0.00022161186,-0.012446839,-0.016992074,-0.09064183,-0.0533548,1.1547691,-1.1052382,-0.0131517695,229.40579,1.1592587,0.115023054,0.09790775,0.097048394,0.0712763,inf,inf,inf,inf,1,1,1,1,2,0,2,1,4,0,1,1,1,0
838684000,838684000,1036000,41.606704,-86.3556021,-0.46740398,-1.1464679,-1.4567039,0.0004888793,0.00011499188,0.0,0.008146034,-0.011453806,-0.7998976,-0.80066365,-0.00022161186,-0.012446839,-0.016992074,0.10627238,0.09464082,0.6376243,-1.0734762,0.036053628,229.40579,1.6872897,0.15221275,0.12639268,0.106780775,0.08314662,inf,inf,inf,inf,1,1,1,1,2,0,2,1,5,0,1,1,1,0
839180000,839180000,1036000,41.606704,-86.3556021,-0.46696493,-1.1487542,-1.7712256,0.0004888793,0.00011499188,0.0,0.012394619,-0.004710909,-0.4796111,-0.48290712,-0.00022161186,-0.012446839,-0.016992074,0.013946375,-0.049629655,0.516517,-1.0836414,0.036053628,229.40579,2.0018113,0.19362663,0.161402,0.11946601,0.09486824,inf,inf,inf,inf,1,1,1,1,2,0,2,1,5,0,1,1,1,0
839684000,839684000,1036000,41.606704,-86.3556021,-0.47091705,-1.1463969,-1.9626629,0.0004888793,0.00011499188,0.0,0.010814289,0.00039854515,-0.3008932,-0.30213186,-0.00022161186,-0.012446839,-0.016992074,-0.050324414,-0.013479905,0.3093527,-1.0881107,0.036053628,229.40579,2.1932487,0.21965633,0.1932812,0.13095954,0.100671455,inf,inf,inf,inf,1,1,1,1,2,0,2,1,5,1,1,1,1,0
840180000,840180000,1036000,41.606704,-86.3556021,-0.4772017,-1.1440724,-2.0833771,0.0004888793,0.00011499188,0.0,0.014883486,-0.0009683738,-0.19984092,-0.1999898,-0.00022161186,-0.012446839,-0.016992074,0.009522455,-0.042687707,0.23422197,-1.0908017,0.036053628,229.40579,2.313963,0.26139182,0.23277533,0.15838769,0.1097565,inf,inf,inf,inf,1,1,1,1,2,0,2,1,5,1,1,1,1,0
840684000,840684000,1036000,41.606704,-86.3556021,-0.48651165,-1.1415081,-2.075845,0.0004888793,0.00011499188,0.0,-0.009699512,-0.010386528,0.10502669,0.10076677,-0.00022161186,-0.012446839,-0.016992074,0.022157157,0.12843567,-0.23261276,-1.0916758,0.036053628,229.40579,2.3064308,0.27570468,0.25961524,0.15815355,0.11081451,inf,inf,inf,inf,1,1,1,1,2,0,2,1,5,1,1,1,1,0
841180000,841180000,1036000,41.606704,-86.3556021,-0.50746596,-1.1103425,-2.0913658,0.0004888793,0.00011499188,0.0,-0.010562409,0.12670499,-0.190998,-0.19615977,-0.00022161186,-0.012446839,-0.016992074,0.05191461,0.5121538,-0.8031074,-1.0793447,0.036053628,229.40579,2.3219516,0.299324,0.2893178,0.16704687,0.11383075,inf,inf,inf,inf,1,1,1,1,2,0,2,1,5,1,1,1,0,0
841684000,841684000,1036000,41.606704,-86.3556021,-0.50996506,-0.9259798,-2.2624907,0.0004888793,0.00011499188,0.0,0.0023904657,0.6552632,-0.4923695,-0.49027532,-0.00022161186,-0.012446839,-0.016992074,-0.043850455,1.4903741,-0.6449353,-1.0617049,0.036053628,229.40579,2.4930766,0.34032378,0.32345453,0.18633397,0.118943766,inf,inf,inf,inf,1,1,1,1,2,0,2,1,5,1,1,1,0,0
842180000,842180000,1036000,41.606704,-86.3556021,-0.47765294,-0.4368518,-2.533375,0.0004888793,0.00011499188,0.0,0.0097623225,1.3937026,-0.6706922,-0.6507644,-0.00022161186,-0.012446839,-0.016992074,-0.039279923,1.5060554,-0.41861278,-1.0623627,0.036053628,229.40579,2.7639608,0.35196668,0.34527695,0.1822713,0.1189283,inf,inf,inf,inf,1,1,1,1,2,0,2,1,5,1,1,1,0,0
842684000,842684000,1036000,41.606704,-86.3556021,-0.41682917,0.40499958,-2.8719316,0.0004888793,0.00011499188,0.0,-0.022916533,1.9779633,-0.7510266,-0.7207911,-0.00022161186,-0.012446839,-0.016992074,-0.17794803,0.8286949,-0.10637759,-1.0697008,0.036053628,229.40579,3.1025174,0.36370635,0.36484602,0.17933244,0.11888868,inf,inf,inf,inf,1,1,1,1,2,0,2,1,5,1,1,1,0,0
843180000,843180000,1036000,41.606704,-86.3556021,-0.36817226,1.4810855,-3.2177498,0.0004888793,0.00011499188,0.0,-0.06599696,2.3046453,-0.75882614,-0.7171595,-0.00022161186,-0.012446839,-0.016992074,-0.13494094,0.42359015,0.018570507,-1.0799512,0.036053628,229.40579,3.4483356,0.37000614,0.3777979,0.17159611,0.11768975,inf,inf,inf,inf,1,1,1,1,2,0,2,1,5,1,1,1,0,0
843684000,843684000,1036000,41.606704,-86.3556021,-0.3232686,2.7078164,-3.5399926,0.0004888793,0.00011499188,0.0,-0.11391428,2.4360955,-0.76273793,-0.69488436,-0.00022161186,-0.012446839,-0.016992074,-0.19111033,0.1386387,-0.12526666,-1.0842372,0.036053628,229.40579,3.7705784,0.3541236,0.3800443,0.15287477,0.113361746,inf,inf,inf,inf,1,1,1,1,2,0,2,1,5,1,1,1,0,0
844180000,844180000,1036000,41.606704,-86.3556021,-0.34212232,3.954862,-3.8879054,0.0004888793,0.00011499188,0.0,-0.15364334,2.4889712,-0.7556183,-0.6932083,-0.00022161186,-0.012446839,-0.016992074,0.0048663113,0.17149132,-0.080497995,-1.090232,0.036053628,229.40579,4.118491,0.3817585,0.39910334,0.16055885,0.11684996,inf,inf,inf,inf,1,1,1,1,2,0,2,1,5,1,1,1,0,0
844684000,844684000,1036000,41.606704,-86.3556021,-0.39110088,5.23348,-4.23285,0.0004888793,0.00011499188,0.0,-0.13542153,2.5023632,-0.74165773,-0.677351,-0.00022161186,-0.012446839,-0.016992074,0.02486726,-0.066642724,0.014171872,-1.0972136,0.036053628,229.40579,4.4634356,0.38166037,0.40728903,0.15361343,0.11630358,inf,inf,inf,inf,1,1,1,1,2,0,2,1,5,1,1,1,0,0
845180000,845180000,1036000,41.606704,-86.3556021,-0.4245919,6.496207,-4.5333242,0.0004888793,0.00011499188,0.0,-0.11103727,2.4981766,-0.77116305,-0.67585486,-0.00022161186,-0.012446839,-0.016992074,0.03705323,0.020709798,-0.19484018,-1.1080741,0.036053628,229.40579,4.76391,0.3822875,0.4107385,0.15020676,0.11563065,inf,inf,inf,inf,1,1,1,1,2,0,2,1,5,1,1,1,0,0
845684000,845684000,1036000,41.606704,-86.3556021,-0.47674394,7.7778277,-4.8683934,0.0004888793,0.00011499188,0.0,-0.09346488,2.5169096,-0.8104866,-0.7017482,-0.00022161186,-0.012446839,-0.016992074,0.12597638,-0.007891687,-0.06597309,-1.1132424,0.036053628,229.40579,5.098979,0.38200948,0.41620883,0.14737274,0.11559104,inf,inf,inf,inf,1,1,1,1,2,0,2,1,5,1,1,1,0,0
846180000,846180000,1036000,41.606704,-86.3556021,-0.5329008,9.038189,-5.194988,0.0004888793,0.00011499188,0.0,-0.054958418,2.51103,-0.82695526,-0.7008229,-0.00022161186,-0.012446839,-0.016992074,0.0057860278,0.047474418,-0.28991237,-1.1234883,0.036053628,229.40579,5.4255733,0.38228813,0.41722432,0.14649615,0.115347035,inf,inf,inf,inf,1,1,1,1,2,0,2,1,5,1,1,1,0,0
846684000,846684000,1036000,41.606704,-86.3556021,-0.5730616,10.302265,-5.536907,0.0004888793,0.00011499188,0.0,-0.014761107,2.4906754,-0.84934294,-0.7142724,-0.00022161186,-0.012446839,-0.016992074,0.25153488,0.013192669,0.23353559,-1.1320381,0.036053628,229.40579,5.767493,0.3829512,0.4210466,0.14631963,0.115833655,inf,inf,inf,inf,1,1,1,1,2,0,2,1,5,1,1,1,0,0
847180000,847180000,1036000,41.606704,-86.3556021,-0.60095584,11.532351,-5.8951607,0.0004888793,0.00011499188,0.0,0.007723656,2.4876173,-0.84756494,-0.7189501,-0.00022161186,-0.012446839,-0.016992074,0.014245524,-0.12270266,-0.0019586345,-1.1390146,0.036053628,229.40579,6.1257463,0.40480614,0.42758667,0.15506825,0.11917267,inf,inf,inf,inf,1,1,1,1,2,0,2,1,5,1,1,1,0,0
847684000,847684000,1036000,41.606704,-86.3556021,-0.62626576,12.781408,-6.222214,0.0004888793,0.00011499188,0.0,0.030499004,2.4903712,-0.8656369,-0.7096246,-0.00022161186,-0.012446839,-0.016992074,0.16348895,-0.004234577,-0.12620915,-1.1522868,0.036053628,229.40579,6.4528,0.3786302,0.41971397,0.14270845,0.115007296,inf,inf,inf,inf,1,1,1,1,2,0,2,1,5,1,1,1,0,0
848180000,848180000,1036000,41.606704,-86.3556021,-0.6288304,14.017936,-6.5844564,0.0004888793,0.00011499188,0.0,0.04559007,2.5034137,-0.8816561,-0.73136526,-0.00022161186,-0.012446839,-0.016992074,0.06760489,-0.024838436,-0.09174651,-1.1560444,0.036053628,229.40579,6.815042,0.39978254,0.42810982,0.15236102,0.11891859,inf,inf,inf,inf,1,1,1,1,2,0,2,1,5,1,1,1,0,0
848684000,848684000,1036000,41.606704,-86.3556021,-0.6412393,15.273246,-6.939941,0.0004888793,0.00011499188,0.0,0.045450255,2.499673,-0.88376695,-0.72634727,-0.00022161186,-0.012446839,-0.016992074,-0.04345822,-0.2527984,0.5471231,-1.1688433,0.036053628,229.40579,7.1705265,0.3759134,0.4231796,0.14192757,0.11531375,inf,inf,inf,inf,1,1,1,1,2,0,2,1,5,1,1,1,0,0
849180000,849180000,1036000,41.606704,-86.3556021,-0.6356535,16.51478,-7.317737,0.0004888793,0.00011499188,0.0,0.052426636,2.512928,-0.8795603,-0.73920226,-0.00022161186,-0.012446839,-0.016992074,-0.03472322,0.055435445,0.12936437,-1.1768931,0.036053628,229.40579,7.5483227,0.39848474,0.42807308,0.15330571,0.119172454,inf,inf,inf,inf,1,1,1,1,2,0,2,1,5,1,1,1,0,0
849684000,849684000,1036000,41.606704,-86.3556021,-0.627854,17.776464,-7.7088714,0.0004888793,0.00011499188,0.0,0.037364777,2.4935539,-0.84824437,-0.7302533,-0.00022161186,-0.012446839,-0.016992074,-0.014091469,-0.061739117,0.055395,-1.1871657,0.036053628,229.40579,7.939457,0.39562336,0.42939693,0.15147471,0.11902647,inf,inf,inf,inf,1,1,1,1,2,0,2,1,5,1,1,1,0,0
850180000,850180000,1036000,41.606704,-86.3556021,-0.63069457,19.007196,-8.066092,0.0004888793,0.00011499188,0.0,0.034166653,2.4816244,-0.8349895,-0.71800566,-0.00022161186,-0.012446839,-0.016992074,-0.054487627,-0.007569511,-0.0899919,-1.1936699,0.036053628,229.40579,8.296678,0.39244115,0.42671236,0.14998914,0.11826192,inf,inf,inf,inf,1,1,1,1,2,0,2,1,5,1,1,1,0,0
850684000,850684000,1036000,41.606704,-86.3556021,-0.63365495,20.2303,-8.382168,0.0004888793,0.00011499188,0.0,0.032240357,2.2632408,-0.41809046,-0.30957314,-0.00022161186,-0.012446839,-0.016992074,-0.004906595,-1.1938994,1.5650967,-1.2183679,0.036053628,229.40579,8.612754,0.3906443,0.42791277,0.14870311,0.118166246,inf,inf,inf,inf,1,1,1,1,2,0,2,1,5,1,1,1,0,0
851180000,851180000,1036000,41.606704,-86.3556021,-0.6390239,21.16221,-8.388104,0.0004888793,0.00011499188,0.0,0.031969786,1.3068227,0.18742429,0.2861324,-0.00022161186,-0.012446839,-0.016992074,-0.0246268,-2.5170512,1.0476586,-1.2040464,0.036053628,229.40579,8.6186905,0.38870046,0.42540148,0.14901432,0.117522895,inf,inf,inf,inf,1,1,1,1,2,0,2,1,5,1,1,1,0,0
851684000,851684000,1036000,41.606704,-86.3556021,-0.6836336,21.535952,-8.152982,0.0004888793,0.00011499188,0.0,0.029492766,0.021812154,0.59346145,0.6745578,-0.00022161186,-0.012446839,-0.016992074,0.036605023,-2.3942719,0.63086385,-1.1937459,0.036053628,229.40579,8.383568,0.38931033,0.4269123,0.15551244,0.11738047,inf,inf,inf,inf,1,1,1,1,2,0,2,1,5,1,1,1,0,0
852180000,852180000,1036000,41.606704,-86.3556021,-0.7365734,21.329412,-7.816955,0.0004888793,0.00011499188,0.0,0.048941158,-0.8689224,0.5951478,0.6529493,-0.00022161186,-0.012446839,-0.016992074,0.22239643,-1.2310202,-0.651408,-1.2018602,0.036053628,229.40579,8.047541,0.41300225,0.43087924,0.1707836,0.12029758,inf,inf,inf,inf,1,1,1,1,2,0,2,1,5,1,1,1,0,0
852684000,852684000,1036000,41.606704,-86.3556021,-0.87005913,20.789667,-7.5325665,0.0004888793,0.00011499188,0.0,0.06258815,-1.155476,0.6060619,0.64355856,-0.00022161186,-0.012446839,-0.016992074,0.41037312,0.05730562,0.36452237,-1.2062201,0.036053628,229.40579,7.763152,0.38378564,0.42532113,0.15208937,0.11599762,inf,inf,inf,inf,1,1,1,1,2,0,2,1,5,1,1,1,0,0
853180000,853180000,1036000,41.606704,-86.3556021,-0.9379992,20.233833,-7.2065763,0.0004888793,0.00011499188,0.0,0.1748158,-0.8992495,0.7147361,0.7326798,-0.00022161186,-0.012446839,-0.016992074,0.27992252,0.7903877,0.0737523,-1.1942909,0.036053628,229.40579,7.437162,0.40672123,0.42899254,0.15887229,0.11995736,inf,inf,inf,inf,1,1,1,1,2,0,2,1,5,1,1,1,0,0
853684000,853684000,1036000,41.606704,-86.3556021,-0.91169184,19.794825,-6.894572,0.0004888793,0.00011499188,0.0,0.2413167,-0.67298245,0.699709,0.6792633,-0.00022161186,-0.012446839,-0.016992074,0.18000558,0.4615574,0.14518288,-1.1930361,0.036053628,229.40579,7.1251574,0.3804881,0.42077518,0.14479825,0.11620124,inf,inf,inf,inf,1,1,1,1,2,0,2,1,5,1,1,1,0,0
854180000,854180000,1036000,41.606704,-86.3556021,-0.82098407,19.47034,-6.5748324,0.0004888793,0.00011499188,0.0,0.23690714,-0.45654616,0.8018884,0.7500501,-0.00022161186,-0.012446839,-0.016992074,-0.06902336,0.5395127,0.19506824,-1.1916063,0.036053628,229.40579,6.805418,0.38022694,0.42177224,0.14519247,0.11704606,inf,inf,inf,inf,1,1,1,1,2,0,2,1,5,1,1,1,0,0
854684000,854684000,1036000,41.606704,-86.3556021,-0.709451,19.277363,-6.1982703,0.0004888793,0.00011499188,0.0,0.17205282,-0.21679467,0.81914055,0.7647731,-0.00022161186,-0.012446839,-0.016992074,-0.17678134,0.38930172,0.04498561,-1.193197,0.036053628,229.40579,6.428856,0.40286997,0.42635372,0.15664274,0.12138265,inf,inf,inf,inf,1,1,1,1,2,0,2,1,5,1,1,1,0,0
855180000,855180000,1036000,41.606704,-86.3556021,-0.61995584,19.189726,-5.8481607,0.0004888793,0.00011499188,0.0,0.08851593,-0.05745516,0.80383456,0.73366284,-0.00022161186,-0.012446839,-0.016992074,-0.1482091,0.3035957,-0.030479455,-1.1946672,0.036053628,229.40579,6.0787463,0.39828032,0.42693958,0.1545745,0.12113475,inf,inf,inf,inf,1,1,1,1,2,0,2,1,5,1,1,1,0,0
855684000,855684000,1036000,41.606704,-86.3556021,-0.56157684,19.16519,-5.5039954,0.0004888793,0.00011499188,0.0,0.008099088,0.031046316,0.8226457,0.73400646,-0.00022161186,-0.012446839,-0.016992074,-0.07774133,0.16204609,-0.090777,-1.1953297,0.036053628,229.40579,5.734581,0.3969926,0.4283883,0.1546237,0.121348836,inf,inf,inf,inf,1,1,1,1,2,0,2,1,5,1,1,1,0,0
856180000,856180000,1036000,41.606704,-86.3556021,-0.53846294,20.032406,-6.642729,0.0004888793,0.00011499188,0.0,-0.07896368,4.0898924,-3.2486434,-3.2788067,-0.00022161186,-0.012446839,-0.016992074,0.22564237,7.6901126,0.42235005,-1.1568807,0.036053628,229.40579,6.8733144,0.39439505,0.425562,0.19382297,0.11709292,inf,inf,inf,inf,1,1,1,1,2,0,2,1,5,1,1,1,0,0
856684000,856684000,1036000,41.606704,-86.3556021,-0.37826294,22.583282,-8.40455,0.0004888793,0.00011499188,0.0,-0.029119413,6.0948453,-3.530703,-3.58357,-0.00022161186,-0.012446839,-0.016992074,-0.6021229,1.5584375,-0.06873353,-1.2592902,0.036053628,229.40579,8.635136,0.37197995,0.4207533,0.18098177,0.109681554,inf,inf,inf,inf,1,1,1,1,2,0,2,1,5,1,1,1,0,0
857180000,857180000,1036000,41.606704,-86.3556021,-0.25739896,25.680487,-10.17246,0.0004888793,0.00011499188,0.0,-0.18978783,6.192132,-3.1804197,-3.248301,-0.00022161186,-0.012446839,-0.016992074,-0.30736524,-2.086698,2.8033073,-1.2819289,0.036053628,229.40579,10.403046,0.39459538,0.42573485,0.18708381,0.10908467,inf,inf,inf,inf,1,1,1,1,2,0,2,1,5,1,1,1,0,0
857684000,857684000,1036000,41.606704,-86.3556021,-0.23226503,28.50429,-11.394198,0.0004888793,0.00011499188,0.0,-0.20723647,4.5499983,-1.4719486,-1.5554061,-0.00022161186,-0.012446839,-0.016992074,-0.13073385,-3.8152463,2.9622817,-1.2860322,0.036053628,229.40579,11.624784,0.3912648,0.4225262,0.1650403,0.10458898,inf,inf,inf,inf,1,1,1,1,2,0,2,1,5,1,1,1,0,0
858180000,858180000,1036000,41.606704,-86.3556021,-0.2646807,30.50435,-11.927356,0.0004888793,0.00011499188,0.0,-0.2439561,2.934559,-0.54270357,-0.64816314,-0.00022161186,-0.012446839,-0.016992074,-0.17472403,-2.9069538,1.1178709,-1.2633666,0.036053628,229.40579,12.157942,0.38902393,0.42166153,0.16098544,0.103230715,inf,inf,inf,inf,1,1,1,1,2,0,2,1,5,1,1,1,0,0
858684000,858684000,1036000,41.606704,-86.3556021,-0.40966576,31.79564,-12.14269,0.0004888793,0.00011499188,0.0,-0.25113556,1.8095853,-0.22689882,-0.3165009,-0.00022161186,-0.012446839,-0.016992074,0.2600751,-1.8740007,0.23682502,-1.261782,0.036053628,229.40579,12.373276,0.38665217,0.41828972,0.1629672,0.10368848,inf,inf,inf,inf,1,1,1,1,2,0,2,1,5,1,1,1,0,0
859180000,859180000,1036000,41.606704,-86.3556021,-0.58774054,32.532417,-12.213275,0.0004888793,0.00011499188,0.0,-0.106667615,0.60182196,0.1748592,0.09880054,-0.00022161186,-0.012446839,-0.016992074,0.6956794,-3.629097,0.9014019,-1.2470717,0.036053628,229.40579,12.443861,0.3855096,0.41758236,0.16371873,0.10335263,inf,inf,inf,inf,1,1,1,1,2,0,2,1,5,1,1,1,0,0
859684000,859684000,1036000,41.606704,-86.3556021,-0.67504984,32.577095,-12.145788,0.0004888793,0.00011499188,0.0,0.09668021,-0.42526448,0.14867292,0.07862279,-0.00022161186,-0.012446839,-0.016992074,0.41243982,-0.8850495,-0.1125327,-1.2500412,0.036053628,229.40579,12.376374,0.38526654,0.41740525,0.16393763,0.09996461,inf,inf,inf,inf,1,1,1,1,2,0,2,1,5,1,1,1,0,0
860180000,860180000,1036000,41.606704,-86.3556021,-0.6967748,32.333885,-12.112976,0.0004888793,0.00011499188,0.0,0.16463462,-0.5245197,0.09618338,0.032202248,-0.00022161186,-0.012446839,-0.016992074,0.21158825,0.18882291,-0.068681374,-1.2575821,0.036053628,229.40579,12.343562,0.40701875,0.41772085,0.17307034,0.10032278,inf,inf,inf,inf,1,1,1,1,2,0,2,1,5,1,1,1,0,0
860684000,860684000,1036000,41.606704,-86.3556021,-0.73791045,32.09512,-12.115611,0.0004888793,0.00011499188,0.0,0.19167267,-0.34537473,0.06966889,-0.0040093176,-0.00022161186,-0.012446839,-0.016992074,0.22435126,0.47436213,0.009841222,-1.2666253,0.036053628,229.40579,12.346197,0.37996364,0.413556,0.15582646,0.0979274,inf,inf,inf,inf,1,1,1,1,2,0,2,1,5,1,1,1,0,0
861180000,861180000,1036000,41.606704,-86.3556021,-0.70447797,31.960665,-12.129975,0.0004888793,0.00011499188,0.0,0.23158063,-0.13698979,0.051197838,-0.029674985,-0.00022161186,-0.012446839,-0.016992074,0.044223048,0.37669268,-0.044005983,-1.2663765,0.036053628,229.40579,12.360561,0.40159312,0.41672727,0.1673889,0.101542525,inf,inf,inf,inf,1,1,1,1,2,0,2,1,5,1,1,1,0,0
861684000,861684000,1036000,41.606704,-86.3556021,-0.65036523,31.910784,-12.167799,0.0004888793,0.00011499188,0.0,0.20889024,0.001626708,0.06385083,-0.03599582,-0.00022161186,-0.012446839,-0.016992074,-0.0951662,0.18165866,-0.06626366,-1.2696595,0.036053628,229.40579,12.398385,0.37693158,0.4102104,0.15419216,0.10110212,inf,inf,inf,inf,1,1,1,1,2,0,2,1,5,1,1,1,0,0
862180000,862180000,1036000,41.606704,-86.3556021,-0.5869192,31.923498,-12.18731,0.0004888793,0.00011499188,0.0,0.16833079,0.06669143,0.07185832,-0.028212508,-0.00022161186,-0.012446839,-0.016992074,0.06057272,0.113034144,0.35867274,-1.2720618,0.036053628,229.40579,12.417896,0.4004224,0.41127044,0.16777574,0.10641052,inf,inf,inf,inf,1,1,1,1,2,0,2,1,5,1,1,1,0,0
862684000,862684000,1036000,41.606704,-86.3556021,-0.53027314,31.957073,-12.202534,0.0004888793,0.00011499188,0.0,0.111275636,0.07844388,0.07137612,-0.028580485,-0.00022161186,-0.012446839,-0.016992074,-0.04509425,0.0039509,0.07549387,-1.2749258,0.036053628,229.40579,12.43312,0.39748698,0.4122449,0.16441973,0.10921556,inf,inf,inf,inf,1,1,1,1,2,0,2,1,5,1,1,1,0,0
863180000,863180000,1036000,41.606704,-86.3556021,-0.5039683,31.989765,-12.239744,0.0004888793,0.00011499188,0.0,0.06120251,0.065214515,0.08882975,-0.030100578,-0.00022161186,-0.012446839,-0.016992074,-0.04166283,-0.026550757,0.15490775,-1.2754301,0.036053628,229.40579,12.47033,0.39431646,0.41309687,0.16111897,0.111717075,inf,inf,inf,inf,1,1,1,1,2,0,2,1,5,1,1,1,0,0
863684000,863684000,1036000,41.606704,-86.3556021,-0.48766878,32.01821,-12.259164,0.0004888793,0.00011499188,0.0,0.03571425,0.046705008,0.10613971,-0.018365571,-0.00022161186,-0.012446839,-0.016992074,-0.02908112,-0.051200412,0.10717839,-1.2768373,0.036053628,229.40579,12.48975,0.39242476,0.41194946,0.15849096,0.113859795,inf,inf,inf,inf,1,1,1,1,2,0,2,1,5,1,1,1,0,0
864180000,864180000,1036000,41.606704,-86.3556021,-0.47953218,32.041855,-12.289717,0.0004888793,0.00011499188,0.0,0.019880157,0.02806673,0.12336503,-0.018747363,-0.00022161186,-0.012446839,-0.016992074,-0.038504895,-0.01932081,0.13925408,-1.2770815,0.036053628,229.40579,12.520303,0.39043036,0.41070828,0.15614417,0.11553931,inf,inf,inf,inf,1,1,1,1,2,0,2,1,5,1,1,1,0,0
864684000,864684000,1036000,41.606704,-86.3556021,-0.47509354,32.051716,-12.31238,0.0004888793,0.00011499188,0.0,0.005786794,0.012549439,0.14927393,-0.003952561,-0.00022161186,-0.012446839,-0.016992074,-0.01617073,-0.08102435,-0.07687981,-1.2775652,0.036053628,229.40579,12.542966,0.3910417,0.41331965,0.15569559,0.11763417,inf,inf,inf,inf,1,1,1,1,2,0,2,1,5,1,1,1,0,0
865180000,865180000,1036000,41.606704,-86.3556021,-0.46962547,32.05569,-12.3054285,0.0004888793,0.00011499188,0.0,0.006932314,0.0023721792,0.14760615,0.0059184153,-0.00022161186,-0.012446839,-0.016992074,-0.12846914,-0.05674637,0.76628184,-1.2778325,0.036053628,229.40579,12.536015,0.41498652,0.41811946,0.16562997,0.12256827,inf,inf,inf,inf,1,1,1,1,2,0,2,1,5,1,1,1,0,0
865684000,865684000,1036000,41.606704,-86.3556021,-0.46573815,32.061996,-12.322752,0.0004888793,0.00011499188,0.0,-0.004951237,0.0013842853,0.14172235,-0.011794461,-0.00022161186,-0.012446839,-0.016992074,-0.056579653,0.0052063656,0.04459818,-1.2784519,0.036053628,229.40579,12.553338,0.3851054,0.4149906,0.1490493,0.11892568,inf,inf,inf,inf,1,1,1,1,2,0,2,1,5,1,1,1,0,0
866180000,866180000,1036000,41.606704,-86.3556021,-0.45570177,32.067436,-12.330287,0.0004888793,0.00011499188,0.0,-0.0016381873,-0.003922257,0.16159686,0.0072776703,-0.00022161186,-0.012446839,-0.016992074,-0.073557265,0.013879255,0.08738499,-1.2786295,0.036053628,229.40579,12.560873,0.40805814,0.42010844,0.15900674,0.12335383,inf,inf,inf,inf,1,1,1,1,2,0,2,1,5,1,1,1,0,0
866684000,866684000,1036000,41.606704,-86.3556021,-0.4481197,32.072155,-12.332329,0.0004888793,0.00011499188,0.0,-0.0062320293,-0.0052634235,0.15445484,-0.0009219636,-0.00022161186,-0.012446839,-0.016992074,-0.0010437164,-0.054549154,0.08796334,-1.2788883,0.036053628,229.40579,12.562915,0.38131392,0.41673455,0.14553839,0.11933933,inf,inf,inf,inf,1,1,1,1,2,0,2,1,5,1,1,1,0,0
867180000,867180000,1036000,41.606704,-86.3556021,-0.44830206,32.08249,-12.33202,0.0004888793,0.00011499188,0.0,-0.019699896,-0.006529014,0.15380716,0.00063103565,-0.00022161186,-0.012446839,-0.016992074,0.014339864,-0.028664434,0.030414136,-1.2789602,0.036053628,229.40579,12.562606,0.38100415,0.41597053,0.14564463,0.119405605,inf,inf,inf,inf,1,1,1,1,2,0,2,1,5,1,1,1,0,0
867684000,867684000,1036000,41.606704,-86.3556021,-0.4533275,32.086285,-12.314053,0.0004888793,0.00011499188,0.0,-0.020544296,-0.013245053,0.14430343,0.007933278,-0.00022161186,-0.012446839,-0.016992074,-0.1367105,0.06836422,-0.09741081,-1.2790424,0.036053628,229.40579,12.544639,0.4039098,0.421803,0.15587929,0.12350146,inf,inf,inf,inf,1,1,1,1,2,0,2,1,5,1,1,1,0,0
868180000,868180000,1036000,41.606704,-86.3556021,-0.45513558,32.085403,-12.302966,0.0004888793,0.00011499188,0.0,-0.007044639,-0.0150990775,0.1287893,0.0028513714,-0.00022161186,-0.012446839,-0.016992074,0.0046472484,-0.04074724,-0.12777844,-1.2790129,0.036053628,229.40579,12.533552,0.3991152,0.42344835,0.15256652,0.12286626,inf,inf,inf,inf,1,1,1,1,2,0,2,1,5,1,1,1,0,0
868684000,868684000,1036000,41.606704,-86.3556021,-0.45617756,32.092876,-12.29047,0.0004888793,0.00011499188,0.0,-0.0077497545,-0.013675333,0.11680141,0.0037534412,-0.00022161186,-0.012446839,-0.016992074,0.005250123,-0.035648428,-0.63637644,-1.2788317,0.036053628,229.40579,12.521056,0.39767155,0.42294446,0.15196706,0.12246718,inf,inf,inf,inf,1,1,1,1,2,0,2,1,5,1,1,1,0,0
869180000,869180000,1036000,41.606704,-86.3556021,-0.4617279,32.09053,-12.273514,0.0004888793,0.00011499188,0.0,-0.004769094,-0.01726557,0.100292295,0.0027484111,-0.00022161186,-0.012446839,-0.016992074,-0.026549356,0.0062748557,0.013414707,-1.2785779,0.036053628,229.40579,12.5041,0.39450717,0.42454863,0.15030937,0.12200445,inf,inf,inf,inf,1,1,1,1,2,0,2,1,5,1,1,1,0,0
869684000,869684000,1036000,41.606704,-86.3556021,-0.47032478,32.08572,-12.2591305,0.0004888793,0.00011499188,0.0,-0.0019950827,-0.010349854,0.081838556,-0.0023638555,-0.00022161186,-0.012446839,-0.016992074,0.03983248,0.01814789,0.046248484,-1.2784593,0.036053628,229.40579,12.489717,0.37232807,0.41746426,0.1406958,0.11757801,inf,inf,inf,inf,1,1,1,1,2,0,2,1,5,1,1,1,0,0
870180000,870180000,1036000,41.606704,-86.3556021,-0.47322708,32.079945,-12.238785,0.0004888793,0.00011499188,0.0,0.0058704824,-0.008173976,0.063673206,-0.001296387,-0.00022161186,-0.012446839,-0.016992074,-0.040409803,0.013102988,-0.0157152,-1.2786859,0.036053628,229.40579,12.469371,0.39321434,0.42518336,0.15080008,0.1215989,inf,inf,inf,inf,1,1,1,1,2,0,2,1,5,1,1,1,0,0
870684000,870684000,1036000,41.606704,-86.3556021,-0.47256672,32.06328,-12.222286,0.0004888793,0.00011499188,0.0,0.00902089,-0.00043374108,0.046686467,-0.0023987351,-0.00022161186,-0.012446839,-0.016992074,-0.005113017,0.10395244,-0.1400244,-1.2785913,0.036053628,229.40579,12.452872,0.3896173,0.42662978,0.14825031,0.1209721,inf,inf,inf,inf,1,1,1,1,2,0,2,1,5,1,1,1,0,0
871180000,871180000,1036000,41.606704,-86.3556021,-0.47552803,32.044888,-12.210273,0.0004888793,0.00011499188,0.0,0.015293759,0.010757348,0.035997823,-0.0006202378,-0.00022161186,-0.012446839,-0.016992074,0.14895196,0.07932209,-0.1777858,-1.2786753,0.036053628,229.40579,12.440859,0.38760483,0.4244946,0.14758913,0.12024946,inf,inf,inf,inf,1,1,1,1,2,0,2,1,5,1,1,1,0,0
871684000,871684000,1036000,41.606704,-86.3556021,-0.47681695,32.038124,-12.194536,0.0004888793,0.00011499188,0.0,0.017889034,0.019845814,0.015938817,-0.005216045,-0.00022161186,-0.012446839,-0.016992074,0.1859876,0.12229225,0.18588354,-1.2785133,0.036053628,229.40579,12.425122,0.38543054,0.4258863,0.14640069,0.119918145,inf,inf,inf,inf,1,1,1,1,2,0,2,1,5,1,1,1,0,0
872180000,872180000,1036000,41.606704,-86.3556021,-0.49196374,32.028503,-12.187798,0.0004888793,0.00011499188,0.0,0.016756387,0.025974592,0.007596547,-0.0060187853,-0.00022161186,-0.012446839,-0.016992074,0.06703776,0.014458933,-0.032127894,-1.278672,0.036053628,229.40579,12.418384,0.38442937,0.42371497,0.1465246,0.11944752,inf,inf,inf,inf,1,1,1,1,2,0,2,1,5,1,1,1,0,0
872684000,872684000,1036000,41.606704,-86.3556021,-0.5008569,32.02896,-12.17808,0.0004888793,0.00011499188,0.0,0.031961247,0.034439743,-0.003954088,-0.0066021113,-0.00022161186,-0.012446839,-0.016992074,0.05570666,0.049022723,-0.0077551855,-1.278468,0.036053628,229.40579,12.408666,0.38425967,0.42528325,0.1468143,0.11959281,inf,inf,inf,inf,1,1,1,1,2,0,2,1,5,1,1,1,0,0
873180000,873180000,1036000,41.606704,-86.3556021,-0.49921122,32.033348,-12.17649,0.0004888793,0.00011499188,0.0,0.03766228,0.03211261,-0.0072619035,-0.008074276,-0.00022161186,-0.012446839,-0.016992074,0.06466271,-0.006817798,-0.049310796,-1.278437,0.036053628,229.40579,12.407076,0.40519887,0.43252334,0.1557455,0.12332755,inf,inf,inf,inf,1,1,1,1,2,0,2,1,5,1,1,1,0,0
873684000,873684000,1036000,41.606704,-86.3556021,-0.5095696,32.031166,-12.169994,0.0004888793,0.00011499188,0.0,0.035017733,0.026915895,-0.011970589,-0.0059300163,-0.00022161186,-0.012446839,-0.016992074,0.009483148,0.011536732,-0.05366566,-1.2781934,0.036053628,229.40579,12.40058,0.37901065,0.42372528,0.14335977,0.1183772,inf,inf,inf,inf,1,1,1,1,2,0,2,1,5,1,1,1,0,0
874180000,874180000,1036000,41.606704,-86.3556021,-0.51453143,32.038563,-12.165911,0.0004888793,0.00011499188,0.0,0.024940671,0.015041862,0.0030646785,0.011506461,-0.00022161186,-0.012446839,-0.016992074,-0.107473806,-0.014546005,-0.09970187,-1.2780842,0.036053628,229.40579,12.396497,0.399932,0.43071842,0.15286255,0.12223512,inf,inf,inf,inf,1,1,1,1,2,0,2,1,5,1,1,1,0,0
874684000,874684000,1036000,41.606704,-86.3556021,-0.53774965,32.036625,-12.149696,0.0004888793,0.00011499188,0.0,0.004995362,0.009046168,-0.010692788,0.005968298,-0.00022161186,-0.012446839,-0.016992074,-0.06755967,-0.043964386,0.57021797,-1.2781982,0.036053628,229.40579,12.380282,0.3760283,0.4252987,0.1421445,0.11803278,inf,inf,inf,inf,1,1,1,1,2,0,2,1,5,1,1,1,0,0
875180000,875180000,1036000,41.606704,-86.3556021,-0.53378844,32.049168,-12.154977,0.0004888793,0.00011499188,0.0,0.12556006,0.0599761,-0.05679329,-0.038957916,-0.00022161186,-0.012446839,-0.016992074,0.5417328,0.24197899,-0.71412605,-1.2792363,0.036053628,229.40579,12.385563,0.39870095,0.42924842,0.15339705,0.1219285,inf,inf,inf,inf,1,1,1,1,2,0,2,1,5,1,1,1,0,0
875684000,875684000,1036000,41.606704,-86.3556021,-0.39207885,32.096855,-12.183404,0.0004888793,0.00011499188,0.0,0.64068043,0.12936312,-0.13126135,-0.11158443,-0.00022161186,-0.012446839,-0.016992074,1.5136924,0.11435483,-0.26625493,-1.2862648,0.036053628,229.40579,12.41399,0.39592317,0.43010384,0.1517479,0.12153899,inf,inf,inf,inf,1,1,1,1,2,0,2,1,5,1,1,1,0,0
876180000,876180000,1036000,41.606704,-86.3556021,0.0745929,32.1735,-12.247353,0.0004888793,0.00011499188,0.0,1.4535447,0.16531003,-0.16401468,-0.14193955,-0.00022161186,-0.012446839,-0.016992074,1.5490583,0.0045210165,0.020836415,-1.2905968,0.036053628,229.40579,12.477939,0.392818,0.42713973,0.15098332,0.12041287,inf,inf,inf,inf,1,1,1,1,2,0,2,1,5,1,1,1,0,0
876684000,876684000,1036000,41.606704,-86.3556021,0.92654496,32.25495,-12.311243,0.0004888793,0.00011499188,0.0,2.032772,0.17937972,-0.14720921,-0.12060464,-0.00022161186,-0.012446839,-0.016992074,0.884377,0.017208885,0.063658625,-1.2880822,0.036053628,229.40579,12.541829,0.39096132,0.42807454,0.15040673,0.11992239,inf,inf,inf,inf,1,1,1,1,2,0,2,1,5,1,1,1,0,0
877180000,877180000,1036000,41.606704,-86.3556021,2.0074062,32.336975,-12.349158,0.0004888793,0.00011499188,0.0,2.3383253,0.18716553,-0.110880144,-0.07533909,-0.00022161186,-0.012446839,-0.016992074,0.35393995,0.0613974,0.05058938,-1.29101,0.036053628,229.40579,12.579744,0.38902628,0.42839044,0.14924328,0.11944129,inf,inf,inf,inf,1,1,1,1,2,0,2,1,5,1,1,1,0,0
877684000,877684000,1036000,41.606704,-86.3556021,3.2272704,32.42231,-12.384138,0.0004888793,0.00011499188,0.0,2.4618857,0.19798344,-0.0720532,-0.044104055,-0.00022161186,-0.012446839,-0.016992074,0.26868233,0.086755015,-0.5086931,-1.2981169,0.036053628,229.40579,12.614724,0.38962004,0.426368,0.1494339,0.11922684,inf,inf,inf,inf,1,1,1,1,2,0,2,1,5,1,1,1,0,0
878180000,878180000,1036000,41.606704,-86.3556021,4.4687805,32.51969,-12.402037,0.0004888793,0.00011499188,0.0,2.504109,0.20821801,-0.055356644,-0.03050518,-0.00022161186,-0.012446839,-0.016992074,0.040218234,-0.034959227,0.08130439,-1.3032825,0.036053628,229.40579,12.632623,0.41276947,0.43342364,0.15900664,0.12311636,inf,inf,inf,inf,1,1,1,1,2,0,2,1,5,1,1,1,0,0
878684000,878684000,1036000,41.606704,-86.3556021,5.754498,32.62328,-12.407088,0.0004888793,0.00011499188,0.0,2.4644146,0.20006815,0.0007499356,0.027198324,-0.00022161186,-0.012446839,-0.016992074,-0.645537,-0.09821216,0.37460208,-1.3137221,0.036053628,229.40579,12.637674,0.38387924,0.42436314,0.14457983,0.1180267,inf,inf,inf,inf,1,1,1,1,2,0,2,1,5,1,1,1,0,0
879180000,879180000,1036000,41.606704,-86.3556021,6.855989,32.712677,-12.368977,0.0004888793,0.00011499188,0.0,1.760747,0.14652534,0.09859148,0.11795107,-0.00022161186,-0.012446839,-0.016992074,-1.8299582,-0.12526691,-0.019245844,-1.3215479,0.036053628,229.40579,12.599563,0.40625116,0.43139225,0.15458368,0.12221022,inf,inf,inf,inf,1,1,1,1,2,0,2,1,5,1,1,1,0,0
879684000,879684000,1036000,41.606704,-86.3556021,7.590143,32.790173,-12.29783,0.0004888793,0.00011499188,0.0,1.0555534,0.08842924,0.22382188,0.24913427,-0.00022161186,-0.012446839,-0.016992074,-0.4195105,-0.071678326,1.3790929,-1.3325458,0.036053628,229.40579,12.528416,0.3802742,0.42281017,0.14398201,0.117606275,inf,inf,inf,inf,1,1,1,1,2,0,2,1,5,1,1,1,0,0
880180000,880180000,1036000,41.606704,-86.3556021,8.065619,32.844463,-12.013119,0.0004888793,0.00011499188,0.0,0.5829175,0.03125533,0.80525184,0.8228641,-0.00022161186,-0.012446839,-0.016992074,-1.772571,-0.053923894,0.6527881,-1.3322908,0.036053628,229.40579,12.243705,0.37993863,0.42370775,0.14361645,0.117869385,inf,inf,inf,inf,1,1,1,1,2,0,2,1,5,1,1,1,0,0
880684000,880684000,1036000,41.606704,-86.3556021,8.181487,32.868755,-11.5344715,0.0004888793,0.00011499188,0.0,-0.15059456,-0.026071016,1.0164058,1.0256677,-0.00022161186,-0.012446839,-0.016992074,-0.93477935,-0.096524745,-0.4635705,-1.3186444,0.036053628,229.40579,11.765058,0.40221173,0.42823744,0.15511449,0.12150221,inf,inf,inf,inf,1,1,1,1,2,0,2,1,5,1,1,1,0,0
881180000,881180000,1036000,41.606704,-86.3556021,8.051113,32.8904,-11.07063,0.0004888793,0.00011499188,0.0,-0.3683859,-0.052420005,0.84427106,0.8650551,-0.00022161186,-0.012446839,-0.016992074,-0.09704036,-0.053421617,-0.20370358,-1.3131082,0.036053628,229.40579,11.301216,0.39763752,0.42853272,0.15268265,0.120831154,inf,inf,inf,inf,1,1,1,1,2,0,2,1,5,1,1,1,0,0
881684000,881684000,1036000,41.606704,-86.3556021,7.8720875,32.90834,-10.65218,0.0004888793,0.00011499188,0.0,-0.4157014,-0.080181584,0.8250182,0.8375481,-0.00022161186,-0.012446839,-0.016992074,-0.12455736,-0.1351377,-0.051008597,-1.3130331,0.036053628,229.40579,10.882766,0.3962914,0.42971674,0.15142502,0.12087075,inf,inf,inf,inf,1,1,1,1,2,0,2,1,5,1,1,1,0,0
882180000,882180000,1036000,41.606704,-86.3556021,7.6757607,32.89961,-10.239434,0.0004888793,0.00011499188,0.0,-0.39779675,-0.10321512,0.854968,0.8596435,-0.00022161186,-0.012446839,-0.016992074,0.3496686,-0.04990814,0.32512835,-1.3144515,0.036053628,229.40579,10.47002,0.3933284,0.42697468,0.14910847,0.12022169,inf,inf,inf,inf,1,1,1,1,2,0,2,1,5,1,1,1,0,0
882684000,882684000,1036000,41.606704,-86.3556021,7.5099144,32.874176,-9.806522,0.0004888793,0.00011499188,0.0,-0.29967573,-0.1095184,0.90451354,0.8997011,-0.00022161186,-0.012446839,-0.016992074,0.10569171,-0.017673358,-0.55968577,-1.3167019,0.036053628,229.40579,10.037108,0.37152842,0.42210734,0.13913271,0.11655977,inf,inf,inf,inf,1,1,1,1,2,0,2,1,5,1,1,1,0,0
883180000,883180000,1036000,41.606704,-86.3556021,7.3959885,32.830692,-9.355877,0.0004888793,0.00011499188,0.0,-0.19103938,-0.09524316,0.899441,0.90098417,-0.00022161186,-0.012446839,-0.016992074,0.1646144,0.06219452,-0.007992673,-1.3188059,0.036053628,229.40579,9.586463,0.39227536,0.42586455,0.14878574,0.12037648,inf,inf,inf,inf,1,1,1,1,2,0,2,1,5,1,1,1,0,0
883684000,883684000,1036000,41.606704,-86.3556021,7.3330255,32.79462,-8.899354,0.0004888793,0.00011499188,0.0,-0.097307734,-0.063109525,0.8944627,0.8989991,-0.00022161186,-0.012446839,-0.016992074,0.11531968,0.094963476,-0.035101607,-1.3203558,0.036053628,229.40579,9.12994,0.38882715,0.42684695,0.14640196,0.12004528,inf,inf,inf,inf,1,1,1,1,2,0,2,1,5,1,1,1,0,0
884180000,884180000,1036000,41.606704,-86.3556021,7.321515,32.77318,-8.4613285,0.0004888793,0.00011499188,0.0,-0.038228672,-0.034464363,0.88710856,0.88725716,-0.00022161186,-0.012446839,-0.016992074,0.02525657,0.116229795,-0.008855077,-1.3215796,0.036053628,229.40579,8.691915,0.38685998,0.4274732,0.145846,0.11992004,inf,inf,inf,inf,1,1,1,1,2,0,2,1,5,1,1,1,0,0
884684000,884684000,1036000,41.606704,-86.3556021,7.330804,32.761345,-8.015918,0.0004888793,0.00011499188,0.0,-0.015472124,-0.016023979,0.8702172,0.8723426,-0.00022161186,-0.012446839,-0.016992074,0.04886221,0.01781898,-0.04382717,-1.3223896,0.036053628,229.40579,8.246504,0.3848051,0.4255015,0.1448988,0.11941089,inf,inf,inf,inf,1,1,1,1,2,0,2,1,5,1,1,1,0,0
885180000,885180000,1036000,41.606704,-86.3556021,7.3500743,32.757736,-7.584775,0.0004888793,0.00011499188,0.0,-0.013781636,-0.0068864324,0.84534705,0.85165936,-0.00022161186,-0.012446839,-0.016992074,-0.053100917,0.044588402,-0.1582867,-1.3230662,0.036053628,229.40579,7.8153605,0.38389248,0.42323592,0.1451861,0.119108185,inf,inf,inf,inf,1,1,1,1,2,0,2,1,5,1,1,1,0,0
885684000,885684000,1036000,41.606704,-86.3556021,7.3602085,32.757896,-7.1621857,0.0004888793,0.00011499188,0.0,-0.023049477,0.0031100702,0.8152216,0.8218199,-0.00022161186,-0.012446839,-0.016992074,-0.0494987,0.0568699,-0.19154237,-1.3229042,0.036053628,229.40579,7.3927712,0.3837976,0.4247174,0.14562762,0.11936951,inf,inf,inf,inf,1,1,1,1,2,0,2,1,5,1,1,1,0,0
886180000,886180000,1036000,41.606704,-86.3556021,7.361526,32.755306,-6.7616343,0.0004888793,0.00011499188,0.0,-0.0315369,0.00016959042,0.79716504,0.80166113,-0.00022161186,-0.012446839,-0.016992074,-0.10575026,0.013786364,-0.5424302,-1.3226393,0.036053628,229.40579,6.99222,0.40467352,0.4319208,0.15448001,0.12320114,inf,inf,inf,inf,1,1,1,1,2,0,2,1,5,1,1,1,0,0
886684000,886684000,1036000,41.606704,-86.3556021,7.3650613,32.750195,-6.36158,0.0004888793,0.00011499188,0.0,-0.03328367,0.004954697,0.7673892,0.7739048,-0.00022161186,-0.012446839,-0.016992074,-0.10086927,-0.054500517,0.0014723577,-1.322475,0.036053628,229.40579,6.5921655,0.37875244,0.42335537,0.14247264,0.118373044,inf,inf,inf,inf,1,1,1,1,2,0,2,1,5,1,1,1,0,0
887180000,887180000,1036000,41.606704,-86.3556021,7.3632736,32.751293,-5.987635,0.0004888793,0.00011499188,0.0,-0.030536273,0.0074831448,0.7491729,0.7512702,-0.00022161186,-0.012446839,-0.016992074,-0.010815311,0.05198544,-0.04749751,-1.3224306,0.036053628,229.40579,6.2182207,0.39963093,0.43058538,0.15191463,0.12233468,inf,inf,inf,inf,1,1,1,1,2,0,2,1,5,1,1,1,0,0
887684000,887684000,1036000,41.606704,-86.3556021,7.361984,32.752415,-5.619458,0.0004888793,0.00011499188,0.0,-0.031578936,0.0055370904,0.73233306,0.72951126,-0.00022161186,-0.012446839,-0.016992074,-0.04520885,0.050831866,-0.047627896,-1.3223382,0.036053628,229.40579,5.850044,0.37584114,0.42233598,0.1412868,0.11782479,inf,inf,inf,inf,1,1,1,1,2,0,2,1,5,1,1,1,0,0
888180000,888180000,1036000,41.606704,-86.3556021,7.3510547,32.75304,-5.25862,0.0004888793,0.00011499188,0.0,-0.035625536,0.0044153985,0.7097413,0.71028,-0.00022161186,-0.012446839,-0.016992074,-0.021159973,0.069775224,-0.060536027,-1.3222413,0.036053628,229.40579,5.4892054,0.39843088,0.42974603,0.1522565,0.12217384,inf,inf,inf,inf,1,1,1,1,2,0,2,1,5,1,1,1,0,0
888684000,888684000,1036000,41.606704,-86.3556021,7.3362164,32.75555,-4.9056215,0.0004888793,0.00011499188,0.0,-0.024608627,0.003307496,0.6916761,0.6926993,-0.00022161186,-0.012446839,-0.016992074,-0.034620453,-0.033941492,-0.26900324,-1.3224908,0.036053628,229.40579,5.136207,0.39568254,0.42769817,0.15029272,0.12149366,inf,inf,inf,inf,1,1,1,1,2,0,2,1,5,1,1,1,0,0
889180000,889180000,1036000,41.606704,-86.3556021,7.32899,32.759083,-4.5618196,0.0004888793,0.00011499188,0.0,-0.010754729,-0.00014070605,0.6886739,0.69059765,-0.00022161186,-0.012446839,-0.016992074,0.13184448,-0.014063433,0.1911213,-1.3225164,0.036053628,229.40579,4.792405,0.39251506,0.4283285,0.14845625,0.1210852,inf,inf,inf,inf,1,1,1,1,2,0,2,1,5,1,1,1,0,0
889684000,889684000,1036000,41.606704,-86.3556021,7.3219686,32.768238,-4.222246,0.0004888793,0.00011499188,0.0,-0.009856902,-0.002774034,0.70037913,0.6930439,-0.00022161186,-0.012446839,-0.016992074,-0.001140244,-0.028164936,0.035432104,-1.322577,0.036053628,229.40579,4.4528317,0.39071786,0.4266348,0.14743203,0.12062442,inf,inf,inf,inf,1,1,1,1,2,0,2,1,5,1,1,1,0,0
890180000,890180000,1036000,41.606704,-86.3556021,7.320254,32.774506,-3.8796895,0.0004888793,0.00011499188,0.0,-0.0037100147,-0.011209329,0.70965314,0.6998533,-0.00022161186,-0.012446839,-0.016992074,0.028373277,-0.013357752,0.04413252,-1.3226869,0.036053628,229.40579,4.1102753,0.38881496,0.4244195,0.14668544,0.12010136,inf,inf,inf,inf,1,1,1,1,2,0,2,1,5,1,1,1,0,0
890684000,890684000,1036000,41.606704,-86.3556021,7.3179183,32.781837,-3.5341926,0.0004888793,0.00011499188,0.0,-0.0019290025,-0.015751144,0.71123964,0.6962124,-0.00022161186,-0.012446839,-0.016992074,0.011165073,-0.04819563,-0.008422012,-1.3224162,0.036053628,229.40579,3.7647784,0.38940433,0.42613763,0.1476663,0.12048602,inf,inf,inf,inf,1,1,1,1,2,0,2,1,5,1,1,1,0,0
891180000,891180000,1036000,41.606704,-86.3556021,7.3135033,32.781128,-3.1894534,0.0004888793,0.00011499188,0.0,-0.0019111688,-0.02458575,0.7117283,0.6970089,-0.00022161186,-0.012446839,-0.016992074,-0.0070152343,0.06575298,-0.011392931,-1.3224216,0.036053628,229.40579,3.4200392,0.41252127,0.4337251,0.15775467,0.12456594,inf,inf,inf,inf,1,1,1,1,2,0,2,1,5,1,1,1,0,0
891684000,891684000,1036000,41.606704,-86.3556021,7.3164644,32.78614,-2.8336375,0.0004888793,0.00011499188,0.0,-0.0006198852,-0.026208103,0.7140652,0.7033582,-0.00022161186,-0.012446839,-0.016992074,0.0011036893,-0.016936043,-0.06168994,-1.3224267,0.036053628,229.40579,3.0642233,0.3837669,0.4246861,0.144012,0.11932656,inf,inf,inf,inf,1,1,1,1,2,0,2,1,5,1,1,1,0,0
892180000,892180000,1036000,41.606704,-86.3556021,7.318432,32.78969,-2.483253,0.0004888793,0.00011499188,0.0,-0.0012891295,-0.027340245,0.70414317,0.6978852,-0.00022161186,-0.012446839,-0.016992074,-0.13726944,-0.06712327,0.5879103,-1.3226637,0.036053628,229.40579,2.7138388,0.4062985,0.43198255,0.15441738,0.12340808,inf,inf,inf,inf,1,1,1,1,2,0,2,1,5,1,1,1,0,0
892684000,892684000,1036000,41.606704,-86.3556021,7.3223724,32.79871,-2.1409414,0.0004888793,0.00011499188,0.0,0.0039754007,-0.028925223,0.6989991,0.68813336,-0.00022161186,-0.012446839,-0.016992074,0.009722584,-0.0071750823,0.07776537,-1.3225592,0.036053628,229.40579,2.3715272,0.3803007,0.42327902,0.14262412,0.11856744,inf,inf,inf,inf,1,1,1,1,2,0,2,1,5,1,1,1,0,0
893180000,893180000,1036000,41.606704,-86.3556021,7.3296995,32.807255,-1.8112113,0.0004888793,0.00011499188,0.0,-0.0056668697,-0.03561816,0.7083748,0.68751943,-0.00022161186,-0.012446839,-0.016992074,-0.022927187,-0.08273851,0.088324696,-1.3226869,0.036053628,229.40579,2.0417972,0.38008925,0.42413095,0.14324422,0.11872394,inf,inf,inf,inf,1,1,1,1,2,0,2,1,5,1,1,1,0,0
893684000,893684000,1036000,41.606704,-86.3556021,7.3292074,32.805504,-1.4673059,0.0004888793,0.00011499188,0.0,-0.00800273,-0.03872342,0.71183205,0.6894725,-0.00022161186,-0.012446839,-0.016992074,0.029301822,-0.004973049,0.06231379,-1.3224657,0.036053628,229.40579,1.6978917,0.40279385,0.42879936,0.1534905,0.122598,inf,inf,inf,inf,1,1,1,1,2,0,2,1,5,1,1,1,0,0
894180000,894180000,1036000,41.606704,-86.3556021,7.332031,32.80014,-1.1253093,0.0004888793,0.00011499188,0.0,-0.009569269,-0.0408998,0.7097345,0.68823344,-0.00022161186,-0.012446839,-0.016992074,-0.02774851,0.028987832,0.014938351,-1.3225083,0.036053628,229.40579,1.3558952,0.3983057,0.42916524,0.15067053,0.12196206,inf,inf,inf,inf,1,1,1,1,2,0,2,1,5,1,1,1,0,0
894684000,894684000,1036000,41.606704,-86.3556021,7.337058,32.795673,-0.78275925,0.0004888793,0.00011499188,0.0,-0.017039524,-0.03917958,0.7141323,0.6893361,-0.00022161186,-0.012446839,-0.016992074,-0.01366862,0.027591627,0.0019519888,-1.3225332,0.036053628,229.40579,1.013345,0.39692104,0.43038508,0.15016593,0.12191543,inf,inf,inf,inf,1,1,1,1,2,0,2,1,5,1,1,1,0,0
895180000,895180000,1036000,41.606704,-86.3556021,7.3433313,32.791355,-0.44031876,0.0004888793,0.00011499188,0.0,-0.01917186,-0.031983487,0.7159092,0.69305515,-0.00022161186,-0.012446839,-0.016992074,0.06196627,0.013017392,-0.16493076,-1.3224534,0.036053628,229.40579,0.6709045,0.3938969,0.4275439,0.14862575,0.121093385,inf,inf,inf,inf,1,1,1,1,2,0,2,1,5,1,1,1,0,0
895684000,895684000,1036000,41.606704,-86.3556021,7.3568535,32.795628,-0.09636289,0.0004888793,0.00011499188,0.0,-0.024194302,-0.030413596,0.70043653,0.6748891,-0.00022161186,-0.012446839,-0.016992074,-0.16766346,-0.0049606566,-0.4255334,-1.3224164,0.036053628,229.40579,0.32694867,0.3719299,0.4226047,0.13926676,0.11720198,inf,inf,inf,inf,1,1,1,1,2,0,2,1,5,1,1,1,0,0
896180000,896180000,1036000,41.606704,-86.3556021,7.3708024,32.797577,0.09795138,0.0004888793,0.00011499188,0.0,-0.030505018,-0.017004646,0.03277648,0.0035371906,-0.00022161186,-0.012446839,-0.016992074,-0.004302194,0.02889748,0.64572215,-1.3117015,0.036053628,229.40579,0.1326344,0.39290386,0.4295673,0.15144609,0.11903318,inf,inf,inf,inf,1,1,1,1,2,0,2,1,5,1,1,1,0,0
896684000,896684000,1036000,41.606704,-86.3556021,7.375706,32.797073,0.10619145,0.0004888793,0.00011499188,0.0,-0.01828512,-0.0168363,0.03872616,0.0125763295,-0.00022161186,-0.012446839,-0.016992074,0.055214092,-0.00980064,-0.2078759,-1.3098416,0.036053628,229.40579,0.124394335,0.38949338,0.4269797,0.1505732,0.110313475,inf,inf,inf,inf,1,1,1,1,2,0,2,1,5,1,1,1,0,0
897180000,897180000,1036000,41.606704,-86.3556021,7.380741,32.79943,0.10900363,0.0004888793,0.00011499188,0.0,-0.01952861,-0.013865593,0.050037052,0.01847753,-0.00022161186,-0.012446839,-0.016992074,0.05574239,-0.04659145,-0.05603029,-1.3101742,0.036053628,229.40579,0.1,0.38750565,0.42649484,0.15294716,0.10487022,inf,inf,inf,inf,1,1,1,1,2,0,2,1,5,0,1,1,1,0
897684000,897684000,1036000,41.606704,-86.3556021,7.3802347,32.80035,0.1276633,0.0004888793,0.00011499188,0.0,-0.01746606,-0.01765086,0.05679411,0.031412255,-0.00022161186,-0.012446839,-0.016992074,0.04128949,-0.040887326,-0.45617673,-1.3099949,0.036053628,229.40579,0.1,0.38542417,0.4230664,0.15516283,0.10168947,inf,inf,inf,inf,1,1,1,1,2,0,2,1,5,0,1,1,1,0
898180000,898180000,1036000,41.606704,-86.3556021,7.3838825,32.804443,0.14122747,0.0004888793,0.00011499188,0.0,-0.016378207,-0.012999127,0.069225505,0.03977541,-0.00022161186,-0.012446839,-0.016992074,-0.069145165,-0.03771372,0.6369268,-1.3095508,0.036053628,229.40579,0.1,0.38458747,0.42208305,0.15815969,0.100986145,inf,inf,inf,inf,1,1,1,1,2,0,2,1,5,0,1,1,1,0
898684000,898684000,1036000,41.606704,-86.3556021,7.4004555,32.821747,0.0115718525,0.0004888793,0.00011499188,0.0,-0.0055019506,-0.0039707287,0.02046008,-0.1265596,-0.00022161186,-0.012446839,-0.016992074,-0.056993064,0.064488985,0.2670902,-1.3087536,0.036053628,229.40579,0.1,0.30174494,0.31497607,0.013738542,0.009664757,inf,inf,inf,inf,1,1,1,1,2,0,2,1,5,0,1,1,1,0
899180000,899180000,1036000,41.606704,-86.3556021,7.3986273,32.821514,-0.032846346,0.0004888793,0.00011499188,0.0,0.00077823875,0.0031954588,0.004004151,-0.1120797,-0.00022161186,-0.012446839,-0.016992074,-0.078330755,-0.061230555,0.8408864,-1.3080688,0.036053628,229.40579,0.11855347,0.290568,0.3016846,0.019364536,0.01370792,inf,inf,inf,inf,1,1,1,1,2,0,2,1,5,0,1,1,1,0
899684000,899684000,1036000,41.606704,-86.3556021,7.3969736,32.81949,-0.02662637,0.0004888793,0.00011499188,0.0,0.00060118927,0.0039924895,-0.004297301,-0.062348112,-0.00022161186,-0.012446839,-0.016992074,-0.095083684,-0.060274564,-0.26880768,-1.3081912,0.036053628,229.40579,0.12181007,0.27299055,0.29268983,0.010333673,0.0073021404,inf,inf,inf,inf,1,1,1,1,2,0,2,1,5,0,1,1,1,0
