timestamp,timestamp_sample,q[0],q[1],q[2],q[3],delta_q_reset[0],delta_q_reset[1],delta_q_reset[2],delta_q_reset[3],quat_reset_counter
829264000,0,0.81640893,-0.0018557959,-0.0021080333,-0.5774753,0.0,0.0,0.0,0.0,0
829268000,0,0.81640816,-0.001814643,-0.002137132,-0.5774764,0.0,0.0,0.0,0.0,0
829276000,0,0.8164081,-0.0018177012,-0.0021349401,-0.57747644,0.0,0.0,0.0,0.0,0
829284000,0,0.8164081,-0.0018204573,-0.0021329825,-0.57747644,0.0,0.0,0.0,0.0,0
829296000,0,0.81640774,-0.0018956799,-0.0020796536,-0.577477,0.0,0.0,0.0,0.0,0
829304000,0,0.81640863,-0.0017874063,-0.0021563265,-0.57747567,0.0,0.0,0.0,0.0,0
829316000,0,0.81640714,-0.0018410822,-0.0021180704,-0.5774778,0.0,0.0,0.0,0.0,0
829324000,0,0.8164082,-0.0017902426,-0.002154486,-0.57747626,0.0,0.0,0.0,0.0,0
829332000,0,0.8164087,-0.0017957784,-0.0021508492,-0.5774756,0.0,0.0,0.0,0.0,0
829344000,0,0.81640935,-0.0018468387,-0.002114622,-0.5774747,0.0,0.0,0.0,0.0,0
829356000,0,0.8164086,-0.0018080632,-0.0021422226,-0.5774758,0.0,0.0,0.0,0.0,0
829360000,0,0.81640935,-0.0018533438,-0.0021099807,-0.5774747,0.0,0.0,0.0,0.0,0
829372000,0,0.81640863,-0.0018140243,-0.0021379543,-0.5774757,0.0,0.0,0.0,0.0,0
829380000,0,0.8164087,-0.0018166052,-0.0021360505,-0.5774756,0.0,0.0,0.0,0.0,0
829396000,0,0.81640875,-0.0018548181,-0.0021088046,-0.57747555,0.0,0.0,0.0,0.0,0
829404000,0,0.81640863,-0.0018571529,-0.0021071213,-0.57747567,0.0,0.0,0.0,0.0,0
829412000,0,0.8164089,-0.0018592615,-0.0021057138,-0.57747537,0.0,0.0,0.0,0.0,0
829420000,0,0.816409,-0.0018616385,-0.0021041257,-0.57747513,0.0,0.0,0.0,0.0,0
829432000,0,0.8164084,-0.001820646,-0.0021331264,-0.577476,0.0,0.0,0.0,0.0,0
829440000,0,0.8164083,-0.0018086376,-0.0021413348,-0.5774762,0.0,0.0,0.0,0.0,0
829456000,0,0.8164079,-0.0018035244,-0.0021454124,-0.57747674,0.0,0.0,0.0,0.0,0
829464000,0,0.8164081,-0.0018061415,-0.0021435453,-0.5774765,0.0,0.0,0.0,0.0,0
829476000,0,0.81640905,-0.0018550624,-0.0021090077,-0.5774751,0.0,0.0,0.0,0.0,0
829484000,0,0.8164091,-0.0018576094,-0.00210721,-0.57747495,0.0,0.0,0.0,0.0,0
829496000,0,0.8164085,-0.0018172784,-0.0021355513,-0.57747585,0.0,0.0,0.0,0.0,0
829500000,0,0.8164089,-0.0018141001,-0.0021377476,-0.5774754,0.0,0.0,0.0,0.0,0
829516000,0,0.81640756,-0.0018103598,-0.002140207,-0.5774772,0.0,0.0,0.0,0.0,0
829524000,0,0.81640786,-0.0018130675,-0.002138385,-0.5774768,0.0,0.0,0.0,0.0,0
829536000,0,0.8164089,-0.0018620106,-0.00210419,-0.5774753,0.0,0.0,0.0,0.0,0
829544000,0,0.816409,-0.0018643858,-0.0021025205,-0.57747513,0.0,0.0,0.0,0.0,0
829556000,0,0.81640816,-0.0018092332,-0.002141417,-0.5774763,0.0,0.0,0.0,0.0,0
829564000,0,0.81640863,-0.0017888795,-0.0021563664,-0.57747567,0.0,0.0,0.0,0.0,0
829576000,0,0.8164087,-0.0018509971,-0.0021120794,-0.5774756,0.0,0.0,0.0,0.0,0
829584000,0,0.8164088,-0.0018532622,-0.0021104615,-0.5774754,0.0,0.0,0.0,0.0,0
829596000,0,0.81640816,-0.0018126259,-0.0021391886,-0.5774763,0.0,0.0,0.0,0.0,0
829600000,0,0.816409,-0.0018584396,-0.0021067695,-0.5774752,0.0,0.0,0.0,0.0,0
829612000,0,0.81640834,-0.0018181293,-0.0021351988,-0.5774761,0.0,0.0,0.0,0.0,0
829620000,0,0.8164082,-0.0018060508,-0.0021436238,-0.5774763,0.0,0.0,0.0,0.0,0
829632000,0,0.8164089,-0.001844619,-0.002116914,-0.5774753,0.0,0.0,0.0,0.0,0
829640000,0,0.8164087,-0.0018471864,-0.0021150599,-0.5774756,0.0,0.0,0.0,0.0,0
829656000,0,0.8164089,-0.0018522512,-0.002111461,-0.5774753,0.0,0.0,0.0,0.0,0
829664000,0,0.816409,-0.0018549475,-0.0021095432,-0.5774752,0.0,0.0,0.0,0.0,0
829676000,0,0.8164084,-0.0018153656,-0.0021376938,-0.5774761,0.0,0.0,0.0,0.0,0
829684000,0,0.81640846,-0.0018178817,-0.0021359064,-0.57747597,0.0,0.0,0.0,0.0,0
829692000,0,0.8164083,-0.0018058565,-0.0021440396,-0.5774762,0.0,0.0,0.0,0.0,0
829704000,0,0.81640744,-0.0018109351,-0.0021406272,-0.5774774,0.0,0.0,0.0,0.0,0
829716000,0,0.81640863,-0.0018598427,-0.0021060302,-0.5774757,0.0,0.0,0.0,0.0,0
829724000,0,0.81640875,-0.0018623126,-0.002104462,-0.5774755,0.0,0.0,0.0,0.0,0
829736000,0,0.81640816,-0.001821449,-0.0021333562,-0.5774764,0.0,0.0,0.0,0.0,0
829744000,0,0.81640804,-0.0018094099,-0.0021415863,-0.57747656,0.0,0.0,0.0,0.0,0
829756000,0,0.81640875,-0.0018486256,-0.002114505,-0.57747555,0.0,0.0,0.0,0.0,0
829760000,0,0.8164076,-0.0018042487,-0.0021457786,-0.5774771,0.0,0.0,0.0,0.0,0
829776000,0,0.8164079,-0.001809755,-0.0021418654,-0.5774767,0.0,0.0,0.0,0.0,0
829780000,0,0.81640875,-0.0018558182,-0.0021092233,-0.5774755,0.0,0.0,0.0,0.0,0
829796000,0,0.81640893,-0.0018608522,-0.002105667,-0.57747525,0.0,0.0,0.0,0.0,0
829800000,0,0.8164082,-0.0018180155,-0.0021359348,-0.57747626,0.0,0.0,0.0,0.0,0
829812000,0,0.81640816,-0.0017965757,-0.002151179,-0.5774763,0.0,0.0,0.0,0.0,0
829824000,0,0.8164082,-0.0018582616,-0.0021074181,-0.57747626,0.0,0.0,0.0,0.0,0
829836000,0,0.8164078,-0.0018167028,-0.0021368149,-0.5774769,0.0,0.0,0.0,0.0,0
829844000,0,0.8164079,-0.0018194116,-0.0021349979,-0.5774767,0.0,0.0,0.0,0.0,0
829856000,0,0.8164084,-0.0018187487,-0.0021355303,-0.577476,0.0,0.0,0.0,0.0,0
829864000,0,0.81640804,-0.0018003006,-0.0021488054,-0.57747656,0.0,0.0,0.0,0.0,0
829872000,0,0.81640863,-0.0018486991,-0.002114974,-0.5774757,0.0,0.0,0.0,0.0,0
829884000,0,0.8164077,-0.0018070798,-0.0021441204,-0.57747704,0.0,0.0,0.0,0.0,0
829896000,0,0.81640863,-0.0018561035,-0.0021094114,-0.57747567,0.0,0.0,0.0,0.0,0
829900000,0,0.8164079,-0.0018128998,-0.0021400081,-0.57747674,0.0,0.0,0.0,0.0,0
829912000,0,0.8164088,-0.0018612707,-0.0021057064,-0.5774754,0.0,0.0,0.0,0.0,0
829920000,0,0.8164084,-0.0018151498,-0.002138264,-0.577476,0.0,0.0,0.0,0.0,0
829936000,0,0.81640863,-0.00184628,-0.002116616,-0.5774757,0.0,0.0,0.0,0.0,0
829944000,0,0.8164084,-0.0018486833,-0.0021149067,-0.577476,0.0,0.0,0.0,0.0,0
829956000,0,0.8164078,-0.0018080362,-0.0021436156,-0.57747686,0.0,0.0,0.0,0.0,0
829964000,0,0.8164079,-0.0018110344,-0.002141557,-0.57747674,0.0,0.0,0.0,0.0,0
829976000,0,0.81640875,-0.001859022,-0.002107653,-0.5774755,0.0,0.0,0.0,0.0,0
829980000,0,0.81640804,-0.0018166064,-0.0021377055,-0.5774765,0.0,0.0,0.0,0.0,0
829996000,0,0.816408,-0.0018071374,-0.002144137,-0.5774766,0.0,0.0,0.0,0.0,0
830004000,0,0.8164084,-0.0017867347,-0.0021592004,-0.577476,0.0,0.0,0.0,0.0,0
830016000,0,0.8164084,-0.0018478547,-0.002115759,-0.57747597,0.0,0.0,0.0,0.0,0
830024000,0,0.8164086,-0.0018502877,-0.0021140624,-0.5774758,0.0,0.0,0.0,0.0,0
830036000,0,0.8164079,-0.0018106684,-0.0021423458,-0.5774767,0.0,0.0,0.0,0.0,0
830040000,0,0.81640875,-0.0018557699,-0.0021102398,-0.57747555,0.0,0.0,0.0,0.0,0
830056000,0,0.8164089,-0.0018610492,-0.0021065788,-0.57747537,0.0,0.0,0.0,0.0,0
830064000,0,0.81640846,-0.0018150969,-0.002138586,-0.5774759,0.0,0.0,0.0,0.0,0
830076000,0,0.8164082,-0.0018564358,-0.0021095793,-0.57747626,0.0,0.0,0.0,0.0,0
830084000,0,0.8164081,-0.0018587806,-0.0021079471,-0.5774764,0.0,0.0,0.0,0.0,0
830096000,0,0.8164076,-0.0018169754,-0.002137581,-0.57747716,0.0,0.0,0.0,0.0,0
830100000,0,0.81640846,-0.001863324,-0.0021049315,-0.5774759,0.0,0.0,0.0,0.0,0
830116000,0,0.8164082,-0.0018190283,-0.0021361175,-0.57747626,0.0,0.0,0.0,0.0,0
830124000,0,0.81640786,-0.0018007178,-0.0021493267,-0.5774768,0.0,0.0,0.0,0.0,0
830136000,0,0.8164074,-0.0018051778,-0.0021463358,-0.57747746,0.0,0.0,0.0,0.0,0
830144000,0,0.81640756,-0.0018078124,-0.0021444494,-0.5774772,0.0,0.0,0.0,0.0,0
830156000,0,0.8164085,-0.0018564397,-0.002110265,-0.57747585,0.0,0.0,0.0,0.0,0
830164000,0,0.8164086,-0.0018590109,-0.0021084817,-0.5774757,0.0,0.0,0.0,0.0,0
830176000,0,0.816408,-0.0018188033,-0.0021366929,-0.5774766,0.0,0.0,0.0,0.0,0
830184000,0,0.81640786,-0.0018071402,-0.0021449057,-0.5774768,0.0,0.0,0.0,0.0,0
830196000,0,0.816407,-0.0018119834,-0.0021413162,-0.577478,0.0,0.0,0.0,0.0,0
830204000,0,0.8164073,-0.0018146749,-0.0021395287,-0.5774776,0.0,0.0,0.0,0.0,0
830216000,0,0.81640834,-0.0018635226,-0.0021053376,-0.57747614,0.0,0.0,0.0,0.0,0
830224000,0,0.81640846,-0.001865946,-0.0021035862,-0.57747597,0.0,0.0,0.0,0.0,0
830236000,0,0.8164076,-0.0018109112,-0.00214256,-0.57747716,0.0,0.0,0.0,0.0,0
830244000,0,0.8164081,-0.0017907561,-0.002157385,-0.5774765,0.0,0.0,0.0,0.0,0
830256000,0,0.8164081,-0.0018526523,-0.0021132368,-0.57747644,0.0,0.0,0.0,0.0,0
830264000,0,0.8164082,-0.0018549296,-0.0021116158,-0.5774762,0.0,0.0,0.0,0.0,0
830272000,0,0.81640834,-0.0018574281,-0.00210992,-0.5774761,0.0,0.0,0.0,0.0,0
830280000,0,0.8164084,-0.0018599373,-0.0021082244,-0.577476,0.0,0.0,0.0,0.0,0
830296000,0,0.8164081,-0.0018163655,-0.002138698,-0.57747644,0.0,0.0,0.0,0.0,0
830304000,0,0.81640774,-0.0017981163,-0.002151903,-0.577477,0.0,0.0,0.0,0.0,0
830316000,0,0.8164072,-0.0018029049,-0.0021489577,-0.5774777,0.0,0.0,0.0,0.0,0
830324000,0,0.8164074,-0.0018056249,-0.0021470827,-0.57747746,0.0,0.0,0.0,0.0,0
830336000,0,0.81640834,-0.0018538776,-0.0021128545,-0.57747614,0.0,0.0,0.0,0.0,0
830344000,0,0.8164084,-0.0018565776,-0.0021109534,-0.577476,0.0,0.0,0.0,0.0,0
830352000,0,0.81640846,-0.0018591742,-0.002109106,-0.5774759,0.0,0.0,0.0,0.0,0
830360000,0,0.8164085,-0.0018616474,-0.0021073374,-0.5774758,0.0,0.0,0.0,0.0,0
830376000,0,0.81640774,-0.0017978343,-0.0021524958,-0.5774769,0.0,0.0,0.0,0.0,0
830384000,0,0.81640685,-0.0018125735,-0.0021420117,-0.57747823,0.0,0.0,0.0,0.0,0
830396000,0,0.816408,-0.0018613975,-0.0021076212,-0.57747656,0.0,0.0,0.0,0.0,0
830400000,0,0.8164073,-0.0018178871,-0.0021383383,-0.5774776,0.0,0.0,0.0,0.0,0
830416000,0,0.81640756,-0.0018228741,-0.0021349492,-0.5774772,0.0,0.0,0.0,0.0,0
830420000,0,0.8164079,-0.0018195093,-0.0021370195,-0.57747674,0.0,0.0,0.0,0.0,0
830436000,0,0.81640816,-0.0018501714,-0.0021159917,-0.5774764,0.0,0.0,0.0,0.0,0
830440000,0,0.816407,-0.0018058412,-0.0021472946,-0.57747793,0.0,0.0,0.0,0.0,0
830456000,0,0.8164074,-0.0018114097,-0.0021433814,-0.5774775,0.0,0.0,0.0,0.0,0
830460000,0,0.81640816,-0.0018571253,-0.0021109367,-0.5774763,0.0,0.0,0.0,0.0,0
830472000,0,0.81640756,-0.0018170116,-0.0021393106,-0.5774772,0.0,0.0,0.0,0.0,0
830480000,0,0.8164077,-0.0018194795,-0.0021375325,-0.5774771,0.0,0.0,0.0,0.0,0
830496000,0,0.81640774,-0.0018572428,-0.0021109655,-0.5774769,0.0,0.0,0.0,0.0,0
830504000,0,0.8164076,-0.0018594061,-0.0021094237,-0.5774771,0.0,0.0,0.0,0.0,0
830516000,0,0.8164072,-0.0018179342,-0.002138695,-0.57747775,0.0,0.0,0.0,0.0,0
830524000,0,0.8164073,-0.0018206001,-0.0021369068,-0.5774775,0.0,0.0,0.0,0.0,0
830536000,0,0.8164078,-0.0018198538,-0.0021375266,-0.57747686,0.0,0.0,0.0,0.0,0
830540000,0,0.8164073,-0.0018112401,-0.0021436203,-0.5774775,0.0,0.0,0.0,0.0,0
830552000,0,0.816408,-0.0018500611,-0.0021166161,-0.57747656,0.0,0.0,0.0,0.0,0
830564000,0,0.8164071,-0.0018085066,-0.0021458617,-0.5774779,0.0,0.0,0.0,0.0,0
830572000,0,0.8164072,-0.0018114309,-0.0021437893,-0.5774777,0.0,0.0,0.0,0.0,0
830584000,0,0.81640816,-0.001859956,-0.0021093525,-0.5774764,0.0,0.0,0.0,0.0,0
830592000,0,0.8164082,-0.0018624758,-0.0021075136,-0.57747626,0.0,0.0,0.0,0.0,0
830600000,0,0.8164078,-0.001816386,-0.0021401434,-0.57747686,0.0,0.0,0.0,0.0,0
830612000,0,0.8164076,-0.0018579096,-0.0021108894,-0.57747716,0.0,0.0,0.0,0.0,0
830620000,0,0.81640744,-0.0018601937,-0.0021093134,-0.57747734,0.0,0.0,0.0,0.0,0
830632000,0,0.816407,-0.0018189,-0.0021386135,-0.577478,0.0,0.0,0.0,0.0,0
830644000,0,0.8164079,-0.0018666587,-0.0021050088,-0.5774766,0.0,0.0,0.0,0.0,0
830652000,0,0.8164076,-0.0018205901,-0.0021374081,-0.57747716,0.0,0.0,0.0,0.0,0
830664000,0,0.8164076,-0.0017913532,-0.002158795,-0.57747716,0.0,0.0,0.0,0.0,0
830672000,0,0.8164068,-0.0018064601,-0.002148124,-0.57747835,0.0,0.0,0.0,0.0,0
830684000,0,0.8164078,-0.0018545082,-0.002113951,-0.57747686,0.0,0.0,0.0,0.0,0
830692000,0,0.81640786,-0.0018570544,-0.002112177,-0.57747674,0.0,0.0,0.0,0.0,0
830700000,0,0.816408,-0.001859625,-0.002110373,-0.5774766,0.0,0.0,0.0,0.0,0
830716000,0,0.8164077,-0.0018164148,-0.0021406251,-0.57747704,0.0,0.0,0.0,0.0,0
830724000,0,0.81640726,-0.0017981128,-0.0021537994,-0.57747763,0.0,0.0,0.0,0.0,0
830736000,0,0.8164067,-0.00180259,-0.002150966,-0.57747835,0.0,0.0,0.0,0.0,0
830744000,0,0.8164069,-0.0018051143,-0.0021491323,-0.5774781,0.0,0.0,0.0,0.0,0
830756000,0,0.81640786,-0.0018541334,-0.0021145644,-0.57747674,0.0,0.0,0.0,0.0,0
830764000,0,0.8164079,-0.0018567534,-0.0021126238,-0.5774766,0.0,0.0,0.0,0.0,0
830776000,0,0.8164073,-0.0018166578,-0.0021408931,-0.5774776,0.0,0.0,0.0,0.0,0
830784000,0,0.8164074,-0.0018191617,-0.002139123,-0.57747746,0.0,0.0,0.0,0.0,0
830796000,0,0.8164073,-0.0017979923,-0.0021540902,-0.5774775,0.0,0.0,0.0,0.0,0
830804000,0,0.8164064,-0.0018125698,-0.0021434366,-0.57747877,0.0,0.0,0.0,0.0,0
830816000,0,0.8164076,-0.0018614321,-0.0021092237,-0.5774771,0.0,0.0,0.0,0.0,0
830824000,0,0.81640774,-0.0018637769,-0.0021077343,-0.5774769,0.0,0.0,0.0,0.0,0
830832000,0,0.81640786,-0.0018660333,-0.0021062512,-0.5774767,0.0,0.0,0.0,0.0,0
830844000,0,0.8164071,-0.0018114108,-0.0021446808,-0.5774779,0.0,0.0,0.0,0.0,0
830852000,0,0.81640756,-0.0017910656,-0.0021596868,-0.5774772,0.0,0.0,0.0,0.0,0
830864000,0,0.81640756,-0.001852142,-0.0021164727,-0.5774772,0.0,0.0,0.0,0.0,0
830876000,0,0.81640697,-0.0018113416,-0.002145079,-0.577478,0.0,0.0,0.0,0.0,0
830880000,0,0.8164078,-0.0018570021,-0.0021129684,-0.57747686,0.0,0.0,0.0,0.0,0
830896000,0,0.816408,-0.0018621534,-0.0021091169,-0.5774766,0.0,0.0,0.0,0.0,0
830900000,0,0.81640726,-0.0018194251,-0.0021393632,-0.57747763,0.0,0.0,0.0,0.0,0
830916000,0,0.8164074,-0.0018578772,-0.0021118918,-0.57747746,0.0,0.0,0.0,0.0,0
830924000,0,0.81640726,-0.0018601904,-0.002110197,-0.57747763,0.0,0.0,0.0,0.0,0
830932000,0,0.81640744,-0.0018622531,-0.002108921,-0.57747734,0.0,0.0,0.0,0.0,0
830940000,0,0.8164076,-0.0018645354,-0.0021074992,-0.5774771,0.0,0.0,0.0,0.0,0
830952000,0,0.81640685,-0.0018093224,-0.0021464787,-0.57747823,0.0,0.0,0.0,0.0,0
830960000,0,0.8164073,-0.0017889121,-0.002161593,-0.5774776,0.0,0.0,0.0,0.0,0
830976000,0,0.81640667,-0.0018072191,-0.0021487183,-0.57747847,0.0,0.0,0.0,0.0,0
830984000,0,0.8164068,-0.001810189,-0.0021466871,-0.5774783,0.0,0.0,0.0,0.0,0
830996000,0,0.8164077,-0.001857895,-0.0021128089,-0.577477,0.0,0.0,0.0,0.0,0
831004000,0,0.81640774,-0.0018604321,-0.0021109977,-0.57747686,0.0,0.0,0.0,0.0,0
831012000,0,0.81640786,-0.0018628328,-0.0021092743,-0.57747674,0.0,0.0,0.0,0.0,0
831024000,0,0.816407,-0.0018088999,-0.0021472552,-0.577478,0.0,0.0,0.0,0.0,0
831032000,0,0.81640744,-0.001788686,-0.002162142,-0.5774774,0.0,0.0,0.0,0.0,0
831040000,0,0.81640655,-0.0018037724,-0.0021514683,-0.57747865,0.0,0.0,0.0,0.0,0
831056000,0,0.81640685,-0.0018092224,-0.0021474767,-0.5774782,0.0,0.0,0.0,0.0,0
831060000,0,0.8164076,-0.0018545643,-0.0021154303,-0.57747704,0.0,0.0,0.0,0.0,0
831072000,0,0.816407,-0.001814742,-0.002143466,-0.57747793,0.0,0.0,0.0,0.0,0
831080000,0,0.8164071,-0.0018172442,-0.0021416266,-0.5774779,0.0,0.0,0.0,0.0,0
831096000,0,0.8164072,-0.0018557365,-0.002114294,-0.5774777,0.0,0.0,0.0,0.0,0
831104000,0,0.8164071,-0.0018579346,-0.0021126694,-0.5774778,0.0,0.0,0.0,0.0,0
831116000,0,0.81640667,-0.0018164903,-0.0021422002,-0.57747847,0.0,0.0,0.0,0.0,0
831124000,0,0.8164068,-0.0018192643,-0.0021403078,-0.5774783,0.0,0.0,0.0,0.0,0
831136000,0,0.81640726,-0.0018186091,-0.0021407371,-0.57747763,0.0,0.0,0.0,0.0,0
831140000,0,0.8164068,-0.0018100222,-0.00214681,-0.5774783,0.0,0.0,0.0,0.0,0
831156000,0,0.8164064,-0.0018044895,-0.0021510345,-0.5774788,0.0,0.0,0.0,0.0,0
831160000,0,0.81640726,-0.0018507054,-0.0021185756,-0.5774776,0.0,0.0,0.0,0.0,0
831172000,0,0.8164067,-0.0018100599,-0.0021471123,-0.57747835,0.0,0.0,0.0,0.0,0
831180000,0,0.81640685,-0.0018129458,-0.0021450666,-0.5774782,0.0,0.0,0.0,0.0,0
831196000,0,0.816407,-0.0018182334,-0.0021412692,-0.57747793,0.0,0.0,0.0,0.0,0
831200000,0,0.8164074,-0.0018151369,-0.0021434587,-0.57747746,0.0,0.0,0.0,0.0,0
831216000,0,0.8164061,-0.0018114205,-0.0021458631,-0.5774793,0.0,0.0,0.0,0.0,0
831224000,0,0.81640637,-0.0018141487,-0.0021440617,-0.5774789,0.0,0.0,0.0,0.0,0
831236000,0,0.8164074,-0.0018629235,-0.0021096654,-0.5774774,0.0,0.0,0.0,0.0,0
831240000,0,0.81640667,-0.0018197461,-0.00214034,-0.57747847,0.0,0.0,0.0,0.0,0
831252000,0,0.81640714,-0.0018190527,-0.0021408033,-0.5774778,0.0,0.0,0.0,0.0,0
831264000,0,0.81640714,-0.0017905256,-0.0021615874,-0.5774778,0.0,0.0,0.0,0.0,0
831276000,0,0.81640714,-0.0018521971,-0.0021177921,-0.5774777,0.0,0.0,0.0,0.0,0
831284000,0,0.8164073,-0.0018544219,-0.002116242,-0.5774775,0.0,0.0,0.0,0.0,0
831296000,0,0.8164067,-0.0018144362,-0.0021444473,-0.5774784,0.0,0.0,0.0,0.0,0
831304000,0,0.8164068,-0.001817199,-0.0021425684,-0.5774783,0.0,0.0,0.0,0.0,0
831316000,0,0.8164072,-0.001816271,-0.0021429374,-0.5774777,0.0,0.0,0.0,0.0,0
831324000,0,0.81640685,-0.0017979939,-0.002156137,-0.57747823,0.0,0.0,0.0,0.0,0
831336000,0,0.81640685,-0.0018589587,-0.0021128224,-0.5774782,0.0,0.0,0.0,0.0,0
831344000,0,0.8164071,-0.0018610744,-0.0021114578,-0.5774778,0.0,0.0,0.0,0.0,0
831356000,0,0.81640655,-0.0018208802,-0.0021403022,-0.5774786,0.0,0.0,0.0,0.0,0
831364000,0,0.81640667,-0.0018233238,-0.002138629,-0.5774784,0.0,0.0,0.0,0.0,0
831376000,0,0.81640667,-0.0018015071,-0.0021539058,-0.57747847,0.0,0.0,0.0,0.0,0
831384000,0,0.81640726,-0.0018494406,-0.0021203218,-0.57747763,0.0,0.0,0.0,0.0,0
831392000,0,0.816407,-0.0018518777,-0.002118596,-0.57747793,0.0,0.0,0.0,0.0,0
831400000,0,0.8164072,-0.0018542007,-0.002116959,-0.5774777,0.0,0.0,0.0,0.0,0
831412000,0,0.8164066,-0.0018138817,-0.002145271,-0.5774786,0.0,0.0,0.0,0.0,0
831420000,0,0.81640667,-0.001816535,-0.0021433611,-0.57747847,0.0,0.0,0.0,0.0,0
831436000,0,0.8164066,-0.0018074414,-0.0021494855,-0.5774785,0.0,0.0,0.0,0.0,0
831444000,0,0.8164069,-0.0018573216,-0.0021142103,-0.5774781,0.0,0.0,0.0,0.0,0
831456000,0,0.81640613,-0.0018153946,-0.0021439907,-0.57747924,0.0,0.0,0.0,0.0,0
831464000,0,0.8164063,-0.0018182298,-0.0021421192,-0.57747895,0.0,0.0,0.0,0.0,0
831476000,0,0.81640726,-0.0018660566,-0.0021084808,-0.5774776,0.0,0.0,0.0,0.0,0
831480000,0,0.8164066,-0.0018232716,-0.0021386512,-0.5774785,0.0,0.0,0.0,0.0,0
831496000,0,0.81640697,-0.0017911941,-0.002161951,-0.57747805,0.0,0.0,0.0,0.0,0
831504000,0,0.81640613,-0.0018059417,-0.0021512215,-0.57747924,0.0,0.0,0.0,0.0,0
831516000,0,0.81640714,-0.0018542588,-0.0021173244,-0.57747775,0.0,0.0,0.0,0.0,0
831524000,0,0.8164072,-0.001856769,-0.0021155474,-0.57747763,0.0,0.0,0.0,0.0,0
831532000,0,0.8164073,-0.0018592944,-0.0021137304,-0.5774775,0.0,0.0,0.0,0.0,0
831540000,0,0.8164074,-0.0018617954,-0.0021118878,-0.5774774,0.0,0.0,0.0,0.0,0
831556000,0,0.81640667,-0.0017981163,-0.002156869,-0.57747847,0.0,0.0,0.0,0.0,0
831564000,0,0.8164058,-0.00181275,-0.0021460927,-0.5774798,0.0,0.0,0.0,0.0,0
831576000,0,0.8164069,-0.001861805,-0.002111415,-0.57747805,0.0,0.0,0.0,0.0,0
831584000,0,0.8164071,-0.0018642033,-0.0021098123,-0.5774778,0.0,0.0,0.0,0.0,0
831596000,0,0.8164063,-0.0018091867,-0.0021488876,-0.577479,0.0,0.0,0.0,0.0,0
831604000,0,0.8164068,-0.0017892541,-0.002163618,-0.5774783,0.0,0.0,0.0,0.0,0
831616000,0,0.8164068,-0.0018509516,-0.0021198746,-0.57747823,0.0,0.0,0.0,0.0,0
831620000,0,0.81640613,-0.0018074347,-0.002150573,-0.57747924,0.0,0.0,0.0,0.0,0
831636000,0,0.81640637,-0.0018133955,-0.0021464229,-0.5774789,0.0,0.0,0.0,0.0,0
831644000,0,0.8164065,-0.0018161682,-0.0021445202,-0.57747877,0.0,0.0,0.0,0.0,0
831656000,0,0.8164069,-0.0018152989,-0.0021448066,-0.5774782,0.0,0.0,0.0,0.0,0
831664000,0,0.8164065,-0.0017971189,-0.0021579177,-0.5774787,0.0,0.0,0.0,0.0,0
831676000,0,0.81640655,-0.0018580122,-0.0021146198,-0.5774786,0.0,0.0,0.0,0.0,0
831684000,0,0.8164068,-0.0018601227,-0.0021132466,-0.5774783,0.0,0.0,0.0,0.0,0
831696000,0,0.81640625,-0.0018200375,-0.002142002,-0.57747906,0.0,0.0,0.0,0.0,0
831704000,0,0.81640637,-0.0018224962,-0.0021402934,-0.5774789,0.0,0.0,0.0,0.0,0
831716000,0,0.81640637,-0.0018006129,-0.0021555822,-0.5774789,0.0,0.0,0.0,0.0,0
831720000,0,0.8164067,-0.0017899214,-0.0021635215,-0.5774784,0.0,0.0,0.0,0.0,0
831736000,0,0.816406,-0.0018075182,-0.0021509433,-0.57747936,0.0,0.0,0.0,0.0,0
831744000,0,0.8164062,-0.0018103407,-0.002148869,-0.5774792,0.0,0.0,0.0,0.0,0
831756000,0,0.8164071,-0.0018586492,-0.0021148114,-0.5774779,0.0,0.0,0.0,0.0,0
831764000,0,0.81640714,-0.0018611068,-0.0021129346,-0.5774777,0.0,0.0,0.0,0.0,0
831776000,0,0.8164063,-0.0018067795,-0.0021510585,-0.57747895,0.0,0.0,0.0,0.0,0
831784000,0,0.81640655,-0.001856315,-0.0021160226,-0.5774786,0.0,0.0,0.0,0.0,0
831796000,0,0.81640583,-0.0018145369,-0.002145645,-0.57747966,0.0,0.0,0.0,0.0,0
831804000,0,0.816406,-0.0018173907,-0.0021437414,-0.57747936,0.0,0.0,0.0,0.0,0
831812000,0,0.8164062,-0.0018200745,-0.0021419046,-0.5774791,0.0,0.0,0.0,0.0,0
831820000,0,0.8164063,-0.0018224998,-0.002140219,-0.57747895,0.0,0.0,0.0,0.0,0
831836000,0,0.81640667,-0.0017904174,-0.0021635077,-0.57747847,0.0,0.0,0.0,0.0,0
831844000,0,0.81640583,-0.0018051674,-0.0021527617,-0.57747966,0.0,0.0,0.0,0.0,0
831852000,0,0.816406,-0.0018077593,-0.0021509184,-0.57747936,0.0,0.0,0.0,0.0,0
831864000,0,0.81640697,-0.0018560063,-0.0021170585,-0.57747805,0.0,0.0,0.0,0.0,0
831876000,0,0.8164063,-0.0018161671,-0.0021449483,-0.57747895,0.0,0.0,0.0,0.0,0
831880000,0,0.81640714,-0.0018612072,-0.0021131972,-0.57747775,0.0,0.0,0.0,0.0,0
831892000,0,0.8164063,-0.0018070876,-0.0021513123,-0.577479,0.0,0.0,0.0,0.0,0
831904000,0,0.8164055,-0.0018122088,-0.00214748,-0.57748014,0.0,0.0,0.0,0.0,0
831916000,0,0.81640667,-0.0018613023,-0.0021127376,-0.57747847,0.0,0.0,0.0,0.0,0
831924000,0,0.8164068,-0.0018636448,-0.0021112135,-0.57747823,0.0,0.0,0.0,0.0,0
831936000,0,0.8164062,-0.0018230153,-0.0021400368,-0.57747906,0.0,0.0,0.0,0.0,0
831944000,0,0.81640613,-0.0018111003,-0.0021484017,-0.57747924,0.0,0.0,0.0,0.0,0
831956000,0,0.8164068,-0.0018495427,-0.0021218369,-0.57747823,0.0,0.0,0.0,0.0,0
831964000,0,0.8164066,-0.0018518993,-0.002120146,-0.5774785,0.0,0.0,0.0,0.0,0
831976000,0,0.8164061,-0.0018116676,-0.0021486208,-0.5774793,0.0,0.0,0.0,0.0,0
831984000,0,0.8164062,-0.00181452,-0.0021466617,-0.5774791,0.0,0.0,0.0,0.0,0
831996000,0,0.816407,-0.0018615361,-0.0021132566,-0.5774779,0.0,0.0,0.0,0.0,0
832004000,0,0.81640667,-0.0018162249,-0.0021450962,-0.5774784,0.0,0.0,0.0,0.0,0
832012000,0,0.8164063,-0.0017980837,-0.0021581554,-0.57747895,0.0,0.0,0.0,0.0,0
832024000,0,0.81640637,-0.0018588805,-0.002114883,-0.5774789,0.0,0.0,0.0,0.0,0
832036000,0,0.8164059,-0.0018181356,-0.0021440908,-0.57747954,0.0,0.0,0.0,0.0,0
832044000,0,0.8164061,-0.0018207341,-0.002142292,-0.5774793,0.0,0.0,0.0,0.0,0
832056000,0,0.8164065,-0.0018195759,-0.0021426675,-0.57747865,0.0,0.0,0.0,0.0,0
832060000,0,0.8164061,-0.0018110033,-0.002148758,-0.5774793,0.0,0.0,0.0,0.0,0
832072000,0,0.8164067,-0.0018497198,-0.0021220883,-0.57747835,0.0,0.0,0.0,0.0,0
832084000,0,0.81640583,-0.0018082808,-0.002151135,-0.5774796,0.0,0.0,0.0,0.0,0
832096000,0,0.8164068,-0.0018567862,-0.0021168722,-0.57747823,0.0,0.0,0.0,0.0,0
832104000,0,0.8164069,-0.0018592695,-0.0021150443,-0.5774781,0.0,0.0,0.0,0.0,0
832112000,0,0.81640697,-0.0018616172,-0.0021133393,-0.577478,0.0,0.0,0.0,0.0,0
832120000,0,0.8164066,-0.0018160668,-0.002145358,-0.57747847,0.0,0.0,0.0,0.0,0
832136000,0,0.81640536,-0.0018124464,-0.0021478536,-0.5774803,0.0,0.0,0.0,0.0,0
832144000,0,0.81640565,-0.0018151129,-0.0021460287,-0.5774799,0.0,0.0,0.0,0.0,0
832156000,0,0.8164067,-0.0018634223,-0.0021121835,-0.57747835,0.0,0.0,0.0,0.0,0
832160000,0,0.816406,-0.0018205419,-0.0021423597,-0.57747936,0.0,0.0,0.0,0.0,0
832176000,0,0.8164061,-0.0018112544,-0.0021489598,-0.5774793,0.0,0.0,0.0,0.0,0
832184000,0,0.8164065,-0.0017909775,-0.0021638947,-0.5774787,0.0,0.0,0.0,0.0,0
832192000,0,0.81640565,-0.0018057553,-0.0021531056,-0.5774799,0.0,0.0,0.0,0.0,0
832200000,0,0.81640583,-0.0018083018,-0.002151301,-0.5774796,0.0,0.0,0.0,0.0,0
832216000,0,0.8164061,-0.0018139073,-0.0021473567,-0.5774793,0.0,0.0,0.0,0.0,0
832224000,0,0.81640613,-0.0018166162,-0.0021453954,-0.5774792,0.0,0.0,0.0,0.0,0
832236000,0,0.8164066,-0.0018160265,-0.002145712,-0.5774786,0.0,0.0,0.0,0.0,0
832240000,0,0.81640613,-0.0018076288,-0.0021516322,-0.57747924,0.0,0.0,0.0,0.0,0
832256000,0,0.81640625,-0.0018598397,-0.002114463,-0.577479,0.0,0.0,0.0,0.0,0
832264000,0,0.8164065,-0.0018618449,-0.002113211,-0.5774787,0.0,0.0,0.0,0.0,0
832272000,0,0.8164066,-0.0018640334,-0.0021117923,-0.57747847,0.0,0.0,0.0,0.0,0
832284000,0,0.81640583,-0.0018091231,-0.002150557,-0.5774796,0.0,0.0,0.0,0.0,0
832296000,0,0.81640655,-0.0018474605,-0.0021240658,-0.5774786,0.0,0.0,0.0,0.0,0
832304000,0,0.81640637,-0.0018498569,-0.002122357,-0.5774788,0.0,0.0,0.0,0.0,0
832316000,0,0.81640583,-0.0018097641,-0.002150765,-0.57747966,0.0,0.0,0.0,0.0,0
832324000,0,0.81640595,-0.0018126947,-0.0021487381,-0.5774795,0.0,0.0,0.0,0.0,0
832332000,0,0.8164061,-0.001815451,-0.0021467982,-0.5774793,0.0,0.0,0.0,0.0,0
832340000,0,0.81640613,-0.001818012,-0.002144972,-0.5774792,0.0,0.0,0.0,0.0,0
832356000,0,0.8164061,-0.001808483,-0.0021512792,-0.57747924,0.0,0.0,0.0,0.0,0
832364000,0,0.81640655,-0.0017882169,-0.0021661876,-0.57747865,0.0,0.0,0.0,0.0,0
832376000,0,0.8164065,-0.0018489431,-0.0021230346,-0.57747865,0.0,0.0,0.0,0.0,0
832384000,0,0.81640667,-0.0018513824,-0.0021213258,-0.5774784,0.0,0.0,0.0,0.0,0
832392000,0,0.8164068,-0.0018540631,-0.0021194313,-0.5774783,0.0,0.0,0.0,0.0,0
832400000,0,0.81640685,-0.0018567166,-0.0021175174,-0.5774782,0.0,0.0,0.0,0.0,0
832416000,0,0.8164066,-0.0018136508,-0.0021474557,-0.5774786,0.0,0.0,0.0,0.0,0
832420000,0,0.81640613,-0.0018051718,-0.0021534492,-0.57747924,0.0,0.0,0.0,0.0,0
832432000,0,0.8164053,-0.0018103421,-0.0021498695,-0.5774804,0.0,0.0,0.0,0.0,0
832444000,0,0.8164065,-0.001859183,-0.0021154673,-0.5774787,0.0,0.0,0.0,0.0,0
832452000,0,0.8164066,-0.0018615157,-0.002113929,-0.57747847,0.0,0.0,0.0,0.0,0
832460000,0,0.8164068,-0.001863834,-0.0021123562,-0.5774783,0.0,0.0,0.0,0.0,0
832472000,0,0.816406,-0.0018094734,-0.0021506757,-0.5774794,0.0,0.0,0.0,0.0,0
832480000,0,0.8164064,-0.0017893562,-0.0021655047,-0.57747877,0.0,0.0,0.0,0.0,0
832492000,0,0.8164065,-0.0018502392,-0.0021223053,-0.5774787,0.0,0.0,0.0,0.0,0
832504000,0,0.81640595,-0.001809745,-0.0021507433,-0.5774795,0.0,0.0,0.0,0.0,0
832516000,0,0.81640685,-0.0018576104,-0.0021171235,-0.5774782,0.0,0.0,0.0,0.0,0
832524000,0,0.8164069,-0.0018601285,-0.0021153,-0.57747805,0.0,0.0,0.0,0.0,0
832536000,0,0.8164061,-0.0018063001,-0.0021530602,-0.57747924,0.0,0.0,0.0,0.0,0
832544000,0,0.8164063,-0.00185578,-0.002118052,-0.5774789,0.0,0.0,0.0,0.0,0
832552000,0,0.8164062,-0.0018580757,-0.0021162806,-0.57747906,0.0,0.0,0.0,0.0,0
832560000,0,0.8164064,-0.0018602299,-0.00211483,-0.5774787,0.0,0.0,0.0,0.0,0
832572000,0,0.8164059,-0.0018195015,-0.002143775,-0.57747954,0.0,0.0,0.0,0.0,0
832580000,0,0.816406,-0.0018220049,-0.0021420578,-0.57747936,0.0,0.0,0.0,0.0,0
832592000,0,0.816406,-0.0018008013,-0.002157216,-0.57747936,0.0,0.0,0.0,0.0,0
832604000,0,0.81640553,-0.0018058347,-0.0021537757,-0.57748,0.0,0.0,0.0,0.0,0
832616000,0,0.81640655,-0.0018538515,-0.0021198404,-0.5774786,0.0,0.0,0.0,0.0,0
832624000,0,0.81640667,-0.001856412,-0.0021180436,-0.5774784,0.0,0.0,0.0,0.0,0
832636000,0,0.8164061,-0.0018168085,-0.0021460517,-0.5774793,0.0,0.0,0.0,0.0,0
832644000,0,0.81640613,-0.0018192977,-0.0021442678,-0.5774792,0.0,0.0,0.0,0.0,0
832656000,0,0.81640613,-0.0017978246,-0.0021593883,-0.57747924,0.0,0.0,0.0,0.0,0
832660000,0,0.81640625,-0.0018563163,-0.0021178264,-0.577479,0.0,0.0,0.0,0.0,0
832672000,0,0.81640553,-0.0018151836,-0.0021471858,-0.5774801,0.0,0.0,0.0,0.0,0
832684000,0,0.81640655,-0.0018630276,-0.0021133183,-0.5774786,0.0,0.0,0.0,0.0,0
832696000,0,0.816406,-0.0018229974,-0.0021419213,-0.5774794,0.0,0.0,0.0,0.0,0
832704000,0,0.8164059,-0.0018108918,-0.002150079,-0.57747954,0.0,0.0,0.0,0.0,0
832716000,0,0.81640655,-0.0018492434,-0.0021235254,-0.5774786,0.0,0.0,0.0,0.0,0
832724000,0,0.81640637,-0.0018515359,-0.0021218387,-0.5774789,0.0,0.0,0.0,0.0,0
832732000,0,0.8164065,-0.0018536905,-0.0021202576,-0.57747865,0.0,0.0,0.0,0.0,0
832744000,0,0.8164059,-0.0018136236,-0.0021485088,-0.5774795,0.0,0.0,0.0,0.0,0
832756000,0,0.8164068,-0.0018611976,-0.0021148608,-0.57747823,0.0,0.0,0.0,0.0,0
832764000,0,0.8164064,-0.0018155081,-0.0021467363,-0.57747877,0.0,0.0,0.0,0.0,0
832776000,0,0.8164062,-0.0018564198,-0.0021178962,-0.57747906,0.0,0.0,0.0,0.0,0
832784000,0,0.81640613,-0.0018586196,-0.0021163458,-0.5774792,0.0,0.0,0.0,0.0,0
832796000,0,0.81640565,-0.0018173798,-0.0021456361,-0.57747984,0.0,0.0,0.0,0.0,0
832804000,0,0.81640583,-0.001820024,-0.0021438587,-0.5774796,0.0,0.0,0.0,0.0,0
832816000,0,0.8164063,-0.0018193419,-0.0021443123,-0.57747895,0.0,0.0,0.0,0.0,0
832824000,0,0.81640595,-0.0018012131,-0.0021573438,-0.5774794,0.0,0.0,0.0,0.0,0
832832000,0,0.81640655,-0.0018491163,-0.002123823,-0.57747865,0.0,0.0,0.0,0.0,0
832840000,0,0.8164063,-0.0018513527,-0.002122148,-0.5774789,0.0,0.0,0.0,0.0,0
832856000,0,0.8164066,-0.0018560753,-0.0021187891,-0.5774785,0.0,0.0,0.0,0.0,0
832860000,0,0.81640595,-0.001813658,-0.002148526,-0.5774795,0.0,0.0,0.0,0.0,0
832876000,0,0.8164061,-0.0018187392,-0.0021448894,-0.5774793,0.0,0.0,0.0,0.0,0
832884000,0,0.81640595,-0.0018071701,-0.0021530164,-0.5774795,0.0,0.0,0.0,0.0,0
832892000,0,0.8164062,-0.0018569363,-0.0021177018,-0.57747906,0.0,0.0,0.0,0.0,0
832900000,0,0.8164061,-0.0018591661,-0.0021160664,-0.57747924,0.0,0.0,0.0,0.0,0
832916000,0,0.8164065,-0.0018635537,-0.0021131143,-0.5774787,0.0,0.0,0.0,0.0,0
832924000,0,0.81640613,-0.0018171524,-0.0021459702,-0.5774792,0.0,0.0,0.0,0.0,0
832936000,0,0.8164062,-0.001788367,-0.002166963,-0.5774791,0.0,0.0,0.0,0.0,0
832944000,0,0.81640536,-0.0018037901,-0.0021558611,-0.5774803,0.0,0.0,0.0,0.0,0
832956000,0,0.81640637,-0.0018519136,-0.0021218227,-0.5774788,0.0,0.0,0.0,0.0,0
832964000,0,0.8164065,-0.0018545763,-0.002119947,-0.57747865,0.0,0.0,0.0,0.0,0
832972000,0,0.8164066,-0.0018571739,-0.00211811,-0.5774785,0.0,0.0,0.0,0.0,0
832980000,0,0.81640667,-0.0018596875,-0.002116324,-0.5774784,0.0,0.0,0.0,0.0,0
832992000,0,0.81640583,-0.0018058742,-0.0021540564,-0.5774796,0.0,0.0,0.0,0.0,0
833000000,0,0.8164061,-0.0018547174,-0.002119522,-0.57747924,0.0,0.0,0.0,0.0,0
833016000,0,0.8164062,-0.0018591605,-0.0021165062,-0.57747906,0.0,0.0,0.0,0.0,0
833020000,0,0.81640553,-0.001816483,-0.0021469668,-0.57748,0.0,0.0,0.0,0.0,0
833036000,0,0.81640583,-0.0018215263,-0.0021434624,-0.57747966,0.0,0.0,0.0,0.0,0
833040000,0,0.8164062,-0.0018180835,-0.0021454613,-0.5774792,0.0,0.0,0.0,0.0,0
833052000,0,0.8164062,-0.0017893639,-0.0021663862,-0.5774792,0.0,0.0,0.0,0.0,0
833060000,0,0.8164053,-0.001804442,-0.0021556758,-0.5774804,0.0,0.0,0.0,0.0,0
833072000,0,0.81640637,-0.0018526713,-0.0021214979,-0.5774789,0.0,0.0,0.0,0.0,0
833084000,0,0.8164058,-0.0018127363,-0.002149637,-0.5774797,0.0,0.0,0.0,0.0,0
833096000,0,0.8164066,-0.0018602597,-0.0021160475,-0.57747847,0.0,0.0,0.0,0.0,0
833104000,0,0.8164063,-0.0018147682,-0.0021478436,-0.577479,0.0,0.0,0.0,0.0,0
833116000,0,0.8164061,-0.0018557055,-0.0021189947,-0.5774793,0.0,0.0,0.0,0.0,0
833124000,0,0.81640595,-0.0018578972,-0.0021174373,-0.5774794,0.0,0.0,0.0,0.0,0
833136000,0,0.81640553,-0.0018167159,-0.0021466569,-0.5774801,0.0,0.0,0.0,0.0,0
833144000,0,0.81640565,-0.0018193773,-0.0021448634,-0.57747984,0.0,0.0,0.0,0.0,0
833156000,0,0.8164062,-0.0018187392,-0.0021452846,-0.5774791,0.0,0.0,0.0,0.0,0
833164000,0,0.8164058,-0.0018005511,-0.0021583484,-0.57747966,0.0,0.0,0.0,0.0,0
833176000,0,0.8164053,-0.0018047871,-0.0021553705,-0.5774804,0.0,0.0,0.0,0.0,0
833180000,0,0.8164062,-0.001850654,-0.002123168,-0.5774791,0.0,0.0,0.0,0.0,0
833196000,0,0.8164064,-0.001855481,-0.0021196925,-0.5774787,0.0,0.0,0.0,0.0,0
833204000,0,0.81640655,-0.0018581694,-0.0021176895,-0.5774786,0.0,0.0,0.0,0.0,0
833212000,0,0.8164066,-0.0018607683,-0.0021157067,-0.57747847,0.0,0.0,0.0,0.0,0
833224000,0,0.8164058,-0.0018067822,-0.002153791,-0.57747966,0.0,0.0,0.0,0.0,0
833232000,0,0.8164061,-0.0018565976,-0.002118513,-0.5774793,0.0,0.0,0.0,0.0,0
833240000,0,0.81640595,-0.0018588407,-0.0021168569,-0.5774794,0.0,0.0,0.0,0.0,0
833252000,0,0.8164055,-0.0018175856,-0.0021461658,-0.57748014,0.0,0.0,0.0,0.0,0
833260000,0,0.8164056,-0.0018203717,-0.0021442815,-0.5774799,0.0,0.0,0.0,0.0,0
833276000,0,0.81640565,-0.0018107962,-0.0021509703,-0.5774799,0.0,0.0,0.0,0.0,0
833284000,0,0.81640613,-0.0017902189,-0.0021661331,-0.57747924,0.0,0.0,0.0,0.0,0
833296000,0,0.81640613,-0.0018509951,-0.00212296,-0.5774792,0.0,0.0,0.0,0.0,0
833304000,0,0.8164063,-0.0018532715,-0.0021213556,-0.57747895,0.0,0.0,0.0,0.0,0
833316000,0,0.8164057,-0.0018136255,-0.0021494152,-0.5774798,0.0,0.0,0.0,0.0,0
833324000,0,0.81640583,-0.0018163432,-0.0021475048,-0.57747966,0.0,0.0,0.0,0.0,0
833336000,0,0.81640625,-0.0018154575,-0.002147749,-0.57747906,0.0,0.0,0.0,0.0,0
833344000,0,0.81640583,-0.0017973202,-0.002160817,-0.5774796,0.0,0.0,0.0,0.0,0
833356000,0,0.8164059,-0.0018581327,-0.0021175826,-0.57747954,0.0,0.0,0.0,0.0,0
833364000,0,0.81640613,-0.0018603143,-0.0021161544,-0.5774792,0.0,0.0,0.0,0.0,0
833372000,0,0.8164063,-0.001862721,-0.0021145893,-0.57747895,0.0,0.0,0.0,0.0,0
833384000,0,0.8164057,-0.0018222728,-0.0021432259,-0.5774798,0.0,0.0,0.0,0.0,0
833396000,0,0.8164057,-0.0018009052,-0.0021582604,-0.5774798,0.0,0.0,0.0,0.0,0
833404000,0,0.8164063,-0.0018490318,-0.0021245386,-0.57747895,0.0,0.0,0.0,0.0,0
833416000,0,0.8164054,-0.0018079225,-0.002153504,-0.5774802,0.0,0.0,0.0,0.0,0
833424000,0,0.8164056,-0.0018107769,-0.0021514627,-0.57748,0.0,0.0,0.0,0.0,0
833436000,0,0.8164065,-0.0018585728,-0.0021177381,-0.5774787,0.0,0.0,0.0,0.0,0
833444000,0,0.81640655,-0.0018610806,-0.0021159071,-0.5774786,0.0,0.0,0.0,0.0,0
833456000,0,0.8164058,-0.0018070951,-0.0021537966,-0.5774797,0.0,0.0,0.0,0.0,0
833464000,0,0.81640595,-0.001856462,-0.0021189654,-0.5774794,0.0,0.0,0.0,0.0,0
833476000,0,0.81640524,-0.0018145903,-0.0021484983,-0.57748044,0.0,0.0,0.0,0.0,0
833480000,0,0.81640613,-0.0018605959,-0.002116073,-0.5774792,0.0,0.0,0.0,0.0,0
833496000,0,0.8164064,-0.0018650573,-0.0021130992,-0.57747877,0.0,0.0,0.0,0.0,0
833500000,0,0.8164057,-0.0018224921,-0.002143068,-0.5774797,0.0,0.0,0.0,0.0,0
833516000,0,0.8164061,-0.0017905255,-0.0021662398,-0.57747924,0.0,0.0,0.0,0.0,0
833524000,0,0.81640524,-0.001805357,-0.0021553924,-0.5774805,0.0,0.0,0.0,0.0,0
833536000,0,0.81640625,-0.0018535618,-0.002121401,-0.577479,0.0,0.0,0.0,0.0,0
833544000,0,0.81640637,-0.0018562013,-0.002119447,-0.5774788,0.0,0.0,0.0,0.0,0
833552000,0,0.8164065,-0.0018588118,-0.0021175551,-0.5774787,0.0,0.0,0.0,0.0,0
833560000,0,0.81640655,-0.001861306,-0.00211576,-0.5774786,0.0,0.0,0.0,0.0,0
833572000,0,0.8164057,-0.0018072805,-0.0021537913,-0.5774798,0.0,0.0,0.0,0.0,0
833580000,0,0.81640595,-0.0018570644,-0.002118534,-0.5774794,0.0,0.0,0.0,0.0,0
833592000,0,0.8164052,-0.0018154861,-0.0021479824,-0.5774805,0.0,0.0,0.0,0.0,0
833600000,0,0.8164054,-0.0018182738,-0.0021461488,-0.57748026,0.0,0.0,0.0,0.0,0
833616000,0,0.81640565,-0.0018232816,-0.0021427323,-0.57747984,0.0,0.0,0.0,0.0,0
833624000,0,0.8164056,-0.0018113302,-0.002151018,-0.57747996,0.0,0.0,0.0,0.0,0
833632000,0,0.8164061,-0.0017910777,-0.0021659653,-0.5774793,0.0,0.0,0.0,0.0,0
833644000,0,0.8164061,-0.0018517934,-0.0021228476,-0.57747924,0.0,0.0,0.0,0.0,0
833652000,0,0.8164062,-0.0018539379,-0.0021213465,-0.57747906,0.0,0.0,0.0,0.0,0
833664000,0,0.81640565,-0.0018143357,-0.002149402,-0.5774799,0.0,0.0,0.0,0.0,0
833676000,0,0.8164065,-0.0018612961,-0.0021160343,-0.57747865,0.0,0.0,0.0,0.0,0
833684000,0,0.81640613,-0.0018159691,-0.002147809,-0.5774792,0.0,0.0,0.0,0.0,0
833696000,0,0.8164059,-0.0018566267,-0.0021190797,-0.5774795,0.0,0.0,0.0,0.0,0
833704000,0,0.81640583,-0.0018589259,-0.002117496,-0.5774796,0.0,0.0,0.0,0.0,0
833712000,0,0.8164061,-0.001860944,-0.0021161584,-0.5774793,0.0,0.0,0.0,0.0,0
833724000,0,0.81640553,-0.00182033,-0.0021449877,-0.5774801,0.0,0.0,0.0,0.0,0
833732000,0,0.81640565,-0.001822732,-0.0021433244,-0.57747984,0.0,0.0,0.0,0.0,0
833744000,0,0.81640565,-0.001801272,-0.0021584227,-0.5774799,0.0,0.0,0.0,0.0,0
833756000,0,0.8164052,-0.0018056851,-0.0021555757,-0.57748055,0.0,0.0,0.0,0.0,0
833760000,0,0.816406,-0.0018514816,-0.0021232292,-0.5774793,0.0,0.0,0.0,0.0,0
833776000,0,0.8164063,-0.0018562855,-0.0021198273,-0.57747895,0.0,0.0,0.0,0.0,0
833780000,0,0.8164056,-0.0018137294,-0.0021498117,-0.5774799,0.0,0.0,0.0,0.0,0
833796000,0,0.81640583,-0.0018188495,-0.0021460922,-0.57747966,0.0,0.0,0.0,0.0,0
833804000,0,0.8164057,-0.001807272,-0.0021540942,-0.57747984,0.0,0.0,0.0,0.0,0
833812000,0,0.8164059,-0.0018565686,-0.0021192832,-0.5774795,0.0,0.0,0.0,0.0,0
833820000,0,0.81640583,-0.0018587022,-0.002117698,-0.5774796,0.0,0.0,0.0,0.0,0
833836000,0,0.8164062,-0.0018629109,-0.0021149698,-0.57747906,0.0,0.0,0.0,0.0,0
833840000,0,0.81640553,-0.0018202438,-0.0021450135,-0.57748,0.0,0.0,0.0,0.0,0
833856000,0,0.81640553,-0.0018107917,-0.0021517246,-0.57748,0.0,0.0,0.0,0.0,0
833864000,0,0.816406,-0.0017903893,-0.0021667178,-0.57747936,0.0,0.0,0.0,0.0,0
833872000,0,0.8164052,-0.0018052815,-0.0021558686,-0.5774806,0.0,0.0,0.0,0.0,0
833880000,0,0.81640536,-0.0018078624,-0.002154031,-0.5774803,0.0,0.0,0.0,0.0,0
833896000,0,0.8164056,-0.001813607,-0.0021498904,-0.57747996,0.0,0.0,0.0,0.0,0
833900000,0,0.8164064,-0.0018588825,-0.0021179293,-0.57747877,0.0,0.0,0.0,0.0,0
833912000,0,0.8164058,-0.0018189757,-0.0021460762,-0.57747966,0.0,0.0,0.0,0.0,0
833924000,0,0.8164058,-0.0017975862,-0.0021612947,-0.5774797,0.0,0.0,0.0,0.0,0
833936000,0,0.8164058,-0.001858523,-0.0021178771,-0.57747966,0.0,0.0,0.0,0.0,0
833944000,0,0.816406,-0.0018606358,-0.0021164936,-0.5774793,0.0,0.0,0.0,0.0,0
833956000,0,0.8164055,-0.0018204346,-0.0021451376,-0.5774801,0.0,0.0,0.0,0.0,0
833960000,0,0.8164063,-0.0018652407,-0.002113423,-0.5774789,0.0,0.0,0.0,0.0,0
833972000,0,0.81640553,-0.0018109983,-0.0021516674,-0.5774801,0.0,0.0,0.0,0.0,0
833984000,0,0.8164062,-0.0018494091,-0.0021250078,-0.57747906,0.0,0.0,0.0,0.0,0
833996000,0,0.81640536,-0.0018086636,-0.002153804,-0.5774803,0.0,0.0,0.0,0.0,0
834004000,0,0.8164055,-0.00181151,-0.002151831,-0.57748014,0.0,0.0,0.0,0.0,0
834016000,0,0.81640637,-0.001858925,-0.0021181472,-0.5774788,0.0,0.0,0.0,0.0,0
834024000,0,0.8164064,-0.0018614152,-0.0021163465,-0.5774787,0.0,0.0,0.0,0.0,0
834032000,0,0.8164061,-0.0018158709,-0.0021481956,-0.57747924,0.0,0.0,0.0,0.0,0
834040000,0,0.8164057,-0.0017978535,-0.0021611461,-0.5774798,0.0,0.0,0.0,0.0,0
834052000,0,0.8164058,-0.0018589301,-0.0021178364,-0.57747966,0.0,0.0,0.0,0.0,0
834064000,0,0.81640536,-0.0018177971,-0.0021470804,-0.5774803,0.0,0.0,0.0,0.0,0
834072000,0,0.8164055,-0.0018204091,-0.0021452645,-0.57748014,0.0,0.0,0.0,0.0,0
834080000,0,0.8164056,-0.001822769,-0.0021435977,-0.57747996,0.0,0.0,0.0,0.0,0
834092000,0,0.8164056,-0.0018011922,-0.0021588334,-0.57747996,0.0,0.0,0.0,0.0,0
834104000,0,0.8164051,-0.0018055241,-0.0021560516,-0.5774806,0.0,0.0,0.0,0.0,0
834116000,0,0.81640613,-0.0018536705,-0.0021220786,-0.5774792,0.0,0.0,0.0,0.0,0
834120000,0,0.8164055,-0.0018108132,-0.002152283,-0.57748014,0.0,0.0,0.0,0.0,0
834136000,0,0.81640565,-0.0018163084,-0.0021483237,-0.57747984,0.0,0.0,0.0,0.0,0
834144000,0,0.8164058,-0.001818769,-0.00214652,-0.5774797,0.0,0.0,0.0,0.0,0
834152000,0,0.81640565,-0.0018072553,-0.002154496,-0.5774799,0.0,0.0,0.0,0.0,0
834164000,0,0.8164048,-0.0018122207,-0.002150832,-0.57748103,0.0,0.0,0.0,0.0,0
834172000,0,0.8164052,-0.0018148557,-0.0021490138,-0.57748055,0.0,0.0,0.0,0.0,0
834180000,0,0.81640536,-0.0018176391,-0.0021471414,-0.5774803,0.0,0.0,0.0,0.0,0
834192000,0,0.8164063,-0.0018652412,-0.0021137043,-0.57747895,0.0,0.0,0.0,0.0,0
834200000,0,0.81640595,-0.0018193868,-0.0021460394,-0.5774794,0.0,0.0,0.0,0.0,0
834216000,0,0.8164062,-0.0018497314,-0.0021249813,-0.57747906,0.0,0.0,0.0,0.0,0
834220000,0,0.8164051,-0.0018057984,-0.0021558946,-0.5774807,0.0,0.0,0.0,0.0,0
834232000,0,0.81640613,-0.0018541991,-0.0021216832,-0.5774792,0.0,0.0,0.0,0.0,0
834244000,0,0.81640553,-0.0018142214,-0.0021499307,-0.57748,0.0,0.0,0.0,0.0,0
834256000,0,0.8164064,-0.0018613929,-0.002116502,-0.57747877,0.0,0.0,0.0,0.0,0
834260000,0,0.8164057,-0.0018194704,-0.002146135,-0.5774798,0.0,0.0,0.0,0.0,0
834272000,0,0.8164057,-0.0017978922,-0.0021614886,-0.57747984,0.0,0.0,0.0,0.0,0
834284000,0,0.8164057,-0.0018586563,-0.0021181968,-0.5774797,0.0,0.0,0.0,0.0,0
834296000,0,0.8164053,-0.001817866,-0.0021472867,-0.5774804,0.0,0.0,0.0,0.0,0
834304000,0,0.8164055,-0.0018204866,-0.0021455283,-0.57748014,0.0,0.0,0.0,0.0,0
834316000,0,0.81640595,-0.0018195136,-0.0021459993,-0.5774795,0.0,0.0,0.0,0.0,0
834320000,0,0.8164055,-0.0018109813,-0.0021520576,-0.57748014,0.0,0.0,0.0,0.0,0
834336000,0,0.8164051,-0.001805994,-0.0021561475,-0.5774807,0.0,0.0,0.0,0.0,0
834344000,0,0.8164053,-0.0018084727,-0.0021543822,-0.5774804,0.0,0.0,0.0,0.0,0
834356000,0,0.8164062,-0.0018563614,-0.0021203787,-0.57747906,0.0,0.0,0.0,0.0,0
834360000,0,0.81640553,-0.0018140004,-0.0021503938,-0.5774801,0.0,0.0,0.0,0.0,0
834376000,0,0.8164057,-0.0018190028,-0.002146691,-0.5774798,0.0,0.0,0.0,0.0,0
834384000,0,0.8164056,-0.0018073288,-0.0021545852,-0.57747996,0.0,0.0,0.0,0.0,0
834396000,0,0.81640476,-0.001812316,-0.0021511023,-0.5774811,0.0,0.0,0.0,0.0,0
834400000,0,0.8164057,-0.0018586795,-0.002118344,-0.5774798,0.0,0.0,0.0,0.0,0
834412000,0,0.8164053,-0.0018176591,-0.0021474666,-0.5774804,0.0,0.0,0.0,0.0,0
834424000,0,0.81640625,-0.0018651554,-0.002114046,-0.577479,0.0,0.0,0.0,0.0,0
834436000,0,0.8164055,-0.001810824,-0.0021522099,-0.57748014,0.0,0.0,0.0,0.0,0
834440000,0,0.81640553,-0.0018011053,-0.0021593159,-0.57748,0.0,0.0,0.0,0.0,0
834452000,0,0.81640506,-0.0018053118,-0.0021565673,-0.5774807,0.0,0.0,0.0,0.0,0
834464000,0,0.81640613,-0.0018535114,-0.0021225447,-0.5774792,0.0,0.0,0.0,0.0,0
834472000,0,0.8164062,-0.0018559978,-0.0021207626,-0.57747906,0.0,0.0,0.0,0.0,0
834484000,0,0.81640565,-0.0018161986,-0.0021487414,-0.5774799,0.0,0.0,0.0,0.0,0
834496000,0,0.8164061,-0.0018155624,-0.002149047,-0.5774793,0.0,0.0,0.0,0.0,0
834504000,0,0.8164057,-0.0017975706,-0.00216193,-0.57747984,0.0,0.0,0.0,0.0,0
834516000,0,0.8164057,-0.0018583711,-0.002118664,-0.5774798,0.0,0.0,0.0,0.0,0
834520000,0,0.81640506,-0.0018146294,-0.0021495295,-0.5774807,0.0,0.0,0.0,0.0,0
834536000,0,0.8164054,-0.0018199421,-0.002145971,-0.5774802,0.0,0.0,0.0,0.0,0
834544000,0,0.81640553,-0.0018223802,-0.0021442887,-0.57748,0.0,0.0,0.0,0.0,0
834552000,0,0.8164055,-0.0018107777,-0.0021524446,-0.57748014,0.0,0.0,0.0,0.0,0
834564000,0,0.81640613,-0.0018498204,-0.0021252995,-0.5774792,0.0,0.0,0.0,0.0,0
834576000,0,0.81640524,-0.0018087799,-0.0021542253,-0.57748044,0.0,0.0,0.0,0.0,0
834584000,0,0.8164054,-0.0018116554,-0.0021521682,-0.57748026,0.0,0.0,0.0,0.0,0
834596000,0,0.81640625,-0.00185901,-0.0021186564,-0.57747895,0.0,0.0,0.0,0.0,0
834604000,0,0.81640637,-0.0018613996,-0.0021169067,-0.5774788,0.0,0.0,0.0,0.0,0
834616000,0,0.81640553,-0.001807753,-0.0021546998,-0.57748,0.0,0.0,0.0,0.0,0
834620000,0,0.81640565,-0.0017981712,-0.0021616747,-0.5774799,0.0,0.0,0.0,0.0,0
834636000,0,0.81640506,-0.0018153148,-0.0021493866,-0.57748073,0.0,0.0,0.0,0.0,0
834644000,0,0.81640524,-0.0018180637,-0.00214756,-0.57748044,0.0,0.0,0.0,0.0,0
834656000,0,0.8164062,-0.001865494,-0.0021140736,-0.57747906,0.0,0.0,0.0,0.0,0
834664000,0,0.8164059,-0.0018195892,-0.002146263,-0.57747954,0.0,0.0,0.0,0.0,0
834676000,0,0.8164059,-0.0017906592,-0.002167365,-0.57747954,0.0,0.0,0.0,0.0,0
834684000,0,0.81640506,-0.0018057937,-0.002156632,-0.57748073,0.0,0.0,0.0,0.0,0
834696000,0,0.8164061,-0.0018537443,-0.0021225717,-0.57747924,0.0,0.0,0.0,0.0,0
834704000,0,0.8164062,-0.0018562737,-0.0021207817,-0.5774791,0.0,0.0,0.0,0.0,0
834716000,0,0.8164056,-0.0018165057,-0.002148862,-0.57747996,0.0,0.0,0.0,0.0,0
834724000,0,0.81640565,-0.001818969,-0.0021470394,-0.57747984,0.0,0.0,0.0,0.0,0
834736000,0,0.81640565,-0.0017977385,-0.0021619708,-0.5774799,0.0,0.0,0.0,0.0,0
834744000,0,0.81640476,-0.0018121172,-0.002151615,-0.57748115,0.0,0.0,0.0,0.0,0
834756000,0,0.81640595,-0.0018604696,-0.0021175977,-0.5774795,0.0,0.0,0.0,0.0,0
834764000,0,0.8164061,-0.0018627304,-0.0021161044,-0.57747924,0.0,0.0,0.0,0.0,0
834776000,0,0.81640553,-0.0018224707,-0.0021445963,-0.57748,0.0,0.0,0.0,0.0,0
834784000,0,0.8164054,-0.0018106585,-0.0021527275,-0.5774802,0.0,0.0,0.0,0.0,0
834796000,0,0.8164061,-0.0018489745,-0.0021262132,-0.57747924,0.0,0.0,0.0,0.0,0
834804000,0,0.8164059,-0.0018511927,-0.0021245442,-0.5774795,0.0,0.0,0.0,0.0,0
834816000,0,0.8164054,-0.0018106579,-0.0021530774,-0.57748026,0.0,0.0,0.0,0.0,0
834820000,0,0.8164062,-0.0018558463,-0.0021211896,-0.57747906,0.0,0.0,0.0,0.0,0
834832000,0,0.8164056,-0.0018161772,-0.0021491193,-0.57747996,0.0,0.0,0.0,0.0,0
834840000,0,0.8164057,-0.0018186744,-0.002147279,-0.57747984,0.0,0.0,0.0,0.0,0
834852000,0,0.81640565,-0.001797372,-0.002162446,-0.5774799,0.0,0.0,0.0,0.0,0
834860000,0,0.81640476,-0.0018118677,-0.002151776,-0.57748115,0.0,0.0,0.0,0.0,0
834872000,0,0.8164059,-0.0018605739,-0.0021175507,-0.5774795,0.0,0.0,0.0,0.0,0
834880000,0,0.8164061,-0.0018629065,-0.0021159812,-0.57747924,0.0,0.0,0.0,0.0,0
834892000,0,0.8164053,-0.0018082011,-0.0021546069,-0.5774804,0.0,0.0,0.0,0.0,0
834904000,0,0.816406,-0.0018472165,-0.0021274842,-0.5774793,0.0,0.0,0.0,0.0,0
834916000,0,0.8164052,-0.001806465,-0.0021562516,-0.57748055,0.0,0.0,0.0,0.0,0
834924000,0,0.8164053,-0.00180948,-0.0021540981,-0.5774804,0.0,0.0,0.0,0.0,0
834936000,0,0.8164062,-0.0018569361,-0.002120544,-0.5774791,0.0,0.0,0.0,0.0,0
834944000,0,0.81640625,-0.0018594672,-0.0021186792,-0.57747895,0.0,0.0,0.0,0.0,0
834952000,0,0.81640595,-0.0018143904,-0.0021504203,-0.5774795,0.0,0.0,0.0,0.0,0
834964000,0,0.8164057,-0.0018548815,-0.0021217135,-0.5774798,0.0,0.0,0.0,0.0,0
834972000,0,0.8164056,-0.0018571437,-0.0021200934,-0.5774799,0.0,0.0,0.0,0.0,0
834984000,0,0.8164052,-0.00181638,-0.0021491484,-0.57748055,0.0,0.0,0.0,0.0,0
834992000,0,0.8164053,-0.0018190423,-0.0021473307,-0.5774804,0.0,0.0,0.0,0.0,0
835004000,0,0.8164058,-0.0018181031,-0.002147667,-0.57747966,0.0,0.0,0.0,0.0,0
835012000,0,0.8164054,-0.0017998276,-0.002160853,-0.5774802,0.0,0.0,0.0,0.0,0
835020000,0,0.816406,-0.0018477342,-0.0021272916,-0.57747936,0.0,0.0,0.0,0.0,0
835032000,0,0.8164052,-0.0018068932,-0.002156163,-0.57748055,0.0,0.0,0.0,0.0,0
835044000,0,0.8164061,-0.0018549147,-0.0021221049,-0.57747924,0.0,0.0,0.0,0.0,0
835056000,0,0.81640553,-0.0018153412,-0.0021500243,-0.5774801,0.0,0.0,0.0,0.0,0
835060000,0,0.8164063,-0.0018598551,-0.0021185512,-0.57747895,0.0,0.0,0.0,0.0,0
835076000,0,0.81640553,-0.0017966812,-0.002163106,-0.57748,0.0,0.0,0.0,0.0,0
835084000,0,0.81640464,-0.0018111113,-0.002152772,-0.57748127,0.0,0.0,0.0,0.0,0
835096000,0,0.81640583,-0.0018594088,-0.0021187493,-0.5774796,0.0,0.0,0.0,0.0,0
835100000,0,0.8164052,-0.0018165436,-0.0021491349,-0.57748055,0.0,0.0,0.0,0.0,0
835112000,0,0.81640613,-0.0018640249,-0.002115698,-0.5774792,0.0,0.0,0.0,0.0,0
835124000,0,0.81640536,-0.0018097797,-0.0021537528,-0.57748026,0.0,0.0,0.0,0.0,0
835136000,0,0.816406,-0.0018482538,-0.0021271058,-0.5774793,0.0,0.0,0.0,0.0,0
835144000,0,0.81640583,-0.0018504838,-0.0021254201,-0.5774796,0.0,0.0,0.0,0.0,0
835156000,0,0.8164053,-0.0018100546,-0.0021538797,-0.5774804,0.0,0.0,0.0,0.0,0
835164000,0,0.8164054,-0.0018129058,-0.002151843,-0.5774802,0.0,0.0,0.0,0.0,0
835172000,0,0.81640553,-0.0018156087,-0.002149898,-0.5774801,0.0,0.0,0.0,0.0,0
835184000,0,0.81640595,-0.0018149662,-0.0021502106,-0.5774795,0.0,0.0,0.0,0.0,0
835196000,0,0.8164057,-0.0018557889,-0.0021213258,-0.5774798,0.0,0.0,0.0,0.0,0
835204000,0,0.8164056,-0.0018581372,-0.0021195775,-0.5774799,0.0,0.0,0.0,0.0,0
835216000,0,0.8164051,-0.0018169691,-0.0021487763,-0.5774806,0.0,0.0,0.0,0.0,0
835220000,0,0.81640595,-0.0018624607,-0.002116665,-0.57747936,0.0,0.0,0.0,0.0,0
835232000,0,0.8164054,-0.0018222104,-0.002145214,-0.5774802,0.0,0.0,0.0,0.0,0
835240000,0,0.81640536,-0.0018103694,-0.002153487,-0.5774803,0.0,0.0,0.0,0.0,0
835252000,0,0.816406,-0.0018485324,-0.0021269238,-0.57747936,0.0,0.0,0.0,0.0,0
835264000,0,0.8164052,-0.0018079682,-0.0021555002,-0.57748055,0.0,0.0,0.0,0.0,0
835272000,0,0.8164053,-0.0018108399,-0.002153501,-0.5774804,0.0,0.0,0.0,0.0,0
835280000,0,0.8164054,-0.0018136373,-0.0021515503,-0.5774802,0.0,0.0,0.0,0.0,0
835296000,0,0.8164056,-0.0018187489,-0.0021478592,-0.57747996,0.0,0.0,0.0,0.0,0
835304000,0,0.8164055,-0.0018070365,-0.002155876,-0.57748014,0.0,0.0,0.0,0.0,0
835316000,0,0.81640464,-0.0018121067,-0.0021523163,-0.5774813,0.0,0.0,0.0,0.0,0
835320000,0,0.8164056,-0.0018584399,-0.0021195158,-0.57747996,0.0,0.0,0.0,0.0,0
835336000,0,0.81640595,-0.0018628701,-0.0021166222,-0.5774794,0.0,0.0,0.0,0.0,0
835344000,0,0.8164061,-0.00186505,-0.0021151155,-0.5774792,0.0,0.0,0.0,0.0,0
835356000,0,0.8164053,-0.0018105747,-0.002153306,-0.5774803,0.0,0.0,0.0,0.0,0
835364000,0,0.8164058,-0.0017903004,-0.0021682614,-0.57747966,0.0,0.0,0.0,0.0,0
835376000,0,0.81640583,-0.0018510623,-0.0021251654,-0.5774796,0.0,0.0,0.0,0.0,0
835380000,0,0.8164051,-0.0018078525,-0.0021556886,-0.5774806,0.0,0.0,0.0,0.0,0
835396000,0,0.8164054,-0.0018134705,-0.0021517517,-0.5774802,0.0,0.0,0.0,0.0,0
835400000,0,0.8164062,-0.0018583752,-0.002120118,-0.57747906,0.0,0.0,0.0,0.0,0
835416000,0,0.81640595,-0.0018154226,-0.002150484,-0.5774794,0.0,0.0,0.0,0.0,0
835424000,0,0.8164056,-0.0017975755,-0.0021636554,-0.57747996,0.0,0.0,0.0,0.0,0
835436000,0,0.81640565,-0.0018585051,-0.0021209898,-0.57747984,0.0,0.0,0.0,0.0,0
835444000,0,0.8164059,-0.0018605706,-0.0021200397,-0.5774795,0.0,0.0,0.0,0.0,0
835452000,0,0.8164061,-0.0018630726,-0.002118739,-0.57747924,0.0,0.0,0.0,0.0,0
835460000,0,0.8164057,-0.0018167212,-0.002151529,-0.5774797,0.0,0.0,0.0,0.0,0
835476000,0,0.816406,-0.0018632277,-0.0021196005,-0.57747936,0.0,0.0,0.0,0.0,0
835484000,0,0.8164058,-0.0018657378,-0.0021178457,-0.57747966,0.0,0.0,0.0,0.0,0
835496000,0,0.8164052,-0.0018248729,-0.002146939,-0.57748055,0.0,0.0,0.0,0.0,0
835500000,0,0.81640553,-0.0018211446,-0.0021495472,-0.57748,0.0,0.0,0.0,0.0,0
835516000,0,0.81640613,-0.0018297936,-0.0021447176,-0.5774791,0.0,0.0,0.0,0.0,0
835520000,0,0.81640655,-0.0018412522,-0.0021370733,-0.5774786,0.0,0.0,0.0,0.0,0
835536000,0,0.81640434,-0.0018527686,-0.0021281298,-0.5774817,0.0,0.0,0.0,0.0,0
835544000,0,0.81640506,-0.0018147138,-0.0021552814,-0.5774807,0.0,0.0,0.0,0.0,0
835556000,0,0.8164067,-0.0018915449,-0.0021009105,-0.5774783,0.0,0.0,0.0,0.0,0
835560000,0,0.81640565,-0.0018476212,-0.0021318044,-0.57747984,0.0,0.0,0.0,0.0,0
835576000,0,0.8164084,-0.0018461072,-0.0021335236,-0.57747597,0.0,0.0,0.0,0.0,0
835584000,0,0.8164106,-0.00183875,-0.002139166,-0.57747287,0.0,0.0,0.0,0.0,0
835592000,0,0.8164076,-0.0018563977,-0.0021259324,-0.57747704,0.0,0.0,0.0,0.0,0
835604000,0,0.8164098,-0.0017678651,-0.0021895545,-0.57747394,0.0,0.0,0.0,0.0,0
835616000,0,0.81640977,-0.0018521008,-0.0021292535,-0.577474,0.0,0.0,0.0,0.0,0
835620000,0,0.8164109,-0.0018447818,-0.0021342833,-0.5774724,0.0,0.0,0.0,0.0,0
835636000,0,0.816414,-0.0018479477,-0.0021320365,-0.57746804,0.0,0.0,0.0,0.0,0
835640000,0,0.8164133,-0.0018031978,-0.002163642,-0.57746905,0.0,0.0,0.0,0.0,0
835656000,0,0.8164138,-0.0018497402,-0.0021300712,-0.5774683,0.0,0.0,0.0,0.0,0
835664000,0,0.8164142,-0.0018551132,-0.0021265792,-0.57746774,0.0,0.0,0.0,0.0,0
835676000,0,0.8164138,-0.0018142792,-0.0021559133,-0.57746834,0.0,0.0,0.0,0.0,0
835684000,0,0.8164133,-0.0018686398,-0.0021170338,-0.57746905,0.0,0.0,0.0,0.0,0
835692000,0,0.81641304,-0.0018748083,-0.0021125784,-0.5774694,0.0,0.0,0.0,0.0,0
835700000,0,0.8164131,-0.0018225176,-0.002149664,-0.5774693,0.0,0.0,0.0,0.0,0
835716000,0,0.81641513,-0.0017781977,-0.0021828946,-0.5774664,0.0,0.0,0.0,0.0,0
835720000,0,0.81641686,-0.0018312418,-0.002145202,-0.577464,0.0,0.0,0.0,0.0,0
835732000,0,0.8164146,-0.001794279,-0.0021709276,-0.57746726,0.0,0.0,0.0,0.0,0
835744000,0,0.81641644,-0.001853521,-0.0021290951,-0.5774646,0.0,0.0,0.0,0.0,0
835756000,0,0.81641513,-0.001863734,-0.002120969,-0.57746637,0.0,0.0,0.0,0.0,0
835764000,0,0.81641495,-0.0018707832,-0.0021156787,-0.5774667,0.0,0.0,0.0,0.0,0
835776000,0,0.8164151,-0.0018162496,-0.0021548069,-0.5774665,0.0,0.0,0.0,0.0,0
835780000,0,0.81641555,-0.0018221309,-0.0021510748,-0.5774659,0.0,0.0,0.0,0.0,0
835796000,0,0.8164153,-0.0018336358,-0.0021431304,-0.57746613,0.0,0.0,0.0,0.0,0
835800000,0,0.8164157,-0.001840692,-0.0021384726,-0.57746553,0.0,0.0,0.0,0.0,0
835812000,0,0.8164154,-0.001838445,-0.00213996,-0.577466,0.0,0.0,0.0,0.0,0
835824000,0,0.81641716,-0.0018527047,-0.00212985,-0.57746357,0.0,0.0,0.0,0.0,0
835836000,0,0.816415,-0.0018602025,-0.0021240648,-0.5774666,0.0,0.0,0.0,0.0,0
835840000,0,0.8164153,-0.0018022048,-0.0021648232,-0.5774662,0.0,0.0,0.0,0.0,0
835852000,0,0.81641746,-0.0018605046,-0.0021239023,-0.5774631,0.0,0.0,0.0,0.0,0
835860000,0,0.8164173,-0.0018080202,-0.0021609694,-0.5774634,0.0,0.0,0.0,0.0,0
835872000,0,0.8164157,-0.0018171848,-0.0021537303,-0.5774656,0.0,0.0,0.0,0.0,0
835884000,0,0.816418,-0.0018966569,-0.0020981068,-0.5774624,0.0,0.0,0.0,0.0,0
835896000,0,0.8164215,-0.0017770914,-0.002183121,-0.5774575,0.0,0.0,0.0,0.0,0
835900000,0,0.81642383,-0.0018346177,-0.0021422263,-0.57745415,0.0,0.0,0.0,0.0,0
835916000,0,0.8164249,-0.0018532365,-0.0021290611,-0.5774526,0.0,0.0,0.0,0.0,0
835920000,0,0.8164243,-0.0018018013,-0.002165618,-0.5774535,0.0,0.0,0.0,0.0,0
835932000,0,0.816425,-0.0018158861,-0.0021546695,-0.5774525,0.0,0.0,0.0,0.0,0
835940000,0,0.8164272,-0.0018202243,-0.0021522501,-0.5774494,0.0,0.0,0.0,0.0,0
835952000,0,0.816429,-0.0018305386,-0.0021438783,-0.5774468,0.0,0.0,0.0,0.0,0
835964000,0,0.81643236,-0.0018992759,-0.0020959184,-0.57744205,0.0,0.0,0.0,0.0,0
835972000,0,0.8164339,-0.0018350634,-0.0021412824,-0.57743984,0.0,0.0,0.0,0.0,0
835980000,0,0.8164384,-0.0018354197,-0.0021412463,-0.5774335,0.0,0.0,0.0,0.0,0
835996000,0,0.8164368,-0.0018437909,-0.0021344908,-0.57743573,0.0,0.0,0.0,0.0,0
836000000,0,0.81643724,-0.0017772247,-0.0021815593,-0.5774352,0.0,0.0,0.0,0.0,0
836016000,0,0.81643987,-0.0018423796,-0.0021353806,-0.5774315,0.0,0.0,0.0,0.0,0
836020000,0,0.81643736,-0.0018475666,-0.0021314505,-0.577435,0.0,0.0,0.0,0.0,0
836032000,0,0.8164375,-0.0018487978,-0.002130504,-0.5774348,0.0,0.0,0.0,0.0,0
836040000,0,0.81644005,-0.0018448081,-0.002133315,-0.5774312,0.0,0.0,0.0,0.0,0
836052000,0,0.81644017,-0.0018461319,-0.0021324193,-0.5774311,0.0,0.0,0.0,0.0,0
836060000,0,0.81643796,-0.00178128,-0.0021777407,-0.57743424,0.0,0.0,0.0,0.0,0
836076000,0,0.81644046,-0.0018487761,-0.0021301596,-0.5774306,0.0,0.0,0.0,0.0,0
836084000,0,0.8164382,-0.0017824116,-0.002176647,-0.5774338,0.0,0.0,0.0,0.0,0
836096000,0,0.8164383,-0.0017829502,-0.002175895,-0.57743365,0.0,0.0,0.0,0.0,0
836104000,0,0.81643873,-0.0018549516,-0.0021255342,-0.57743305,0.0,0.0,0.0,0.0,0
836116000,0,0.81644046,-0.0018561919,-0.0021243473,-0.57743067,0.0,0.0,0.0,0.0,0
836124000,0,0.81644434,-0.001852778,-0.002126835,-0.5774251,0.0,0.0,0.0,0.0,0
836132000,0,0.8164441,-0.0017845277,-0.0021746994,-0.57742554,0.0,0.0,0.0,0.0,0
836140000,0,0.81644607,-0.0018596746,-0.0021211635,-0.5774227,0.0,0.0,0.0,0.0,0
836152000,0,0.81644994,-0.0018618692,-0.0021188513,-0.57741725,0.0,0.0,0.0,0.0,0
836164000,0,0.81645447,-0.0018656753,-0.0021158562,-0.5774108,0.0,0.0,0.0,0.0,0
836172000,0,0.8164608,-0.001864944,-0.0021166494,-0.5774019,0.0,0.0,0.0,0.0,0
836180000,0,0.8164614,-0.0017919426,-0.0021670018,-0.5774011,0.0,0.0,0.0,0.0,0
836192000,0,0.8164654,-0.0018193501,-0.0021478632,-0.57739544,0.0,0.0,0.0,0.0,0
836204000,0,0.81647146,-0.001837848,-0.0021337129,-0.57738686,0.0,0.0,0.0,0.0,0
836212000,0,0.81647414,-0.0018353875,-0.0021347897,-0.57738304,0.0,0.0,0.0,0.0,0
836224000,0,0.81649697,-0.0018610073,-0.0021180932,-0.5773507,0.0,0.0,0.0,0.0,0
836232000,0,0.81650054,-0.0017830047,-0.0021715052,-0.57734567,0.0,0.0,0.0,0.0,0
836240000,0,0.8165038,-0.0017946634,-0.0021623727,-0.5773411,0.0,0.0,0.0,0.0,0
836252000,0,0.8165081,-0.0018234972,-0.0021394102,-0.57733494,0.0,0.0,0.0,0.0,0
836260000,0,0.81650925,-0.0018494697,-0.002119991,-0.5773334,0.0,0.0,0.0,0.0,0
836272000,0,0.81654066,-0.0018736394,-0.0021022472,-0.5772889,0.0,0.0,0.0,0.0,0
836284000,0,0.8165446,-0.0017837527,-0.0021628204,-0.57728344,0.0,0.0,0.0,0.0,0
836296000,0,0.81655276,-0.001818381,-0.0021356859,-0.5772719,0.0,0.0,0.0,0.0,0
836304000,0,0.81655204,-0.0018331143,-0.0021229866,-0.5772729,0.0,0.0,0.0,0.0,0
836316000,0,0.81656927,-0.0017508831,-0.0021796387,-0.5772485,0.0,0.0,0.0,0.0,0
836324000,0,0.8165689,-0.0018915681,-0.0020786857,-0.577249,0.0,0.0,0.0,0.0,0
836336000,0,0.8165781,-0.0017924836,-0.002147677,-0.57723606,0.0,0.0,0.0,0.0,0
836344000,0,0.8165849,-0.0018280551,-0.0021191342,-0.57722646,0.0,0.0,0.0,0.0,0
836356000,0,0.8165926,-0.0017211115,-0.002192561,-0.5772156,0.0,0.0,0.0,0.0,0
836360000,0,0.816613,-0.0018536542,-0.00209994,-0.57718664,0.0,0.0,0.0,0.0,0
836372000,0,0.8166163,-0.001749139,-0.002167554,-0.57718205,0.0,0.0,0.0,0.0,0
836380000,0,0.81661993,-0.0017651526,-0.0021537035,-0.5771769,0.0,0.0,0.0,0.0,0
836396000,0,0.81663936,-0.00179657,-0.0021233214,-0.57714945,0.0,0.0,0.0,0.0,0
836400000,0,0.8166381,-0.0018029057,-0.0021168184,-0.57715124,0.0,0.0,0.0,0.0,0
836416000,0,0.81669074,-0.0018542187,-0.0020764782,-0.57707673,0.0,0.0,0.0,0.0,0
836424000,0,0.8166898,-0.0018614511,-0.0020659452,-0.57707816,0.0,0.0,0.0,0.0,0
836436000,0,0.8166958,-0.0017398485,-0.0021382023,-0.5770697,0.0,0.0,0.0,0.0,0
836444000,0,0.8167194,-0.0017666447,-0.0021180494,-0.5770363,0.0,0.0,0.0,0.0,0
836456000,0,0.8167187,-0.0017408415,-0.002108145,-0.5770374,0.0,0.0,0.0,0.0,0
836464000,0,0.8167128,-0.0018943311,-0.0019924708,-0.5770457,0.0,0.0,0.0,0.0,0
836476000,0,0.8167391,-0.0017036445,-0.0020962171,-0.5770088,0.0,0.0,0.0,0.0,0
836480000,0,0.8167308,-0.0016960839,-0.002095519,-0.57702047,0.0,0.0,0.0,0.0,0
836492000,0,0.8167496,-0.0016830278,-0.002089018,-0.57699394,0.0,0.0,0.0,0.0,0
836504000,0,0.81674314,-0.0016323862,-0.0020885167,-0.5770033,0.0,0.0,0.0,0.0,0
836516000,0,0.81673306,-0.0017507669,-0.00198944,-0.5770174,0.0,0.0,0.0,0.0,0
836524000,0,0.8167563,-0.0015711721,-0.0020948828,-0.57698476,0.0,0.0,0.0,0.0,0
836536000,0,0.8167459,-0.001712746,-0.0019797233,-0.5769995,0.0,0.0,0.0,0.0,0
836544000,0,0.8167414,-0.001677507,-0.001995024,-0.57700586,0.0,0.0,0.0,0.0,0
836556000,0,0.81683767,-0.0017020839,-0.0019841604,-0.57686955,0.0,0.0,0.0,0.0,0
836564000,0,0.81682,-0.0016628761,-0.0019874037,-0.57689464,0.0,0.0,0.0,0.0,0
836572000,0,0.8168057,-0.0016470086,-0.001990246,-0.5769149,0.0,0.0,0.0,0.0,0
836580000,0,0.81687975,-0.0016843188,-0.0019686734,-0.57681006,0.0,0.0,0.0,0.0,0
836592000,0,0.8168617,-0.0016850611,-0.0019645046,-0.5768357,0.0,0.0,0.0,0.0,0
836600000,0,0.81683254,-0.0016810325,-0.0019712918,-0.5768769,0.0,0.0,0.0,0.0,0
836612000,0,0.81689006,-0.0017211448,-0.0019532822,-0.5767954,0.0,0.0,0.0,0.0,0
836620000,0,0.816889,-0.00173058,-0.0019552142,-0.5767969,0.0,0.0,0.0,0.0,0
836636000,0,0.8168308,-0.0017229611,-0.0019683952,-0.57687926,0.0,0.0,0.0,0.0,0
836644000,0,0.81683576,-0.0015373237,-0.0020812356,-0.57687235,0.0,0.0,0.0,0.0,0
836652000,0,0.8168656,-0.0017376676,-0.0019483294,-0.57682997,0.0,0.0,0.0,0.0,0
836660000,0,0.8168463,-0.0017008056,-0.001967732,-0.57685745,0.0,0.0,0.0,0.0,0
836676000,0,0.81682026,-0.0016614198,-0.001984411,-0.57689434,0.0,0.0,0.0,0.0,0
836684000,0,0.8168739,-0.0016613101,-0.0019745755,-0.5768184,0.0,0.0,0.0,0.0,0
836696000,0,0.8168451,-0.0016141417,-0.001991781,-0.57685924,0.0,0.0,0.0,0.0,0
836704000,0,0.81685966,-0.001797348,-0.0018567551,-0.57683855,0.0,0.0,0.0,0.0,0
836716000,0,0.81690264,-0.0015026137,-0.0020061347,-0.576778,0.0,0.0,0.0,0.0,0
836724000,0,0.8168719,-0.0014967502,-0.0020004292,-0.5768217,0.0,0.0,0.0,0.0,0
836736000,0,0.8168696,-0.0016854518,-0.0018548584,-0.57682484,0.0,0.0,0.0,0.0,0
836740000,0,0.8168751,-0.0016817081,-0.0018756086,-0.57681704,0.0,0.0,0.0,0.0,0
836756000,0,0.81683326,-0.0016198311,-0.0019278806,-0.5768763,0.0,0.0,0.0,0.0,0
836764000,0,0.81682086,-0.00160199,-0.0019449316,-0.57689375,0.0,0.0,0.0,0.0,0
836776000,0,0.8168083,-0.0015801127,-0.0019665123,-0.57691157,0.0,0.0,0.0,0.0,0
836784000,0,0.8168351,-0.0017960627,-0.0018208581,-0.5768734,0.0,0.0,0.0,0.0,0
836796000,0,0.81682545,-0.001763159,-0.0018886114,-0.576887,0.0,0.0,0.0,0.0,0
