timestamp,timestamp_sample,ref_timestamp,ref_lat,ref_lon,x,y,z,delta_xy[0],delta_xy[1],delta_z,vx,vy,vz,z_deriv,delta_vxy[0],delta_vxy[1],delta_vz,ax,ay,az,heading,delta_heading,ref_alt,dist_bottom,eph,epv,evh,evv,vxy_max,vz_max,hagl_min,hagl_max,xy_valid,z_valid,v_xy_valid,v_z_valid,xy_reset_counter,z_reset_counter,vxy_reset_counter,vz_reset_counter,heading_reset_counter,heading_good_for_control,xy_global,z_global,dist_bottom_valid,dist_bottom_sensor_bitfield
829676000,829676000,1036000,41.606704,-86.3556021,-0.4498817,-1.1163843,0.1301866,0.0004901746,0.000109618246,0.0,-0.0031397087,-0.0015612524,0.00014638665,-0.0007833764,-0.00021289983,-0.012492318,-0.016992431,-0.061320197,-0.011898734,0.053373102,-1.1082466,-0.01091993,229.40579,0.100079164,0.056061395,0.060073443,0.008109095,0.005762188,inf,inf,inf,inf,1,1,1,1,2,0,2,1,4,0,1,1,1,0
830172000,830172000,1036000,41.606704,-86.3556021,-0.4490078,-1.117374,0.13067038,0.0004901746,0.000109618246,0.0,0.001908594,-0.004915438,0.0016380037,0.0008169759,-0.00021289983,-0.012492318,-0.016992431,0.019736724,-0.0046296427,0.05574797,-1.1082804,-0.01091993,229.40579,0.1,0.056008812,0.060010683,0.015291285,0.010986289,inf,inf,inf,inf,1,1,1,1,2,0,2,1,4,0,1,1,1,0
830676000,830676000,1036000,41.606704,-86.3556021,-0.4492548,-1.1168928,0.13023551,0.0004901746,0.000109618246,0.0,-0.00013015683,-0.0033792478,0.00022203653,-0.00044009104,-0.00021289983,-0.012492318,-0.016992431,0.0049237423,-0.0032022465,0.095929876,-1.1081997,-0.01091993,229.40579,0.100446865,0.05594455,0.05997279,0.020807602,0.015110505,inf,inf,inf,inf,1,1,1,1,2,0,2,1,4,0,1,1,1,0
831172000,831172000,1036000,41.606704,-86.3556021,-0.4483334,-1.1176075,0.12961085,0.0004901746,0.000109618246,0.0,0.0032199842,-0.0039009566,-0.0010848395,-0.0017159585,-0.00021289983,-0.012492318,-0.016992431,-0.007923231,0.031738624,0.057496995,-1.1080551,-0.01091993,229.40579,0.10025148,0.055897314,0.059899457,0.012175312,0.008700717,inf,inf,inf,inf,1,1,1,1,2,0,2,1,4,0,1,1,1,0
831668000,831668000,1036000,41.606704,-86.3556021,-0.44787326,-1.1179091,0.1295797,0.0004901746,0.000109618246,0.0,0.0026444583,-0.00502677,0.00039083918,0.00021421573,-0.00021289983,-0.012492318,-0.016992431,0.044992827,-0.02799661,-0.31962436,-1.1078007,-0.01091993,229.40579,0.10023606,0.055856038,0.059851374,0.017956099,0.012966272,inf,inf,inf,inf,1,1,1,1,2,0,2,1,4,0,1,1,1,0
832172000,832172000,1036000,41.606704,-86.3556021,-0.4488627,-1.1170342,0.1292038,0.0004901746,0.000109618246,0.0,-0.001724327,-0.0007324778,-0.0011552895,-0.0007577175,-0.00021289983,-0.012492318,-0.016992431,-0.0694118,0.0060251285,0.19498815,-1.1076689,-0.01091993,229.40579,0.10056844,0.055790808,0.0597823,0.008109946,0.0057621747,inf,inf,inf,inf,1,1,1,1,2,0,2,1,4,0,1,1,1,0
832676000,832676000,1036000,41.606704,-86.3556021,-0.44988132,-1.1166466,0.12755467,0.0004901746,0.000109618246,0.0,-0.0033274551,-0.0029152706,-0.005004598,-0.0037946408,-0.00021289983,-0.012492318,-0.016992431,-0.06919714,0.013630393,-0.024939017,-1.1075978,-0.01091993,229.40579,0.10187642,0.055741508,0.0597217,0.015853187,0.011400999,inf,inf,inf,inf,1,1,1,1,2,0,2,1,4,0,1,1,1,0
833172000,833172000,1036000,41.606704,-86.3556021,-0.44963425,-1.115987,0.12890013,0.0004901746,0.000109618246,0.0,-0.0012574827,0.0030298517,-0.0011757566,0.0006099263,-0.00021289983,-0.012492318,-0.016992431,0.0796279,0.025031207,-0.14260137,-1.1071206,-0.01091993,229.40579,0.10077895,0.055720776,0.05968406,0.02082154,0.015114868,inf,inf,inf,inf,1,1,1,1,2,0,2,1,4,0,1,1,1,0
833676000,833676000,1036000,41.606704,-86.3556021,-0.44879174,-1.1139412,0.12993583,0.0004901746,0.000109618246,0.0,0.00031185892,0.006036674,0.00071256206,0.0021050444,-0.00021289983,-0.012492318,-0.016992431,0.023008365,0.022545392,0.028732168,-1.1073363,-0.01091993,229.40579,0.1,0.055631697,0.059603445,0.012849005,0.009192479,inf,inf,inf,inf,1,1,1,1,2,0,2,1,4,0,1,1,1,0
834172000,834172000,1036000,41.606704,-86.3556021,-0.4479162,-1.1153438,0.12952298,0.0004901746,0.000109618246,0.0,0.00197045,0.00024858868,-0.0013809757,-0.00032858335,-0.00021289983,-0.012492318,-0.016992431,0.023056386,0.020277316,0.07395626,-1.1069973,-0.01091993,229.40579,0.10039663,0.055637587,0.05955785,0.018461391,0.013341237,inf,inf,inf,inf,1,1,1,1,2,0,2,1,4,0,1,1,1,0
834676000,834676000,1036000,41.606704,-86.3556021,-0.44785908,-1.1162188,0.12989663,0.0004901746,0.000109618246,0.0,0.0021578076,0.00074574724,0.0012759482,0.0024739045,-0.00021289983,-0.012492318,-0.016992431,0.028628282,0.0047035064,-0.3449321,-1.1070108,-0.01091993,229.40579,0.1,0.055527337,0.059496913,0.009055878,0.0064422823,inf,inf,inf,inf,1,1,1,1,2,0,2,1,4,0,1,1,1,0
835172000,835172000,1036000,41.606704,-86.3556021,-0.44789332,-1.116233,0.13018171,0.0004901746,0.000109618246,0.0,0.0042153923,0.0020198182,-0.0013089498,-0.0006998112,-0.00021289983,-0.012492318,-0.016992431,-0.006919271,0.000981521,0.008799072,-1.1069423,-0.01091993,229.40579,0.1,0.055521954,0.059437424,0.015854293,0.011401622,inf,inf,inf,inf,1,1,1,1,2,0,2,1,4,0,1,1,1,0
835676000,835676000,1036000,41.606704,-86.3556021,-0.44750753,-1.1164469,0.13134903,0.0004901746,0.000109618246,0.0,0.0046994863,-0.0009644696,0.0022087896,0.0023366187,-0.00021289983,-0.012492318,-0.016992431,-0.013528037,0.062782824,-0.02799655,-1.1065793,-0.01091993,229.40579,0.1,0.055426113,0.059383675,0.0014142136,0.001,inf,inf,inf,inf,1,1,1,1,2,0,2,1,4,0,1,1,1,0
836172000,836172000,1036000,41.606704,-86.3556021,-0.44811746,-1.1163754,0.13072483,0.0004901746,0.000109618246,0.0,0.0032083988,-0.0010266985,-0.0023916075,-0.00255684,-0.00021289983,-0.012492318,-0.016992431,-0.033063337,0.0033728604,-0.32679462,-1.1067295,-0.01091993,229.40579,0.1,0.055414498,0.059321407,0.012849551,0.009192483,inf,inf,inf,inf,1,1,1,1,2,0,2,1,4,0,1,1,1,0
836676000,836676000,1036000,41.606704,-86.3556021,-0.44774738,-1.117245,0.12921508,0.0004901746,0.000109618246,0.0,0.0030342604,-0.005663217,-0.00093882566,-0.0010802797,-0.00021289983,-0.012492318,-0.016992431,0.024636684,0.033720803,-0.12476561,-1.1057048,-0.01091993,229.40579,0.10133304,0.056705713,0.059972357,0.038663015,0.028935332,inf,inf,inf,inf,1,1,1,1,2,0,2,1,4,0,1,1,1,0
837172000,837172000,1036000,41.606704,-86.3556021,-0.4470904,-1.1222929,0.11769992,0.0004901746,0.000109618246,0.0,-0.016582577,-0.030106341,-0.15846698,-0.15852144,-0.00021289983,-0.012492318,-0.016992431,0.1488586,0.10716737,-1.5792493,-1.1019926,-0.01091993,229.40579,0.11284819,0.064667605,0.06450225,0.058070023,0.04408815,inf,inf,inf,inf,1,1,1,1,2,0,2,1,4,0,1,1,1,0
837668000,837668000,1036000,41.606704,-86.3556021,-0.45519078,-1.1330768,-0.19746253,0.0004901746,0.000109618246,0.0,-0.021135755,-0.013972119,-1.1352191,-1.1347818,-0.00021289983,-0.012492318,-0.016992431,-0.012576135,0.10771926,-2.0419805,-1.1030024,-0.01091993,229.40579,0.42801064,0.083772026,0.07648809,0.07859959,0.057996985,inf,inf,inf,inf,1,1,1,1,2,0,2,1,4,0,1,1,1,0
838172000,838172000,1036000,41.606704,-86.3556021,-0.4630464,-1.1391718,-0.9180184,0.0004901746,0.000109618246,0.0,-0.0043695983,-0.014811102,-1.3445071,-1.3427234,-0.00021289983,-0.012492318,-0.016992431,-0.07370174,-0.13525088,1.2126237,-1.1031232,-0.01091993,229.40579,1.1485665,0.114398144,0.09748289,0.09675352,0.07104921,inf,inf,inf,inf,1,1,1,1,2,0,2,1,4,0,1,1,1,0
838676000,838676000,1036000,41.606704,-86.3556021,-0.46734208,-1.1463668,-1.4502747,0.0004901746,0.000109618246,0.0,0.0075579924,-0.012082543,-0.8048236,-0.8055516,-0.00021289983,-0.012492318,-0.016992431,-0.10457,-0.066875994,1.3162818,-1.0716628,0.03512646,229.40579,1.6808228,0.15147974,0.12584005,0.106657855,0.082923524,inf,inf,inf,inf,1,1,1,1,2,0,2,1,5,0,1,1,1,0
839172000,839172000,1036000,41.606704,-86.3556021,-0.46695474,-1.148686,-1.7673624,0.0004901746,0.000109618246,0.0,0.01236416,-0.0042531705,-0.4836843,-0.4869682,-0.00021289983,-0.012492318,-0.016992431,-0.034964107,-0.06265756,0.47899866,-1.0816149,0.03512646,229.40579,1.9979105,0.19284382,0.16073534,0.11907099,0.09464746,inf,inf,inf,inf,1,1,1,1,2,0,2,1,5,0,1,1,1,0
839676000,839676000,1036000,41.606704,-86.3556021,-0.47067007,-1.1463876,-1.9603022,0.0004901746,0.000109618246,0.0,0.011456123,0.00051685655,-0.303091,-0.30436105,-0.00021289983,-0.012492318,-0.016992431,-0.049594242,-0.027701102,0.21071446,-1.0857909,0.03512646,229.40579,2.1908503,0.21888751,0.19255954,0.13042234,0.10045944,inf,inf,inf,inf,1,1,1,1,2,0,2,1,5,1,1,1,1,0
840172000,840172000,1036000,41.606704,-86.3556021,-0.47717604,-1.1440136,-2.081806,0.0004901746,0.000109618246,0.0,0.014796251,-0.00056511094,-0.20153172,-0.20167944,-0.00021289983,-0.012492318,-0.016992431,0.026021384,0.004530368,0.13991626,-1.0886418,0.03512646,229.40579,2.312354,0.26047415,0.23197582,0.15777028,0.109546155,inf,inf,inf,inf,1,1,1,1,2,0,2,1,5,1,1,1,1,0
840676000,840676000,1036000,41.606704,-86.3556021,-0.48617283,-1.1415443,-2.0766268,0.0004901746,0.000109618246,0.0,-0.00978977,-0.011491727,0.10659676,0.10240146,-0.00021289983,-0.012492318,-0.016992431,0.010911531,0.05916679,-0.17254898,-1.0892435,0.03512646,229.40579,2.307175,0.27483827,0.2588098,0.15757373,0.1106137,inf,inf,inf,inf,1,1,1,1,2,0,2,1,5,1,1,1,1,0
841172000,841172000,1036000,41.606704,-86.3556021,-0.50716686,-1.1114886,-2.0898733,0.0004901746,0.000109618246,0.0,-0.011013203,0.122516625,-0.18433794,-0.18951787,-0.00021289983,-0.012492318,-0.016992431,0.013214155,0.5772279,-0.83940756,-1.0775043,0.03512646,229.40579,2.3204215,0.29841247,0.28849247,0.16647854,0.11363443,inf,inf,inf,inf,1,1,1,1,2,0,2,1,5,1,1,1,0,0
841676000,841676000,1036000,41.606704,-86.3556021,-0.5103308,-0.9311294,-2.258753,0.0004901746,0.000109618246,0.0,0.001292823,0.6434201,-0.48731896,-0.4853485,-0.00021289983,-0.012492318,-0.016992431,-0.050381966,1.4618739,-0.5770689,-1.0593574,0.03512646,229.40579,2.4893012,0.33925673,0.3239802,0.18574359,0.11916887,inf,inf,inf,inf,1,1,1,1,2,0,2,1,5,1,1,1,0,0
842172000,842172000,1036000,41.606704,-86.3556021,-0.47920612,-0.44751742,-2.5284982,0.0004901746,0.000109618246,0.0,0.0056860633,1.3814174,-0.6674837,-0.6478119,-0.00021289983,-0.012492318,-0.016992431,-0.08770411,1.6526968,-0.43649974,-1.0584611,0.03512646,229.40579,2.7590463,0.35094994,0.3444261,0.18172072,0.118740246,inf,inf,inf,inf,1,1,1,1,2,0,2,1,5,1,1,1,0,0
842676000,842676000,1036000,41.606704,-86.3556021,-0.4186917,0.38931578,-2.866237,0.0004901746,0.000109618246,0.0,-0.027524425,1.9709957,-0.7503599,-0.7201001,-0.00021289983,-0.012492318,-0.016992431,-0.22612382,0.835894,-0.11545146,-1.0652571,0.03512646,229.40579,3.096785,0.36271727,0.36400774,0.17886786,0.118703246,inf,inf,inf,inf,1,1,1,1,2,0,2,1,5,1,1,1,0,0
843172000,843172000,1036000,41.606704,-86.3556021,-0.37020904,1.4622954,-3.2122362,0.0004901746,0.000109618246,0.0,-0.07026233,2.3003123,-0.7591848,-0.7176176,-0.00021289983,-0.012492318,-0.016992431,-0.23879224,0.4917217,-0.021494986,-1.0757576,0.03512646,229.40579,3.4427843,0.3690669,0.37698406,0.17120199,0.11750575,inf,inf,inf,inf,1,1,1,1,2,0,2,1,5,1,1,1,0,0
843676000,843676000,1036000,41.606704,-86.3556021,-0.32433745,2.6876328,-3.5347502,0.0004901746,0.000109618246,0.0,-0.11630274,2.4339466,-0.7622142,-0.69449973,-0.00021289983,-0.012492318,-0.016992431,-0.24680762,0.104876444,-0.10047766,-1.0799621,0.03512646,229.40579,3.7652984,0.35332832,0.37928474,0.15252337,0.113180585,inf,inf,inf,inf,1,1,1,1,2,0,2,1,5,1,1,1,0,0
844172000,844172000,1036000,41.606704,-86.3556021,-0.3415643,3.9343262,-3.8823705,0.0004901746,0.000109618246,0.0,-0.15571576,2.4865954,-0.755149,-0.692535,-0.00021289983,-0.012492318,-0.016992431,0.051530838,0.070075646,-0.16816896,-1.086074,0.03512646,229.40579,4.1129184,0.3808777,0.39833114,0.16021568,0.11666402,inf,inf,inf,inf,1,1,1,1,2,0,2,1,5,1,1,1,0,0
844668000,844668000,1036000,41.606704,-86.3556021,-0.39007556,5.1922655,-4.2231026,0.0004901746,0.000109618246,0.0,-0.1369252,2.5021775,-0.742962,-0.67950916,-0.00021289983,-0.012492318,-0.016992431,-0.017296903,-0.03323317,0.03797089,-1.0929257,0.03512646,229.40579,4.4536505,0.3800064,0.4057916,0.15294188,0.115932524,inf,inf,inf,inf,1,1,1,1,2,0,2,1,5,1,1,1,0,0
845172000,845172000,1036000,41.606704,-86.3556021,-0.4236051,6.4756756,-4.528472,0.0004901746,0.000109618246,0.0,-0.11037851,2.4973032,-0.77028936,-0.6752278,-0.00021289983,-0.012492318,-0.016992431,-0.02016921,-0.0007149695,-0.10218384,-1.1038256,0.03512646,229.40579,4.75902,0.38149077,0.41001394,0.14985222,0.11544452,inf,inf,inf,inf,1,1,1,1,2,0,2,1,5,1,1,1,0,0
845676000,845676000,1036000,41.606704,-86.3556021,-0.4751586,7.757241,-4.863394,0.0004901746,0.000109618246,0.0,-0.09278111,2.516653,-0.810601,-0.70213264,-0.00021289983,-0.012492318,-0.016992431,0.13980503,-0.011748021,-0.0751522,-1.1090312,0.03512646,229.40579,5.0939417,0.38124347,0.4155023,0.14701925,0.11540509,inf,inf,inf,inf,1,1,1,1,2,0,2,1,5,1,1,1,0,0
846172000,846172000,1036000,41.606704,-86.3556021,-0.53134364,9.017883,-5.1898165,0.0004901746,0.000109618246,0.0,-0.052498136,2.510788,-0.8250457,-0.6989444,-0.00021289983,-0.012492318,-0.016992431,0.05892518,0.020149944,-0.31400102,-1.1191446,0.03512646,229.40579,5.4203644,0.38153845,0.41653785,0.146139,0.11516062,inf,inf,inf,inf,1,1,1,1,2,0,2,1,5,1,1,1,0,0
846676000,846676000,1036000,41.606704,-86.3556021,-0.5714214,10.282381,-5.5317416,0.0004901746,0.000109618246,0.0,-0.013021753,2.4904304,-0.848791,-0.7138616,-0.00021289983,-0.012492318,-0.016992431,0.023026194,0.17995831,-0.6861529,-1.1276709,0.03512646,229.40579,5.7622895,0.3822118,0.42037174,0.14595725,0.11564696,inf,inf,inf,inf,1,1,1,1,2,0,2,1,5,1,1,1,0,0
847172000,847172000,1036000,41.606704,-86.3556021,-0.5990369,11.51267,-5.8895783,0.0004901746,0.000109618246,0.0,0.011046073,2.4892156,-0.84815794,-0.7192705,-0.00021289983,-0.012492318,-0.016992431,0.012454578,-0.09356476,0.016217055,-1.1344091,0.03512646,229.40579,6.1201262,0.40399265,0.42689714,0.15471299,0.11898408,inf,inf,inf,inf,1,1,1,1,2,0,2,1,5,1,1,1,0,0
847676000,847676000,1036000,41.606704,-86.3556021,-0.6246262,12.761683,-6.217391,0.0004901746,0.000109618246,0.0,0.032582797,2.4907076,-0.86541474,-0.709792,-0.00021289983,-0.012492318,-0.016992431,0.14768489,0.084571935,-0.16122875,-1.1478808,0.03512646,229.40579,6.447939,0.3779354,0.42211828,0.142353,0.11523293,inf,inf,inf,inf,1,1,1,1,2,0,2,1,5,1,1,1,0,0
848172000,848172000,1036000,41.606704,-86.3556021,-0.6274501,13.998121,-6.578685,0.0004901746,0.000109618246,0.0,0.048432898,2.5042424,-0.8814953,-0.73078734,-0.00021289983,-0.012492318,-0.016992431,-0.025867794,-0.049368974,-0.06681873,-1.1516099,0.03512646,229.40579,6.8092327,0.3990063,0.42744425,0.15199976,0.118732706,inf,inf,inf,inf,1,1,1,1,2,0,2,1,5,1,1,1,0,0
848676000,848676000,1036000,41.606704,-86.3556021,-0.63983583,15.253433,-6.9344654,0.0004901746,0.000109618246,0.0,0.049197964,2.502456,-0.8893494,-0.7317952,-0.00021289983,-0.012492318,-0.016992431,0.14279565,-0.00013202928,0.17647345,-1.1640911,0.03512646,229.40579,7.1650133,0.3752375,0.42255223,0.14157574,0.1151329,inf,inf,inf,inf,1,1,1,1,2,0,2,1,5,1,1,1,0,0
849172000,849172000,1036000,41.606704,-86.3556021,-0.6345337,16.494886,-7.3115363,0.0004901746,0.000109618246,0.0,0.05566753,2.5132325,-0.88084257,-0.7397034,-0.00021289983,-0.012492318,-0.016992431,-0.012683558,-0.03389493,0.12963073,-1.1720421,0.03512646,229.40579,7.542084,0.39771113,0.42742115,0.15294203,0.11898885,inf,inf,inf,inf,1,1,1,1,2,0,2,1,5,1,1,1,0,0
849676000,849676000,1036000,41.606704,-86.3556021,-0.62598264,17.7567,-7.7032228,0.0004901746,0.000109618246,0.0,0.04072995,2.4944592,-0.8493817,-0.7311306,-0.00021289983,-0.012492318,-0.016992431,0.005654918,-0.07204203,0.076579794,-1.1821709,0.03512646,229.40579,7.9337707,0.39486817,0.42875016,0.15111189,0.11884511,inf,inf,inf,inf,1,1,1,1,2,0,2,1,5,1,1,1,0,0
850172000,850172000,1036000,41.606704,-86.3556021,-0.6291515,18.987574,-8.060553,0.0004901746,0.000109618246,0.0,0.037021313,2.4820771,-0.8344771,-0.7172234,-0.00021289983,-0.012492318,-0.016992431,0.05452582,-0.027373696,-0.14500232,-1.1893485,0.03512646,229.40579,8.2911005,0.3917021,0.4292787,0.14963289,0.11848649,inf,inf,inf,inf,1,1,1,1,2,0,2,1,5,1,1,1,0,0
850676000,850676000,1036000,41.606704,-86.3556021,-0.63224506,20.212223,-8.379662,0.0004901746,0.000109618246,0.0,0.035087187,2.272879,-0.4308733,-0.32189575,-0.00021289983,-0.012492318,-0.016992431,0.13944712,-1.1103745,1.5212612,-1.2139604,0.03512646,229.40579,8.610209,0.38991466,0.42727953,0.14838396,0.11798779,inf,inf,inf,inf,1,1,1,1,2,0,2,1,5,1,1,1,0,0
851172000,851172000,1036000,41.606704,-86.3556021,-0.6370424,21.151299,-8.390489,0.0004901746,0.000109618246,0.0,0.038368247,1.3268907,0.17864703,0.2776966,-0.00021289983,-0.012492318,-0.016992431,0.07747581,-2.5510216,1.093433,-1.2004336,0.03512646,229.40579,8.621037,0.38797817,0.4247764,0.1486066,0.1173509,inf,inf,inf,inf,1,1,1,1,2,0,2,1,5,1,1,1,0,0
851676000,851676000,1036000,41.606704,-86.3556021,-0.68029505,21.53529,-8.158198,0.0004901746,0.000109618246,0.0,0.038319867,0.041130625,0.588145,0.6698634,-0.00021289983,-0.012492318,-0.016992431,0.15161394,-2.475936,0.61984444,-1.190005,0.03512646,229.40579,8.388746,0.38857132,0.4262885,0.15503645,0.117215745,inf,inf,inf,inf,1,1,1,1,2,0,2,1,5,1,1,1,0,0
852172000,852172000,1036000,41.606704,-86.3556021,-0.7311149,21.336267,-7.8221226,0.0004901746,0.000109618246,0.0,0.058901,-0.85917854,0.5971891,0.6555156,-0.00021289983,-0.012492318,-0.016992431,0.04368238,-1.1417356,0.24194543,-1.1983058,0.03512646,229.40579,8.0526705,0.41214895,0.43023244,0.17036206,0.12012531,inf,inf,inf,inf,1,1,1,1,2,0,2,1,5,1,1,1,0,0
852668000,852668000,1036000,41.606704,-86.3556021,-0.86030126,20.808968,-7.5423613,0.0004901746,0.000109618246,0.0,0.06783971,-1.1548332,0.6001737,0.63856184,-0.00021289983,-0.012492318,-0.016992431,0.3934761,0.08679298,0.3233598,-1.2031593,0.03512646,229.40579,7.772909,0.3823606,0.42410392,0.15148424,0.11564594,inf,inf,inf,inf,1,1,1,1,2,0,2,1,5,1,1,1,0,0
853172000,853172000,1036000,41.606704,-86.3556021,-0.93534267,20.241516,-7.212585,0.0004901746,0.000109618246,0.0,0.17697304,-0.9043951,0.71416354,0.7324026,-0.00021289983,-0.012492318,-0.016992431,0.28490955,0.77638274,0.028863484,-1.1912674,0.03512646,229.40579,7.443133,0.4059148,0.42835662,0.15856844,0.11977032,inf,inf,inf,inf,1,1,1,1,2,0,2,1,5,1,1,1,0,0
853676000,853676000,1036000,41.606704,-86.3556021,-0.9108463,19.801165,-6.8996563,0.0004901746,0.000109618246,0.0,0.24146268,-0.67481524,0.6990808,0.67941517,-0.00021289983,-0.012492318,-0.016992431,0.13024136,0.35994256,0.09186093,-1.1900094,0.03512646,229.40579,7.130204,0.37979746,0.42324582,0.14445636,0.11637101,inf,inf,inf,inf,1,1,1,1,2,0,2,1,5,1,1,1,0,0
854172000,854172000,1036000,41.606704,-86.3556021,-0.821975,19.474703,-6.5809526,0.0004901746,0.000109618246,0.0,0.2364469,-0.45948267,0.8006532,0.7490733,-0.00021289983,-0.012492318,-0.016992431,-0.08372833,0.49226153,0.18645723,-1.1885513,0.03512646,229.40579,6.8115005,0.3795352,0.4211702,0.1448219,0.11685923,inf,inf,inf,inf,1,1,1,1,2,0,2,1,5,1,1,1,0,0
854676000,854676000,1036000,41.606704,-86.3556021,-0.7110522,19.279598,-6.204933,0.0004901746,0.000109618246,0.0,0.1705674,-0.2193973,0.81923544,0.7647024,-0.00021289983,-0.012492318,-0.016992431,-0.20065524,0.41841835,-0.05516602,-1.1900605,0.03512646,229.40579,6.435481,0.40208375,0.42571926,0.15624012,0.12119305,inf,inf,inf,inf,1,1,1,1,2,0,2,1,5,1,1,1,0,0
855172000,855172000,1036000,41.606704,-86.3556021,-0.62162924,19.19073,-5.854251,0.0004901746,0.000109618246,0.0,0.08585266,-0.05944283,0.8045582,0.7345425,-0.00021289983,-0.012492318,-0.016992431,-0.23663308,0.24681851,-0.034854807,-1.1916645,0.03512646,229.40579,6.084799,0.39751816,0.4263066,0.15417342,0.12094767,inf,inf,inf,inf,1,1,1,1,2,0,2,1,5,1,1,1,0,0
855676000,855676000,1036000,41.606704,-86.3556021,-0.56279206,19.165106,-5.510424,0.0004901746,0.000109618246,0.0,0.0043684053,0.029647056,0.8234188,0.7345727,-0.00021289983,-0.012492318,-0.016992431,-0.13783152,0.09723261,0.0046816953,-1.192267,0.03512646,229.40579,5.740972,0.39623144,0.42775267,0.15422496,0.12116308,inf,inf,inf,inf,1,1,1,1,2,0,2,1,5,1,1,1,0,0
856172000,856172000,1036000,41.606704,-86.3556021,-0.54217005,20.002092,-6.617894,0.0004901746,0.000109618246,0.0,-0.098371856,4.0275283,-3.2495258,-3.2807293,-0.00021289983,-0.012492318,-0.016992431,-0.12398489,8.28675,-0.23844935,-1.1515111,0.03512646,229.40579,6.848442,0.39359534,0.42812935,0.19264229,0.11734025,inf,inf,inf,inf,1,1,1,1,2,0,2,1,5,1,1,1,0,0
856676000,856676000,1036000,41.606704,-86.3556021,-0.38678157,22.535694,-8.375766,0.0004901746,0.000109618246,0.0,-0.046060562,6.082169,-3.5294945,-3.5817626,-0.00021289983,-0.012492318,-0.016992431,-0.4897797,1.5836393,-0.099031314,-1.2559446,0.03512646,229.40579,8.606314,0.3713033,0.42019445,0.18035972,0.10958775,inf,inf,inf,inf,1,1,1,1,2,0,2,1,5,1,1,1,0,0
857172000,857172000,1036000,41.606704,-86.3556021,-0.26283547,25.630236,-10.147021,0.0004901746,0.000109618246,0.0,-0.20033239,6.207118,-3.2029998,-3.2708302,-0.00021289983,-0.012492318,-0.016992431,-0.31467015,-1.9175991,2.7689266,-1.2786844,0.03512646,229.40579,10.377569,0.39376917,0.42516935,0.18673782,0.10900036,inf,inf,inf,inf,1,1,1,1,2,0,2,1,5,1,1,1,0,0
857676000,857676000,1036000,41.606704,-86.3556021,-0.2358991,28.464653,-11.381747,0.0004901746,0.000109618246,0.0,-0.21067302,4.577901,-1.4958274,-1.5784444,-0.00021289983,-0.012492318,-0.016992431,-0.15832192,-3.8027318,2.9855447,-1.2839949,0.03512646,229.40579,11.612295,0.39049935,0.4219854,0.16477263,0.10449878,inf,inf,inf,inf,1,1,1,1,2,0,2,1,5,1,1,1,0,0
858172000,858172000,1036000,41.606704,-86.3556021,-0.26347533,30.478664,-11.922838,0.0004901746,0.000109618246,0.0,-0.23978865,2.9559186,-0.5516876,-0.656915,-0.00021289983,-0.012492318,-0.016992431,-0.13450967,-2.8775277,1.1072818,-1.261262,0.03512646,229.40579,12.153386,0.38828835,0.42113665,0.16053759,0.10310466,inf,inf,inf,inf,1,1,1,1,2,0,2,1,5,1,1,1,0,0
858676000,858676000,1036000,41.606704,-86.3556021,-0.40534386,31.77945,-12.141013,0.0004901746,0.000109618246,0.0,-0.24629082,1.8234434,-0.22894655,-0.31848514,-0.00021289983,-0.012492318,-0.016992431,0.014054303,-2.0951195,1.0256467,-1.259808,0.03512646,229.40579,12.371561,0.38593122,0.4177771,0.16246383,0.10353978,inf,inf,inf,inf,1,1,1,1,2,0,2,1,5,1,1,1,0,0
859172000,859172000,1036000,41.606704,-86.3556021,-0.58359885,32.526455,-12.214856,0.0004901746,0.000109618246,0.0,-0.10368454,0.6304089,0.16761313,0.091623336,-0.00021289983,-0.012492318,-0.016992431,0.6676034,-3.7404711,0.93193716,-1.2448686,0.03512646,229.40579,12.445404,0.38478515,0.4170748,0.16328917,0.10330696,inf,inf,inf,inf,1,1,1,1,2,0,2,1,5,1,1,1,0,0
859676000,859676000,1036000,41.606704,-86.3556021,-0.6711471,32.58008,-12.147068,0.0004901746,0.000109618246,0.0,0.103303395,-0.41820377,0.14965306,0.07975546,-0.00021289983,-0.012492318,-0.016992431,0.3775516,-0.765091,-0.10809867,-1.2480006,0.03512646,229.40579,12.377616,0.38453546,0.41690657,0.16349344,0.09988878,inf,inf,inf,inf,1,1,1,1,2,0,2,1,5,1,1,1,0,0
860172000,860172000,1036000,41.606704,-86.3556021,-0.6928702,32.3384,-12.113729,0.0004901746,0.000109618246,0.0,0.1710724,-0.52550876,0.09665469,0.032877453,-0.00021289983,-0.012492318,-0.016992431,0.20633952,0.26976827,-0.030078055,-1.2554688,0.03512646,229.40579,12.344276,0.4061842,0.41721568,0.17266439,0.10022385,inf,inf,inf,inf,1,1,1,1,2,0,2,1,5,1,1,1,0,0
860668000,860668000,1036000,41.606704,-86.3556021,-0.734577,32.101513,-12.115697,0.0004901746,0.000109618246,0.0,0.1947738,-0.3522149,0.070648655,-0.0025907669,-0.00021289983,-0.012492318,-0.016992431,0.2728633,0.4763674,-0.08061534,-1.2650517,0.03512646,229.40579,12.346245,0.37856293,0.412596,0.15500371,0.09768405,inf,inf,inf,inf,1,1,1,1,2,0,2,1,5,1,1,1,0,0
861172000,861172000,1036000,41.606704,-86.3556021,-0.703904,31.962242,-12.129978,0.0004901746,0.000109618246,0.0,0.23461486,-0.13944916,0.051735368,-0.02887651,-0.00021289983,-0.012492318,-0.016992431,-0.006016792,0.3959374,-0.03551791,-1.2645444,0.03512646,229.40579,12.360526,0.40079072,0.4162303,0.16696306,0.10140017,inf,inf,inf,inf,1,1,1,1,2,0,2,1,5,1,1,1,0,0
861676000,861676000,1036000,41.606704,-86.3556021,-0.65039384,31.91109,-12.167566,0.0004901746,0.000109618246,0.0,0.21118246,0.0006644923,0.06476139,-0.034711637,-0.00021289983,-0.012492318,-0.016992431,0.049491633,0.17872384,-0.03851956,-1.2679257,0.03512646,229.40579,12.398114,0.3762421,0.4097332,0.1537895,0.100945406,inf,inf,inf,inf,1,1,1,1,2,0,2,1,5,1,1,1,0,0
862172000,862172000,1036000,41.606704,-86.3556021,-0.5876565,31.923176,-12.187533,0.0004901746,0.000109618246,0.0,0.16929553,0.06611431,0.07212658,-0.028054198,-0.00021289983,-0.012492318,-0.016992431,-0.17412229,0.0851767,-0.561812,-1.2703553,0.03512646,229.40579,12.418081,0.39961347,0.41363308,0.16735798,0.10650038,inf,inf,inf,inf,1,1,1,1,2,0,2,1,5,1,1,1,0,0
862668000,862668000,1036000,41.606704,-86.3556021,-0.5311006,31.956228,-12.201889,0.0004901746,0.000109618246,0.0,0.11270959,0.07877829,0.070901364,-0.028581688,-0.00021289983,-0.012492318,-0.016992431,-0.06591673,-0.01294001,0.038945984,-1.2732307,0.03512646,229.40579,12.432437,0.3959101,0.41121724,0.16360572,0.10885908,inf,inf,inf,inf,1,1,1,1,2,0,2,1,5,1,1,1,0,0
863172000,863172000,1036000,41.606704,-86.3556021,-0.5039348,31.98947,-12.239642,0.0004901746,0.000109618246,0.0,0.061704006,0.06561471,0.08790713,-0.030946516,-0.00021289983,-0.012492318,-0.016992431,-0.09126252,-0.05468579,0.22806033,-1.2737547,0.03512646,229.40579,12.47019,0.39354423,0.41256973,0.16072547,0.11153412,inf,inf,inf,inf,1,1,1,1,2,0,2,1,5,1,1,1,0,0
863676000,863676000,1036000,41.606704,-86.3556021,-0.48767304,32.017998,-12.259005,0.0004901746,0.000109618246,0.0,0.03566166,0.047335852,0.10594176,-0.01838131,-0.00021289983,-0.012492318,-0.016992431,-0.02197487,-0.091776,0.0741388,-1.2751954,0.03512646,229.40579,12.4895525,0.39166328,0.41141045,0.15811767,0.11367382,inf,inf,inf,inf,1,1,1,1,2,0,2,1,5,1,1,1,0,0
864172000,864172000,1036000,41.606704,-86.3556021,-0.47948033,32.041737,-12.289564,0.0004901746,0.000109618246,0.0,0.019868778,0.02823106,0.12275792,-0.019266076,-0.00021289983,-0.012492318,-0.016992431,-0.06577005,0.00090867234,0.08187995,-1.2755814,0.03512646,229.40579,12.520112,0.389678,0.41015807,0.15577966,0.11535171,inf,inf,inf,inf,1,1,1,1,2,0,2,1,5,1,1,1,0,0
864676000,864676000,1036000,41.606704,-86.3556021,-0.47504455,32.05173,-12.3126955,0.0004901746,0.000109618246,0.0,0.0058899513,0.013055645,0.15026519,-0.0032856953,-0.00021289983,-0.012492318,-0.016992431,-0.09844357,0.021387884,-0.068900235,-1.2762012,0.03512646,229.40579,12.543243,0.39028227,0.41275117,0.15533791,0.1174452,inf,inf,inf,inf,1,1,1,1,2,0,2,1,5,1,1,1,0,0
865172000,865172000,1036000,41.606704,-86.3556021,-0.46970284,32.055763,-12.30581,0.0004901746,0.000109618246,0.0,0.0064957445,0.0027174174,0.1440415,0.0019796903,-0.00021289983,-0.012492318,-0.016992431,0.10645322,-0.0061090817,0.29681987,-1.2764049,0.03512646,229.40579,12.536358,0.41412747,0.4175086,0.1652606,0.122375794,inf,inf,inf,inf,1,1,1,1,2,0,2,1,5,1,1,1,0,0
865676000,865676000,1036000,41.606704,-86.3556021,-0.46582526,32.06191,-12.322263,0.0004901746,0.000109618246,0.0,-0.0051040906,0.0015282694,0.14206831,-0.011096436,-0.00021289983,-0.012492318,-0.016992431,-0.016212177,-0.07990345,0.066326864,-1.2771109,0.03512646,229.40579,12.552811,0.3843856,0.41440287,0.14870605,0.11873892,inf,inf,inf,inf,1,1,1,1,2,0,2,1,5,1,1,1,0,0
866172000,866172000,1036000,41.606704,-86.3556021,-0.45585534,32.067486,-12.330691,0.0004901746,0.000109618246,0.0,-0.0017973016,-0.0036939746,0.16127437,0.006498715,-0.00021289983,-0.012492318,-0.016992431,0.008903423,-0.05522077,0.08086574,-1.2773609,0.03512646,229.40579,12.561239,0.40724266,0.4194809,0.15865101,0.123163596,inf,inf,inf,inf,1,1,1,1,2,0,2,1,5,1,1,1,0,0
866676000,866676000,1036000,41.606704,-86.3556021,-0.4482519,32.072083,-12.332209,0.0004901746,0.000109618246,0.0,-0.0068298136,-0.0048186067,0.1544117,-0.00097370753,-0.00021289983,-0.012492318,-0.016992431,0.009526552,-0.09392605,0.09097431,-1.2775176,0.03512646,229.40579,12.562757,0.38061455,0.41613343,0.14519906,0.119154364,inf,inf,inf,inf,1,1,1,1,2,0,2,1,5,1,1,1,0,0
867172000,867172000,1036000,41.606704,-86.3556021,-0.4482302,32.08237,-12.332093,0.0004901746,0.000109618246,0.0,-0.02029933,-0.0061464976,0.15417604,0.0007838798,-0.00021289983,-0.012492318,-0.016992431,-0.057411913,-0.08463691,-0.008059728,-1.2775772,0.03512646,229.40579,12.562641,0.38030177,0.41536584,0.14530179,0.119220644,inf,inf,inf,inf,1,1,1,1,2,0,2,1,5,1,1,1,0,0
867676000,867676000,1036000,41.606704,-86.3556021,-0.4534128,32.08638,-12.314459,0.0004901746,0.000109618246,0.0,-0.02029933,-0.01362708,0.1455459,0.008681812,-0.00021289983,-0.012492318,-0.016992431,-0.08664661,-0.010032886,-0.17936346,-1.2775596,0.03512646,229.40579,12.545007,0.4031133,0.42425323,0.15552893,0.123698056,inf,inf,inf,inf,1,1,1,1,2,0,2,1,5,1,1,1,0,0
868172000,868172000,1036000,41.606704,-86.3556021,-0.45539582,32.085484,-12.303177,0.0004901746,0.000109618246,0.0,-0.0071872734,-0.014343852,0.12723409,0.0009482433,-0.00021289983,-0.012492318,-0.016992431,-0.11449346,-0.13549,0.8060987,-1.2774947,0.03512646,229.40579,12.533725,0.39834684,0.42280632,0.15221962,0.12267978,inf,inf,inf,inf,1,1,1,1,2,0,2,1,5,1,1,1,0,0
868676000,868676000,1036000,41.606704,-86.3556021,-0.45632222,32.092915,-12.290866,0.0004901746,0.000109618246,0.0,-0.008319623,-0.013371173,0.11950037,0.005941702,-0.00021289983,-0.012492318,-0.016992431,-0.03244281,-0.016604923,0.019616382,-1.2773474,0.03512646,229.40579,12.521414,0.3969088,0.4223028,0.15161955,0.12228113,inf,inf,inf,inf,1,1,1,1,2,0,2,1,5,1,1,1,0,0
869172000,869172000,1036000,41.606704,-86.3556021,-0.46183503,32.090664,-12.273761,0.0004901746,0.000109618246,0.0,-0.0052498514,-0.017179176,0.10014771,0.0022320997,-0.00021289983,-0.012492318,-0.016992431,0.060547125,-0.05267398,0.106892474,-1.277158,0.03512646,229.40579,12.504309,0.39375964,0.4239071,0.14996193,0.12181933,inf,inf,inf,inf,1,1,1,1,2,0,2,1,5,1,1,1,0,0
869676000,869676000,1036000,41.606704,-86.3556021,-0.4703473,32.085754,-12.25928,0.0004901746,0.000109618246,0.0,-0.00260983,-0.010235439,0.081835024,-0.0026627276,-0.00021289983,-0.012492318,-0.016992431,0.054810256,-0.046514876,0.026615271,-1.2770815,0.03512646,229.40579,12.489828,0.37166744,0.41685823,0.1403557,0.11739662,inf,inf,inf,inf,1,1,1,1,2,0,2,1,5,1,1,1,0,0
870172000,870172000,1036000,41.606704,-86.3556021,-0.47339338,32.08024,-12.239093,0.0004901746,0.000109618246,0.0,0.0058840113,-0.008161987,0.06377408,-0.0016289459,-0.00021289983,-0.012492318,-0.016992431,-0.015093603,0.08944866,0.01987529,-1.277255,0.03512646,229.40579,12.469641,0.39246443,0.42454255,0.15044746,0.121413596,inf,inf,inf,inf,1,1,1,1,2,0,2,1,5,1,1,1,0,0
870676000,870676000,1036000,41.606704,-86.3556021,-0.4726474,32.06362,-12.222666,0.0004901746,0.000109618246,0.0,0.008622974,-0.0008447945,0.047799036,-0.0017892858,-0.00021289983,-0.012492318,-0.016992431,0.08933838,0.026638553,-0.13781437,-1.2772886,0.03512646,229.40579,12.453214,0.38895798,0.42600188,0.14796577,0.120802775,inf,inf,inf,inf,1,1,1,1,2,0,2,1,5,1,1,1,0,0
871172000,871172000,1036000,41.606704,-86.3556021,-0.47567663,32.045177,-12.210586,0.0004901746,0.000109618246,0.0,0.0138906855,0.010259541,0.03735527,0.00037925807,-0.00021289983,-0.012492318,-0.016992431,0.039899796,0.047091454,-0.13594986,-1.2772875,0.03512646,229.40579,12.4411335,0.3869409,0.4238725,0.14728649,0.1200783,inf,inf,inf,inf,1,1,1,1,2,0,2,1,5,1,1,1,0,0
871676000,871676000,1036000,41.606704,-86.3556021,-0.4768049,32.038372,-12.1948595,0.0004901746,0.000109618246,0.0,0.017139483,0.019494217,0.01729755,-0.0042147464,-0.00021289983,-0.012492318,-0.016992431,-0.016269296,0.0033970324,-0.6928742,-1.2771857,0.03512646,229.40579,12.425407,0.38476676,0.42526528,0.1460876,0.11974542,inf,inf,inf,inf,1,1,1,1,2,0,2,1,5,1,1,1,0,0
872172000,872172000,1036000,41.606704,-86.3556021,-0.49180907,32.028664,-12.187994,0.0004901746,0.000109618246,0.0,0.016230656,0.026132666,0.007907084,-0.0059164143,-0.00021289983,-0.012492318,-0.016992431,0.08712556,0.04166818,-0.019537348,-1.2773643,0.03512646,229.40579,12.418542,0.3837571,0.42309842,0.1461991,0.1192725,inf,inf,inf,inf,1,1,1,1,2,0,2,1,5,1,1,1,0,0
872676000,872676000,1036000,41.606704,-86.3556021,-0.50081754,32.029053,-12.178356,0.0004901746,0.000109618246,0.0,0.031501047,0.034315642,-0.0039219866,-0.0068543805,-0.00021289983,-0.012492318,-0.016992431,0.059491675,0.019321226,0.036078442,-1.2771513,0.03512646,229.40579,12.408904,0.3835776,0.424665,0.14647916,0.11941569,inf,inf,inf,inf,1,1,1,1,2,0,2,1,5,1,1,1,0,0
873172000,873172000,1036000,41.606704,-86.3556021,-0.49936172,32.033463,-12.176503,0.0004901746,0.000109618246,0.0,0.037130084,0.032489493,-0.0067883893,-0.007616852,-0.00021289983,-0.012492318,-0.016992431,0.048091244,-0.007882957,-0.06373046,-1.2771785,0.03512646,229.40579,12.407051,0.404434,0.43187392,0.15541975,0.12314631,inf,inf,inf,inf,1,1,1,1,2,0,2,1,5,1,1,1,0,0
873676000,873676000,1036000,41.606704,-86.3556021,-0.5093755,32.031273,-12.170046,0.0004901746,0.000109618246,0.0,0.035049066,0.02708609,-0.01148029,-0.0054813013,-0.00021289983,-0.012492318,-0.016992431,0.050401136,-0.0016910301,-0.12432882,-1.2769675,0.03512646,229.40579,12.400594,0.37834457,0.42311582,0.14302722,0.11819864,inf,inf,inf,inf,1,1,1,1,2,0,2,1,5,1,1,1,0,0
874172000,874172000,1036000,41.606704,-86.3556021,-0.5144955,32.03854,-12.166123,0.0004901746,0.000109618246,0.0,0.025928853,0.0151530765,0.003912025,0.012286726,-0.00021289983,-0.012492318,-0.016992431,-0.07526581,0.05293958,-0.13510981,-1.2768794,0.03512646,229.40579,12.396671,0.39917877,0.43007696,0.15251909,0.12205211,inf,inf,inf,inf,1,1,1,1,2,0,2,1,5,1,1,1,0,0
874676000,874676000,1036000,41.606704,-86.3556021,-0.5373633,32.03674,-12.1498995,0.0004901746,0.000109618246,0.0,0.005851334,0.009630509,-0.01624372,0.00029119616,-0.00021289983,-0.012492318,-0.016992431,0.22848323,0.099094704,0.2209767,-1.2770147,0.03512646,229.40579,12.380447,0.37536475,0.4246906,0.14180887,0.11785251,inf,inf,inf,inf,1,1,1,1,2,0,2,1,5,1,1,1,0,0
875172000,875172000,1036000,41.606704,-86.3556021,-0.53469807,32.04879,-12.154639,0.0004901746,0.000109618246,0.0,0.12101982,0.058327287,-0.053638544,-0.035708353,-0.00021289983,-0.012492318,-0.016992431,0.6022007,0.20198847,-0.104678854,-1.2781146,0.03512646,229.40579,12.385187,0.3979361,0.4286101,0.1530474,0.12174338,inf,inf,inf,inf,1,1,1,1,2,0,2,1,5,1,1,1,0,0
875676000,875676000,1036000,41.606704,-86.3556021,-0.39643994,32.09596,-12.182559,0.0004901746,0.000109618246,0.0,0.62917906,0.12923227,-0.12928957,-0.109610595,-0.00021289983,-0.012492318,-0.016992431,1.3680656,0.1126289,-0.24565406,-1.284959,0.03512646,229.40579,12.413107,0.3951712,0.42946708,0.15138438,0.121356465,inf,inf,inf,inf,1,1,1,1,2,0,2,1,5,1,1,1,0,0
876172000,876172000,1036000,41.606704,-86.3556021,0.06373399,32.17264,-12.246308,0.0004901746,0.000109618246,0.0,1.4417661,0.16687681,-0.16435252,-0.14233759,-0.00021289983,-0.012492318,-0.016992431,1.477028,-0.008341038,0.06419507,-1.2894318,0.03512646,229.40579,12.476856,0.3920784,0.42972377,0.15062423,0.1206276,inf,inf,inf,inf,1,1,1,1,2,0,2,1,5,1,1,1,0,0
876676000,876676000,1036000,41.606704,-86.3556021,0.91068804,32.25437,-12.310485,0.0004901746,0.000109618246,0.0,2.0258093,0.1812691,-0.14788133,-0.12146215,-0.00021289983,-0.012492318,-0.016992431,0.92657113,0.063460425,0.02710701,-1.2869573,0.03512646,229.40579,12.541033,0.3902286,0.42744794,0.15006793,0.11974523,inf,inf,inf,inf,1,1,1,1,2,0,2,1,5,1,1,1,0,0
877172000,877172000,1036000,41.606704,-86.3556021,1.9886632,32.336365,-12.348615,0.0004901746,0.000109618246,0.0,2.3353212,0.18856181,-0.11138559,-0.07586655,-0.00021289983,-0.012492318,-0.016992431,0.41696715,0.014172312,0.04813162,-1.2898043,0.03512646,229.40579,12.579163,0.38829952,0.4277664,0.14889841,0.11926335,inf,inf,inf,inf,1,1,1,1,2,0,2,1,5,1,1,1,0,0
877676000,877676000,1036000,41.606704,-86.3556021,3.2074192,32.421482,-12.383669,0.0004901746,0.000109618246,0.0,2.4599802,0.19896053,-0.07041924,-0.042308353,-0.00021289983,-0.012492318,-0.016992431,0.20338391,-0.08587624,0.09973526,-1.2969952,0.03512646,229.40579,12.614217,0.3888849,0.4257468,0.14910178,0.119046845,inf,inf,inf,inf,1,1,1,1,2,0,2,1,5,1,1,1,0,0
878172000,878172000,1036000,41.606704,-86.3556021,4.448631,32.51885,-12.401732,0.0004901746,0.000109618246,0.0,2.5037045,0.20943995,-0.056041162,-0.031109562,-0.00021289983,-0.012492318,-0.016992431,0.09711284,0.043415196,0.011552993,-1.302113,0.03512646,229.40579,12.63228,0.4119422,0.43276957,0.15864868,0.12293191,inf,inf,inf,inf,1,1,1,1,2,0,2,1,5,1,1,1,0,0
878676000,878676000,1036000,41.606704,-86.3556021,5.734213,32.62215,-12.407349,0.0004901746,0.000109618246,0.0,2.4692152,0.20118695,-0.0022227631,0.024187371,-0.00021289983,-0.012492318,-0.016992431,-0.57379377,-0.039841965,0.31807733,-1.312554,0.03512646,229.40579,12.637897,0.38317752,0.4237514,0.14425135,0.11784615,inf,inf,inf,inf,1,1,1,1,2,0,2,1,5,1,1,1,0,0
879172000,879172000,1036000,41.606704,-86.3556021,6.8415318,32.71146,-12.369819,0.0004901746,0.000109618246,0.0,1.7751967,0.1465625,0.098556004,0.118030295,-0.00021289983,-0.012492318,-0.016992431,-1.8147904,-0.107386336,0.012806553,-1.3203022,0.03512646,229.40579,12.600367,0.40545958,0.43074647,0.1542154,0.12202281,inf,inf,inf,inf,1,1,1,1,2,0,2,1,5,1,1,1,0,0
879676000,879676000,1036000,41.606704,-86.3556021,7.5811057,32.788483,-12.299856,0.0004901746,0.000109618246,0.0,1.0589228,0.08660244,0.21291424,0.23816527,-0.00021289983,-0.012492318,-0.016992431,-0.42343798,-0.04959445,1.2354085,-1.3309898,0.03512646,229.40579,12.530404,0.37959254,0.4222032,0.1436681,0.117422745,inf,inf,inf,inf,1,1,1,1,2,0,2,1,5,1,1,1,0,0
880172000,880172000,1036000,41.606704,-86.3556021,8.060701,32.843105,-12.019547,0.0004901746,0.000109618246,0.0,0.5973867,0.02922348,0.79994196,0.8177205,-0.00021289983,-0.012492318,-0.016992431,-1.7551454,-0.13617493,0.6787739,-1.3311919,0.03512646,229.40579,12.250095,0.37925577,0.42309847,0.14331037,0.11769006,inf,inf,inf,inf,1,1,1,1,2,0,2,1,5,1,1,1,0,0
880676000,880676000,1036000,41.606704,-86.3556021,8.182651,32.86746,-11.542613,0.0004901746,0.000109618246,0.0,-0.14249411,-0.02852774,1.0200987,1.0294673,-0.00021289983,-0.012492318,-0.016992431,-1.0529269,-0.11283441,-0.4690746,-1.3176174,0.03512646,229.40579,11.773161,0.40145776,0.43083465,0.15489611,0.121722616,inf,inf,inf,inf,1,1,1,1,2,0,2,1,5,1,1,1,0,0
881172000,881172000,1036000,41.606704,-86.3556021,8.054206,32.888634,-11.077704,0.0004901746,0.000109618246,0.0,-0.36691153,-0.055340227,0.8459581,0.8666421,-0.00021289983,-0.012492318,-0.016992431,-0.14529885,-0.046330623,-0.26048538,-1.31197,0.03512646,229.40579,11.308252,0.39689633,0.42789644,0.15244496,0.12064834,inf,inf,inf,inf,1,1,1,1,2,0,2,1,5,1,1,1,0,0
881676000,881676000,1036000,41.606704,-86.3556021,7.8756723,32.907635,-10.658754,0.0004901746,0.000109618246,0.0,-0.41458434,-0.08120222,0.8253833,0.83809114,-0.00021289983,-0.012492318,-0.016992431,0.053882886,-0.1277506,-0.056296647,-1.3119593,0.03512646,229.40579,10.889302,0.39555034,0.42907947,0.15114996,0.12068748,inf,inf,inf,inf,1,1,1,1,2,0,2,1,5,1,1,1,0,0
882172000,882172000,1036000,41.606704,-86.3556021,7.679616,32.89935,-10.246178,0.0004901746,0.000109618246,0.0,-0.39988902,-0.104264975,0.8524557,0.8572832,-0.00021289983,-0.012492318,-0.016992431,0.08862417,-0.083395585,-0.4012939,-1.3133357,0.03512646,229.40579,10.476726,0.39259833,0.42634398,0.14881444,0.120037615,inf,inf,inf,inf,1,1,1,1,2,0,2,1,5,1,1,1,0,0
882676000,882676000,1036000,41.606704,-86.3556021,7.5126305,32.874363,-9.8138075,0.0004901746,0.000109618246,0.0,-0.30015087,-0.110431515,0.9063938,0.9015049,-0.00021289983,-0.012492318,-0.016992431,0.15336777,0.061233044,0.11333909,-1.3156023,0.03512646,229.40579,10.044355,0.37087813,0.4215073,0.13882731,0.11637822,inf,inf,inf,inf,1,1,1,1,2,0,2,1,5,1,1,1,0,0
883172000,883172000,1036000,41.606704,-86.3556021,7.3979034,32.830784,-9.363217,0.0004901746,0.000109618246,0.0,-0.19199614,-0.09639653,0.8994502,0.90086293,-0.00021289983,-0.012492318,-0.016992431,0.19967423,0.07976961,-0.0029719134,-1.3176926,0.03512646,229.40579,9.593765,0.3915453,0.42841837,0.14847079,0.12057799,inf,inf,inf,inf,1,1,1,1,2,0,2,1,5,1,1,1,0,0
883676000,883676000,1036000,41.606704,-86.3556021,7.3339562,32.79445,-8.906633,0.0004901746,0.000109618246,0.0,-0.097881585,-0.06420157,0.8945818,0.8990454,-0.00021289983,-0.012492318,-0.016992431,0.09064401,0.06676816,0.042159047,-1.3192614,0.03512646,229.40579,9.137181,0.3881148,0.4262192,0.14607823,0.11986078,inf,inf,inf,inf,1,1,1,1,2,0,2,1,5,1,1,1,0,0
884172000,884172000,1036000,41.606704,-86.3556021,7.322096,32.773247,-8.468548,0.0004901746,0.000109618246,0.0,-0.038362663,-0.035146903,0.88705635,0.8871739,-0.00021289983,-0.012492318,-0.016992431,0.04850285,0.101876386,0.03918254,-1.3205073,0.03512646,229.40579,8.699096,0.38621417,0.426856,0.14555882,0.11975002,inf,inf,inf,inf,1,1,1,1,2,0,2,1,5,1,1,1,0,0
884676000,884676000,1036000,41.606704,-86.3556021,7.331098,32.76127,-8.023104,0.0004901746,0.000109618246,0.0,-0.01595663,-0.015924416,0.8703903,0.8724381,-0.00021289983,-0.012492318,-0.016992431,0.048158478,0.015435197,0.0028237067,-1.3212943,0.03512646,229.40579,8.253652,0.38415655,0.4248887,0.14460674,0.119239256,inf,inf,inf,inf,1,1,1,1,2,0,2,1,5,1,1,1,0,0
885172000,885172000,1036000,41.606704,-86.3556021,7.3502617,32.75783,-7.591844,0.0004901746,0.000109618246,0.0,-0.0131657915,-0.0069479235,0.8464467,0.85266,-0.00021289983,-0.012492318,-0.016992431,-0.116888,0.041209977,-0.077284,-1.3220308,0.03512646,229.40579,7.822392,0.38323355,0.42575076,0.14487606,0.119307846,inf,inf,inf,inf,1,1,1,1,2,0,2,1,5,1,1,1,0,0
885668000,885668000,1036000,41.606704,-86.3556021,7.3601346,32.757957,-7.1752954,0.0004901746,0.000109618246,0.0,-0.023012199,0.0032933801,0.8174969,0.82433176,-0.00021289983,-0.012492318,-0.016992431,-0.2689501,-0.071284495,0.5941139,-1.3218839,0.03512646,229.40579,7.4058433,0.3824188,0.42348534,0.14496832,0.11900948,inf,inf,inf,inf,1,1,1,1,2,0,2,1,5,1,1,1,0,0
886172000,886172000,1036000,41.606704,-86.3556021,7.3619733,32.755413,-6.768251,0.0004901746,0.000109618246,0.0,-0.030609459,0.00058373343,0.80201834,0.80648917,-0.00021289983,-0.012492318,-0.016992431,-0.01677227,-0.03879323,-0.0005663073,-1.32172,0.03512646,229.40579,6.998799,0.40392172,0.43127605,0.15414728,0.123021014,inf,inf,inf,inf,1,1,1,1,2,0,2,1,5,1,1,1,0,0
886676000,886676000,1036000,41.606704,-86.3556021,7.3652754,32.750206,-6.367857,0.0004901746,0.000109618246,0.0,-0.032715958,0.0054973764,0.7676029,0.7742055,-0.00021289983,-0.012492318,-0.016992431,-0.051039923,0.052418504,-0.036657847,-1.3215047,0.03512646,229.40579,6.598405,0.3780936,0.4227489,0.14214832,0.11819532,inf,inf,inf,inf,1,1,1,1,2,0,2,1,5,1,1,1,0,0
887172000,887172000,1036000,41.606704,-86.3556021,7.3636155,32.75132,-5.993751,0.0004901746,0.000109618246,0.0,-0.030551089,0.00731993,0.74943626,0.75159645,-0.00021289983,-0.012492318,-0.016992431,-0.012481099,0.032414567,-0.036956802,-1.3214816,0.03512646,229.40579,6.224299,0.3988861,0.42994556,0.15157466,0.12215245,inf,inf,inf,inf,1,1,1,1,2,0,2,1,5,1,1,1,0,0
887676000,887676000,1036000,41.606704,-86.3556021,7.362327,32.752403,-5.625481,0.0004901746,0.000109618246,0.0,-0.031372756,0.0056921863,0.7326218,0.7297712,-0.00021289983,-0.012492318,-0.016992431,-0.0065822643,-0.086698845,-0.029093647,-1.3213542,0.03512646,229.40579,5.856029,0.37518293,0.4217326,0.14098354,0.11764519,inf,inf,inf,inf,1,1,1,1,2,0,2,1,5,1,1,1,0,0
888172000,888172000,1036000,41.606704,-86.3556021,7.351516,32.75307,-5.26449,0.0004901746,0.000109618246,0.0,-0.035610978,0.0045041507,0.71030605,0.7108209,-0.00021289983,-0.012492318,-0.016992431,0.03786532,-0.026174068,-0.12655096,-1.3212183,0.03512646,229.40579,5.495038,0.3976735,0.42910677,0.15191582,0.12198894,inf,inf,inf,inf,1,1,1,1,2,0,2,1,5,1,1,1,0,0
888676000,888676000,1036000,41.606704,-86.3556021,7.3364525,32.755657,-4.9114075,0.0004901746,0.000109618246,0.0,-0.024295256,0.0038869877,0.6935823,0.69452405,-0.00021289983,-0.012492318,-0.016992431,-0.019642705,-0.008319651,-0.1764093,-1.3214912,0.03512646,229.40579,5.1419554,0.39493772,0.42706397,0.14995457,0.12130896,inf,inf,inf,inf,1,1,1,1,2,0,2,1,5,1,1,1,0,0
889172000,889172000,1036000,41.606704,-86.3556021,7.3292804,32.759083,-4.567461,0.0004901746,0.000109618246,0.0,-0.011881038,0.00011407722,0.68691504,0.6888735,-0.00021289983,-0.012492318,-0.016992431,-0.09489596,0.002755245,-0.48877114,-1.3214905,0.03512646,229.40579,4.798009,0.39178318,0.42769587,0.14812061,0.120900735,inf,inf,inf,inf,1,1,1,1,2,0,2,1,5,1,1,1,0,0
889676000,889676000,1036000,41.606704,-86.3556021,7.3221498,32.76812,-4.22776,0.0004901746,0.000109618246,0.0,-0.009834932,-0.002551784,0.7002077,0.6930515,-0.00021289983,-0.012492318,-0.016992431,-0.018455515,0.0022326969,0.06449868,-1.32176,0.03512646,229.40579,4.4583077,0.38999242,0.4260057,0.14709707,0.12044006,inf,inf,inf,inf,1,1,1,1,2,0,2,1,5,1,1,1,0,0
890172000,890172000,1036000,41.606704,-86.3556021,7.3204174,32.77452,-3.8854363,0.0004901746,0.000109618246,0.0,-0.0037135142,-0.010994637,0.709123,0.6993135,-0.00021289983,-0.012492318,-0.016992431,-0.043516465,-0.026325176,0.07247825,-1.321938,0.03512646,229.40579,4.1159844,0.38809454,0.4237948,0.14634685,0.11991695,inf,inf,inf,inf,1,1,1,1,2,0,2,1,5,1,1,1,0,0
890676000,890676000,1036000,41.606704,-86.3556021,7.3180547,32.781815,-3.5399065,0.0004901746,0.000109618246,0.0,-0.0020041652,-0.015205263,0.711279,0.69624317,-0.00021289983,-0.012492318,-0.016992431,0.0030619835,-0.06905885,0.02124154,-1.3216413,0.03512646,229.40579,3.7704546,0.38867444,0.42550895,0.14732774,0.12030074,inf,inf,inf,inf,1,1,1,1,2,0,2,1,5,1,1,1,0,0
891172000,891172000,1036000,41.606704,-86.3556021,7.313654,32.781265,-3.1952393,0.0004901746,0.000109618246,0.0,-0.0018070351,-0.024812093,0.71197426,0.69718194,-0.00021289983,-0.012492318,-0.016992431,-0.0006480829,-0.031488296,-0.038965665,-1.3216565,0.03512646,229.40579,3.4257874,0.41169846,0.4330612,0.15740772,0.124377154,inf,inf,inf,inf,1,1,1,1,2,0,2,1,5,1,1,1,0,0
891676000,891676000,1036000,41.606704,-86.3556021,7.3164544,32.786015,-2.8395684,0.0004901746,0.000109618246,0.0,-0.0005559743,-0.02626635,0.7146276,0.703756,-0.00021289983,-0.012492318,-0.016992431,-0.03201153,0.050555017,-0.10051584,-1.3217134,0.03512646,229.40579,3.0701165,0.38306624,0.42406538,0.14368296,0.119143195,inf,inf,inf,inf,1,1,1,1,2,0,2,1,5,1,1,1,0,0
892172000,892172000,1036000,41.606704,-86.3556021,7.3185205,32.789764,-2.489017,0.0004901746,0.000109618246,0.0,-0.0003289582,-0.026795793,0.69884217,0.6925287,-0.00021289983,-0.012492318,-0.016992431,0.124481134,0.03697975,0.18655595,-1.3220918,0.03512646,229.40579,2.7195652,0.40550438,0.43132737,0.15407315,0.12322068,inf,inf,inf,inf,1,1,1,1,2,0,2,1,5,1,1,1,0,0
892676000,892676000,1036000,41.606704,-86.3556021,7.3222184,32.798393,-2.1464615,0.0004901746,0.000109618246,0.0,0.0038658783,-0.029095551,0.69858795,0.6878517,-0.00021289983,-0.012492318,-0.016992431,-0.03442981,-0.03223223,0.019714171,-1.3219249,0.03512646,229.40579,2.3770096,0.37961245,0.4257895,0.14229438,0.118756235,inf,inf,inf,inf,1,1,1,1,2,0,2,1,5,1,1,1,0,0
893172000,893172000,1036000,41.606704,-86.3556021,7.329732,32.80724,-1.8168114,0.0004901746,0.000109618246,0.0,-0.0052675973,-0.03524324,0.70784724,0.6870137,-0.00021289983,-0.012492318,-0.016992431,-0.11250765,0.011523011,0.057593852,-1.3221343,0.03512646,229.40579,2.0473595,0.3793957,0.423515,0.14291102,0.118540496,inf,inf,inf,inf,1,1,1,1,2,0,2,1,5,1,1,1,0,0
893676000,893676000,1036000,41.606704,-86.3556021,7.3293066,32.805595,-1.4729738,0.0004901746,0.000109618246,0.0,-0.00809627,-0.038676467,0.7114622,0.68906826,-0.00021289983,-0.012492318,-0.016992431,0.008440125,-0.029017057,0.02611422,-1.321921,0.03512646,229.40579,1.703522,0.4020073,0.42815208,0.15314585,0.12241068,inf,inf,inf,inf,1,1,1,1,2,0,2,1,5,1,1,1,0,0
894172000,894172000,1036000,41.606704,-86.3556021,7.3320713,32.80027,-1.1309944,0.0004901746,0.000109618246,0.0,-0.009279695,-0.041111715,0.70963967,0.6880761,-0.00021289983,-0.012492318,-0.016992431,-0.03402183,-0.04256548,0.023814784,-1.3220016,0.03512646,229.40579,1.3615426,0.39754367,0.4285219,0.1503132,0.12177612,inf,inf,inf,inf,1,1,1,1,2,0,2,1,5,1,1,1,0,0
894676000,894676000,1036000,41.606704,-86.3556021,7.3371553,32.795746,-0.7884629,0.0004901746,0.000109618246,0.0,-0.016966777,-0.03929084,0.714136,0.6892599,-0.00021289983,-0.012492318,-0.016992431,-0.05679442,-0.07255777,-0.014851863,-1.3220596,0.03512646,229.40579,1.019011,0.3961636,0.42974132,0.14982902,0.121729605,inf,inf,inf,inf,1,1,1,1,2,0,2,1,5,1,1,1,0,0
895172000,895172000,1036000,41.606704,-86.3556021,7.3432555,32.791317,-0.44606557,0.0004901746,0.000109618246,0.0,-0.019433474,-0.032370448,0.7172539,0.69431245,-0.00021289983,-0.012492318,-0.016992431,-0.21634665,0.0069203163,0.6032343,-1.3219663,0.03512646,229.40579,0.6766137,0.3931534,0.4301289,0.14829032,0.121304825,inf,inf,inf,inf,1,1,1,1,2,0,2,1,5,1,1,1,0,0
895676000,895676000,1036000,41.606704,-86.3556021,7.35668,32.795403,-0.10157499,0.0004901746,0.000109618246,0.0,-0.023089632,-0.030698776,0.70484865,0.6796265,-0.00021289983,-0.012492318,-0.016992431,-0.05472977,0.0021535957,-0.018467259,-1.3220204,0.03512646,229.40579,0.3321231,0.37127095,0.42200038,0.13893797,0.11702036,inf,inf,inf,inf,1,1,1,1,2,0,2,1,5,1,1,1,0,0
896172000,896172000,1036000,41.606704,-86.3556021,7.3707213,32.797504,0.09777367,0.0004901746,0.000109618246,0.0,-0.031086868,-0.017199486,0.034103666,0.00480565,-0.00021289983,-0.012492318,-0.016992431,0.11110692,-0.019468926,-0.74291414,-1.311177,0.03512646,229.40579,0.13277444,0.39214954,0.42893627,0.15113999,0.1189998,inf,inf,inf,inf,1,1,1,1,2,0,2,1,5,1,1,1,0,0
896676000,896676000,1036000,41.606704,-86.3556021,7.3756104,32.796936,0.106091015,0.0004901746,0.000109618246,0.0,-0.018872032,-0.017292859,0.042700436,0.016672071,-0.00021289983,-0.012492318,-0.016992431,-0.03017539,-0.011800366,0.37126234,-1.309456,0.03512646,229.40579,0.1244571,0.38875985,0.42638388,0.15016568,0.110270225,inf,inf,inf,inf,1,1,1,1,2,0,2,1,5,1,1,1,0,0
897172000,897172000,1036000,41.606704,-86.3556021,7.380781,32.799366,0.10873938,0.0004901746,0.000109618246,0.0,-0.019824496,-0.013679194,0.05147935,0.019904053,-0.00021289983,-0.012492318,-0.016992431,-0.0058741253,0.008570678,0.42178938,-1.3095145,0.03512646,229.40579,0.1,0.3867781,0.4259267,0.15251346,0.10479772,inf,inf,inf,inf,1,1,1,1,2,0,2,1,5,0,1,1,1,0
897668000,897668000,1036000,41.606704,-86.3556021,7.3802032,32.800106,0.12704974,0.0004901746,0.000109618246,0.0,-0.017005417,-0.017659938,0.055897508,0.030519594,-0.00021289983,-0.012492318,-0.016992431,0.13910457,0.03174428,0.052277867,-1.3092968,0.03512646,229.40579,0.1,0.3839884,0.42510143,0.15425932,0.10182452,inf,inf,inf,inf,1,1,1,1,2,0,2,1,5,0,1,1,1,0
898172000,898172000,1036000,41.606704,-86.3556021,7.3839083,32.804424,0.14083625,0.0004901746,0.000109618246,0.0,-0.016014373,-0.01302952,0.065801814,0.03634513,-0.00021289983,-0.012492318,-0.016992431,0.014690598,-0.021555997,-0.6268034,-1.3089087,0.03512646,229.40579,0.1,0.38386077,0.4215585,0.15772645,0.10086244,inf,inf,inf,inf,1,1,1,1,2,0,2,1,5,0,1,1,1,0
898676000,898676000,1036000,41.606704,-86.3556021,7.400276,32.821564,0.013490088,0.0004901746,0.000109618246,0.0,-0.005146112,-0.0049416414,0.020798055,-0.1253419,-0.00021289983,-0.012492318,-0.016992431,-0.12777048,0.032884527,-0.2685758,-1.3080758,0.03512646,229.40579,0.1,0.3017537,0.31498086,0.013063943,0.009192762,inf,inf,inf,inf,1,1,1,1,2,0,2,1,5,0,1,1,1,0
899172000,899172000,1036000,41.606704,-86.3556021,7.3986363,32.821663,-0.032908086,0.0004901746,0.000109618246,0.0,0.0007794174,0.0029835454,-0.0003962181,-0.117509626,-0.00021289983,-0.012492318,-0.016992431,0.07463152,0.07400452,-0.4765261,-1.3075298,0.03512646,229.40579,0.118467584,0.29058006,0.3016911,0.018850511,0.013341931,inf,inf,inf,inf,1,1,1,1,2,0,2,1,5,0,1,1,1,0
899676000,899676000,1036000,41.606704,-86.3556021,7.3969507,32.819588,-0.026884167,0.0004901746,0.000109618246,0.0,0.0011216922,0.0044952855,-0.004088409,-0.06285267,-0.00021289983,-0.012492318,-0.016992431,0.0131647745,-0.008999955,-0.061970267,-1.3075327,0.03512646,229.40579,0.121976905,0.27299026,0.29268986,0.009375141,0.0066255108,inf,inf,inf,inf,1,1,1,1,2,0,2,1,5,0,1,1,1,0
900172000,900172000,1036000,41.606704,-86.3556021,7.3976173,32.817368,-0.017961599,0.0004901746,0.000109618246,0.0,0.006240583,0.0039006541,-0.0044817203,-0.029763548,-0.00021289983,-0.012492318,-0.016992431,0.060696203,0.020759623,-0.016227428,-1.3074567,0.03512646,229.40579,0.117795296,0.26804924,0.28483224,0.016500967,0.011629984,inf,inf,inf,inf,1,1,1,1,2,0,2,1,5,0,1,1,1,0
