timestamp,gyro_rad[0],gyro_rad[1],gyro_rad[2],gyro_integral_dt,accelerometer_timestamp_relative,accelerometer_m_s2[0],accelerometer_m_s2[1],accelerometer_m_s2[2],accelerometer_integral_dt,accelerometer_clipping,accel_calibration_count,gyro_calibration_count
829264000,0.0018642164,-0.0055926405,-0.0047936863,4000,0,0.23081312,-0.2357692,-9.9828205,4000,0,2,0
829268000,-0.0013315887,-0.0074568484,-0.0021305364,4000,0,0.25355804,-0.19267356,-9.9912,4000,0,2,0
829272000,-0.0045273807,-0.007989482,-7.84655e-09,4000,0,0.23440444,-0.16274603,-9.956485,4000,0,2,0
829276000,-0.0029294784,-0.0047936896,0.00026631547,4000,0,0.19849141,-0.15197213,-9.906205,4000,0,2,0
829280000,-0.0029294793,-0.0021305287,0.0010652619,4000,0,0.169761,-0.13521272,-9.894236,4000,0,2,0
829284000,-0.006657903,-0.0010652663,0.00053262856,4000,0,0.13743927,-0.11845331,-9.87987,4000,0,2,0
829288000,0.0066579035,-0.0029294759,0.00026632493,4000,0,0.12666535,-0.14838083,-9.912193,4000,0,2,0
829292000,0.008788431,-0.0026631672,0.00292948,4000,0,0.13145377,-0.20943297,-9.939727,4000,0,2,0
829300000,-0.023702135,0.001065241,0.0005326396,4000,0,0.16257837,-0.0011374123,-9.873885,4000,0,2,0
829308000,0.020772656,-0.005060015,0.004527376,4000,0,0.23201023,-0.2537257,-9.839168,4000,0,2,0
829312000,-0.0021305287,-0.003728449,0.0029294484,4000,0,0.1972943,-0.281259,-9.642845,4000,0,2,0
829316000,-0.0098536955,-0.0015979059,0.0007989374,4000,0,0.16856389,-0.19746196,-9.665589,4000,0,2,0
829320000,-0.0050600055,-0.0015978983,2.5253857e-09,4000,0,0.17574649,-0.12204461,-10.158795,4000,0,2,0
829324000,0.007190537,-0.00079894986,-0.0007989432,4000,0,0.14941029,-0.14359242,-10.246183,4000,0,2,0
829332000,-0.00026631617,0.0013315814,-0.00026631184,4000,0,0.14701606,-0.10767939,-9.8631115,4000,0,2,0
829336000,-0.0015978968,0.0039947424,-0.00053263194,4000,0,0.15180448,-0.06817507,-9.851139,4000,0,2,0
829340000,-0.0037284235,0.0015978984,0.0015979009,4000,0,0.13145377,-0.1016939,-9.858321,4000,0,2,0
829344000,-0.0031957896,-0.002396841,0.004793695,4000,0,0.16736679,-0.13281852,-9.861915,4000,0,2,0
829352000,0.002929476,0.000532636,0.0010652668,4000,0,0.22003923,-0.16394313,-9.848744,4000,0,2,0
829356000,-0.0021305294,0.00079894665,0.0010652656,4000,0,0.1733523,-0.21063009,-9.839168,4000,0,2,0
829364000,-0.0037284305,-0.0015978952,0.007723166,4000,0,0.1960972,-0.13521272,-9.881068,4000,0,2,0
829368000,-0.0037284298,0.0007989434,0.003728423,4000,0,0.1745494,-0.13281852,-9.968457,4000,0,2,0
829372000,-0.002929474,-0.0026631646,0.00026632016,4000,0,0.121876955,-0.16753446,-9.973243,4000,0,2,0
829380000,-0.007723166,-0.0058589554,-0.006125273,4000,0,0.12905955,-0.1256359,-9.963666,4000,0,2,0
829384000,-0.0007989495,-0.0055926517,-0.0053263097,4000,0,0.10631464,-0.102891,-9.770934,4000,0,2,0
829392000,0.00026632028,-0.0015978899,-0.012250544,4000,0,0.09194943,-0.16035183,-10.150415,4000,0,2,0
829396000,-0.0074568572,-0.0023968136,-0.0069242227,4000,0,0.13025665,-0.117256194,-10.271323,4000,0,2,0
829404000,-0.0063915886,-0.008522116,0.00026634987,4000,0,0.12307406,-0.14239532,-9.883462,4000,0,2,0
829408000,-0.0007989462,-0.008255803,-0.00053261704,4000,0,0.12666535,-0.1088765,-9.932543,4000,0,2,0
829412000,-2.0804458e-09,-0.0034621092,0.0005326331,4000,0,0.16377547,-0.11486201,-9.94571,4000,0,2,0
829416000,-0.001331581,-0.002929478,0.0007989469,4000,0,0.20208272,-0.14598662,-9.952893,4000,0,2,0
829420000,-0.0034621086,-0.002929479,-0.0005326345,4000,0,0.169761,-0.14598662,-9.994793,4000,0,2,0
829424000,-0.0021305294,-0.0010652646,-0.00026631702,4000,0,0.121876955,-0.09451129,-9.990003,4000,0,2,0
829428000,-0.0013315812,-0.002929477,0.0007989499,4000,0,0.13624217,-0.09451129,-9.936133,4000,0,2,0
829432000,-0.0045273746,-0.0042610597,0.0005326297,4000,0,0.15539579,-0.123241715,-9.9433155,4000,0,2,0
829440000,0.0085221175,-0.0015979009,-0.0018642109,4000,0,0.20806822,-0.18549098,-9.791284,4000,0,2,0
829448000,0.0074568484,0.00026631492,0.003994749,4000,0,0.12546825,-0.14359242,-10.24738,4000,0,2,0
829452000,-0.0034621086,-0.0007989544,0.00053263054,4000,0,0.16018417,-0.1292272,-9.988807,4000,0,2,0
829456000,-0.009587379,-0.0047936942,-0.0015978941,4000,0,0.16257837,-0.08613159,-9.84276,4000,0,2,0
829460000,-0.0042610625,-0.0039947345,0.0015979027,4000,0,0.15539579,-0.105285205,-9.810437,4000,0,2,0
829468000,-0.0015978918,-0.005326326,-0.0031957899,4000,0,0.15419869,-0.24774021,-9.855928,4000,0,2,0
829472000,-0.0013315825,-0.0074568526,-0.0034621086,4000,0,0.21046242,-0.18549095,-9.858321,4000,0,2,0
829476000,-4.3500235e-09,-0.0031957936,0.00026631754,4000,0,0.22243343,-0.14359242,-9.908601,4000,0,2,0
829480000,0.0015978949,0.0007989486,0.0015978987,4000,0,0.20088562,-0.17591414,-9.931346,4000,0,2,0
829484000,0.005326322,0.0010652674,-8.32499e-10,4000,0,0.193703,-0.16394313,-9.921769,4000,0,2,0
829492000,0.0053263227,-0.0034621174,0.003462101,4000,0,0.20447692,-0.15556344,-9.934936,4000,0,2,0
829496000,0.0034621134,-0.0058589564,0.0026631549,4000,0,0.20687112,-0.15436634,-9.981624,4000,0,2,0
829500000,0.00852212,-0.004793683,0.0007989595,4000,0,0.18532331,-0.19506778,-9.794876,4000,0,2,0
829508000,0.004793689,-0.005858957,0.0002663067,4000,0,0.11349724,-0.22619238,-10.183934,4000,0,2,0
829516000,-0.012250543,-0.00053263817,-0.00026633803,4000,0,0.14342476,-0.08732868,-10.034297,4000,0,2,0
829520000,-0.00079894776,0.004793686,-0.0010652842,4000,0,0.11828564,-0.09211709,-9.899024,4000,0,2,0
829528000,-0.0013315665,0.0010652577,0.007989487,4000,0,0.19130881,-0.15556344,-9.990003,4000,0,2,0
829532000,-0.0031957733,-0.006657909,0.007190539,4000,0,0.19250591,-0.19147648,-9.98282,4000,0,2,0
829540000,0.0013315849,-0.0082558,0.00026633064,4000,0,0.16856389,-0.18429387,-9.97085,4000,0,2,0
829544000,0.0031957899,-0.001065265,0.0013315891,4000,0,0.20327982,-0.14359242,-9.984018,4000,0,2,0
829548000,-0.0034621102,0.0013315781,0.0010652649,4000,0,0.19011171,-0.17711124,-9.94212,4000,0,2,0
829556000,0.009054748,-0.006924217,0.0026631693,4000,0,0.12905955,-0.26449963,-9.708685,4000,0,2,0
829560000,0.011984226,-0.0055926363,0.0026631719,4000,0,0.14821316,-0.18189965,-10.125276,4000,0,2,0
829564000,0.011717907,-0.0013315808,0.0026631781,4000,0,0.21165952,-0.09690549,-10.254562,4000,0,2,0
829572000,-0.009587378,-0.0034621144,-0.0015978971,4000,0,0.23320733,-0.07056926,-9.906205,4000,0,2,0
829576000,-0.002396853,-0.0053263064,0.0045273886,4000,0,0.20208272,-0.09091998,-9.910996,4000,0,2,0
829580000,0.0026631532,-0.0071905223,0.010652656,4000,0,0.23679864,-0.15795763,-9.93374,4000,0,2,0
829588000,0.0021305438,-0.0058589494,-0.00079895,4000,0,0.193703,-0.07775188,-9.972047,4000,0,2,0
829596000,0.0010652608,-0.0037284275,0.0007989474,4000,0,0.21285662,-0.11007361,-9.890645,4000,0,2,0
829600000,0.0015978984,-0.002929477,-0.00053263135,4000,0,0.19849141,-0.1064823,-9.890645,4000,0,2,0
829604000,0.0010652668,-0.0031957922,-0.0029294784,4000,0,0.13863637,-0.14598662,-9.907403,4000,0,2,0
829608000,-0.00053263473,-0.0050600045,-0.0023968476,4000,0,0.117088534,-0.16873156,-9.914586,4000,0,2,0
829612000,0.0010652627,-0.0055926405,-0.0015978942,4000,0,0.14941029,-0.15316924,-9.883462,4000,0,2,0
829620000,0.006125266,-0.0015979043,0.0034621141,4000,0,0.12786245,-0.12563592,-9.688333,4000,0,2,0
829624000,0.0023968462,-0.002663167,0.003994738,4000,0,0.16736679,-0.1280301,-10.139642,4000,0,2,0
829628000,0.0055926433,-0.0042610513,0.001065266,4000,0,0.16616969,-0.1136649,-10.223439,4000,0,2,0
829632000,-0.003195789,-0.0045273714,-0.0023968583,4000,0,0.14701606,-0.07775188,-9.9828205,4000,0,2,0
829636000,-0.007190535,-0.0050600036,-0.0031957994,4000,0,0.16497257,-0.07775188,-9.913389,4000,0,2,0
829640000,-0.0010652647,-0.0029294807,-0.0018642078,4000,0,0.16497257,-0.15197213,-9.9086,4000,0,2,0
829648000,-0.0039947424,-0.0026631611,-0.0034621097,4000,0,0.09434364,-0.18309677,-9.9086,4000,0,2,0
829652000,-0.0047936896,-0.0031957948,-0.00479369,4000,0,0.10870884,-0.17591414,-9.931346,4000,0,2,0
829660000,0.001864216,0.0018642095,-0.0010652655,4000,0,0.13743927,-0.11366491,-9.938529,4000,0,2,0
829664000,0.0031957948,0.0023968436,0.00026631568,4000,0,0.14581896,-0.13760693,-9.894236,4000,0,2,0
829668000,-0.0010652646,-0.0042610588,-0.00026631996,4000,0,0.13983345,-0.21302426,-9.885855,4000,0,2,0
829672000,-0.00612527,-0.009853696,-0.0015979023,4000,0,0.11469434,-0.22379819,-9.903812,4000,0,2,0
829676000,-0.0074568554,-0.0074568484,-0.0002663255,4000,0,0.14701606,-0.20225038,-9.884659,4000,0,2,0
829684000,-0.0037284219,-0.0058589564,0.0015979025,4000,0,0.1745494,-0.18549097,-9.899024,4000,0,2,0
829692000,0.007723166,-0.0037284296,0.0002663204,4000,0,0.14821316,-0.257317,-9.626086,4000,0,2,0
829700000,-0.0026631698,-0.0023968564,0.0047936807,4000,0,0.10751174,-0.14239532,-10.247379,4000,0,2,0
829704000,-0.007989487,-0.0007989566,0.0053263176,4000,0,0.11230015,-0.1172562,-10.000777,4000,0,2,0
829708000,0.0026631695,-0.004793682,0.001065278,4000,0,0.16018417,-0.06099246,-9.870294,4000,0,2,0
829712000,0.008788435,-0.0074568493,0.00026632348,4000,0,0.20208272,-0.0969055,-9.859519,4000,0,2,0
829716000,0.0061252555,-0.007723186,0.0066578966,4000,0,0.19849141,-0.16154893,-9.893039,4000,0,2,0
829720000,0.0021305196,-0.008255818,0.010918951,4000,0,0.1745494,-0.15316924,-9.894236,4000,0,2,0
829728000,-0.0026631576,-0.0018642192,0.00026631024,4000,0,0.15539579,-0.16992866,-9.94571,4000,0,2,0
829732000,-0.0021305266,0.0018642092,-0.004261062,4000,0,0.1709581,-0.18549095,-9.948106,4000,0,2,0
829736000,-1.2529954e-09,0.0013315771,-0.005060007,4000,0,0.16856389,-0.18189965,-9.955288,4000,0,2,0
829740000,0.0095873745,-0.002396861,-0.0029294817,4000,0,0.13863637,-0.15795764,-9.705092,4000,0,2,0
829744000,0.013848435,-0.0034621267,0.0010652646,4000,0,0.1709581,-0.14838085,-9.642845,4000,0,2,0
829748000,0.008522116,-0.0047937,0.0026631493,4000,0,0.21644792,-0.15316924,-10.164781,4000,0,2,0
829756000,-0.007989488,-0.0031958094,0.003994721,4000,0,0.15659289,-0.11845331,-9.984018,4000,0,2,0
829760000,-0.011185277,-0.002130541,0.0010652583,4000,0,0.16377547,-0.1016939,-9.835578,4000,0,2,0
829764000,-0.0026631604,-0.0023968474,-0.00026630913,4000,0,0.1745494,-0.11007361,-9.849942,4000,0,2,0
829768000,-0.003195798,-0.0037284214,0.004793691,4000,0,0.1972943,-0.14000112,-9.908601,4000,0,2,0
829772000,-0.0015978948,-0.0055926363,0.005592643,4000,0,0.19849141,-0.16633736,-9.903812,4000,0,2,0
829780000,-0.0021305296,0.0037284258,9.161646e-10,4000,0,0.16497257,-0.1016939,-9.9109955,4000,0,2,0
829784000,-0.00585895,0.0013315838,0.0045273816,4000,0,0.14103056,-0.11366491,-9.882265,4000,0,2,0
829788000,-0.0015978916,-0.001864205,0.005326327,4000,0,0.15300158,-0.102891,-9.890645,4000,0,2,0
829792000,0.0005326318,1.3572585e-09,0.0007989488,4000,0,0.16257837,-0.102891,-9.940923,4000,0,2,0
829796000,-0.00026631632,0.0005326325,-0.0013315805,4000,0,0.19968852,-0.18309677,-9.948106,4000,0,2,0
829800000,0.0010652648,-0.0002663165,0.0013315805,4000,0,0.23919284,-0.23337498,-9.937331,4000,0,2,0
829804000,0.010386327,0.00079895207,0.0026631623,4000,0,0.193703,-0.21182719,-9.730233,4000,0,2,0
829808000,0.0127831735,0.002130537,0.0010652686,4000,0,0.16497257,-0.19267356,-9.708685,4000,0,2,0
829816000,-0.0021305277,-0.00399475,0.0031957848,4000,0,0.16257837,-0.14478952,-10.320405,4000,0,2,0
829820000,-0.0063915825,-0.0063915933,0.001864209,4000,0,0.14103056,-0.13521272,-10.035495,4000,0,2,0
829824000,0.002130538,-0.008522119,-0.0015978743,4000,0,0.12786245,-0.14478952,-9.93015,4000,0,2,0
829828000,0.006924231,-0.005858956,-0.005326307,4000,0,0.16616969,-0.17112575,-9.932543,4000,0,2,0
829836000,-0.0045273737,-0.00053262076,-0.0037284289,4000,0,0.18652041,-0.1292272,-9.93374,4000,0,2,0
829840000,-0.002929477,-1.9208075e-09,-0.0037284265,4000,0,0.15300158,-0.11965041,-9.932543,4000,0,2,0
829844000,-0.0002663175,-0.001065268,-0.0039947415,4000,0,0.16377547,-0.16394313,-9.9026165,4000,0,2,0
829848000,-0.00026631803,-0.0021305291,-0.0026631611,4000,0,0.19250591,-0.18668807,-9.872689,4000,0,2,0
829852000,-0.0002663192,-0.0034621092,5.778194e-11,4000,0,0.1733523,-0.17232285,-9.875082,4000,0,2,0
829856000,0.006924217,-0.007456852,0.0018642215,4000,0,0.14222766,-0.18549097,-9.708685,4000,0,2,0
829860000,0.008255807,-0.010120006,-0.00026631914,4000,0,0.15778998,-0.20344749,-9.683547,4000,0,2,0
829864000,0.0039947536,-0.0093210535,-0.0037284384,4000,0,0.1709581,-0.15316924,-10.138445,4000,0,2,0
829868000,0.010652655,-0.0034621172,-0.0045273458,4000,0,0.15300158,-0.09690549,-10.286883,4000,0,2,0
829872000,0.004527383,0.0031957985,-0.0031957773,4000,0,0.15060739,-0.06697798,-10.023523,4000,0,2,0
829876000,-0.004793688,0.0023968513,-0.0007989397,4000,0,0.17694359,-0.05859826,-9.882265,4000,0,2,0
829880000,-0.0013315792,-0.0010652605,0.002396848,4000,0,0.17814068,-0.08493449,-9.867898,4000,0,2,0
829884000,0.0007989475,-0.00079894596,0.004261059,4000,0,0.15539579,-0.120847516,-9.91698,4000,0,2,0
829888000,0.0023968401,0.0026631632,0.0050600073,4000,0,0.169761,-0.14718372,-9.934936,4000,0,2,0
829892000,0.0018642182,0.0010652613,0.007723167,4000,0,0.19250591,-0.17950544,-9.912192,4000,0,2,0
829896000,-0.0005326203,-0.0037284319,0.0069242176,4000,0,0.15539579,-0.21182717,-9.925359,4000,0,2,0
829900000,-0.0007989447,-0.004527376,0.0053263223,4000,0,0.12546825,-0.19746196,-9.948106,4000,0,2,0
829904000,-4.0190424e-09,-0.0045273723,0.007989486,4000,0,0.15180448,-0.14359242,-9.967259,4000,0,2,0
829908000,0.003728424,-0.0026631511,0.006125277,4000,0,0.20208272,-0.094511285,-9.97564,4000,0,2,0
829916000,0.0037284251,0.00079894654,0.002663163,4000,0,0.19968852,-0.105285205,-9.871491,4000,0,2,0
829920000,0.011984227,0.0007989567,0.0018642108,4000,0,0.193703,-0.09091998,-9.665589,4000,0,2,0
829924000,0.01571265,0.0002663227,0.00079894526,4000,0,0.18292911,-0.12443882,-9.696713,4000,0,2,0
829928000,0.008255801,-0.0015978892,-0.0010652738,4000,0,0.19250591,-0.16274603,-10.185132,4000,0,2,0
829932000,0.0045273723,-0.005060009,0.00053262064,4000,0,0.18532331,-0.14000112,-10.323995,4000,0,2,0
829936000,-0.006924227,-0.003728435,0.0050599887,4000,0,0.11708854,-0.08373738,-10.089363,4000,0,2,0
829940000,-0.010120017,-0.00053263723,0.0053263116,4000,0,0.102723345,-0.05859826,-9.903812,4000,0,2,0
829948000,0.002130534,-0.004261055,0.0015978995,4000,0,0.10511754,-0.15436634,-9.873885,4000,0,2,0
829952000,0.0026631635,-0.0021305273,-0.00079894625,4000,0,0.12427116,-0.16992866,-9.922966,4000,0,2,0
829956000,0.0005326313,-0.0015978977,0.0007989474,4000,0,0.14941029,-0.13401562,-9.93015,4000,0,2,0
829964000,-0.006924214,-0.0037284356,-0.005858956,4000,0,0.18053488,-0.08134318,-9.861915,4000,0,2,0
829968000,-0.0029294775,-0.0034621172,-0.0055926344,4000,0,0.17933778,-0.13640982,-9.906205,4000,0,2,0
829972000,-0.0021305329,-0.0021305252,-4.1544734e-10,4000,0,0.193703,-0.15795763,-9.924162,4000,0,2,0
829980000,0.008255806,-0.0050599994,0.0023968467,4000,0,0.23081313,-0.1304243,-9.905008,4000,0,2,0
829988000,-0.0034621116,-0.00026631958,0.001597892,4000,0,0.20447692,-0.16873156,-9.84276,4000,0,2,0
829992000,0.0021305298,-0.0010652615,0.0015978983,4000,0,0.16616969,-0.20344749,-9.636859,4000,0,2,0
829996000,0.0066579026,0.00026631873,0.0013315832,4000,0,0.15419869,-0.19985619,-9.647633,4000,0,2,0
830004000,0.0031957955,0.00079894724,0.0015978946,4000,0,0.14941028,-0.14000112,-10.320405,4000,0,2,0
830008000,-0.006125271,0.0005326267,0.0021305312,4000,0,0.13624217,-0.15795763,-10.106122,4000,0,2,0
830012000,-0.009321067,0.0029294728,0.0010652604,4000,0,0.16497257,-0.13401562,-9.91698,4000,0,2,0
830016000,-0.0029294756,-0.0010652607,0.0015979031,4000,0,0.21285662,-0.1160591,-9.847548,4000,0,2,0
830020000,-0.0010652622,-0.0058589536,0.0023968506,4000,0,0.20926532,-0.14838083,-9.881068,4000,0,2,0
830024000,2.6951226e-09,-0.005326322,0.00079895015,4000,0,0.19011171,-0.16274603,-9.907403,4000,0,2,0
830028000,0.001864215,-0.0026631607,-0.00079894514,4000,0,0.1972943,-0.15556344,-9.896628,4000,0,2,0
830036000,-0.0023968446,-0.007190536,-0.0005326395,4000,0,0.20208272,-0.15316924,-9.921769,4000,0,2,0
830044000,-0.0021305222,0.00026631134,-0.0042610625,4000,0,0.17574649,-0.11007361,-9.943316,4000,0,2,0
830048000,0.0015978971,0.0002663128,-0.0015978973,4000,0,0.17933778,-0.11486201,-9.91698,4000,0,2,0
830056000,-0.0047936896,0.001864213,0.0010652668,4000,0,0.18532331,-0.11845331,-9.928952,4000,0,2,0
830064000,0.002663163,-0.0034621037,0.0018642218,4000,0,0.17574649,-0.20584169,-9.730233,4000,0,2,0
830068000,0.007989487,-0.0023968392,-0.0013315737,4000,0,0.21046242,-0.19147648,-9.71108,4000,0,2,0
830072000,0.0034621095,-0.0005326331,-0.00026631483,4000,0,0.18652041,-0.117256194,-10.106122,4000,0,2,0
830076000,-0.007456852,0.0042610574,0.0018642168,4000,0,0.15659289,-0.06458376,-10.240198,4000,0,2,0
830080000,-0.009853698,0.0021305222,-0.00026630744,4000,0,0.16257837,-0.07894898,-9.999579,4000,0,2,0
830088000,0.0010652677,-0.006391587,-0.0069242185,4000,0,0.10870884,-0.13521272,-9.877475,4000,0,2,0
830092000,-0.0013315757,-0.0042610527,-0.006924223,4000,0,0.11110305,-0.16394313,-9.931346,4000,0,2,0
830096000,-0.001864218,-0.0034621065,-0.0021305305,4000,0,0.12666535,-0.17471704,-9.912193,4000,0,2,0
830104000,-0.003462113,0.000798948,0.0047936877,4000,0,0.15419869,-0.14838083,-9.96247,4000,0,2,0
830112000,-0.010120012,0.0005326268,0.0010652668,4000,0,0.16138127,-0.15316924,-9.952893,4000,0,2,0
830116000,0.0029294787,-0.0013315759,0.0010652686,4000,0,0.19250591,-0.14957795,-9.721854,4000,0,2,0
830124000,0.0023968464,0.00053263985,-0.0018642094,4000,0,0.16497257,-0.19985618,-10.138445,4000,0,2,0
830128000,-0.00053263153,0.002130532,-0.0031957917,4000,0,0.18292911,-0.124438815,-10.297659,4000,0,2,0
830132000,-0.008788435,0.00026632514,-0.0021305229,4000,0,0.20088562,-0.098102584,-10.031902,4000,0,2,0
830136000,-0.010652644,0.0013315851,-0.0010652675,4000,0,0.19130881,-0.056204062,-9.848744,4000,0,2,0
830144000,-0.0045273663,0.0010652677,0.0077231727,4000,0,0.21285662,-0.16633736,-9.960076,4000,0,2,0
830148000,-0.002396838,-0.0023968471,0.0029294817,4000,0,0.19130881,-0.19865906,-10.000777,4000,0,2,0
830156000,0.00026631283,-0.004261059,0.00026631518,4000,0,0.14701606,-0.1172562,-9.922966,4000,0,2,0
830160000,-0.0010652659,-0.0053263223,0.0013315787,4000,0,0.13384797,-0.16633736,-9.91698,4000,0,2,0
830164000,-0.0023968439,-0.0005326335,-0.00053263636,4000,0,0.17814068,-0.16992866,-9.910996,4000,0,2,0
830168000,-0.0015978962,0.0018642122,-0.0013315825,4000,0,0.21285662,-0.1292272,-9.910996,4000,0,2,0
830172000,0.0005326293,-0.0029294793,-0.0026631604,4000,0,0.17694359,-0.126833,-9.87987,4000,0,2,0
830176000,-0.00026631827,-0.0053263213,-0.0026631623,4000,0,0.13504507,-0.15316926,-9.8152275,4000,0,2,0
830180000,0.0021305224,-0.003728428,0.001864217,4000,0,0.12905955,-0.17351997,-9.629676,4000,0,2,0
830184000,0.0034621046,-0.0018642144,0.005060009,4000,0,0.108708836,-0.18668808,-9.658406,4000,0,2,0
830188000,0.003994741,-0.00026631315,0.0031957962,4000,0,0.09673783,-0.15795763,-10.104924,4000,0,2,0
830196000,-0.010386327,0.002396844,0.0031957969,4000,0,0.16138127,-0.062189553,-9.9983835,4000,0,2,0
830204000,-0.0010652632,-0.0015978996,-0.002130528,4000,0,0.11230015,-0.13760693,-9.871491,4000,0,2,0
830208000,-0.00026631603,-0.0039947433,-0.005592638,4000,0,0.15419869,-0.19746196,-9.864308,4000,0,2,0
830212000,0.0042610513,-0.004793699,-0.0015978907,4000,0,0.1709581,-0.20105328,-9.900222,4000,0,2,0
830216000,0.002663159,-0.0031957962,0.000532632,4000,0,0.14821316,-0.18309677,-9.9026165,4000,0,2,0
830220000,-0.00026631344,-0.0007989463,-0.0023968462,4000,0,0.13504507,-0.16992866,-9.869096,4000,0,2,0
830224000,0.00079894625,-0.0039947433,-0.0037284256,4000,0,0.13145377,-0.15316924,-9.875082,4000,0,2,0
830228000,-0.00079896103,-0.010386327,-0.00026632016,4000,0,0.13384797,-0.11845332,-9.884659,4000,0,2,0
830236000,0.011185262,-0.0018642069,0.006657934,4000,0,0.15060739,-0.18549097,-9.671576,4000,0,2,0
830244000,0.004793688,0.0021305284,0.0037284289,4000,0,0.11469434,-0.21422136,-10.295264,4000,0,2,0
830248000,-0.0031957927,0.0005326249,0.0021305322,4000,0,0.15060739,-0.1304243,-10.05704,4000,0,2,0
830252000,-0.005858954,-0.0013315812,0.0034621123,4000,0,0.1733523,-0.06578087,-9.864309,4000,0,2,0
830256000,-0.0013315793,-0.0034621002,0.005592645,4000,0,0.16377547,-0.05979535,-9.732627,4000,0,2,0
830260000,-1.0638642e-09,-0.002396843,0.004793691,4000,0,0.15060739,-0.09810259,-9.806848,4000,0,2,0
830264000,0.0007989442,0.0018642143,0.0015978976,4000,0,0.13624217,-0.16154893,-9.951696,4000,0,2,0
830268000,-0.0005326328,0.00079894817,-0.0002663156,4000,0,0.14701606,-0.18788517,-9.993595,4000,0,2,0
830276000,-0.0023968467,-0.0037284247,0.00079895015,4000,0,0.18173198,-0.13281852,-9.943316,4000,0,2,0
830284000,0.002663163,-0.0039947405,0.0023968467,4000,0,0.09434364,-0.1280301,-9.992396,4000,0,2,0
830288000,0.00026632068,-0.0034621086,-0.0013315836,4000,0,0.08476683,-0.15795763,-9.994793,4000,0,2,0
830292000,-0.0018642127,-0.003462109,-0.0015978996,4000,0,0.11349724,-0.18309677,-10.006764,4000,0,2,0
830296000,0.0039947405,-0.00079894986,0.0010652698,4000,0,0.15898708,-0.18549098,-9.785299,4000,0,2,0
830304000,0.0069242185,4.3310293e-09,-0.00026631987,4000,0,0.1972943,-0.23337498,-10.150415,4000,0,2,0
830308000,0.009321064,0.0005326321,-0.00026631495,4000,0,0.20327982,-0.14957793,-10.321601,4000,0,2,0
830312000,-0.00479369,0.002130522,0.0023968525,4000,0,0.19130881,-0.114862,-10.049858,4000,0,2,0
830316000,-0.009587376,0.0002663199,0.0071905414,4000,0,0.17694359,-0.1064823,-9.839168,4000,0,2,0
830324000,0.0021305305,-0.0010652615,0.0047936896,4000,0,0.14941029,-0.0957084,-9.839168,4000,0,2,0
830328000,-0.0005326306,-0.0013315825,0.0013315796,4000,0,0.12546825,-0.058598258,-9.955288,4000,0,2,0
830332000,-0.0010652628,-0.0055926396,0.0018642135,4000,0,0.13145377,-0.08254028,-10.013947,4000,0,2,0
830340000,-0.005326317,-0.00506001,-0.0013315905,4000,0,0.169761,-0.11007361,-10.00796,4000,0,2,0
830344000,-0.00426106,-0.0013315779,0.0005326275,4000,0,0.16257837,-0.08613159,-9.969653,4000,0,2,0
830348000,-0.002663163,5.131392e-09,0.003994741,4000,0,0.14103056,-0.1016939,-9.924162,4000,0,2,0
830352000,-0.00053263333,0.00079895,0.0026631607,4000,0,0.09793493,-0.13162142,-9.922966,4000,0,2,0
830356000,0.00292948,-0.002663159,-0.0002663165,4000,0,0.102723345,-0.16394313,-9.939727,4000,0,2,0
830360000,0.0053263223,-0.0042610588,-0.0005326318,4000,0,0.12307406,-0.17471704,-9.921769,4000,0,2,0
830364000,0.0034621092,-0.0013315812,2.5300337e-09,4000,0,0.11469434,-0.123241715,-9.928952,4000,0,2,0
830368000,0.00958738,-0.0007989494,0.00079895183,4000,0,0.108708836,-0.08134318,-9.7841015,4000,0,2,0
830372000,0.010120014,-0.0039947457,0.0021305194,4000,0,0.10392044,-0.14718373,-9.793678,4000,0,2,0
830376000,0.0015978971,-0.0058589634,0.00292946,4000,0,0.11469434,-0.15436634,-10.222241,4000,0,2,0
830380000,-0.0047936905,-0.005592645,0.0031957813,4000,0,0.13025665,-0.045430142,-10.270126,4000,0,2,0
830388000,0.0013315848,-0.00878843,0.0010652812,4000,0,0.13983345,-0.06578087,-9.882265,4000,0,2,0
830396000,0.0010652642,-0.0021305294,0.00053263316,4000,0,0.21165952,-0.14598662,-9.94571,4000,0,2,0
830404000,-0.0034621097,1.3049265e-09,-0.0002663146,4000,0,0.20208272,-0.16394313,-9.899023,4000,0,2,0
830408000,0.0005326323,-0.00079894613,0.0021305303,4000,0,0.18771751,-0.14957793,-9.920573,4000,0,2,0
830416000,0.004261058,0.0018642143,0.00053263345,4000,0,0.17574649,-0.24893731,-9.951696,4000,0,2,0
830424000,0.0050600064,-0.002396854,0.0042610522,4000,0,0.19849141,-0.22140402,-9.693124,4000,0,2,0
830428000,-0.00026631448,-0.005060019,0.006924211,4000,0,0.20687112,-0.19865906,-10.131262,4000,0,2,0
830436000,-0.006657908,-0.0029294954,0.005592624,4000,0,0.14821316,-0.14119822,-10.041479,4000,0,2,0
830440000,-0.009321064,-0.0015979079,0.002929472,4000,0,0.1721552,-0.0957084,-9.884659,4000,0,2,0
830444000,-0.0002663151,-0.0021305236,0.0018642193,4000,0,0.18652041,-0.11007361,-9.76854,4000,0,2,0
830452000,-0.0015978948,-0.002396845,-0.002396847,4000,0,0.193703,-0.17112575,-9.882265,4000,0,2,0
830456000,1.7021826e-09,0.0002663152,-0.0018642131,4000,0,0.1960972,-0.15077503,-9.907403,4000,0,2,0
830464000,0.002396845,0.00053263165,-0.00026631763,4000,0,0.15778998,-0.11845331,-9.896628,4000,0,2,0
830468000,3.7826284e-10,-1.7393674e-09,0.0021305294,4000,0,0.15060739,-0.122044615,-9.876278,4000,0,2,0
830472000,-7.565257e-10,0.0010652647,0.0026631611,4000,0,0.14222766,-0.14119822,-9.907403,4000,0,2,0
830476000,-0.0013315807,-1.1774233e-09,-0.00026631565,4000,0,0.19849141,-0.1160591,-9.955288,4000,0,2,0
830484000,0.0031957924,-0.003462114,-0.0013315731,4000,0,0.26313487,-0.15197214,-9.738614,4000,0,2,0
830488000,0.005858955,-0.0010652671,5.6080673e-09,4000,0,0.21525082,-0.16753447,-9.676363,4000,0,2,0
830492000,-0.0015978971,0.0005326307,0.0007989489,4000,0,0.18652041,-0.1196504,-10.127671,4000,0,2,0
830496000,-0.009587378,-0.0021305317,-0.00053262955,4000,0,0.18053488,-0.08852578,-10.256957,4000,0,2,0
830500000,-0.009054748,-0.0031958004,-0.0026631576,4000,0,0.19011171,-0.080146074,-9.961273,4000,0,2,0
830504000,-0.0034621092,1.4750646e-09,-0.00053263595,4000,0,0.17933778,-0.14239532,-9.826001,4000,0,2,0
830508000,-0.0039947424,-0.0010652584,0.0047936914,4000,0,0.13743927,-0.20105328,-9.85114,4000,0,2,0
830512000,-0.0031957885,-0.0045273737,0.0047936956,4000,0,0.11469434,-0.19147646,-9.884659,4000,0,2,0
830516000,-0.004261057,-0.0031957985,0.0021305261,4000,0,0.11110305,-0.19027936,-9.90142,4000,0,2,0
830520000,-0.0053263237,-0.00026631766,0.0015978914,4000,0,0.121876955,-0.16992866,-9.926557,4000,0,2,0
830528000,-0.0026631632,-0.0007989567,-0.0061252695,4000,0,0.14821316,-0.16274603,-9.921769,4000,0,2,0
830532000,-0.0034621113,-0.0013315765,-0.0034621092,4000,0,0.13145377,-0.18189965,-9.920573,4000,0,2,0
830536000,0.00079894427,-0.0029294766,0.0018642168,4000,0,0.13983345,-0.2249953,-9.713473,4000,0,2,0
830540000,0.0042610615,-0.005060003,0.00026631885,4000,0,0.19968852,-0.21063009,-9.682349,4000,0,2,0
830544000,0.0031957964,-0.0026631593,-0.0013315792,4000,0,0.23320733,-0.14598662,-10.146825,4000,0,2,0
830548000,0.007190534,-0.0021305336,0.0013315849,4000,0,0.14941029,-0.14718372,-10.259352,4000,0,2,0
830552000,-0.0010652654,-0.0018642186,0.0021305238,4000,0,0.09314654,-0.13640982,-10.049857,4000,0,2,0
830556000,-0.0074568545,0.0015978924,0.0021305238,4000,0,0.12905955,-0.08613159,-9.994793,4000,0,2,0
830560000,-0.0013315816,0.0015978967,0.00026631288,4000,0,0.13384797,-0.1064823,-9.96247,4000,0,2,0
830564000,0.0005326312,-0.00079894933,-0.0021305294,4000,0,0.14462186,-0.13880402,-9.936133,4000,0,2,0
830568000,-0.0010652666,-0.0026631607,0.0005326315,4000,0,0.21165952,-0.13401562,-9.907403,4000,0,2,0
830572000,-0.002396848,-0.0021305284,0.0034621086,4000,0,0.22602473,-0.14957793,-9.91698,4000,0,2,0
830576000,-0.00079894986,0.00026631643,0.001597896,4000,0,0.16616969,-0.16394313,-9.96247,4000,0,2,0
830580000,0.0023968453,-0.0007989474,-0.0010652647,4000,0,0.12666535,-0.18788517,-9.936133,4000,0,2,0
830584000,0.0010652633,-0.0037284263,-0.0002663189,4000,0,0.15778998,-0.20943297,-9.863112,4000,0,2,0
830592000,0.0013315754,-0.0021305257,0.0045273784,4000,0,0.19250591,-0.1292272,-9.896628,4000,0,2,0
830600000,0.009054744,0.0047937017,0.003462109,4000,0,0.19250591,-0.16633737,-9.796075,4000,0,2,0
830608000,0.0055926405,-0.0007989464,0.00053262815,4000,0,0.13504507,-0.17711124,-10.183933,4000,0,2,0
830612000,0.0005326318,-0.0010652725,0.004261057,4000,0,0.16616969,-0.09690549,-10.315614,4000,0,2,0
830616000,-0.0047936863,-0.0037284337,0.005592637,4000,0,0.16377547,-0.062189553,-10.0223255,4000,0,2,0
830620000,-0.001597888,-0.004793694,5.590276e-09,4000,0,0.11828564,-0.050218552,-9.906205,4000,0,2,0
830628000,-0.005858954,-0.0010652625,-0.0018642191,4000,0,0.16257837,-0.1160591,-9.94212,4000,0,2,0
830632000,-0.0047936887,0.0015978978,-0.0010652695,4000,0,0.18292911,-0.14119822,-9.93015,4000,0,2,0
830636000,-0.0013315803,0.0018642127,-0.00053263456,4000,0,0.18173198,-0.1280301,-9.92536,4000,0,2,0
830640000,-0.0013315806,0.0007989486,-0.00026631565,4000,0,0.19011171,-0.15915473,-9.918179,4000,0,2,0
830644000,-0.0021305296,-0.0013315806,-0.0005326311,4000,0,0.19849141,-0.20225038,-9.92536,4000,0,2,0
830648000,0.0005326329,-0.0026631632,-0.0026631595,4000,0,0.18532331,-0.14718372,-9.922966,4000,0,2,0
830652000,0.010120011,-0.0042610667,-0.0021305212,4000,0,0.16138127,-0.09451129,-9.679955,4000,0,2,0
830656000,0.011984224,-0.0050600134,-0.0005326325,4000,0,0.19011171,-0.1160591,-9.652422,4000,0,2,0
830660000,0.00346211,-0.0047936873,-0.00079896185,4000,0,0.21884213,-0.12084751,-10.133655,4000,0,2,0
830664000,0.00133158,-0.00479369,-0.00026631966,4000,0,0.20567402,-0.1136649,-10.203088,4000,0,2,0
830668000,-0.00692422,-0.0026631607,0.00026630386,4000,0,0.1949001,-0.105285205,-9.933739,4000,0,2,0
830676000,-0.0023968455,-0.003462108,0.0005326423,4000,0,0.16856389,-0.13640982,-9.839168,4000,0,2,0
830680000,0.00133158,-0.0021305282,0.0010652677,4000,0,0.15539579,-0.18788517,-9.881068,4000,0,2,0
830688000,-0.002929478,0.00026631355,0.0021305294,4000,0,0.18771751,-0.17232285,-9.896628,4000,0,2,0
830696000,0.0045273737,0.003994741,-0.0018642192,4000,0,0.16856389,-0.19506776,-9.934936,4000,0,2,0
830700000,0.005858954,-0.0015979,-0.00026632636,4000,0,0.16257837,-0.16514023,-9.964865,4000,0,2,0
830704000,0.001864212,-0.0034621125,0.0013315749,4000,0,0.13025665,-0.14838083,-9.93374,4000,0,2,0
830708000,-0.0015978997,0.0005326301,0.0023968434,4000,0,0.13265087,-0.13760693,-9.858321,4000,0,2,0
830712000,-0.0018642124,1.9795355e-11,0.002929478,4000,0,0.13863637,-0.11366491,-9.841563,4000,0,2,0
830720000,0.011984225,0.0018642184,0.00079895864,4000,0,0.25714934,-0.16514026,-9.733823,4000,0,2,0
830724000,0.0069242185,0.004261055,0.0013315936,4000,0,0.22482763,-0.100496784,-10.195907,4000,0,2,0
830728000,0.006924223,0.0005326285,0.002929469,4000,0,0.16616969,-0.08373738,-10.302447,4000,0,2,0
830732000,-0.0018642105,-0.0023968508,0.0015978916,4000,0,0.1745494,-0.09211709,-10.00796,4000,0,2,0
830736000,-0.007989486,0.00026631204,0.0002663096,4000,0,0.1745494,-0.047824364,-9.848744,4000,0,2,0
830744000,-0.001864211,-0.0042610597,5.1031037e-09,4000,0,0.13863637,-0.13880402,-9.890645,4000,0,2,0
830752000,0.005326316,-0.0042610588,0.0063915933,4000,0,0.12666535,-0.16394313,-9.949304,4000,0,2,0
830756000,0.00585896,-0.006924219,0.0069242157,4000,0,0.16616969,-0.1256359,-9.926557,4000,0,2,0
830764000,-0.001597905,-0.0045273807,0.006125265,4000,0,0.18412621,-0.11965041,-9.867898,4000,0,2,0
830772000,-0.0074568526,0.00026630796,0.0002663117,4000,0,0.17933778,-0.058598258,-9.976836,4000,0,2,0
830776000,-0.0018642128,0.0005326401,0.0031957924,4000,0,0.18053488,-0.06338667,-9.961273,4000,0,2,0
830780000,0.003994744,-0.0015978912,0.0021305296,4000,0,0.13983345,-0.080146074,-9.93015,4000,0,2,0
830784000,0.0045273784,-0.0034621048,-0.001331583,4000,0,0.118285656,-0.050218552,-9.915783,4000,0,2,0
830788000,0.011185279,-0.005858957,-0.002396841,4000,0,0.12786245,-0.08014607,-9.724246,4000,0,2,0
830792000,0.007723169,-0.006125266,-0.0029294854,4000,0,0.13983345,-0.13760695,-9.687137,4000,0,2,0
830796000,-0.0021305308,-0.005326316,-0.0018642312,4000,0,0.14821316,-0.13760693,-10.143231,4000,0,2,0
830800000,-0.010120013,-0.006391582,-0.0015979103,4000,0,0.14103056,-0.1040881,-10.294066,4000,0,2,0
830804000,-0.0125168655,-0.0063915756,0.0015978916,4000,0,0.16138127,-0.072963476,-9.988806,4000,0,2,0
830808000,-0.0034621172,-0.005326304,0.004793705,4000,0,0.22482763,-0.09810259,-9.84276,4000,0,2,0
830816000,0.00292948,-0.0018642114,-0.0018642104,4000,0,0.19849141,-0.19267356,-9.877475,4000,0,2,0
830820000,0.0010652628,-0.0015978987,0.0010652638,4000,0,0.15898708,-0.17830834,-9.891843,4000,0,2,0
830824000,-0.0007989499,-0.00079895,0.0034621092,4000,0,0.11469434,-0.19147646,-9.940923,4000,0,2,0
830828000,-0.0018642113,-0.0018642145,0.001864213,4000,0,0.13265087,-0.2190098,-9.973243,4000,0,2,0
830832000,-0.0013315781,-0.0050600064,0.0007989506,4000,0,0.18053488,-0.19267356,-9.987611,4000,0,2,0
830836000,0.0002663164,-0.006125271,0.00079895154,4000,0,0.20447692,-0.15316924,-9.975638,4000,0,2,0
830844000,0.0042610494,-0.0042610653,0.0071905367,4000,0,0.27151456,-0.13760695,-9.70629,4000,0,2,0
830848000,0.0026631565,-0.00026631547,0.0039947447,4000,0,0.26193777,-0.081343174,-10.154006,4000,0,2,0
830852000,0.006391587,5.1360405e-09,0.0037284265,4000,0,0.21525082,-0.08972287,-10.279703,4000,0,2,0
830860000,-0.013049488,-0.0015979105,0.002396839,4000,0,0.15898708,-0.1304243,-9.877475,4000,0,2,0
830864000,-0.0031957945,-0.0013315683,0.003462114,4000,0,0.15419869,-0.06697798,-9.872688,4000,0,2,0
830868000,-0.0002663157,-0.0015978939,0.0031957955,4000,0,0.18771751,-0.08373739,-9.922966,4000,0,2,0
830876000,0.0034621092,-0.005060007,0.0018642115,4000,0,0.18173198,-0.14957793,-9.905008,4000,0,2,0
830884000,-0.0034621067,-0.003195797,-0.00479369,4000,0,0.12666535,-0.17711124,-9.913389,4000,0,2,0
830888000,0.0013315737,-0.005326326,-0.0013315732,4000,0,0.16018417,-0.2202069,-9.932543,4000,0,2,0
830896000,-0.0029294763,-0.0021305298,-0.0010652675,4000,0,0.18173198,-0.0957084,-9.895432,4000,0,2,0
830900000,-0.0023968457,-0.0039947424,-0.0010652625,4000,0,0.17574649,-0.14000112,-9.896628,4000,0,2,0
830908000,0.011185276,-0.0005326422,0.0050600125,4000,0,0.15539579,-0.19746198,-9.701503,4000,0,2,0
830912000,0.009321062,0.000532629,0.0050600097,4000,0,0.13863637,-0.17232285,-10.142035,4000,0,2,0
830916000,-0.0021305315,0.0015978916,0.0005326377,4000,0,0.13504507,-0.123241715,-10.25217,4000,0,2,0
830920000,-0.012783176,-0.000532636,-0.0021305217,4000,0,0.16856389,-0.08972288,-9.988807,4000,0,2,0
830924000,-0.0066579026,-0.0013315962,-0.0047936854,4000,0,0.20567402,-0.09331419,-9.881068,4000,0,2,0
830928000,-0.001065264,-0.0007989568,-0.0045273737,4000,0,0.25595224,-0.13760693,-9.877475,4000,0,2,0
830932000,-0.0021305303,-0.00079894543,-0.00079894875,4000,0,0.28827396,-0.18429385,-9.897826,4000,0,2,0
830936000,-0.005060006,1.163078e-09,-0.0002663175,4000,0,0.24757254,-0.15795763,-9.93374,4000,0,2,0
830940000,-0.002396845,-3.788078e-09,-0.002396845,4000,0,0.20327982,-0.13760693,-9.9505,4000,0,2,0
830944000,-0.002396847,-0.001864213,-0.0023968434,4000,0,0.18532331,-0.14957793,-9.94571,4000,0,2,0
830948000,0.0031957906,-0.0026631623,0.0018642171,4000,0,0.1721552,-0.17711125,-9.7841015,4000,0,2,0
830952000,0.0071905307,0.00053263066,0.0055926456,4000,0,0.16497257,-0.17232287,-9.767344,4000,0,2,0
830960000,0.0018642148,-0.0013315785,0.00026631367,4000,0,0.13145377,-0.11845331,-10.221045,4000,0,2,0
830964000,-0.0082558,-0.0034621086,-0.0034621158,4000,0,0.118285656,-0.13640982,-9.954089,4000,0,2,0
830968000,-0.009054749,-0.0029294782,-0.003994744,4000,0,0.18891461,-0.102891,-9.836775,4000,0,2,0
830976000,0.0031957915,-0.0026631635,0.0021305294,4000,0,0.21285662,-0.08732869,-9.853536,4000,0,2,0
830984000,-0.0034621095,-0.006924219,0.0023968446,4000,0,0.19250591,-0.15676053,-9.861915,4000,0,2,0
830988000,-0.0015978994,-0.0031957924,0.0021305294,4000,0,0.20327982,-0.16873156,-9.870293,4000,0,2,0
830996000,-0.00053263304,-0.003994742,0.000266318,4000,0,0.14701606,-0.07056926,-9.919375,4000,0,2,0
831004000,0.0042610564,-0.003462109,0.0053263246,4000,0,0.16856389,-0.16154893,-9.96247,4000,0,2,0
831008000,0.0026631642,-0.0023968418,0.0010652643,4000,0,0.16497257,-0.18908226,-9.951696,4000,0,2,0
831016000,-0.0026631628,-0.0026631607,-0.0045273746,4000,0,0.18173198,-0.14957793,-9.91698,4000,0,2,0
831020000,0.006125269,-0.0031958057,-0.0029294696,4000,0,0.1709581,-0.15795764,-9.697909,4000,0,2,0
831024000,0.0058589536,-0.00239685,-0.00053263095,4000,0,0.18891461,-0.22738951,-9.6608,4000,0,2,0
831028000,0.0013315781,-0.0039947466,0.0023968385,4000,0,0.18292911,-0.17950544,-10.133655,4000,0,2,0
831032000,0.0058589587,-0.006391583,0.0010652696,4000,0,0.14103056,-0.1040881,-10.2928705,4000,0,2,0
831036000,-0.0018642138,-0.0031957962,0.0007989381,4000,0,0.18173198,-0.13281852,-10.049858,4000,0,2,0
831044000,0.0013315816,0.00133159,0.0039947387,4000,0,0.20567402,-0.11127071,-9.866701,4000,0,2,0
831052000,-0.0015978962,-0.0010652655,-7.7511814e-10,4000,0,0.1972943,-0.15676053,-9.967259,4000,0,2,0
831056000,-0.002130528,-0.0029294798,-0.0039947415,4000,0,0.19011171,-0.15197213,-9.964865,4000,0,2,0
831060000,0.00026632313,-0.00079895457,-0.008255801,4000,0,0.1733523,-0.15077503,-9.894236,4000,0,2,0
831068000,-0.005060009,-0.001331571,-0.0010652613,4000,0,0.21764503,-0.1292272,-9.933739,4000,0,2,0
831072000,-0.001597899,-0.0013315745,0.003462111,4000,0,0.25116384,-0.1040881,-9.9505,4000,0,2,0
831076000,-3.9481183e-09,0.0010652677,0.006125271,4000,0,0.21405372,-0.13401562,-9.957683,4000,0,2,0
831080000,-0.0010652617,-0.0013315829,0.00026631646,4000,0,0.18532331,-0.13281852,-9.95888,4000,0,2,0
831084000,0.008255805,-0.0071905367,-0.0050600003,4000,0,0.22243343,-0.13760695,-9.729037,4000,0,2,0
831092000,0.0018642098,-4.2550563e-09,0.0013315851,4000,0,0.15659289,-0.10169389,-10.158795,4000,0,2,0
831096000,-0.0037284275,0.0026631604,-0.00079894677,4000,0,0.16856389,-0.043035932,-10.279703,4000,0,2,0
831104000,-0.007456854,-0.0069242176,1.8555875e-08,4000,0,0.14581896,-0.06697798,-9.946908,4000,0,2,0
831108000,-0.0021305322,-0.004527371,0.0013315869,4000,0,0.13384797,-0.1088765,-9.956485,4000,0,2,0
831116000,0.0037284275,-0.00266316,0.001065264,4000,0,0.18771751,-0.19027936,-9.921769,4000,0,2,0
831124000,0.00026631315,0.0010652601,0.0037284277,4000,0,0.16736679,-0.17711124,-9.913389,4000,0,2,0
831128000,-0.0023968397,-0.0031957973,0.0045273756,4000,0,0.18412621,-0.18429385,-9.887052,4000,0,2,0
831132000,-0.0042610513,-0.0055926437,0.0015978967,4000,0,0.18532331,-0.18549095,-9.889446,4000,0,2,0
831140000,0.013049484,-0.007456859,0.00053264014,4000,0,0.13384797,-0.14000113,-9.735021,4000,0,2,0
831144000,0.008788433,-0.0093210675,0.001065246,4000,0,0.13624217,-0.09690549,-10.198299,4000,0,2,0
831148000,0.0037284286,-0.0069242185,-8.820898e-09,4000,0,0.12427116,-0.062189553,-10.228226,4000,0,2,0
831156000,-0.003994741,-0.0015978988,-0.0005326373,4000,0,0.08237261,-0.03944465,-9.818818,4000,0,2,0
831160000,-0.00026631536,0.0050600064,0.00026630933,4000,0,0.120679855,-0.11366491,-9.835578,4000,0,2,0
831164000,-0.0031957882,0.005858955,0.0037284305,4000,0,0.15778998,-0.16633736,-9.927754,4000,0,2,0
831168000,-0.0010652639,0.002663162,0.0021305287,4000,0,0.16138127,-0.15795763,-9.913389,4000,0,2,0
831172000,0.003195794,2.3594948e-09,0.0002663133,4000,0,0.13384797,-0.13162142,-9.875082,4000,0,2,0
831180000,0.0031957943,-0.00292948,0.004261057,4000,0,0.16257837,-0.17471704,-9.964865,4000,0,2,0
831184000,0.000798952,-0.0050600087,0.0037284214,4000,0,0.18412621,-0.098102584,-9.94212,4000,0,2,0
831188000,-0.0023968434,-0.00026631888,-0.0007989525,4000,0,0.20926532,-0.08134318,-9.931346,4000,0,2,0
831192000,-0.0010652627,0.0047936854,-0.0058589596,4000,0,0.25355804,-0.1172562,-9.951696,4000,0,2,0
831196000,0.0015978925,0.0031957885,-0.0066579073,4000,0,0.27630296,-0.108876504,-9.948106,4000,0,2,0
831200000,0.010918962,0.002130507,-0.0042610685,4000,0,0.24996674,-0.11486201,-9.731431,4000,0,2,0
831204000,0.01171791,0.00026630436,-0.0013315881,4000,0,0.24278416,-0.14838085,-9.708685,4000,0,2,0
831212000,-0.0031957887,-0.002130512,-0.007456858,4000,0,0.18891461,-0.1040881,-10.3168125,4000,0,2,0
831216000,-0.009587374,0.0018642338,-0.0029294866,4000,0,0.15778998,-0.093314186,-10.025918,4000,0,2,0
831220000,-0.008255797,0.0031958062,0.0013315754,4000,0,0.18173198,-0.08852578,-9.881068,4000,0,2,0
831224000,-0.0069242176,0.00026631966,0.0023968515,4000,0,0.19011171,-0.1292272,-9.891843,4000,0,2,0
831228000,-0.0002663143,-0.0018642046,0.00372843,4000,0,0.18652041,-0.15316924,-9.944512,4000,0,2,0
831232000,0.0013315779,0.0002663181,0.0039947433,4000,0,0.16616969,-0.13880402,-9.926557,4000,0,2,0
831240000,-0.005858954,-0.0029294821,-0.0013315764,4000,0,0.18891461,-0.15676053,-9.871491,4000,0,2,0
831244000,-0.005060005,-0.0029294796,-0.0021305287,4000,0,0.22123633,-0.1112707,-9.900222,4000,0,2,0
831248000,-0.0005326297,-4.0671266e-09,-0.0026631616,4000,0,0.23919284,-0.09091998,-9.921769,4000,0,2,0
831256000,0.012783168,-0.007456871,0.0045273616,4000,0,0.21764503,-0.17112577,-9.689531,4000,0,2,0
831260000,0.0055926424,-0.010120024,0.0045273453,4000,0,0.24158706,-0.114862,-10.149219,4000,0,2,0
831264000,0.00506002,-0.0074568433,-0.0005326292,4000,0,0.22243343,-0.08254027,-10.28449,4000,0,2,0
831268000,-0.003728422,-0.0021305257,-0.0015979096,4000,0,0.17814068,-0.05141565,-10.036691,4000,0,2,0
831276000,-0.0010652646,-0.0010652656,-0.00026631262,4000,0,0.1960972,-0.11845331,-9.836775,4000,0,2,0
831284000,-0.0045273746,-0.0002663149,0.0013315805,4000,0,0.19011171,-0.14957793,-9.922966,4000,0,2,0
831288000,-0.006391586,-0.0034621062,0.0042610625,4000,0,0.16377547,-0.122044615,-9.943316,4000,0,2,0
831296000,-0.0071905376,0.0002663105,0.0021305229,4000,0,0.193703,-0.120847516,-9.918178,4000,0,2,0
831300000,-0.0066579035,0.0010652617,0.0007989465,4000,0,0.19250591,-0.11127071,-9.921769,4000,0,2,0
831304000,-0.0021305284,-0.00026631085,0.0026631625,4000,0,0.16856389,-0.16154893,-9.894236,4000,0,2,0
831308000,0.0021305308,-0.0018642084,0.0039947433,4000,0,0.15898708,-0.18429385,-9.870294,4000,0,2,0
831316000,0.006391585,0.003195799,0.0042610583,4000,0,0.12427115,-0.13042432,-9.730233,4000,0,2,0
831324000,0.008255807,-0.0037284251,0.003195775,4000,0,0.24038996,-0.18668807,-10.174356,4000,0,2,0
831332000,-0.010652648,0.0005326264,0.0034621002,4000,0,0.16018417,-0.08613159,-10.023524,4000,0,2,0
831336000,-0.0037284223,-0.0026631532,0.0034621197,4000,0,0.15659289,-0.06697798,-9.907403,4000,0,2,0
831340000,-0.0031957892,-0.0055926405,0.001864217,4000,0,0.14701606,-0.1016939,-9.872689,4000,0,2,0
831344000,7.28156e-09,-0.00772317,-0.0013315725,4000,0,0.13145377,-0.11486201,-9.869096,4000,0,2,0
831352000,0.0037284242,0.0037284207,0.0026631707,4000,0,0.21764503,-0.17232285,-9.912192,4000,0,2,0
831356000,0.0021305338,0.0021305243,0.0053263223,4000,0,0.18053488,-0.14718372,-9.922966,4000,0,2,0
831360000,-0.0018642046,-0.0029294838,0.004261058,4000,0,0.13743927,-0.14359242,-9.939727,4000,0,2,0
831364000,-0.003994736,-0.0034621165,-0.0013315825,4000,0,0.14581896,-0.13281852,-9.932543,4000,0,2,0
831368000,0.0050600106,-0.00026632365,-0.003994736,4000,0,0.1709581,-0.0957084,-9.693124,4000,0,2,0
831376000,0.00053263496,-0.002929489,0.0058589494,4000,0,0.24158706,-0.17471704,-10.126473,4000,0,2,0
831380000,0.00266317,-0.005326318,0.002130531,4000,0,0.24158706,-0.1304243,-10.26414,4000,0,2,0
831384000,-0.0069242185,-0.004261064,0.0010652484,4000,0,0.21046242,-0.080146074,-10.02472,4000,0,2,0
831388000,-0.009054755,-0.0010652595,0.0037284156,4000,0,0.20208272,-0.08134318,-9.891843,4000,0,2,0
831392000,0.002663162,-0.001597884,0.0031957994,4000,0,0.20567402,-0.11246781,-9.849942,4000,0,2,0
831396000,0.0031957964,-0.0034621083,0.002130528,4000,0,0.20806822,-0.14239532,-9.888249,4000,0,2,0
831400000,-0.0010652656,-0.00026631806,0.0010652631,4000,0,0.16377547,-0.16633736,-9.906205,4000,0,2,0
831404000,-0.0018642136,0.0021305282,-0.0015978978,4000,0,0.14581896,-0.17232285,-9.922966,4000,0,2,0
831412000,-0.00079894566,-0.00133158,0.004793691,4000,0,0.22003923,-0.1304243,-9.97564,4000,0,2,0
831416000,-0.0013315745,-0.005326323,0.005060007,4000,0,0.22003923,-0.16154893,-9.948106,4000,0,2,0
831420000,0.0031957857,-0.0026631528,0.007190542,4000,0,0.23679864,-0.20703878,-9.952893,4000,0,2,0
831424000,0.005858947,0.0013315891,0.0053263293,4000,0,0.26074067,-0.20344748,-9.97085,4000,0,2,0
831432000,0.010918962,-0.0021305268,0.0015978956,4000,0,0.19011171,-0.13521273,-9.70629,4000,0,2,0
831436000,0.011984225,-0.0023968506,0.0031957936,4000,0,0.1972943,-0.15077505,-9.700305,4000,0,2,0
831444000,-0.007989483,-0.0031957976,-5.1623257e-09,4000,0,0.22363053,-0.12084751,-10.198299,4000,0,2,0
831448000,-0.012783175,-0.0058589545,0.000266318,4000,0,0.24038996,-0.11246781,-9.924163,4000,0,2,0
831456000,-0.0031957952,-0.005059994,0.0063915974,4000,0,0.20806822,-0.17112577,-9.806848,4000,0,2,0
831460000,0.0023968632,-0.010386323,0.0023968602,4000,0,0.16138127,-0.17471704,-9.887052,4000,0,2,0
831468000,0.005592638,-0.0010652676,0.00026632418,4000,0,0.15060739,-0.14119822,-9.993595,4000,0,2,0
831476000,0.002396845,0.0023968457,-0.0005326284,4000,0,0.099132024,-0.07535768,-9.951696,4000,0,2,0
831480000,-0.00266316,0.003195793,0.0013315852,4000,0,0.12307405,-0.080146074,-9.921769,4000,0,2,0
831488000,0.008522117,0.00026632732,0.007723169,4000,0,0.19250591,-0.15077505,-9.712277,4000,0,2,0
831492000,0.003462113,-0.0010652663,0.0037284226,4000,0,0.19849141,-0.14119822,-10.187526,4000,0,2,0
831496000,0.002130534,-0.004261057,0.00053262804,4000,0,0.1721552,-0.10169389,-10.288082,4000,0,2,0
831500000,-0.009587377,-0.0023968455,-0.0015979123,4000,0,0.12427116,-0.07176636,-9.999579,4000,0,2,0
831504000,-0.0165116,0.0021305382,-1.9963464e-08,4000,0,0.14462186,-0.077751875,-9.824805,4000,0,2,0
831508000,-0.0071905325,0.003728451,0.0045273597,4000,0,0.21046242,-0.1064823,-9.787694,4000,0,2,0
831516000,0.0023968508,-0.001331573,0.0071905353,4000,0,0.20088562,-0.17232285,-9.90142,4000,0,2,0
831520000,0.00026631876,-0.001331581,0.0013315799,4000,0,0.20327982,-0.15436634,-9.885856,4000,0,2,0
831524000,-0.0039947405,-0.0029294793,-0.0007989505,4000,0,0.1949001,-0.13281852,-9.857124,4000,0,2,0
831528000,-0.0042610583,-0.0055926405,-0.002130526,4000,0,0.193703,-0.16394313,-9.890645,4000,0,2,0
831536000,-0.0026631597,-0.002929478,-0.0021305312,4000,0,0.18292911,-0.15915473,-9.985217,4000,0,2,0
831540000,2.3405016e-09,0.0029294775,-0.0002663187,4000,0,0.20208272,-0.14239532,-9.986413,4000,0,2,0
831544000,-0.0031957915,0.0005326326,0.0021305322,4000,0,0.20806822,-0.13401562,-9.974442,4000,0,2,0
831548000,0.0026631658,-0.0050600017,0.0029294824,4000,0,0.18652041,-0.14478953,-9.7362175,4000,0,2,0
831556000,0.009321054,-0.0005326376,0.0055926545,4000,0,0.16616969,-0.14239532,-10.109715,4000,0,2,0
831560000,0.00079894724,-1.598465e-08,0.0055926396,4000,0,0.14941029,-0.1040881,-10.270126,4000,0,2,0
831564000,-0.0079894755,-0.005326339,0.0034621086,4000,0,0.14103056,-0.0969055,-9.986413,4000,0,2,0
831572000,-0.0018642145,0.0002663151,0.00079894497,4000,0,0.13983345,-0.11486201,-9.85114,4000,0,2,0
831576000,-0.0045273756,0.00079894694,-0.00053263246,4000,0,0.13384797,-0.11845331,-9.870294,4000,0,2,0
831580000,-0.001597898,-0.0055926396,-0.00026630735,4000,0,0.15898708,-0.11965041,-9.949304,4000,0,2,0
831584000,0.0021305268,-0.007989485,0.0007989566,4000,0,0.18652041,-0.18429385,-9.95888,4000,0,2,0
831592000,0.004527374,-0.0005326298,0.0007989546,4000,0,0.20567402,-0.17830835,-9.690729,4000,0,2,0
831596000,0.011185279,-0.0005326305,0.0007989497,4000,0,0.16138127,-0.17830835,-9.684743,4000,0,2,0
831600000,0.01038633,-0.002929477,0.00053262315,4000,0,0.14941029,-0.14718372,-10.145626,4000,0,2,0
831604000,0.011451595,-0.0031957896,-0.0005326323,4000,0,0.20327982,-0.1184533,-10.253367,4000,0,2,0
831608000,9.456571e-11,-0.0010652636,-0.00026632022,4000,0,0.24637546,-0.13281852,-10.000777,4000,0,2,0
831612000,-0.0074568526,6.340715e-10,0.0015978944,4000,0,0.24517836,-0.13521272,-9.885855,4000,0,2,0
831616000,0.0,3.2865595e-09,0.0013315806,4000,0,0.22482763,-0.093314186,-9.830789,4000,0,2,0
831620000,0.0018642127,0.00079894933,0.00053263234,4000,0,0.169761,-0.045430146,-9.845155,4000,0,2,0
831624000,-0.00026631576,0.0002663151,0.0015978971,4000,0,0.117088534,-0.09810259,-9.903812,4000,0,2,0
831628000,-0.0031957917,-0.0031957955,0.0018642136,4000,0,0.08476683,-0.16753446,-9.913389,4000,0,2,0
831632000,-0.009853693,-0.0053263283,-4.9158135e-09,4000,0,0.11469434,-0.1256359,-9.889446,4000,0,2,0
831640000,-0.0055926386,-0.0013315857,-0.002396844,4000,0,0.20687112,-0.10767939,-9.955288,4000,0,2,0
831648000,-0.00079895294,-0.003195792,0.0037284265,4000,0,0.20687112,-0.1256359,-9.907403,4000,0,2,0
831652000,0.0010652631,0.0005326338,0.00079894945,4000,0,0.193703,-0.13162142,-9.900222,4000,0,2,0
831656000,0.008255801,-0.0005326304,0.0007989468,4000,0,0.14342476,-0.20703879,-9.724246,4000,0,2,0
831660000,0.0074568526,-0.004261067,0.003994731,4000,0,0.12905955,-0.26809093,-9.720656,4000,0,2,0
831668000,-0.0015978931,-0.0039947433,-7.942317e-09,4000,0,0.22243343,-0.1136649,-10.250972,4000,0,2,0
831672000,-0.0053263227,-0.0010652646,0.00026630957,4000,0,0.22243343,-0.057401165,-9.988806,4000,0,2,0
831680000,-0.0021305273,-0.0039947433,0.0026631607,4000,0,0.22363053,-0.126833,-9.899024,4000,0,2,0
831684000,-0.002929476,-0.0010652675,-0.0005326354,4000,0,0.1960972,-0.14838083,-9.949304,4000,0,2,0
831688000,-0.0007989478,0.0005326311,-0.0013315814,4000,0,0.16616969,-0.17711124,-9.96247,4000,0,2,0
831696000,0.0002663164,0.0029294777,4.5303333e-10,4000,0,0.14222766,-0.14957793,-9.9086,4000,0,2,0
831700000,-0.0023968471,0.0018642131,-0.0018642104,4000,0,0.18292911,-0.1172562,-9.9433155,4000,0,2,0
831704000,-0.004793693,0.00026631603,-0.0039947396,4000,0,0.20447692,-0.124438815,-9.98282,4000,0,2,0
831708000,0.003195793,-0.00053264113,-0.0029294773,4000,0,0.19011171,-0.20464459,-9.762553,4000,0,2,0
831712000,0.005326322,-0.0005326377,0.0002663165,4000,0,0.21525082,-0.23936051,-9.689531,4000,0,2,0
831716000,0.00026631608,-9.3131197e-10,0.0005326324,4000,0,0.26193777,-0.16394314,-10.137248,4000,0,2,0
831720000,0.0015978969,2.9091465e-11,0.002396845,4000,0,0.25475514,-0.13760693,-10.302447,4000,0,2,0
831724000,-0.007456852,-0.00026632476,0.00479369,4000,0,0.21525082,-0.16394313,-10.079786,4000,0,2,0
831728000,-0.010120012,-0.0002663271,0.0021305291,4000,0,0.20926532,-0.1304243,-9.9433155,4000,0,2,0
831732000,-0.0021305287,-0.0013315751,0.0021305333,4000,0,0.18891461,-0.102891,-9.867898,4000,0,2,0
831740000,-0.0045273723,-0.003994746,0.0029294747,4000,0,0.20327982,-0.14239532,-9.912192,4000,0,2,0
831744000,-0.0029294733,0.00026630852,-0.0031957983,4000,0,0.18292911,-0.15197213,-9.914585,4000,0,2,0
831748000,0.0005326328,0.0007989446,-0.0034621104,4000,0,0.19250591,-0.14239532,-9.939727,4000,0,2,0
831756000,-0.0034621095,0.0021305261,0.003195796,4000,0,0.19849141,-0.1064823,-9.932543,4000,0,2,0
831760000,-0.0053263213,-0.0013315859,0.0002663214,4000,0,0.17574649,-0.08852578,-9.93374,4000,0,2,0
831764000,-0.0047936887,-0.0031957994,-0.0029294738,4000,0,0.15060739,-0.0957084,-9.957683,4000,0,2,0
831768000,-0.004261053,0.0007989463,-0.0039947475,4000,0,0.17694359,-0.1292272,-9.974442,4000,0,2,0
831776000,0.0047936914,-0.0013315857,0.002130524,4000,0,0.24398126,-0.18788518,-9.652421,4000,0,2,0
831780000,0.0031957936,-0.00399475,0.006657899,4000,0,0.21764503,-0.17112575,-10.146825,4000,0,2,0
831784000,-0.0034621113,-0.0042610755,0.008522107,4000,0,0.18891461,-0.08852578,-10.273717,4000,0,2,0
831788000,-0.0066578924,-0.005326339,0.002663158,4000,0,0.22482763,-0.03226203,-9.994793,4000,0,2,0
831792000,0.0013315884,-0.0058589573,-0.0013315656,4000,0,0.24876964,-0.077751875,-9.927754,4000,0,2,0
831796000,0.0005326273,-0.003195795,0.0018642127,4000,0,0.21764503,-0.11845331,-9.961273,4000,0,2,0
831804000,0.0026631618,-0.0023968432,0.0034621102,4000,0,0.14103056,-0.1256359,-9.963666,4000,0,2,0
831808000,0.0013315816,-0.0034621113,0.003728424,4000,0,0.11230015,-0.1088765,-9.980426,4000,0,2,0
831816000,0.003195789,0.0013315809,0.005326325,4000,0,0.13145377,-0.126833,-9.966062,4000,0,2,0
831824000,0.009054751,0.001331592,0.0063915835,4000,0,0.15778998,-0.14957795,-9.794876,4000,0,2,0
831828000,0.01012001,0.0023968467,0.0066579063,4000,0,0.169761,-0.20943299,-9.738613,4000,0,2,0
831836000,0.003195795,0.0005326321,0.0034621088,4000,0,0.14462186,-0.20225038,-10.277307,4000,0,2,0
831844000,-0.0050600045,-0.0021305326,0.0015978978,4000,0,0.1972943,-0.126833,-9.952893,4000,0,2,0
831848000,0.00026631722,-0.0005326339,-0.0010652634,4000,0,0.13983345,-0.15077503,-9.922966,4000,0,2,0
831852000,-0.0013315812,1.6164382e-10,0.0029294775,4000,0,0.13265087,-0.16514023,-9.955288,4000,0,2,0
831856000,-0.0026631607,-0.0005326326,0.00559264,4000,0,0.21884213,-0.120847516,-9.978034,4000,0,2,0
831860000,-0.0029294747,-0.0018642156,0.003195795,4000,0,0.2739088,-0.1064823,-9.939727,4000,0,2,0
831864000,-0.0015978965,-0.0007989494,0.00079894817,4000,0,0.20926532,-0.10767939,-9.927754,4000,0,2,0
831868000,-0.0002663149,-0.0031957948,-0.0015978952,4000,0,0.1709581,-0.05141565,-9.937331,4000,0,2,0
831876000,-0.0021305294,-0.0042610574,-0.0015979006,4000,0,0.19130881,-0.063386664,-9.859519,4000,0,2,0
831884000,0.00026631617,-2.0467956e-10,-0.004527375,4000,0,0.16856389,-0.1064823,-9.937332,4000,0,2,0
831888000,0.0047936887,-0.0007989557,-8.4868695e-11,4000,0,0.16138127,-0.11965041,-9.756569,4000,0,2,0
831892000,0.0063915867,-0.002663167,0.0034621074,4000,0,0.14581896,-0.11246781,-9.7757225,4000,0,2,0
831896000,0.0053263223,-0.0029294796,0.0037284244,4000,0,0.12427116,-0.08852578,-10.1971035,4000,0,2,0
831900000,-0.0010652666,-0.0010652721,0.003462107,4000,0,0.121876955,-0.075357676,-10.23541,4000,0,2,0
831904000,-0.008522116,-0.0018642221,0.0021305268,4000,0,0.14103056,-0.0957084,-9.946908,4000,0,2,0
831908000,-0.0045273737,-0.002130531,0.00053263543,4000,0,0.16377547,-0.14718372,-9.843958,4000,0,2,0
831916000,0.0002663164,-0.0026631607,0.00346211,4000,0,0.16736679,-0.16514023,-9.89304,4000,0,2,0
831924000,-0.0002663193,0.0015978975,0.0018642121,4000,0,0.16736679,-0.13401562,-9.890645,4000,0,2,0
831928000,0.0005326306,0.003994743,0.0015978962,4000,0,0.22003923,-0.14239532,-9.906205,4000,0,2,0
831932000,-0.00026631227,-7.130891e-10,0.0029294782,4000,0,0.2667262,-0.1172562,-9.955288,4000,0,2,0
831936000,-0.0018642056,-0.007456854,0.0013315812,4000,0,0.20806822,-0.1064823,-9.985215,4000,0,2,0
831940000,0.004793696,-0.0050600045,-0.0013315658,4000,0,0.12546825,-0.11366491,-9.730233,4000,0,2,0
831944000,0.007989487,0.0015978954,-0.0013315647,4000,0,0.099132024,-0.17112577,-9.63207,4000,0,2,0
831948000,0.0031957948,0.0021305287,-0.00026631213,4000,0,0.13145377,-0.20344748,-10.074998,4000,0,2,0
831956000,-0.0021305296,0.0002663152,1.1867195e-09,4000,0,0.16018417,-0.13521272,-9.976836,4000,0,2,0
831960000,-0.007723168,-0.0029294784,-0.0010652618,4000,0,0.12786245,-0.12443882,-9.829591,4000,0,2,0
831964000,-0.0066579063,-0.0053263186,0.0007989555,4000,0,0.15898708,-0.13042432,-9.798468,4000,0,2,0
831972000,-0.0029294738,-0.009054755,-0.0026631497,4000,0,0.16856389,-0.14239532,-9.883462,4000,0,2,0
831976000,-0.0045273807,-0.009587377,-0.0010652691,4000,0,0.14821316,-0.11246781,-9.918178,4000,0,2,0
831980000,-0.005060013,-0.0061252676,0.0013315737,4000,0,0.14701606,-0.108876504,-9.87987,4000,0,2,0
831984000,-0.0031957994,-0.003728421,0.0037284258,4000,0,0.15539579,-0.09091998,-9.884659,4000,0,2,0
831992000,0.0037284265,3.6686687e-09,-0.0015978954,4000,0,0.20926532,-0.1160591,-9.93374,4000,0,2,0
831996000,0.001864213,2.0277124e-09,-0.002396845,4000,0,0.21165952,-0.1256359,-9.887052,4000,0,2,0
832000000,-0.0029294775,0.00026631885,-0.00053263217,4000,0,0.22841895,-0.122044615,-9.878673,4000,0,2,0
832008000,0.0021305287,-0.0037284258,-0.0013315825,4000,0,0.13863637,-0.17351997,-9.71108,4000,0,2,0
832012000,-0.0021305322,-0.005858955,0.0005326254,4000,0,0.16257837,-0.1304243,-10.175555,4000,0,2,0
832016000,-0.0074568526,-0.0039947433,0.0005326206,4000,0,0.17694359,-0.1280301,-10.283294,4000,0,2,0
832024000,0.00053263095,-0.0018642083,0.001597903,4000,0,0.1733523,-0.1112707,-9.816424,4000,0,2,0
832028000,0.002130528,-0.0018642127,0.003728427,4000,0,0.16377547,-0.120847516,-9.857125,4000,0,2,0
832032000,-0.0045273784,-0.00026632607,0.005858952,4000,0,0.17694359,-0.16274603,-9.908601,4000,0,2,0
832036000,-0.0069242227,0.0013315739,0.004527372,4000,0,0.15898708,-0.20105328,-9.913389,4000,0,2,0
832040000,-0.003728427,0.001065262,0.00133158,4000,0,0.121876955,-0.18788517,-9.940923,4000,0,2,0
832044000,-0.0015978985,0.002929476,-0.0007989515,4000,0,0.14701606,-0.1304243,-9.974442,4000,0,2,0
832052000,0.0005326311,-0.0018642134,-3.3987524e-10,4000,0,0.19968852,-0.13640982,-9.960076,4000,0,2,0
832056000,0.00905475,-0.005060006,-0.00026631154,4000,0,0.17574649,-0.15316926,-9.708685,4000,0,2,0
832064000,0.003728426,-0.0015978973,-0.0005326306,4000,0,0.14701606,-0.12084751,-10.136049,4000,0,2,0
832068000,0.007989486,0.0015978963,-0.00079894223,4000,0,0.16257837,-0.14119822,-10.262944,4000,0,2,0
832072000,-0.002130531,-0.00239684,-0.0018642183,4000,0,0.18053488,-0.16394313,-10.039084,4000,0,2,0
832076000,-0.010652647,-0.0063915816,-0.0018642171,4000,0,0.15419869,-0.14359242,-9.920573,4000,0,2,0
832080000,-0.005060003,-0.006657912,-0.0031957806,4000,0,0.13743927,-0.120847516,-9.883462,4000,0,2,0
832084000,-0.004527373,-0.008255805,-0.004793686,4000,0,0.18532331,-0.105285205,-9.946908,4000,0,2,0
832092000,-0.002663173,-0.003462102,0.004793689,4000,0,0.1745494,-0.16154893,-9.913389,4000,0,2,0
832096000,0.0007989474,-0.0023968404,0.004261062,4000,0,0.12546825,-0.13521272,-9.914585,4000,0,2,0
832100000,0.0015979005,-0.006391587,0.0066579026,4000,0,0.14342476,-0.14838083,-9.946908,4000,0,2,0
832108000,0.0031958017,-0.0055926354,-0.00026630843,4000,0,0.20088562,-0.18309677,-9.938529,4000,0,2,0
832112000,0.0037284233,-0.002663163,0.0013315849,4000,0,0.18412621,-0.16394313,-9.907403,4000,0,2,0
832116000,-0.0005326343,-0.0013315846,0.0029294756,4000,0,0.15898708,-0.17232285,-9.891843,4000,0,2,0
832120000,0.008255801,-0.002663152,0.0058589596,4000,0,0.18652041,-0.16992867,-9.699108,4000,0,2,0
832124000,0.014381075,-0.0058589466,0.0071905325,4000,0,0.23919284,-0.17591415,-9.689531,4000,0,2,0
832128000,0.00825581,-0.006657898,0.0029294617,4000,0,0.20687112,-0.17711124,-10.177949,4000,0,2,0
832136000,-0.010386326,-0.0039947433,-0.00079896225,4000,0,0.10870884,-0.09211709,-10.01155,4000,0,2,0
832140000,-0.002663158,-0.0021305387,-0.0029294735,4000,0,0.12786245,-0.122044615,-9.877475,4000,0,2,0
832144000,0.004261059,-0.0013315869,-0.002396841,4000,0,0.17694359,-0.1172562,-9.90142,4000,0,2,0
832148000,0.006391585,-0.0031957976,-0.0010652662,4000,0,0.18412621,-0.09929969,-9.9505,4000,0,2,0
832152000,0.003728425,-0.005060006,-0.0005326393,4000,0,0.17933778,-0.13281852,-9.974442,4000,0,2,0
832156000,0.0013315781,-0.0047936914,0.0010652608,4000,0,0.16377547,-0.14838083,-9.952893,4000,0,2,0
832160000,0.0015978934,-0.0031957945,0.002929479,4000,0,0.14103056,-0.15197213,-9.926557,4000,0,2,0
832168000,0.0005326345,-0.003994742,-0.001065266,4000,0,0.13504507,-0.19147646,-9.97564,4000,0,2,0
832176000,0.00479369,-0.0050600064,0.0007989487,4000,0,0.18053488,-0.20344749,-9.721854,4000,0,2,0
832184000,0.003195797,0.0058589545,0.0015978948,4000,0,0.11349724,-0.14239532,-10.321601,4000,0,2,0
832188000,-0.003462098,0.001065256,0.0063915956,4000,0,0.118285656,-0.13760693,-10.049858,4000,0,2,0
832196000,-0.0031957966,-0.003462104,0.003462113,4000,0,0.16257837,-0.07655478,-9.821212,4000,0,2,0
832200000,-0.00213054,0.0015979026,0.0077231624,4000,0,0.13983345,-0.1112707,-9.826001,4000,0,2,0
832204000,0.00079895306,-0.00053262594,0.0061252713,4000,0,0.16497257,-0.1292272,-9.918178,4000,0,2,0
832212000,0.0037284272,-0.0021305257,0.0018642147,4000,0,0.13863637,-0.126833,-9.97564,4000,0,2,0
832220000,-0.005326323,-0.003462107,-0.0018642163,4000,0,0.15778998,-0.1304243,-9.940923,4000,0,2,0
832228000,0.00026631585,-0.0007989486,6.952986e-10,4000,0,0.21285662,-0.1304243,-9.974442,4000,0,2,0
832232000,-0.001864213,-0.0013315806,-6.379176e-10,4000,0,0.20806822,-0.11965041,-9.988807,4000,0,2,0
832240000,0.011451593,-0.0015979031,0.0010652748,4000,0,0.11110305,-0.20105329,-9.701503,4000,0,2,0
832244000,0.007989483,0.00053262495,0.002663168,4000,0,0.08716102,-0.20225038,-10.104924,4000,0,2,0
832248000,-0.0021305266,-0.0026631663,0.0010652578,4000,0,0.10152624,-0.13640982,-10.192313,4000,0,2,0
832252000,-0.0077231643,-0.0047936942,-0.0010652681,4000,0,0.10870884,-0.08373739,-9.912192,4000,0,2,0
832260000,0.0007989428,-0.005858952,0.00452738,4000,0,0.20447692,-0.093314186,-9.908601,4000,0,2,0
832264000,0.00079895195,-0.0050600055,0.0021305296,4000,0,0.24517836,-0.13760693,-9.95409,4000,0,2,0
