timestamp,x,y,z,yaw,yawspeed,vx,vy,vz,acceleration[0],acceleration[1],acceleration[2],jerk[0],jerk[1],jerk[2],thrust[0],thrust[1],thrust[2]
829260000,nan,nan,nan,-1.1102947,0.0,nan,nan,nan,0.0,0.0,100.0,0.0,0.0,0.0,-0.0,-0.0,-0.001
829268000,nan,nan,nan,-1.1103318,0.0,nan,nan,nan,0.0,0.0,100.0,0.0,0.0,0.0,-0.0,-0.0,-0.001
829356000,nan,nan,nan,-1.1102929,0.0,nan,nan,nan,0.0,0.0,100.0,0.0,0.0,0.0,-0.0,-0.0,-0.001
829460000,nan,nan,nan,-1.1104568,0.0,nan,nan,nan,0.0,0.0,100.0,0.0,0.0,0.0,-0.0,-0.0,-0.001
829556000,nan,nan,nan,-1.1104333,0.0,nan,nan,nan,0.0,0.0,100.0,0.0,0.0,0.0,-0.0,-0.0,-0.001
829660000,nan,nan,nan,-1.1105113,0.0,nan,nan,nan,0.0,0.0,100.0,0.0,0.0,0.0,-0.0,-0.0,-0.001
829756000,nan,nan,nan,-1.1104171,0.0,nan,nan,nan,0.0,0.0,100.0,0.0,0.0,0.0,-0.0,-0.0,-0.001
829860000,nan,nan,nan,-1.1104666,0.0,nan,nan,nan,0.0,0.0,100.0,0.0,0.0,0.0,-0.0,-0.0,-0.001
829956000,nan,nan,nan,-1.1102941,0.0,nan,nan,nan,0.0,0.0,100.0,0.0,0.0,0.0,-0.0,-0.0,-0.001
830060000,nan,nan,nan,-1.110332,0.0,nan,nan,nan,0.0,0.0,100.0,0.0,0.0,0.0,-0.0,-0.0,-0.001
830156000,nan,nan,nan,-1.1103745,0.0,nan,nan,nan,0.0,0.0,100.0,0.0,0.0,0.0,-0.0,-0.0,-0.001
830260000,nan,nan,nan,-1.1103342,0.0,nan,nan,nan,0.0,0.0,100.0,0.0,0.0,0.0,-0.0,-0.0,-0.001
830356000,nan,nan,nan,-1.1102967,0.0,nan,nan,nan,0.0,0.0,100.0,0.0,0.0,0.0,-0.0,-0.0,-0.001
830460000,nan,nan,nan,-1.1102619,0.0,nan,nan,nan,0.0,0.0,100.0,0.0,0.0,0.0,-0.0,-0.0,-0.001
830564000,nan,nan,nan,-1.1103349,0.0,nan,nan,nan,0.0,0.0,100.0,0.0,0.0,0.0,-0.0,-0.0,-0.001
830660000,nan,nan,nan,-1.1103154,0.0,nan,nan,nan,0.0,0.0,100.0,0.0,0.0,0.0,-0.0,-0.0,-0.001
830764000,nan,nan,nan,-1.1101646,0.0,nan,nan,nan,0.0,0.0,100.0,0.0,0.0,0.0,-0.0,-0.0,-0.001
830860000,nan,nan,nan,-1.110033,0.0,nan,nan,nan,0.0,0.0,100.0,0.0,0.0,0.0,-0.0,-0.0,-0.001
830956000,nan,nan,nan,-1.1100351,0.0,nan,nan,nan,0.0,0.0,100.0,0.0,0.0,0.0,-0.0,-0.0,-0.001
831060000,nan,nan,nan,-1.1101229,0.0,nan,nan,nan,0.0,0.0,100.0,0.0,0.0,0.0,-0.0,-0.0,-0.001
831156000,nan,nan,nan,-1.1101928,0.0,nan,nan,nan,0.0,0.0,100.0,0.0,0.0,0.0,-0.0,-0.0,-0.001
831260000,nan,nan,nan,-1.1103177,0.0,nan,nan,nan,0.0,0.0,100.0,0.0,0.0,0.0,-0.0,-0.0,-0.001
831356000,nan,nan,nan,-1.1102145,0.0,nan,nan,nan,0.0,0.0,100.0,0.0,0.0,0.0,-0.0,-0.0,-0.001
831460000,nan,nan,nan,-1.1100439,0.0,nan,nan,nan,0.0,0.0,100.0,0.0,0.0,0.0,-0.0,-0.0,-0.001
831564000,nan,nan,nan,-1.1098971,0.0,nan,nan,nan,0.0,0.0,100.0,0.0,0.0,0.0,-0.0,-0.0,-0.001
831660000,nan,nan,nan,-1.1099107,0.0,nan,nan,nan,0.0,0.0,100.0,0.0,0.0,0.0,-0.0,-0.0,-0.001
831756000,nan,nan,nan,-1.1099316,0.0,nan,nan,nan,0.0,0.0,100.0,0.0,0.0,0.0,-0.0,-0.0,-0.001
831860000,nan,nan,nan,-1.1097137,0.0,nan,nan,nan,0.0,0.0,100.0,0.0,0.0,0.0,-0.0,-0.0,-0.001
831964000,nan,nan,nan,-1.109704,0.0,nan,nan,nan,0.0,0.0,100.0,0.0,0.0,0.0,-0.0,-0.0,-0.001
832060000,nan,nan,nan,-1.1097233,0.0,nan,nan,nan,0.0,0.0,100.0,0.0,0.0,0.0,-0.0,-0.0,-0.001
832156000,nan,nan,nan,-1.1097109,0.0,nan,nan,nan,0.0,0.0,100.0,0.0,0.0,0.0,-0.0,-0.0,-0.001
832260000,nan,nan,nan,-1.10958,0.0,nan,nan,nan,0.0,0.0,100.0,0.0,0.0,0.0,-0.0,-0.0,-0.001
832356000,nan,nan,nan,-1.1093844,0.0,nan,nan,nan,0.0,0.0,100.0,0.0,0.0,0.0,-0.0,-0.0,-0.001
832460000,nan,nan,nan,-1.1094627,0.0,nan,nan,nan,0.0,0.0,100.0,0.0,0.0,0.0,-0.0,-0.0,-0.001
832556000,nan,nan,nan,-1.1094649,0.0,nan,nan,nan,0.0,0.0,100.0,0.0,0.0,0.0,-0.0,-0.0,-0.001
832660000,nan,nan,nan,-1.1095908,0.0,nan,nan,nan,0.0,0.0,100.0,0.0,0.0,0.0,-0.0,-0.0,-0.001
832764000,nan,nan,nan,-1.1095544,0.0,nan,nan,nan,0.0,0.0,100.0,0.0,0.0,0.0,-0.0,-0.0,-0.001
832860000,nan,nan,nan,-1.1094011,0.0,nan,nan,nan,0.0,0.0,100.0,0.0,0.0,0.0,-0.0,-0.0,-0.001
832956000,nan,nan,nan,-1.1092882,0.0,nan,nan,nan,0.0,0.0,100.0,0.0,0.0,0.0,-0.0,-0.0,-0.001
833060000,nan,nan,nan,-1.1092964,0.0,nan,nan,nan,0.0,0.0,100.0,0.0,0.0,0.0,-0.0,-0.0,-0.001
833156000,nan,nan,nan,-1.1091644,0.0,nan,nan,nan,0.0,0.0,100.0,0.0,0.0,0.0,-0.0,-0.0,-0.001
833260000,nan,nan,nan,-1.1092128,0.0,nan,nan,nan,0.0,0.0,100.0,0.0,0.0,0.0,-0.0,-0.0,-0.001
833356000,nan,nan,nan,-1.1092578,0.0,nan,nan,nan,0.0,0.0,100.0,0.0,0.0,0.0,-0.0,-0.0,-0.001
833460000,nan,nan,nan,-1.1093235,0.0,nan,nan,nan,0.0,0.0,100.0,0.0,0.0,0.0,-0.0,-0.0,-0.001
833556000,nan,nan,nan,-1.1092689,0.0,nan,nan,nan,0.0,0.0,100.0,0.0,0.0,0.0,-0.0,-0.0,-0.001
833660000,nan,nan,nan,-1.1093532,0.0,nan,nan,nan,0.0,0.0,100.0,0.0,0.0,0.0,-0.0,-0.0,-0.001
833764000,nan,nan,nan,-1.1092303,0.0,nan,nan,nan,0.0,0.0,100.0,0.0,0.0,0.0,-0.0,-0.0,-0.001
833860000,nan,nan,nan,-1.1091009,0.0,nan,nan,nan,0.0,0.0,100.0,0.0,0.0,0.0,-0.0,-0.0,-0.001
833956000,nan,nan,nan,-1.1089686,0.0,nan,nan,nan,0.0,0.0,100.0,0.0,0.0,0.0,-0.0,-0.0,-0.001
834060000,nan,nan,nan,-1.108928,0.0,nan,nan,nan,0.0,0.0,100.0,0.0,0.0,0.0,-0.0,-0.0,-0.001
834156000,nan,nan,nan,-1.1089228,0.0,nan,nan,nan,0.0,0.0,100.0,0.0,0.0,0.0,-0.0,-0.0,-0.001
834260000,nan,nan,nan,-1.1090014,0.0,nan,nan,nan,0.0,0.0,100.0,0.0,0.0,0.0,-0.0,-0.0,-0.001
834364000,nan,nan,nan,-1.109061,0.0,nan,nan,nan,0.0,0.0,100.0,0.0,0.0,0.0,-0.0,-0.0,-0.001
834460000,nan,nan,nan,-1.1089106,0.0,nan,nan,nan,0.0,0.0,100.0,0.0,0.0,0.0,-0.0,-0.0,-0.001
834564000,nan,nan,nan,-1.1088626,0.0,nan,nan,nan,0.0,0.0,100.0,0.0,0.0,0.0,-0.0,-0.0,-0.001
834660000,nan,nan,nan,-1.1089213,0.0,nan,nan,nan,0.0,0.0,100.0,0.0,0.0,0.0,-0.0,-0.0,-0.001
834756000,nan,nan,nan,-1.1088276,0.0,nan,nan,nan,0.0,0.0,100.0,0.0,0.0,0.0,-0.0,-0.0,-0.001
834860000,nan,nan,nan,-1.1087323,0.0,nan,nan,nan,0.0,0.0,100.0,0.0,0.0,0.0,-0.0,-0.0,-0.001
834956000,nan,nan,nan,-1.1086687,0.0,nan,nan,nan,0.0,0.0,100.0,0.0,0.0,0.0,-0.0,-0.0,-0.001
835060000,nan,nan,nan,-1.1087304,0.0,nan,nan,nan,0.0,0.0,100.0,0.0,0.0,0.0,-0.0,-0.0,-0.001
835164000,nan,nan,nan,-1.1089311,0.0,nan,nan,nan,0.0,0.0,100.0,0.0,0.0,0.0,-0.0,-0.0,-0.001
835260000,nan,nan,nan,-1.1088893,0.0,nan,nan,nan,0.0,0.0,100.0,0.0,0.0,0.0,-0.0,-0.0,-0.001
835356000,nan,nan,nan,-1.1087779,0.0,nan,nan,nan,0.0,0.0,100.0,0.0,0.0,0.0,-0.0,-0.0,-0.001
835460000,-0.45589912,-1.1141125,0.12817383,-1.1087146,0.0,-0.008060315,0.0020034849,2.2626715,-0.035270486,0.01033189,9.488063,0.0,0.0,0.0,-5.8465455e-05,1.7126462e-05,-0.016243435
835564000,-0.45589912,-1.1141125,0.11631775,-1.1088395,0.0,-0.008080021,0.0021272658,2.0736806,-0.028521176,0.0064179725,9.187951,0.0,0.0,0.0,-9.202161e-05,2.0707146e-05,-0.031544875
835660000,-0.45589912,-1.1141125,0.09979248,-1.1087328,0.0,-0.0079797665,0.0022271513,1.8992274,-0.029898332,0.0028367068,8.871735,0.0,0.0,0.0,-0.00014562832,1.3816986e-05,-0.04766743
835764000,-0.45589912,-1.1141125,0.05708313,-1.1087788,0.0,-0.007989959,0.0022234141,1.7102364,-0.031254143,0.0051503526,8.498431,0.0,0.0,0.0,-0.00021316203,3.512685e-05,-0.06670061
835860000,-0.45589912,-1.1141125,0.013580322,-1.1090095,0.0,-0.008017083,0.0022402883,1.5357832,-0.017826796,0.013703096,8.114824,0.0,0.0,0.0,-0.00015662824,0.00012039694,-0.08625911
835956000,-0.45589912,-1.1141125,-0.04449463,-1.1090766,0.0,-0.007820341,0.00232715,1.3613299,-0.014136951,0.009715449,7.704767,0.0,0.0,0.0,-0.00015549001,0.000106858635,-0.10716621
836060000,-0.45589912,-1.1141125,-0.1587677,-1.1091312,0.0,-0.007539512,0.0022595406,1.172339,-0.019408016,-0.0016187128,7.2096314,0.0,0.0,0.0,-0.00026171686,-2.1828324e-05,-0.1324111
836156000,-0.45589912,-1.1141125,-0.250885,-1.1089598,0.0,-0.0074016033,0.0021586358,0.9978863,-0.025527623,0.010188966,6.723091,0.0,0.0,0.0,-0.00040645746,0.00016223137,-0.15721776
836260000,-0.45589912,-1.1141125,-0.40644836,-1.1087707,0.0,-0.007370375,0.0021227358,0.8088963,-0.024334474,0.0014502957,6.156991,0.0,0.0,0.0,-0.00046247625,2.7562846e-05,-0.18608083
836356000,-0.45589912,-1.1141125,-0.5209656,-1.108618,0.0,-0.0073298602,0.002109486,0.63444406,-0.0113411425,0.013975061,5.596531,0.0,0.0,0.0,-0.00024712327,0.00030451632,-0.21465634
836460000,-0.45589912,-1.1141125,-0.696167,-1.1082016,0.0,-0.0072944984,0.0023479878,0.44545412,-0.011013442,0.01662657,4.951002,0.0,0.0,0.0,-0.0002752427,0.00041552333,-0.24756914
836564000,-0.45589912,-1.1141125,-0.81684875,-1.1080981,0.0,-0.0073993667,0.0025894344,0.25646418,-0.019101616,0.013402572,4.2747917,0.0,0.0,0.0,-0.00054650765,0.0003834549,-0.2820463
836660000,-0.45589912,-1.1141125,-0.9983368,-1.1075155,0.0,-0.0076967017,0.002909702,0.08201194,-0.028900865,0.024584929,3.6118703,0.0,0.0,0.0,-0.00092867936,0.0007899941,-0.31584588
836756000,-0.45589912,-1.1141125,-1.1190186,-1.1076041,0.0,-0.007996924,0.003376174,-0.09244032,-0.032625638,0.037716974,2.9192598,0.0,0.0,0.0,-0.0011684606,0.0013508026,-0.3511592
836860000,-0.45589912,-1.1141125,-1.2997437,-1.1077019,0.0,-0.008469936,0.0040573655,-0.28143027,-0.033226147,0.0383506,2.128427,0.0,0.0,0.0,-0.0013217055,0.0015255515,-0.39148042
836964000,-0.45589912,-1.1141125,-1.4201965,-1.1075897,0.0,-0.008924602,0.0045907674,-0.4704202,-0.04562483,0.03840791,1.2988837,0.0,0.0,0.0,-0.0020173385,0.0016982368,-0.43377537
837060000,-0.45589912,-1.1141125,-1.6006927,-1.106582,0.0,-0.009159367,0.005362332,-0.6448725,-0.013846138,0.098427795,0.5724313,0.0,0.0,0.0,-0.00066486077,0.0047262837,-0.47081414
837164000,-0.45589912,-1.1141125,-1.7181702,-1.1050727,0.0,-0.008482563,0.0075564147,-0.8338624,0.05187909,0.15964662,0.17993784,0.0,0.0,0.0,0.0025963674,0.007989756,-0.4908257
837260000,-0.45589912,-1.1141125,-1.885437,-1.104212,0.0,-0.0074730916,0.0099117635,-1.0083146,0.0103862835,0.13508955,0.03211689,0.0,0.0,0.0,0.00052765495,0.0068629626,-0.49836248
837356000,-0.45589912,-1.1141125,-1.9896393,-1.1048566,0.0,-0.006214841,0.012126571,-1.1827669,0.025763733,0.15220442,-0.03915739,0.0,0.0,0.0,0.0013187606,0.007790843,-0.50199646
837460000,-0.45589912,-1.1141125,-2.1210022,-1.1049654,0.0,-0.004659821,0.014297777,-1.3717569,0.05976526,0.16641602,-0.11017299,0.0,0.0,0.0,0.0030810894,0.008579275,-0.50561726
837556000,-0.45589912,-1.1141125,-2.1940155,-1.1048901,0.0,-0.0028697252,0.016130935,-1.5462091,0.060169294,0.17511803,-0.14219594,0.0,0.0,0.0,0.0031123112,0.009058139,-0.50724995
837660000,-0.45589912,-1.1141125,-2.2758179,-1.1050768,0.0,-0.00080307573,0.01790011,-1.7351991,0.07926621,0.17788096,-0.19233704,0.0,0.0,0.0,0.004120052,0.009245789,-0.50980645
837764000,-0.45589912,-1.1141125,-2.3131409,-1.1049155,0.0,0.0011551946,0.019204056,-1.924189,0.08452401,0.18600595,-0.2340529,0.0,0.0,0.0,0.0044124573,0.009710181,-0.5119334
837860000,-0.45589912,-1.1141125,-2.3483887,-1.1050965,0.0,0.0028976693,0.020342773,-1.8964655,0.082153775,0.18681453,0.5238495,0.0,0.0,0.0,0.0039645387,0.009015208,-0.4732911
837956000,-0.45589912,-1.1141125,-2.3611908,-1.1051444,0.0,0.0042391866,0.021277642,-1.7603059,0.07962332,0.20293003,1.2396635,0.0,0.0,0.0,0.0035462575,0.009038082,-0.43679476
838060000,-0.45589912,-1.1141125,-2.3690948,-1.1050363,0.0,0.0055467007,0.022320325,-1.6092451,0.082285784,0.22207348,1.4629108,0.0,0.0,0.0,0.0035694882,0.009633361,-0.4254123
838156000,-0.45589912,-1.1141125,-2.3701172,-1.1051738,0.0,0.006702405,0.023564136,-1.473748,0.06777436,0.2502122,1.4978753,0.0,0.0,0.0,0.0029276032,0.010808247,-0.4236296
838260000,-0.45589912,-1.1141125,-2.370163,-1.105055,0.0,0.008038146,0.025298655,-1.3388262,0.07250748,0.26187772,1.4954377,0.0,0.0,0.0,0.0031331454,0.011316087,-0.4237539
838356000,-0.45589912,-1.1141125,-2.370163,-1.1051005,0.0,0.009123382,0.026913356,-1.2261982,0.06662326,0.27692533,1.4531076,0.0,0.0,0.0,0.0028935343,0.0120272245,-0.42591214
838460000,-0.45589912,-1.1141125,-2.370163,-1.1050932,0.0,0.009950042,0.028381174,-1.1156669,0.05722069,0.2731362,1.4222003,0.0,0.0,0.0,0.0024943682,0.011906572,-0.42748797
838556000,-0.45589912,-1.1141125,-2.370163,-1.105151,0.0,0.010671833,0.029470062,-1.023246,0.06416666,0.28583813,1.3867078,0.0,0.0,0.0,0.0028088118,0.012512192,-0.42929757
838660000,-0.45589912,-1.1141125,-2.370163,-1.0712553,0.0,0.0109423,0.030511837,-0.9330622,0.05929926,0.28924733,1.3890786,0.0,0.0,0.0,0.002595116,0.012658343,-0.4291767
838756000,-0.45589912,-1.1141125,-2.370163,-1.0751854,0.0,0.010804051,0.031287592,-0.8573332,0.055035893,0.2880741,1.3611729,0.0,0.0,0.0,0.0024164354,0.0126483375,-0.4305995
838860000,-0.45589912,-1.1141125,-2.370163,-1.0780458,0.0,0.011110672,0.031980675,-0.7830446,0.048753556,0.29214635,1.3031827,0.0,0.0,0.0,0.002155438,0.012916052,-0.43355617
838956000,-0.45589912,-1.1141125,-2.370163,-1.0803154,0.0,0.011417576,0.032365948,-0.72127926,0.04446889,0.2881333,1.2859659,0.0,0.0,0.0,0.0019699435,0.012764121,-0.434434
839060000,-0.45589912,-1.1141125,-2.370163,-1.0817147,0.0,0.0112571595,0.03264035,-0.66105187,0.04052471,0.29179615,1.2577894,0.0,0.0,0.0,0.0018011752,0.012969272,-0.4358706
839164000,-0.45589912,-1.1141125,-2.370163,-1.0831738,0.0,0.010624693,0.03286628,-0.60676956,0.03638064,0.29907852,1.2323492,0.0,0.0,0.0,0.0016218955,0.013333303,-0.43716767
839260000,-0.45589912,-1.1141125,-2.370163,-1.0841415,0.0,0.01072557,0.033126414,-0.56154,0.04715315,0.30977714,1.218672,0.0,0.0,0.0,0.002105402,0.013831642,-0.43786502
839364000,-0.45589912,-1.1141125,-2.370163,-1.0852507,0.0,0.011021716,0.03336956,-0.5174099,0.025643094,0.30459598,1.2071587,0.0,0.0,0.0,0.0011465513,0.013619063,-0.43845204
839460000,-0.45589912,-1.1141125,-2.370163,-1.0859244,0.0,0.011546935,0.032806598,-0.48098361,0.022001594,0.29718757,1.1820525,0.0,0.0,0.0,0.0009865719,0.013326165,-0.4397321
839556000,-0.45589912,-1.1141125,-2.370163,-1.0866188,0.0,0.012421273,0.03171624,-0.44770193,0.043391693,0.2982975,1.1528956,0.0,0.0,0.0,0.0019522499,0.013420801,-0.44121867
839660000,-0.45589912,-1.1141125,-2.370163,-1.0876443,0.0,0.013732609,0.03082044,-0.41473627,0.041001108,0.29788542,1.162397,0.0,0.0,0.0,0.0018426658,0.013387521,-0.44073424
839764000,-0.45589912,-1.1141125,-2.370163,-1.0882531,0.0,0.015775137,0.030269712,-0.38445532,0.054303505,0.29833242,1.1650679,0.0,0.0,0.0,0.002439801,0.013403772,-0.44059807
839860000,-0.45589912,-1.1141125,-2.370163,-1.0891336,0.0,0.017410222,0.02973246,-0.35866714,0.060430475,0.3111847,1.1563482,0.0,0.0,0.0,0.0027178933,0.0139957005,-0.44104266
839956000,-0.45589912,-1.1141125,-2.370163,-1.0892581,0.0,0.019148508,0.029240167,-0.33509278,0.064434566,0.30784243,1.1425428,0.0,0.0,0.0,0.002902378,0.013866396,-0.44174653
840060000,-0.45589912,-1.1141125,-2.370163,-1.089979,0.0,0.020140935,0.0287934,-0.31170893,0.06254394,0.3002657,1.1283361,0.0,0.0,0.0,0.0028220376,0.013548251,-0.44247088
840156000,-0.45589912,-1.1141125,-2.370163,-1.0902236,0.0,0.020314602,0.02850722,-0.29164052,0.050352287,0.30809575,1.1440777,0.0,0.0,0.0,0.002267681,0.013875496,-0.44166827
840260000,nan,nan,nan,-1.0911748,0.0,0.0,0.0,-0.0,-0.00024005222,0.24098223,1.4719532,0.0,0.0,0.0,-9.595152e-06,0.009632327,-0.3919892
840364000,-0.50037706,-1.130741,-2.0984955,-1.0911305,0.0,-0.020251863,0.012236988,0.0049233437,-0.059880413,0.2863694,0.83986354,0.0,0.0,0.0,-0.00258386,0.012356936,-0.4231605
840460000,-0.50037706,-1.130741,-2.1009064,-1.0907532,0.0,-0.018756242,0.011700415,-0.0027303696,-0.05473197,0.29721096,0.4908988,0.0,0.0,0.0,-0.0024561742,0.013337761,-0.44005194
840556000,-0.50037706,-1.1224267,-2.1074524,-1.0897306,0.0,-0.016898876,0.019275742,-0.018401146,-0.020895643,0.32622573,0.30966967,0.0,0.0,0.0,-0.0009547577,0.014905811,-0.44808868
840660000,-0.50037706,-1.1057982,-2.1295776,-1.0863112,0.0,-0.013981728,0.03423093,-0.051466465,0.004053291,0.3763207,0.17371464,0.0,0.0,0.0,0.00018737015,0.017396051,-0.45332116
840756000,-0.5003771,-1.0642269,-2.1724396,-1.0807865,0.0,-0.010915601,0.072363056,-0.10251665,0.021460036,0.467429,0.023522079,0.0,0.0,0.0,0.0010047525,0.021884888,-0.45915332
840860000,-0.5003771,-1.0143412,-2.212967,-1.0764484,0.0,-0.0067736385,0.11704832,-0.14793372,0.03256316,0.58943456,-0.019810379,0.0,0.0,0.0,0.0015256976,0.027617063,-0.45947203
840956000,-0.5003771,-0.9228842,-2.2871704,-1.0697886,0.0,-0.0024950413,0.19980513,-0.22152972,0.052198656,0.81315535,-0.13942611,0.0,0.0,0.0,0.0024661813,0.038418394,-0.4633279
841060000,-0.5003771,-0.83974147,-2.3424377,-1.0656905,0.0,0.0018947661,0.27150318,-0.26922345,0.06482285,0.9608142,-0.11010933,0.0,0.0,0.0,0.0030407787,0.04507088,-0.4600222
841164000,-0.5003771,-0.673456,-2.4304504,-1.0608487,0.0,0.0062029776,0.4173026,-0.3420961,0.06388874,1.3304989,-0.18953034,0.0,0.0,0.0,0.0030096276,0.06267624,-0.46196613
841260000,-0.5003772,-0.54874194,-2.4871674,-1.059052,0.0,0.008938956,0.52024347,-0.37815714,0.062317,1.5501666,-0.12825549,0.0,0.0,0.0,0.0029073667,0.07232221,-0.45752317
841364000,-0.5003772,-0.31594235,-2.5739746,-1.0579267,0.0,0.010828173,0.71797574,-0.43616652,0.07063149,2.0168312,-0.14405957,0.0,0.0,0.0,0.0032881482,0.093890704,-0.4565351
841460000,-0.51149666,-0.15797117,-2.6313934,-1.0577945,0.0,0.00027842223,0.83826655,-0.4621532,0.04425523,2.2248933,-0.06332573,0.0,0.0,0.0,0.0020365438,0.102385476,-0.45128405
841564000,-0.51149666,0.11639981,-2.7184143,-1.0645337,0.0,-0.0003938228,1.0560175,-0.50921655,0.028786838,2.6754599,-0.07100187,0.0,0.0,0.0,0.0013216514,0.12283478,-0.45023984
841660000,-0.51149666,0.30762807,-2.7760925,-1.0644791,0.0,-0.0012268245,1.1865541,-0.5248368,0.014902077,2.87412,0.010796681,0.0,0.0,0.0,0.00067663804,0.13050121,-0.44527712
841764000,-0.51149666,0.59862757,-2.863144,-1.0636866,0.0,-0.002183607,1.393867,-0.56084204,0.015985163,3.2470143,0.03648348,0.0,0.0,0.0,0.0007212728,0.14650981,-0.4424898
841860000,-0.5114966,0.79817015,-2.9209747,-1.0625046,0.0,-0.006520018,1.5091815,-0.5697508,-0.00023538695,3.3821304,0.11790772,0.0,0.0,0.0,-1.050195e-05,0.15089607,-0.43753043
841956000,-0.5114966,1.006027,-2.9787292,-1.0611088,0.0,-0.012363487,1.6206357,-0.57569194,-0.036467154,3.5125818,0.2069977,0.0,0.0,0.0,-0.0016070617,0.15479507,-0.43216652
842060000,-0.51149654,1.3053408,-3.065445,-1.0593151,0.0,-0.020865897,1.7975911,-0.60334086,-0.08143018,3.7888327,0.22268403,0.0,0.0,0.0,-0.003569379,0.16607821,-0.42986107
842164000,-0.5114965,1.6046546,-3.1520538,-1.0586559,0.0,-0.030829387,1.959697,-0.62849617,-0.1217599,4.04261,0.20131008,0.0,0.0,0.0,-0.005333134,0.177068,-0.42953557
842260000,-0.5114964,1.8041971,-3.2097168,-1.0586241,0.0,-0.04115448,2.022884,-0.6259656,-0.15810215,4.0195394,0.29916126,0.0,0.0,0.0,-0.0068309754,0.17366858,-0.423707
842364000,-0.51149637,2.1035109,-3.2963562,-1.058678,0.0,-0.054023538,2.156778,-0.6441884,-0.20829356,4.211278,0.29079407,0.0,0.0,0.0,-0.008977724,0.18151157,-0.42267925
842460000,-0.5114963,2.3030534,-3.3540344,-1.0590557,0.0,-0.06544788,2.195137,-0.637115,-0.24995832,4.1445713,0.37417915,0.0,0.0,0.0,-0.010646336,0.17652741,-0.41768923
842556000,-0.52261573,2.502596,-3.4123077,-1.0600606,0.0,-0.089267164,2.2231846,-0.6306515,-0.305564,4.070803,0.4239918,0.0,0.0,0.0,-0.012910598,0.17199835,-0.41434777
842660000,-0.5226156,2.810224,-3.4996033,-1.0624156,0.0,-0.09890643,2.32938,-0.6448829,-0.32472658,4.2160287,0.39838624,0.0,0.0,0.0,-0.013715851,0.17807727,-0.41421494
842756000,-0.52261555,3.0097666,-3.5573578,-1.0640748,0.0,-0.10392236,2.338264,-0.6330559,-0.314225,4.1113954,0.47171164,0.0,0.0,0.0,-0.013131153,0.17181115,-0.40981027
842860000,-0.5226154,3.3090804,-3.6444702,-1.0658673,0.0,-0.114343,2.4171891,-0.64661074,-0.36241347,4.2071524,0.42704213,0.0,0.0,0.0,-0.015173034,0.17613934,-0.41057158
842956000,-0.5226153,3.508623,-3.7021942,-1.0663031,0.0,-0.12271495,2.4102054,-0.63670087,-0.36331105,4.073072,0.4549463,0.0,0.0,0.0,-0.015129989,0.16962196,-0.4083955
843060000,-0.52261513,3.8162508,-3.7890778,-1.0663769,0.0,-0.13476324,2.4811802,-0.6531124,-0.43745464,4.1800866,0.38802892,0.0,0.0,0.0,-0.01829908,0.1748564,-0.41022012
843156000,-0.522615,4.0157933,-3.846878,-1.0663836,0.0,-0.14494388,2.4609957,-0.6458359,-0.46832725,4.0345216,0.4197057,0.0,0.0,0.0,-0.019478044,0.16779843,-0.407865
843260000,-0.52261484,4.3151073,-3.93396,-1.0668155,0.0,-0.15663493,2.5119731,-0.6654506,-0.51624346,4.125948,0.30334482,0.0,0.0,0.0,-0.02169501,0.173392,-0.41212222
843364000,-0.5226147,4.51465,-3.9917145,-1.0678539,0.0,-0.16676494,2.4639053,-0.65749884,-0.5381039,3.8920054,0.33854288,0.0,0.0,0.0,-0.022478893,0.16258566,-0.4096657
843460000,-0.52261454,4.8139634,-4.078659,-1.0709844,0.0,-0.17532296,2.5261571,-0.6841934,-0.5751994,4.0459843,0.22576706,0.0,0.0,0.0,-0.024272017,0.1707307,-0.41381684
843556000,-0.5226144,5.0218205,-4.1363983,-1.0737469,0.0,-0.18257667,2.4997501,-0.68094087,-0.57685804,3.9258444,0.24884352,0.0,0.0,0.0,-0.02424116,0.16497478,-0.41210234
843660000,-0.53373367,5.321134,-4.223053,-1.0780944,0.0,-0.19837779,2.539625,-0.6989529,-0.627272,4.021362,0.20113137,0.0,0.0,0.0,-0.026437586,0.16948804,-0.41332042
843764000,-0.53373355,5.5206766,-4.2808533,-1.0806671,0.0,-0.20262964,2.4822562,-0.6863792,-0.64064914,3.8031933,0.26392704,0.0,0.0,0.0,-0.026777431,0.15896337,-0.40989178
843860000,-0.5337333,5.8199906,-4.3674774,-1.0832084,0.0,-0.20136406,2.538725,-0.7053795,-0.6278713,3.9458132,0.19165026,0.0,0.0,0.0,-0.026405917,0.16594616,-0.4124311
843964000,-0.5337331,6.019533,-4.4252777,-1.0838853,0.0,-0.19537096,2.4814398,-0.68788457,-0.5978783,3.751207,0.25673726,0.0,0.0,0.0,-0.024942534,0.15649442,-0.40911767
844060000,-0.5337329,6.3188467,-4.511734,-1.0840731,0.0,-0.19043504,2.5349944,-0.70747304,-0.58869517,3.8706756,0.17252335,0.0,0.0,0.0,-0.024747329,0.1627139,-0.41224802
844164000,-0.5337327,6.518389,-4.569748,-1.0893551,0.0,-0.18339169,2.4738183,-0.6931045,-0.5770219,3.6764565,0.2119066,0.0,0.0,0.0,-0.024139198,0.15380129,-0.41025245
844260000,-0.5337324,6.8177032,-4.6562805,-1.090026,0.0,-0.17427918,2.5275517,-0.7115419,-0.55187625,3.8125107,0.13962947,0.0,0.0,0.0,-0.02323417,0.16050795,-0.4128632
844356000,-0.53373224,7.02556,-4.7141113,-1.0904042,0.0,-0.16333923,2.494945,-0.70030785,-0.5286137,3.7126896,0.17090164,0.0,0.0,0.0,-0.022167718,0.15569377,-0.4112475
844460000,-0.53373194,7.324874,-4.800583,-1.0922824,0.0,-0.15318067,2.528653,-0.7149358,-0.5178785,3.7983458,0.111464754,0.0,0.0,0.0,-0.021831293,0.16012017,-0.41340175
844564000,-0.5337317,7.5244164,-4.858261,-1.0946676,0.0,-0.14393702,2.466944,-0.7022662,-0.51461774,3.5926259,0.15271588,0.0,0.0,0.0,-0.021587444,0.15070528,-0.41137424
844660000,-0.5448509,7.82373,-4.944931,-1.0993189,0.0,-0.1474316,2.5189805,-0.72688055,-0.5418166,3.715295,0.03302175,0.0,0.0,0.0,-0.023001743,0.15772544,-0.41632187
844756000,-0.54485065,8.0232725,-5.002594,-1.1026717,0.0,-0.14133066,2.4761443,-0.7246046,-0.5490062,3.5848157,0.035356693,0.0,0.0,0.0,-0.023294225,0.15210302,-0.4160942
844860000,-0.5448503,8.322586,-5.0894012,-1.1072506,0.0,-0.13460591,2.508894,-0.7475672,-0.5518999,3.6935234,-0.050347764,0.0,0.0,0.0,-0.023614286,0.15803576,-0.4195995
844956000,-0.54485005,8.522129,-5.1477356,-1.109572,0.0,-0.12894197,2.4661975,-0.74880314,-0.54603934,3.55955,-0.027704235,0.0,0.0,0.0,-0.023299387,0.15188527,-0.41844788
845060000,-0.5448497,8.829757,-5.235428,-1.1112651,0.0,-0.12198572,2.507327,-0.7733636,-0.54479027,3.6578555,-0.08409184,0.0,0.0,0.0,-0.023366392,0.15688767,-0.42061338
845156000,-0.54484946,9.0293,-5.2931976,-1.1115714,0.0,-0.11597028,2.4643679,-0.774807,-0.5355937,3.5264654,-0.06646533,0.0,0.0,0.0,-0.022925321,0.1509453,-0.41975993
845260000,-0.54484904,9.336927,-5.380768,-1.1085991,0.0,-0.10798873,2.5060723,-0.79534197,-0.52086836,3.6430085,-0.11057083,0.0,0.0,0.0,-0.022389023,0.15659119,-0.42152914
845364000,-0.5448488,9.53647,-5.438614,-1.1092361,0.0,-0.09889932,2.445766,-0.7811756,-0.4968525,3.443,0.01547759,0.0,0.0,0.0,-0.021072635,0.1460254,-0.41592225
845460000,-0.5448484,9.835784,-5.525116,-1.1096601,0.0,-0.08936926,2.4976535,-0.8049021,-0.47540444,3.571229,-0.06433963,0.0,0.0,0.0,-0.020323122,0.15266693,-0.41922605
845564000,-0.54484814,10.035327,-5.5828705,-1.1106956,0.0,-0.078610145,2.4353204,-0.79198503,-0.45096496,3.3622308,0.0070881695,0.0,0.0,0.0,-0.019135332,0.14266609,-0.41611555
845660000,-0.5448477,10.3346405,-5.6698456,-1.1140264,0.0,-0.06752328,2.4870546,-0.81693506,-0.4233482,3.5066295,-0.08436622,0.0,0.0,0.0,-0.01812924,0.15016605,-0.41995454
845764000,-0.5559669,10.534183,-5.7275696,-1.1172012,0.0,-0.06641987,2.4253023,-0.80613613,-0.45036414,3.3118305,-0.047451578,0.0,0.0,0.0,-0.019217115,0.14131637,-0.41845137
845860000,-0.55596644,10.841811,-5.814392,-1.1226577,0.0,-0.056073543,2.4854147,-0.82943344,-0.44249126,3.4818764,-0.11605383,0.0,0.0,0.0,-0.019010806,0.14959228,-0.42132437
845956000,-0.55596614,11.041353,-5.872162,-1.1262475,0.0,-0.046344023,2.4428134,-0.82279253,-0.40970892,3.3523996,-0.069849744,0.0,0.0,0.0,-0.017519023,0.14334752,-0.41932905
846060000,-0.55596566,11.340667,-5.958679,-1.130749,0.0,-0.035005663,2.4762998,-0.84115744,-0.39443254,3.4467392,-0.13417675,0.0,0.0,0.0,-0.016977789,0.14835998,-0.42211342
846156000,-0.55596536,11.54021,-6.0165405,-1.1327133,0.0,-0.024305519,2.4345896,-0.8376241,-0.37592924,3.3240929,-0.12641445,0.0,0.0,0.0,-0.016172474,0.14300247,-0.42188206
846260000,-0.5559649,11.839523,-6.103119,-1.1339754,0.0,-0.013882494,2.469135,-0.8569627,-0.36403766,3.4076047,-0.16521841,0.0,0.0,0.0,-0.015719974,0.14714813,-0.42347372
846364000,-0.5559645,12.039066,-6.160782,-1.1341456,0.0,-0.004481709,2.4098544,-0.84841967,-0.33842853,3.2271852,-0.13484627,0.0,0.0,0.0,-0.014573379,0.13896878,-0.4222934
846460000,-0.555964,12.346694,-6.2492523,-1.1306709,0.0,0.00239861,2.4732773,-0.87064934,-0.33947724,3.4096534,-0.19541028,0.0,0.0,0.0,-0.014708541,0.14773016,-0.42489332
846556000,-0.55596364,12.546237,-6.306732,-1.130724,0.0,0.0077172844,2.43474,-0.8581438,-0.33354375,3.3087547,-0.117436565,0.0,0.0,0.0,-0.01433992,0.14225203,-0.42161357
846660000,-0.55596316,12.845551,-6.393448,-1.1315076,0.0,0.014473936,2.4728632,-0.87256575,-0.31250632,3.4198043,-0.18110794,0.0,0.0,0.0,-0.013524504,0.14800072,-0.4244076
846756000,-0.5559628,13.045093,-6.4511566,-1.1329764,0.0,0.02091468,2.4355936,-0.8645482,-0.29408923,3.305773,-0.13990632,0.0,0.0,0.0,-0.012676981,0.14249833,-0.42272425
846860000,-0.5670817,13.344407,-6.5378265,-1.1369754,0.0,0.015497026,2.4744515,-0.8753886,-0.32322085,3.4021204,-0.16331711,0.0,0.0,0.0,-0.013967321,0.1470156,-0.42377403
846956000,-0.56708133,13.543949,-6.5954437,-1.1404524,0.0,0.01882756,2.4375603,-0.86035347,-0.32496858,3.292523,-0.10048136,0.0,0.0,0.0,-0.013957194,0.14141177,-0.42118934
847060000,-0.56708074,13.851578,-6.682556,-1.1461134,0.0,0.025030935,2.4852808,-0.8727541,-0.31470814,3.4351587,-0.18974349,0.0,0.0,0.0,-0.013643613,0.14892522,-0.4251498
847156000,-0.5670804,14.05112,-6.7401123,-1.1496351,0.0,0.03098482,2.4492822,-0.86241055,-0.29359618,3.2924888,-0.13532443,0.0,0.0,0.0,-0.01266066,0.14198102,-0.4228892
847260000,-0.56707996,14.250663,-6.7987366,-1.152701,0.0,0.037333664,2.393966,-0.8503423,-0.27058756,3.137406,-0.10305862,0.0,0.0,0.0,-0.011633449,0.13488743,-0.42162052
847356000,-0.56707937,14.549976,-6.8848114,-1.1554459,0.0,0.043047577,2.4520717,-0.87317944,-0.2530193,3.3073316,-0.1937061,0.0,0.0,0.0,-0.010979992,0.14352453,-0.42556822
847460000,-0.56707895,14.749518,-6.9428864,-1.1562064,0.0,0.04809887,2.396829,-0.8640008,-0.23837839,3.1400478,-0.13130558,0.0,0.0,0.0,-0.010280714,0.13542308,-0.42293826
847564000,-0.56707835,15.048833,-7.0294952,-1.1564393,0.0,0.05240742,2.4366617,-0.88556385,-0.23889156,3.2364116,-0.20613474,0.0,0.0,0.0,-0.010382341,0.140656,-0.426202
847660000,-0.5670779,15.256689,-7.087326,-1.1511114,0.0,0.055331167,2.4080968,-0.8803568,-0.2323735,3.1478963,-0.15822715,0.0,0.0,0.0,-0.010051813,0.13616897,-0.42420754
847756000,-0.5670773,15.556004,-7.1739807,-1.1517702,0.0,0.058019467,2.465984,-0.9035988,-0.23744664,3.3049097,-0.20611234,0.0,0.0,0.0,-0.010320122,0.143641,-0.42622566
847860000,-0.5781961,15.855317,-7.2605133,-1.1525588,0.0,0.048126955,2.5046816,-0.91441345,-0.27846915,3.4166913,-0.21627128,0.0,0.0,0.0,-0.01211699,0.14867002,-0.4267156
847956000,-0.57819563,16.05486,-7.3184204,-1.1540389,0.0,0.0471623,2.467007,-0.8980799,-0.29469058,3.3013463,-0.14218935,0.0,0.0,0.0,-0.012730225,0.14261359,-0.4236334
848060000,-0.5781952,16.254402,-7.3762665,-1.1565082,0.0,0.047806688,2.4097402,-0.88013744,-0.28500754,3.1033351,-0.0744932,0.0,0.0,0.0,-0.012230051,0.13316822,-0.42081603
848156000,-0.5781945,16.553717,-7.463135,-1.1614982,0.0,0.048195075,2.4660032,-0.8967247,-0.28880984,3.2583761,-0.16485576,0.0,0.0,0.0,-0.012509868,0.14113736,-0.4247773
848260000,-0.578194,16.761572,-7.5220795,-1.1652559,0.0,0.05010383,2.4172761,-0.883317,-0.2663697,3.117399,-0.1284622,0.0,0.0,0.0,-0.011498651,0.13457192,-0.42333347
848356000,-0.5781933,17.060886,-7.6081543,-1.1704582,0.0,0.051764566,2.4747467,-0.9024315,-0.2549061,3.3091984,-0.19666848,0.0,0.0,0.0,-0.011081265,0.14385732,-0.42631426
848460000,-0.57819283,17.26043,-7.665802,-1.1733092,0.0,0.054697596,2.418388,-0.8871193,-0.24968395,3.1244037,-0.110879175,0.0,0.0,0.0,-0.010761866,0.13466792,-0.4226861
848564000,-0.5781921,17.559742,-7.7524414,-1.1758972,0.0,0.057544786,2.4565473,-0.89905167,-0.24093518,3.2264972,-0.14997576,0.0,0.0,0.0,-0.010427364,0.13963863,-0.42441937
848660000,-0.57819164,17.759285,-7.8102264,-1.1765562,0.0,0.059417807,2.418627,-0.8874712,-0.24014787,3.113368,-0.10713303,0.0,0.0,0.0,-0.010350291,0.1341851,-0.4226635
848756000,-0.57819086,18.0586,-7.8974,-1.1767356,0.0,0.06060647,2.4753628,-0.9044695,-0.24622324,3.257196,-0.16993982,0.0,0.0,0.0,-0.01068125,0.14129831,-0.42541593
848860000,-0.5781901,18.366228,-7.9839325,-1.1767896,0.0,0.060545254,2.520629,-0.91381884,-0.25805137,3.4068167,-0.20236346,0.0,0.0,0.0,-0.011233012,0.14829922,-0.42688486
848956000,-0.5893091,18.56577,-8.041641,-1.1771663,0.0,0.049418274,2.4820554,-0.9010973,-0.27686486,3.265093,-0.14983612,0.0,0.0,0.0,-0.011990122,0.14140062,-0.4246944
849060000,-0.58930856,18.765312,-8.099411,-1.1781951,0.0,0.047480986,2.423967,-0.87817955,-0.29261005,3.0891304,-0.07672189,0.0,0.0,0.0,-0.012581872,0.13282882,-0.42167395
849164000,-0.5893078,19.064627,-8.185974,-1.1812947,0.0,0.044552088,2.4604893,-0.8811884,-0.30382225,3.18702,-0.10082228,0.0,0.0,0.0,-0.013098678,0.13740188,-0.42279345
849260000,-0.58930725,19.272484,-8.245178,-1.1841137,0.0,0.04327147,2.4291873,-0.866426,-0.28630203,3.1106179,-0.069313265,0.0,0.0,0.0,-0.012306833,0.13371144,-0.42154357
849356000,-0.5893064,19.563482,-8.330505,-1.188359,0.0,0.0421417,2.4771106,-0.87757254,-0.2949369,3.240892,-0.12233799,0.0,0.0,0.0,-0.0127480505,0.140081,-0.42387247
849460000,-0.5893059,19.763025,-8.388306,-1.1908759,0.0,0.040068734,2.4194043,-0.8533473,-0.2922287,3.0620773,-0.053482242,0.0,0.0,0.0,-0.012546595,0.13146773,-0.42104027
849556000,-0.58930504,20.062338,-8.475037,-1.1933588,0.0,0.03764804,2.4755666,-0.86344194,-0.29943818,3.23948,-0.11649978,0.0,0.0,0.0,-0.012940929,0.14000177,-0.4238177
849660000,-0.58930445,20.270195,-8.532837,-1.1940029,0.0,0.036588714,2.42604,-0.8417659,-0.28739557,3.0848505,-0.056388892,0.0,0.0,0.0,-0.012347666,0.13253754,-0.42133284
849764000,-0.5893036,20.56951,-8.619476,-1.1941744,0.0,0.0361578,2.4636276,-0.8510995,-0.29192266,3.2145383,-0.13978286,0.0,0.0,0.0,-0.012651897,0.13931775,-0.42501917
849860000,-0.5893031,20.769053,-8.6772,-1.1941808,0.0,0.03654211,2.4264748,-0.83891535,-0.28503183,3.0985627,-0.09492744,0.0,0.0,0.0,-0.012299198,0.13370378,-0.4231594
849964000,-0.5893022,21.068365,-8.764175,-1.1946064,0.0,0.037254956,2.465907,-0.8512945,-0.29132834,3.2139878,-0.16843487,0.0,0.0,0.0,-0.012667232,0.13974725,-0.42640233
850060000,-0.6004211,21.267908,-8.821701,-1.1956267,0.0,0.027410632,2.4296691,-0.8406968,-0.31471118,3.1132286,-0.1257333,0.0,0.0,0.0,-0.013627372,0.13480654,-0.42463982
850164000,-0.6004202,21.567223,-8.908752,-1.1986622,0.0,0.028695213,2.4696434,-0.85436535,-0.31587866,3.225749,-0.17632395,0.0,0.0,0.0,-0.013749613,0.14041087,-0.42686525
850260000,-0.6004196,21.77508,-8.967529,-1.2013103,0.0,0.02957125,2.441391,-0.84409523,-0.29992196,3.1432528,-0.12964332,0.0,0.0,0.0,-0.012995739,0.1361984,-0.42492583
850364000,-0.6288737,19.462717,-8.208561,-1.1945647,-0.15377818,0.03283815,2.464084,-0.82875055,-0.29307747,2.8352509,0.29992306,0.0,0.0,0.0,-0.012149057,0.11753078,-0.4065191
850460000,-0.6266409,19.658272,-8.272351,-1.1945647,-0.10510204,0.033722296,2.381936,-0.7815084,-0.28880018,2.3672998,0.5528976,0.0,0.0,0.0,-0.011656234,0.09554634,-0.39580497
850564000,-0.6235352,19.942514,-8.358949,-1.1945647,-0.059386235,0.033497963,2.29994,-0.6902488,-0.30106848,1.838126,0.8390597,0.0,0.0,0.0,-0.011786531,0.0719608,-0.38392067
850660000,-0.6216302,20.122963,-8.407841,-1.1945647,-0.040588427,0.03427231,2.1498353,-0.59627235,-0.30339327,1.3328681,0.6027482,0.0,0.0,0.0,-0.01220487,0.05361846,-0.39449927
850756000,-0.61935514,20.342854,-8.459605,-1.1945647,-0.016512368,0.03428994,1.9765146,-0.48996598,-0.30302346,0.7656212,0.40069455,0.0,0.0,0.0,-0.012474327,0.031517725,-0.4037013
850860000,-0.6174601,20.527496,-8.495549,-1.1945647,-0.015674483,0.03440704,1.7403659,-0.3913676,-0.2917106,0.13435984,0.20277596,0.0,0.0,0.0,-0.012278387,0.0056553385,-0.4127711
850956000,-0.61563206,20.703453,-8.521665,-1.1945647,-0.006376765,0.033879414,1.4690595,-0.28640118,-0.2966409,-0.59975123,0.15063953,0.0,0.0,0.0,-0.012568735,-0.02541158,-0.41551122
851060000,-0.6141545,20.83988,-8.533933,-1.1945647,-0.0060531897,0.035132114,1.1461363,-0.18969774,-0.28532374,-1.2768949,0.025783062,0.0,0.0,0.0,-0.012262654,-0.05487844,-0.42147082
851156000,-0.612784,20.95672,-8.534398,-1.1945647,-0.0024625864,0.036588997,0.804041,-0.080681995,-0.2772769,-1.7989733,0.024839401,0.0,0.0,0.0,-0.011932928,-0.077420875,-0.42204088
851260000,-0.61173356,21.035776,-8.522988,-1.1945647,-0.002337628,0.04066193,0.46161997,0.01848954,-0.2514922,-2.2416615,-0.051852703,0.0,0.0,0.0,-0.010923347,-0.097364634,-0.42594302
851364000,-0.6107141,21.095716,-8.492746,-1.1945647,-0.0013208395,0.046183556,0.055240482,0.15621832,-0.23892193,-2.9239578,0.09481943,0.0,0.0,0.0,-0.010234854,-0.12525548,-0.42009377
851460000,-0.6102181,21.111675,-8.462719,-1.1945647,-0.00090274797,0.05351465,-0.24207973,0.24039063,-0.18397424,-3.3709307,0.076580286,0.0,0.0,0.0,-0.007903018,-0.14480574,-0.4212664
851564000,-0.6097947,21.103947,-8.411622,-1.1945647,-0.0005100834,0.06391667,-0.6042219,0.36505824,-0.1471919,-3.6892772,0.25177908,0.0,0.0,0.0,-0.0062132617,-0.15573171,-0.413958
851660000,-0.6096633,21.084957,-8.374462,-1.1945647,-0.00034862425,0.0702416,-0.8073749,0.42396516,-0.12541828,-3.7010846,0.2158413,0.0,0.0,0.0,-0.0053165555,-0.1568912,-0.41570994
851764000,-0.6096375,21.040358,-8.31155,-1.1945647,-0.00019698456,0.07276924,-1.0568303,0.5326701,-0.13047564,-3.7584047,0.23444915,0.0,0.0,0.0,-0.005522842,-0.15908773,-0.41510096
851860000,-0.6097265,21.001755,-8.265401,-1.1945647,-0.0001346321,0.085477285,-1.1925466,0.57006276,-0.040616572,-3.709542,-0.05001515,0.0,0.0,0.0,-0.0017710553,-0.16175182,-0.42761192
851956000,-0.60996234,20.943005,-8.201942,-1.1945647,-5.477164e-05,0.09869702,-1.3413785,0.61888844,0.009624131,-3.6802406,-0.17516977,0.0,0.0,0.0,0.0004250222,-0.16252731,-0.43308258
852060000,-0.61029744,20.881552,-8.141033,-1.1945647,-5.1992374e-05,0.10774284,-1.4392669,0.6376811,0.041325882,-3.5765977,-0.24180031,0.0,0.0,0.0,0.001836821,-0.15896985,-0.4358786
852156000,-0.61078864,20.80829,-8.073582,-1.1945647,-2.1151774e-05,0.11127389,-1.5233953,0.65435076,0.039456084,-3.4560072,-0.27642667,0.0,0.0,0.0,0.0017591198,-0.15408348,-0.4372222
852260000,-0.6113632,20.735607,-8.010927,-1.1945647,-2.0078474e-05,0.12681971,-1.560967,0.6533524,0.1369122,-3.2654428,-0.07455641,0.0,0.0,0.0,0.0059794476,-0.14261362,-0.4282917
852364000,-0.61225027,20.639631,-7.9322257,-1.1945647,-1.1345021e-05,0.14679821,-1.5959442,0.671315,0.23817948,-3.0445364,0.06832835,0.0,0.0,0.0,0.010249865,-0.13101922,-0.42202172
852460000,-0.6129419,20.573486,-7.8793783,-1.1945647,-7.753928e-06,0.17074184,-1.5711373,0.66955715,0.3881237,-2.7943351,0.049408555,0.0,0.0,0.0,0.01673538,-0.120488025,-0.42284995
852564000,-0.6140046,20.473131,-7.7996054,-1.1945647,-4.3812333e-06,0.19879384,-1.5441381,0.6877083,0.49044937,-2.4771514,0.05097586,0.0,0.0,0.0,0.021148583,-0.10681682,-0.4228713
852660000,-0.6147151,20.40661,-7.746001,-1.1945647,-2.9944208e-06,0.2234936,-1.4749161,0.68354917,0.5922966,-2.1823897,-0.056286752,0.0,0.0,0.0,0.02582955,-0.09517216,-0.4276603
852756000,-0.61563575,20.322382,-7.6758614,-1.1945647,-1.2182038e-06,0.24830449,-1.3906143,0.69260436,0.67226917,-1.7906773,-0.12293127,0.0,0.0,0.0,0.029528402,-0.078652784,-0.43074247
852860000,-0.6164778,20.248585,-7.6106634,-1.1945647,-1.1563887e-06,0.26977727,-1.2683393,0.6887912,0.7527927,-1.3640468,-0.24738243,0.0,0.0,0.0,0.033499528,-0.06070054,-0.43639836
852956000,-0.6173765,20.174982,-7.539478,-1.1945647,-4.7044733e-07,0.28716624,-1.1246035,0.69225043,0.79428804,-0.9655758,-0.34809262,0.0,0.0,0.0,0.035724934,-0.04342899,-0.4410783
853060000,-0.61818695,20.114225,-7.4732866,-1.1945647,-4.465755e-07,0.29526916,-0.97600037,0.6826551,0.8135429,-0.95833194,-0.47814876,0.0,0.0,0.0,0.03708834,-0.043689083,-0.4470723
853164000,-0.61916655,20.046923,-7.3897324,-1.1945647,-2.5233038e-07,0.29399064,-0.8363711,0.6869821,0.79364574,-1.0262165,-0.48349875,0.0,0.0,0.0,0.036223628,-0.046838637,-0.4475951
853260000,-0.6197919,20.006649,-7.3335943,-1.1945647,-1.7245902e-07,0.29556233,-0.72720206,0.67447895,0.81128466,-0.9963605,-0.5082813,0.0,0.0,0.0,0.037136696,-0.045608573,-0.44889918
853356000,-0.6205616,19.958942,-7.260345,-1.1945647,-7.016056e-08,0.2927055,-0.626895,0.6780527,0.800125,-0.9622763,-0.47771725,0.0,0.0,0.0,0.036536187,-0.04394052,-0.44780004
853460000,-0.6212227,19.918684,-7.192531,-1.1945647,-6.6600414e-08,0.28843254,-0.53341806,0.67517906,0.8005171,-0.8571154,-0.45646903,0.0,0.0,0.0,0.036497034,-0.039077453,-0.44710308
853556000,-0.6218799,19.878325,-7.119089,-1.1945647,-2.7094686e-08,0.28121704,-0.45829615,0.6829945,0.7790904,-0.78112066,-0.4368344,0.0,0.0,0.0,0.035473257,-0.035565693,-0.44651467
853660000,-0.62250537,19.838495,-7.0415926,-1.1945647,-2.5719823e-08,0.2710374,-0.38740194,0.6909674,0.76215124,-0.64256847,-0.40618807,0.0,0.0,0.0,0.034616746,-0.02918532,-0.44541565
853756000,-0.6231169,19.797226,-6.956143,-1.1945647,-1.0463455e-08,0.25894657,-0.3297409,0.71600527,0.7207731,-0.5020452,-0.29350683,0.0,0.0,0.0,0.03239448,-0.022563959,-0.4407558
853860000,-0.6236542,19.761604,-6.877464,-1.1945647,-9.93251e-09,0.24256296,-0.26960427,0.7277515,0.68023413,-0.33017364,-0.37726796,0.0,0.0,0.0,0.030849595,-0.014973848,-0.4447458
853956000,-0.62420595,19.725475,-6.792588,-1.1945647,-4.0407895e-09,0.22572003,-0.21884906,0.74716437,0.64589614,-0.20912285,-0.3746979,0.0,0.0,0.0,0.029304245,-0.009487884,-0.4449268
854060000,-0.62468326,19.694256,-6.7146173,-1.1945647,-3.835748e-09,0.20570555,-0.16680749,0.7521854,0.593473,-0.07119951,-0.43732047,0.0,0.0,0.0,0.027111206,-0.0032525563,-0.44799525
854164000,-0.6252361,19.657911,-6.617691,-1.1945647,-2.1673283e-09,0.1848799,-0.12084867,0.7736452,0.5342873,0.03288448,-0.4118186,0.0,0.0,0.0,0.024364168,0.0014995732,-0.44720036
854260000,-0.6255776,19.63524,-6.553408,-1.1945647,-1.4812935e-09,0.16464746,-0.08187185,0.76519316,0.4933037,0.1339905,-0.5122812,0.0,0.0,0.0,0.022731826,0.006174388,-0.45190936
854364000,-0.62604946,19.60341,-6.4575143,-1.1945647,-8.369812e-10,0.14236619,-0.04845722,0.77701354,0.43905094,0.18511426,-0.48886982,0.0,0.0,0.0,0.020199941,0.008516773,-0.4511783
854460000,-0.62634206,19.583553,-6.3939567,-1.1945647,-5.720476e-10,0.12133432,-0.017478734,0.7659984,0.38823864,0.25018695,-0.54871947,0.0,0.0,0.0,0.017977495,0.011584974,-0.45408124
854556000,-0.62670904,19.559275,-6.311787,-1.1945647,-2.32723e-10,0.10076079,0.007842302,0.7721011,0.33139324,0.28947276,-0.51974183,0.0,0.0,0.0,0.015310291,0.013373574,-0.45306483
854660000,-0.62702703,19.538301,-6.2363935,-1.1945647,-2.2091401e-10,0.0796965,0.030504584,0.76350754,0.3056844,0.35782397,-0.5537252,0.0,0.0,0.0,0.014177798,0.016596058,-0.45483398
854764000,-0.62739545,19.513908,-6.1427655,-1.1945647,-1.2482393e-10,0.06029585,0.046754256,0.7705613,0.25313246,0.37149322,-0.5162982,0.0,0.0,0.0,0.011704698,0.01717763,-0.4534575
854860000,-0.6276231,19.498705,-6.080726,-1.1945647,-8.531281e-11,0.042268865,0.06177385,0.75967675,0.20901735,0.40556625,-0.5231412,0.0,0.0,0.0,0.009676284,0.01877535,-0.45397455
854964000,-0.6279379,19.477367,-5.988236,-1.1945647,-4.820465e-11,0.02380419,0.0735151,0.77395743,0.1748904,0.4295244,-0.44746867,0.0,0.0,0.0,0.008041066,0.019748563,-0.45090073
855060000,-0.62813747,19.464071,-5.9269285,-1.1945647,-3.29462e-11,0.00783153,0.08406937,0.767714,0.13726586,0.4550467,-0.44142333,0.0,0.0,0.0,0.0063103302,0.020919224,-0.45083475
855156000,-0.62838304,19.447817,-5.8475313,-1.1945647,-1.3403323e-11,-0.0069730817,0.09181461,0.7786103,0.09880116,0.4703708,-0.44272444,0.0,0.0,0.0,0.004545289,0.02163913,-0.45114914
855260000,-0.6285944,19.433786,-5.7746534,-1.1945647,-1.27232e-11,-0.021724708,0.09846975,0.7775865,0.061843876,0.49711117,-0.45014712,0.0,0.0,0.0,0.0028486887,0.022898227,-0.45172223
855364000,-0.62883794,19.41747,-5.6841164,-1.1945647,-7.189042e-12,-0.035002388,0.10218708,0.79281145,0.051234305,0.49584034,-0.40531036,0.0,0.0,0.0,0.0023509944,0.022752682,-0.4500026
855460000,-0.62898785,19.407295,-5.624105,-1.1945647,-4.91346e-12,-0.045823067,0.10410081,0.78368,0.025403488,0.5123048,-0.45490834,0.0,0.0,0.0,0.0011719365,0.023634104,-0.45242354
855564000,-0.6292022,19.393032,-5.5345483,-1.1945647,-2.7762723e-12,-0.057034556,0.102801844,0.7993916,0.012171856,0.49146855,-0.40655136,0.0,0.0,0.0,0.0005591912,0.022578716,-0.45053136
855660000,-0.6559722,33.43169,-12.594208,-1.2090325,0.0,-0.078079,11.999746,-3.0,-0.05160205,36.119854,-15.553119,0.0,0.0,0.0,-0.0004285898,0.2999997,-0.9539392
855756000,-0.6559722,33.43169,-12.594208,-1.2121141,0.0,-0.082414344,11.999717,-3.0,0.04198679,32.32455,-10.952568,0.0,0.0,0.0,0.00052131154,0.40134433,-0.9159271
855860000,-0.6559722,33.43169,-12.594208,-1.2154105,0.0,-0.0865558,11.999687,-3.0,0.112398975,28.716066,-3.4430559,0.0,0.0,0.0,0.0022873953,0.58439136,-0.5843958
855956000,-0.6559722,33.43169,-12.594208,-1.2164664,0.0,-0.08712207,11.999683,-3.0,0.1932463,24.556606,0.8480358,0.0,0.0,0.0,0.0031085662,0.39501834,-0.39503062
856060000,-0.6559722,33.43169,-12.594208,-1.2169065,0.0,-0.09382784,11.999633,-3.0,0.07669106,22.349333,0.78671545,0.0,0.0,0.0,0.0013647988,0.39773008,-0.39773244
856156000,-0.6559722,33.43169,-12.594208,-1.2169144,0.0,-0.103081875,11.999557,-3.0,-0.023409043,20.30769,0.40851837,0.0,0.0,0.0,-0.0004776996,0.41441143,-0.4144117
856260000,-0.6559722,33.43169,-12.594208,-1.2169641,0.0,-0.123390585,11.999366,-3.0,-0.20124325,18.66316,0.553755,0.0,0.0,0.0,-0.0043992125,0.40797997,-0.4080037
856364000,-0.6559722,33.43169,-12.594208,-1.2173351,0.0,-0.15123254,11.973059,-3.0,-0.29795212,17.58512,0.98481435,0.0,0.0,0.0,-0.0065898364,0.3889318,-0.38898763
856460000,-0.6559722,33.43169,-12.594208,-1.2188256,0.0,-0.18023556,11.507305,-3.0,-0.43337688,15.758212,1.3785031,0.0,0.0,0.0,-0.010216291,0.37147912,-0.37161958
856556000,-0.6559722,33.43169,-12.594208,-1.220063,0.0,-0.21454251,11.009773,-3.0,-0.5206921,14.132901,1.6808362,0.0,0.0,0.0,-0.013191015,0.35803756,-0.35828048
856660000,-0.6559722,33.43169,-12.594208,-1.2215083,0.0,-0.25276497,10.440759,-3.0,-0.6549493,12.505897,1.8990353,0.0,0.0,0.0,-0.018234286,0.34817365,-0.3486508
856756000,-0.6559722,33.43169,-12.594208,-1.2218181,0.0,-0.2926825,9.895344,-3.0,-0.7227173,11.123413,2.0221064,0.0,0.0,0.0,-0.022252753,0.3424943,-0.34321648
856860000,-0.6559722,33.43169,-12.594208,-1.2218539,0.0,-0.3226173,9.288218,-3.0,-0.6950339,9.665168,2.123796,0.0,0.0,0.0,-0.024006624,0.33383703,-0.33872387
856956000,-0.6559722,33.43169,-12.594208,-1.2219077,0.0,-0.337633,8.716216,-3.0,-0.600211,8.379689,2.095499,0.0,0.0,0.0,-0.020807292,0.29049557,-0.3399635
857060000,-0.6559722,33.43169,-12.594208,-1.22271,0.0,-0.35866398,8.08594,-2.8314543,-0.6596843,7.0515532,2.5452049,0.0,0.0,0.0,-0.02153489,0.23019257,-0.3201306
857156000,-0.6559722,33.43169,-12.594208,-1.2242229,0.0,-0.37593237,7.506404,-2.5008812,-0.7040235,5.978135,3.3117223,0.0,0.0,0.0,-0.020555958,0.17454855,-0.28633282
857260000,-0.6559722,33.43169,-12.594208,-1.2280478,0.0,-0.3838137,6.896712,-2.1710148,-0.7148576,4.982358,3.5310497,0.0,0.0,0.0,-0.020167287,0.14056037,-0.27666146
857356000,-0.6559722,33.43169,-12.594208,-1.2312626,0.0,-0.38317958,6.358367,-1.8999815,-0.69424826,4.2297497,3.3802552,0.0,0.0,0.0,-0.020056566,0.12219583,-0.28331038
857460000,-0.6559722,33.43169,-12.594208,-1.2362545,0.0,-0.39015836,5.7927136,-1.6391058,-0.7392004,3.5064752,3.0479906,0.0,0.0,0.0,-0.022459876,0.10654079,-0.29796538
857564000,-0.6559722,33.43169,-12.594208,-1.2392266,0.0,-0.39668277,5.259205,-1.4167318,-0.7713119,2.9887295,2.5778482,0.0,0.0,0.0,-0.025067566,0.09713345,-0.3187154
857660000,-0.6559722,33.43169,-12.594208,-1.241517,0.0,-0.40110925,4.793962,-1.240469,-0.81954306,2.5476763,2.1494055,0.0,0.0,0.0,-0.02821622,0.087714486,-0.3376354
857756000,-0.6559722,33.43169,-12.594208,-1.2432545,0.0,-0.40387374,4.357229,-1.0901575,-0.83523613,2.2058473,1.7238417,0.0,0.0,0.0,-0.030358022,0.080175124,-0.35643873
857860000,-0.6559722,33.43169,-12.594208,-1.2435826,0.0,-0.40243807,3.9197357,-0.95479393,-0.8650107,1.8803959,1.318997,0.0,0.0,0.0,-0.03301908,0.07177824,-0.37433815
857964000,-0.6559722,33.43169,-12.594208,-1.2723845,0.0,-0.39854634,3.515113,-0.84153557,-0.87565684,1.6076745,1.0004536,0.0,0.0,0.0,-0.034684133,0.063678816,-0.38843298
858060000,-0.6559722,33.43169,-12.594208,-1.2700567,0.0,-0.38926753,3.1735094,-0.75565434,-0.8585171,1.3697871,0.7458019,0.0,0.0,0.0,-0.0349924,0.055831313,-0.3997094
858156000,-0.6559722,33.43169,-12.594208,-1.2704476,0.0,-0.37580407,2.8553054,-0.6827841,-0.82190263,1.1271025,0.55067766,0.0,0.0,0.0,-0.034224916,0.046933774,-0.40835908
858260000,-0.6559722,33.43169,-12.594208,-1.2715503,0.0,-0.35649863,2.5470693,-0.61957455,-0.78373843,0.91228753,0.35182106,0.0,0.0,0.0,-0.03334074,0.0388093,-0.4171807
858356000,-0.6559722,33.43169,-12.594208,-1.2722292,0.0,-0.335613,2.2924497,-0.5724993,-0.75626713,0.75346154,0.21185768,0.0,0.0,0.0,-0.032651443,0.03253031,-0.4233978
858460000,-0.6559722,33.43169,-12.594208,-1.2725446,0.0,-0.30619717,2.0343637,-0.5277977,-0.6729461,0.5464617,0.090294,0.0,0.0,0.0,-0.029425792,0.023895033,-0.42881048
858556000,-0.6559722,33.43169,-12.594208,-1.2624937,0.0,-0.27686194,1.8182796,-0.49269295,-0.61128354,0.3895996,0.013388336,0.0,0.0,0.0,-0.026943212,0.017172169,-0.43224564
858660000,-0.6559722,33.43169,-12.594208,-1.2625159,0.0,-0.24220826,1.6016482,-0.45865822,-0.52583766,0.1740387,-0.04157597,0.0,0.0,0.0,-0.023309316,0.0077147824,-0.43471524
858756000,-0.6559722,33.43169,-12.594208,-1.2628962,0.0,-0.2101995,1.4202744,-0.4318123,-0.47122914,0.021103637,-0.110732436,0.0,0.0,0.0,-0.021038782,0.0009422059,-0.4378165
858860000,-0.6559722,33.43169,-12.594208,-1.2633101,0.0,-0.17264701,1.2426023,-0.40475655,-0.3731552,-0.13457265,-0.16779888,0.0,0.0,0.0,-0.01675778,-0.006043434,-0.44039512
858956000,-0.46694702,32.068146,-12.1801605,-1.259119,0.0,0.041473474,-0.19612522,0.030849457,0.17198849,-3.662957,1.3440337,0.0,0.0,0.0,0.0065519926,-0.13954231,-0.37358966
859060000,-0.46694702,32.068146,-12.1801605,-1.2527949,0.0,0.07727397,-0.32632694,0.039780617,0.33873147,-4.0879145,0.793987,0.0,0.0,0.0,0.013744359,-0.16587111,-0.39791447
859156000,-0.46694702,32.068146,-12.1801605,-1.2463794,0.0,0.10834073,-0.42264462,0.035858154,0.3087498,-3.5827563,0.30260342,0.0,0.0,0.0,0.013213356,-0.15332878,-0.4196888
859260000,-0.46694702,32.068146,-12.1801605,-1.2475108,0.0,0.13668238,-0.4902134,0.022799492,0.32377023,-3.1300485,-0.050897896,0.0,0.0,0.0,0.014374194,-0.1389625,-0.4353788
859356000,-0.46694702,32.068146,-12.1801605,-1.2491419,0.0,0.15978554,-0.52367705,0.009050369,0.326691,-2.843872,-0.18301475,0.0,0.0,0.0,0.014699453,-0.12795995,-0.44125006
859460000,-0.46694702,32.068146,-12.1801605,-1.2493172,0.0,0.1756214,-0.5309286,-0.0071172714,0.32781792,-2.569115,-0.1945296,0.0,0.0,0.0,0.014767022,-0.115729414,-0.4417547
859564000,-0.46694702,32.068146,-12.1801605,-1.2505962,0.0,0.18345086,-0.51599425,-0.02204132,0.29662547,-2.3144257,-0.17273992,0.0,0.0,0.0,0.013332312,-0.10402562,-0.4407764
859660000,-0.46694702,32.068146,-12.1801605,-1.2525933,0.0,0.19470796,-0.49110487,-0.032170296,0.33274978,-2.086862,-0.16308182,0.0,0.0,0.0,0.014941287,-0.09370526,-0.44034365
859756000,-0.46694702,32.068146,-12.1801605,-1.2573906,0.0,0.20413089,-0.45727518,-0.041062355,0.34815615,-1.8884556,-0.19772261,0.0,0.0,0.0,0.015687998,-0.08509425,-0.44189072
859860000,-0.46694702,32.068146,-12.1801605,-1.2613615,0.0,0.2077843,-0.41251564,-0.050323486,0.34046614,-1.6522992,-0.19759691,0.0,0.0,0.0,0.01534149,-0.07445301,-0.4418911
859956000,-0.46694702,32.068146,-12.1801605,-1.2676455,0.0,0.20595545,-0.36648408,-0.058260918,0.30534285,-1.4491311,-0.23631462,0.0,0.0,0.0,0.013813074,-0.06555567,-0.4436328
860060000,-0.46694702,32.068146,-12.1801605,-1.2715442,0.0,0.21064259,-0.31389675,-0.063313484,0.3419534,-1.238521,-0.24790093,0.0,0.0,0.0,0.015488417,-0.05609749,-0.44418105
860156000,-0.46694702,32.068146,-12.1801605,-1.2761981,0.0,0.21754833,-0.26463985,-0.06633186,0.37269112,-1.0726154,-0.25258034,0.0,0.0,0.0,0.016889898,-0.048609592,-0.44442642
860260000,-0.46694702,32.068146,-12.1801605,-1.2780597,0.0,0.22672789,-0.21238594,-0.06788635,0.43702587,-0.9001684,-0.24928132,0.0,0.0,0.0,0.019801151,-0.040785618,-0.44432908
860364000,-0.46694702,32.068146,-12.1801605,-1.2791848,0.0,0.23726636,-0.16252384,-0.06832504,0.47522458,-0.7577316,-0.2721965,0.0,0.0,0.0,0.021584392,-0.034415677,-0.44541326
860460000,-0.46694702,32.068146,-12.1801605,-1.2793174,0.0,0.24478564,-0.11826076,-0.06778526,0.51233673,-0.6111912,-0.29955822,0.0,0.0,0.0,0.02333775,-0.027840726,-0.4467051
860556000,-0.46694702,32.068146,-12.1801605,-1.2664902,0.0,0.25171554,-0.075871274,-0.06616211,0.5342088,-0.48833162,-0.2934783,0.0,0.0,0.0,0.024323128,-0.022234289,-0.44650537
860660000,-0.46694702,32.068146,-12.1801605,-1.2665445,0.0,0.25598782,-0.034514617,-0.06506348,0.554053,-0.36613697,-0.28924674,0.0,0.0,0.0,0.0252205,-0.016666558,-0.44639763
860764000,-0.46694702,32.068146,-12.1801605,-1.26737,0.0,0.25883517,0.002029419,-0.063941956,0.5484132,-0.27567288,-0.3038752,0.0,0.0,0.0,0.02500605,-0.012569883,-0.44714502
860860000,-0.46694702,32.068146,-12.1801605,-1.2686878,0.0,0.25472447,0.03125305,-0.0642252,0.52070004,-0.20447984,-0.30370393,0.0,0.0,0.0,0.023746163,-0.009325162,-0.44721952
860964000,-0.46694702,32.068146,-12.1801605,-1.2714784,0.0,0.24439877,0.057990644,-0.065135956,0.47932857,-0.1414875,-0.33416018,0.0,0.0,0.0,0.021931086,-0.006473586,-0.44868723
861060000,-0.46694702,32.068146,-12.1801605,-1.273377,0.0,0.23755957,0.07978515,-0.058363914,0.47115007,-0.07979958,-0.2776596,0.0,0.0,0.0,0.021440366,-0.0036313953,-0.44626367
861164000,-0.46694702,32.068146,-12.1801605,-1.2754697,0.0,0.2275777,0.09947233,-0.05097103,0.44013324,-0.023876714,-0.26947358,0.0,0.0,0.0,0.020018404,-0.0010859751,-0.44602373
861260000,-0.46694702,32.068146,-12.1801605,-1.2760342,0.0,0.219606,0.11513691,-0.043536186,0.42760688,0.02748388,-0.25086102,0.0,0.0,0.0,0.019417044,0.0012480054,-0.4453088
861356000,-0.46694702,32.068146,-12.1801605,-1.2761655,0.0,0.21038704,0.12790594,-0.03778076,0.42243752,0.06576831,-0.2513101,0.0,0.0,0.0,0.019188179,0.002987363,-0.4454495
861460000,-0.46694702,32.068146,-12.1801605,-1.2695566,0.0,0.19954284,0.13837013,-0.029194832,0.38425052,0.09571719,-0.24246266,0.0,0.0,0.0,0.017443845,0.0043452797,-0.44519815
861564000,-0.46694702,32.068146,-12.1801605,-1.2697402,0.0,0.18728729,0.14554377,-0.021250725,0.3565514,0.12156247,-0.23614895,0.0,0.0,0.0,0.016181994,0.0055170823,-0.44505998
861660000,-0.46694702,32.068146,-12.1801605,-1.270398,0.0,0.17656857,0.14903907,-0.014203072,0.3453662,0.12713562,-0.23769256,0.0,0.0,0.0,0.015682183,0.005772899,-0.44528714
861764000,-0.46694702,32.068146,-12.1801605,-1.2723144,0.0,0.16541983,0.15009908,-0.0076551437,0.31982175,0.14145844,-0.2244269,0.0,0.0,0.0,0.0145073375,0.0064166533,-0.44482243
861860000,-0.46694702,32.068146,-12.1801605,-1.2737566,0.0,0.15453379,0.14930363,-0.0026216507,0.30631328,0.15132858,-0.23448585,0.0,0.0,0.0,0.013913236,0.0068735844,-0.4454234
861964000,-0.46694702,32.068146,-12.1801605,-1.2753611,0.0,0.14287573,0.14688282,0.0031814575,0.27621868,0.15074934,-0.22639549,0.0,0.0,0.0,0.012540317,0.006844014,-0.4452136
862060000,-0.46694702,32.068146,-12.1801605,-1.2757394,0.0,0.1305841,0.14332771,0.005792618,0.24720393,0.14300066,-0.23213774,0.0,0.0,0.0,0.011232236,0.00649754,-0.44560435
862156000,-0.46694702,32.068146,-12.1801605,-1.2757933,0.0,0.11737544,0.13869448,0.007082939,0.20893943,0.15327907,-0.24993789,0.0,0.0,0.0,0.009514589,0.0069799526,-0.44654056
862260000,-0.46694702,32.068146,-12.1801605,-1.2758476,0.0,0.10506161,0.1330429,0.01112175,0.1861732,0.15277916,-0.2347535,0.0,0.0,0.0,0.008467111,0.006948358,-0.44600484
862356000,-0.46694702,32.068146,-12.1801605,-1.2761699,0.0,0.09426634,0.12737502,0.015062332,0.16690604,0.14023948,-0.21979608,0.0,0.0,0.0,0.0075808032,0.0063696182,-0.44546136
862460000,-0.46694702,32.068146,-12.1801605,-1.2767898,0.0,0.08217623,0.12064533,0.01703167,0.15191753,0.13652106,-0.2376444,0.0,0.0,0.0,0.0069148564,0.006214052,-0.4464102
862564000,-0.46694702,32.068146,-12.1801605,-1.276904,0.0,0.0702158,0.11353874,0.016719818,0.13063978,0.13832782,-0.2636234,0.0,0.0,0.0,0.0059645236,0.006315531,-0.44772258
862660000,-0.46694702,32.068146,-12.1801605,-1.2746943,0.0,0.061968002,0.10711527,0.020947456,0.1202581,0.13470247,-0.22621042,0.0,0.0,0.0,0.0054707956,0.0061279004,-0.44616073
862764000,-0.46694702,32.068146,-12.1801605,-1.2748848,0.0,0.05398379,0.10025873,0.026085854,0.11108792,0.13900922,-0.2165669,0.0,0.0,0.0,0.0050514205,0.006321066,-0.44587153
862860000,-0.46694702,32.068146,-12.1801605,-1.2755,0.0,0.048433464,0.09438066,0.034597397,0.10728411,0.13410877,-0.17871267,0.0,0.0,0.0,0.004861381,0.006076891,-0.44429752
862956000,-0.46694702,32.068146,-12.1801605,-1.276378,0.0,0.043794338,0.08880339,0.04331875,0.10999002,0.13048272,-0.16484538,0.0,0.0,0.0,0.0049778884,0.0059053386,-0.44380552
863060000,-0.46694702,32.068146,-12.1801605,-1.277474,0.0,0.03946461,0.08226032,0.051404953,0.10851079,0.1230602,-0.15764843,0.0,0.0,0.0,0.004909235,0.005567477,-0.44362482
863156000,-0.46694702,32.068146,-12.1801605,-1.2777017,0.0,0.036097214,0.07596006,0.058459282,0.10548293,0.12574211,-0.15968159,0.0,0.0,0.0,0.0047739306,0.0056908173,-0.4438459
863260000,-0.46694702,32.068146,-12.1801605,-1.277716,0.0,0.032572627,0.06965075,0.064406395,0.10038882,0.12004414,-0.18083087,0.0,0.0,0.0,0.004555213,0.005447087,-0.44494608
863364000,-0.46694702,32.068146,-12.1801605,-1.2778823,0.0,0.029985854,0.06386871,0.07094383,0.10120966,0.11828629,-0.16269547,0.0,0.0,0.0,0.0045865118,0.005360372,-0.4442538
863460000,-0.46694702,32.068146,-12.1801605,-1.278174,0.0,0.02707836,0.058838654,0.073661804,0.1071554,0.1043522,-0.17970216,0.0,0.0,0.0,0.004865076,0.004737805,-0.44513506
863556000,-0.46694702,32.068146,-12.1801605,-1.2783039,0.0,0.023826873,0.054113004,0.07364941,0.104296684,0.119780935,-0.19852877,0.0,0.0,0.0,0.0047433553,0.0054475702,-0.44609022
863660000,-0.46694702,32.068146,-12.1801605,-1.2766778,0.0,0.020468423,0.048687935,0.07784653,0.09613732,0.10712873,-0.17832907,0.0,0.0,0.0,0.004365476,0.004864582,-0.44530162
863756000,-0.46694702,32.068146,-12.1801605,-1.276867,0.0,0.017250033,0.043904305,0.081251144,0.09589535,0.10585029,-0.16997099,0.0,0.0,0.0,0.0043527028,0.004804559,-0.44501954
863860000,-0.46694702,32.068146,-12.1801605,-1.2777544,0.0,0.015717804,0.038334273,0.08851051,0.07908332,0.10469533,-0.1475055,0.0,0.0,0.0,0.0035811935,0.0047410023,-0.44414565
863956000,-0.46694702,32.068146,-12.1801605,-1.2783152,0.0,0.014879848,0.03342018,0.094735146,0.07513081,0.092165396,-0.15397897,0.0,0.0,0.0,0.0034056234,0.0041777883,-0.44455844
864060000,-0.46694702,32.068146,-12.1801605,-1.2785463,0.0,0.013608233,0.0289917,0.102612495,0.08155436,0.0881353,-0.12278567,0.0,0.0,0.0,0.0036869114,0.0039844224,-0.44326404
864156000,-0.46694702,32.068146,-12.1801605,-1.2785463,0.0,0.012294208,0.025686646,0.108652115,0.0938859,0.102006845,-0.13051781,0.0,0.0,0.0,0.0042477916,0.004615218,-0.44372556
864260000,-0.46694702,32.068146,-12.1801605,-1.2785977,0.0,0.010752183,0.022638893,0.11542225,0.09057346,0.09554262,-0.11827268,0.0,0.0,0.0,0.00409606,0.0043207835,-0.4432871
864356000,-0.46694702,32.068146,-12.1801605,-1.2787833,0.0,0.009237536,0.020160103,0.121845245,0.09556322,0.10012976,-0.11575765,0.0,0.0,0.0,0.004319825,0.0045262505,-0.44327998
864460000,-0.46694702,32.068146,-12.1801605,-1.2787861,0.0,0.008256406,0.018210411,0.12724781,0.102859646,0.100641586,-0.11420112,0.0,0.0,0.0,0.00464967,0.004549404,-0.44330835
864556000,-0.46694702,32.068146,-12.1801605,-1.278901,0.0,0.008188909,0.016923904,0.13227558,0.11182339,0.11180071,-0.10628394,0.0,0.0,0.0,0.0050525786,0.005051554,-0.4430562
864660000,-0.46694702,32.068146,-12.1801605,-1.2789611,0.0,0.007873454,0.015843963,0.13275623,0.111501984,0.10998326,-0.14899635,0.0,0.0,0.0,0.005060517,0.00499159,-0.44509256
864756000,-0.46694702,32.068146,-12.1801605,-1.2775536,0.0,0.0072180554,0.0149705885,0.12983894,0.104529604,0.11096216,-0.15958187,0.0,0.0,0.0,0.004749299,0.0050415616,-0.445641
864860000,-0.46694702,32.068146,-12.1801605,-1.2777349,0.0,0.0063372343,0.013854408,0.13040066,0.09997912,0.11988434,-0.14638522,0.0,0.0,0.0,0.0045390613,0.005442761,-0.44513264
864956000,-0.46694702,32.068146,-12.1801605,-1.278213,0.0,0.0054094717,0.01294117,0.13196182,0.099395454,0.114465415,-0.13521105,0.0,0.0,0.0,0.0045059277,0.0051890993,-0.44470823
865060000,-0.46694702,32.068146,-12.1801605,-1.2787288,0.0,0.0041706995,0.012216377,0.12996578,0.09842352,0.12876844,-0.14670877,0.0,0.0,0.0,0.004468466,0.0058461386,-0.44530752
865156000,-0.46694702,32.068146,-12.1801605,-1.2789929,0.0,0.0028723015,0.011886597,0.12616348,0.08851535,0.13788459,-0.16387448,0.0,0.0,0.0,0.004026746,0.0062726536,-0.44615245
865260000,-0.46694702,32.068146,-12.1801605,-1.2789934,0.0,0.0016428723,0.011111069,0.1268034,0.10314068,0.13882774,-0.14502248,0.0,0.0,0.0,0.0046848077,0.0063057686,-0.44538498
865364000,-0.46694702,32.068146,-12.1801605,-1.2789934,0.0,0.0005773991,0.010128975,0.1276207,0.10018752,0.14161268,-0.14446013,0.0,0.0,0.0,0.0045515127,0.006433455,-0.4454457
865460000,-0.46694702,32.068146,-12.1801605,-1.2783775,0.0,5.2547453e-05,0.008954811,0.13097572,0.09049877,0.14060937,-0.09852967,0.0,0.0,0.0,0.004091778,0.00635746,-0.44343156
865564000,-0.46694702,32.068146,-12.1801605,-1.2785443,0.0,-0.0002616331,0.007603073,0.13607311,0.11954731,0.13899457,-0.09334831,0.0,0.0,0.0,0.005403866,0.0062829363,-0.443288
865660000,-0.46694702,32.068146,-12.1801605,-1.2788441,0.0,-0.0008563593,0.0062658307,0.14089489,0.11774626,0.13808928,-0.08700873,0.0,0.0,0.0,0.005320134,0.006239294,-0.44308496
865756000,-0.46694702,32.068146,-12.1801605,-1.2789934,0.0,-0.001959969,0.004711151,0.14639187,0.11525357,0.12307516,-0.06480033,0.0,0.0,0.0,0.005197077,0.005549772,-0.44215128
865860000,-0.46694702,32.068146,-12.1801605,-1.2785342,0.0,-0.0036647036,0.0031963347,0.1503048,0.1050816,0.13843088,-0.07209008,0.0,0.0,0.0,0.0047421455,0.006247139,-0.4425633
865956000,-0.46694702,32.068146,-12.1801605,-1.2785882,0.0,-0.006345275,0.0018156051,0.15456581,0.10180352,0.14872609,-0.065039895,0.0,0.0,0.0,0.004591951,0.0067084422,-0.44231528
866060000,-0.46694702,32.068146,-12.1801605,-1.2790121,0.0,-0.008649464,0.0010110855,0.15464783,0.08184764,0.14772142,-0.1023438,0.0,0.0,0.0,0.0037063367,0.006689323,-0.4440964
866164000,-0.46694702,32.068146,-12.1801605,-1.2791684,0.0,-0.010432708,0.0007030487,0.15088272,0.07093055,0.14498551,-0.11431581,0.0,0.0,0.0,0.003217075,0.0065758596,-0.4446815
866260000,-0.46694702,32.068146,-12.1801605,-1.2787142,0.0,-0.01269542,-3.9863586e-05,0.15080643,0.070471555,0.14720713,-0.11354702,0.0,0.0,0.0,0.0031958253,0.0066757184,-0.44471353
866364000,-0.46694702,32.068146,-12.1801605,-1.2788647,0.0,-0.014632399,-0.0006341934,0.14923,0.069720745,0.15345822,-0.113330066,0.0,0.0,0.0,0.003162342,0.006960444,-0.4447661
