timestamp,timestamp_sample,ref_timestamp,ref_lat,ref_lon,x,y,z,delta_xy[0],delta_xy[1],delta_z,vx,vy,vz,z_deriv,delta_vxy[0],delta_vxy[1],delta_vz,ax,ay,az,heading,delta_heading,ref_alt,dist_bottom,eph,epv,evh,evv,vxy_max,vz_max,hagl_min,hagl_max,xy_valid,z_valid,v_xy_valid,v_z_valid,xy_reset_counter,z_reset_counter,vxy_reset_counter,vz_reset_counter,heading_reset_counter,heading_good_for_control,xy_global,z_global,dist_bottom_valid,dist_bottom_sensor_bitfield
829664000,829664000,1032000,41.606704,-86.3556021,-0.45143172,-1.1163791,0.13339251,0.0005766812,3.190234e-05,0.0,-0.0024651925,-0.0016479305,-0.00018433634,-0.0011412759,-0.00036111652,-0.012355443,-0.01708949,-0.03187533,-0.0058880514,0.062494468,-1.1124151,-0.011638404,229.40593,0.10002777,0.056060575,0.060072865,0.007045342,0.005000238,inf,inf,inf,inf,1,1,1,1,2,0,2,1,4,0,1,1,1,0
830168000,830168000,1032000,41.606704,-86.3556021,-0.45041445,-1.1174614,0.13377523,0.0005766812,3.190234e-05,0.0,0.0021445237,-0.0052802344,0.0014482421,0.0006162957,-0.00036111652,-0.012355443,-0.01708949,0.050383147,-0.024320679,0.019879015,-1.1124637,-0.011638404,229.40593,0.1,0.056008104,0.06001898,0.015291261,0.010986324,inf,inf,inf,inf,1,1,1,1,2,0,2,1,4,0,1,1,1,0
830664000,830664000,1032000,41.606704,-86.3556021,-0.45060265,-1.1169277,0.1330805,0.0005766812,3.190234e-05,0.0,-0.00018381418,-0.003331148,-0.0010161757,-0.0017168269,-0.00036111652,-0.012355443,-0.01708949,0.04085291,-0.01845119,-0.05911483,-1.112377,-0.011638404,229.40593,0.100531355,0.055938195,0.05996944,0.020348996,0.014765436,inf,inf,inf,inf,1,1,1,1,2,0,2,1,4,0,1,1,1,0
831168000,831168000,1032000,41.606704,-86.3556021,-0.44969445,-1.1177111,0.13260978,0.0005766812,3.190234e-05,0.0,0.0035816212,-0.0041253776,-0.0008189595,-0.0013546876,-0.00036111652,-0.012355443,-0.01708949,-0.006184677,0.014719969,0.0670682,-1.1122583,-0.011638404,229.40593,0.10038009,0.055896603,0.059898928,0.012174164,0.008700735,inf,inf,inf,inf,1,1,1,1,2,0,2,1,4,0,1,1,1,0
831664000,831664000,1032000,41.606704,-86.3556021,-0.44926167,-1.1180344,0.13282326,0.0005766812,3.190234e-05,0.0,0.0029701544,-0.004956869,0.000893686,0.000723144,-0.00036111652,-0.012355443,-0.01708949,-0.0150387185,-0.043901008,-0.4851623,-1.112006,-0.011638404,229.40593,0.100157976,0.055855334,0.05985084,0.017956113,0.012966325,inf,inf,inf,inf,1,1,1,1,2,0,2,1,4,0,1,1,1,0
832168000,832168000,1032000,41.606704,-86.3556021,-0.45024112,-1.1170738,0.13238023,0.0005766812,3.190234e-05,0.0,-0.0012547624,-0.0002117899,-0.0020296252,-0.0016750527,-0.00036111652,-0.012355443,-0.01708949,-0.07265975,0.033794355,-0.011343571,-1.1118553,-0.011638404,229.40593,0.10055916,0.05579011,0.059781775,0.008109921,0.00576218,inf,inf,inf,inf,1,1,1,1,2,0,2,1,4,0,1,1,1,0
832664000,832664000,1032000,41.606704,-86.3556021,-0.4513232,-1.1166824,0.13063908,0.0005766812,3.190234e-05,0.0,-0.0023805806,-0.0028384835,-0.0056017614,-0.004517545,-0.00036111652,-0.012355443,-0.01708949,-0.0059794276,0.07950541,0.10578327,-1.1117567,-0.011638404,229.40593,0.10177654,0.05573894,0.05972894,0.015290376,0.010985675,inf,inf,inf,inf,1,1,1,1,2,0,2,1,4,0,1,1,1,0
833160000,833160000,1032000,41.606704,-86.3556021,-0.45110407,-1.1160598,0.1316312,0.0005766812,3.190234e-05,0.0,-0.0012708444,0.0033571904,0.001214477,0.002946055,-0.00036111652,-0.012355443,-0.01708949,-0.046830602,-0.04235334,0.1138746,-1.1112952,-0.011638404,229.40593,0.10086602,0.055714406,0.0596807,0.020364404,0.014770215,inf,inf,inf,inf,1,1,1,1,2,0,2,1,4,0,1,1,1,0
833664000,833664000,1032000,41.606704,-86.3556021,-0.4502228,-1.113873,0.13269913,0.0005766812,3.190234e-05,0.0,0.00072422985,0.006809129,-3.0081763e-05,0.0014076201,-0.00036111652,-0.012355443,-0.01708949,-0.010221465,0.020973746,-0.0049267593,-1.1115134,-0.011638404,229.40593,0.1,0.05563022,0.059611183,0.01217528,0.008700651,inf,inf,inf,inf,1,1,1,1,2,0,2,1,4,0,1,1,1,0
834160000,834160000,1032000,41.606704,-86.3556021,-0.4492837,-1.1152637,0.13222778,0.0005766812,3.190234e-05,0.0,0.0017264965,0.0006560882,-0.0026649926,-0.001579883,-0.00036111652,-0.012355443,-0.01708949,0.060963538,0.050089408,-0.11245074,-1.1111351,-0.011638404,229.40593,0.10043934,0.05563338,0.059555586,0.017963594,0.012968887,inf,inf,inf,inf,1,1,1,1,2,0,2,1,4,0,1,1,1,0
834664000,834664000,1032000,41.606704,-86.3556021,-0.44920462,-1.1163442,0.13264364,0.0005766812,3.190234e-05,0.0,0.0027735,0.00088538957,0.0034064397,0.0046254536,-0.00036111652,-0.012355443,-0.01708949,-0.05953311,0.0031508782,0.4172939,-1.1111966,-0.011638404,229.40593,0.1,0.055526454,0.0594963,0.008109655,0.0057621845,inf,inf,inf,inf,1,1,1,1,2,0,2,1,4,0,1,1,1,0
835160000,835160000,1032000,41.606704,-86.3556021,-0.44923344,-1.1163765,0.1327404,0.0005766812,3.190234e-05,0.0,0.004831687,0.002266258,-0.0011824368,-0.000584201,-0.00036111652,-0.012355443,-0.01708949,-0.01876425,-0.023853987,-0.06900454,-1.1110656,-0.011638404,229.40593,0.1,0.055519365,0.059444536,0.015292466,0.010986305,inf,inf,inf,inf,1,1,1,1,2,0,2,1,4,0,1,1,1,0
835664000,835664000,1032000,41.606704,-86.3556021,-0.44880652,-1.1164594,0.13396324,0.0005766812,3.190234e-05,0.0,0.005095836,-0.0009815968,0.002585616,0.0027530545,-0.00036111652,-0.012355443,-0.01708949,0.072739124,-0.054778084,-0.007782194,-1.1107184,-0.011638404,229.40593,0.1,0.0554591,0.05940039,0.020810328,0.015110505,inf,inf,inf,inf,1,1,1,1,2,0,2,1,4,0,1,1,1,0
836160000,836160000,1032000,41.606704,-86.3556021,-0.44934,-1.1164129,0.13305342,0.0005766812,3.190234e-05,0.0,0.0037592244,-0.0011316199,-0.0027436144,-0.0029544753,-0.00036111652,-0.012355443,-0.01708949,0.00778255,-0.00045579305,-0.5687597,-1.110925,-0.011638404,229.40593,0.1,0.055412997,0.059329014,0.012174736,0.008700727,inf,inf,inf,inf,1,1,1,1,2,0,2,1,4,0,1,1,1,0
836664000,836664000,1032000,41.606704,-86.3556021,-0.4489709,-1.1171683,0.13162288,0.0005766812,3.190234e-05,0.0,0.0034411647,-0.00538981,0.0006960934,0.0005780194,-0.00036111652,-0.012355443,-0.01708949,-0.106066115,-0.13424197,-0.09482639,-1.1098344,-0.011638404,229.40593,0.10130137,0.05664577,0.05994018,0.03834222,0.028673809,inf,inf,inf,inf,1,1,1,1,2,0,2,1,4,0,1,1,1,0
837160000,837160000,1032000,41.606704,-86.3556021,-0.44768652,-1.1218547,0.12172955,0.0005766812,3.190234e-05,0.0,-0.016926417,-0.030754417,-0.14258681,-0.1426251,-0.00036111652,-0.012355443,-0.01708949,0.056654487,0.006038357,-1.4919443,-1.1062298,-0.011638404,229.40593,0.1111947,0.06444907,0.06437364,0.05772242,0.043845594,inf,inf,inf,inf,1,1,1,1,2,0,2,1,4,0,1,1,1,0
837664000,837664000,1032000,41.606704,-86.3556021,-0.45516887,-1.1327738,-0.19256489,0.0005766812,3.190234e-05,0.0,-0.019513559,-0.013991666,-1.1309165,-1.1304669,-0.00036111652,-0.012355443,-0.01708949,-0.0076369313,0.08186526,-2.0340717,-1.1071826,-0.011638404,229.40593,0.42548913,0.083756566,0.07648424,0.0785613,0.057989594,inf,inf,inf,inf,1,1,1,1,2,0,2,1,4,0,1,1,1,0
838160000,838160000,1032000,41.606704,-86.3556021,-0.46178752,-1.1385146,-0.9014347,0.0005766812,3.190234e-05,0.0,-0.00020331854,-0.012935741,-1.3559985,-1.3539786,-0.00036111652,-0.012355443,-0.01708949,0.09124091,-0.025983712,1.1716204,-1.1072991,-0.011638404,229.40593,1.134359,0.11372046,0.097045474,0.09640531,0.07080166,inf,inf,inf,inf,1,1,1,1,2,0,2,1,4,0,1,1,1,0
838664000,838664000,1032000,41.606704,-86.3556021,-0.4644634,-1.1453605,-1.4392018,0.0005766812,3.190234e-05,0.0,0.0133541515,-0.010139126,-0.8173582,-0.8182595,-0.00036111652,-0.012355443,-0.01708949,0.34886512,0.18573725,0.997763,-1.0708722,0.039563816,229.40593,1.672126,0.15064728,0.12533101,0.10661692,0.08269914,inf,inf,inf,inf,1,1,1,1,2,0,2,1,5,0,1,1,1,0
839168000,839168000,1032000,41.606704,-86.3556021,-0.46199954,-1.1469194,-1.7638625,0.0005766812,3.190234e-05,0.0,0.018024089,-0.0018429797,-0.48459452,-0.48832846,-0.00036111652,-0.012355443,-0.01708949,-0.03576562,-0.06676835,0.45884392,-1.0829084,0.039563816,229.40593,1.9967867,0.19274503,0.16066189,0.11885145,0.0945949,inf,inf,inf,inf,1,1,1,1,2,0,2,1,5,0,1,1,1,0
839664000,839664000,1032000,41.606704,-86.3556021,-0.46423244,-1.1439656,-1.9547707,0.0005766812,3.190234e-05,0.0,0.016976265,0.0035653282,-0.30540034,-0.30693695,-0.00036111652,-0.012355443,-0.01708949,0.005210644,-0.01607135,0.18145417,-1.0876247,0.039563816,229.40593,2.187695,0.21802372,0.19175029,0.12960134,0.100199245,inf,inf,inf,inf,1,1,1,1,2,0,2,1,5,1,1,1,1,0
840160000,840160000,1032000,41.606704,-86.3556021,-0.47028485,-1.1410459,-2.077212,0.0005766812,3.190234e-05,0.0,0.018881215,0.0021776247,-0.20293963,-0.20315817,-0.00036111652,-0.012355443,-0.01708949,0.085334785,-0.02999812,0.11495866,-1.0908084,0.039563816,229.40593,2.3101363,0.2593954,0.23105912,0.1568425,0.109284595,inf,inf,inf,inf,1,1,1,1,2,0,2,1,5,1,1,1,1,0
840664000,840664000,1032000,41.606704,-86.3556021,-0.47894013,-1.1385196,-2.0758,0.0005766812,3.190234e-05,0.0,-0.0063359533,-0.009436414,0.10869369,0.10387088,-0.00036111652,-0.012355443,-0.01708949,-0.043498922,0.0868892,-0.29968753,-1.0916929,0.039563816,229.40593,2.3087242,0.273749,0.25855348,0.15667003,0.11059411,inf,inf,inf,inf,1,1,1,1,2,0,2,1,5,1,1,1,1,0
841160000,841160000,1032000,41.606704,-86.3556021,-0.500754,-1.1100496,-2.0862875,0.0005766812,3.190234e-05,0.0,-0.009830856,0.11998167,-0.17625068,-0.18163258,-0.00036111652,-0.012355443,-0.01708949,0.005793618,0.5019989,-0.89904946,-1.079976,0.039563816,229.40593,2.3192117,0.29714322,0.28745094,0.1655218,0.11334475,inf,inf,inf,inf,1,1,1,1,2,0,2,1,5,1,1,1,0,0
841664000,841664000,1032000,41.606704,-86.3556021,-0.50527716,-0.9346522,-2.2513795,0.0005766812,3.190234e-05,0.0,0.001739363,0.6347549,-0.4808613,-0.4784408,-0.00036111652,-0.012355443,-0.01708949,-0.093776576,1.3250679,-0.67613465,-1.061389,0.039563816,229.40593,2.4843037,0.33764088,0.32284424,0.1847369,0.118867554,inf,inf,inf,inf,1,1,1,1,2,0,2,1,5,1,1,1,0,0
842160000,842160000,1032000,41.606704,-86.3556021,-0.4754472,-0.4563562,-2.5191464,0.0005766812,3.190234e-05,0.0,0.006677587,1.3773056,-0.667481,-0.64787203,-0.00036111652,-0.012355443,-0.01708949,-0.07179512,1.5080125,-0.10595011,-1.0606877,0.039563816,229.40593,2.7520707,0.34951428,0.3433061,0.18103664,0.11846138,inf,inf,inf,inf,1,1,1,1,2,0,2,1,5,1,1,1,0,0
842664000,842664000,1032000,41.606704,-86.3556021,-0.41573393,0.37684965,-2.8562496,0.0005766812,3.190234e-05,0.0,-0.027401736,1.9772103,-0.7479491,-0.7184048,-0.00036111652,-0.012355443,-0.01708949,-0.1736223,0.84324604,-0.10713196,-1.0677515,0.039563816,229.40593,3.0891738,0.36140013,0.3628917,0.17852543,0.1184372,inf,inf,inf,inf,1,1,1,1,2,0,2,1,5,1,1,1,0,0
843160000,843160000,1032000,41.606704,-86.3556021,-0.3689962,1.4444398,-3.2023704,0.0005766812,3.190234e-05,0.0,-0.073346905,2.3104987,-0.75799656,-0.717419,-0.00036111652,-0.012355443,-0.01708949,-0.20186661,0.55458075,-0.03058935,-1.078735,0.039563816,229.40593,3.4352946,0.36769435,0.3758543,0.17079315,0.11722345,inf,inf,inf,inf,1,1,1,1,2,0,2,1,5,1,1,1,0,0
843664000,843664000,1032000,41.606704,-86.3556021,-0.3238279,2.6627617,-3.5250194,0.0005766812,3.190234e-05,0.0,-0.121945344,2.4468935,-0.76028645,-0.6934331,-0.00036111652,-0.012355443,-0.01708949,-0.174585,0.26197603,-0.15619868,-1.082974,0.039563816,229.40593,3.7579436,0.35206744,0.38043684,0.15202865,0.11335542,inf,inf,inf,inf,1,1,1,1,2,0,2,1,5,1,1,1,0,0
844168000,844168000,1032000,41.606704,-86.3556021,-0.34075543,3.9282315,-3.8772888,0.0005766812,3.190234e-05,0.0,-0.16629559,2.5012817,-0.7544236,-0.6919556,-0.00036111652,-0.012355443,-0.01708949,-0.021602279,0.05069552,-0.20702188,-1.0895917,0.039563816,229.40593,4.1102133,0.38029674,0.3979694,0.16001357,0.116541594,inf,inf,inf,inf,1,1,1,1,2,0,2,1,5,1,1,1,0,0
844664000,844664000,1032000,41.606704,-86.3556021,-0.3906366,5.187937,-4.2175965,0.0005766812,3.190234e-05,0.0,-0.14960647,2.5175831,-0.74296963,-0.6793809,-0.00036111652,-0.012355443,-0.01708949,-0.032806,-0.022524571,0.027258815,-1.0967873,0.039563816,229.40593,4.450521,0.3795676,0.40544873,0.15281923,0.11582955,inf,inf,inf,inf,1,1,1,1,2,0,2,1,5,1,1,1,0,0
845160000,845160000,1032000,41.606704,-86.3556021,-0.42356905,6.450892,-4.5178614,0.0005766812,3.190234e-05,0.0,-0.1252804,2.511435,-0.7704869,-0.6756667,-0.00036111652,-0.012355443,-0.01708949,0.014849222,-0.0019005168,-0.10349142,-1.1077516,0.039563816,229.40593,4.750786,0.38035268,0.40896106,0.14944021,0.11517164,inf,inf,inf,inf,1,1,1,1,2,0,2,1,5,1,1,1,0,0
845664000,845664000,1032000,41.606704,-86.3556021,-0.47634485,7.73248,-4.8536687,0.0005766812,3.190234e-05,0.0,-0.11051095,2.5301661,-0.8115295,-0.704085,-0.00036111652,-0.012355443,-0.01708949,0.035545185,-0.08019272,-0.0267225,-1.113106,0.039563816,229.40593,5.086593,0.38006964,0.41445595,0.14652927,0.11511958,inf,inf,inf,inf,1,1,1,1,2,0,2,1,5,1,1,1,0,0
846160000,846160000,1032000,41.606704,-86.3556021,-0.5327155,8.992175,-5.1790085,0.0005766812,3.190234e-05,0.0,-0.07081667,2.5214438,-0.82367104,-0.6971489,-0.00036111652,-0.012355443,-0.01708949,0.14734101,0.105031446,-0.14559092,-1.1231467,0.039563816,229.40593,5.411933,0.38046157,0.4185028,0.14571619,0.11534779,inf,inf,inf,inf,1,1,1,1,2,0,2,1,5,1,1,1,0,0
846664000,846664000,1032000,41.606704,-86.3556021,-0.57461506,10.257649,-5.5220275,0.0005766812,3.190234e-05,0.0,-0.03136136,2.5001822,-0.8474616,-0.71279794,-0.00036111652,-0.012355443,-0.01708949,0.073766865,-0.023771003,-0.06221055,-1.132049,0.039563816,229.40593,5.754952,0.38114834,0.41937014,0.14553781,0.11537483,inf,inf,inf,inf,1,1,1,1,2,0,2,1,5,1,1,1,0,0
847168000,847168000,1032000,41.606704,-86.3556021,-0.6057629,11.509484,-5.8859224,0.0005766812,3.190234e-05,0.0,-0.008378381,2.4997985,-0.8497789,-0.7209038,-0.00036111652,-0.012355443,-0.01708949,-0.016390178,-0.05348081,-0.014158027,-1.1387639,0.039563816,229.40593,6.118847,0.40358797,0.42654586,0.15457873,0.11888813,inf,inf,inf,inf,1,1,1,1,2,0,2,1,5,1,1,1,0,0
847664000,847664000,1032000,41.606704,-86.3556021,-0.6304203,12.73844,-6.2080927,0.0005766812,3.190234e-05,0.0,0.013131559,2.4990273,-0.8654514,-0.7095197,-0.00036111652,-0.012355443,-0.01708949,0.12577315,0.13459672,-0.17305095,-1.1521319,0.039563816,229.40593,6.441017,0.37698954,0.42115283,0.14197345,0.11497459,inf,inf,inf,inf,1,1,1,1,2,0,2,1,5,1,1,1,0,0
848160000,848160000,1032000,41.606704,-86.3556021,-0.63443905,13.975254,-6.5689564,0.0005766812,3.190234e-05,0.0,0.031084113,2.5136943,-0.8824408,-0.73095846,-0.00036111652,-0.012355443,-0.01708949,-0.10735638,-0.023273,-0.1741108,-1.1558079,0.039563816,229.40593,6.801881,0.39791113,0.4264499,0.15155196,0.11846445,inf,inf,inf,inf,1,1,1,1,2,0,2,1,5,1,1,1,0,0
848664000,848664000,1032000,41.606704,-86.3556021,-0.646045,15.228205,-6.925086,0.0005766812,3.190234e-05,0.0,0.030434417,2.5100262,-0.89300674,-0.7345048,-0.00036111652,-0.012355443,-0.01708949,-0.18899734,0.4416542,-1.2851264,-1.1682518,0.039563816,229.40593,7.1580105,0.37424394,0.42160162,0.14108267,0.114861466,inf,inf,inf,inf,1,1,1,1,2,0,2,1,5,1,1,1,0,0
849160000,849160000,1032000,41.606704,-86.3556021,-0.6423704,16.46898,-7.3010993,0.0005766812,3.190234e-05,0.0,0.03795206,2.521216,-0.88367385,-0.740591,-0.00036111652,-0.012355443,-0.01708949,0.002208774,-0.095801264,0.07283774,-1.1765517,0.039563816,229.40593,7.534024,0.3965354,0.42642388,0.15239969,0.11870359,inf,inf,inf,inf,1,1,1,1,2,0,2,1,5,1,1,1,0,0
849664000,849664000,1032000,41.606704,-86.3556021,-0.63669616,17.731386,-7.6933856,0.0005766812,3.190234e-05,0.0,0.021511212,2.5022526,-0.85121524,-0.7316762,-0.00036111652,-0.012355443,-0.01708949,-0.045475893,-0.10764672,0.0710198,-1.1866921,0.039563816,229.40593,7.92631,0.3937279,0.42776266,0.15058185,0.11856452,inf,inf,inf,inf,1,1,1,1,2,0,2,1,5,1,1,1,0,0
850160000,850160000,1032000,41.606704,-86.3556021,-0.63911885,18.963303,-8.050645,0.0005766812,3.190234e-05,0.0,0.017983884,2.4885442,-0.8340197,-0.715501,-0.00036111652,-0.012355443,-0.01708949,0.01763536,0.07177965,-0.1947694,-1.194029,0.039563816,229.40593,8.283569,0.39065918,0.42831263,0.14916885,0.118223466,inf,inf,inf,inf,1,1,1,1,2,0,2,1,5,1,1,1,0,0
850664000,850664000,1032000,41.606704,-86.3556021,-0.64237386,20.190868,-8.374044,0.0005766812,3.190234e-05,0.0,0.014771927,2.289418,-0.4476975,-0.3380481,-0.00036111652,-0.012355443,-0.01708949,-0.1295326,-1.5424889,3.170695,-1.2185638,0.039563816,229.40593,8.606969,0.38887286,0.4263316,0.1479436,0.11772526,inf,inf,inf,inf,1,1,1,1,2,0,2,1,5,1,1,1,0,0
851160000,851160000,1032000,41.606704,-86.3556021,-0.64681035,21.139599,-8.39419,0.0005766812,3.190234e-05,0.0,0.015926221,1.3563093,0.16572969,0.26328817,-0.00036111652,-0.012355443,-0.01708949,-0.0232339,-2.4188094,1.1049535,-1.2046928,0.039563816,229.40593,8.627114,0.38687393,0.42698875,0.14803237,0.11746772,inf,inf,inf,inf,1,1,1,1,2,0,2,1,5,1,1,1,0,0
851664000,851664000,1032000,41.606704,-86.3556021,-0.68990606,21.540817,-8.167935,0.0005766812,3.190234e-05,0.0,0.013156356,0.07122645,0.5800252,0.66037524,-0.00036111652,-0.012355443,-0.01708949,0.15873376,-2.400242,0.58517784,-1.193186,0.039563816,229.40593,8.40086,0.38737863,0.4253248,0.15442005,0.116938666,inf,inf,inf,inf,1,1,1,1,2,0,2,1,5,1,1,1,0,0
852160000,852160000,1032000,41.606704,-86.3556021,-0.7459319,21.357004,-7.83334,0.0005766812,3.190234e-05,0.0,0.031010441,-0.8388394,0.59607595,0.65358096,-0.00036111652,-0.012355443,-0.01708949,0.11186851,-1.2379498,-0.32706657,-1.2013743,0.039563816,229.40593,8.066264,0.4107325,0.42922288,0.16975015,0.11983117,inf,inf,inf,inf,1,1,1,1,2,0,2,1,5,1,1,1,0,0
852664000,852664000,1032000,41.606704,-86.3556021,-0.87423325,20.823364,-7.5497866,0.0005766812,3.190234e-05,0.0,0.045627967,-1.1448936,0.59738165,0.6351825,-0.00036111652,-0.012355443,-0.01708949,0.40430206,0.12724563,0.31550407,-1.2056358,0.039563816,229.40593,7.782711,0.3820189,0.42377824,0.15142067,0.11555256,inf,inf,inf,inf,1,1,1,1,2,0,2,1,5,1,1,1,0,0
853168000,853168000,1032000,41.606704,-86.3556021,-0.94649434,20.255278,-7.2209063,0.0005766812,3.190234e-05,0.0,0.16130961,-0.89364594,0.7128161,0.7308244,-0.00036111652,-0.012355443,-0.01708949,0.27725345,0.7621943,0.029567564,-1.1932462,0.039563816,229.40593,7.4538307,0.4054919,0.42800865,0.15840739,0.119669035,inf,inf,inf,inf,1,1,1,1,2,0,2,1,5,1,1,1,0,0
853664000,853664000,1032000,41.606704,-86.3556021,-0.9211504,19.819382,-6.9127493,0.0005766812,3.190234e-05,0.0,0.22938523,-0.66547394,0.6976983,0.67868996,-0.00036111652,-0.012355443,-0.01708949,0.10909702,0.5120833,0.054543775,-1.1916872,0.039563816,229.40593,7.1456738,0.3787286,0.4223141,0.14393112,0.11608576,inf,inf,inf,inf,1,1,1,1,2,0,2,1,5,1,1,1,0,0
854160000,854160000,1032000,41.606704,-86.3556021,-0.8318985,19.489012,-6.595608,0.0005766812,3.190234e-05,0.0,0.22770053,-0.45086318,0.7990071,0.7473922,-0.00036111652,-0.012355443,-0.01708949,-0.08200413,0.55834943,0.15542556,-1.1901643,0.039563816,229.40593,6.8285327,0.3784079,0.4202314,0.14423656,0.116560616,inf,inf,inf,inf,1,1,1,1,2,0,2,1,5,1,1,1,0,0
854664000,854664000,1032000,41.606704,-86.3556021,-0.72219664,19.292677,-6.221046,0.0005766812,3.190234e-05,0.0,0.16205896,-0.20674735,0.8199973,0.764488,-0.00036111652,-0.012355443,-0.01708949,-0.1299554,0.37352005,-0.050051197,-1.1917906,0.039563816,229.40593,6.4539704,0.40084174,0.42792368,0.15567522,0.121292755,inf,inf,inf,inf,1,1,1,1,2,0,2,1,5,1,1,1,0,0
855160000,855160000,1032000,41.606704,-86.3556021,-0.6331306,19.203974,-5.8699627,0.0005766812,3.190234e-05,0.0,0.07683822,-0.042302735,0.8060563,0.7353984,-0.00036111652,-0.012355443,-0.01708949,-0.31564754,0.21876508,-0.10683207,-1.1936218,0.039563816,229.40593,6.102887,0.39640346,0.42534536,0.15373859,0.12067988,inf,inf,inf,inf,1,1,1,1,2,0,2,1,5,1,1,1,0,0
855664000,855664000,1032000,41.606704,-86.3556021,-0.572631,19.176327,-5.526701,0.0005766812,3.190234e-05,0.0,-0.0060501224,0.049323894,0.81904435,0.72899973,-0.00036111652,-0.012355443,-0.01708949,-0.20701851,0.13883097,0.2524079,-1.1943879,0.039563816,229.40593,5.7596254,0.3951206,0.42679068,0.15380125,0.12089749,inf,inf,inf,inf,1,1,1,1,2,0,2,1,5,1,1,1,0,0
856168000,856168000,1032000,41.606704,-86.3556021,-0.5516753,20.005793,-6.6059074,0.0005766812,3.190234e-05,0.0,-0.10715875,4.0351872,-3.2376263,-3.2603931,-0.00036111652,-0.012355443,-0.01708949,-0.08477703,7.8521237,0.22973579,-1.1545933,0.039563816,229.40593,6.838832,0.3932137,0.42781347,0.19271071,0.11726635,inf,inf,inf,inf,1,1,1,1,2,0,2,1,5,1,1,1,0,0
856664000,856664000,1032000,41.606704,-86.3556021,-0.4003278,22.470411,-8.328815,0.0005766812,3.190234e-05,0.0,-0.05176742,6.0794225,-3.5192811,-3.5664966,-0.00036111652,-0.012355443,-0.01708949,-0.57446516,1.5542235,-0.0752295,-1.2591369,0.039563816,229.40593,8.56174,0.37022397,0.41935316,0.17954195,0.10940337,inf,inf,inf,inf,1,1,1,1,2,0,2,1,5,1,1,1,0,0
857168000,857168000,1032000,41.606704,-86.3556021,-0.26888958,25.598333,-10.130084,0.0005766812,3.190234e-05,0.0,-0.20518467,6.2145925,-3.2026374,-3.2703764,-0.00036111652,-0.012355443,-0.01708949,-0.312304,-1.8354048,2.7444594,-1.2825162,0.039563816,229.40593,10.3630085,0.3932184,0.42486677,0.18639766,0.10888844,inf,inf,inf,inf,1,1,1,1,2,0,2,1,5,1,1,1,0,0
857664000,857664000,1032000,41.606704,-86.3556021,-0.24189118,28.395098,-11.356378,0.0005766812,3.190234e-05,0.0,-0.22066334,4.615259,-1.5209407,-1.6060152,-0.00036111652,-0.012355443,-0.01708949,-0.16141345,-3.8214886,2.9535272,-1.2879245,0.039563816,229.40593,11.589302,0.38925123,0.42115703,0.16421162,0.10429173,inf,inf,inf,inf,1,1,1,1,2,0,2,1,5,1,1,1,0,0
858168000,858168000,1032000,41.606704,-86.3556021,-0.26868212,30.453773,-11.913705,0.0005766812,3.190234e-05,0.0,-0.25544503,2.9596577,-0.55029136,-0.659369,-0.00036111652,-0.012355443,-0.01708949,-0.12482155,-2.888877,1.1187911,-1.2645959,0.039563816,229.40593,12.146629,0.38782892,0.42085212,0.16022392,0.10297706,inf,inf,inf,inf,1,1,1,1,2,0,2,1,5,1,1,1,0,0
858664000,858664000,1032000,41.606704,-86.3556021,-0.40893584,31.744864,-12.130873,0.0005766812,3.190234e-05,0.0,-0.26485732,1.8402214,-0.23563202,-0.3294897,-0.00036111652,-0.012355443,-0.01708949,0.5019839,-1.816657,0.6246873,-1.2629035,0.039563816,229.40593,12.363797,0.38471276,0.41998523,0.16160421,0.10353702,inf,inf,inf,inf,1,1,1,1,2,0,2,1,5,1,1,1,0,0
859168000,859168000,1032000,41.606704,-86.3556021,-0.5892929,32.516827,-12.208462,0.0005766812,3.190234e-05,0.0,-0.12195965,0.63451535,0.16882323,0.0889317,-0.00036111652,-0.012355443,-0.01708949,0.63881,-3.769841,0.9401933,-1.2469909,0.039563816,229.40593,12.441386,0.38429984,0.41679218,0.16300596,0.10317412,inf,inf,inf,inf,1,1,1,1,2,0,2,1,5,1,1,1,0,0
859664000,859664000,1032000,41.606704,-86.3556021,-0.6770086,32.57968,-12.141614,0.0005766812,3.190234e-05,0.0,0.08608494,-0.4134504,0.15372473,0.07998476,-0.00036111652,-0.012355443,-0.01708949,0.45590916,-0.7750767,-0.17168564,-1.2499179,0.039563816,229.40593,12.374538,0.383345,0.4161254,0.16285837,0.09969924,inf,inf,inf,inf,1,1,1,1,2,0,2,1,5,1,1,1,0,0
860160000,860160000,1032000,41.606704,-86.3556021,-0.70055467,32.341038,-12.107804,0.0005766812,3.190234e-05,0.0,0.15981953,-0.52916026,0.09982037,0.032718543,-0.00036111652,-0.012355443,-0.01708949,0.17156692,0.2760846,-0.025481978,-1.2570584,0.039563816,229.40593,12.340729,0.4048877,0.41940627,0.17210512,0.10031158,inf,inf,inf,inf,1,1,1,1,2,0,2,1,5,1,1,1,0,0
860664000,860664000,1032000,41.606704,-86.3556021,-0.73848677,32.100803,-12.109287,0.0005766812,3.190234e-05,0.0,0.1913014,-0.3509464,0.07341413,-0.0026260377,-0.00036111652,-0.012355443,-0.01708949,0.3153514,0.51182735,-0.11004607,-1.2670381,0.039563816,229.40593,12.342212,0.37820676,0.41231418,0.15486372,0.09760058,inf,inf,inf,inf,1,1,1,1,2,0,2,1,5,1,1,1,0,0
861160000,861160000,1032000,41.606704,-86.3556021,-0.70766747,31.963528,-12.122669,0.0005766812,3.190234e-05,0.0,0.23538375,-0.13816041,0.055402465,-0.027436774,-0.00036111652,-0.012355443,-0.01708949,-0.035180513,0.3900433,-0.052091725,-1.2662355,0.039563816,229.40593,12.355594,0.39955232,0.41544133,0.16631058,0.10117486,inf,inf,inf,inf,1,1,1,1,2,0,2,1,5,1,1,1,0,0
861664000,861664000,1032000,41.606704,-86.3556021,-0.65314287,31.910812,-12.1599455,0.0005766812,3.190234e-05,0.0,0.21232378,0.0058685355,0.068414405,-0.033206683,-0.00036111652,-0.012355443,-0.01708949,0.08129824,0.20289733,-0.038337953,-1.2699661,0.039563816,229.40593,12.39287,0.37509722,0.40897456,0.15306002,0.10069703,inf,inf,inf,inf,1,1,1,1,2,0,2,1,5,1,1,1,0,0
862160000,862160000,1032000,41.606704,-86.3556021,-0.59114695,31.922733,-12.181122,0.0005766812,3.190234e-05,0.0,0.17170945,0.073095724,0.07679962,-0.026609119,-0.00036111652,-0.012355443,-0.01708949,-0.05676506,0.12754391,0.03984378,-1.2723927,0.039563816,229.40593,12.414046,0.39823398,0.4128292,0.1665593,0.10623377,inf,inf,inf,inf,1,1,1,1,2,0,2,1,5,1,1,1,0,0
862664000,862664000,1032000,41.606704,-86.3556021,-0.5332791,31.957283,-12.194864,0.0005766812,3.190234e-05,0.0,0.11307358,0.08578381,0.07327668,-0.028394487,-0.00036111652,-0.012355443,-0.01708949,-0.06450121,-0.027854618,0.019099498,-1.2754662,0.039563816,229.40593,12.427789,0.3953042,0.4109119,0.16320626,0.10875357,inf,inf,inf,inf,1,1,1,1,2,0,2,1,5,1,1,1,0,0
863168000,863168000,1032000,41.606704,-86.3556021,-0.505764,31.98985,-12.232817,0.0005766812,3.190234e-05,0.0,0.06162822,0.0696365,0.0895095,-0.031749003,-0.00036111652,-0.012355443,-0.01708949,-0.12127122,-0.06944358,0.2396702,-1.2759426,0.039563816,229.40593,12.465741,0.392911,0.4122564,0.16031417,0.11141919,inf,inf,inf,inf,1,1,1,1,2,0,2,1,5,1,1,1,0,0
863664000,863664000,1032000,41.606704,-86.3556021,-0.4897713,32.017166,-12.252657,0.0005766812,3.190234e-05,0.0,0.03555861,0.04886996,0.10730575,-0.019459957,-0.00036111652,-0.012355443,-0.01708949,0.0003437988,-0.029615244,-0.029476421,-1.2774129,0.039563816,229.40593,12.485581,0.3904018,0.4105614,0.15748315,0.11338926,inf,inf,inf,inf,1,1,1,1,2,0,2,1,5,1,1,1,0,0
864160000,864160000,1032000,41.606704,-86.3556021,-0.4810102,32.040245,-12.283028,0.0005766812,3.190234e-05,0.0,0.020307662,0.02636778,0.12430299,-0.01962332,-0.00036111652,-0.012355443,-0.01708949,-0.06895549,-0.061520793,-0.019202072,-1.2777528,0.039563816,229.40593,12.515952,0.3883835,0.41213146,0.15510154,0.11533875,inf,inf,inf,inf,1,1,1,1,2,0,2,1,5,1,1,1,0,0
864664000,864664000,1032000,41.606704,-86.3556021,-0.4761729,32.049774,-12.307196,0.0005766812,3.190234e-05,0.0,0.006478423,0.008365087,0.15249449,-0.0035777842,-0.00036111652,-0.012355443,-0.01708949,0.1602458,0.06849893,-0.09052648,-1.2784748,0.039563816,229.40593,12.54012,0.38893482,0.4118517,0.15463696,0.117134064,inf,inf,inf,inf,1,1,1,1,2,0,2,1,5,1,1,1,0,0
865168000,865168000,1032000,41.606704,-86.3556021,-0.47065753,32.052685,-12.300817,0.0005766812,3.190234e-05,0.0,0.0068810573,-0.003801194,0.14427821,-5.93921e-05,-0.00036111652,-0.012355443,-0.01708949,-0.03817285,-0.062658474,0.3374069,-1.2785642,0.039563816,229.40593,12.533741,0.41342562,0.4171467,0.1648932,0.122245416,inf,inf,inf,inf,1,1,1,1,2,0,2,1,5,1,1,1,0,0
865664000,865664000,1032000,41.606704,-86.3556021,-0.46662837,32.05859,-12.317598,0.0005766812,3.190234e-05,0.0,-0.0037767666,-0.0049541243,0.1423751,-0.0127559295,-0.00036111652,-0.012355443,-0.01708949,-0.06770224,0.0068338765,0.0723935,-1.2793108,0.039563816,229.40593,12.550523,0.3831874,0.41348138,0.14813432,0.118442096,inf,inf,inf,inf,1,1,1,1,2,0,2,1,5,1,1,1,0,0
866168000,866168000,1032000,41.606704,-86.3556021,-0.45632562,32.064014,-12.327335,0.0005766812,3.190234e-05,0.0,-0.0001897148,-0.011581912,0.16113198,0.0043738214,-0.00036111652,-0.012355443,-0.01708949,0.021825494,-0.010535946,0.07572018,-1.2795205,0.039563816,229.40593,12.56026,0.40675762,0.4221766,0.1584569,0.12342532,inf,inf,inf,inf,1,1,1,1,2,0,2,1,5,1,1,1,0,0
866664000,866664000,1032000,41.606704,-86.3556021,-0.44889084,32.068398,-12.328334,0.0005766812,3.190234e-05,0.0,-0.005054113,-0.012443291,0.1538697,-0.0024421886,-0.00036111652,-0.012355443,-0.01708949,-0.010782352,-0.008496329,0.12570241,-1.2796514,0.039563816,229.40593,12.561258,0.3794269,0.4151916,0.14462121,0.11885229,inf,inf,inf,inf,1,1,1,1,2,0,2,1,5,1,1,1,0,0
867168000,867168000,1032000,41.606704,-86.3556021,-0.4485925,32.079006,-12.328945,0.0005766812,3.190234e-05,0.0,-0.018600477,-0.014860737,0.15417133,-0.00032057788,-0.00036111652,-0.012355443,-0.01708949,-0.07282879,-0.07892704,0.007502671,-1.27963,0.039563816,229.40593,12.56187,0.37976846,0.41502094,0.14501427,0.11909461,inf,inf,inf,inf,1,1,1,1,2,0,2,1,5,1,1,1,0,0
867664000,867664000,1032000,41.606704,-86.3556021,-0.45354113,32.08181,-12.312578,0.0005766812,3.190234e-05,0.0,-0.017316403,-0.02343206,0.14743347,0.008880344,-0.00036111652,-0.012355443,-0.01708949,-0.08423653,-0.07627589,-0.18328246,-1.2795836,0.039563816,229.40593,12.545503,0.4016918,0.42322898,0.15486693,0.12337471,inf,inf,inf,inf,1,1,1,1,2,0,2,1,5,1,1,1,0,0
868168000,868168000,1032000,41.606704,-86.3556021,-0.45516744,32.080074,-12.301364,0.0005766812,3.190234e-05,0.0,-0.004180746,-0.02453398,0.123998225,-0.0032790708,-0.00036111652,-0.012355443,-0.01708949,0.008966743,-0.08805832,0.2387929,-1.2795006,0.039563816,229.40593,12.534288,0.39786014,0.42243263,0.15202136,0.122565605,inf,inf,inf,inf,1,1,1,1,2,0,2,1,5,1,1,1,0,0
868664000,868664000,1032000,41.606704,-86.3556021,-0.45576882,32.08809,-12.29003,0.0005766812,3.190234e-05,0.0,-0.005390279,-0.023641251,0.11885327,0.004006141,-0.00036111652,-0.012355443,-0.01708949,-0.03137743,0.0043492685,0.03744283,-1.279319,0.039563816,229.40593,12.522954,0.39568812,0.4213028,0.15108092,0.121988215,inf,inf,inf,inf,1,1,1,1,2,0,2,1,5,1,1,1,0,0
869160000,869160000,1032000,41.606704,-86.3556021,-0.4608609,32.08567,-12.27274,0.0005766812,3.190234e-05,0.0,-0.0024955438,-0.026932428,0.09917025,0.00058078027,-0.00036111652,-0.012355443,-0.01708949,0.06383066,-0.049380556,-0.017752003,-1.2790422,0.039563816,229.40593,12.505665,0.39250815,0.42290303,0.14937226,0.12151726,inf,inf,inf,inf,1,1,1,1,2,0,2,1,5,1,1,1,0,0
869664000,869664000,1032000,41.606704,-86.3556021,-0.4691889,32.081264,-12.258363,0.0005766812,3.190234e-05,0.0,0.00038566338,-0.020350335,0.080910064,-0.004046997,-0.00036111652,-0.012355443,-0.01708949,0.05995889,0.032608014,-0.035986364,-1.278952,0.039563816,229.40593,12.491287,0.37050995,0.41888487,0.13973863,0.1174374,inf,inf,inf,inf,1,1,1,1,2,0,2,1,5,1,1,1,0,0
870168000,870168000,1032000,41.606704,-86.3556021,-0.47190598,32.07509,-12.2385235,0.0005766812,3.190234e-05,0.0,0.010024458,-0.018494759,0.06289104,-0.0027931337,-0.00036111652,-0.012355443,-0.01708949,0.0020009435,0.12388461,0.016411701,-1.2790527,0.039563816,229.40593,12.471448,0.39194575,0.4241739,0.15019959,0.12129313,inf,inf,inf,inf,1,1,1,1,2,0,2,1,5,1,1,1,0,0
870664000,870664000,1032000,41.606704,-86.3556021,-0.4703296,32.057743,-12.222651,0.0005766812,3.190234e-05,0.0,0.012645363,-0.011303808,0.048669536,-0.001298595,-0.00036111652,-0.012355443,-0.01708949,-0.04363716,0.029527877,-0.12630323,-1.2791207,0.039563816,229.40593,12.455575,0.38776037,0.42500448,0.14741682,0.120505966,inf,inf,inf,inf,1,1,1,1,2,0,2,1,5,1,1,1,0,0
871168000,871168000,1032000,41.606704,-86.3556021,-0.4738231,32.040115,-12.210222,0.0005766812,3.190234e-05,0.0,0.017951606,0.0012992844,0.03694136,0.00016569975,-0.00036111652,-0.012355443,-0.01708949,-0.023642775,-0.013898167,-0.11668826,-1.2790117,0.039563816,229.40593,12.443147,0.3865619,0.42352554,0.1471519,0.11998436,inf,inf,inf,inf,1,1,1,1,2,0,2,1,5,1,1,1,0,0
871664000,871664000,1032000,41.606704,-86.3556021,-0.47440553,32.033646,-12.195157,0.0005766812,3.190234e-05,0.0,0.02133744,0.01220869,0.019756364,-0.001941329,-0.00036111652,-0.012355443,-0.01708949,-0.031196438,-0.02327287,-0.06729743,-1.2789433,0.039563816,229.40593,12.4280815,0.38362685,0.42428637,0.14554305,0.11945688,inf,inf,inf,inf,1,1,1,1,2,0,2,1,5,1,1,1,0,0
872160000,872160000,1032000,41.606704,-86.3556021,-0.48990244,32.024746,-12.187767,0.0005766812,3.190234e-05,0.0,0.018285614,0.019596962,0.007263646,-0.0062159277,-0.00036111652,-0.012355443,-0.01708949,0.13485284,0.050598573,0.02912798,-1.2790043,0.039563816,229.40593,12.4206915,0.3826345,0.4252596,0.14566475,0.11936792,inf,inf,inf,inf,1,1,1,1,2,0,2,1,5,1,1,1,0,0
872664000,872664000,1032000,41.606704,-86.3556021,-0.49921793,32.025158,-12.178317,0.0005766812,3.190234e-05,0.0,0.034082808,0.029564891,-0.0052399347,-0.007990736,-0.00036111652,-0.012355443,-0.01708949,0.025480848,-0.024303278,0.038409542,-1.2787436,0.039563816,229.40593,12.411242,0.38246712,0.42370468,0.14595513,0.119134374,inf,inf,inf,inf,1,1,1,1,2,0,2,1,5,1,1,1,0,0
873160000,873160000,1032000,41.606704,-86.3556021,-0.4976697,32.0289,-12.176374,0.0005766812,3.190234e-05,0.0,0.03950197,0.027774192,-0.0067490456,-0.0072167865,-0.00036111652,-0.012355443,-0.01708949,0.013888848,-0.06017514,0.02221384,-1.2787535,0.039563816,229.40593,12.409299,0.4032496,0.43087348,0.15491194,0.1228699,inf,inf,inf,inf,1,1,1,1,2,0,2,1,5,1,1,1,0,0
873664000,873664000,1032000,41.606704,-86.3556021,-0.5076535,32.027565,-12.170077,0.0005766812,3.190234e-05,0.0,0.036639724,0.023017516,-0.0109560415,-0.0046030073,-0.00036111652,-0.012355443,-0.01708949,0.10305992,0.00969734,-0.15536235,-1.2785202,0.039563816,229.40593,12.403002,0.37741154,0.4253141,0.14262402,0.11832135,inf,inf,inf,inf,1,1,1,1,2,0,2,1,5,1,1,1,0,0
874168000,874168000,1032000,41.606704,-86.3556021,-0.51273227,32.03508,-12.166497,0.0005766812,3.190234e-05,0.0,0.02794318,0.011559404,0.0033500148,0.011983245,-0.00036111652,-0.012355443,-0.01708949,-0.057792168,0.073616885,-0.12843129,-1.2782929,0.039563816,229.40593,12.399422,0.39886206,0.42975828,0.15239958,0.12197714,inf,inf,inf,inf,1,1,1,1,2,0,2,1,5,1,1,1,0,0
874664000,874664000,1032000,41.606704,-86.3556021,-0.5350111,32.03433,-12.15054,0.0005766812,3.190234e-05,0.0,0.0060344837,0.006504617,-0.0191389,-0.0023589237,-0.00036111652,-0.012355443,-0.01708949,-0.17085607,0.09337052,-1.3435558,-1.2783571,0.039563816,229.40593,12.383465,0.37431106,0.4237642,0.14125538,0.117573075,inf,inf,inf,inf,1,1,1,1,2,0,2,1,5,1,1,1,0,0
875160000,875160000,1032000,41.606704,-86.3556021,-0.53408134,32.0463,-12.1543665,0.0005766812,3.190234e-05,0.0,0.11820791,0.055830237,-0.05306922,-0.034340743,-0.00036111652,-0.012355443,-0.01708949,0.50558025,0.18423496,-0.1142901,-1.2794117,0.039563816,229.40593,12.387291,0.39676535,0.43088818,0.15250674,0.121867664,inf,inf,inf,inf,1,1,1,1,2,0,2,1,5,1,1,1,0,0
875664000,875664000,1032000,41.606704,-86.3556021,-0.4000695,32.09247,-12.181694,0.0005766812,3.190234e-05,0.0,0.6186375,0.12748413,-0.12743057,-0.1071448,-0.00036111652,-0.012355443,-0.01708949,1.559081,0.13552797,-0.23126699,-1.285917,0.039563816,229.40593,12.4146185,0.39395106,0.4284916,0.1507685,0.12106541,inf,inf,inf,inf,1,1,1,1,2,0,2,1,5,1,1,1,0,0
876160000,876160000,1032000,41.606704,-86.3556021,0.04995525,32.16921,-12.244861,0.0005766812,3.190234e-05,0.0,1.430105,0.1669077,-0.16455443,-0.14206082,-0.00036111652,-0.012355443,-0.01708949,1.5253447,0.036194753,0.008589525,-1.2905982,0.039563816,229.40593,12.477785,0.39089382,0.42875615,0.15002076,0.12034507,inf,inf,inf,inf,1,1,1,1,2,0,2,1,5,1,1,1,0,0
876664000,876664000,1032000,41.606704,-86.3556021,0.8904808,32.251026,-12.308665,0.0005766812,3.190234e-05,0.0,2.021744,0.18020858,-0.14660256,-0.11997485,-0.00036111652,-0.012355443,-0.01708949,0.8416931,0.04398078,0.06810476,-1.288023,0.039563816,229.40593,12.54159,0.38914016,0.42649755,0.14956458,0.119479574,inf,inf,inf,inf,1,1,1,1,2,0,2,1,5,1,1,1,0,0
877160000,877160000,1032000,41.606704,-86.3556021,1.9635141,32.333168,-12.346045,0.0005766812,3.190234e-05,0.0,2.3370857,0.18908703,-0.10900761,-0.073301435,-0.00036111652,-0.012355443,-0.01708949,0.4150822,-0.0059880633,-0.006222229,-1.290737,0.039563816,229.40593,12.578969,0.38715014,0.4268123,0.14835003,0.118984334,inf,inf,inf,inf,1,1,1,1,2,0,2,1,5,1,1,1,0,0
877664000,877664000,1032000,41.606704,-86.3556021,3.1796618,32.418495,-12.38035,0.0005766812,3.190234e-05,0.0,2.4636095,0.20164166,-0.06793006,-0.04012381,-0.00036111652,-0.012355443,-0.01708949,0.046428125,0.021330813,0.099780895,-1.2981827,0.039563816,229.40593,12.613275,0.38773018,0.4279676,0.14857006,0.119147286,inf,inf,inf,inf,1,1,1,1,2,0,2,1,5,1,1,1,0,0
878168000,878168000,1032000,41.606704,-86.3556021,4.441857,32.518322,-12.397839,0.0005766812,3.190234e-05,0.0,2.5090127,0.2133768,-0.05166847,-0.027740588,-0.00036111652,-0.012355443,-0.01708949,0.12444269,0.037642345,-0.02435601,-1.3035046,0.039563816,229.40593,12.630763,0.4115165,0.4324276,0.15846433,0.12284067,inf,inf,inf,inf,1,1,1,1,2,0,2,1,5,1,1,1,0,0
878664000,878664000,1032000,41.606704,-86.3556021,5.7083726,32.62075,-12.403272,0.0005766812,3.190234e-05,0.0,2.4794006,0.20708254,-0.0008588194,0.023473768,-0.00036111652,-0.012355443,-0.01708949,-0.5102156,0.040198825,0.4680398,-1.3142023,0.039563816,229.40593,12.636196,0.38221613,0.42597038,0.14385308,0.117970906,inf,inf,inf,inf,1,1,1,1,2,0,2,1,5,1,1,1,0,0
879168000,879168000,1032000,41.606704,-86.3556021,6.8378506,32.71304,-12.364977,0.0005766812,3.190234e-05,0.0,1.7814664,0.15582761,0.103811145,0.120742515,-0.00036111652,-0.012355443,-0.01708949,-1.8360763,-0.100777954,-0.021465184,-1.3221622,0.039563816,229.40593,12.597901,0.40520537,0.43043184,0.1541317,0.121963836,inf,inf,inf,inf,1,1,1,1,2,0,2,1,5,1,1,1,0,0
879664000,879664000,1032000,41.606704,-86.3556021,7.570978,32.789783,-12.297228,0.0005766812,3.190234e-05,0.0,1.0646884,0.099200584,0.20615648,0.22780144,-0.00036111652,-0.012355443,-0.01708949,-0.59537715,-0.14568193,1.1591322,-1.3323369,0.039563816,229.40593,12.530152,0.3785697,0.42438704,0.14312246,0.11751824,inf,inf,inf,inf,1,1,1,1,2,0,2,1,5,1,1,1,0,0
880160000,880160000,1032000,41.606704,-86.3556021,8.055522,32.845566,-12.021821,0.0005766812,3.190234e-05,0.0,0.61389416,0.04338342,0.79829043,0.8128984,-0.00036111652,-0.012355443,-0.01708949,-1.794341,-0.17037636,0.67466676,-1.3330723,0.039563816,229.40593,12.2547455,0.3782881,0.42218658,0.14281689,0.11744017,inf,inf,inf,inf,1,1,1,1,2,0,2,1,5,1,1,1,0,0
880664000,880664000,1032000,41.606704,-86.3556021,8.185504,32.872864,-11.546189,0.0005766812,3.190234e-05,0.0,-0.1335477,-0.01316612,1.028983,1.0353061,-0.00036111652,-0.012355443,-0.01708949,-1.0167943,-0.15867832,-0.4407382,-1.3192364,0.039563816,229.40593,11.779114,0.40031374,0.42986825,0.15430877,0.121459365,inf,inf,inf,inf,1,1,1,1,2,0,2,1,5,1,1,1,0,0
881168000,881168000,1032000,41.606704,-86.3556021,8.056919,32.895348,-11.072632,0.0005766812,3.190234e-05,0.0,-0.3669728,-0.04178233,0.84941286,0.8669536,-0.00036111652,-0.012355443,-0.01708949,-0.14385128,-0.0575495,-0.2610423,-1.312849,0.039563816,229.40593,11.305556,0.39660838,0.42759266,0.15234047,0.120579146,inf,inf,inf,inf,1,1,1,1,2,0,2,1,5,1,1,1,0,0
881664000,881664000,1032000,41.606704,-86.3556021,7.881502,32.913357,-10.660564,0.0005766812,3.190234e-05,0.0,-0.41333634,-0.06875357,0.82748765,0.83734494,-0.00036111652,-0.012355443,-0.01708949,-0.34919104,-0.19935144,1.4766694,-1.3126199,0.039563816,229.40593,10.893489,0.3945714,0.4281415,0.1507491,0.12044311,inf,inf,inf,inf,1,1,1,1,2,0,2,1,5,1,1,1,0,0
882168000,882168000,1032000,41.606704,-86.3556021,7.682501,32.904507,-10.241609,0.0005766812,3.190234e-05,0.0,-0.39767632,-0.09429656,0.8524485,0.85497904,-0.00036111652,-0.012355443,-0.01708949,-0.057830248,-0.09661065,-1.1281642,-1.3139178,0.039563816,229.40593,10.474533,0.39234605,0.42604882,0.14871728,0.119972125,inf,inf,inf,inf,1,1,1,1,2,0,2,1,5,1,1,1,0,0
882664000,882664000,1032000,41.606704,-86.3556021,7.5179358,32.879444,-9.816862,0.0005766812,3.190234e-05,0.0,-0.29680952,-0.10222168,0.9050038,0.8983566,-0.00036111652,-0.012355443,-0.01708949,0.2513474,-0.09991858,0.10952067,-1.3162031,0.039563816,229.40593,10.049787,0.3699521,0.4206221,0.13836448,0.11612057,inf,inf,inf,inf,1,1,1,1,2,0,2,1,5,1,1,1,0,0
883168000,883168000,1032000,41.606704,-86.3556021,7.402062,32.835857,-9.359368,0.0005766812,3.190234e-05,0.0,-0.18401577,-0.08804061,0.8986473,0.8989681,-0.00036111652,-0.012355443,-0.01708949,0.18032163,0.090206034,-0.0058431807,-1.3183665,0.039563816,229.40593,9.592293,0.3911897,0.4281019,0.14828861,0.12048875,inf,inf,inf,inf,1,1,1,1,2,0,2,1,5,1,1,1,0,0
883664000,883664000,1032000,41.606704,-86.3556021,7.3400846,32.801113,-8.910151,0.0005766812,3.190234e-05,0.0,-0.0873766,-0.055651784,0.89314175,0.89709413,-0.00036111652,-0.012355443,-0.01708949,0.17538844,0.1529233,0.09158898,-1.3200065,0.039563816,229.40593,9.143075,0.38704967,0.42527634,0.14556795,0.119586356,inf,inf,inf,inf,1,1,1,1,2,0,2,1,5,1,1,1,0,0
884160000,884160000,1032000,41.606704,-86.3556021,7.3270283,32.778812,-8.471948,0.0005766812,3.190234e-05,0.0,-0.02578973,-0.02717318,0.88560367,0.8857578,-0.00036111652,-0.012355443,-0.01708949,0.044546697,0.02364288,0.07275113,-1.3212998,0.039563816,229.40593,8.704872,0.38515675,0.42591488,0.14505582,0.11947651,inf,inf,inf,inf,1,1,1,1,2,0,2,1,5,1,1,1,0,0
884664000,884664000,1032000,41.606704,-86.3556021,7.336579,32.766796,-8.026939,0.0005766812,3.190234e-05,0.0,-0.002420768,-0.0068658525,0.8690031,0.87110794,-0.00036111652,-0.012355443,-0.01708949,0.06784991,0.0246823,-0.07221574,-1.3219846,0.039563816,229.40593,8.259864,0.3830447,0.42395073,0.14403972,0.11895404,inf,inf,inf,inf,1,1,1,1,2,0,2,1,5,1,1,1,0,0
885160000,885160000,1032000,41.606704,-86.3556021,7.3552036,32.762787,-7.5957417,0.0005766812,3.190234e-05,0.0,0.00063087733,0.0015920162,0.84584254,0.85239226,-0.00036111652,-0.012355443,-0.01708949,-0.181098,-0.04086822,-0.14681281,-1.32272,0.039563816,229.40593,7.828666,0.3821295,0.4248122,0.14434509,0.11902457,inf,inf,inf,inf,1,1,1,1,2,0,2,1,5,1,1,1,0,0
885664000,885664000,1032000,41.606704,-86.3556021,7.365507,32.763283,-7.1725388,0.0005766812,3.190234e-05,0.0,-0.011241549,0.011965737,0.8159523,0.8234312,-0.00036111652,-0.012355443,-0.01708949,-0.38132685,-0.09428158,1.317987,-1.3225051,0.039563816,229.40593,7.405463,0.38202086,0.42316577,0.14477721,0.11890995,inf,inf,inf,inf,1,1,1,1,2,0,2,1,5,1,1,1,0,0
886168000,886168000,1032000,41.606704,-86.3556021,7.368971,32.761852,-6.765985,0.0005766812,3.190234e-05,0.0,-0.019602098,0.008835141,0.80013233,0.8052719,-0.00036111652,-0.012355443,-0.01708949,0.026407732,-0.028329207,0.057488613,-1.3222709,0.039563816,229.40593,6.9989095,0.40352145,0.43094447,0.15399097,0.122929424,inf,inf,inf,inf,1,1,1,1,2,0,2,1,5,1,1,1,0,0
886664000,886664000,1032000,41.606704,-86.3556021,7.3709106,32.755596,-6.3720045,0.0005766812,3.190234e-05,0.0,-0.023519924,0.012158394,0.76570493,0.7732818,-0.00036111652,-0.012355443,-0.01708949,0.005639109,0.031031853,0.030904014,-1.322017,0.039563816,229.40593,6.604929,0.37710238,0.42182773,0.1416965,0.11793143,inf,inf,inf,inf,1,1,1,1,2,0,2,1,5,1,1,1,0,0
887168000,887168000,1032000,41.606704,-86.3556021,7.36906,32.756596,-5.992134,0.0005766812,3.190234e-05,0.0,-0.02313733,0.013493109,0.74732906,0.7505181,-0.00036111652,-0.012355443,-0.01708949,-0.010754851,-0.00894071,-0.054217003,-1.321956,0.039563816,229.40593,6.2250586,0.39849883,0.42960683,0.15140991,0.12206012,inf,inf,inf,inf,1,1,1,1,2,0,2,1,5,1,1,1,0,0
887664000,887664000,1032000,41.606704,-86.3556021,7.366762,32.756687,-5.629898,0.0005766812,3.190234e-05,0.0,-0.026341349,0.01140041,0.7309949,0.7292885,-0.00036111652,-0.012355443,-0.01708949,-0.031853296,0.066927776,-0.09132648,-1.3218374,0.039563816,229.40593,5.8628225,0.3741416,0.4208091,0.14047098,0.11736714,inf,inf,inf,inf,1,1,1,1,2,0,2,1,5,1,1,1,0,0
888160000,888160000,1032000,41.606704,-86.3556021,7.3555784,32.756927,-5.268963,0.0005766812,3.190234e-05,0.0,-0.03228229,0.008115878,0.70953345,0.7112886,-0.00036111652,-0.012355443,-0.01708949,-0.037787963,0.07550083,-0.06607367,-1.3216832,0.039563816,229.40593,5.5018873,0.3964426,0.42811543,0.15134126,0.1216956,inf,inf,inf,inf,1,1,1,1,2,0,2,1,5,1,1,1,0,0
888664000,888664000,1032000,41.606704,-86.3556021,7.3402777,32.759655,-4.916338,0.0005766812,3.190234e-05,0.0,-0.02227468,0.006471186,0.69308877,0.694997,-0.00036111652,-0.012355443,-0.01708949,0.11691723,-0.026079822,-0.17362931,-1.3218497,0.039563816,229.40593,5.1492624,0.39374185,0.42607984,0.14939815,0.12101815,inf,inf,inf,inf,1,1,1,1,2,0,2,1,5,1,1,1,0,0
889168000,889168000,1032000,41.606704,-86.3556021,7.332587,32.762264,-4.5670686,0.0005766812,3.190234e-05,0.0,-0.010030291,0.00097586116,0.6842594,0.6874028,-0.00036111652,-0.012355443,-0.01708949,-0.16658191,0.01935307,-1.2522303,-1.3218695,0.039563816,229.40593,4.799993,0.39143148,0.42736337,0.14797772,0.120813824,inf,inf,inf,inf,1,1,1,1,2,0,2,1,5,1,1,1,0,0
889664000,889664000,1032000,41.606704,-86.3556021,7.324957,32.7704,-4.233128,0.0005766812,3.190234e-05,0.0,-0.008803529,-0.0030288931,0.6971245,0.6913023,-0.00036111652,-0.012355443,-0.01708949,-0.061386947,-0.040626537,0.07884663,-1.3220888,0.039563816,229.40593,4.4660525,0.38891912,0.42504326,0.14661619,0.120169245,inf,inf,inf,inf,1,1,1,1,2,0,2,1,5,1,1,1,0,0
890160000,890160000,1032000,41.606704,-86.3556021,7.3225384,32.776276,-3.8912117,0.0005766812,3.190234e-05,0.0,-0.0037775382,-0.013131827,0.70680016,0.6983095,-0.00036111652,-0.012355443,-0.01708949,0.06965148,-0.11543272,-0.005621526,-1.322268,0.039563816,229.40593,4.124136,0.38703105,0.4259777,0.14586425,0.12002852,inf,inf,inf,inf,1,1,1,1,2,0,2,1,5,1,1,1,0,0
890664000,890664000,1032000,41.606704,-86.3556021,7.3196516,32.78273,-3.5456724,0.0005766812,3.190234e-05,0.0,-0.002827084,-0.01818594,0.70952564,0.6958518,-0.00036111652,-0.012355443,-0.01708949,0.013715765,0.038222075,-0.020435143,-1.32197,0.039563816,229.40593,3.7785966,0.38752854,0.42454097,0.14680816,0.120015025,inf,inf,inf,inf,1,1,1,1,2,0,2,1,5,1,1,1,0,0
891168000,891168000,1032000,41.606704,-86.3556021,7.314973,32.781162,-3.1959608,0.0005766812,3.190234e-05,0.0,-0.0029965502,-0.02989802,0.71043456,0.69665635,-0.00036111652,-0.012355443,-0.01708949,-0.0033454797,-0.047560554,-0.032284357,-1.3219916,0.039563816,229.40593,3.428885,0.41118613,0.43269956,0.15716444,0.12426768,inf,inf,inf,inf,1,1,1,1,2,0,2,1,5,1,1,1,0,0
891664000,891664000,1032000,41.606704,-86.3556021,7.3173966,32.785255,-2.846489,0.0005766812,3.190234e-05,0.0,-0.0019636592,-0.032573696,0.71418124,0.70412797,-0.00036111652,-0.012355443,-0.01708949,-0.009159336,-0.0005137207,-0.09572605,-1.3220124,0.039563816,229.40593,3.0794132,0.38205308,0.426266,0.14323354,0.119256355,inf,inf,inf,inf,1,1,1,1,2,0,2,1,5,1,1,1,0,0
892168000,892168000,1032000,41.606704,-86.3556021,7.319165,32.788456,-2.4904225,0.0005766812,3.190234e-05,0.0,-0.002546174,-0.0334326,0.69702274,0.69165385,-0.00036111652,-0.012355443,-0.01708949,0.26115483,0.10134702,0.23077329,-1.3224304,0.039563816,229.40593,2.7233467,0.40510976,0.43099275,0.15390907,0.12313208,inf,inf,inf,inf,1,1,1,1,2,0,2,1,5,1,1,1,0,0
892664000,892664000,1032000,41.606704,-86.3556021,7.3219657,32.796093,-2.1531847,0.0005766812,3.190234e-05,0.0,0.0007585273,-0.036420077,0.6969381,0.6875065,-0.00036111652,-0.012355443,-0.01708949,0.0739834,-0.091046706,0.07430364,-1.3222313,0.039563816,229.40593,2.3861089,0.378494,0.42483416,0.14172739,0.11846384,inf,inf,inf,inf,1,1,1,1,2,0,2,1,5,1,1,1,0,0
893160000,893160000,1032000,41.606704,-86.3556021,7.3294435,32.80563,-1.8238602,0.0005766812,3.190234e-05,0.0,-0.008589198,-0.04340704,0.70651484,0.6867298,-0.00036111652,-0.012355443,-0.01708949,0.00754374,-0.077896826,0.011093851,-1.3225087,0.039563816,229.40593,2.0567844,0.3782803,0.42256337,0.14235665,0.11824868,inf,inf,inf,inf,1,1,1,1,2,0,2,1,5,1,1,1,0,0
893664000,893664000,1032000,41.606704,-86.3556021,7.3282275,32.802727,-1.4804108,0.0005766812,3.190234e-05,0.0,-0.013231416,-0.047479022,0.7100957,0.68846947,-0.00036111652,-0.012355443,-0.01708949,-0.021036683,0.008501611,0.011297811,-1.3222089,0.039563816,229.40593,1.713335,0.40070528,0.4303807,0.15254456,0.12251251,inf,inf,inf,inf,1,1,1,1,2,0,2,1,5,1,1,1,0,0
894168000,894168000,1032000,41.606704,-86.3556021,7.330531,32.796513,-1.1337961,0.0005766812,3.190234e-05,0.0,-0.014443924,-0.050369065,0.7082602,0.686902,-0.00036111652,-0.012355443,-0.01708949,-0.04405986,-0.06200891,0.012324128,-1.3222892,0.039563816,229.40593,1.3667203,0.39706194,0.42816505,0.1500881,0.121663354,inf,inf,inf,inf,1,1,1,1,2,0,2,1,5,1,1,1,0,0
894664000,894664000,1032000,41.606704,-86.3556021,7.335807,32.79279,-0.79762405,0.0005766812,3.190234e-05,0.0,-0.021669755,-0.046946723,0.712998,0.6882061,-0.00036111652,-0.012355443,-0.01708949,-0.08723827,-0.0155555885,-0.06529602,-1.322336,0.039563816,229.40593,1.0305483,0.39502418,0.42875716,0.14934222,0.12145025,inf,inf,inf,inf,1,1,1,1,2,0,2,1,5,1,1,1,0,0
895160000,895160000,1032000,41.606704,-86.3556021,7.3412786,32.78786,-0.45553967,0.0005766812,3.190234e-05,0.0,-0.023326552,-0.0402025,0.7100304,0.6874303,-0.00036111652,-0.012355443,-0.01708949,0.24835126,0.02632654,0.34596297,-1.3222983,0.039563816,229.40593,0.6884639,0.3920407,0.42915216,0.14780718,0.12102844,inf,inf,inf,inf,1,1,1,1,2,0,2,1,5,1,1,1,0,0
895664000,895664000,1032000,41.606704,-86.3556021,7.354523,32.79197,-0.11076339,0.0005766812,3.190234e-05,0.0,-0.028747125,-0.038579673,0.7036307,0.6792863,-0.00036111652,-0.012355443,-0.01708949,-0.063984126,-0.012541297,0.06290425,-1.3223372,0.039563816,229.40593,0.34368765,0.37025508,0.4210739,0.13843124,0.11674166,inf,inf,inf,inf,1,1,1,1,2,0,2,1,5,1,1,1,0,0
896168000,896168000,1032000,41.606704,-86.3556021,7.368108,32.793728,0.094057664,0.0005766812,3.190234e-05,0.0,-0.038922943,-0.025388312,0.03580384,0.006626684,-0.00036111652,-0.012355443,-0.01708949,0.06476644,0.015845805,0.02998759,-1.3115208,0.039563816,229.40593,0.13886659,0.39170444,0.42859095,0.15095653,0.118895225,inf,inf,inf,inf,1,1,1,1,2,0,2,1,5,1,1,1,0,0
896664000,896664000,1032000,41.606704,-86.3556021,7.371829,32.791847,0.10163914,0.0005766812,3.190234e-05,0.0,-0.026996523,-0.025936924,0.038576555,0.012776621,-0.00036111652,-0.012355443,-0.01708949,0.07633248,0.07270518,-0.8980269,-1.3099339,0.039563816,229.40593,0.13128512,0.38761082,0.4254657,0.149659,0.11018634,inf,inf,inf,inf,1,1,1,1,2,0,2,1,5,1,1,1,0,0
897168000,897168000,1032000,41.606704,-86.3556021,7.3778195,32.79509,0.10365152,0.0005766812,3.190234e-05,0.0,-0.026882453,-0.022927111,0.049452785,0.018224109,-0.00036111652,-0.012355443,-0.01708949,0.07332766,0.0146685485,0.63440937,-1.309955,0.039563816,229.40593,0.1,0.38644037,0.42561632,0.15255293,0.10490685,inf,inf,inf,inf,1,1,1,1,2,0,2,1,5,0,1,1,1,0
897664000,897664000,1032000,41.606704,-86.3556021,7.376972,32.794914,0.122270845,0.0005766812,3.190234e-05,0.0,-0.023670735,-0.027706841,0.054045975,0.029797643,-0.00036111652,-0.012355443,-0.01708949,0.13826598,0.053144593,-0.12025709,-1.3097997,0.039563816,229.40593,0.1,0.38358596,0.42480662,0.15420288,0.1020278,inf,inf,inf,inf,1,1,1,1,2,0,2,1,5,0,1,1,1,0
898160000,898160000,1032000,41.606704,-86.3556021,7.381714,32.80014,0.13644975,0.0005766812,3.190234e-05,0.0,-0.020347053,-0.021965709,0.06804718,0.040324077,-0.00036111652,-0.012355443,-0.01708949,-0.08727458,-0.015912443,0.54367715,-1.3094585,0.039563816,229.40593,0.1,0.3826739,0.42075634,0.15707748,0.1009999,inf,inf,inf,inf,1,1,1,1,2,0,2,1,5,0,1,1,1,0
898664000,898664000,1032000,41.606704,-86.3556021,7.4027305,32.826187,0.018072663,0.0005766812,3.190234e-05,0.0,-0.0040031034,-0.0073731425,0.019593861,-0.11878362,-0.00036111652,-0.012355443,-0.01708949,0.14893521,0.082783155,-0.12768903,-1.3085954,0.039563816,229.40593,0.1,0.3017121,0.3153387,0.012353558,0.008700932,inf,inf,inf,inf,1,1,1,1,2,0,2,1,5,0,1,1,1,0
899160000,899160000,1032000,41.606704,-86.3556021,7.4050217,32.829742,-0.025192091,0.0005766812,3.190234e-05,0.0,0.0024520596,0.004065453,0.0031735774,-0.10739766,-0.00036111652,-0.012355443,-0.01708949,-0.04011085,-0.06478928,0.5010217,-1.3081454,0.039563816,229.40593,0.11686261,0.29056165,0.30310565,0.018317342,0.012969618,inf,inf,inf,inf,1,1,1,1,2,0,2,1,5,0,1,1,1,0
899664000,899664000,1032000,41.606704,-86.3556021,7.403864,32.827503,-0.018301824,0.0005766812,3.190234e-05,0.0,0.0014219766,0.006050111,-0.0021500343,-0.056651507,-0.00036111652,-0.012355443,-0.01708949,-0.067736335,-0.025360817,0.5936696,-1.3080378,0.039563816,229.40593,0.12072013,0.2729019,0.29289687,0.008342766,0.005896523,inf,inf,inf,inf,1,1,1,1,2,0,2,1,5,0,1,1,1,0
900160000,900160000,1032000,41.606704,-86.3556021,7.403826,32.82474,-0.010232677,0.0005766812,3.190234e-05,0.0,0.0062148054,0.0051507484,-0.0042070234,-0.027460909,-0.00036111652,-0.012355443,-0.01708949,0.042833835,0.019747693,0.49505466,-1.308068,0.039563816,229.40593,0.11682882,0.26796517,0.2850235,0.015880229,0.011195126,inf,inf,inf,inf,1,1,1,1,2,0,2,1,5,0,1,1,1,0
