timestamp,timestamp_sample,states[0],states[1],states[2],states[3],states[4],states[5],states[6],states[7],states[8],states[9],states[10],states[11],states[12],states[13],states[14],states[15],states[16],states[17],states[18],states[19],states[20],states[21],states[22],states[23],covariances[0],covariances[1],covariances[2],covariances[3],covariances[4],covariances[5],covariances[6],covariances[7],covariances[8],covariances[9],covariances[10],covariances[11],covariances[12],covariances[13],covariances[14],covariances[15],covariances[16],covariances[17],covariances[18],covariances[19],covariances[20],covariances[21],covariances[22],covariances[23],n_states
830044000,829964000,0.8493109,0.010409896,0.0022754325,-0.5277855,0.0018938015,0.0002161348,0.00038455377,-0.44762802,-1.1148882,0.12663642,2.4896733e-06,-1.8869358e-05,9.941737e-06,0.00016840246,9.6065356e-05,-0.0010726932,0.19107038,-0.016729856,0.48979935,0.0038710178,-0.0008117982,-1.0750059e-05,0.0,0.0,2.2808374e-05,6.051793e-06,6.067652e-06,5.8031572e-05,0.00020709926,0.0002071052,0.00021803446,0.0015700301,0.0015700354,0.0036069346,8.922399e-12,8.922362e-12,2.3018693e-11,1.1574184e-07,1.1569715e-07,5.0000185e-08,0.0,0.0,0.0,0.0,0.0,0.0,0.0,0.0,24
831036000,830956000,0.84935963,0.010257729,0.002607782,-0.5277085,0.0007066454,-0.0027734982,-0.00088862376,-0.44792,-1.1154178,0.12649837,2.6098683e-06,-1.8900937e-05,9.886408e-06,0.00016842193,9.601214e-05,-0.0010501823,0.19107038,-0.016729856,0.48979935,0.0038710178,-0.0008117982,-1.0750059e-05,0.0,0.0,2.2787774e-05,6.022472e-06,6.0379953e-06,5.798488e-05,0.00015218942,0.00015218883,0.00015841865,0.0015627382,0.001562743,0.0035913882,8.897882e-12,8.897622e-12,2.3010207e-11,1.15745934e-07,1.157011e-07,5.000015e-08,0.0,0.0,0.0,0.0,0.0,0.0,0.0,0.0,24
832044000,831964000,0.8494363,0.010315659,0.0032425362,-0.5275803,0.0015573655,0.001372501,0.0019206922,-0.4477079,-1.1154325,0.12629068,2.689266e-06,-1.921589e-05,9.853496e-06,0.0001683415,9.594783e-05,-0.0010632434,0.19107038,-0.016729856,0.48979935,0.0038710178,-0.0008117982,-1.0750059e-05,0.0,0.0,2.2858383e-05,5.9998442e-06,6.0154644e-06,5.8200072e-05,0.000116769246,0.00011677123,0.000120637,0.0015563738,0.0015563788,0.003576903,8.8813895e-12,8.880664e-12,2.3045786e-11,1.1574938e-07,1.1570496e-07,5.0000036e-08,0.0,0.0,0.0,0.0,0.0,0.0,0.0,0.0,24
833036000,832956000,0.84955794,0.010374691,0.0032386293,-0.52738327,0.000506564,0.0011503802,-3.8855283e-05,-0.44755885,-1.1157258,0.12617296,2.6779555e-06,-1.9225772e-05,9.780851e-06,0.0001683606,9.5945e-05,-0.0010969765,0.19107038,-0.016729856,0.48979935,0.0038710178,-0.0008117982,-1.0750059e-05,0.0,0.0,2.2830938e-05,5.9673926e-06,5.9833847e-06,5.816288e-05,6.571309e-05,6.5713444e-05,6.699046e-05,0.0015502421,0.0015502472,0.0035627205,8.856509e-12,8.855876e-12,2.3037565e-11,1.1575287e-07,1.1570848e-07,5.0000075e-08,0.0,0.0,0.0,0.0,0.0,0.0,0.0,0.0,24
834036000,833956000,0.8496122,0.010305172,0.0033231033,-0.52729684,-0.0002212456,-0.00094658165,0.00091925956,-0.4470764,-1.1156774,0.12663189,2.9034327e-06,-1.8939372e-05,9.699794e-06,0.00016843842,9.602343e-05,-0.0011161264,0.19107038,-0.016729856,0.48979935,0.0038710178,-0.0008117982,-1.0750059e-05,0.0,0.0,2.2822609e-05,5.94255e-06,5.9580757e-06,5.8136244e-05,2.4814211e-05,2.4813993e-05,2.5002286e-05,0.0015468566,0.0015468617,0.0035489753,8.835729e-12,8.8352554e-12,2.3033834e-11,1.1575697e-07,1.1571261e-07,5.000011e-08,0.0,0.0,0.0,0.0,0.0,0.0,0.0,0.0,24
835036000,834956000,0.8496795,0.010503432,0.0034692853,-0.5271834,0.0003063015,-0.0006913794,0.00026798944,-0.447389,-1.1153617,0.12670851,3.0554963e-06,-1.9004192e-05,9.656566e-06,0.00016848624,9.603562e-05,-0.0011136575,0.19107038,-0.016729856,0.48979935,0.0038710178,-0.0008117982,-1.0750059e-05,0.0,0.0,2.2806355e-05,6.044985e-06,6.0608245e-06,5.8122358e-05,0.0002070854,0.00020709129,0.00021803251,0.0015427514,0.0015427565,0.0035381708,8.922189e-12,8.921469e-12,2.3029969e-11,1.1576128e-07,1.1571702e-07,5.0000185e-08,0.0,0.0,0.0,0.0,0.0,0.0,0.0,0.0,24
836036000,835956000,0.8496131,0.010490051,0.0035131231,-0.5272904,-0.0010042281,-0.0011987521,-0.00016153655,-0.44744956,-1.1153053,0.12768467,3.3283272e-06,-1.9134619e-05,9.606283e-06,0.0001685887,9.603686e-05,-0.0011162183,0.19107038,-0.016729856,0.48979935,0.0038710178,-0.0008117982,-1.0750059e-05,0.0,0.0,2.2890248e-05,6.0216594e-06,6.0374623e-06,5.8290443e-05,0.00016134,0.00016134432,0.00016819059,0.0015359754,0.0015359798,0.0035234874,8.902207e-12,8.901055e-12,2.3061202e-11,1.1576539e-07,1.1572128e-07,5.00007e-08,0.0,0.0,0.0,0.0,0.0,0.0,0.0,0.0,24
837036000,836956000,0.84991074,0.01082502,0.0034708194,-0.52680415,0.0063180127,-0.0056531825,-0.0028967415,-0.44415033,-1.1179302,0.1252725,3.3471833e-06,-1.9127277e-05,9.522144e-06,0.00016860732,9.602539e-05,-0.0011154679,0.19107038,-0.016729856,0.48979935,0.0038710178,-0.0008117982,-1.0750059e-05,0.0,0.0,2.2848053e-05,6.5060362e-06,6.522452e-06,5.8298283e-05,0.0013822453,0.0013823817,0.0015985712,0.0018867669,0.0018868012,0.0039233286,9.294533e-12,9.293459e-12,2.3056385e-11,1.1577e-07,1.1572588e-07,5.000007e-08,0.0,0.0,0.0,0.0,0.0,0.0,0.0,0.0,24
838044000,837964000,0.8506415,0.010618704,0.005489005,-0.5256103,-0.008652401,-0.0059712613,-1.5655737,-0.45949525,-1.1368519,-0.61855495,3.4111854e-06,-1.9131188e-05,9.457882e-06,0.00016893078,9.396018e-05,-0.0011250259,0.19107038,-0.016729856,0.48979935,0.0038710178,-0.0008117982,-1.0750059e-05,0.0,0.0,2.2749393e-05,7.0010033e-06,7.015848e-06,5.8392736e-05,0.0042276657,0.0042282254,0.004548805,0.005496923,0.005497303,0.008299361,9.693172e-12,9.692182e-12,2.3055014e-11,1.1567137e-07,1.1562722e-07,5.000015e-08,0.0,0.0,0.0,0.0,0.0,0.0,0.0,0.0,24
839044000,838964000,0.85701144,0.013067459,0.007950832,-0.51507044,0.015215812,-0.0032686782,-0.59891045,-0.46362394,-1.1460943,-1.6611807,3.495553e-06,-1.9192805e-05,9.421882e-06,0.00016871902,9.341168e-05,-0.0011143758,0.19428785,-0.016745338,0.48894006,0.0038710178,-0.0008117982,-1.0750059e-05,0.0,0.0,0.00037271384,7.4935547e-06,7.65451e-06,0.0010587614,0.00641432,0.00641524,0.008328873,0.016305083,0.016306637,0.02269836,1.00263305e-11,1.0025309e-11,2.3308317e-11,1.15559345e-07,1.15515434e-07,5.0000075e-08,0.0,0.0,0.0,0.0,0.0,0.0,0.0,0.0,24
840036000,839956000,0.8549424,0.013651929,0.0070602493,-0.5184954,0.012271386,0.0022792292,-0.23732866,-0.47184917,-1.1414511,-2.0395565,3.6006472e-06,-1.92677e-05,9.429807e-06,0.00017982164,0.00010621516,-0.0011168404,0.19428785,-0.016745338,0.48894006,0.0038710178,-0.0008117982,-1.0750059e-05,0.0,0.0,0.00019723621,7.3566102e-06,7.466797e-06,0.0005602004,0.0109054195,0.010905216,0.011313717,0.0301527,0.030154943,0.04822365,1.0316989e-11,1.0315939e-11,2.3815346e-11,1.1022004e-07,1.10181794e-07,5.0000114e-08,0.0,0.0,0.0,0.0,0.0,0.0,0.0,0.0,24
841036000,840956000,0.8551898,0.024869902,0.014966562,-0.5175018,-0.017977696,0.039719377,-0.033886194,-0.49860394,-1.1208692,-2.0710628,3.6554034e-06,-1.9345145e-05,9.437026e-06,0.00020310476,0.0001147121,-0.0011113095,0.19428785,-0.016745338,0.48894006,0.0038710178,-0.0008117982,-1.0750059e-05,0.0,0.0,0.00013304349,6.365572e-06,6.570182e-06,0.00038196112,0.012317857,0.012315351,0.01230457,0.04023178,0.04023317,0.076473184,1.0677502e-11,1.067647e-11,2.4325061e-11,9.5884005e-08,9.585788e-08,5.000004e-08,0.0,0.0,0.0,0.0,0.0,0.0,0.0,0.0,24
842036000,841956000,0.8484915,0.1262631,0.077359214,-0.50807035,0.029561527,1.0545717,-0.5957534,-0.45796493,-0.7161349,-2.3859353,3.6376284e-06,-1.9304824e-05,9.43747e-06,0.00017419229,9.644129e-05,-0.0011312107,0.19428785,-0.016745338,0.48894006,0.0038710178,-0.0008117982,-1.0750059e-05,0.0,0.0,9.562704e-05,7.840509e-06,1.1213324e-05,0.00028118544,0.015326779,0.014460394,0.013668014,0.05594591,0.05594718,0.112175725,1.11337025e-11,1.1132524e-11,2.483262e-11,8.841066e-08,8.840743e-08,5.000011e-08,0.0,0.0,0.0,0.0,0.0,0.0,0.0,0.0,24
843044000,842964000,0.8401672,0.1391312,0.10267418,-0.51402295,-0.0253511,2.2117574,-0.7477799,-0.331246,1.0084531,-3.0500157,3.5473997e-06,-1.9251582e-05,9.436556e-06,0.00014593877,4.7970356e-05,-0.0011550251,0.19414002,-0.016736383,0.48961473,0.0040997807,-0.0012024652,0.0008159263,0.0,0.0,8.27189e-05,8.227807e-06,1.0138588e-05,0.0002368099,0.0143086435,0.012949778,0.013480144,0.062917195,0.06291343,0.13725431,1.159971e-11,1.1596727e-11,2.534587e-11,8.3246725e-08,8.3532555e-08,5.0000185e-08,0.0013147168,2.4535264e-05,0.0013236463,0.00069669733,0.0010595662,0.0012093877,0.0,0.0,24
844036000,843956000,0.8398335,0.12554298,0.108546056,-0.5168525,-0.14575668,2.4947424,-0.7580386,-0.30795476,3.4106605,-3.7191198,3.4298957e-06,-1.9220826e-05,9.396701e-06,0.00014283483,1.02296635e-05,-0.0011865159,0.19346192,-0.016684145,0.4895632,0.0046832697,-0.0021912716,0.00083563215,0.0,0.0,7.9867525e-05,8.193875e-06,8.616834e-06,0.00022855382,0.012028996,0.011838872,0.0131251905,0.067176394,0.06714787,0.15243341,1.206009e-11,1.2052076e-11,2.5847916e-11,8.063095e-08,8.132416e-08,5e-08,0.0012689503,2.3904131e-05,0.0012768195,0.00057525164,0.0009861303,0.0011556267,0.0,0.0,24
845044000,844964000,0.8366511,0.12306422,0.103984624,-0.5235048,-0.12997696,2.5149665,-0.73478776,-0.40463853,5.9662604,-4.3549495,3.324165e-06,-1.918487e-05,9.3246435e-06,0.00015339047,-1.05345935e-05,-0.0012325589,0.19311787,-0.016654797,0.4899762,0.0047666775,-0.0027071761,0.0010927177,0.0,0.0,8.135846e-05,7.934603e-06,8.619589e-06,0.00022564651,0.010430557,0.010473687,0.012878147,0.068200625,0.06815388,0.16332704,1.2481728e-11,1.24642284e-11,2.632717e-11,7.882124e-08,7.991867e-08,5e-08,0.001256219,2.3510202e-05,0.0012633615,0.0005376769,0.0009695055,0.0011434406,0.0,0.0,24
846036000,845956000,0.8331471,0.122803055,0.10123803,-0.5296567,-0.10014307,2.527137,-0.8077545,-0.53565973,8.480024,-5.003259,3.341397e-06,-1.9184505e-05,9.333344e-06,0.00017368453,-1.6669992e-05,-0.0012849154,0.19311818,-0.016657077,0.4899684,0.004997517,-0.0027015633,0.0010451503,0.0,0.0,8.282694e-05,8.054845e-06,9.042916e-06,0.00022267162,0.009951951,0.009803902,0.012857988,0.0682327,0.06820073,0.1712251,1.2825487e-11,1.2797545e-11,2.6751098e-11,7.753693e-08,7.913055e-08,5.0000075e-08,0.0012477196,2.3159248e-05,0.0012568071,0.0005151821,0.0009645582,0.0011382406,0.0,0.0,24
847044000,846964000,0.8286021,0.123592384,0.09845865,-0.537075,-0.029775385,2.49042,-0.84587914,-0.6188328,10.9954605,-5.7159595,3.454074e-06,-1.9145904e-05,9.392337e-06,0.0001904104,-2.0021309e-05,-0.0013334842,0.19311818,-0.016657079,0.4899684,0.004997646,-0.0027016257,0.0010451893,0.0,0.0,7.087734e-05,8.073859e-06,9.197339e-06,0.00018327343,0.011316032,0.010944389,0.013668177,0.07661543,0.07660862,0.17834356,1.31407645e-11,1.3097798e-11,2.7123276e-11,7.667639e-08,7.8620126e-08,5e-08,0.0,0.0,0.0,0.0,0.0,0.0,0.0,0.0,24
848044000,847964000,0.8231161,0.12546916,0.09843322,-0.54502153,0.024118844,2.5046687,-0.87945,-0.64750606,13.480494,-6.400097,3.5849996e-06,-1.9101324e-05,9.470292e-06,0.00021540801,-2.6334748e-05,-0.001400468,0.19311818,-0.016657079,0.4899684,0.004997646,-0.0027016257,0.0010451893,0.0,0.0,6.202817e-05,8.19333e-06,9.376262e-06,0.00015377218,0.010898276,0.010566699,0.013606421,0.07490727,0.07489146,0.17917398,1.3275608e-11,1.3197364e-11,2.7420531e-11,7.565693e-08,7.825306e-08,5e-08,0.0,0.0,0.0,0.0,0.0,0.0,0.0,0.0,24
849044000,848964000,0.8178723,0.12511683,0.09961217,-0.552728,0.036506176,2.5168617,-0.8904052,-0.6492059,15.976257,-7.146346,3.769817e-06,-1.9049898e-05,9.581014e-06,0.00023457193,-3.1859185e-05,-0.0014551127,0.19311818,-0.016657079,0.4899684,0.004997646,-0.0027016257,0.0010451893,0.0,0.0,5.5612367e-05,8.405032e-06,9.491187e-06,0.00013243589,0.010988193,0.010723231,0.0136634465,0.074436784,0.07439699,0.17933334,1.33346e-11,1.3206994e-11,2.7702974e-11,7.479095e-08,7.803344e-08,5.000004e-08,0.0,0.0,0.0,0.0,0.0,0.0,0.0,0.0,24
850036000,849956000,0.814053,0.11992177,0.098693065,-0.5596393,0.014851488,2.48579,-0.82499796,-0.64405507,18.454523,-7.889578,3.925903e-06,-1.901333e-05,9.6692365e-06,0.00024745252,-3.6604597e-05,-0.0014965718,0.19311818,-0.016657079,0.4899684,0.004997646,-0.0027016257,0.0010451893,0.0,0.0,5.0673534e-05,8.391494e-06,9.284694e-06,0.00011658572,0.010423758,0.010231839,0.013510387,0.07207854,0.07203901,0.18052328,1.3203428e-11,1.3000755e-11,2.7921944e-11,7.399597e-08,7.7846174e-08,5.0000036e-08,0.0,0.0,0.0,0.0,0.0,0.0,0.0,0.0,24
851036000,850956000,0.8211921,0.0069546965,0.02221376,-0.57017696,0.011794959,1.8327215,-0.056306757,-0.6533648,20.825205,-8.417037,3.995379e-06,-1.918882e-05,9.749548e-06,0.00025543367,-3.7618775e-05,-0.001524473,0.19311818,-0.016657079,0.4899684,0.004997646,-0.0027016257,0.0010451893,0.0,0.0,4.7255857e-05,7.0881906e-06,7.046946e-06,0.00010653209,0.0103879655,0.009798408,0.0133514395,0.07077448,0.07073991,0.17948921,1.3093956e-11,1.2800317e-11,2.8135617e-11,7.335567e-08,7.768611e-08,5.000011e-08,0.0,0.0,0.0,0.0,0.0,0.0,0.0,0.0,24
852044000,851964000,0.8152182,-0.10660263,-0.06893139,-0.5650697,0.0017039651,-0.54144365,0.68288106,-0.75618976,21.486715,-7.9754543,4.3371547e-06,-1.966631e-05,1.0191794e-05,0.00025762088,-3.0514144e-05,-0.0015385286,0.1939583,-0.016753461,0.48841968,0.0057799695,-0.002696028,-0.00063878647,0.0,0.0,4.1943782e-05,7.7110235e-06,8.002656e-06,9.52601e-05,0.015289149,0.011373747,0.013971256,0.079928115,0.079294324,0.18189256,1.32392465e-11,1.2811302e-11,2.8378813e-11,7.286441e-08,7.7378964e-08,5.000004e-08,0.00058334105,1.7571367e-05,0.0006467597,0.00024143347,0.00051189406,0.0006180905,0.0,0.0,24
853044000,852964000,0.8252867,-0.0051405504,-0.040461827,-0.56323916,0.09404184,-1.0576868,0.6846774,-0.96959585,20.439169,-7.3742237,5.2813207e-06,-1.9753234e-05,1.1037643e-05,0.000259204,-2.7844771e-05,-0.0015379866,0.19480053,-0.016877972,0.48850253,0.0074518556,-0.0033007227,-0.0013683097,0.0,0.0,3.5850102e-05,7.165712e-06,7.563967e-06,8.586763e-05,0.012292925,0.011338639,0.013918628,0.077705055,0.07707833,0.18311436,1.3300901e-11,1.2513329e-11,2.8571362e-11,7.2690156e-08,7.723448e-08,5e-08,0.00053620484,1.6866285e-05,0.0006007101,0.00018440891,0.00046417888,0.0005805846,0.0,0.0,24
854044000,853964000,0.827993,0.011422266,-0.022861028,-0.5601559,0.24740249,-0.5621882,0.7485168,-0.85273683,19.574574,-6.7649436,5.830329e-06,-1.9286328e-05,1.1244801e-05,0.00027159537,-3.6676796e-05,-0.001482509,0.19506142,-0.016904796,0.48843277,0.007510235,-0.0030730395,-0.0011795147,0.0,0.0,3.4768822e-05,6.8352847e-06,7.681413e-06,8.514238e-05,0.009639049,0.009798861,0.013131124,0.068207055,0.06784616,0.17450531,1.3050757e-11,1.2015258e-11,2.8969688e-11,7.2280095e-08,7.7098406e-08,5.0000075e-08,0.00052024773,1.6491595e-05,0.00056357303,0.00016309465,0.00044307898,0.00055307953,0.0,0.0,24
855044000,854964000,0.82701087,0.020333095,0.0049942024,-0.56179595,0.13325766,-0.10544672,0.7879464,-0.6208816,19.21096,-6.0366077,5.724958e-06,-1.888121e-05,1.1245221e-05,0.00028720987,-3.859922e-05,-0.0014390672,0.19490379,-0.016898058,0.4884681,0.0073971506,-0.003156318,-0.00083227037,0.0,0.0,3.468746e-05,7.115711e-06,7.839327e-06,8.4772786e-05,0.011165703,0.010834232,0.014098801,0.07447769,0.07432588,0.17861325,1.2803616e-11,1.1840062e-11,2.9460028e-11,7.180208e-08,7.697402e-08,5.0000036e-08,0.0005123072,1.6159023e-05,0.00052935793,0.00015050118,0.00043297844,0.00052380224,0.0,0.0,24
856044000,855964000,0.7620849,0.28640488,0.20807661,-0.5421282,-0.06970387,2.2623234,-3.416185,-0.48966956,19.293047,-5.891689,5.390174e-06,-1.7558606e-05,1.1340029e-05,0.00029725803,-3.8546736e-05,-0.001410317,0.19477186,-0.016918287,0.489324,0.0074842735,-0.0034663943,0.000692867,0.0,0.0,2.8391674e-05,1.2004313e-05,1.703039e-05,6.322871e-05,0.017996266,0.013227473,0.013513461,0.072797686,0.07273001,0.18035975,1.2078629e-11,1.1435122e-11,2.9873982e-11,7.147899e-08,7.688427e-08,5.000015e-08,0.00038891827,1.510014e-05,0.00039600002,0.0001349495,0.0003440261,0.0003894793,0.0,0.0,24
857044000,856964000,0.7577968,0.21741377,0.20313735,-0.5806983,-0.061444305,6.401035,-3.4937012,-0.19069926,24.34986,-9.4441,3.4416553e-06,-1.5958294e-05,1.2397819e-05,0.00027722368,-8.0613514e-05,-0.0014061787,0.19344167,-0.016925864,0.4906052,0.0080267005,-0.0054348563,0.004597635,0.0,0.0,2.2863527e-05,7.352703e-06,7.470382e-06,4.5916833e-05,0.019414935,0.013290528,0.011711221,0.07271086,0.0726048,0.17842534,1.1381917e-11,1.10340435e-11,3.0124393e-11,7.096043e-08,7.6309e-08,5.0000153e-08,0.00026523494,1.3710175e-05,0.0002515691,0.000105566745,0.00025060592,0.0002229211,0.0,0.0,24
858036000,857956000,0.8034465,0.02727193,0.062609226,-0.5914475,-0.23942582,3.6711032,-0.84998,-0.23564135,29.832552,-11.774504,2.4926221e-06,-1.6697997e-05,1.2470233e-05,0.000317972,-0.000139134,-0.0013467625,0.19307262,-0.017050738,0.48992354,0.009182942,-0.007032092,0.0055281566,0.0,0.0,2.1939983e-05,4.6211458e-06,4.705311e-06,4.7985875e-05,0.011918961,0.011502024,0.010327746,0.07101266,0.07059103,0.17502373,1.137866e-11,1.0982722e-11,3.05785e-11,6.787943e-08,7.278613e-08,5e-08,0.00024274108,1.3083739e-05,0.00021956566,8.529438e-05,0.00022662521,0.00020074216,0.0,0.0,24
859044000,858964000,0.80726486,-0.03965538,-0.022981435,-0.58840704,-0.2629732,1.2376028,-0.09233881,-0.60510504,32.34369,-12.210606,2.6290077e-06,-1.7324961e-05,1.2779502e-05,0.00037557882,-0.0001073123,-0.0013125493,0.19382332,-0.01729146,0.48925263,0.010158726,-0.00771063,0.004762718,0.0,0.0,2.0648551e-05,4.716284e-06,4.733797e-06,4.6181947e-05,0.013336037,0.011484929,0.010648499,0.0699579,0.069676645,0.17217281,1.1576192e-11,1.1146186e-11,3.0834117e-11,6.358507e-08,6.766413e-08,5.0000036e-08,0.0002313777,1.2594622e-05,0.00019820333,7.223428e-05,0.00021316658,0.00018785936,0.0,0.0,24
860044000,859964000,0.8097742,-0.019615868,-0.029486882,-0.58567184,0.091126665,-0.55339366,0.11686005,-0.7714722,32.430298,-12.124672,3.0216245e-06,-1.7583017e-05,1.3266027e-05,0.0003838133,-8.767192e-05,-0.0013092082,0.19519264,-0.01766049,0.48921648,0.010896601,-0.008882648,0.0030918154,0.0,0.0,1.9023195e-05,4.6307932e-06,4.5364163e-06,4.343527e-05,0.015056011,0.0125685325,0.009908311,0.07749536,0.07728071,0.17481646,1.18672945e-11,1.138276e-11,3.1017813e-11,6.304946e-08,6.700606e-08,5.000011e-08,0.00022284607,1.20831055e-05,0.00016523928,6.142189e-05,0.00020447938,0.00016132282,0.0,0.0,24
861044000,860964000,0.8063064,0.024203325,-0.0074821254,-0.5909553,0.2060873,-0.22828847,0.057973642,-0.7617049,31.982038,-12.137328,3.5265664e-06,-1.7658005e-05,1.3667987e-05,0.0003887061,-4.142732e-05,-0.0012876272,0.19589908,-0.01779157,0.48888665,0.011292476,-0.009166896,0.0027392525,0.0,0.0,1.8850902e-05,4.2654315e-06,4.4442563e-06,4.1910476e-05,0.013075048,0.012573031,0.00993841,0.07556378,0.07534569,0.17156586,1.2060438e-11,1.1489131e-11,3.131064e-11,6.05606e-08,6.4447214e-08,5e-08,0.00021799009,1.1792536e-05,0.00015879497,5.694263e-05,0.00019983183,0.00015609842,0.0,0.0,24
862036000,861956000,0.80472165,0.020920593,0.0016242914,-0.5932815,0.18899539,0.049051814,0.069299676,-0.6145755,31.904978,-12.187151,3.7821426e-06,-1.7679335e-05,1.3743443e-05,0.00038939406,-1.37990455e-05,-0.00125735,0.1961556,-0.017825685,0.4888197,0.011374213,-0.0091321645,0.0026110013,0.0,0.0,1.9567015e-05,4.254747e-06,4.4174117e-06,4.2704833e-05,0.01291626,0.012746568,0.010844663,0.07475372,0.07458177,0.16880846,1.2232026e-11,1.1619454e-11,3.174859e-11,5.7266263e-08,6.099509e-08,5.000011e-08,0.0002151831,1.1583861e-05,0.00015596316,5.4308526e-05,0.00019710982,0.00015374912,0.0,0.0,24
863036000,862956000,0.80354244,0.011904015,0.0037508637,-0.5951166,0.07940293,0.07627932,0.06403799,-0.5105936,31.97307,-12.250177,3.9277907e-06,-1.7702436e-05,1.373845e-05,0.00039027596,2.444296e-06,-0.0012061192,0.19626528,-0.017837802,0.48869628,0.01131492,-0.009057687,0.0024796014,0.0,0.0,2.0380385e-05,4.2920524e-06,4.3794294e-06,4.3742086e-05,0.011951167,0.011791043,0.011871637,0.07260055,0.07248775,0.16763312,1.231387e-11,1.17083045e-11,3.2187718e-11,5.3810247e-08,5.7226313e-08,5.0000075e-08,0.0,0.0,0.0,0.0,0.0,0.0,0.0,0.0,24
864044000,863964000,0.80299103,0.009442636,0.0019585935,-0.5959131,0.03278086,0.03749226,0.10221678,-0.4762673,32.034687,-12.306395,3.9878078e-06,-1.773905e-05,1.3727838e-05,0.00039205013,9.035122e-06,-0.0011445282,0.19626528,-0.017837802,0.48869628,0.01131492,-0.009057687,0.0024796014,0.0,0.0,2.0542559e-05,4.519306e-06,4.581471e-06,4.3537362e-05,0.011320054,0.011160045,0.012812108,0.07150032,0.07142963,0.16804932,1.2429065e-11,1.1850357e-11,3.251098e-11,5.1496805e-08,5.4661196e-08,5.000015e-08,0.0,0.0,0.0,0.0,0.0,0.0,0.0,0.0,24
865044000,864964000,0.802608,0.009884493,0.001068874,-0.5964239,0.012219987,0.003204641,0.14734481,-0.4635368,32.05342,-12.315411,4.0026175e-06,-1.7749722e-05,1.3729632e-05,0.00039202187,1.1267327e-05,-0.001093264,0.19626528,-0.017837802,0.48869628,0.01131492,-0.009057687,0.0024796014,0.0,0.0,2.072368e-05,4.9984465e-06,5.054786e-06,4.3436317e-05,0.012800868,0.012596635,0.01439433,0.0803665,0.08029228,0.17125884,1.2637982e-11,1.2086521e-11,3.2799895e-11,5.0402626e-08,5.343824e-08,5e-08,0.0,0.0,0.0,0.0,0.0,0.0,0.0,0.0,24
866036000,865956000,0.8023148,0.009303485,0.0013344178,-0.59682715,0.0027490244,-0.008047561,0.15001793,-0.44869885,32.06737,-12.341856,3.9469824e-06,-1.779455e-05,1.3737099e-05,0.00039345655,1.0426406e-05,-0.0010266037,0.19626528,-0.017837802,0.48869628,0.01131492,-0.009057687,0.0024796014,0.0,0.0,2.0895037e-05,5.2654987e-06,5.3019767e-06,4.3352597e-05,0.011737133,0.011568829,0.014638389,0.077564396,0.07751069,0.17471527,1.26426595e-11,1.2137365e-11,3.3044772e-11,5.0000825e-08,5.242856e-08,5.0000185e-08,0.0,0.0,0.0,0.0,0.0,0.0,0.0,0.0,24
867044000,866964000,0.8022683,0.007842611,0.002636081,-0.59690624,-0.009550434,-0.005879904,0.148789,-0.44379386,32.08706,-12.350338,3.8923827e-06,-1.790366e-05,1.3710409e-05,0.0003953606,1.008043e-05,-0.0009577705,0.19626528,-0.017837802,0.48869628,0.01131492,-0.009057687,0.0024796014,0.0,0.0,2.1098722e-05,5.421553e-06,5.4344687e-06,4.3386826e-05,0.009844521,0.009736523,0.0137509825,0.068251766,0.068224415,0.1718724,1.251287e-11,1.20639046e-11,3.3260266e-11,5.0000047e-08,5.1950572e-08,5.0000075e-08,0.0,0.0,0.0,0.0,0.0,0.0,0.0,0.0,24
868044000,867964000,0.80230176,0.007989281,0.00063763285,-0.5968649,-0.006926649,-0.02314412,0.1288628,-0.4518289,32.08657,-12.310985,3.8463095e-06,-1.7954966e-05,1.3677896e-05,0.00039561748,1.008533e-05,-0.0009201251,0.19626528,-0.017837802,0.48869628,0.01131492,-0.009057687,0.0024796014,0.0,0.0,2.137196e-05,5.790393e-06,5.7974116e-06,4.3575033e-05,0.010810721,0.010714045,0.014509101,0.074688114,0.074646905,0.1753879,1.2523789e-11,1.2115633e-11,3.344822e-11,5.0000075e-08,5.1867573e-08,5.0000036e-08,0.0,0.0,0.0,0.0,0.0,0.0,0.0,0.0,24
869044000,868964000,0.8024084,0.005984757,0.0004534335,-0.59674525,-0.006278692,-0.024833541,0.10820506,-0.46171048,32.089787,-12.271695,3.8523976e-06,-1.8081299e-05,1.3628936e-05,0.00039583226,1.0374938e-05,-0.00089226384,0.19626528,-0.017837802,0.48869628,0.01131492,-0.009057687,0.0024796014,0.0,0.0,2.1735617e-05,5.9488684e-06,5.9414733e-06,4.396516e-05,0.010472473,0.010403318,0.014309494,0.07305378,0.0730183,0.17634211,1.2371773e-11,1.2012794e-11,3.3626105e-11,5.000018e-08,5.1835606e-08,5.000011e-08,0.0,0.0,0.0,0.0,0.0,0.0,0.0,0.0,24
870044000,869964000,0.8025375,0.006178383,-0.001642316,-0.59656745,0.003091928,-0.022968179,0.082927205,-0.47448972,32.073025,-12.231658,3.924658e-06,-1.81356e-05,1.3563209e-05,0.00039549975,1.0204805e-05,-0.00087904185,0.19626528,-0.017837802,0.48869628,0.01131492,-0.009057687,0.0024796014,0.0,0.0,2.2141912e-05,6.0885613e-06,6.075248e-06,4.4440203e-05,0.010525526,0.01046904,0.014216425,0.07254886,0.07251551,0.17694826,1.2219142e-11,1.1905817e-11,3.377606e-11,5.000018e-08,5.1793528e-08,5.0000036e-08,0.0,0.0,0.0,0.0,0.0,0.0,0.0,0.0,24
871036000,870956000,0.8025155,0.0068657557,0.0007401835,-0.59659135,0.0112618,-0.010958313,0.042302452,-0.47778803,32.033134,-12.197275,4.0459663e-06,-1.803821e-05,1.3502864e-05,0.00039652578,9.051513e-06,-0.0008789126,0.19626528,-0.017837802,0.48869628,0.01131492,-0.009057687,0.0024796014,0.0,0.0,2.2512953e-05,6.0412044e-06,6.0250936e-06,4.4812874e-05,0.010041043,0.009994415,0.013950173,0.070392765,0.07036766,0.17856169,1.1952242e-11,1.1688041e-11,3.3860352e-11,5.000004e-08,5.167771e-08,5.000004e-08,0.0,0.0,0.0,0.0,0.0,0.0,0.0,0.0,24
872044000,871964000,0.8024068,0.007140135,0.0037009106,-0.59672326,0.009724621,0.008847213,0.009503334,-0.50092316,32.016655,-12.176489,4.318586e-06,-1.8005785e-05,1.3439032e-05,0.00039701685,5.0326926e-06,-0.0008820021,0.19626528,-0.017837802,0.48869628,0.01131492,-0.009057687,0.0024796014,0.0,0.0,2.2939512e-05,6.0176926e-06,6.0008506e-06,4.5266715e-05,0.009933264,0.00989208,0.013800375,0.06950735,0.06948561,0.17850146,1.17333305e-11,1.1512098e-11,3.3920425e-11,5.000011e-08,5.1503758e-08,5.000011e-08,0.0,0.0,0.0,0.0,0.0,0.0,0.0,0.0,24
873036000,872956000,0.80245095,0.008146625,0.0029539822,-0.59665513,0.033877626,0.026264917,-0.005814955,-0.507639,32.02032,-12.169201,4.5274683e-06,-1.796438e-05,1.3367435e-05,0.00039775192,1.707409e-06,-0.0008889593,0.19626528,-0.017837802,0.48869628,0.01131492,-0.009057687,0.0024796014,0.0,0.0,2.3352259e-05,6.176082e-06,6.1607866e-06,4.5741734e-05,0.011197064,0.011154081,0.014594083,0.07661615,0.07658408,0.18262611,1.16692185e-11,1.1478236e-11,3.3944295e-11,5.00001e-08,5.1334208e-08,5.000011e-08,0.0,0.0,0.0,0.0,0.0,0.0,0.0,0.0,24
874044000,873964000,0.8027517,0.005128521,0.0051905233,-0.5962688,0.03221171,0.02356273,-0.0066837524,-0.5209553,32.035465,-12.157772,4.8017623e-06,-1.8005943e-05,1.3336364e-05,0.00039718027,-3.1752e-06,-0.00090031006,0.19626528,-0.017837802,0.48869628,0.01131492,-0.009057687,0.0024796014,0.0,0.0,2.3839199e-05,6.0505977e-06,6.0339557e-06,4.646027e-05,0.010833352,0.010802763,0.014378824,0.075022526,0.07499667,0.181752,1.1438368e-11,1.1282359e-11,3.397945e-11,5.0000217e-08,5.108861e-08,5.0000036e-08,0.0,0.0,0.0,0.0,0.0,0.0,0.0,0.0,24
875044000,874964000,0.80224466,0.02239857,-0.0014742936,-0.5965735,0.043608658,0.029321725,-0.037662655,-0.5433958,32.040928,-12.142843,5.00055e-06,-1.8033323e-05,1.3317286e-05,0.00039688364,-6.7172905e-06,-0.0009122791,0.19626528,-0.017837802,0.48869628,0.01131492,-0.009057687,0.0024796014,0.0,0.0,2.4305795e-05,5.9990452e-06,6.013848e-06,4.696525e-05,0.010886621,0.010864414,0.014393077,0.07450989,0.07448664,0.18326133,1.1287711e-11,1.1159092e-11,3.394968e-11,5.0000978e-08,5.0861146e-08,5.000022e-08,0.0,0.0,0.0,0.0,0.0,0.0,0.0,0.0,24
876036000,875956000,0.79200584,0.10946927,-0.11208487,-0.5900679,1.089315,0.15634404,-0.15679123,-0.21880972,32.13662,-12.207081,5.512536e-06,-1.8159277e-05,1.3246368e-05,0.00039503875,-1.6275413e-05,-0.00092662196,0.19626528,-0.017837802,0.48869628,0.01131492,-0.009057687,0.0024796014,0.0,0.0,2.4240755e-05,6.504231e-06,6.3836746e-06,4.6357796e-05,0.010353125,0.010522899,0.0140134925,0.07217412,0.072158165,0.18099783,1.1059637e-11,1.0954004e-11,3.3832315e-11,5.0000075e-08,5.0601415e-08,5.0000075e-08,0.0,0.0,0.0,0.0,0.0,0.0,0.0,0.0,24
877044000,876964000,0.7899257,0.12035902,-0.12358904,-0.588436,2.241638,0.1807155,-0.11763174,1.5259818,32.294437,-12.31943,5.6848917e-06,-1.809672e-05,1.3312757e-05,0.0003962225,-1.9238234e-05,-0.00094443845,0.1970723,-0.017881235,0.48845655,0.011325204,-0.008441305,0.002054933,0.0,0.0,2.402649e-05,6.265068e-06,6.1492824e-06,4.5705663e-05,0.010147774,0.010456268,0.013734264,0.07109335,0.071079604,0.17995894,1.089173e-11,1.080234e-11,3.3413324e-11,5.000015e-08,5.0122438e-08,5.0000114e-08,0.00014175706,1.0614511e-05,0.00011175231,4.4543325e-05,0.0001342388,0.000111080924,0.0,0.0,24
878036000,877956000,0.78706217,0.118212536,-0.11503228,-0.5944129,2.5012486,0.20830993,-0.04986749,3.9231682,32.475876,-12.391118,5.6713875e-06,-1.8014754e-05,1.333466e-05,0.00039771807,-1.9717252e-05,-0.0009508737,0.19733322,-0.017909756,0.48861915,0.011400286,-0.008224929,0.0021614179,0.0,0.0,2.4987161e-05,6.1935993e-06,6.177138e-06,4.5973455e-05,0.011713886,0.011631937,0.014554604,0.07934251,0.0793339,0.18346862,1.0941636e-11,1.086188e-11,3.3299214e-11,5.0000075e-08,5.0000036e-08,5.0000036e-08,0.000119766286,1.0086028e-05,9.688101e-05,3.8705253e-05,0.00011457687,9.663304e-05,0.0,0.0,24
879044000,878964000,0.7888663,0.048139974,-0.033762082,-0.6117456,2.1497052,0.1825125,0.083303764,6.445616,32.680912,-12.390896,5.4852685e-06,-1.791592e-05,1.3289188e-05,0.00040005127,-1.6860138e-05,-0.00095053733,0.19745906,-0.01794961,0.48863202,0.011561438,-0.008251028,0.0022359143,0.0,0.0,2.7113698e-05,5.623061e-06,5.59845e-06,4.7051853e-05,0.011135286,0.010954187,0.014365116,0.07733647,0.07728007,0.1823449,1.0808891e-11,1.0760778e-11,3.3383865e-11,5.000015e-08,5.0000075e-08,5.0000075e-08,0.00011108287,9.758672e-06,9.074474e-05,3.532761e-05,0.0001066981,9.057553e-05,0.0,0.0,24
880044000,879964000,0.7851302,0.008089703,0.0057989527,-0.61925095,0.90140367,0.073791526,0.6372972,7.910817,32.8427,-12.171539,5.058502e-06,-1.7973223e-05,1.3416978e-05,0.00040105864,-1.2057965e-05,-0.0009506606,0.19750768,-0.017984401,0.48833025,0.011728731,-0.008027977,0.0023220552,0.0,0.0,2.8178201e-05,5.4485586e-06,5.391791e-06,4.710165e-05,0.009274069,0.009749227,0.013349375,0.06798432,0.067952015,0.17607498,1.06116765e-11,1.0616013e-11,3.3025957e-11,5e-08,5e-08,5.0000075e-08,0.0,0.0,0.0,0.0,0.0,0.0,0.0,0.0,24
881036000,880956000,0.7912015,-0.02089764,0.035848968,-0.6101463,-0.3371113,-0.02025277,0.8756568,8.128888,32.917076,-11.253249,4.829601e-06,-1.816687e-05,1.3718378e-05,0.00040287973,-1.1823445e-05,-0.0009625298,0.19755243,-0.018034862,0.4880215,0.0119022885,-0.008094892,0.0020186005,0.0,0.0,2.644041e-05,5.5610485e-06,5.510463e-06,4.613445e-05,0.010256208,0.011293345,0.01409574,0.073974326,0.07389029,0.18213223,1.0633012e-11,1.07254145e-11,3.196008e-11,5.000007e-08,5.000007e-08,5.000007e-08,8.1979975e-05,9.125263e-06,6.967367e-05,2.9780025e-05,7.9696816e-05,6.950557e-05,0.0,0.0,24
882036000,881956000,0.79181874,-0.018114367,0.018348081,-0.61021173,-0.41843468,-0.07807773,0.8399296,7.7647905,32.9277,-10.4280615,4.6629707e-06,-1.8375651e-05,1.3949994e-05,0.00040474694,-9.95218e-06,-0.00095740304,0.19763884,-0.018103816,0.4876202,0.012131783,-0.008216741,0.0016262362,0.0,0.0,2.6310634e-05,5.420946e-06,5.394262e-06,4.586413e-05,0.010139288,0.0103994,0.013940616,0.07241001,0.072358854,0.18082732,1.0548769e-11,1.0768354e-11,3.134797e-11,5.0000114e-08,5.0000114e-08,5.0000114e-08,6.936734e-05,8.721755e-06,5.977381e-05,2.6617408e-05,6.783816e-05,5.965067e-05,0.0,0.0,24
883036000,882956000,0.79072636,-0.00055572006,0.00065543817,-0.61216927,-0.2326115,-0.09850712,0.89892644,7.4414787,32.848774,-9.547954,4.594499e-06,-1.8406452e-05,1.3920336e-05,0.00040645702,-9.3381195e-06,-0.00095895556,0.19767494,-0.018159173,0.48753232,0.01231844,-0.008381122,0.0015291166,0.0,0.0,2.7293123e-05,5.4987595e-06,5.4442135e-06,4.696145e-05,0.010242479,0.010151935,0.013968175,0.07199047,0.07193674,0.17986767,1.0510559e-11,1.0821112e-11,3.135342e-11,5e-08,5e-08,5.000006e-08,6.374446e-05,8.4384155e-06,5.5231474e-05,2.454225e-05,6.2470375e-05,5.513198e-05,0.0,0.0,24
884044000,883964000,0.78974575,0.007920363,-0.0029173633,-0.61337626,-0.041631896,-0.04186969,0.8826844,7.3359656,32.777313,-8.648717,4.49368e-06,-1.833395e-05,1.3865999e-05,0.0004080684,-8.981743e-06,-0.0009577023,0.19770794,-0.01819401,0.4875169,0.012437477,-0.008467837,0.0015126994,0.0,0.0,2.8437536e-05,5.445255e-06,5.424067e-06,4.843156e-05,0.009873028,0.0097978255,0.013820089,0.070400886,0.07034226,0.17911592,1.0422656e-11,1.0762496e-11,3.150626e-11,5e-08,5e-08,5.0000033e-08,0.0,0.0,0.0,0.0,0.0,0.0,0.0,0.0,24
885044000,884964000,0.78917366,0.006630461,0.00014489358,-0.61413443,0.006943387,-0.0033666035,0.86005616,7.3576536,32.75683,-7.7597237,4.345999e-06,-1.8242881e-05,1.3883646e-05,0.00040877995,-7.883082e-06,-0.0009653026,0.19770794,-0.01819401,0.4875169,0.012437477,-0.008467837,0.0015126994,0.0,0.0,2.884571e-05,5.403649e-06,5.4016045e-06,4.87438e-05,0.009738837,0.009730857,0.013715025,0.06933971,0.06927849,0.1781861,1.0386271e-11,1.07034555e-11,3.1331035e-11,5.0000036e-08,5.0000036e-08,5.0000107e-08,0.0,0.0,0.0,0.0,0.0,0.0,0.0,0.0,24
886044000,885964000,0.78925407,0.004189278,0.0021877205,-0.6140488,-0.01888586,0.008016097,0.8060799,7.370844,32.754128,-6.9299097,4.26871e-06,-1.8162982e-05,1.386826e-05,0.00040926758,-7.3671354e-06,-0.00096693536,0.19770794,-0.01819401,0.4875169,0.012437477,-0.008467837,0.0015126994,0.0,0.0,2.916308e-05,5.5570813e-06,5.557776e-06,4.909451e-05,0.011033336,0.01106466,0.01460333,0.07674718,0.07666025,0.18268283,1.0470215e-11,1.0757007e-11,3.113778e-11,5.0000036e-08,5.0000036e-08,5.0000143e-08,0.0,0.0,0.0,0.0,0.0,0.0,0.0,0.0,24
887036000,886956000,0.7893134,0.004612768,0.003815884,-0.6139614,-0.025948044,0.012033481,0.7551753,7.372341,32.751953,-6.1542354,4.175753e-06,-1.8076535e-05,1.3835205e-05,0.00040973662,-6.7291116e-06,-0.0009679073,0.19770794,-0.01819401,0.4875169,0.012437477,-0.008467837,0.0015126994,0.0,0.0,2.9518082e-05,5.466683e-06,5.4794937e-06,4.9520466e-05,0.010602707,0.010655784,0.0143495025,0.07463427,0.07457575,0.18104526,1.0410894e-11,1.0656711e-11,3.0967878e-11,5.0000185e-08,5.0000168e-08,5.000015e-08,0.0,0.0,0.0,0.0,0.0,0.0,0.0,0.0,24
888044000,887964000,0.78949815,0.004627198,0.0054507023,-0.61371136,-0.030179294,0.007922589,0.72467166,7.3564796,32.755695,-5.4093823,4.1414733e-06,-1.8034425e-05,1.3733599e-05,0.00040967995,-6.17418e-06,-0.0009689324,0.19770794,-0.01819401,0.4875169,0.012437477,-0.008467837,0.0015126994,0.0,0.0,2.9692103e-05,5.4697616e-06,5.4899724e-06,4.9653765e-05,0.010689914,0.010752702,0.014351941,0.07441581,0.07437962,0.18088025,1.04126005e-11,1.0620566e-11,3.0699082e-11,5.000007e-08,5.000007e-08,5.0000146e-08,0.0,0.0,0.0,0.0,0.0,0.0,0.0,0.0,24
889044000,888964000,0.78937715,0.0056707603,0.004823112,-0.61386347,-0.015748926,0.005621703,0.6886003,7.32923,32.764942,-4.70915,4.150573e-06,-1.8037239e-05,1.3706302e-05,0.00040960388,-5.9959743e-06,-0.0009708548,0.19770794,-0.01819401,0.4875169,0.012437477,-0.008467837,0.0015126994,0.0,0.0,2.9963794e-05,5.362116e-06,5.384117e-06,4.9888262e-05,0.010162818,0.010221327,0.0140943015,0.07234174,0.07232303,0.17973155,1.033927e-11,1.050935e-11,3.0465908e-11,5.0000036e-08,5.0000036e-08,5.000007e-08,0.0,0.0,0.0,0.0,0.0,0.0,0.0,0.0,24
890044000,889964000,0.7892805,0.0051678577,0.0027390504,-0.61400515,-0.007748697,-0.0071897916,0.7039743,7.3205023,32.780285,-4.0327587,4.117509e-06,-1.8089366e-05,1.3687653e-05,0.00040906182,-6.3850543e-06,-0.0009621494,0.19770794,-0.01819401,0.4875169,0.012437477,-0.008467837,0.0015126994,0.0,0.0,3.0240439e-05,5.32794e-06,5.3430476e-06,5.0137234e-05,0.0099302,0.009978257,0.013951764,0.071049646,0.071043596,0.17909697,1.0311716e-11,1.045142e-11,3.0231918e-11,5e-08,5e-08,5.0000146e-08,0.0,0.0,0.0,0.0,0.0,0.0,0.0,0.0,24
891044000,890964000,0.78934735,0.006564971,0.0017577978,-0.6139093,-0.006026189,-0.024499021,0.7106033,7.313249,32.786606,-3.342193,4.0940513e-06,-1.8188164e-05,1.3597334e-05,0.0004080086,-6.6189064e-06,-0.00095346087,0.19770794,-0.01819401,0.4875169,0.012437477,-0.008467837,0.0015126994,0.0,0.0,3.0515625e-05,5.549357e-06,5.5677147e-06,5.0430197e-05,0.011511305,0.011559822,0.014936331,0.07958227,0.07959733,0.18413368,1.0441645e-11,1.0562521e-11,3.0004346e-11,5.000004e-08,5.000004e-08,5.000015e-08,0.0,0.0,0.0,0.0,0.0,0.0,0.0,0.0,24
892036000,891956000,0.7892892,0.0065003284,0.002054504,-0.6139839,-0.0001962077,-0.0307613,0.7022614,7.318249,32.795113,-2.6391048,4.0012783e-06,-1.8337401e-05,1.3518477e-05,0.00040673092,-6.0794077e-06,-0.00095303205,0.19770794,-0.01819401,0.4875169,0.012437477,-0.008467837,0.0015126994,0.0,0.0,3.088747e-05,5.452044e-06,5.4717993e-06,5.084982e-05,0.010968563,0.011001785,0.01460941,0.07698707,0.07700247,0.18219699,1.0377897e-11,1.04764695e-11,2.9818665e-11,5.0000292e-08,5.0000143e-08,5e-08,0.0,0.0,0.0,0.0,0.0,0.0,0.0,0.0,24
893044000,892964000,0.7892487,0.0039844527,0.0012739291,-0.61405945,-0.0024524517,-0.03125421,0.6953821,7.3315706,32.815353,-1.9662099,3.861348e-06,-1.8569252e-05,1.3419818e-05,0.00040475096,-5.9438003e-06,-0.00093783595,0.19770794,-0.01819401,0.4875169,0.012437477,-0.008467837,0.0015126994,0.0,0.0,3.106568e-05,5.2367272e-06,5.2497153e-06,5.0939823e-05,0.009466815,0.009484432,0.013535673,0.06795179,0.06796003,0.17635782,1.024214e-11,1.03204546e-11,2.9537213e-11,5.000004e-08,5.000004e-08,5.0000075e-08,0.0,0.0,0.0,0.0,0.0,0.0,0.0,0.0,24
894036000,893956000,0.7892458,0.004812216,0.00093494117,-0.61405796,-0.011000543,-0.04554627,0.71044046,7.334547,32.805576,-1.2848874,3.7648256e-06,-1.8714098e-05,1.3367812e-05,0.0004036168,-5.8040414e-06,-0.00092790724,0.19770794,-0.01819401,0.4875169,0.012437477,-0.008467837,0.0015126994,0.0,0.0,3.141478e-05,5.3552926e-06,5.370697e-06,5.1373077e-05,0.010444651,0.010459441,0.014261202,0.0741162,0.07412925,0.17989418,1.0308567e-11,1.0375913e-11,2.9356968e-11,5.0000107e-08,5e-08,5e-08,0.0,0.0,0.0,0.0,0.0,0.0,0.0,0.0,24
895044000,894964000,0.7892326,0.006346232,0.0017516715,-0.6140591,-0.017753785,-0.042502604,0.70973504,7.351334,32.795826,-0.59331787,3.567361e-06,-1.8846304e-05,1.3255809e-05,0.0004023455,-5.0610615e-06,-0.00091571966,0.19770794,-0.01819401,0.4875169,0.012437477,-0.008467837,0.0015126994,0.0,0.0,3.1674197e-05,5.312827e-06,5.333126e-06,5.1634895e-05,0.010211948,0.010222246,0.014190222,0.0728222,0.072832845,0.18180867,1.0279644e-11,1.0335921e-11,2.9130483e-11,5.0000185e-08,5.0000185e-08,5.0000185e-08,0.0,0.0,0.0,0.0,0.0,0.0,0.0,0.0,24
896044000,895964000,0.78927356,0.003008699,0.002763358,-0.6140282,-0.025797294,-0.037419263,0.709308,7.373672,32.79424,0.08141394,3.2918113e-06,-1.896137e-05,1.31561865e-05,0.00040118222,-3.9977103e-06,-0.0008984558,0.19770794,-0.01819401,0.4875169,0.012437477,-0.008467837,0.0015126994,0.0,0.0,3.1901374e-05,5.321108e-06,5.336252e-06,5.186107e-05,0.010265136,0.010273096,0.014142635,0.07238191,0.07239093,0.1808447,1.0283135e-11,1.033115e-11,2.889942e-11,5.0000185e-08,5.0000185e-08,5.0000185e-08,0.0,0.0,0.0,0.0,0.0,0.0,0.0,0.0,24
897036000,896956000,0.7931779,0.0031895577,0.0013845606,-0.60898,-0.021586454,-0.021837465,0.04346854,7.3815484,32.79764,0.093829736,3.1192235e-06,-1.9055353e-05,1.3019877e-05,0.0004018302,-5.267216e-06,-0.0008976373,0.19770794,-0.01819401,0.4875169,0.012437477,-0.008467837,0.0015126994,0.0,0.0,3.1583924e-05,4.8817387e-06,4.8934603e-06,5.2543237e-05,0.010540528,0.010553953,0.010844018,0.07027319,0.07027912,0.17856973,1.0181296e-11,1.0219006e-11,2.8662895e-11,5e-08,5e-08,5e-08,0.0,0.0,0.0,0.0,0.0,0.0,0.0,0.0,24
898044000,897964000,0.7931889,0.0034369198,0.00081832707,-0.6089656,-0.01831789,-0.020157915,0.059772067,7.3834834,32.801983,0.12313815,2.9651956e-06,-1.9163852e-05,1.2846193e-05,0.0004064448,-1.2410572e-05,-0.0008903361,0.19770794,-0.01819401,0.4875169,0.012437477,-0.008467837,0.0015126994,0.0,0.0,3.179482e-05,4.378181e-06,4.387617e-06,5.2718806e-05,0.0113268215,0.011338044,0.009847794,0.06945727,0.06946347,0.17580758,1.0183359e-11,1.0211898e-11,2.843576e-11,5.000011e-08,5.000011e-08,5.0000036e-08,0.0,0.0,0.0,0.0,0.0,0.0,0.0,0.0,24
899036000,898956000,0.7935503,0.0043690125,0.00073103065,-0.6084886,0.00013063214,-0.00024347124,-0.00044572403,7.397879,32.81831,-0.0137587795,2.6579698e-06,-1.9437473e-05,1.2669058e-05,0.00043433826,-4.294486e-05,-0.0007712343,0.19770794,-0.01819401,0.4875169,0.012437477,-0.008467837,0.0015126994,0.0,0.0,3.1905496e-05,2.3816513e-06,2.3871887e-06,5.2852167e-05,3.318881e-05,3.318898e-05,3.3203483e-05,0.04217811,0.042174518,0.09280601,9.6871434e-12,9.6996e-12,2.8200263e-11,5.0000114e-08,5.0000114e-08,5.0000136e-08,0.0,0.0,0.0,0.0,0.0,0.0,0.0,0.0,24
900044000,899964000,0.7936138,0.0038691058,0.0005460119,-0.60840935,5.8755936e-06,-8.238161e-06,2.1142303e-05,7.3981595,32.818027,-0.00063889794,2.6669147e-06,-1.9449159e-05,1.2490617e-05,6.527797e-05,-7.350561e-05,0.00013614849,0.19770794,-0.01819401,0.4875169,0.012437477,-0.008467837,0.0015126994,0.0,0.0,3.2076205e-05,2.9139653e-06,2.9191035e-06,5.2995456e-05,1e-06,1e-06,1e-06,0.035853297,0.03585065,0.08194804,1.0124726e-11,1.0136211e-11,2.7976644e-11,1.3404464e-07,1.3397656e-07,7.301382e-08,0.0,0.0,0.0,0.0,0.0,0.0,0.0,0.0,24
