timestamp,timestamp_sample,ref_timestamp,ref_lat,ref_lon,x,y,z,delta_xy[0],delta_xy[1],delta_z,vx,vy,vz,z_deriv,delta_vxy[0],delta_vxy[1],delta_vz,ax,ay,az,heading,delta_heading,ref_alt,dist_bottom,eph,epv,evh,evv,vxy_max,vz_max,hagl_min,hagl_max,xy_valid,z_valid,v_xy_valid,v_z_valid,xy_reset_counter,z_reset_counter,vxy_reset_counter,vz_reset_counter,heading_reset_counter,heading_good_for_control,xy_global,z_global,dist_bottom_valid,dist_bottom_sensor_bitfield
829676000,829676000,1032000,41.606704,-86.3556021,-0.4485724,-1.1158967,0.12647887,0.00041378726,0.0001574235,0.0,-0.003182147,-0.0018013115,0.00027697702,-0.00063995016,-0.00029013876,-0.012453784,-0.017066125,-0.0486561,-0.052049287,0.08233071,-1.1138442,-0.013918355,229.4058,0.10011174,0.05606899,0.060083732,0.008108907,0.005762195,inf,inf,inf,inf,1,1,1,1,2,0,2,1,4,0,1,1,1,0
830180000,830180000,1032000,41.606704,-86.3556021,-0.44765347,-1.1168057,0.12703036,0.00041378726,0.0001574235,0.0,0.0015372098,-0.00483702,0.004178119,0.003367614,-0.00029013876,-0.012453784,-0.017066125,-0.055916704,0.0017149352,0.4616826,-1.1137279,-0.013918355,229.4058,0.1,0.056018226,0.06002185,0.015853366,0.011401681,inf,inf,inf,inf,1,1,1,1,2,0,2,1,4,0,1,1,1,0
830676000,830676000,1032000,41.606704,-86.3556021,-0.44793528,-1.1162428,0.12683198,0.00041378726,0.0001574235,0.0,-2.882182e-05,-0.0032569517,0.0006246553,3.903522e-06,-0.00029013876,-0.012453784,-0.017066125,-0.037382524,-0.0015079617,0.09042576,-1.1136372,-0.013918355,229.4058,0.10037464,0.05595204,0.059982993,0.020807788,0.015110601,inf,inf,inf,inf,1,1,1,1,2,0,2,1,4,0,1,1,1,0
831172000,831172000,1032000,41.606704,-86.3556021,-0.44685212,-1.1169255,0.12608,0.00041378726,0.0001574235,0.0,0.003753758,-0.003728071,-0.0013161199,-0.002009601,-0.00029013876,-0.012453784,-0.017066125,-0.005333588,0.047249638,0.04866061,-1.1135179,-0.013918355,229.4058,0.10012731,0.055904787,0.059909627,0.012176469,0.0087007405,inf,inf,inf,inf,1,1,1,1,2,0,2,1,4,0,1,1,1,0
831676000,831676000,1032000,41.606704,-86.3556021,-0.44635898,-1.1172023,0.12582552,0.00041378726,0.0001574235,0.0,0.0038340879,-0.004907207,0.0002401629,7.456688e-05,-0.00029013876,-0.012453784,-0.017066125,0.029940872,-0.04068081,0.055827133,-1.1132393,-0.013918355,229.4058,0.10030678,0.05586696,0.05985448,0.018454118,0.013339148,inf,inf,inf,inf,1,1,1,1,2,0,2,1,4,0,1,1,1,0
832180000,832180000,1032000,41.606704,-86.3556021,-0.4473899,-1.1161994,0.12551084,0.00041378726,0.0001574235,0.0,-0.0018435697,-0.00034135176,-0.002608341,-0.002165795,-0.00029013876,-0.012453784,-0.017066125,-0.023155704,0.040727936,-0.5546911,-1.1130329,-0.013918355,229.4058,0.100559294,0.055798378,0.05979248,0.00905663,0.0064422856,inf,inf,inf,inf,1,1,1,1,2,0,2,1,4,0,1,1,1,0
832676000,832676000,1032000,41.606704,-86.3556021,-0.44834608,-1.1158016,0.123953305,0.00041378726,0.0001574235,0.0,-0.0029212856,-0.0024317726,-0.0044594994,-0.0031206782,-0.00029013876,-0.012453784,-0.017066125,-0.059212226,0.051509123,-0.010933789,-1.112926,-0.013918355,229.4058,0.10200251,0.055748876,0.059731748,0.015852531,0.011401042,inf,inf,inf,inf,1,1,1,1,2,0,2,1,4,0,1,1,1,0
833172000,833172000,1032000,41.606704,-86.3556021,-0.44812444,-1.1151369,0.12562594,0.00041378726,0.0001574235,0.0,-0.00069354946,0.0035605836,-0.0008497045,0.0009960694,-0.00029013876,-0.012453784,-0.017066125,0.11219714,0.02253889,-0.057408646,-1.1124344,-0.013918355,229.4058,0.10072434,0.055728097,0.05969407,0.02082105,0.015114959,inf,inf,inf,inf,1,1,1,1,2,0,2,1,4,0,1,1,1,0
833676000,833676000,1032000,41.606704,-86.3556021,-0.4473135,-1.1130373,0.12665506,0.00041378726,0.0001574235,0.0,0.0006932597,0.0067373496,0.00089522166,0.0022874123,-0.00029013876,-0.012453784,-0.017066125,0.03609207,0.019022923,-0.008487205,-1.1126628,-0.013918355,229.4058,0.1,0.05563899,0.059613418,0.012848748,0.009192502,inf,inf,inf,inf,1,1,1,1,2,0,2,1,4,0,1,1,1,0
834172000,834172000,1032000,41.606704,-86.3556021,-0.44648618,-1.1145836,0.12632309,0.00041378726,0.0001574235,0.0,0.0022111824,0.00055104156,-0.0012250958,-0.00018758581,-0.00029013876,-0.012453784,-0.017066125,-0.035305955,0.026207702,0.030548248,-1.1122594,-0.013918355,229.4058,0.10036059,0.05564486,0.059567787,0.01846213,0.013341303,inf,inf,inf,inf,1,1,1,1,2,0,2,1,4,0,1,1,1,0
834676000,834676000,1032000,41.606704,-86.3556021,-0.44649845,-1.1155511,0.12665968,0.00041378726,0.0001574235,0.0,0.002422517,0.00095719984,0.0009866436,0.0021921766,-0.00029013876,-0.012453784,-0.017066125,0.032275975,0.02127922,-0.20238762,-1.1121751,-0.013918355,229.4058,0.10005306,0.05553455,0.05950681,0.009055494,0.006442291,inf,inf,inf,inf,1,1,1,1,2,0,2,1,4,0,1,1,1,0
835180000,835180000,1032000,41.606704,-86.3556021,-0.44651756,-1.1155097,0.127183,0.00041378726,0.0001574235,0.0,0.004062523,0.0026133147,-0.0007361886,-0.00013660667,-0.00029013876,-0.012453784,-0.017066125,-0.039579496,0.065759316,0.029413896,-1.1122019,-0.013918355,229.4058,0.1,0.05553131,0.05944835,0.016400812,0.011806642,inf,inf,inf,inf,1,1,1,1,2,0,2,1,4,0,1,1,1,0
835676000,835676000,1032000,41.606704,-86.3556021,-0.44613323,-1.1158501,0.12825073,0.00041378726,0.0001574235,0.0,0.0049050543,-0.0009580484,0.0020487616,0.0021427989,-0.00029013876,-0.012453784,-0.017066125,-0.02672682,0.03893894,-0.045226015,-1.1118969,-0.013918355,229.4058,0.1,0.055433255,0.059393495,0.0014142136,0.001,inf,inf,inf,inf,1,1,1,1,2,0,2,1,4,0,1,1,1,0
836180000,836180000,1032000,41.606704,-86.3556021,-0.44693205,-1.1157886,0.12794776,0.00041378726,0.0001574235,0.0,0.0032341804,-0.00045599273,-0.0012656526,-0.0014168865,-0.00029013876,-0.012453784,-0.017066125,0.021220498,0.0831975,0.07409223,-1.1120272,-0.013918355,229.4058,0.1,0.055422574,0.05933166,0.013495477,0.009664445,inf,inf,inf,inf,1,1,1,1,2,0,2,1,4,0,1,1,1,0
836676000,836676000,1032000,41.606704,-86.3556021,-0.44650915,-1.1166381,0.12635213,0.00041378726,0.0001574235,0.0,0.0033237403,-0.0056224316,-0.0012408734,-0.001439819,-0.00029013876,-0.012453784,-0.017066125,0.040251315,0.06710999,-0.08880167,-1.1109997,-0.013918355,229.4058,0.10134229,0.056712545,0.059982006,0.038663484,0.028935716,inf,inf,inf,inf,1,1,1,1,2,0,2,1,4,0,1,1,1,0
837180000,837180000,1032000,41.606704,-86.3556021,-0.44557184,-1.1219093,0.11304203,0.00041378726,0.0001574235,0.0,-0.014308588,-0.029716672,-0.1744471,-0.17453568,-0.00029013876,-0.012453784,-0.017066125,0.09283812,0.0008693719,-1.6180454,-1.1071529,-0.013918355,229.4058,0.114652395,0.06489297,0.06462994,0.058410212,0.044327907,inf,inf,inf,inf,1,1,1,1,2,0,2,1,4,0,1,1,1,0
837676000,837676000,1032000,41.606704,-86.3556021,-0.45308322,-1.1325202,-0.21210156,0.00041378726,0.0001574235,0.0,-0.018925387,-0.012891174,-1.1566647,-1.1562442,-0.00029013876,-0.012453784,-0.017066125,0.109491214,0.07708555,-2.083186,-1.1083438,-0.013918355,229.4058,0.43979597,0.08421842,0.076772474,0.078999534,0.05823386,inf,inf,inf,inf,1,1,1,1,2,0,2,1,4,0,1,1,1,0
838172000,838172000,1032000,41.606704,-86.3556021,-0.45961234,-1.1383952,-0.9240662,0.00041378726,0.0001574235,0.0,-0.0013166178,-0.014818643,-1.3426455,-1.3407787,-0.00029013876,-0.012453784,-0.017066125,-0.050146997,-0.1077525,1.234358,-1.1085453,-0.013918355,229.4058,1.1517606,0.11441943,0.097493224,0.09675535,0.07105463,inf,inf,inf,inf,1,1,1,1,2,0,2,1,4,0,1,1,1,0
838676000,838676000,1032000,41.606704,-86.3556021,-0.4622329,-1.1452872,-1.4555663,0.00041378726,0.0001574235,0.0,0.012332609,-0.010948909,-0.8043375,-0.8050339,-0.00029013876,-0.012453784,-0.017066125,0.006091211,0.043446023,0.575358,-1.0731063,0.039551754,229.4058,1.6832607,0.15150197,0.12585157,0.1066612,0.0829291,inf,inf,inf,inf,1,1,1,1,2,0,2,1,5,0,1,1,1,0
839180000,839180000,1032000,41.606704,-86.3556021,-0.4596791,-1.1468866,-1.7762337,0.00041378726,0.0001574235,0.0,0.01793844,-0.0026979041,-0.4792917,-0.48255748,-0.00029013876,-0.012453784,-0.017066125,-0.006309148,-0.052169293,0.5139773,-1.0845925,0.039551754,229.4058,2.0039282,0.19364753,0.16141503,0.119475186,0.09487393,inf,inf,inf,inf,1,1,1,1,2,0,2,1,5,0,1,1,1,0
839676000,839676000,1032000,41.606704,-86.3556021,-0.46225515,-1.14388,-1.965266,0.00041378726,0.0001574235,0.0,0.01640636,0.0030728444,-0.30358234,-0.30478153,-0.00029013876,-0.012453784,-0.017066125,-0.06516019,-0.026092293,0.21082808,-1.0893643,0.039551754,229.4058,2.1929605,0.21890543,0.19257274,0.13043411,0.10046439,inf,inf,inf,inf,1,1,1,1,2,0,2,1,5,1,1,1,1,0
840172000,840172000,1032000,41.606704,-86.3556021,-0.46828482,-1.1409659,-2.0867653,0.00041378726,0.0001574235,0.0,0.019119529,0.002070321,-0.20217462,-0.20206162,-0.00029013876,-0.012453784,-0.017066125,0.015402645,-0.019650701,0.15241367,-1.0923295,0.039551754,229.4058,2.3144598,0.26054406,0.2320072,0.1578708,0.10956452,inf,inf,inf,inf,1,1,1,1,2,0,2,1,5,1,1,1,1,0
840676000,840676000,1032000,41.606704,-86.3556021,-0.47762677,-1.138366,-2.0812628,0.00041378726,0.0001574235,0.0,-0.006879663,-0.008589582,0.10544991,0.101503305,-0.00029013876,-0.012453784,-0.017066125,0.039434873,0.09517935,-0.115727134,-1.0934316,0.039551754,229.4058,2.3089573,0.2748928,0.2588393,0.157647,0.11062854,inf,inf,inf,inf,1,1,1,1,2,0,2,1,5,1,1,1,1,0
841172000,841172000,1032000,41.606704,-86.3556021,-0.49964738,-1.1080562,-2.094756,0.00041378726,0.0001574235,0.0,-0.009876462,0.1272449,-0.18664727,-0.19105837,-0.00029013876,-0.012453784,-0.017066125,0.007863457,0.5481818,-0.8696504,-1.0811105,0.039551754,229.4058,2.3224504,0.29846352,0.28852138,0.16652721,0.113647036,inf,inf,inf,inf,1,1,1,1,2,0,2,1,5,1,1,1,0,0
841676000,841676000,1032000,41.606704,-86.3556021,-0.5033702,-0.9260354,-2.263433,0.00041378726,0.0001574235,0.0,0.0020560876,0.65249276,-0.48835623,-0.48522863,-0.00029013876,-0.012453784,-0.017066125,-0.049494997,1.4887246,-0.59710354,-1.0629139,0.039551754,229.4058,2.4911275,0.33931455,0.32400966,0.18580595,0.11918,inf,inf,inf,inf,1,1,1,1,2,0,2,1,5,1,1,1,0,0
842180000,842180000,1032000,41.606704,-86.3556021,-0.47166374,-0.4289709,-2.5375607,0.00041378726,0.0001574235,0.0,0.008207291,1.4064387,-0.670368,-0.6493939,-0.00029013876,-0.012453784,-0.017066125,-0.08039903,1.4470505,-0.39266425,-1.0636039,0.039551754,229.4058,2.7652552,0.35211787,0.3453239,0.18247505,0.11895152,inf,inf,inf,inf,1,1,1,1,2,0,2,1,5,1,1,1,0,0
842676000,842676000,1032000,41.606704,-86.3556021,-0.4123736,0.4006922,-2.8697028,0.00041378726,0.0001574235,0.0,-0.025324412,1.987463,-0.748732,-0.7178434,-0.00029013876,-0.012453784,-0.017066125,-0.19485575,0.8639185,-0.10031933,-1.071086,0.039551754,229.4058,3.0973973,0.3629391,0.36407015,0.17920412,0.118737094,inf,inf,inf,inf,1,1,1,1,2,0,2,1,5,1,1,1,0,0
843180000,843180000,1032000,41.606704,-86.3556021,-0.3646721,1.4937487,-3.2205532,0.00041378726,0.0001574235,0.0,-0.07168794,2.3221593,-0.7569191,-0.71499324,-0.00029013876,-0.012453784,-0.017066125,-0.1467806,0.39401752,0.013958599,-1.0818917,0.039551754,229.4058,3.4482477,0.37017736,0.37785158,0.17184916,0.117717445,inf,inf,inf,inf,1,1,1,1,2,0,2,1,5,1,1,1,0,0
843676000,843676000,1032000,41.606704,-86.3556021,-0.3211689,2.69784,-3.536724,0.00041378726,0.0001574235,0.0,-0.12155795,2.4514005,-0.7606269,-0.69280934,-0.00029013876,-0.012453784,-0.017066125,-0.20076425,0.1122585,-0.071069285,-1.0861896,0.039551754,229.4058,3.7644186,0.35343057,0.37932613,0.1526366,0.11320095,inf,inf,inf,inf,1,1,1,1,2,0,2,1,5,1,1,1,0,0
844172000,844172000,1032000,41.606704,-86.3556021,-0.34066242,3.9448698,-3.883552,0.00041378726,0.0001574235,0.0,-0.16512455,2.504531,-0.7539003,-0.69117683,-0.00029013876,-0.012453784,-0.017066125,0.10575766,0.10518883,-0.12879172,-1.0925446,0.039551754,229.4058,4.1112466,0.38098428,0.39837056,0.16030683,0.11668176,inf,inf,inf,inf,1,1,1,1,2,0,2,1,5,1,1,1,0,0
844676000,844676000,1032000,41.606704,-86.3556021,-0.39138764,5.2247844,-4.2279677,0.00041378726,0.0001574235,0.0,-0.14904732,2.519401,-0.7407924,-0.6762471,-0.00029013876,-0.012453784,-0.017066125,0.064627185,-0.06333788,0.008455414,-1.0998113,0.039551754,229.4058,4.4556623,0.38099757,0.40658838,0.15339416,0.11614578,inf,inf,inf,inf,1,1,1,1,2,0,2,1,5,1,1,1,0,0
845172000,845172000,1032000,41.606704,-86.3556021,-0.4248616,6.485795,-4.5284867,0.00041378726,0.0001574235,0.0,-0.12610358,2.5126185,-0.7697403,-0.6746714,-0.00029013876,-0.012453784,-0.017066125,-0.07981095,0.02833577,-0.1461171,-1.110884,0.039551754,229.4058,4.7561812,0.3816213,0.41005534,0.149933,0.11546695,inf,inf,inf,inf,1,1,1,1,2,0,2,1,5,1,1,1,0,0
845676000,845676000,1032000,41.606704,-86.3556021,-0.47816527,7.7670083,-4.863094,0.00041378726,0.0001574235,0.0,-0.11066698,2.5309696,-0.8101321,-0.70155585,-0.00029013876,-0.012453784,-0.017066125,0.1156903,-0.032740206,-0.06742409,-1.1162102,0.039551754,229.4058,5.0907884,0.381346,0.41553813,0.14708044,0.11542232,inf,inf,inf,inf,1,1,1,1,2,0,2,1,5,1,1,1,0,0
846180000,846180000,1032000,41.606704,-86.3556021,-0.5351226,9.046925,-5.1943665,0.00041378726,0.0001574235,0.0,-0.07163198,2.523374,-0.8272124,-0.7007345,-0.00029013876,-0.012453784,-0.017066125,0.06428993,0.08300489,-0.25751072,-1.1266829,0.039551754,229.4058,5.422061,0.3824368,0.417267,0.14657228,0.11537277,inf,inf,inf,inf,1,1,1,1,2,0,2,1,5,1,1,1,0,0
846676000,846676000,1032000,41.606704,-86.3556021,-0.5761453,10.290997,-5.5308256,0.00041378726,0.0001574235,0.0,-0.033509552,2.5015829,-0.85097337,-0.715914,-0.00029013876,-0.012453784,-0.017066125,-0.029991986,0.33156097,-1.274745,-1.1352258,0.039551754,229.4058,5.75852,0.38233173,0.42040953,0.1460315,0.11566811,inf,inf,inf,inf,1,1,1,1,2,0,2,1,5,1,1,1,0,0
847180000,847180000,1032000,41.606704,-86.3556021,-0.6074979,11.541381,-5.8947062,0.00041378726,0.0001574235,0.0,-0.011017386,2.497754,-0.84754646,-0.71896887,-0.00029013876,-0.012453784,-0.017066125,-0.0038601425,-0.06944941,-0.024724813,-1.1423352,0.039551754,229.4058,6.1224008,0.4048342,0.42761016,0.1550425,0.11917429,inf,inf,inf,inf,1,1,1,1,2,0,2,1,5,1,1,1,0,0
847676000,847676000,1032000,41.606704,-86.3556021,-0.63185877,12.768141,-6.2159777,0.00041378726,0.0001574235,0.0,0.011936699,2.4989307,-0.8652329,-0.7092701,-0.00029013876,-0.012453784,-0.017066125,0.15585397,0.10536242,-0.13801368,-1.1555165,0.039551754,229.4058,6.443672,0.37795693,0.42213696,0.14235432,0.115232766,inf,inf,inf,inf,1,1,1,1,2,0,2,1,5,1,1,1,0,0
848172000,848172000,1032000,41.606704,-86.3556021,-0.6357628,14.004307,-6.5770507,0.00041378726,0.0001574235,0.0,0.027679652,2.5118241,-0.8811876,-0.7302452,-0.00029013876,-0.012453784,-0.017066125,-0.006210022,-0.03306965,-0.060302265,-1.1591836,0.039551754,229.4058,6.804745,0.39901948,0.42746025,0.15199894,0.11873051,inf,inf,inf,inf,1,1,1,1,2,0,2,1,5,1,1,1,0,0
848676000,848676000,1032000,41.606704,-86.3556021,-0.6470765,15.258573,-6.93278,0.00041378726,0.0001574235,0.0,0.029377269,2.5091145,-0.8886632,-0.7310384,-0.00029013876,-0.012453784,-0.017066125,-0.027670482,-0.05173878,0.13640796,-1.1720006,0.039551754,229.4058,7.1604743,0.37524736,0.422565,0.14157924,0.11512977,inf,inf,inf,inf,1,1,1,1,2,0,2,1,5,1,1,1,0,0
849172000,849172000,1032000,41.606704,-86.3556021,-0.6428437,16.500053,-7.3097386,0.00041378726,0.0001574235,0.0,0.035665452,2.519923,-0.8802432,-0.73912996,-0.00029013876,-0.012453784,-0.017066125,-0.03007602,-0.013786031,0.09788845,-1.1802661,0.039551754,229.4058,7.537433,0.39771512,0.4274314,0.15294434,0.1189842,inf,inf,inf,inf,1,1,1,1,2,0,2,1,5,1,1,1,0,0
849676000,849676000,1032000,41.606704,-86.3556021,-0.6376733,17.762861,-7.701345,0.00041378726,0.0001574235,0.0,0.019289197,2.5011263,-0.8487566,-0.730665,-0.00029013876,-0.012453784,-0.017066125,-0.011569325,-0.06910382,0.11126876,-1.1906258,0.039551754,229.4058,7.9290395,0.39487016,0.42875835,0.15111688,0.11883993,inf,inf,inf,inf,1,1,1,1,2,0,2,1,5,1,1,1,0,0
850180000,850180000,1032000,41.606704,-86.3556021,-0.6399328,19.01289,-8.064525,0.00041378726,0.0001574235,0.0,0.016123582,2.4876807,-0.8347828,-0.7179097,-0.00029013876,-0.012453784,-0.017066125,-0.06160416,-0.01351223,-0.037140273,-1.1973374,0.039551754,229.4058,8.292219,0.3924405,0.42671865,0.1499908,0.11825606,inf,inf,inf,inf,1,1,1,1,2,0,2,1,5,1,1,1,0,0
850676000,850676000,1032000,41.606704,-86.3556021,-0.64324695,20.216967,-8.377069,0.00041378726,0.0001574235,0.0,0.013882165,2.2754917,-0.4274928,-0.31893277,-0.00029013876,-0.012453784,-0.017066125,0.096315615,-1.1382664,1.5073491,-1.2219191,0.039551754,229.4058,8.604764,0.38991448,0.42728433,0.14838395,0.117982276,inf,inf,inf,inf,1,1,1,1,2,0,2,1,5,1,1,1,0,0
851172000,851172000,1032000,41.606704,-86.3556021,-0.64837205,21.154352,-8.387753,0.00041378726,0.0001574235,0.0,0.01181143,1.3251711,0.18094094,0.2788378,-0.00029013876,-0.012453784,-0.017066125,0.015286407,-2.5369532,1.0989223,-1.2071397,0.039551754,229.4058,8.615447,0.3879777,0.42477986,0.14864859,0.1173435,inf,inf,inf,inf,1,1,1,1,2,0,2,1,5,1,1,1,0,0
851676000,851676000,1032000,41.606704,-86.3556021,-0.69302577,21.537062,-8.155532,0.00041378726,0.0001574235,0.0,0.007306113,0.038746383,0.5896741,0.67003083,-0.00029013876,-0.012453784,-0.017066125,0.14343584,-2.4392824,0.6562377,-1.1960628,0.039551754,229.4058,8.383226,0.38857198,0.42629027,0.15511295,0.117205665,inf,inf,inf,inf,1,1,1,1,2,0,2,1,5,1,1,1,0,0
852172000,852172000,1032000,41.606704,-86.3556021,-0.7504944,21.33857,-7.819734,0.00041378726,0.0001574235,0.0,0.02428403,-0.85708904,0.59888697,0.6561762,-0.00029013876,-0.012453784,-0.017066125,-0.063362405,-1.0056695,0.8420757,-1.2041436,0.039551754,229.4058,8.047428,0.41215327,0.43023163,0.17040704,0.12011527,inf,inf,inf,inf,1,1,1,1,2,0,2,1,5,1,1,1,0,0
852676000,852676000,1032000,41.606704,-86.3556021,-0.88010746,20.803125,-7.534836,0.00041378726,0.0001574235,0.0,0.04275282,-1.1480726,0.6040238,0.64174414,-0.00029013876,-0.012453784,-0.017066125,0.38751048,0.009199572,0.38333973,-1.2077572,0.039551754,229.4058,7.7625303,0.38307223,0.42471093,0.15177622,0.11581628,inf,inf,inf,inf,1,1,1,1,2,0,2,1,5,1,1,1,0,0
853180000,853180000,1032000,41.606704,-86.3556021,-0.9480672,20.239944,-7.2037344,0.00041378726,0.0001574235,0.0,0.16127026,-0.88682777,0.71563363,0.7334054,-0.00029013876,-0.012453784,-0.017066125,0.26804253,0.77702045,0.06659881,-1.1952809,0.039551754,229.4058,7.431429,0.40671977,0.4289903,0.15883368,0.119956456,inf,inf,inf,inf,1,1,1,1,2,0,2,1,5,1,1,1,0,0
853676000,853676000,1032000,41.606704,-86.3556021,-0.9205447,19.807428,-6.8965173,0.00041378726,0.0001574235,0.0,0.22977044,-0.6629666,0.70033544,0.6800065,-0.00029013876,-0.012453784,-0.017066125,0.13118,0.36439648,0.071848676,-1.1937441,0.039551754,229.4058,7.124212,0.37979725,0.42324376,0.1444383,0.116373576,inf,inf,inf,inf,1,1,1,1,2,0,2,1,5,1,1,1,0,0
854172000,854172000,1032000,41.606704,-86.3556021,-0.82915044,19.480787,-6.5779,0.00041378726,0.0001574235,0.0,0.22780748,-0.44596398,0.8023021,0.7495977,-0.00029013876,-0.012453784,-0.017066125,-0.10146239,0.490443,0.16216554,-1.1923068,0.039551754,229.4058,6.8055944,0.37953252,0.42116812,0.14483112,0.11686447,inf,inf,inf,inf,1,1,1,1,2,0,2,1,5,1,1,1,0,0
854676000,854676000,1032000,41.606704,-86.3556021,-0.7190893,19.288393,-6.2017875,0.00041378726,0.0001574235,0.0,0.16237608,-0.20238441,0.8207289,0.76500994,-0.00029013876,-0.012453784,-0.017066125,-0.19904365,0.45567468,-0.06491976,-1.1939903,0.039551754,229.4058,6.429482,0.40207607,0.425717,0.15628012,0.121200345,inf,inf,inf,inf,1,1,1,1,2,0,2,1,5,1,1,1,0,0
855180000,855180000,1032000,41.606704,-86.3556021,-0.6291573,19.200375,-5.845473,0.00041378726,0.0001574235,0.0,0.07580681,-0.0375981,0.80577374,0.73418283,-0.00029013876,-0.012453784,-0.017066125,-0.15579396,0.35134515,0.007499877,-1.1957228,0.039551754,229.4058,6.0731673,0.3982743,0.4269378,0.1546059,0.12114256,inf,inf,inf,inf,1,1,1,1,2,0,2,1,5,1,1,1,0,0
855676000,855676000,1032000,41.606704,-86.3556021,-0.5706688,19.175013,-5.507907,0.00041378726,0.0001574235,0.0,-0.005296279,0.05000939,0.8250742,0.73424274,-0.00029013876,-0.012453784,-0.017066125,-0.08965129,0.13289994,0.0503789,-1.1964295,0.039551754,229.4058,5.7356014,0.3962269,0.42775145,0.15430029,0.12117087,inf,inf,inf,inf,1,1,1,1,2,0,2,1,5,1,1,1,0,0
856172000,856172000,1032000,41.606704,-86.3556021,-0.5487138,20.017052,-6.6167145,0.00041378726,0.0001574235,0.0,-0.09610157,4.067182,-3.2432573,-3.2718284,-0.00029013876,-0.012453784,-0.017066125,-0.12055933,8.741076,-0.691914,-1.1576023,0.039551754,229.4058,6.844409,0.3935901,0.4281288,0.19293176,0.117383376,inf,inf,inf,inf,1,1,1,1,2,0,2,1,5,1,1,1,0,0
856676000,856676000,1032000,41.606704,-86.3556021,-0.3887001,22.543251,-8.372275,0.00041378726,0.0001574235,0.0,-0.038848463,6.098373,-3.5230787,-3.5747705,-0.00029013876,-0.012453784,-0.017066125,-0.5101507,1.6229646,-0.15764968,-1.2618558,0.039551754,229.4058,8.59997,0.37129948,0.42019403,0.18039985,0.10961505,inf,inf,inf,inf,1,1,1,1,2,0,2,1,5,1,1,1,0,0
857172000,857172000,1032000,41.606704,-86.3556021,-0.26477683,25.63433,-10.142346,0.00041378726,0.0001574235,0.0,-0.19905935,6.212335,-3.1922762,-3.2615287,-0.00029013876,-0.012453784,-0.017066125,-0.34826818,-1.9998708,2.794429,-1.2842417,0.039551754,229.4058,10.370041,0.3937671,0.42517117,0.1866892,0.109018415,inf,inf,inf,inf,1,1,1,1,2,0,2,1,5,1,1,1,0,0
857676000,857676000,1032000,41.606704,-86.3556021,-0.239728,28.46805,-11.376981,0.00041378726,0.0001574235,0.0,-0.21950488,4.578316,-1.4868672,-1.5749234,-0.00029013876,-0.012453784,-0.017066125,-0.17503886,-3.835059,3.016149,-1.2887045,0.039551754,229.4058,11.604675,0.3904992,0.4219873,0.16471553,0.1045027,inf,inf,inf,inf,1,1,1,1,2,0,2,1,5,1,1,1,0,0
858172000,858172000,1032000,41.606704,-86.3556021,-0.26967373,30.477734,-11.917189,0.00041378726,0.0001574235,0.0,-0.25780404,2.9530437,-0.5470471,-0.6572659,-0.00029013876,-0.012453784,-0.017066125,-0.18551019,-2.8822267,1.0982229,-1.2655619,0.039551754,229.4058,12.144883,0.3882873,0.4211384,0.16052662,0.10310568,inf,inf,inf,inf,1,1,1,1,2,0,2,1,5,1,1,1,0,0
858676000,858676000,1032000,41.606704,-86.3556021,-0.41466615,31.777643,-12.13532,0.00041378726,0.0001574235,0.0,-0.26875025,1.8187689,-0.22618102,-0.32000333,-0.00029013876,-0.012453784,-0.017066125,0.105976805,-1.9889941,0.25647405,-1.2637637,0.039551754,229.4058,12.363014,0.38592964,0.41777837,0.16247314,0.103539094,inf,inf,inf,inf,1,1,1,1,2,0,2,1,5,1,1,1,0,0
859180000,859180000,1032000,41.606704,-86.3556021,-0.5940589,32.53027,-12.207759,0.00041378726,0.0001574235,0.0,-0.11889598,0.5912386,0.17881146,0.099377505,-0.00029013876,-0.012453784,-0.017066125,0.6616176,-3.5788538,0.9186248,-1.2481744,0.039551754,229.4058,12.435453,0.38550913,0.41758323,0.16374153,0.10335053,inf,inf,inf,inf,1,1,1,1,2,0,2,1,5,1,1,1,0,0
859676000,859676000,1032000,41.606704,-86.3556021,-0.67998606,32.57792,-12.141214,0.00041378726,0.0001574235,0.0,0.0848319,-0.42364413,0.15160567,0.07844709,-0.00029013876,-0.012453784,-0.017066125,0.37689137,-0.78118664,-0.124168634,-1.2508931,0.039551754,229.4058,12.368909,0.3845338,0.4169064,0.16351636,0.099886164,inf,inf,inf,inf,1,1,1,1,2,0,2,1,5,1,1,1,0,0
860180000,860180000,1032000,41.606704,-86.3556021,-0.70397466,32.332703,-12.107956,0.00041378726,0.0001574235,0.0,0.15758261,-0.5255284,0.09784758,0.0311334,-0.00029013876,-0.012453784,-0.017066125,0.16371925,0.20012328,-0.09045663,-1.2585828,0.039551754,229.4058,12.33565,0.4071159,0.4177209,0.17316465,0.10032609,inf,inf,inf,inf,1,1,1,1,2,0,2,1,5,1,1,1,0,0
860676000,860676000,1032000,41.606704,-86.3556021,-0.7412148,32.09813,-12.1104145,0.00041378726,0.0001574235,0.0,0.1898685,-0.34655973,0.07174999,-0.004193952,-0.00029013876,-0.012453784,-0.017066125,0.28044337,0.5304925,-0.058731124,-1.2676926,0.039551754,229.4058,12.338109,0.37931618,0.41307545,0.15548547,0.09780813,inf,inf,inf,inf,1,1,1,1,2,0,2,1,5,1,1,1,0,0
861172000,861172000,1032000,41.606704,-86.3556021,-0.70761913,31.963379,-12.124484,0.00041378726,0.0001574235,0.0,0.2329833,-0.13429278,0.05367813,-0.029237973,-0.00029013876,-0.012453784,-0.017066125,-0.016454333,0.41863242,-0.028431477,-1.2672681,0.039551754,229.4058,12.352179,0.40085107,0.41623113,0.16700795,0.10140217,inf,inf,inf,inf,1,1,1,1,2,0,2,1,5,1,1,1,0,0
861676000,861676000,1032000,41.606704,-86.3556021,-0.65275043,31.912859,-12.162206,0.00041378726,0.0001574235,0.0,0.21147159,0.007931343,0.06665981,-0.03515262,-0.00029013876,-0.012453784,-0.017066125,0.032434635,0.1615497,-0.038867876,-1.2707033,0.039551754,229.4058,12.3899,0.37627926,0.40973425,0.15380953,0.10094695,inf,inf,inf,inf,1,1,1,1,2,0,2,1,5,1,1,1,0,0
862180000,862180000,1032000,41.606704,-86.3556021,-0.5883849,31.926424,-12.182251,0.00041378726,0.0001574235,0.0,0.16970155,0.075197846,0.074340925,-0.027832184,-0.00029013876,-0.012453784,-0.017066125,0.18193048,0.14562385,0.31001765,-1.2732788,0.039551754,229.4058,12.4099455,0.40046555,0.41127253,0.16780128,0.10641197,inf,inf,inf,inf,1,1,1,1,2,0,2,1,5,1,1,1,0,0
862676000,862676000,1032000,41.606704,-86.3556021,-0.5326905,31.960342,-12.196865,0.00041378726,0.0001574235,0.0,0.11167604,0.08561658,0.0730781,-0.028561208,-0.00029013876,-0.012453784,-0.017066125,-0.048510037,-0.009923871,0.079841286,-1.2762401,0.039551754,229.4058,12.42456,0.3967284,0.41173267,0.16402234,0.10903846,inf,inf,inf,inf,1,1,1,1,2,0,2,1,5,1,1,1,0,0
863180000,863180000,1032000,41.606704,-86.3556021,-0.50547004,31.992647,-12.234109,0.00041378726,0.0001574235,0.0,0.06064126,0.0692553,0.090789154,-0.029895842,-0.00029013876,-0.012453784,-0.017066125,-0.036565725,-0.028057883,0.16826384,-1.2767392,0.039551754,229.4058,12.461803,0.39426628,0.41309455,0.16105556,0.111705944,inf,inf,inf,inf,1,1,1,1,2,0,2,1,5,1,1,1,0,0
863676000,863676000,1032000,41.606704,-86.3556021,-0.4894274,32.01956,-12.253557,0.00041378726,0.0001574235,0.0,0.03525683,0.047909386,0.10717595,-0.019147234,-0.00029013876,-0.012453784,-0.017066125,-0.013707525,-0.11414379,0.05836778,-1.2781925,0.039551754,229.4058,12.481252,0.391621,0.41140744,0.15806288,0.113663875,inf,inf,inf,inf,1,1,1,1,2,0,2,1,5,1,1,1,0,0
864180000,864180000,1032000,41.606704,-86.3556021,-0.48078993,32.042435,-12.2846575,0.00041378726,0.0001574235,0.0,0.01912708,0.025945475,0.12477396,-0.01918501,-0.00029013876,-0.012453784,-0.017066125,-0.05307603,-0.018900694,0.12389005,-1.278417,0.039551754,229.4058,12.512352,0.39039496,0.41070482,0.15610737,0.11553082,inf,inf,inf,inf,1,1,1,1,2,0,2,1,5,1,1,1,0,0
864676000,864676000,1032000,41.606704,-86.3556021,-0.47618356,32.051163,-12.307722,0.00041378726,0.0001574235,0.0,0.005806876,0.008664178,0.15093324,-0.0043866276,-0.00029013876,-0.012453784,-0.017066125,-0.13861792,0.029731788,-0.058385603,-1.278963,0.039551754,229.4058,12.535417,0.39025182,0.41274732,0.15530786,0.117438145,inf,inf,inf,inf,1,1,1,1,2,0,2,1,5,1,1,1,0,0
865180000,865180000,1032000,41.606704,-86.3556021,-0.47057253,32.053783,-12.300875,0.00041378726,0.0001574235,0.0,0.0068517933,-0.004183609,0.1510777,0.00772576,-0.00029013876,-0.012453784,-0.017066125,-0.25559708,-0.0643226,1.3695683,-1.2791836,0.039551754,229.4058,12.528569,0.41495356,0.41811445,0.16560088,0.12256197,inf,inf,inf,inf,1,1,1,1,2,0,2,1,5,1,1,1,0,0
865676000,865676000,1032000,41.606704,-86.3556021,-0.46654597,32.059795,-12.317697,0.00041378726,0.0001574235,0.0,-0.0038979873,-0.005748065,0.14272638,-0.011898453,-0.00029013876,-0.012453784,-0.017066125,-0.032231107,-0.06948271,0.063370846,-1.2798357,0.039551754,229.4058,12.545391,0.38430375,0.41439077,0.14863671,0.11872111,inf,inf,inf,inf,1,1,1,1,2,0,2,1,5,1,1,1,0,0
866172000,866172000,1032000,41.606704,-86.3556021,-0.4563409,32.064926,-12.326545,0.00041378726,0.0001574235,0.0,-0.00015258987,-0.011958966,0.16173549,0.0054897116,-0.00029013876,-0.012453784,-0.017066125,0.002070564,-0.11053387,0.08287367,-1.2799494,0.039551754,229.4058,12.554239,0.40715295,0.41946667,0.15858793,0.12314724,inf,inf,inf,inf,1,1,1,1,2,0,2,1,5,1,1,1,0,0
866676000,866676000,1032000,41.606704,-86.3556021,-0.44863555,32.06954,-12.328577,0.00041378726,0.0001574235,0.0,-0.004935231,-0.0132997595,0.15469621,-0.002085066,-0.00029013876,-0.012453784,-0.017066125,0.015975807,-0.08262211,0.07184961,-1.2802403,0.039551754,229.4058,12.556272,0.38055953,0.41612166,0.14516385,0.11914254,inf,inf,inf,inf,1,1,1,1,2,0,2,1,5,1,1,1,0,0
867180000,867180000,1032000,41.606704,-86.3556021,-0.44868076,32.080093,-12.328842,0.00041378726,0.0001574235,0.0,-0.018468488,-0.015188049,0.1538771,-0.00062823447,-0.00029013876,-0.012453784,-0.017066125,-0.0072875833,-0.00047513933,0.03138085,-1.2802377,0.039551754,229.4058,12.556537,0.38095823,0.41595924,0.14562619,0.11939643,inf,inf,inf,inf,1,1,1,1,2,0,2,1,5,1,1,1,0,0
867676000,867676000,1032000,41.606704,-86.3556021,-0.4534148,32.082375,-12.311711,0.00041378726,0.0001574235,0.0,-0.018273197,-0.023596851,0.14498657,0.0070941313,-0.00029013876,-0.012453784,-0.017066125,-0.054645244,4.2536765e-05,-0.15819636,-1.2802552,0.039551754,229.4058,12.539406,0.40306666,0.42424092,0.15550557,0.12369039,inf,inf,inf,inf,1,1,1,1,2,0,2,1,5,1,1,1,0,0
868180000,868180000,1032000,41.606704,-86.3556021,-0.45502132,32.080544,-12.300576,0.00041378726,0.0001574235,0.0,-0.0047842613,-0.025521478,0.1284265,0.0015661009,-0.00029013876,-0.012453784,-0.017066125,0.050256804,-0.008497355,-0.089427516,-1.2802708,0.039551754,229.4058,12.528271,0.39907938,0.42343727,0.1525505,0.12286084,inf,inf,inf,inf,1,1,1,1,2,0,2,1,5,1,1,1,0,0
868676000,868676000,1032000,41.606704,-86.3556021,-0.45580217,32.08858,-12.289175,0.00041378726,0.0001574235,0.0,-0.005502246,-0.023513937,0.119105525,0.0046078423,-0.00029013876,-0.012453784,-0.017066125,-0.050932974,-0.03870867,0.03150658,-1.2800457,0.039551754,229.4058,12.51687,0.3968813,0.4222931,0.15160964,0.12227746,inf,inf,inf,inf,1,1,1,1,2,0,2,1,5,1,1,1,0,0
869180000,869180000,1032000,41.606704,-86.3556021,-0.46108222,32.085945,-12.272178,0.00041378726,0.0001574235,0.0,-0.0018981542,-0.027422028,0.09990157,0.0015789194,-0.00029013876,-0.012453784,-0.017066125,-0.043878514,-0.0075220107,-0.01235685,-1.279725,0.039551754,229.4058,12.499872,0.3944859,0.42454016,0.15030237,0.122002095,inf,inf,inf,inf,1,1,1,1,2,0,2,1,5,1,1,1,0,0
869676000,869676000,1032000,41.606704,-86.3556021,-0.46949965,32.0818,-12.2583,0.00041378726,0.0001574235,0.0,0.0010641434,-0.020148342,0.08111758,-0.0038113722,-0.00029013876,-0.012453784,-0.017066125,0.027380362,-0.087866485,-0.016407173,-1.279612,0.039551754,229.4058,12.485994,0.3716533,0.41685155,0.14035343,0.11739545,inf,inf,inf,inf,1,1,1,1,2,0,2,1,5,1,1,1,0,0
870180000,870180000,1032000,41.606704,-86.3556021,-0.47212154,32.07509,-12.23817,0.00041378726,0.0001574235,0.0,0.009548441,-0.01822257,0.0628228,-0.0025032684,-0.00029013876,-0.012453784,-0.017066125,-0.0043967552,0.012291301,-0.047262818,-1.2798078,0.039551754,229.4058,12.465864,0.39320213,0.42517707,0.15079582,0.121598385,inf,inf,inf,inf,1,1,1,1,2,0,2,1,5,1,1,1,0,0
870676000,870676000,1032000,41.606704,-86.3556021,-0.47100312,32.057297,-12.222266,0.00041378726,0.0001574235,0.0,0.013177989,-0.01107581,0.046891592,-0.002639757,-0.00029013876,-0.012453784,-0.017066125,0.08213602,0.022771753,-0.10792731,-1.2797505,0.039551754,229.4058,12.449961,0.3890225,0.42600676,0.1480297,0.12081805,inf,inf,inf,inf,1,1,1,1,2,0,2,1,5,1,1,1,0,0
871172000,871172000,1032000,41.606704,-86.3556021,-0.47414958,32.04017,-12.210477,0.00041378726,0.0001574235,0.0,0.018318726,0.0017196512,0.036283072,-0.0005898989,-0.00029013876,-0.012453784,-0.017066125,0.1075965,0.104211494,-0.15194346,-1.2797585,0.039551754,229.4058,12.438171,0.3869957,0.42387798,0.14733216,0.12009209,inf,inf,inf,inf,1,1,1,1,2,0,2,1,5,1,1,1,0,0
871676000,871676000,1032000,41.606704,-86.3556021,-0.4750719,32.0334,-12.194929,0.00041378726,0.0001574235,0.0,0.020902172,0.011809813,0.013958733,-0.007316144,-0.00029013876,-0.012453784,-0.017066125,-0.076013215,0.0070692007,-1.2892206,-1.2795957,0.039551754,229.4058,12.422624,0.38481224,0.4252712,0.14611848,0.1197574,inf,inf,inf,inf,1,1,1,1,2,0,2,1,5,1,1,1,0,0
872172000,872172000,1032000,41.606704,-86.3556021,-0.49051714,32.02467,-12.188031,0.00041378726,0.0001574235,0.0,0.019453632,0.02009992,0.007198939,-0.006221611,-0.00029013876,-0.012453784,-0.017066125,0.069937915,0.0055581206,-0.047353156,-1.2797354,0.039551754,229.4058,12.415726,0.38379556,0.42310458,0.14622079,0.11928257,inf,inf,inf,inf,1,1,1,1,2,0,2,1,5,1,1,1,0,0
872676000,872676000,1032000,41.606704,-86.3556021,-0.49946052,32.02527,-12.178531,0.00041378726,0.0001574235,0.0,0.034534264,0.029425403,-0.004679586,-0.0072207125,-0.00029013876,-0.012453784,-0.017066125,0.08204364,0.049969945,-0.007501866,-1.2794445,0.039551754,229.4058,12.406225,0.3836098,0.42467132,0.14649507,0.119424,inf,inf,inf,inf,1,1,1,1,2,0,2,1,5,1,1,1,0,0
873180000,873180000,1032000,41.606704,-86.3556021,-0.49763855,32.029095,-12.176858,0.00041378726,0.0001574235,0.0,0.04002712,0.027367035,-0.007985317,-0.008441714,-0.00029013876,-0.012453784,-0.017066125,0.05751921,0.0019028396,-0.02079277,-1.2794342,0.039551754,229.4058,12.404552,0.40526327,0.43253958,0.1557541,0.12334045,inf,inf,inf,inf,1,1,1,1,2,0,2,1,5,1,1,1,0,0
873676000,873676000,1032000,41.606704,-86.3556021,-0.508166,32.02765,-12.170432,0.00041378726,0.0001574235,0.0,0.03696376,0.022939187,-0.012401495,-0.005978518,-0.00029013876,-0.012453784,-0.017066125,0.05697063,-0.0019613279,-0.102918655,-1.2791069,0.039551754,229.4058,12.398127,0.3784221,0.42313057,0.14307839,0.11821684,inf,inf,inf,inf,1,1,1,1,2,0,2,1,5,1,1,1,0,0
874180000,874180000,1032000,41.606704,-86.3556021,-0.5133448,32.035267,-12.166469,0.00041378726,0.0001574235,0.0,0.026323434,0.01166,0.002094072,0.0109394,-0.00029013876,-0.012453784,-0.017066125,-0.09271719,-0.02248412,-0.09400217,-1.2789581,0.039551754,229.4058,12.394163,0.40003386,0.43074226,0.15290919,0.12225462,inf,inf,inf,inf,1,1,1,1,2,0,2,1,5,1,1,1,0,0
874676000,874676000,1032000,41.606704,-86.3556021,-0.53630465,32.034157,-12.150458,0.00041378726,0.0001574235,0.0,0.007561574,0.0076049687,-0.016445039,0.00063066394,-0.00029013876,-0.012453784,-0.017066125,0.03622141,-0.0057175113,0.221515,-1.2790831,0.039551754,229.4058,12.378153,0.37541756,0.4247041,0.14183283,0.11786458,inf,inf,inf,inf,1,1,1,1,2,0,2,1,5,1,1,1,0,0
875172000,875172000,1032000,41.606704,-86.3556021,-0.5331952,32.04688,-12.155211,0.00041378726,0.0001574235,0.0,0.12468988,0.0580298,-0.05440412,-0.035879903,-0.00029013876,-0.012453784,-0.017066125,0.65028316,0.2222789,-0.08804357,-1.2800792,0.039551754,229.4058,12.382906,0.3979907,0.42862454,0.1530678,0.12175377,inf,inf,inf,inf,1,1,1,1,2,0,2,1,5,1,1,1,0,0
875676000,875676000,1032000,41.606704,-86.3556021,-0.39385083,32.094017,-12.183313,0.00041378726,0.0001574235,0.0,0.63466954,0.12859097,-0.1301975,-0.10999051,-0.00029013876,-0.012453784,-0.017066125,1.4114099,0.087433875,-0.24274741,-1.2868856,0.039551754,229.4058,12.411008,0.39513293,0.42946985,0.15132752,0.12134848,inf,inf,inf,inf,1,1,1,1,2,0,2,1,5,1,1,1,0,0
876172000,876172000,1032000,41.606704,-86.3556021,0.06657072,32.170914,-12.24687,0.00041378726,0.0001574235,0.0,1.4478723,0.16582394,-0.16378441,-0.14125112,-0.00029013876,-0.012453784,-0.017066125,1.4785225,0.012281941,0.058012016,-1.2913272,0.039551754,229.4058,12.474565,0.39211676,0.42973533,0.15063451,0.12063277,inf,inf,inf,inf,1,1,1,1,2,0,2,1,5,1,1,1,0,0
876676000,876676000,1032000,41.606704,-86.3556021,0.9145082,32.252647,-12.310461,0.00041378726,0.0001574235,0.0,2.0328772,0.17984359,-0.14608364,-0.11935196,-0.00029013876,-0.012453784,-0.017066125,0.9278488,0.02489858,0.067419305,-1.28863,0.039551754,229.4058,12.538156,0.39025888,0.42745802,0.15006666,0.11974913,inf,inf,inf,inf,1,1,1,1,2,0,2,1,5,1,1,1,0,0
877180000,877180000,1032000,41.606704,-86.3556021,2.0110903,32.336197,-12.348492,0.00041378726,0.0001574235,0.0,2.3453016,0.18822652,-0.108096614,-0.07278491,-0.00029013876,-0.012453784,-0.017066125,0.35916644,0.0796119,0.051536534,-1.291658,0.039551754,229.4058,12.576186,0.38905382,0.42840192,0.14924836,0.119444974,inf,inf,inf,inf,1,1,1,1,2,0,2,1,5,1,1,1,0,0
877676000,877676000,1032000,41.606704,-86.3556021,3.2108016,32.42061,-12.382263,0.00041378726,0.0001574235,0.0,2.4665492,0.20013149,-0.0667383,-0.039417315,-0.00029013876,-0.012453784,-0.017066125,0.21131238,-0.026239512,0.10429222,-1.2988986,0.039551754,229.4058,12.609958,0.38890296,0.42575413,0.14909847,0.119051784,inf,inf,inf,inf,1,1,1,1,2,0,2,1,5,1,1,1,0,0
878180000,878180000,1032000,41.606704,-86.3556021,4.4730487,32.520527,-12.39944,0.00041378726,0.0001574235,0.0,2.5100675,0.21286276,-0.05083459,-0.027053788,-0.00029013876,-0.012453784,-0.017066125,0.023155058,-0.04068983,0.051818725,-1.3043292,0.039551754,229.4058,12.627134,0.4127877,0.4334324,0.15899724,0.123122714,inf,inf,inf,inf,1,1,1,1,2,0,2,1,5,1,1,1,0,0
878676000,878676000,1032000,41.606704,-86.3556021,5.737962,32.62299,-12.403769,0.00041378726,0.0001574235,0.0,2.4727805,0.20682602,0.003586369,0.028175877,-0.00029013876,-0.012453784,-0.017066125,-0.5747649,-0.03821599,0.34848034,-1.3149707,0.039551754,229.4058,12.631463,0.38318747,0.42375666,0.1442426,0.11785402,inf,inf,inf,inf,1,1,1,1,2,0,2,1,5,1,1,1,0,0
879180000,879180000,1032000,41.606704,-86.3556021,6.8580713,32.715004,-12.364579,0.00041378726,0.0001574235,0.0,1.7599046,0.15543364,0.10390079,0.12068868,-0.00029013876,-0.012453784,-0.017066125,-1.875544,-0.1534635,-0.0487222,-1.3230606,0.039551754,229.4058,12.592274,0.4062592,0.4313989,0.15456857,0.12221977,inf,inf,inf,inf,1,1,1,1,2,0,2,1,5,1,1,1,0,0
879676000,879676000,1032000,41.606704,-86.3556021,7.5820847,32.792107,-12.294989,0.00041378726,0.0001574235,0.0,1.058427,0.10043282,0.2208187,0.24266367,-0.00029013876,-0.012453784,-0.017066125,-0.38175562,-0.016338957,1.2923691,-1.3337911,0.039551754,229.4058,12.522683,0.37959749,0.42220765,0.1436451,0.117431924,inf,inf,inf,inf,1,1,1,1,2,0,2,1,5,1,1,1,0,0
880180000,880180000,1032000,41.606704,-86.3556021,8.065662,32.847816,-12.007703,0.00041378726,0.0001574235,0.0,0.57804894,0.04396869,0.8111635,0.82438564,-0.00029013876,-0.012453784,-0.017066125,-1.7657843,-0.042324997,0.6480542,-1.3336248,0.039551754,229.4058,12.235397,0.379942,0.42371258,0.14361775,0.117876835,inf,inf,inf,inf,1,1,1,1,2,0,2,1,5,1,1,1,0,0
880676000,880676000,1032000,41.606704,-86.3556021,8.181112,32.874268,-11.53643,0.00041378726,0.0001574235,0.0,-0.1473108,-0.011838375,1.0229478,1.0284039,-0.00029013876,-0.012453784,-0.017066125,-1.0185223,-0.10857316,-0.45777953,-1.3197736,0.039551754,229.4058,11.764125,0.4014558,0.43083897,0.15485477,0.12172813,inf,inf,inf,inf,1,1,1,1,2,0,2,1,5,1,1,1,0,0
881180000,881180000,1032000,41.606704,-86.3556021,8.050184,32.896877,-11.0641775,0.00041378726,0.0001574235,0.0,-0.3691515,-0.03955092,0.8465744,0.8643768,-0.00029013876,-0.012453784,-0.017066125,-0.058766674,-0.0720805,-0.16837852,-1.3135662,0.039551754,229.4058,11.291872,0.39763898,0.42853686,0.15269038,0.120835654,inf,inf,inf,inf,1,1,1,1,2,0,2,1,5,1,1,1,0,0
881676000,881676000,1032000,41.606704,-86.3556021,7.8751445,32.913902,-10.652103,0.00041378726,0.0001574235,0.0,-0.41417602,-0.068359986,0.8268492,0.8371327,-0.00029013876,-0.012453784,-0.017066125,0.06239823,-0.12901661,-0.04731404,-1.3133109,0.039551754,229.4058,10.879798,0.39553893,0.42908257,0.1510933,0.12069114,inf,inf,inf,inf,1,1,1,1,2,0,2,1,5,1,1,1,0,0
882180000,882180000,1032000,41.606704,-86.3556021,7.6764464,32.904892,-10.232684,0.00041378726,0.0001574235,0.0,-0.39454108,-0.093491524,0.8561982,0.8590916,-0.00029013876,-0.012453784,-0.017066125,0.1406172,-0.05607465,0.3431541,-1.3147107,0.039551754,229.4058,10.460379,0.39332986,0.42697746,0.14911155,0.120225154,inf,inf,inf,inf,1,1,1,1,2,0,2,1,5,1,1,1,0,0
882676000,882676000,1032000,41.606704,-86.3556021,7.513589,32.87904,-9.8068495,0.00041378726,0.0001574235,0.0,-0.2950491,-0.101066776,0.9063936,0.90044755,-0.00029013876,-0.012453784,-0.017066125,0.15337197,0.05589359,0.0974172,-1.3170031,0.039551754,229.4058,10.034544,0.370873,0.42150941,0.13881347,0.11638158,inf,inf,inf,inf,1,1,1,1,2,0,2,1,5,1,1,1,0,0
883180000,883180000,1032000,41.606704,-86.3556021,7.3990984,32.835606,-9.348979,0.00041378726,0.0001574235,0.0,-0.1818924,-0.08654569,0.89876014,0.89977324,-0.00029013876,-0.012453784,-0.017066125,0.1647535,0.05000424,-0.011460918,-1.3191833,0.039551754,229.4058,9.5766735,0.39227626,0.4258668,0.1487886,0.12038089,inf,inf,inf,inf,1,1,1,1,2,0,2,1,5,1,1,1,0,0
883676000,883676000,1032000,41.606704,-86.3556021,7.338649,32.80115,-8.899933,0.00041378726,0.0001574235,0.0,-0.08590128,-0.054370653,0.893706,0.8979581,-0.00029013876,-0.012453784,-0.017066125,0.096493825,0.09208652,0.03490032,-1.3207848,0.039551754,229.4058,9.127627,0.38810578,0.42622113,0.14607021,0.11986558,inf,inf,inf,inf,1,1,1,1,2,0,2,1,5,1,1,1,0,0
884172000,884172000,1032000,41.606704,-86.3556021,7.3268766,32.77888,-8.462104,0.00041378726,0.0001574235,0.0,-0.024716843,-0.025883337,0.8859505,0.8860985,-0.00029013876,-0.012453784,-0.017066125,0.08543036,0.08652564,0.034918945,-1.3220421,0.039551754,229.4058,8.689798,0.38621038,0.42685792,0.14556757,0.11975523,inf,inf,inf,inf,1,1,1,1,2,0,2,1,5,1,1,1,0,0
884676000,884676000,1032000,41.606704,-86.3556021,7.3370547,32.767235,-8.017072,0.00041378726,0.0001574235,0.0,-0.0012591691,-0.0066505983,0.8690018,0.87124515,-0.00029013876,-0.012453784,-0.017066125,0.10879564,0.010622421,0.010394428,-1.3228204,0.039551754,229.4058,8.244766,0.38415363,0.42489037,0.14461467,0.119244635,inf,inf,inf,inf,1,1,1,1,2,0,2,1,5,1,1,1,0,0
885172000,885172000,1032000,41.606704,-86.3556021,7.3555427,32.76301,-7.586177,0.00041378726,0.0001574235,0.0,-0.00029546075,0.0017258765,0.8446171,0.8512549,-0.00029013876,-0.012453784,-0.017066125,-0.12783809,0.08208915,-0.10607118,-1.3234878,0.039551754,229.4058,7.8138714,0.38323146,0.42575255,0.1448865,0.11931321,inf,inf,inf,inf,1,1,1,1,2,0,2,1,5,1,1,1,0,0
885676000,885676000,1032000,41.606704,-86.3556021,7.365905,32.763397,-7.1635847,0.00041378726,0.0001574235,0.0,-0.011071694,0.01149487,0.8144927,0.8218037,-0.00029013876,-0.012453784,-0.017066125,0.022783581,0.042135403,-0.123133935,-1.3232396,0.039551754,229.4058,7.391279,0.38312557,0.42410678,0.1453149,0.119198784,inf,inf,inf,inf,1,1,1,1,2,0,2,1,5,1,1,1,0,0
886180000,886180000,1032000,41.606704,-86.3556021,7.3688774,32.761967,-6.7571435,0.00041378726,0.0001574235,0.0,-0.020332182,0.008497605,0.7955469,0.8006879,-0.00029013876,-0.012453784,-0.017066125,-0.0008974897,0.002820456,0.21618783,-1.3228986,0.039551754,229.4058,6.984838,0.40471372,0.4319325,0.15450224,0.12321395,inf,inf,inf,inf,1,1,1,1,2,0,2,1,5,1,1,1,0,0
886676000,886676000,1032000,41.606704,-86.3556021,7.370864,32.755676,-6.3635597,0.00041378726,0.0001574235,0.0,-0.02384842,0.012529868,0.76535326,0.77289206,-0.00029013876,-0.012453784,-0.017066125,-0.05654528,0.06529568,-0.064753056,-1.3227142,0.039551754,229.4058,6.591254,0.3780931,0.4227506,0.14215209,0.11820029,inf,inf,inf,inf,1,1,1,1,2,0,2,1,5,1,1,1,0,0
887180000,887180000,1032000,41.606704,-86.3556021,7.368881,32.756653,-5.983903,0.00041378726,0.0001574235,0.0,-0.023014909,0.013946165,0.7468496,0.7500146,-0.00029013876,-0.012453784,-0.017066125,-0.01568799,0.02915813,-0.083385095,-1.3226476,0.039551754,229.4058,6.2115974,0.39965594,0.43059528,0.1519241,0.122343816,inf,inf,inf,inf,1,1,1,1,2,0,2,1,5,1,1,1,0,0
887676000,887676000,1032000,41.606704,-86.3556021,7.366335,32.756638,-5.6217732,0.00041378726,0.0001574235,0.0,-0.026091892,0.010211802,0.7305027,0.72894347,-0.00029013876,-0.012453784,-0.017066125,-0.0131414775,-0.05113079,-0.016435113,-1.3225605,0.039551754,229.4058,5.8494678,0.37518308,0.42173442,0.14098239,0.117649816,inf,inf,inf,inf,1,1,1,1,2,0,2,1,5,1,1,1,0,0
888180000,888180000,1032000,41.606704,-86.3556021,7.3546424,32.75679,-5.255428,0.00041378726,0.0001574235,0.0,-0.032376237,0.008225655,0.7075436,0.7093568,-0.00029013876,-0.012453784,-0.017066125,-0.017093973,0.106814474,-0.05511573,-1.322401,0.039551754,229.4058,5.4831223,0.39844632,0.4297543,0.15225787,0.12218049,inf,inf,inf,inf,1,1,1,1,2,0,2,1,5,1,1,1,0,0
888676000,888676000,1032000,41.606704,-86.3556021,7.339954,32.759396,-4.90866,0.00041378726,0.0001574235,0.0,-0.021802662,0.00594927,0.69107336,0.6931059,-0.00029013876,-0.012453784,-0.017066125,-0.07651915,-0.0043133157,-0.19549304,-1.3226068,0.039551754,229.4058,5.1363544,0.39493823,0.42706594,0.14995144,0.121313624,inf,inf,inf,inf,1,1,1,1,2,0,2,1,5,1,1,1,0,0
889180000,889180000,1032000,41.606704,-86.3556021,7.3321395,32.76212,-4.5596128,0.00041378726,0.0001574235,0.0,-0.00913536,0.00048372196,0.6868336,0.68995255,-0.00029013876,-0.012453784,-0.017066125,-0.056724582,-0.07940495,0.15472893,-1.3226835,0.039551754,229.4058,4.7873073,0.39252394,0.42833495,0.14845446,0.12109014,inf,inf,inf,inf,1,1,1,1,2,0,2,1,5,1,1,1,0,0
889676000,889676000,1032000,41.606704,-86.3556021,7.324658,32.770348,-4.2258224,0.00041378726,0.0001574235,0.0,-0.009096901,-0.0032974656,0.6980725,0.69207424,-0.00029013876,-0.012453784,-0.017066125,-0.025790816,0.0189935,0.025721202,-1.3226984,0.039551754,229.4058,4.453517,0.3899928,0.42600742,0.14709409,0.12044421,inf,inf,inf,inf,1,1,1,1,2,0,2,1,5,1,1,1,0,0
890180000,890180000,1032000,41.606704,-86.3556021,7.3222904,32.775963,-3.878164,0.00041378726,0.0001574235,0.0,-0.0035933715,-0.013562869,0.70771843,0.6991856,-0.00029013876,-0.012453784,-0.017066125,0.061056666,-0.05024569,-0.0076713664,-1.3228078,0.039551754,229.4058,4.1058583,0.38881978,0.42442435,0.14668389,0.12010519,inf,inf,inf,inf,1,1,1,1,2,0,2,1,5,1,1,1,0,0
890676000,890676000,1032000,41.606704,-86.3556021,7.319484,32.782475,-3.538388,0.00041378726,0.0001574235,0.0,-0.0027600802,-0.019068308,0.709569,0.6958465,-0.00029013876,-0.012453784,-0.017066125,-0.0015726723,-0.085128084,0.04197744,-1.322541,0.039551754,229.4058,3.7660825,0.38867426,0.42551047,0.14732432,0.120304376,inf,inf,inf,inf,1,1,1,1,2,0,2,1,5,1,1,1,0,0
891180000,891180000,1032000,41.606704,-86.3556021,7.314733,32.780556,-3.1885853,0.00041378726,0.0001574235,0.0,-0.003107737,-0.02966465,0.70998627,0.6963263,-0.00029013876,-0.012453784,-0.017066125,0.017378224,0.084979445,0.014709245,-1.3225709,0.039551754,229.4058,3.4162798,0.41252348,0.4337292,0.15775165,0.124569476,inf,inf,inf,inf,1,1,1,1,2,0,2,1,5,1,1,1,0,0
891676000,891676000,1032000,41.606704,-86.3556021,7.317297,32.784946,-2.838808,0.00041378726,0.0001574235,0.0,-0.002242449,-0.03232989,0.71269774,0.7029692,-0.00029013876,-0.012453784,-0.017066125,-0.048231263,0.05305223,-0.07877505,-1.3225358,0.039551754,229.4058,3.0665026,0.38306594,0.4240667,0.14368042,0.11914634,inf,inf,inf,inf,1,1,1,1,2,0,2,1,5,1,1,1,0,0
892172000,892172000,1032000,41.606704,-86.3556021,7.3189554,32.78813,-2.488538,0.00041378726,0.0001574235,0.0,-0.0026764637,-0.033613037,0.6975349,0.69231766,-0.00029013876,-0.012453784,-0.017066125,-0.012222288,-0.030875536,0.14274561,-1.3228695,0.039551754,229.4058,2.7162325,0.4054203,0.43131712,0.15400755,0.12320851,inf,inf,inf,inf,1,1,1,1,2,0,2,1,5,1,1,1,0,0
892676000,892676000,1032000,41.606704,-86.3556021,7.322261,32.796642,-2.1461694,0.00041378726,0.0001574235,0.0,0.00071935833,-0.036457997,0.69717276,0.6875402,-0.00029013876,-0.012453784,-0.017066125,-0.026507048,-0.038387038,0.016853148,-1.3226599,0.039551754,229.4058,2.373864,0.3795607,0.42578137,0.14225787,0.11874711,inf,inf,inf,inf,1,1,1,1,2,0,2,1,5,1,1,1,0,0
893172000,893172000,1032000,41.606704,-86.3556021,7.329426,32.805393,-1.8165702,0.00041378726,0.0001574235,0.0,-0.009566088,-0.04317343,0.7066927,0.6869804,-0.00029013876,-0.012453784,-0.017066125,-0.12958011,-0.015229637,0.05373725,-1.322867,0.039551754,229.4058,2.0442646,0.3793515,0.42350724,0.1428855,0.11853313,inf,inf,inf,inf,1,1,1,1,2,0,2,1,5,1,1,1,0,0
893676000,893676000,1032000,41.606704,-86.3556021,7.328072,32.802235,-1.4730529,0.00041378726,0.0001574235,0.0,-0.012974406,-0.04768151,0.7103468,0.6888359,-0.00029013876,-0.012453784,-0.017066125,-0.022965983,-0.047368843,0.028505856,-1.3225875,0.039551754,229.4058,1.7007473,0.40196034,0.42814362,0.15312487,0.12240462,inf,inf,inf,inf,1,1,1,1,2,0,2,1,5,1,1,1,0,0
894172000,894172000,1032000,41.606704,-86.3556021,7.3303494,32.796043,-1.1313964,0.00041378726,0.0001574235,0.0,-0.014650582,-0.050516598,0.7085356,0.68773216,-0.00029013876,-0.012453784,-0.017066125,-0.030654823,-0.030090638,0.033708226,-1.3226389,0.039551754,229.4058,1.3590908,0.3975072,0.42851412,0.15030071,0.12177182,inf,inf,inf,inf,1,1,1,1,2,0,2,1,5,1,1,1,0,0
894676000,894676000,1032000,41.606704,-86.3556021,7.3354325,32.79206,-0.7890353,0.00041378726,0.0001574235,0.0,-0.022688864,-0.047831878,0.7129978,0.6888895,-0.00029013876,-0.012453784,-0.017066125,-0.0119878845,-0.0753854,-0.007538188,-1.3226888,0.039551754,229.4058,1.0167297,0.3961345,0.42973423,0.1498208,0.12172668,inf,inf,inf,inf,1,1,1,1,2,0,2,1,5,1,1,1,0,0
895172000,895172000,1032000,41.606704,-86.3556021,7.341181,32.787445,-0.4468422,0.00041378726,0.0001574235,0.0,-0.025579063,-0.04012849,0.7159998,0.6937707,-0.00029013876,-0.012453784,-0.017066125,-0.097567745,0.04558832,-0.15031645,-1.3226151,0.039551754,229.4058,0.6745366,0.39313072,0.43012258,0.14828585,0.121302985,inf,inf,inf,inf,1,1,1,1,2,0,2,1,5,1,1,1,0,0
895676000,895676000,1032000,41.606704,-86.3556021,7.354822,32.79216,-0.102501325,0.00041378726,0.0001574235,0.0,-0.029173518,-0.038085382,0.7039843,0.67942417,-0.00029013876,-0.012453784,-0.017066125,-0.06555017,-0.008696249,-0.054507576,-1.3226407,0.039551754,229.4058,0.33019575,0.37125593,0.42199537,0.13893665,0.11701958,inf,inf,inf,inf,1,1,1,1,2,0,2,1,5,1,1,1,0,0
896172000,896172000,1032000,41.606704,-86.3556021,7.3679914,32.79346,0.09535327,0.00041378726,0.0001574235,0.0,-0.03834179,-0.02563349,0.030285444,0.001557596,-0.00029013876,-0.012453784,-0.017066125,0.14949933,-0.06445829,-1.5163431,-1.3119504,0.039551754,229.4058,0.13234115,0.39213774,0.42892447,0.15112557,0.118849605,inf,inf,inf,inf,1,1,1,1,2,0,2,1,5,1,1,1,0,0
896676000,896676000,1032000,41.606704,-86.3556021,7.371664,32.791748,0.103743844,0.00041378726,0.0001574235,0.0,-0.026771141,-0.026195396,0.04011793,0.014797443,-0.00029013876,-0.012453784,-0.017066125,0.07087418,0.13878341,-0.93111956,-1.3101996,0.039551754,229.4058,0.12395058,0.38875115,0.42636415,0.15016992,0.11012191,inf,inf,inf,inf,1,1,1,1,2,0,2,1,5,1,1,1,0,0
897180000,897180000,1032000,41.606704,-86.3556021,7.377272,32.79474,0.10623382,0.00041378726,0.0001574235,0.0,-0.026950762,-0.02333757,0.050556455,0.019433577,-0.00029013876,-0.012453784,-0.017066125,0.0028146387,-0.0352646,0.6616906,-1.3104718,0.039551754,229.4058,0.1,0.38750055,0.42646798,0.15284777,0.10463166,inf,inf,inf,inf,1,1,1,1,2,0,2,1,5,0,1,1,1,0
897676000,897676000,1032000,41.606704,-86.3556021,7.376607,32.795006,0.124491766,0.00041378726,0.0001574235,0.0,-0.02426599,-0.027542349,0.059506807,0.03462011,-0.00029013876,-0.012453784,-0.017066125,-0.17690533,-0.0027048287,0.1795375,-1.3103433,0.039551754,229.4058,0.1,0.38470083,0.42561132,0.15459907,0.1016246,inf,inf,inf,inf,1,1,1,1,2,0,2,1,5,0,1,1,1,0
898180000,898180000,1032000,41.606704,-86.3556021,7.3813133,32.799885,0.13852324,0.00041378726,0.0001574235,0.0,-0.020830754,-0.022632124,0.069386624,0.04065715,-0.00029013876,-0.012453784,-0.017066125,-0.07260525,-0.089916706,0.41037324,-1.3099447,0.039551754,229.4058,0.1,0.3845846,0.42203727,0.15806963,0.1006492,inf,inf,inf,inf,1,1,1,1,2,0,2,1,5,0,1,1,1,0
898676000,898676000,1032000,41.606704,-86.3556021,7.404219,32.827126,0.010929381,0.00041378726,0.0001574235,0.0,-0.0045781173,-0.0068797143,0.018865015,-0.12563166,-0.00029013876,-0.012453784,-0.017066125,-0.08011003,0.12174636,-0.7567713,-1.3091084,0.039551754,229.4058,0.1,0.30145833,0.31435254,0.013743817,0.009664685,inf,inf,inf,inf,1,1,1,1,2,0,2,1,5,0,1,1,1,0
899172000,899172000,1032000,41.606704,-86.3556021,7.406902,32.82976,-0.03022463,0.00041378726,0.0001574235,0.0,0.0029106739,0.0047096694,-0.0020114214,-0.114052795,-0.00029013876,-0.012453784,-0.017066125,0.13008337,0.14884189,-0.15922362,-1.3084761,0.039551754,229.4058,0.121716954,0.29030475,0.30117133,0.019377494,0.0137079,inf,inf,inf,inf,1,1,1,1,2,0,2,1,5,0,1,1,1,0
899676000,899676000,1032000,41.606704,-86.3556021,7.4053555,32.82778,-0.023422327,0.00041378726,0.0001574235,0.0,0.0008735931,0.005983356,0.0024456244,-0.054526523,-0.00029013876,-0.012453784,-0.017066125,-0.039500065,-0.013528201,0.46562022,-1.3085754,0.039551754,229.4058,0.11977737,0.2727021,0.2921885,0.01033639,0.007304216,inf,inf,inf,inf,1,1,1,1,2,0,2,1,5,0,1,1,1,0
900172000,900172000,1032000,41.606704,-86.3556021,7.404947,32.825115,-0.014960004,0.00041378726,0.0001574235,0.0,0.006499142,0.0053853285,-0.0021162315,-0.027893867,-0.00029013876,-0.012453784,-0.017066125,0.031192744,0.0018590293,0.45093605,-1.3085049,0.039551754,229.4058,0.11620216,0.26777717,0.2843712,0.017114164,0.012059381,inf,inf,inf,inf,1,1,1,1,2,0,2,1,5,0,1,1,1,0
