timestamp,timestamp_sample,baro_device_id,baro_alt_meter,baro_temp_celcius,baro_pressure_pa,rho,calibration_count
829220000,829208000,6620172,228.48137,13.515131,98610.58,1.1716568,0
829292000,829268000,6620172,228.47873,13.515132,98610.625,1.1716573,0
829340000,829328000,6620172,228.39946,13.515131,98611.55,1.1716683,0
829412000,829388000,6620172,228.5078,13.515132,98610.27,1.1716532,0
829460000,829448000,6620172,228.38097,13.515131,98611.77,1.171671,0
829532000,829508000,6620172,228.52629,13.515132,98610.06,1.1716506,0
829580000,829568000,6620172,228.51572,13.515131,98610.19,1.1716522,0
829652000,829628000,6620172,228.4074,13.515132,98611.46,1.1716672,0
829700000,829688000,6620172,228.55272,13.515131,98609.766,1.1716472,0
829772000,829748000,6620172,228.48137,13.515132,98610.58,1.1716568,0
829820000,829808000,6620172,228.42587,13.515131,98611.26,1.1716648,0
829892000,829868000,6620172,228.46286,13.515132,98610.805,1.1716595,0
829940000,829926000,6620172,228.53421,13.515131,98609.97,1.1716496,0
829988000,829976000,6620172,228.46022,13.515131,98610.85,1.1716601,0
830060000,830034666,6620172,228.42323,13.515132,98611.27,1.1716651,0
830108000,830096000,6620172,228.49194,13.515131,98610.47,1.1716554,0
830180000,830156000,6620172,228.44174,13.515132,98611.06,1.1716626,0
830228000,830216000,6620172,228.49722,13.515131,98610.41,1.1716547,0
830300000,830276000,6620172,228.53687,13.515132,98609.94,1.1716492,0
830348000,830336000,6620172,228.52101,13.515131,98610.11,1.1716512,0
830420000,830396000,6620172,228.54214,13.515132,98609.89,1.1716486,0
830468000,830456000,6620172,228.49458,13.515131,98610.44,1.1716552,0
830540000,830516000,6620172,228.4523,13.515132,98610.93,1.171661,0
830588000,830576000,6620172,228.51836,13.515131,98610.17,1.171652,0
830660000,830636000,6620172,228.53687,13.515132,98609.93,1.1716491,0
830708000,830696000,6620172,228.58443,13.515131,98609.38,1.1716425,0
830780000,830756000,6620172,228.56592,13.515132,98609.586,1.1716449,0
830828000,830816000,6620172,228.558,13.515131,98609.68,1.1716461,0
830900000,830876000,6620172,228.57387,13.515132,98609.484,1.1716439,0
830948000,830936000,6620172,228.57121,13.515131,98609.55,1.1716446,0
831016000,830994666,6620172,228.47609,13.515132,98610.64,1.1716576,0
831068000,831056000,6620172,228.36775,13.515131,98611.94,1.1716729,0
831140000,831116000,6620172,228.48929,13.515132,98610.5,1.1716559,0
831188000,831176000,6620172,228.37833,13.515131,98611.8,1.1716713,0
831260000,831236000,6620172,228.48665,13.515132,98610.53,1.1716563,0
831308000,831296000,6620172,228.51836,13.515131,98610.16,1.1716517,0
831380000,831356000,6620172,228.5078,13.515132,98610.3,1.1716535,0
831428000,831416000,6620172,228.52893,13.515131,98610.03,1.1716503,0
831500000,831476000,6620172,228.50252,13.515132,98610.336,1.1716539,0
831548000,831536000,6620172,228.29906,13.515131,98612.734,1.1716825,0
831620000,831596000,6620172,228.51044,13.515132,98610.24,1.1716528,0
831668000,831656000,6620172,228.53687,13.515131,98609.93,1.1716491,0
831740000,831716000,6620172,228.53687,13.515132,98609.93,1.1716491,0
831788000,831776000,6620172,228.49194,13.515131,98610.45,1.1716553,0
831860000,831836000,6620172,228.54478,13.515132,98609.86,1.1716483,0
831908000,831896000,6620172,228.47081,13.515131,98610.695,1.1716582,0
831980000,831956000,6620172,228.5395,13.515132,98609.9,1.1716487,0
832028000,832014000,6620172,228.44702,13.515131,98611.0,1.1716619,0
832076000,832064000,6620172,228.44702,13.515131,98610.984,1.1716616,0
832144000,832122666,6620172,228.56328,13.515132,98609.62,1.1716454,0
832196000,832182000,6620172,228.55536,13.515131,98609.734,1.1716467,0
832264000,832241333,6620172,228.43382,13.515132,98611.15,1.1716636,0
832292000,832292000,6620172,228.42587,13.515131,98611.24,1.1716646,0
832388000,832352000,6620172,228.39946,13.515131,98611.55,1.1716683,0
832412000,832412000,6620172,228.45494,13.515131,98610.914,1.1716608,0
832504000,832471000,6620172,228.48929,13.515131,98610.51,1.171656,0
832532000,832532000,6620172,228.38889,13.515131,98611.67,1.1716697,0
832628000,832591000,6620172,228.53157,13.515131,98610.0,1.1716499,0
832652000,832652000,6620172,228.59235,13.515131,98609.29,1.1716415,0
832748000,832711000,6620172,228.55536,13.515131,98609.73,1.1716466,0
832772000,832772000,6620172,228.31754,13.515131,98612.516,1.1716799,0
832868000,832831000,6620172,228.5078,13.515131,98610.28,1.1716533,0
832892000,832892000,6620172,228.43646,13.515131,98611.1,1.1716629,0
832988000,832952000,6620172,228.44438,13.515131,98611.03,1.1716621,0
833012000,833012000,6620172,228.45494,13.515131,98610.89,1.1716604,0
833104000,833071000,6620172,228.4523,13.515131,98610.92,1.1716609,0
833132000,833132000,6620172,228.41003,13.515131,98611.414,1.1716667,0
833228000,833192000,6620172,228.53687,13.515131,98609.92,1.171649,0
833248000,833248000,6620172,228.57387,13.515131,98609.49,1.171644,0
833324000,833298666,6620172,228.48137,13.515132,98610.61,1.1716571,0
833372000,833360000,6620172,228.58707,13.515131,98609.34,1.1716422,0
833444000,833420000,6620172,228.50252,13.515132,98610.33,1.1716537,0
833492000,833480000,6620172,228.57915,13.515131,98609.44,1.1716431,0
833564000,833540000,6620172,228.55272,13.515132,98609.74,1.1716468,0
833612000,833600000,6620172,228.46022,13.515131,98610.83,1.1716597,0
833684000,833657333,6620172,228.49722,13.515132,98610.39,1.1716546,0
833708000,833708000,6620172,228.4021,13.515131,98611.54,1.1716682,0
833804000,833768000,6620172,228.47345,13.515131,98610.67,1.1716579,0
833828000,833828000,6620172,228.37833,13.515131,98611.79,1.1716712,0
833924000,833888000,6620172,228.47609,13.515131,98610.664,1.1716578,0
833948000,833948000,6620172,228.51044,13.515131,98610.24,1.1716528,0
834044000,834007000,6620172,228.48929,13.515131,98610.5,1.1716559,0
834068000,834068000,6620172,228.46286,13.515131,98610.8,1.1716595,0
834164000,834128000,6620172,228.4523,13.515131,98610.93,1.171661,0
834188000,834188000,6620172,228.62141,13.515131,98608.945,1.1716374,0
834284000,834248000,6620172,228.34132,13.515131,98612.24,1.1716766,0
834308000,834308000,6620172,228.44702,13.515131,98610.98,1.1716615,0
834400000,834367000,6620172,228.46553,13.515131,98610.766,1.171659,0
834428000,834428000,6620172,228.53157,13.515131,98609.99,1.1716498,0
834524000,834487000,6620172,228.43646,13.515131,98611.12,1.1716632,0
834548000,834548000,6620172,228.42323,13.515131,98611.29,1.1716653,0
834644000,834607000,6620172,228.52101,13.515131,98610.125,1.1716514,0
834668000,834668000,6620172,228.5395,13.515131,98609.914,1.1716489,0
834764000,834727000,6620172,228.52893,13.515131,98610.016,1.17165,0
834788000,834788000,6620172,228.35718,13.515131,98612.06,1.1716744,0
834884000,834848000,6620172,228.51308,13.515131,98610.22,1.1716526,0
834908000,834908000,6620172,228.34926,13.515131,98612.15,1.1716754,0
835004000,834968000,6620172,228.41267,13.515131,98611.4,1.1716665,0
835028000,835028000,6620172,228.37833,13.515131,98611.79,1.1716712,0
835124000,835088000,6620172,228.46286,13.515131,98610.805,1.1716595,0
835144000,835144000,6620172,228.41531,13.515131,98611.37,1.1716661,0
835220000,835196000,6620172,228.52629,13.515132,98610.06,1.1716506,0
835268000,835256000,6620172,228.4391,13.515131,98611.08,1.1716628,0
835340000,835314666,6620172,228.5395,13.515132,98609.9,1.1716487,0
835388000,835376000,6620172,228.55536,13.515131,98609.734,1.1716467,0
835460000,835434666,6620172,228.558,13.515132,98609.67,1.171646,0
835508000,835496000,6620172,228.5078,13.515131,98610.29,1.1716534,0
835580000,835556000,6620172,228.47081,13.515132,98610.7,1.1716583,0
835628000,835616000,6620172,228.48137,13.515131,98610.59,1.171657,0
835700000,835676000,6620172,228.4206,13.515132,98611.305,1.1716654,0
835748000,835736000,6620172,228.51044,13.515131,98610.266,1.171653,0
835820000,835796000,6620172,228.53421,13.515132,98609.984,1.1716497,0
835868000,835856000,6620172,228.47609,13.515131,98610.64,1.1716576,0
835940000,835916000,6620172,228.58179,13.515132,98609.4,1.1716428,0
835988000,835976000,6620172,228.35718,13.515131,98612.06,1.1716744,0
836060000,836034666,6620172,228.41531,13.515132,98611.375,1.1716663,0
836108000,836096000,6620172,228.47081,13.515131,98610.72,1.1716585,0
836180000,836156000,6620172,228.42851,13.515132,98611.21,1.1716644,0
836228000,836214000,6620172,228.53421,13.515131,98609.97,1.1716496,0
836300000,836274666,6620172,228.38625,13.515132,98611.71,1.1716702,0
836348000,836336000,6620172,228.55008,13.515131,98609.78,1.1716473,0
836420000,836396000,6620172,228.38889,13.515132,98611.67,1.1716697,0
836468000,836456000,6620172,228.46817,13.515131,98610.75,1.1716588,0
836540000,836516000,6620172,228.55536,13.515132,98609.734,1.1716467,0
836588000,836574000,6620172,228.49722,13.515131,98610.41,1.1716547,0
836636000,836624000,6620172,228.44438,13.515131,98611.016,1.171662,0
836708000,836684000,6620172,228.44702,13.515132,98610.984,1.1716616,0
836756000,836744000,6620172,228.48401,13.515131,98610.55,1.1716564,0
836828000,836802666,6620172,228.55536,13.515132,98609.71,1.1716465,0
836876000,836864000,6620172,228.55272,13.515131,98609.766,1.1716472,0
836948000,836924000,6620172,228.48401,13.515132,98610.56,1.1716566,0
836996000,836984000,6620172,228.52893,13.515131,98610.03,1.1716503,0
837064000,837042666,6620172,228.57387,13.515132,98609.484,1.1716439,0
837116000,837104000,6620172,228.43382,13.515131,98611.13,1.1716634,0
837188000,837164000,6620172,228.55008,13.515071,98609.8,1.1716474,0
837236000,837224000,6620172,228.5078,13.514994,98610.29,1.1716534,0
837308000,837284000,6620172,228.56856,13.514888,98609.56,1.1716448,0
837356000,837344000,6620172,228.57121,13.514704,98609.53,1.1716443,0
837428000,837404000,6620172,228.558,13.514491,98609.69,1.1716462,0
837476000,837464000,6620172,228.66898,13.514231,98608.39,1.1716309,0
837548000,837524000,6620172,228.57121,13.513922,98609.53,1.1716443,0
837596000,837582000,6620172,228.5765,13.513559,98609.45,1.1716434,0
837644000,837632000,6620172,228.83809,13.513239,98606.39,1.171607,0
837716000,837692000,6620172,228.84337,13.512782,98606.33,1.1716063,0
837764000,837752000,6620172,228.90678,13.512308,98605.58,1.1715974,0
837836000,837812000,6620172,229.04419,13.511755,98603.96,1.1715782,0
837884000,837872000,6620172,229.0072,13.511164,98604.41,1.1715834,0
837956000,837930666,6620172,229.18423,13.510554,98602.33,1.1715587,0
838004000,837992000,6620172,229.2133,13.509943,98601.984,1.1715547,0
838076000,838052000,6620172,229.35335,13.509354,98600.336,1.1715351,0
838124000,838112000,6620172,229.34805,13.508783,98600.41,1.171536,0
838196000,838172000,6620172,229.49867,13.508235,98598.625,1.1715147,0
838244000,838232000,6620172,229.54622,13.5077305,98598.07,1.1715082,0
838316000,838292000,6620172,229.70741,13.507258,98596.19,1.1714858,0
838364000,838352000,6620172,229.78404,13.5068,98595.28,1.171475,0
838436000,838412000,6620172,229.82895,13.506363,98594.766,1.171469,0
838484000,838472000,6620172,229.8501,13.50596,98594.516,1.1714659,0
838556000,838530666,6620172,229.91087,13.50559,98593.805,1.1714575,0
838604000,838592000,6620172,230.15926,13.505243,98590.86,1.1714225,0
838676000,838652000,6620172,230.03769,13.504909,98592.31,1.1714398,0
838724000,838712000,6620172,230.12755,13.504602,98591.234,1.171427,0
838796000,838772000,6620172,230.21738,13.504298,98590.18,1.1714144,0
838840000,838830000,6620172,230.1936,13.504023,98590.47,1.1714178,0
838912000,838888000,6620172,230.2993,13.503759,98589.21,1.1714029,0
838964000,838950000,6620172,230.34685,13.503519,98588.67,1.1713965,0
839012000,839000000,6620172,230.3627,13.503336,98588.49,1.1713943,0
839084000,839060000,6620172,230.38913,13.503108,98588.18,1.1713907,0
839132000,839120000,6620172,230.29666,13.502909,98589.266,1.1714035,0
839204000,839180000,6620172,230.31778,13.502722,98589.02,1.1714007,0
839252000,839238000,6620172,230.29399,13.502527,98589.28,1.1714038,0
839300000,839288000,6620172,230.45255,13.502405,98587.42,1.1713817,0
839372000,839348000,6620172,230.50804,13.502243,98586.77,1.171374,0
839420000,839408000,6620172,230.58995,13.5021,98585.83,1.1713628,0
839492000,839468000,6620172,230.44727,13.501948,98587.484,1.1713824,0
839540000,839528000,6620172,230.61638,13.501795,98585.49,1.1713587,0
839612000,839588000,6620172,230.54503,13.501674,98586.33,1.1713687,0
839660000,839648000,6620172,230.45518,13.501551,98587.39,1.1713812,0
839732000,839708000,6620172,230.63486,13.50144,98585.27,1.1713561,0
839780000,839768000,6620172,230.58995,13.501322,98585.81,1.1713625,0
839852000,839828000,6620172,230.6745,13.501226,98584.81,1.1713507,0
839896000,839886000,6620172,230.64278,13.501139,98585.19,1.1713551,0
839948000,839936000,6620172,230.73,13.501047,98584.17,1.1713431,0
840020000,839996000,6620172,230.72736,13.500972,98584.21,1.1713434,0
840068000,840056000,6620172,230.68771,13.500895,98584.65,1.1713487,0
840136000,840114666,6620172,230.693,13.500819,98584.61,1.1713482,0
840188000,840176000,6620172,230.77754,13.500742,98583.625,1.1713365,0
840260000,840236000,6620172,230.71149,13.500667,98584.4,1.1713457,0
840308000,840296000,6620172,230.70357,13.500605,98584.5,1.1713469,0
840380000,840354666,6620172,230.77226,13.500606,98583.67,1.1713371,0
840428000,840416000,6620172,230.81982,13.500635,98583.13,1.1713307,0
840500000,840476000,6620172,230.64543,13.500687,98585.17,1.1713549,0
840548000,840536000,6620172,230.79869,13.500742,98583.38,1.1713337,0
840620000,840596000,6620172,230.71677,13.500789,98584.336,1.1713449,0
840668000,840656000,6620172,230.78546,13.500849,98583.51,1.1713351,0
840740000,840716000,6620172,230.67978,13.500891,98584.77,1.1713501,0
840788000,840776000,6620172,230.6375,13.50094,98585.25,1.1713558,0
840860000,840834666,6620172,230.6692,13.500961,98584.89,1.1713516,0
840908000,840894000,6620172,230.64278,13.500971,98585.21,1.1713554,0
840956000,840944000,6620172,230.71677,13.500986,98584.31,1.1713448,0
841024000,841002666,6620172,230.66129,13.500972,98584.99,1.1713527,0
841076000,841064000,6620172,230.7247,13.500956,98584.24,1.1713439,0
841148000,841124000,6620172,230.61638,13.500911,98585.49,1.1713587,0
841196000,841184000,6620172,230.62694,13.500864,98585.37,1.1713573,0
841268000,841244000,6620172,230.67978,13.500789,98584.766,1.1713501,0
841316000,841304000,6620172,230.69827,13.500681,98584.555,1.1713475,0
841388000,841362666,6620172,230.77226,13.500586,98583.67,1.1713371,0
841436000,841424000,6620172,230.74055,13.500467,98584.055,1.1713417,0
841508000,841484000,6620172,230.7432,13.500331,98584.02,1.1713413,0
841556000,841544000,6620172,230.68242,13.500177,98584.72,1.1713495,0
841628000,841604000,6620172,230.81453,13.500026,98583.18,1.1713313,0
841676000,841664000,6620172,230.83832,13.499872,98582.88,1.1713277,0
841748000,841724000,6620172,230.98894,13.49968,98581.125,1.1713068,0
841796000,841784000,6620172,230.9361,13.499491,98581.75,1.1713142,0
841868000,841844000,6620172,230.90175,13.499293,98582.14,1.1713189,0
841916000,841904000,6620172,231.04971,13.499094,98580.414,1.1712984,0
841988000,841964000,6620172,230.98628,13.498866,98581.17,1.1713073,0
842036000,842024000,6620172,230.9678,13.498636,98581.375,1.1713098,0
842108000,842082666,6620172,231.05763,13.498408,98580.336,1.1712974,0
842156000,842144000,6620172,231.1316,13.4981785,98579.45,1.171287,0
842228000,842204000,6620172,231.1369,13.49792,98579.39,1.1712862,0
842272000,842262000,6620172,231.15804,13.497675,98579.14,1.1712834,0
842324000,842312000,6620172,231.21883,13.497477,98578.42,1.1712747,0
842396000,842370666,6620172,231.35887,13.497218,98576.77,1.1712551,0
842444000,842432000,6620172,231.28488,13.496958,98577.66,1.1712656,0
842516000,842492000,6620172,231.37999,13.496689,98576.52,1.1712521,0
842564000,842552000,6620172,231.41434,13.496424,98576.13,1.1712475,0
842636000,842612000,6620172,231.45398,13.4961605,98575.67,1.1712421,0
842684000,842672000,6620172,231.57289,13.49589,98574.28,1.1712255,0
842756000,842732000,6620172,231.55702,13.495621,98574.46,1.1712276,0
842804000,842790000,6620172,231.52795,13.495356,98574.81,1.1712319,0
842876000,842850666,6620172,231.43285,13.495092,98575.92,1.171245,0
842924000,842912000,6620172,231.66536,13.494822,98573.19,1.1712126,0
842996000,842970666,6620172,231.63365,13.494563,98573.55,1.1712167,0
843040000,843030000,6620172,231.742,13.494303,98572.29,1.171202,0
843092000,843080000,6620172,231.76048,13.494089,98572.055,1.1711991,0
843164000,843140000,6620172,231.7103,13.493831,98572.64,1.1712061,0
843212000,843200000,6620172,231.72614,13.49357,98572.484,1.1712042,0
843284000,843257333,6620172,231.76842,13.493312,98571.984,1.1711982,0
843308000,843308000,6620172,231.8292,13.493097,98571.25,1.1711895,0
843404000,843368000,6620172,232.02473,13.492853,98568.98,1.1711625,0
843428000,843428000,6620172,231.93489,13.492609,98570.016,1.1711749,0
843524000,843487000,6620172,232.0115,13.492342,98569.12,1.1711642,0
843544000,843544000,6620172,232.24667,13.49209,98566.35,1.1711314,0
843620000,843596000,6620172,232.03793,13.491898,98568.81,1.1711606,0
843668000,843656000,6620172,232.17006,13.491648,98567.266,1.1711421,0
843740000,843716000,6620172,232.15947,13.491379,98567.37,1.1711434,0
843788000,843776000,6620172,232.2176,13.491129,98566.71,1.1711355,0
843860000,843836000,6620172,232.28896,13.49087,98565.87,1.1711257,0
843908000,843896000,6620172,232.25989,13.490625,98566.2,1.1711296,0
843980000,843956000,6620172,232.29951,13.490372,98565.734,1.171124,0
844028000,844016000,6620172,232.37086,13.490122,98564.91,1.1711141,0
844100000,844076000,6620172,232.40785,13.489874,98564.47,1.171109,0
844148000,844136000,6620172,232.36293,13.489634,98564.99,1.1711152,0
844220000,844196000,6620172,232.4845,13.489386,98563.555,1.1710981,0
844268000,844256000,6620172,232.49242,13.489145,98563.48,1.1710972,0
844340000,844316000,6620172,232.57169,13.488907,98562.52,1.1710858,0
844388000,844376000,6620172,232.47127,13.488657,98563.734,1.1711001,0
844460000,844436000,6620172,232.63774,13.488429,98561.75,1.1710767,0
844508000,844496000,6620172,232.64038,13.488199,98561.734,1.1710764,0
844580000,844556000,6620172,232.65623,13.487971,98561.55,1.1710742,0
844624000,844614000,6620172,232.69324,13.487741,98561.11,1.171069,0
844676000,844664000,6620172,232.70644,13.487558,98560.97,1.1710672,0
844748000,844722666,6620172,232.84648,13.48733,98559.31,1.1710476,0
844796000,844784000,6620172,232.8227,13.487101,98559.586,1.1710509,0
844864000,844842666,6620172,232.79893,13.486873,98559.87,1.1710542,0
844916000,844904000,6620172,232.89932,13.486643,98558.69,1.1710402,0
844988000,844964000,6620172,232.87291,13.486415,98559.0,1.171044,0
845036000,845024000,6620172,232.96538,13.486185,98557.92,1.1710311,0
845108000,845084000,6620172,232.98653,13.485957,98557.68,1.1710283,0
845156000,845142000,6620172,233.03937,13.485727,98557.04,1.1710206,0
845224000,845201333,6620172,233.00238,13.485499,98557.5,1.1710262,0
845252000,845252000,6620172,233.079,13.485315,98556.57,1.171015,0
845348000,845312000,6620172,233.16356,13.485056,98555.58,1.1710032,0
845372000,845372000,6620172,233.29039,13.484827,98554.086,1.1709856,0
845468000,845431000,6620172,233.15564,13.484568,98555.67,1.1710044,0
845492000,845492000,6620172,233.24547,13.484339,98554.64,1.1709921,0
845588000,845552000,6620172,233.27718,13.484079,98554.266,1.1709876,0
845612000,845612000,6620172,233.28246,13.48382,98554.19,1.1709868,0
845708000,845672000,6620172,233.31682,13.483591,98553.78,1.1709819,0
845732000,845732000,6620172,233.40402,13.483332,98552.77,1.17097,0
845828000,845792000,6620172,233.39607,13.483095,98552.84,1.1709708,0
845852000,845852000,6620172,233.5599,13.482843,98550.93,1.1709481,0
845948000,845912000,6620172,233.51764,13.482599,98551.43,1.170954,0
845972000,845972000,6620172,233.52292,13.482355,98551.37,1.1709533,0
846068000,846032000,6620172,233.62862,13.482103,98550.125,1.1709385,0
846092000,846092000,6620172,233.57841,13.481836,98550.734,1.1709456,0
846188000,846152000,6620172,233.64182,13.4816,98549.96,1.1709366,0
846212000,846212000,6620172,233.69731,13.481348,98549.305,1.1709287,0
846308000,846272000,6620172,233.74487,13.481089,98548.78,1.1709225,0
846332000,846332000,6620172,233.69467,13.480829,98549.34,1.1709293,0
846428000,846392000,6620172,233.81093,13.480577,98547.97,1.1709129,0
846448000,846448000,6620172,233.83472,13.48031,98547.72,1.1709099,0
846524000,846500000,6620172,233.87434,13.480108,98547.25,1.1709044,0
846572000,846560000,6620172,233.84792,13.479853,98547.55,1.1709079,0
846644000,846620000,6620172,233.98532,13.479589,98545.94,1.1708888,0
846692000,846680000,6620172,234.08044,13.479319,98544.81,1.1708754,0
846764000,846740000,6620172,234.00383,13.479071,98545.71,1.170886,0
846812000,846798000,6620172,234.08572,13.4788,98544.766,1.1708748,0
846860000,846848000,6620172,234.12537,13.478586,98544.3,1.1708694,0
846932000,846908000,6620172,234.29976,13.478317,98542.25,1.1708449,0
846976000,846966000,6620172,234.11745,13.478052,98544.375,1.1708702,0
847028000,847016000,6620172,234.20729,13.477854,98543.33,1.1708578,0
847100000,847074666,6620172,234.27863,13.477585,98542.5,1.1708479,0
847148000,847136000,6620172,234.39488,13.47732,98541.13,1.1708317,0
847216000,847194666,6620172,234.38696,13.4770565,98541.234,1.1708329,0
847264000,847254000,6620172,234.34998,13.476786,98541.64,1.1708376,0
847316000,847304000,6620172,234.33939,13.476572,98541.79,1.1708394,0
847388000,847364000,6620172,234.50322,13.476303,98539.87,1.1708167,0
847436000,847424000,6620172,234.41602,13.476038,98540.89,1.1708288,0
847508000,847484000,6620172,234.55342,13.475775,98539.27,1.1708095,0
847556000,847544000,6620172,234.56927,13.475504,98539.086,1.1708074,0
847628000,847604000,6620172,234.60098,13.475235,98538.7,1.1708027,0
847676000,847664000,6620172,234.69875,13.474955,98537.56,1.1707892,0
847748000,847724000,6620172,234.75952,13.474676,98536.84,1.1707807,0
847796000,847784000,6620172,234.74896,13.47439,98536.97,1.1707822,0
847868000,847844000,6620172,234.7516,13.474106,98536.92,1.1707816,0
847916000,847904000,6620172,234.89165,13.47381,98535.28,1.1707622,0
847988000,847964000,6620172,234.84409,13.4735365,98535.836,1.1707687,0
848036000,848024000,6620172,234.87578,13.473246,98535.47,1.1707643,0
848108000,848084000,6620172,235.01582,13.472957,98533.836,1.170745,0
848156000,848144000,6620172,234.99205,13.472666,98534.12,1.1707484,0
848228000,848204000,6620172,234.96562,13.472377,98534.42,1.1707519,0
848276000,848264000,6620172,235.08983,13.472101,98532.98,1.1707348,0
848348000,848324000,6620172,235.20343,13.4718075,98531.65,1.170719,0
848396000,848382000,6620172,235.26686,13.471521,98530.875,1.1707098,0
848444000,848432000,6620172,235.22986,13.471277,98531.31,1.170715,0
848516000,848490666,6620172,235.24571,13.471004,98531.14,1.170713,0
848564000,848552000,6620172,235.34348,13.470697,98529.984,1.1706992,0
848636000,848612000,6620172,235.4069,13.470404,98529.234,1.1706903,0
848680000,848670000,6620172,235.4333,13.470118,98528.94,1.1706868,0
848732000,848720000,6620172,235.53108,13.469873,98527.8,1.1706731,0
848804000,848780000,6620172,235.539,13.469569,98527.68,1.1706718,0
848852000,848840000,6620172,235.56279,13.469294,98527.414,1.1706687,0
848924000,848900000,6620172,235.63148,13.468989,98526.625,1.1706593,0
848972000,848960000,6620172,235.66849,13.468683,98526.164,1.1706538,0
849044000,849018666,6620172,235.7134,13.468379,98525.64,1.1706475,0
849092000,849080000,6620172,235.70547,13.468073,98525.75,1.1706489,0
849164000,849140000,6620172,235.75568,13.467769,98525.15,1.1706418,0
849212000,849200000,6620172,235.82967,13.467478,98524.28,1.1706314,0
849284000,849260000,6620172,235.8376,13.467189,98524.19,1.1706302,0
849332000,849320000,6620172,235.88779,13.466883,98523.59,1.1706233,0
849404000,849380000,6620172,235.93271,13.4665785,98523.06,1.170617,0
849452000,849440000,6620172,236.0014,13.466288,98522.266,1.1706074,0
849524000,849500000,6620172,236.07805,13.465999,98521.375,1.1705968,0
849572000,849560000,6620172,236.05162,13.4656925,98521.67,1.1706004,0
849644000,849620000,6620172,236.03311,13.465408,98521.89,1.170603,0
849692000,849680000,6620172,236.1943,13.465113,98520.0,1.1705806,0
849764000,849740000,6620172,236.1943,13.464839,98519.984,1.1705804,0
849812000,849800000,6620172,236.16524,13.464533,98520.34,1.1705847,0
849884000,849860000,6620172,236.2815,13.464259,98518.984,1.1705686,0
849932000,849920000,6620172,236.24979,13.463968,98519.33,1.1705726,0
850004000,849980000,6620172,236.39777,13.463679,98517.61,1.1705523,0
850052000,850040000,6620172,236.52722,13.463404,98516.09,1.1705341,0
850124000,850100000,6620172,236.54573,13.46311,98515.87,1.1705315,0
850172000,850160000,6620172,236.38454,13.462824,98517.75,1.1705538,0
850244000,850220000,6620172,236.5193,13.46253,98516.18,1.1705352,0
850292000,850278000,6620172,236.60387,13.462244,98515.2,1.1705235,0
850340000,850328000,6620172,236.64351,13.462,98514.71,1.1705177,0
850412000,850388000,6620172,236.71484,13.461726,98513.89,1.1705079,0
850460000,850448000,6620172,236.6937,13.461435,98514.14,1.170511,0
850528000,850505333,6620172,236.74391,13.461187,98513.56,1.1705041,0
850556000,850556000,6620172,236.84695,13.461023,98512.34,1.1704897,0
850652000,850616000,6620172,236.77824,13.460817,98513.16,1.1704992,0
850676000,850676000,6620172,236.92358,13.460657,98511.42,1.1704786,0
850772000,850736000,6620172,236.91565,13.460558,98511.54,1.17048,0
850796000,850796000,6620172,236.8179,13.460474,98512.68,1.1704936,0
850892000,850856000,6620172,236.89981,13.460428,98511.7,1.170482,0
850916000,850916000,6620172,236.98964,13.460413,98510.664,1.1704696,0
851012000,850976000,6620172,236.93416,13.460428,98511.33,1.1704775,0
851036000,851036000,6620172,237.00021,13.460474,98510.53,1.1704681,0
851128000,851095000,6620172,236.8443,13.46052,98512.36,1.1704898,0
851156000,851156000,6620172,236.82054,13.460596,98512.66,1.1704932,0
851252000,851215000,6620172,236.84695,13.460718,98512.336,1.1704895,0
851272000,851272000,6620172,236.85753,13.46084,98512.2,1.170488,0
851348000,851322666,6620172,236.88394,13.460963,98511.91,1.1704844,0
851396000,851382000,6620172,236.72806,13.461145,98513.74,1.1705062,0
851444000,851432000,6620172,236.69633,13.461283,98514.09,1.1705103,0
851512000,851490666,6620172,236.71748,13.461493,98513.86,1.1705077,0
851564000,851552000,6620172,236.64087,13.46171,98514.75,1.1705182,0
851636000,851610666,6620172,236.70956,13.46194,98513.94,1.1705086,0
851684000,851672000,6620172,236.6065,13.462198,98515.15,1.1705229,0
851756000,851732000,6620172,236.48232,13.462448,98516.61,1.1705403,0
851804000,851792000,6620172,236.53517,13.462732,98516.0,1.1705331,0
851876000,851852000,6620172,236.56158,13.463008,98515.67,1.1705292,0
851924000,851910000,6620172,236.4374,13.463312,98517.13,1.1705464,0
851972000,851960000,6620172,236.3819,13.463526,98517.78,1.1705542,0
852040000,852018666,6620172,236.35019,13.463812,98518.17,1.1705588,0
852092000,852080000,6620172,236.3132,13.46409,98518.61,1.170564,0
852164000,852140000,6620172,236.30528,13.46434,98518.69,1.170565,0
852212000,852200000,6620172,236.21545,13.464579,98519.75,1.1705776,0
852284000,852260000,6620172,236.24979,13.464808,98519.36,1.1705729,0
852332000,852320000,6620172,236.08333,13.465036,98521.31,1.1705961,0
852404000,852380000,6620172,236.1626,13.465236,98520.375,1.170585,0
852452000,852440000,6620172,236.18639,13.465448,98520.1,1.1705818,0
852524000,852500000,6620172,236.2181,13.465663,98519.71,1.1705772,0
852572000,852560000,6620172,236.07805,13.465891,98521.36,1.1705967,0
852644000,852620000,6620172,236.03575,13.46609,98521.875,1.1706029,0
852692000,852680000,6620172,236.01727,13.466318,98522.07,1.1706052,0
852764000,852740000,6620172,235.96442,13.466548,98522.69,1.1706125,0
852812000,852800000,6620172,235.95386,13.466806,98522.81,1.170614,0
852884000,852860000,6620172,235.90894,13.467036,98523.34,1.1706203,0
852932000,852920000,6620172,235.80324,13.467279,98524.61,1.1706353,0
853004000,852980000,6620172,235.76625,13.467535,98525.02,1.1706402,0
853052000,853038000,6620172,235.77153,13.467783,98524.96,1.1706395,0
853100000,853088000,6620172,235.71075,13.467997,98525.664,1.1706479,0
853172000,853148000,6620172,235.72662,13.468246,98525.484,1.1706457,0
853220000,853208000,6620172,235.65527,13.468485,98526.32,1.1706557,0
853292000,853265333,6620172,235.69228,13.468745,98525.89,1.1706506,0
853316000,853316000,6620172,235.56279,13.468927,98527.414,1.1706687,0
853412000,853375000,6620172,235.65263,13.469187,98526.34,1.170656,0
853436000,853436000,6620172,235.64206,13.469416,98526.48,1.1706575,0
853532000,853496000,6620172,235.4703,13.469652,98528.51,1.1706817,0
853552000,853552000,6620172,235.4386,13.469904,98528.87,1.170686,0
853628000,853604000,6620172,235.44917,13.470088,98528.734,1.1706843,0
853676000,853664000,6620172,235.2272,13.470316,98531.34,1.1707153,0
853748000,853724000,6620172,235.35405,13.470546,98529.86,1.1706977,0
853796000,853782000,6620172,235.36461,13.470789,98529.734,1.1706963,0
853844000,853832000,6620172,235.31705,13.470987,98530.3,1.1707029,0
853916000,853892000,6620172,235.29591,13.471237,98530.555,1.1707059,0
853964000,853952000,6620172,235.18494,13.471476,98531.86,1.1707214,0
854036000,854012000,6620172,235.2325,13.471746,98531.3,1.1707149,0
854084000,854072000,6620172,235.13737,13.47201,98532.39,1.1707278,0
854156000,854132000,6620172,234.99469,13.472265,98534.086,1.1707479,0
854204000,854192000,6620172,235.06868,13.472528,98533.2,1.1707374,0
854276000,854252000,6620172,235.0079,13.472815,98533.92,1.1707461,0
854324000,854312000,6620172,235.08716,13.473078,98533.0,1.170735,0
854396000,854372000,6620172,234.85728,13.473343,98535.71,1.1707673,0
854444000,854432000,6620172,234.80974,13.473612,98536.25,1.1707736,0
854512000,854489333,6620172,234.83615,13.473892,98535.95,1.17077,0
854540000,854540000,6620172,234.73575,13.474115,98537.125,1.170784,0
854632000,854599000,6620172,234.74103,13.474375,98537.06,1.1707833,0
854660000,854660000,6620172,234.80974,13.474634,98536.26,1.1707737,0
854756000,854720000,6620172,234.68553,13.474901,98537.7,1.1707909,0
854780000,854780000,6620172,234.70668,13.475153,98537.48,1.1707882,0
854876000,854840000,6620172,234.60364,13.475428,98538.68,1.1708026,0
854900000,854900000,6620172,234.44772,13.475672,98540.5,1.1708242,0
854996000,854959000,6620172,234.53493,13.475939,98539.47,1.1708119,0
855020000,855020000,6620172,234.32883,13.476191,98541.91,1.1708409,0
855116000,855080000,6620172,234.42659,13.476442,98540.766,1.1708274,0
855140000,855140000,6620172,234.35526,13.476709,98541.586,1.170837,0
855236000,855200000,6620172,234.37903,13.4769535,98541.31,1.1708338,0
855260000,855260000,6620172,234.22049,13.477228,98543.18,1.170856,0
855356000,855320000,6620172,234.3341,13.477472,98541.84,1.1708401,0
855380000,855380000,6620172,234.24162,13.477716,98542.92,1.1708529,0
855476000,855440000,6620172,234.15443,13.477991,98543.93,1.1708649,0
855500000,855500000,6620172,234.22313,13.478235,98543.14,1.1708555,0
855596000,855559000,6620172,234.10951,13.47851,98544.48,1.1708714,0
855620000,855620000,6620172,234.0593,13.478754,98545.07,1.1708784,0
855716000,855680000,6620172,234.03554,13.479021,98545.36,1.1708819,0
855740000,855740000,6620172,234.13329,13.479151,98544.21,1.1708683,0
855836000,855800000,6620172,234.12273,13.478724,98544.33,1.1708696,0
855860000,855860000,6620172,234.24956,13.47793,98542.84,1.1708521,0
855956000,855920000,6620172,234.41602,13.476725,98540.89,1.1708288,0
855980000,855980000,6620172,234.52437,13.475336,98539.62,1.1708137,0
856076000,856040000,6620172,234.86522,13.47394,98535.6,1.1707659,0
856100000,856100000,6620172,234.83086,13.472559,98535.99,1.1707706,0
856196000,856160000,6620172,235.28534,13.471201,98530.67,1.1707075,0
856220000,856220000,6620172,235.36725,13.469843,98529.7,1.1706959,0
856316000,856279000,6620172,235.61035,13.4685,98526.87,1.1706622,0
856340000,856340000,6620172,235.81909,13.467127,98524.39,1.1706327,0
856436000,856400000,6620172,236.14938,13.465723,98520.516,1.1705867,0
856460000,856460000,6620172,236.35283,13.464319,98518.125,1.1705583,0
856556000,856520000,6620172,236.51666,13.462893,98516.22,1.1705357,0
856580000,856580000,6620172,236.65143,13.461451,98514.63,1.1705168,0
856676000,856640000,6620172,236.99757,13.460009,98510.57,1.1704684,0
856700000,856700000,6620172,237.26443,13.458582,98507.43,1.1704313,0
856796000,856759000,6620172,237.41771,13.457132,98505.625,1.1704098,0
856820000,856820000,6620172,237.59474,13.455683,98503.55,1.1703851,0
856916000,856880000,6620172,237.80084,13.454256,98501.125,1.1703563,0
856940000,856940000,6620172,238.03336,13.452814,98498.4,1.1703238,0
857036000,857000000,6620172,238.33723,13.45141,98494.84,1.1702816,0
857056000,857056000,6620172,238.49576,13.4500065,98492.97,1.1702594,0
857132000,857108000,6620172,238.61467,13.448919,98491.56,1.1702427,0
857180000,857168000,6620172,238.97403,13.44758,98487.375,1.170193,0
857252000,857228000,6620172,239.00574,13.446335,98487.0,1.1701884,0
857300000,857288000,6620172,239.31754,13.445139,98483.34,1.170145,0
857372000,857348000,6620172,239.41792,13.4440565,98482.15,1.1701308,0
857420000,857408000,6620172,239.58968,13.443033,98480.14,1.170107,0
857492000,857468000,6620172,239.80107,13.442114,98477.67,1.1700776,0
857540000,857528000,6620172,239.8407,13.441263,98477.2,1.1700721,0
857612000,857588000,6620172,239.98868,13.440496,98475.45,1.1700512,0
857660000,857648000,6620172,240.11815,13.439814,98473.92,1.1700331,0
857732000,857708000,6620172,240.16042,13.439215,98473.45,1.1700275,0
857780000,857768000,6620172,240.33217,13.438669,98471.44,1.1700035,0
857852000,857828000,6620172,240.33481,13.438167,98471.4,1.170003,0
857900000,857888000,6620172,240.43523,13.437738,98470.195,1.1699888,0
857968000,857946666,6620172,240.42465,13.437353,98470.33,1.1699903,0
858020000,858008000,6620172,240.57791,13.437006,98468.55,1.1699692,0
858092000,858068000,6620172,240.51979,13.436702,98469.21,1.1699772,0
858140000,858128000,6620172,240.55942,13.436426,98468.75,1.1699716,0
858212000,858185333,6620172,240.64397,13.436183,98467.77,1.16996,0
858236000,858236000,6620172,240.56734,13.435999,98468.664,1.1699706,0
858332000,858296000,6620172,240.63605,13.435801,98467.84,1.1699609,0
858356000,858356000,6620172,240.68623,13.435602,98467.27,1.1699542,0
858452000,858416000,6620172,240.74966,13.43545,98466.516,1.1699451,0
858476000,858476000,6620172,240.82892,13.435297,98465.586,1.169934,0
858572000,858536000,6620172,240.86858,13.435152,98465.13,1.1699287,0
858596000,858596000,6620172,240.72589,13.435022,98466.78,1.1699482,0
858692000,858656000,6620172,240.88705,13.4349,98464.9,1.1699259,0
858716000,858716000,6620172,240.99011,13.434778,98463.7,1.1699116,0
858808000,858775000,6620172,240.86063,13.434679,98465.234,1.1699299,0
858836000,858836000,6620172,240.88705,13.434565,98464.91,1.1699259,0
858932000,858895000,6620172,240.78929,13.434481,98466.08,1.1699399,0
858956000,858956000,6620172,240.7761,13.434412,98466.21,1.1699414,0
859052000,859015000,6620172,240.90556,13.434359,98464.7,1.1699235,0
859076000,859076000,6620172,240.9716,13.434351,98463.93,1.1699144,0
859172000,859135000,6620172,240.92406,13.434359,98464.47,1.1699208,0
859196000,859196000,6620172,240.99803,13.4343815,98463.62,1.1699107,0
859292000,859256000,6620172,240.90556,13.434435,98464.7,1.1699235,0
859316000,859316000,6620172,240.93991,13.434504,98464.27,1.1699184,0
859412000,859376000,6620172,240.86063,13.434549,98465.2,1.1699295,0
859436000,859436000,6620172,240.95576,13.434595,98464.1,1.1699164,0
859532000,859496000,6620172,240.93991,13.434656,98464.29,1.1699187,0
859556000,859556000,6620172,240.90027,13.434687,98464.77,1.1699244,0
859652000,859616000,6620172,240.82364,13.434732,98465.66,1.1699349,0
859676000,859676000,6620172,240.92934,13.434748,98464.43,1.1699203,0
859772000,859736000,6620172,240.87122,13.434771,98465.09,1.1699282,0
859796000,859796000,6620172,240.92934,13.434778,98464.41,1.16992,0
859892000,859856000,6620172,240.90292,13.434809,98464.72,1.1699238,0
859916000,859916000,6620172,240.86592,13.434809,98465.164,1.169929,0
860012000,859975000,6620172,240.85799,13.434809,98465.26,1.1699302,0
860036000,860036000,6620172,240.82628,13.434809,98465.63,1.1699345,0
860132000,860096000,6620172,240.86063,13.434809,98465.2,1.1699295,0
860156000,860156000,6620172,240.85799,13.434809,98465.25,1.1699301,0
860248000,860215000,6620172,240.821,13.434786,98465.67,1.1699351,0
860276000,860276000,6620172,240.90556,13.434778,98464.68,1.1699233,0
860372000,860335000,6620172,240.90027,13.434763,98464.766,1.1699243,0
860396000,860396000,6620172,240.8078,13.434748,98465.836,1.169937,0
860492000,860456000,6620172,240.90556,13.434725,98464.68,1.1699233,0
860516000,860516000,6620172,240.79457,13.434687,98466.016,1.1699392,0
860612000,860576000,6620172,240.82628,13.434671,98465.63,1.1699345,0
860636000,860636000,6620172,240.83423,13.434656,98465.52,1.1699333,0
860732000,860696000,6620172,240.87386,13.434618,98465.08,1.169928,0
860756000,860756000,6620172,240.89499,13.434595,98464.83,1.1699251,0
860852000,860816000,6620172,240.90556,13.434549,98464.7,1.1699235,0
860876000,860876000,6620172,240.99803,13.434504,98463.6,1.1699106,0
860972000,860935000,6620172,240.94785,13.434488,98464.195,1.1699175,0
860996000,860996000,6620172,240.96104,13.4344425,98464.05,1.1699157,0
861092000,861056000,6620172,240.85799,13.434397,98465.26,1.1699302,0
861116000,861116000,6620172,241.00862,13.434351,98463.48,1.169909,0
861212000,861176000,6620172,240.93198,13.434313,98464.375,1.1699197,0
861232000,861232000,6620172,240.85535,13.434259,98465.27,1.1699303,0
861308000,861282666,6620172,241.12224,13.43423,98462.16,1.1698934,0
861352000,861342000,6620172,241.03238,13.434183,98463.2,1.1699057,0
861404000,861392000,6620172,240.92406,13.434153,98464.47,1.1699208,0
861476000,861452000,6620172,240.97427,13.434108,98463.875,1.1699138,0
861524000,861512000,6620172,241.04561,13.434061,98463.04,1.1699038,0
861596000,861572000,6620172,241.01918,13.434027,98463.375,1.1699078,0
861644000,861632000,6620172,240.93198,13.4339695,98464.38,1.1699197,0
861716000,861692000,6620172,240.85799,13.433935,98465.266,1.1699302,0
861764000,861752000,6620172,240.92934,13.433893,98464.43,1.1699203,0
861836000,861812000,6620172,240.98747,13.433853,98463.75,1.1699122,0
861884000,861872000,6620172,240.98747,13.433817,98463.73,1.169912,0
861952000,861930666,6620172,241.06938,13.433772,98462.78,1.1699008,0
862000000,861988000,6620172,241.0139,13.433725,98463.414,1.1699082,0
862052000,862040000,6620172,241.04297,13.433695,98463.09,1.1699045,0
862124000,862100000,6620172,241.03238,13.4336605,98463.2,1.1699057,0
862172000,862160000,6620172,241.04297,13.433619,98463.08,1.1699042,0
862244000,862220000,6620172,241.01918,13.4335785,98463.375,1.1699078,0
862292000,862280000,6620172,241.06938,13.433542,98462.78,1.1699008,0
862364000,862340000,6620172,241.01126,13.433508,98463.46,1.1699088,0
862412000,862400000,6620172,240.97691,13.433466,98463.84,1.1699133,0
862484000,862458666,6620172,241.00595,13.433426,98463.52,1.1699096,0
862528000,862518000,6620172,241.05089,13.43339,98463.0,1.1699033,0
862580000,862568000,6620172,241.10373,13.433344,98462.36,1.1698958,0
862652000,862628000,6620172,241.08524,13.433304,98462.586,1.1698984,0
862700000,862688000,6620172,241.17242,13.433268,98461.56,1.1698862,0
862772000,862748000,6620172,241.12488,13.433223,98462.11,1.1698927,0
862820000,862808000,6620172,241.10901,13.433176,98462.3,1.169895,0
862892000,862868000,6620172,241.07996,13.433142,98462.64,1.1698991,0
862940000,862928000,6620172,241.00067,13.4330845,98463.56,1.16991,0
863012000,862986666,6620172,241.14072,13.43305,98461.92,1.1698905,0
863060000,863048000,6620172,241.1645,13.433008,98461.64,1.1698872,0
863132000,863108000,6620172,241.12224,13.432968,98462.14,1.1698931,0
863180000,863168000,6620172,241.0588,13.432932,98462.875,1.1699018,0
863252000,863228000,6620172,241.183,13.432907,98461.45,1.1698849,0
863300000,863288000,6620172,241.16187,13.432871,98461.67,1.1698875,0
863372000,863348000,6620172,241.1328,13.432837,98462.02,1.1698917,0
863420000,863408000,6620172,241.10109,13.43281,98462.39,1.169896,0
863492000,863468000,6620172,241.12488,13.4327755,98462.11,1.1698927,0
863536000,863526000,6620172,241.12224,13.432749,98462.14,1.1698931,0
863588000,863576000,6620172,241.11165,13.432734,98462.28,1.1698948,0
863660000,863636000,6620172,241.18036,13.4326935,98461.46,1.169885,0
863708000,863696000,6620172,241.21735,13.4326725,98461.016,1.1698797,0
863776000,863754666,6620172,241.10109,13.432643,98462.4,1.1698961,0
863824000,863812000,6620172,241.2147,13.432611,98461.07,1.1698804,0
863876000,863862000,6620172,241.20943,13.432581,98461.125,1.1698811,0
863924000,863912000,6620172,241.22528,13.432566,98460.92,1.1698786,0
863996000,863972000,6620172,241.16978,13.432541,98461.58,1.1698865,0
864044000,864032000,6620172,241.23056,13.43252,98460.875,1.169878,0
864116000,864092000,6620172,241.19357,13.43249,98461.305,1.1698831,0
864164000,864152000,6620172,241.27548,13.432474,98460.36,1.1698719,0
864236000,864210666,6620172,241.28604,13.43246,98460.234,1.1698704,0
864284000,864272000,6620172,241.28868,13.432428,98460.21,1.1698703,0
864356000,864332000,6620172,241.20149,13.432419,98461.21,1.169882,0
864404000,864392000,6620172,241.25963,13.432398,98460.54,1.1698741,0
864476000,864450666,6620172,241.13808,13.432399,98461.95,1.1698909,0
864524000,864510000,6620172,241.19885,13.432367,98461.24,1.1698824,0
864572000,864560000,6620172,241.2332,13.432367,98460.87,1.1698779,0
864644000,864618666,6620172,241.15395,13.432368,98461.8,1.1698891,0
864688000,864678000,6620172,241.183,13.432367,98461.45,1.1698849,0
864740000,864728000,6620172,241.29927,13.432337,98460.08,1.1698686,0
864808000,864786666,6620172,241.29663,13.432338,98460.11,1.169869,0
864860000,864848000,6620172,241.23586,13.432337,98460.82,1.1698774,0
864932000,864908000,6620172,241.17506,13.432338,98461.55,1.169886,0
864980000,864968000,6620172,241.25435,13.432322,98460.61,1.1698749,0
865052000,865028000,6620172,241.24641,13.432307,98460.68,1.1698757,0
865100000,865088000,6620172,241.28604,13.432306,98460.234,1.1698704,0
865172000,865148000,6620172,241.27284,13.432307,98460.375,1.169872,0
865220000,865208000,6620172,241.14072,13.432306,98461.94,1.1698908,0
865292000,865266666,6620172,241.25699,13.432277,98460.555,1.1698743,0
865340000,865328000,6620172,241.27548,13.432276,98460.36,1.1698719,0
865412000,865388000,6620172,241.26756,13.432277,98460.44,1.1698729,0
865460000,865446000,6620172,241.26756,13.4322605,98460.44,1.1698729,0
865508000,865496000,6620172,241.21735,13.432245,98461.03,1.1698799,0
865580000,865556000,6620172,241.26228,13.432246,98460.49,1.1698736,0
865628000,865616000,6620172,241.28604,13.432245,98460.234,1.1698704,0
865700000,865676000,6620172,241.23056,13.432246,98460.875,1.169878,0
865748000,865736000,6620172,241.24377,13.43223,98460.72,1.1698762,0
865816000,865794666,6620172,241.27812,13.432216,98460.31,1.1698713,0
865868000,865856000,6620172,241.32304,13.432215,98459.79,1.1698651,0
865940000,865916000,6620172,241.28868,13.432246,98460.21,1.1698703,0
865988000,865976000,6620172,241.25435,13.432245,98460.59,1.1698747,0
866060000,866036000,6620172,241.24905,13.432246,98460.67,1.1698756,0
866104000,866094000,6620172,241.14336,13.432245,98461.9,1.1698902,0
866156000,866144000,6620172,241.28076,13.4322605,98460.28,1.1698711,0
866228000,866202666,6620172,241.183,13.432277,98461.44,1.1698848,0
866276000,866264000,6620172,241.28076,13.432276,98460.28,1.1698711,0
866348000,866324000,6620172,241.23586,13.432307,98460.805,1.1698772,0
866396000,866384000,6620172,241.16187,13.432306,98461.69,1.1698877,0
866468000,866441333,6620172,241.35475,13.432318,98459.42,1.1698607,0
866492000,866492000,6620172,241.26228,13.432337,98460.516,1.1698737,0
866588000,866550000,6620172,241.2517,13.432344,98460.64,1.1698754,0
866612000,866612000,6620172,241.0773,13.432367,98462.68,1.1698995,0
866708000,866672000,6620172,241.1883,13.432375,98461.39,1.1698842,0
866732000,866732000,6620172,241.22528,13.432398,98460.945,1.1698788,0
866828000,866792000,6620172,241.20413,13.432405,98461.2,1.1698819,0
866852000,866852000,6620172,241.11696,13.432428,98462.2,1.1698939,0
866948000,866911000,6620172,241.20943,13.432444,98461.12,1.169881,0
866972000,866972000,6620172,241.1196,13.432459,98462.18,1.1698935,0
867068000,867032000,6620172,241.1645,13.432489,98461.64,1.1698872,0
867092000,867092000,6620172,241.22,13.43252,98461.01,1.1698796,0
867188000,867152000,6620172,241.22528,13.432535,98460.93,1.1698787,0
867208000,867208000,6620172,241.19621,13.43255,98461.28,1.1698829,0
867284000,867260000,6620172,241.2147,13.432582,98461.055,1.1698803,0
867332000,867320000,6620172,241.25699,13.432611,98460.56,1.1698744,0
867404000,867380000,6620172,241.1196,13.432632,98462.19,1.1698936,0
867452000,867438000,6620172,241.19093,13.4326725,98461.35,1.1698837,0
867500000,867488000,6620172,241.13544,13.432688,98461.984,1.1698912,0
867568000,867546666,6620172,241.10901,13.432714,98462.3,1.169895,0
867620000,867608000,6620172,241.13016,13.432734,98462.06,1.1698922,0
867692000,867666666,6620172,241.13544,13.432765,98461.984,1.1698912,0
867740000,867726000,6620172,241.22,13.432795,98460.984,1.1698794,0
867788000,867776000,6620172,241.29399,13.432825,98460.15,1.1698694,0
867860000,867836000,6620172,241.14867,13.432846,98461.84,1.1698896,0
867908000,867896000,6620172,241.0826,13.432871,98462.62,1.1698987,0
867980000,867956000,6620172,241.1328,13.432898,98462.02,1.1698917,0
868028000,868014000,6620172,241.08524,13.432917,98462.58,1.1698983,0
868076000,868064000,6620172,241.17242,13.432947,98461.555,1.1698861,0
868144000,868122666,6620172,241.1777,13.432968,98461.484,1.1698853,0
868192000,868182000,6620172,241.0641,13.432993,98462.836,1.1699014,0
868244000,868232000,6620172,241.15395,13.433008,98461.78,1.1698889,0
868316000,868289333,6620172,241.11696,13.43305,98462.21,1.169894,0
868340000,868340000,6620172,241.15395,13.433069,98461.79,1.169889,0
868436000,868400000,6620172,241.04561,13.4331,98463.05,1.1699039,0
868460000,868460000,6620172,241.1513,13.43313,98461.83,1.1698893,0
868556000,868520000,6620172,241.09053,13.433161,98462.516,1.1698976,0
868580000,868580000,6620172,241.04031,13.433191,98463.1,1.1699045,0
868676000,868640000,6620172,241.10901,13.433222,98462.31,1.169895,0
868700000,868700000,6620172,241.14072,13.433252,98461.945,1.1698909,0
868796000,868760000,6620172,241.07466,13.433298,98462.695,1.1698997,0
868820000,868820000,6620172,241.00331,13.433313,98463.54,1.1699097,0
868912000,868879000,6620172,241.03503,13.433359,98463.19,1.1699055,0
868940000,868940000,6620172,241.03767,13.433405,98463.16,1.1699052,0
869036000,869000000,6620172,241.12224,13.43342,98462.164,1.1698934,0
869060000,869060000,6620172,241.2147,13.433466,98461.05,1.1698802,0
869156000,869120000,6620172,241.06674,13.433489,98462.79,1.1699008,0
869180000,869180000,6620172,241.03238,13.433527,98463.21,1.1699058,0
869272000,869238000,6620172,241.05089,13.4335575,98462.984,1.1699032,0
869300000,869300000,6620172,241.13544,13.433588,98461.984,1.1698912,0
869396000,869360000,6620172,241.01126,13.433619,98463.445,1.1699086,0
869420000,869420000,6620172,241.14072,13.433649,98461.93,1.1698906,0
869516000,869480000,6620172,241.05089,13.433687,98463.0,1.1699033,0
869540000,869540000,6620172,241.0271,13.43371,98463.266,1.1699065,0
869636000,869600000,6620172,240.94255,13.433748,98464.25,1.1699182,0
869660000,869660000,6620172,241.05353,13.433771,98462.945,1.1699027,0
869756000,869720000,6620172,240.94519,13.433809,98464.22,1.1699178,0
869780000,869780000,6620172,241.03238,13.433832,98463.2,1.1699057,0
869876000,869840000,6620172,240.97427,13.43387,98463.9,1.1699139,0
869900000,869900000,6620172,240.93727,13.433893,98464.33,1.169919,0
869996000,869960000,6620172,241.03767,13.433931,98463.164,1.1699053,0
870020000,870020000,6620172,241.02182,13.433954,98463.32,1.1699071,0
870116000,870079000,6620172,240.86063,13.433992,98465.2,1.1699295,0
870140000,870140000,6620172,241.17242,13.434015,98461.56,1.1698862,0
870236000,870200000,6620172,240.96104,13.434053,98464.05,1.1699157,0
870260000,870260000,6620172,241.14336,13.434076,98461.9,1.1698902,0
870356000,870320000,6620172,240.96632,13.434099,98463.984,1.169915,0
870380000,870380000,6620172,240.95049,13.434137,98464.17,1.1699172,0
870476000,870440000,6620172,240.99803,13.434153,98463.625,1.1699107,0
870500000,870500000,6620172,240.99803,13.434168,98463.6,1.1699106,0
870596000,870560000,6620172,240.91084,13.434206,98464.64,1.1699228,0
870620000,870620000,6620172,241.0826,13.434229,98462.61,1.1698986,0
870716000,870680000,6620172,240.94785,13.434252,98464.195,1.1699175,0
870736000,870736000,6620172,241.08788,13.43429,98462.54,1.1698978,0
870812000,870788000,6620172,240.90027,13.434291,98464.77,1.1699244,0
870860000,870848000,6620172,240.86063,13.43432,98465.22,1.1699296,0
870928000,870906666,6620172,240.88441,13.434341,98464.94,1.1699263,0
870980000,870968000,6620172,240.87914,13.434351,98465.0,1.1699271,0
871052000,871028000,6620172,240.94519,13.434382,98464.22,1.1699178,0
871100000,871086000,6620172,240.94785,13.434412,98464.19,1.1699173,0
871172000,871146666,6620172,241.00067,13.434423,98463.56,1.16991,0
871220000,871208000,6620172,240.92406,13.4344425,98464.47,1.1699208,0
871292000,871268000,6620172,240.91612,13.434474,98464.555,1.1699218,0
871340000,871328000,6620172,240.96896,13.434488,98463.95,1.1699147,0
871412000,871388000,6620172,240.88177,13.4345045,98464.96,1.1699266,0
871460000,871448000,6620172,240.88441,13.434534,98464.93,1.1699263,0
871532000,871508000,6620172,240.88705,13.4345455,98464.92,1.1699262,0
871580000,871568000,6620172,240.79723,13.434565,98465.97,1.1699386,0
871652000,871628000,6620172,240.85535,13.434586,98465.27,1.1699303,0
871700000,871688000,6620172,240.91612,13.434595,98464.56,1.1699219,0
871768000,871745333,6620172,240.76022,13.434627,98466.39,1.1699436,0
871796000,871796000,6620172,240.91878,13.434626,98464.54,1.1699216,0
871892000,871856000,6620172,240.86328,13.4346485,98465.17,1.1699291,0
871916000,871916000,6620172,240.78665,13.434656,98466.086,1.16994,0
872012000,871976000,6620172,240.821,13.434679,98465.7,1.1699353,0
872036000,872036000,6620172,240.76552,13.434687,98466.336,1.169943,0
872132000,872096000,6620172,240.77344,13.43471,98466.24,1.1699419,0
872156000,872156000,6620172,240.84215,13.434717,98465.44,1.1699322,0
872252000,872216000,6620172,240.87386,13.43474,98465.055,1.1699277,0
872276000,872276000,6620172,240.78929,13.434748,98466.055,1.1699396,0
872372000,872336000,6620172,240.89235,13.434771,98464.84,1.1699252,0
872396000,872396000,6620172,240.90027,13.434778,98464.77,1.1699244,0
872492000,872456000,6620172,240.821,13.434801,98465.7,1.1699353,0
872512000,872512000,6620172,240.93991,13.434809,98464.3,1.1699188,0
872608000,872572000,6620172,240.7523,13.434824,98466.5,1.1699449,0
872636000,872636000,6620172,240.86328,13.434839,98465.18,1.1699293,0
872732000,872695000,6620172,240.83159,13.4348545,98465.55,1.1699337,0
872756000,872756000,6620172,240.89763,13.43487,98464.79,1.1699246,0
872852000,872816000,6620172,240.90027,13.434885,98464.766,1.1699243,0
872876000,872876000,6620172,240.92934,13.4349,98464.4,1.1699198,0
872972000,872936000,6620172,240.8527,13.434916,98465.31,1.1699308,0
872996000,872996000,6620172,240.71266,13.434931,98466.96,1.1699504,0
873092000,873056000,6620172,240.83423,13.434946,98465.53,1.1699334,0
873116000,873116000,6620172,240.76552,13.434961,98466.336,1.169943,0
873212000,873176000,6620172,240.83159,13.434977,98465.56,1.1699337,0
873236000,873236000,6620172,240.7153,13.434992,98466.92,1.1699499,0
873332000,873296000,6620172,240.82892,13.435007,98465.586,1.169934,0
873356000,873356000,6620172,240.84743,13.435022,98465.39,1.1699318,0
873452000,873415000,6620172,240.81044,13.435038,98465.81,1.1699368,0
873476000,873476000,6620172,240.7523,13.435053,98466.5,1.1699449,0
873572000,873536000,6620172,240.8765,13.435068,98465.05,1.1699276,0
873596000,873596000,6620172,241.04297,13.435083,98463.07,1.1699041,0
873692000,873655000,6620172,240.79193,13.435106,98466.03,1.1699394,0
873716000,873716000,6620172,240.87122,13.435114,98465.11,1.1699284,0
873812000,873776000,6620172,240.77873,13.435129,98466.19,1.1699412,0
873836000,873836000,6620172,240.81572,13.435144,98465.74,1.169936,0
873932000,873896000,6620172,240.85799,13.43516,98465.26,1.1699302,0
873956000,873956000,6620172,240.7021,13.435175,98467.08,1.1699517,0
874052000,874016000,6620172,240.78401,13.435198,98466.11,1.1699402,0
874076000,874076000,6620172,240.87122,13.435205,98465.11,1.1699284,0
874172000,874136000,6620172,240.7761,13.435228,98466.22,1.1699415,0
874196000,874196000,6620172,240.84215,13.435236,98465.445,1.1699324,0
874292000,874256000,6620172,240.70474,13.4352665,98467.07,1.1699517,0
874316000,874316000,6620172,240.76816,13.435297,98466.3,1.1699425,0
874412000,874376000,6620172,240.85007,13.435297,98465.36,1.1699313,0
874436000,874436000,6620172,240.76288,13.435328,98466.38,1.1699435,0
874532000,874496000,6620172,240.79987,13.435335,98465.92,1.169938,0
874556000,874556000,6620172,240.85007,13.435358,98465.35,1.1699312,0
874648000,874614000,6620172,240.74437,13.435358,98466.58,1.1699458,0
874676000,874676000,6620172,240.78401,13.435358,98466.11,1.1699402,0
874772000,874735000,6620172,240.73381,13.435389,98466.72,1.1699475,0
874796000,874796000,6620172,240.66248,13.435389,98467.54,1.1699573,0
874892000,874856000,6620172,240.79193,13.435389,98466.02,1.1699393,0
874916000,874916000,6620172,240.7761,13.435389,98466.22,1.1699415,0
875012000,874976000,6620172,240.76288,13.435389,98466.35,1.1699431,0
875036000,875036000,6620172,240.82628,13.435389,98465.63,1.1699345,0
875132000,875096000,6620172,240.81044,13.435389,98465.805,1.1699367,0
875156000,875156000,6620172,240.73381,13.435389,98466.7,1.1699474,0
875252000,875216000,6620172,240.74966,13.435389,98466.51,1.169945,0
875276000,875276000,6620172,240.69946,13.435358,98467.11,1.1699522,0
875372000,875336000,6620172,240.73909,13.435358,98466.64,1.1699466,0
875396000,875396000,6620172,240.7708,13.435358,98466.27,1.1699421,0
875492000,875456000,6620172,240.73117,13.435328,98466.75,1.1699479,0
875516000,875516000,6620172,240.92934,13.435297,98464.42,1.1699202,0
875612000,875575000,6620172,240.76288,13.435282,98466.375,1.1699435,0
875636000,875636000,6620172,240.67303,13.4352665,98467.414,1.1699558,0
875732000,875695000,6620172,240.81572,13.435221,98465.76,1.1699361,0
875752000,875752000,6620172,240.80252,13.435175,98465.89,1.1699377,0
875828000,875804000,6620172,240.73381,13.435135,98466.71,1.1699474,0
875876000,875864000,6620172,240.77344,13.435099,98466.24,1.1699419,0
875948000,875924000,6620172,240.89763,13.435043,98464.78,1.1699245,0
875996000,875984000,6620172,240.76552,13.435007,98466.34,1.1699431,0
876068000,876044000,6620172,240.85007,13.434952,98465.34,1.1699312,0
876116000,876104000,6620172,240.93462,13.4349,98464.34,1.1699193,0
876188000,876164000,6620172,240.76816,13.434851,98466.3,1.1699425,0
876236000,876224000,6620172,240.78401,13.434793,98466.125,1.1699405,0
876308000,876284000,6620172,240.85007,13.434749,98465.336,1.169931,0
876356000,876344000,6620172,240.84215,13.434702,98465.45,1.1699325,0
876428000,876404000,6620172,240.77873,13.434647,98466.17,1.1699411,0
876476000,876464000,6620172,240.83423,13.434595,98465.52,1.1699333,0
876544000,876522666,6620172,240.86592,13.4345455,98465.15,1.1699288,0
876596000,876584000,6620172,240.82364,13.434488,98465.66,1.1699349,0
876668000,876644000,6620172,240.95312,13.434454,98464.15,1.169917,0
876716000,876704000,6620172,240.90292,13.434412,98464.71,1.1699237,0
876788000,876764000,6620172,240.88177,13.434372,98464.96,1.1699266,0
876836000,876824000,6620172,240.9267,13.43432,98464.44,1.1699204,0
876908000,876884000,6620172,240.84743,13.434291,98465.39,1.1699318,0
876956000,876944000,6620172,240.88177,13.434259,98464.95,1.1699265,0
877028000,877004000,6620172,240.95312,13.434219,98464.15,1.169917,0
877076000,877064000,6620172,241.00067,13.434183,98463.58,1.1699102,0
877148000,877124000,6620172,241.02446,13.434158,98463.3,1.1699069,0
877196000,877184000,6620172,240.9584,13.434122,98464.07,1.169916,0
877268000,877242666,6620172,240.97427,13.434097,98463.875,1.1699138,0
877316000,877304000,6620172,241.01654,13.434076,98463.39,1.1699079,0
877388000,877364000,6620172,240.98483,13.434047,98463.77,1.1699125,0
877436000,877424000,6620172,241.06938,13.434015,98462.78,1.1699008,0
877508000,877484000,6620172,240.99275,13.434006,98463.69,1.1699115,0
877556000,877542000,6620172,240.94519,13.433985,98464.234,1.1699181,0
877604000,877592000,6620172,240.99539,13.4339695,98463.66,1.1699111,0
877676000,877652000,6620172,240.99803,13.433955,98463.625,1.1699107,0
877724000,877712000,6620172,241.00331,13.433954,98463.53,1.1699097,0
877796000,877772000,6620172,241.00595,13.433925,98463.516,1.1699095,0
877844000,877832000,6620172,241.0588,13.433924,98462.89,1.169902,0
877916000,877892000,6620172,241.0641,13.433914,98462.836,1.1699014,0
877960000,877950000,6620172,240.96368,13.433893,98464.016,1.1699154,0
878012000,878000000,6620172,241.0271,13.433893,98463.25,1.1699063,0
878084000,878060000,6620172,240.93198,13.433894,98464.375,1.1699197,0
878132000,878120000,6620172,240.8765,13.433893,98465.05,1.1699276,0
878204000,878180000,6620172,240.91878,13.433864,98464.53,1.1699215,0
878252000,878240000,6620172,240.89499,13.433863,98464.81,1.1699249,0
878324000,878300000,6620172,241.02446,13.433864,98463.3,1.1699069,0
878372000,878360000,6620172,241.0139,13.433863,98463.44,1.1699085,0
878444000,878420000,6620172,240.95576,13.433864,98464.09,1.1699164,0
878492000,878480000,6620172,240.99539,13.433863,98463.66,1.1699111,0
878560000,878538666,6620172,240.94255,13.433864,98464.25,1.1699182,0
878612000,878598000,6620172,240.86328,13.433863,98465.19,1.1699294,0
878660000,878648000,6620172,241.01918,13.433863,98463.375,1.1699078,0
878732000,878708000,6620172,241.00067,13.433864,98463.58,1.1699102,0
878780000,878768000,6620172,241.16714,13.433893,98461.63,1.1698871,0
878852000,878828000,6620172,240.91878,13.433914,98464.52,1.1699214,0
878900000,878888000,6620172,241.00331,13.4339695,98463.55,1.1699098,0
878972000,878946666,6620172,241.0588,13.434006,98462.875,1.1699018,0
879016000,879006000,6620172,241.00595,13.434061,98463.516,1.1699095,0
879092000,879066666,6620172,240.95049,13.434108,98464.18,1.1699173,0
879140000,879128000,6620172,240.9082,13.434153,98464.67,1.1699232,0
879208000,879186666,6620172,240.9267,13.434219,98464.44,1.1699204,0
879260000,879248000,6620172,240.91612,13.434275,98464.58,1.1699221,0
879332000,879308000,6620172,240.8527,13.434332,98465.33,1.169931,0
879380000,879368000,6620172,240.90556,13.434397,98464.695,1.1699234,0
879452000,879428000,6620172,240.91878,13.434443,98464.55,1.1699216,0
879496000,879484000,6620172,240.88705,13.434488,98464.91,1.1699259,0
879548000,879536000,6620172,240.94785,13.434534,98464.19,1.1699173,0
879620000,879596000,6620172,240.93462,13.434596,98464.34,1.1699193,0
879668000,879654000,6620172,240.82364,13.434671,98465.64,1.1699346,0
879716000,879704000,6620172,240.91612,13.434748,98464.58,1.1699221,0
879788000,879764000,6620172,240.85799,13.434901,98465.266,1.1699302,0
879836000,879824000,6620172,240.78665,13.435068,98466.086,1.16994,0
879908000,879884000,6620172,240.8527,13.435298,98465.305,1.1699307,0
879956000,879944000,6620172,240.67831,13.435526,98467.35,1.169955,0
880028000,880004000,6620172,240.72324,13.435806,98466.836,1.1699489,0
880076000,880064000,6620172,240.65984,13.43609,98467.59,1.1699579,0
880148000,880124000,6620172,240.6334,13.436407,98467.9,1.1699616,0
880196000,880184000,6620172,240.60434,13.436731,98468.234,1.1699655,0
880268000,880244000,6620172,240.46693,13.437078,98469.836,1.1699846,0
880316000,880304000,6620172,240.42465,13.437418,98470.33,1.1699903,0
880388000,880364000,6620172,240.43523,13.4378,98470.22,1.1699891,0
880436000,880424000,6620172,240.36916,13.438181,98470.984,1.1699982,0
880508000,880484000,6620172,240.2529,13.438594,98472.336,1.1700141,0
880556000,880544000,6620172,240.2397,13.439005,98472.5,1.1700162,0
880628000,880604000,6620172,240.1155,13.439428,98473.97,1.1700337,0
