timestamp,timestamp_sample,gyro_device_id,gyro_bias[0],gyro_bias[1],gyro_bias[2],gyro_bias_limit,gyro_bias_variance[0],gyro_bias_variance[1],gyro_bias_variance[2],accel_device_id,accel_bias[0],accel_bias[1],accel_bias[2],accel_bias_limit,accel_bias_variance[0],accel_bias_variance[1],accel_bias_variance[2],mag_device_id,mag_bias[0],mag_bias[1],mag_bias[2],mag_bias_limit,mag_bias_variance[0],mag_bias_variance[1],mag_bias_variance[2],gyro_bias_valid,gyro_bias_stable,accel_bias_valid,accel_bias_stable,mag_bias_valid,mag_bias_stable
828812000,828732000,1310996,0.0003078444,-0.002370972,0.0012652898,0.34906584,1.3787323e-07,1.3787297e-07,3.591353e-07,1310996,0.021276534,0.011643657,-0.13818982,0.4,0.001808357,0.0018076791,0.00078123936,197388,0.004181504,-0.0006599896,0.00058460154,0.5,3.5737037e-05,6.170489e-05,0.00011862258,1,1,1,0,1,0
829436000,829356000,1310996,0.0003183613,-0.0023614177,0.0012610217,0.34906584,1.3787668e-07,1.3787596e-07,3.5900314e-07,1310996,0.021279631,0.011650766,-0.13492613,0.4,0.0018083969,0.0018077166,0.00078123936,197388,0.004181504,-0.0006599896,0.00058460154,0.5,3.5737037e-05,6.170489e-05,0.00011862258,1,1,1,0,1,0
829644000,829564000,1310996,0.00031130292,-0.0023573085,0.0012598141,0.34906584,1.3786965e-07,1.3787039e-07,3.5895897e-07,1310996,0.021282198,0.011652516,-0.13703448,0.4,0.001808409,0.0018077268,0.00078123936,197388,0.004181504,-0.0006599896,0.00058460154,0.5,3.5737037e-05,6.170489e-05,0.00011862258,1,1,1,0,1,0
829852000,829772000,1310996,0.00031108526,-0.0023584166,0.0012584896,0.34906584,1.3787582e-07,1.378762e-07,3.5891668e-07,1310996,0.021280933,0.011654853,-0.13407825,0.4,0.0018084219,0.0018077397,0.00078123936,197388,0.004181504,-0.0006599896,0.00058460154,0.5,3.5737037e-05,6.170489e-05,0.00011862258,1,1,1,0,1,0
830268000,830188000,1310996,0.00031542173,-0.002366129,0.001254414,0.34906584,1.3787911e-07,1.378772e-07,3.5883008e-07,1310996,0.02127869,0.011654758,-0.13189016,0.4,0.0018084507,0.0018077688,0.00078123936,197388,0.004181504,-0.0006599896,0.00058460154,0.5,3.5737037e-05,6.170489e-05,0.00011862258,1,1,1,0,1,0
830476000,830396000,1310996,0.00032194704,-0.002354963,0.0012540561,0.34906584,1.3787275e-07,1.3787157e-07,3.5878958e-07,1310996,0.02128473,0.011653248,-0.13310419,0.4,0.0018084622,0.0018077819,0.00078123936,197388,0.004181504,-0.0006599896,0.00058460154,0.5,3.5737037e-05,6.170489e-05,0.00011862258,1,1,1,0,1,0
830684000,830604000,1310996,0.00031280145,-0.0023602643,0.0012511509,0.34906584,1.3787805e-07,1.3787734e-07,3.5873938e-07,1310996,0.021280387,0.011655244,-0.13069856,0.4,0.0018084751,0.0018077936,0.00078123936,197388,0.004181504,-0.0006599896,0.00058460154,0.5,3.5737037e-05,6.170489e-05,0.00011862258,1,1,1,0,1,0
831100000,831020000,1310996,0.00032544957,-0.0023717317,0.0012473961,0.34906584,1.3788035e-07,1.3787582e-07,3.586474e-07,1310996,0.021280559,0.011646889,-0.12941554,0.4,0.0018085015,0.0018078194,0.00078123936,197388,0.004181504,-0.0006599896,0.00058460154,0.5,3.5737037e-05,6.170489e-05,0.00011862258,1,1,1,0,1,0
831308000,831228000,1310996,0.00033277716,-0.0023793252,0.0012467994,0.34906584,1.3787457e-07,1.3786774e-07,3.5860313e-07,1310996,0.02127887,0.011642053,-0.13194859,0.4,0.0018085116,0.0018078296,0.00078123936,197388,0.004181504,-0.0006599896,0.00058460154,0.5,3.5737037e-05,6.170489e-05,0.00011862258,1,1,1,0,1,0
831516000,831436000,1310996,0.00033530427,-0.0023917605,0.0012451236,0.34906584,1.3788103e-07,1.3787187e-07,3.5855427e-07,1310996,0.021276522,0.011640122,-0.1298326,0.4,0.0018085225,0.0018078437,0.00078123936,197388,0.004181504,-0.0006599896,0.00058460154,0.5,3.5737037e-05,6.170489e-05,0.00011862258,1,1,1,0,1,0
831932000,831852000,1310996,0.00033608117,-0.00240185,0.0012416892,0.34906584,1.3787384e-07,1.3786338e-07,3.5903437e-07,1310996,0.02127503,0.011637597,-0.13288379,0.4,0.0018085452,0.0018078672,0.00078123936,197388,0.004181504,-0.0006599896,0.00058460154,0.5,3.5737037e-05,6.170489e-05,0.00011862258,1,1,1,0,1,0
832140000,832060000,1310996,0.0003412515,-0.002399478,0.0012401481,0.34906584,1.3788119e-07,1.3787084e-07,3.589932e-07,1310996,0.021275628,0.011636148,-0.12951228,0.4,0.0018085567,0.001807878,0.00078123936,197388,0.004181504,-0.0006599896,0.00058460154,0.5,3.5737037e-05,6.170489e-05,0.00011862258,1,1,1,0,1,0
832348000,832268000,1310996,0.00033581286,-0.0023924198,0.0012364158,0.34906584,1.378718e-07,1.3786398e-07,3.5894791e-07,1310996,0.02127731,0.011641531,-0.13281657,0.4,0.0018085658,0.0018078875,0.00078123936,197388,0.004181504,-0.0006599896,0.00058460154,0.5,3.5737037e-05,6.170489e-05,0.00011862258,1,1,1,0,1,0
832556000,832476000,1310996,0.00033761078,-0.0024014963,0.0012359855,0.34906584,1.3786601e-07,1.3785642e-07,3.589007e-07,1310996,0.021277549,0.011638579,-0.13651034,0.4,0.0018085736,0.001807897,0.00078123936,197388,0.004181504,-0.0006599896,0.00058460154,0.5,3.5737037e-05,6.170489e-05,0.00011862258,1,1,1,0,1,0
833388000,833308000,1310996,0.00033872266,-0.0023860119,0.0012266721,0.34906584,1.3786662e-07,1.3786047e-07,3.5872515e-07,1310996,0.021279583,0.011643644,-0.1377222,0.4,0.0018086303,0.0018079539,0.00078123936,197388,0.004181504,-0.0006599896,0.00058460154,0.5,3.5737037e-05,6.170489e-05,0.00011862258,1,1,1,0,1,0
834012000,833932000,1310996,0.00036288644,-0.0023673123,0.0012201953,0.34906584,1.3786341e-07,1.3785692e-07,3.5859617e-07,1310996,0.021288812,0.01164848,-0.13950613,0.4,0.0018086693,0.0018079922,0.00078123936,197388,0.004181504,-0.0006599896,0.00058460154,0.5,3.5737037e-05,6.170489e-05,0.00011862258,1,1,1,0,1,0
834428000,834348000,1310996,0.00036689232,-0.0023722048,0.0012174645,0.34906584,1.3786386e-07,1.3785595e-07,3.5907772e-07,1310996,0.021293428,0.011644652,-0.14141145,0.4,0.001808697,0.0018080212,0.00078123936,197388,0.004181504,-0.0006599896,0.00058460154,0.5,3.5737037e-05,6.170489e-05,0.00011862258,1,1,1,0,1,0
834844000,834764000,1310996,0.00038199138,-0.00237536,0.0012139502,0.34906584,1.3787287e-07,1.3786232e-07,3.5899436e-07,1310996,0.021296214,0.011649357,-0.13920899,0.4,0.0018087242,0.0018080486,0.00078123936,197388,0.004181504,-0.0006599896,0.00058460154,0.5,3.5737037e-05,6.170489e-05,0.00011862258,1,1,1,0,1,0
835052000,834972000,1310996,0.00038275248,-0.002376641,0.0012156484,0.34906584,1.3787032e-07,1.3785954e-07,3.5895386e-07,1310996,0.021298528,0.011647119,-0.14076859,0.4,0.0018087381,0.0018080627,0.00078123936,197388,0.004181504,-0.0006599896,0.00058460154,0.5,3.5737037e-05,6.170489e-05,0.00011862258,1,1,1,0,1,0
835468000,835388000,1310996,0.0004046077,-0.0023842258,0.001212769,0.34906584,1.3787798e-07,1.37863e-07,3.5886387e-07,1310996,0.021305023,0.011653105,-0.13895726,0.4,0.0018087622,0.0018080889,0.00078123936,197388,0.004181504,-0.0006599896,0.00058460154,0.5,3.5737037e-05,6.170489e-05,0.00011862258,1,1,1,0,1,0
836468000,836388000,1310996,0.00041838002,-0.0023903113,0.001206305,0.34906584,1.4088525e-07,1.4086861e-07,3.5890213e-07,1310996,0.02130904,0.011650255,-0.13924667,0.4,0.0018088334,0.00180816,0.0007812582,197388,0.004181504,-0.0006599896,0.00058460154,0.5,3.5737037e-05,6.170489e-05,0.00011862258,1,0,1,0,1,0
837468000,837388000,1310996,0.00041781375,-0.0023925134,0.001195275,0.34906584,1.4849873e-07,1.4848297e-07,3.589341e-07,1310996,0.02130261,0.01164895,-0.13965276,0.4,0.0018088996,0.0018082259,0.00078124285,197388,0.004181504,-0.0006599896,0.00058460154,0.5,3.5737037e-05,6.170489e-05,0.00011862258,1,0,1,0,1,0
838012000,837932000,1310996,0.00042631352,-0.0023912615,0.001191928,0.34906584,1.5119701e-07,1.5118215e-07,3.5873074e-07,1310996,0.02135202,0.011391186,-0.14061844,0.4,0.0018073313,0.0018066574,0.00078123936,197388,0.004181504,-0.0006599896,0.00058460154,0.5,3.5737037e-05,6.170489e-05,0.00011862258,1,0,1,0,1,0
838804000,838724000,1310996,0.00043685295,-0.0023989584,0.0011873739,0.34906584,1.5473852e-07,1.5472317e-07,3.6108386e-07,1310996,0.021325948,0.011322755,-0.13932532,0.4,0.0018055656,0.0018048952,0.00078123936,197388,0.004181504,-0.0006599896,0.00058460154,0.5,0.0025000002,0.0025000002,0.0025000002,1,0,1,0,1,0
839420000,839340000,1310996,0.00044340547,-0.0024051513,0.00118786,0.34906584,1.5777113e-07,1.5775535e-07,3.6600727e-07,1310996,0.022148421,0.01192855,-0.13957915,0.4,0.0017774937,0.0017768549,0.00078123936,197388,0.004181504,-0.0006599896,0.00058460154,0.5,0.0025000002,0.0025000002,0.0025000002,1,0,1,0,1,0
839828000,839748000,1310996,0.00044999598,-0.0024083133,0.001188285,0.34906584,1.5953597e-07,1.5952014e-07,3.692656e-07,1310996,0.022713078,0.012924074,-0.13961925,0.4,0.0017221436,0.0017215572,0.00078123936,197388,0.004181504,-0.0006599896,0.00058460154,0.5,0.0025000002,0.0025000002,0.0025000002,1,0,1,0,1,0
840404000,840324000,1310996,0.00045347918,-0.0024124559,0.001188845,0.34906584,1.6295171e-07,1.6293605e-07,3.7386027e-07,1310996,0.02381043,0.013475713,-0.13898857,0.4,0.0016296749,0.0016291655,0.00078123936,197388,0.004181504,-0.0006599896,0.00058460154,0.5,0.0025000002,0.0025000002,0.0025000002,1,0,1,0,1,0
840820000,840740000,1310996,0.00045607917,-0.00241622,0.0011891362,0.34906584,1.6543719e-07,1.6542154e-07,3.7717268e-07,1310996,0.024998294,0.01395508,-0.13886479,0.4,0.0015391271,0.001538696,0.00078123936,197388,0.004181504,-0.0006599896,0.00058460154,0.5,0.0025000002,0.0025000002,0.0025000002,1,0,1,0,1,0
841812000,841732000,1310996,0.0004559842,-0.0024148906,0.0011899105,0.34906584,1.7242103e-07,1.7240487e-07,3.8504976e-07,1310996,0.023357376,0.012800864,-0.14053218,0.4,0.0014138032,0.0014134633,0.00078123936,197388,0.004181504,-0.0006599896,0.00058460154,0.5,0.0025000002,0.0025000002,0.0025000002,1,0,1,0,1,0
842012000,841932000,1310996,0.0004547374,-0.002413069,0.0011898289,0.34906584,1.7376894e-07,1.7375106e-07,3.8663154e-07,1310996,0.022057824,0.011777887,-0.14139056,0.4,0.0013813875,0.0013813467,0.00078123936,197388,0.004181504,-0.0006599896,0.00058460154,0.5,0.0025000002,0.0025000002,0.0025000002,1,0,1,0,1,0
842228000,842148000,1310996,0.00045321768,-0.002411042,0.001190483,0.34906584,1.752792e-07,1.7525812e-07,3.8833926e-07,1310996,0.020744063,0.010599177,-0.14177597,0.4,0.0013554468,0.0013559941,0.00078123936,197388,0.004181504,-0.0006599896,0.00058460154,0.5,0.0025000002,0.0025000002,0.0025000002,1,0,1,0,1,0
842428000,842348000,1310996,0.00045111662,-0.0024097953,0.0011907443,0.34906584,1.766891e-07,1.7666346e-07,3.89917e-07,1310996,0.019896094,0.009217258,-0.14254473,0.4,0.0013346443,0.001336018,0.00078123936,197388,0.004181504,-0.0006599896,0.00058460154,0.5,0.0025000002,0.0025000002,0.0025000002,1,0,1,0,1,0
842556000,842476000,1310996,0.00045111682,-0.0024097918,0.0011907301,0.34906584,1.7771305e-07,1.7768735e-07,3.9093322e-07,1310996,0.01989496,0.009216149,-0.14252134,0.4,0.0013346395,0.0013359651,0.0007812428,197388,0.0048216092,-0.0006320615,0.0016958805,0.5,0.0014160027,0.0015620312,0.0016216934,1,0,1,0,1,0
842628000,842548000,1310996,0.00045111772,-0.0024097906,0.0011907301,0.34906584,1.7828901e-07,1.7826332e-07,3.9150925e-07,1310996,0.019894492,0.0092162965,-0.14250652,0.4,0.0013346405,0.0013359698,0.00078123936,197388,0.0046012416,-0.00115192,0.000619,0.5,0.0010974528,0.0013320644,0.0014275901,1,0,1,0,1,0
842796000,842716000,1310996,0.00044769718,-0.0024078656,0.0011906436,0.34906584,1.7943522e-07,1.7940049e-07,3.9285308e-07,1310996,0.019054003,0.0075949742,-0.14334956,0.4,0.001315788,0.0013185379,0.00078123936,197388,0.004784824,-0.0013775107,0.0011952732,0.5,0.00085309334,0.0011650132,0.0012919009,1,0,1,0,1,0
843004000,842924000,1310996,0.00044386918,-0.0024066921,0.0011902871,0.34906584,1.8092183e-07,1.8087597e-07,3.9451632e-07,1310996,0.018640747,0.005934391,-0.14436325,0.4,0.00130066,0.001305039,0.00078123936,197388,0.0050229696,-0.0013211565,0.0013378181,0.5,0.00071836787,0.001078099,0.0012214659,1,0,1,0,1,0
843212000,843132000,1310996,0.00044002445,-0.0024058456,0.0011896119,0.34906584,1.8242035e-07,1.8236128e-07,3.9617774e-07,1310996,0.018531526,0.004432695,-0.1457799,0.4,0.0012882188,0.0012942831,0.00078123936,197388,0.0050085043,-0.001388365,0.0014437826,0.5,0.0006564035,0.0010406736,0.0011914783,1,0,1,0,1,0
843420000,843340000,1310996,0.00043667923,-0.0024043825,0.0011885575,0.34906584,1.8392367e-07,1.8384912e-07,3.978353e-07,1310996,0.018264076,0.0032597794,-0.14695166,0.4,0.0012777394,0.0012854789,0.00078123936,197388,0.005211653,-0.0016815327,0.0016384107,0.5,0.0006204621,0.0010192884,0.0011753559,1,0,1,0,1,0
843628000,843548000,1310996,0.00043287777,-0.0024035398,0.001187238,0.34906584,1.8542057e-07,1.8532722e-07,3.9948134e-07,1310996,0.018127026,0.0021955837,-0.14748059,0.4,0.001268705,0.0012779823,0.00078123936,197388,0.0052131503,-0.0019066567,0.0016394416,0.5,0.00059664575,0.001005,0.0011657114,1,0,1,0,1,0
844004000,843924000,1310996,0.00042956937,-0.0024029291,0.0011853792,0.34906584,1.8817936e-07,1.8805552e-07,4.0242585e-07,1310996,0.018290138,0.0012974406,-0.14827663,0.4,0.0012597648,0.0012704268,0.00078123936,197388,0.005584162,-0.002380812,0.0017090435,0.5,0.0005715946,0.0009896861,0.0011553828,1,0,1,0,1,0
844412000,844332000,1310996,0.00042623826,-0.0024020388,0.0011833884,0.34906584,1.910837e-07,1.9091996e-07,4.0556984e-07,1310996,0.01843691,0.00057739246,-0.14930241,0.4,0.0012510282,0.0012632242,0.00078123936,197388,0.005633258,-0.0026783843,0.0017127326,0.5,0.00055231963,0.000979594,0.0011483992,1,0,1,0,1,0
844612000,844532000,1310996,0.00042236535,-0.002400136,0.0011805888,0.34906584,1.9233777e-07,1.921373e-07,4.0704583e-07,1310996,0.018670617,-0.00011692396,-0.15068395,0.4,0.0012436913,0.0012574567,0.00078123936,197388,0.005759948,-0.0027213956,0.0017562474,0.5,0.00054489274,0.0009765424,0.0011460683,1,0,1,0,1,0
844828000,844748000,1310996,0.0004189704,-0.0023990714,0.001178482,0.34906584,1.9369452e-07,1.9345828e-07,4.086228e-07,1310996,0.019076483,-0.0007014296,-0.15234154,0.4,0.0012372276,0.0012525653,0.00078123936,197388,0.005620731,-0.00271873,0.0017544678,0.5,0.00053838204,0.0009742399,0.0011442171,1,0,1,0,1,0
845036000,844956000,1310996,0.000416029,-0.0023983512,0.0011763357,0.34906584,1.9495485e-07,1.9468403e-07,4.1010557e-07,1310996,0.019603115,-0.0012560906,-0.15401037,0.4,0.0012314712,0.0012483932,0.00078123936,197388,0.005633204,-0.002807388,0.0017809061,0.5,0.0005324196,0.0009723335,0.0011426952,1,0,1,0,1,0
845396000,845316000,1310996,0.00041533148,-0.0023984548,0.0011756947,0.34906584,1.9724506e-07,1.9693371e-07,4.1269627e-07,1310996,0.020231508,-0.00155883,-0.15570764,0.4,0.0012257242,0.0012444624,0.00078123936,197388,0.0057445057,-0.0028693336,0.0017277062,0.5,0.00052372843,0.0009700556,0.0011405183,1,0,1,0,1,0
845604000,845524000,1310996,0.00041594947,-0.002397833,0.0011760335,0.34906584,1.983008e-07,1.9794912e-07,4.1405823e-07,1310996,0.020792715,-0.0017208526,-0.15731472,0.4,0.0012205881,0.0012412238,0.00078123936,197388,0.005657877,-0.0028340176,0.001777205,0.5,0.0005192331,0.0009690832,0.0011393572,1,0,1,0,1,0
845812000,845732000,1310996,0.0004152449,-0.002398089,0.0011755583,0.34906584,1.9931072e-07,1.9891881e-07,4.1538627e-07,1310996,0.02128754,-0.0019007345,-0.1585314,0.4,0.0012158309,0.001238461,0.00078123936,197388,0.0057110614,-0.0028117236,0.0017392458,0.5,0.00051490765,0.0009683096,0.0011384829,1,0,1,0,1,0
846020000,845940000,1310996,0.00041836742,-0.0023982767,0.0011774919,0.34906584,2.0026515e-07,1.9983156e-07,4.1667633e-07,1310996,0.022114377,-0.0020457285,-0.16058658,0.4,0.0012114019,0.0012360922,0.00078123936,197388,0.0058083963,-0.0028373895,0.0017286496,0.5,0.0005107408,0.0009676362,0.0011377374,1,0,1,0,1,0
846228000,846148000,1310996,0.00041982473,-0.0023965028,0.001177856,0.34906584,2.0119792e-07,2.0071302e-07,4.1781874e-07,1310996,0.02277993,-0.0022551976,-0.1625026,0.4,0.0012071657,0.0012334939,0.00078123936,197388,0.005808525,-0.0028374514,0.0017286884,0.5,0.0005107408,0.0009676362,0.0011377374,1,0,1,0,1,0
846612000,846532000,1310996,0.00042395006,-0.0023954278,0.0011802708,0.34906584,2.0323974e-07,2.026793e-07,4.2013264e-07,1310996,0.02353986,-0.0023899912,-0.16462177,0.4,0.0012026881,0.0012307569,0.00078123936,197388,0.005808525,-0.0028374514,0.0017286884,0.5,0.0005107408,0.0009676362,0.0011377374,1,0,1,0,1,0
847012000,846932000,1310996,0.00043188938,-0.0023931176,0.0011848529,0.34906584,2.0506373e-07,2.043953e-07,4.2238338e-07,1310996,0.024191758,-0.0024495083,-0.16658664,0.4,0.0011980099,0.0012281975,0.00078123936,197388,0.005808525,-0.0028374514,0.0017286884,0.5,0.0005107408,0.0009676362,0.0011377374,1,0,1,0,1,0
847220000,847140000,1310996,0.00043548265,-0.0023927218,0.001187701,0.34906584,2.0536604e-07,2.045818e-07,4.2325988e-07,1310996,0.02507298,-0.0026265897,-0.16884619,0.4,0.0011937662,0.0012264772,0.00078123936,197388,0.005808525,-0.0028374514,0.0017286884,0.5,0.0005107408,0.0009676362,0.0011377374,1,0,1,0,1,0
847428000,847348000,1310996,0.00043885538,-0.002389847,0.0011888556,0.34906584,2.0565776e-07,2.0474852e-07,4.2414473e-07,1310996,0.025985723,-0.002912857,-0.17132744,0.4,0.0011898038,0.0012250298,0.00078123936,197388,0.005808525,-0.0028374514,0.0017286884,0.5,0.0005107408,0.0009676362,0.0011377374,1,0,1,0,1,0
847636000,847556000,1310996,0.00044208262,-0.0023882948,0.0011903615,0.34906584,2.059206e-07,2.0487387e-07,4.2507168e-07,1310996,0.026587036,-0.0030853413,-0.17297888,0.4,0.0011860408,0.001223904,0.00078123936,197388,0.005808525,-0.0028374514,0.0017286884,0.5,0.0005107408,0.0009676362,0.0011377374,1,0,1,0,1,0
847996000,847916000,1310996,0.000447126,-0.0023870878,0.0011938735,0.34906584,2.0704323e-07,2.0582372e-07,4.2692324e-07,1310996,0.027313197,-0.0032529423,-0.1749637,0.4,0.0011820965,0.0012225019,0.00078123936,197388,0.005808525,-0.0028374514,0.0017286884,0.5,0.0005107408,0.0009676362,0.0011377374,1,0,1,0,1,0
848204000,848124000,1310996,0.00045436365,-0.0023843318,0.0011985515,0.34906584,2.0697118e-07,2.0556419e-07,4.277449e-07,1310996,0.0280347,-0.0034316576,-0.17700092,0.4,0.0011785259,0.0012216478,0.00078123936,197388,0.005808525,-0.0028374514,0.0017286884,0.5,0.0005107408,0.0009676362,0.0011377374,1,0,1,0,1,0
848412000,848332000,1310996,0.00046151932,-0.0023844144,0.001203557,0.34906584,2.0688991e-07,2.0529032e-07,4.285361e-07,1310996,0.02862846,-0.0035669869,-0.17868935,0.4,0.0011750836,0.001220795,0.00078123936,197388,0.005808525,-0.0028374514,0.0017286884,0.5,0.0005107408,0.0009676362,0.0011377374,1,0,1,0,1,0
848620000,848540000,1310996,0.0004652938,-0.0023826766,0.0012053478,0.34906584,2.0678287e-07,2.0498277e-07,4.2933135e-07,1310996,0.029127391,-0.0037368708,-0.18010598,0.4,0.001171853,0.001220026,0.00078123936,197388,0.005808525,-0.0028374514,0.0017286884,0.5,0.0005107408,0.0009676362,0.0011377374,1,0,1,0,1,0
848828000,848748000,1310996,0.0004688747,-0.0023801194,0.001207243,0.34906584,2.0664265e-07,2.0463399e-07,4.301284e-07,1310996,0.029704897,-0.0039280658,-0.18174112,0.4,0.001168738,0.0012193117,0.00078123936,197388,0.005808525,-0.0028374514,0.0017286884,0.5,0.0005107408,0.0009676362,0.0011377374,1,0,1,0,1,0
849204000,849124000,1310996,0.0004726754,-0.0023788856,0.0012110494,0.34906584,2.0739483e-07,2.0514481e-07,4.3200154e-07,1310996,0.030142061,-0.004015711,-0.18301786,0.4,0.0011654284,0.0012183879,0.00078123936,197388,0.005808525,-0.0028374514,0.0017286884,0.5,0.0005107408,0.0009676362,0.0011377374,1,0,1,0,1,0
849612000,849532000,1310996,0.00047664277,-0.002379277,0.0012134439,0.34906584,2.0792807e-07,2.0537217e-07,4.3399208e-07,1310996,0.030609516,-0.0041735526,-0.1845031,0.4,0.0011619759,0.0012175225,0.00078123936,197388,0.005808525,-0.0028374514,0.0017286884,0.5,0.0005107408,0.0009676362,0.0011377374,1,0,1,0,1,0
849820000,849740000,1310996,0.00048153632,-0.0023767632,0.0012151719,0.34906584,2.070311e-07,2.0416712e-07,4.345309e-07,1310996,0.030964378,-0.004343176,-0.1856945,0.4,0.0011589136,0.0012168301,0.00078123936,197388,0.005808525,-0.0028374514,0.0017286884,0.5,0.0005107408,0.0009676362,0.0011377374,1,0,1,0,1,0
850028000,849948000,1310996,0.00048717784,-0.002375102,0.0012168614,0.34906584,2.062366e-07,2.0307387e-07,4.3511815e-07,1310996,0.031339545,-0.0045386464,-0.18700047,0.4,0.0011561024,0.0012161697,0.00078123936,197388,0.005808525,-0.0028374514,0.0017286884,0.5,0.0005107408,0.0009676362,0.0011377374,1,0,1,0,1,0
850236000,850156000,1310996,0.00048999046,-0.0023740046,0.0012187412,0.34906584,2.0550473e-07,2.0205046e-07,4.3574204e-07,1310996,0.031696964,-0.00465294,-0.18816318,0.4,0.001153408,0.0012155231,0.00078123936,197388,0.005808525,-0.0028374514,0.0017286884,0.5,0.0005107408,0.0009676362,0.0011377374,1,0,1,0,1,0
850804000,850724000,1310996,0.0004924799,-0.0023812798,0.0012216171,0.34906584,2.0490987e-07,2.0076446e-07,4.3787813e-07,1310996,0.032114916,-0.0047314866,-0.1896152,0.4,0.0011482576,0.0012142039,0.00078123936,197388,0.005808525,-0.0028374514,0.0017286884,0.5,0.0005107408,0.0009676362,0.0011377374,1,0,1,0,1,0
851220000,851140000,1310996,0.0005041024,-0.002413016,0.0012350744,0.34906584,2.0410619e-07,1.9898388e-07,4.3873246e-07,1310996,0.032355484,-0.004553675,-0.19086614,0.4,0.0011442907,0.0012131532,0.00078123936,197388,0.005808525,-0.0028374514,0.0017286884,0.5,0.0005107408,0.0009676362,0.0011377374,1,0,1,0,1,0
851508000,851428000,1310996,0.000514983,-0.0024347992,0.0012497496,0.34906584,2.0444867e-07,1.9876404e-07,4.396745e-07,1310996,0.032534383,-0.004301195,-0.19140391,0.4,0.0011407625,0.0012103588,0.00078123936,197388,0.0067239427,-0.0029874728,0.0010259774,0.5,0.000342885,0.000621873,0.0007288144,1,0,1,0,1,0
852156000,852076000,1310996,0.00053629716,-0.0024552196,0.0012779431,0.34906584,2.0773632e-07,2.0106248e-07,4.4322272e-07,1310996,0.03260332,-0.0038635337,-0.19222274,0.4,0.001138142,0.0012088113,0.00078123936,197388,0.0065450924,-0.0030773978,4.3322798e-05,0.5,0.00022681493,0.0005021164,0.0006079323,1,0,1,0,1,0
852420000,852340000,1310996,0.0005971781,-0.0024747227,0.0013419241,0.34906584,2.0618712e-07,1.9656677e-07,4.4227127e-07,1310996,0.03264548,-0.0033688059,-0.1927311,0.4,0.0011371024,0.0012077086,0.00078123936,197388,0.0076299254,-0.0032638954,-0.00073900516,0.5,0.00021156907,0.00049005524,0.0005977525,1,0,1,0,1,0
853196000,853116000,1310996,0.00067622884,-0.0024506527,0.0013928317,0.34906584,2.0686178e-07,1.933257e-07,4.4593446e-07,1310996,0.03300206,-0.0038005603,-0.19101734,0.4,0.001134806,0.0012062545,0.00078123936,197388,0.008030346,-0.0032147572,-0.00077155064,0.5,0.00017837994,0.00046117502,0.00057459995,1,0,1,0,1,0
853404000,853324000,1310996,0.0006942813,-0.0024407615,0.0013996222,0.34906584,2.0623744e-07,1.9171992e-07,4.4715424e-07,1310996,0.033268563,-0.004055645,-0.1894967,0.4,0.0011336749,0.0012058174,0.00078123936,197388,0.008118719,-0.003222725,-0.0006836089,0.5,0.00017264584,0.00045529613,0.0005671087,1,0,1,0,1,0
853612000,853532000,1310996,0.00070669386,-0.0024310711,0.0014033491,0.34906584,2.0551984e-07,1.9023794e-07,4.484924e-07,1310996,0.033585478,-0.0042874394,-0.18798433,0.4,0.0011323881,0.0012053959,0.00078123936,197388,0.008170397,-0.0031987522,-0.00059565593,0.5,0.00016808174,0.0004506215,0.0005617929,1,0,1,0,1,0
853820000,853740000,1310996,0.0007135961,-0.0024184398,0.001404775,0.34906584,2.046988e-07,1.8886709e-07,4.499171e-07,1310996,0.033964064,-0.0044798166,-0.18659529,0.4,0.0011308902,0.0012049715,0.00078123936,197388,0.00820007,-0.003210604,-0.0004682781,0.5,0.0001642289,0.00044672846,0.0005569155,1,0,1,0,1,0
854028000,853948000,1310996,0.00071778975,-0.002405988,0.0014061449,0.34906584,2.0375988e-07,1.8759951e-07,4.5140766e-07,1310996,0.034344625,-0.0046319976,-0.1852268,0.4,0.0011292346,0.0012045447,0.00078123936,197388,0.008043293,-0.0030679714,-0.00057260634,0.5,0.00016083432,0.0004434566,0.00055161194,1,0,1,0,1,0
854404000,854324000,1310996,0.0007164388,-0.0023891889,0.001406371,0.34906584,2.0333424e-07,1.8722581e-07,4.5427714e-07,1310996,0.034832895,-0.004733111,-0.18387628,0.4,0.0011270333,0.0012039917,0.00078123936,197388,0.007913002,-0.0029969036,-0.00057126844,0.5,0.00015590085,0.00043915605,0.0005411607,1,0,1,0,1,0
854812000,854732000,1310996,0.0007103791,-0.0023720644,0.001406075,0.34906584,2.0224228e-07,1.8662558e-07,4.5741498e-07,1310996,0.035602506,-0.004818844,-0.18168561,0.4,0.0011243441,0.0012032804,0.00078123936,197388,0.007920663,-0.0030693733,-0.0003632861,0.5,0.00015095013,0.00043534368,0.0005284662,1,0,1,0,1,0
855020000,854940000,1310996,0.00070524734,-0.002355982,0.0014063043,0.34906584,1.9983077e-07,1.8479517e-07,4.5900347e-07,1310996,0.036289796,-0.0048803044,-0.17980568,0.4,0.0011217769,0.0012026057,0.00078123936,197388,0.0078839045,-0.0030855786,-0.00023243178,0.5,0.00014875647,0.00043371448,0.0005226924,1,0,1,0,1,0
855220000,855140000,1310996,0.0006987937,-0.0023427503,0.0014063207,0.34906584,1.9757836e-07,1.8319471e-07,4.6052574e-07,1310996,0.036923513,-0.0049082073,-0.1780582,0.4,0.0011192732,0.001201948,0.00078123936,197388,0.00790742,-0.0031899563,-9.065215e-05,0.5,0.00014675989,0.00043223277,0.0005174143,1,0,1,0,1,0
855436000,855356000,1310996,0.00068749423,-0.0023339111,0.0014063293,0.34906584,1.9550212e-07,1.8191474e-07,4.619993e-07,1310996,0.037537616,-0.004884387,-0.17621769,0.4,0.0011168191,0.0012012738,0.00078123936,197388,0.00790742,-0.0031899563,-9.065215e-05,0.5,0.00014675989,0.00043223277,0.0005174143,1,0,1,0,1,0
856060000,855980000,1310996,0.00066476496,-0.002192193,0.0014202583,0.34906584,1.8883341e-07,1.7878881e-07,4.65777e-07,1310996,0.037554406,-0.004869041,-0.17621718,0.4,0.0011167335,0.0012012073,0.0007812417,197388,0.007731133,-0.0032368598,0.0011759484,0.5,0.00013366988,0.00034472838,0.00038776282,1,0,1,0,1,0
856196000,856116000,1310996,0.00066614087,-0.002191646,0.0014190174,0.34906584,1.8979057e-07,1.7982306e-07,4.6675055e-07,1310996,0.037554406,-0.004869041,-0.17621718,0.4,0.0011167394,0.0012012131,0.00078124745,197388,0.007808615,-0.0033808355,0.0024104454,0.5,0.0001258048,0.00030860928,0.00032475177,1,0,1,0,1,0
856420000,856340000,1310996,0.0005543102,-0.0020418074,0.0014880853,0.34906584,1.80075e-07,1.7380982e-07,4.6627636e-07,1310996,0.036315754,-0.0060131736,-0.1764604,0.4,0.001115913,0.0012001584,0.00078123936,197388,0.0078116283,-0.0040696277,0.003529994,0.5,0.00011790568,0.0002812998,0.00027356533,1,0,1,0,1,0
856628000,856548000,1310996,0.00048778366,-0.0020080912,0.0015244161,0.34906584,1.7784828e-07,1.7227387e-07,4.6690363e-07,1310996,0.035558674,-0.0075899963,-0.17628627,0.4,0.0011140091,0.0011980209,0.00078123936,197388,0.008054469,-0.004477697,0.004279746,0.5,0.00011202067,0.00026613873,0.00024638194,1,0,1,0,1,0
857004000,856924000,1310996,0.00043013357,-0.001996391,0.0015489188,0.34906584,1.7751074e-07,1.7208299e-07,4.6920877e-07,1310996,0.035098877,-0.0099494215,-0.17569731,0.4,0.0011086295,0.0011922125,0.00078123936,197388,0.008240545,-0.00494065,0.0049040252,0.5,0.000104858125,0.00025124138,0.00022160378,1,0,1,0,1,0
857412000,857332000,1310996,0.00037990164,-0.0020174554,0.0015573213,0.34906584,1.7798955e-07,1.723772e-07,4.721951e-07,1310996,0.035945594,-0.012777531,-0.17365552,0.4,0.001098253,0.0011808636,0.00078123936,197388,0.00888633,-0.005821793,0.0057014083,0.5,9.708542e-05,0.00023972923,0.00020867941,1,0,1,0,1,0
857612000,857532000,1310996,0.00034966032,-0.0020407725,0.0015588565,0.34906584,1.7752738e-07,1.716889e-07,4.7368576e-07,1310996,0.037008654,-0.014657288,-0.17170145,0.4,0.0010868841,0.0011683155,0.00078123936,197388,0.009029726,-0.0061346786,0.005745844,0.5,9.222465e-05,0.00023460994,0.00020498701,1,0,1,0,1,0
857828000,857748000,1310996,0.0003262218,-0.0020639687,0.0015570604,0.34906584,1.7756628e-07,1.7153427e-07,4.7525597e-07,1310996,0.03838146,-0.016372507,-0.16981576,0.4,0.0010741873,0.0011536262,0.00078123936,197388,0.009238393,-0.006515224,0.0057086064,0.5,8.7722336e-05,0.00023013554,0.00020147441,1,0,1,0,1,0
858036000,857956000,1310996,0.0003139329,-0.0020888092,0.0015567522,0.34906584,1.777733e-07,1.7159262e-07,4.7659816e-07,1310996,0.040220104,-0.017143333,-0.16826081,0.4,0.0010604906,0.0011371584,0.00078123936,197388,0.009433628,-0.006686555,0.005673378,0.5,8.386177e-05,0.0002260874,0.00019822894,1,0,1,0,1,0
858396000,858316000,1310996,0.0003147417,-0.0021121744,0.0015630254,0.34906584,1.7914768e-07,1.728338e-07,4.786192e-07,1310996,0.042168614,-0.01654629,-0.16690488,0.4,0.0010429971,0.0011153807,0.00078123936,197388,0.009658582,-0.006895753,0.0054518203,0.5,7.867676e-05,0.0002203455,0.00019350306,1,0,1,0,1,0
858604000,858524000,1310996,0.00031504832,-0.0021309035,0.0015685663,0.34906584,1.7950971e-07,1.7307887e-07,4.7932554e-07,1310996,0.043925665,-0.016127666,-0.16595706,0.4,0.0010259233,0.0010945711,0.00078123936,197388,0.009897391,-0.0070998166,0.0052937753,0.5,7.601979e-05,0.00021756242,0.00019093565,1,0,1,0,1,0
858812000,858732000,1310996,0.00032435902,-0.0021446971,0.0015816959,0.34906584,1.8002464e-07,1.7346511e-07,4.799287e-07,1310996,0.04507738,-0.01454378,-0.16510676,0.4,0.0010093559,0.0010751084,0.00078123936,197388,0.010026141,-0.0071556256,0.0052451827,0.5,7.3615476e-05,0.00021518186,0.00018847136,1,0,1,0,1,0
859020000,858940000,1310996,0.00033029605,-0.0021664693,0.0015941546,0.34906584,1.8066778e-07,1.7395779e-07,4.804221e-07,1310996,0.047347922,-0.013325445,-0.1639889,0.4,0.0009933852,0.0010571541,0.00078123936,197388,0.0104456525,-0.0074540516,0.004933037,0.5,7.131623e-05,0.0002130443,0.00018566783,1,0,1,0,1,0
859444000,859364000,1310996,0.00033967756,-0.0021810133,0.0016058274,0.34906584,1.8308906e-07,1.7618484e-07,4.8233363e-07,1310996,0.047509342,-0.013288652,-0.16397037,0.4,0.0009930951,0.0010562233,0.00078124343,197388,0.010577269,-0.007997193,0.0040218746,0.5,6.516663e-05,0.00020866016,0.00016815726,1,0,1,0,1,0
860004000,859924000,1310996,0.00037783294,-0.0021985944,0.001653757,0.34906584,1.8510151e-07,1.7753909e-07,4.8319595e-07,1310996,0.048344374,-0.010928778,-0.16357177,0.4,0.0009850406,0.0010469635,0.00078123936,197388,0.011083582,-0.008506529,0.0035118049,0.5,6.115948e-05,0.00020493913,0.00016014744,1,0,1,0,1,0
860220000,860140000,1310996,0.00039698437,-0.0022039358,0.0016736411,0.34906584,1.855921e-07,1.7764903e-07,4.836519e-07,1310996,0.04871024,-0.009358593,-0.16316462,0.4,0.0009776138,0.0010391845,0.00078123936,197388,0.0112443855,-0.008608089,0.003389192,0.5,5.9928534e-05,0.00020366668,0.00015829544,1,0,1,0,1,0
860428000,860348000,1310996,0.0004123163,-0.002203504,0.0016864409,0.34906584,1.8608229e-07,1.7777957e-07,4.843893e-07,1310996,0.04864653,-0.0079962965,-0.16262373,0.4,0.0009689487,0.0010303243,0.00078123936,197388,0.01128592,-0.008656818,0.003350001,0.5,5.8870013e-05,0.0002025882,0.00015693883,1,0,1,0,1,0
860628000,860548000,1310996,0.0004256995,-0.0022062599,0.0016965228,0.34906584,1.865497e-07,1.7792303e-07,4.8531416e-07,1310996,0.04886131,-0.006692021,-0.16224574,0.4,0.00095933565,0.0010205806,0.00078123936,197388,0.011396798,-0.008688473,0.0032470652,0.5,5.792515e-05,0.00020162293,0.00015586251,1,0,1,0,1,0
860996000,860916000,1310996,0.00043924304,-0.0022069488,0.0017024552,0.34906584,1.8806269e-07,1.7914309e-07,4.8771943e-07,1310996,0.048904344,-0.0053081214,-0.16087984,0.4,0.0009461366,0.0010069095,0.00078123936,197388,0.0114738615,-0.008791821,0.0030980995,0.5,5.6597593e-05,0.00020016782,0.00015447244,1,0,1,0,1,0
861204000,861124000,1310996,0.00045056836,-0.002206006,0.0017071542,0.34906584,1.8838577e-07,1.7922376e-07,4.890367e-07,1310996,0.048770107,-0.0041143447,-0.16016862,0.4,0.00093297096,0.0009933012,0.00078123936,197388,0.011480785,-0.008799132,0.0030424432,0.5,5.5897297e-05,0.0001993866,0.00015379771,1,0,1,0,1,0
861412000,861332000,1310996,0.00045761812,-0.002205862,0.0017086533,0.34906584,1.8874218e-07,1.7939442e-07,4.9043405e-07,1310996,0.04873854,-0.003360621,-0.15910345,0.4,0.0009199272,0.0009796976,0.00078123936,197388,0.011537356,-0.008823002,0.0029892325,0.5,5.5257606e-05,0.0001986989,0.0001532068,1,0,1,0,1,0
861620000,861540000,1310996,0.00046618533,-0.0022086562,0.0017102429,0.34906584,1.8911632e-07,1.7963262e-07,4.91879e-07,1310996,0.048962258,-0.0024522878,-0.15823898,0.4,0.0009071183,0.00096620526,0.00078123936,197388,0.011559549,-0.008834156,0.0029636414,0.5,5.4664662e-05,0.00019808477,0.00015267749,1,0,1,0,1,0
861828000,861748000,1310996,0.00047134742,-0.002209213,0.0017109425,0.34906584,1.8949828e-07,1.7992427e-07,4.9335057e-07,1310996,0.048976697,-0.001894947,-0.15713705,0.4,0.0008946527,0.00095294404,0.00078123936,197388,0.01155257,-0.008842492,0.0029363725,0.5,5.411754e-05,0.00019752301,0.0001521945,1,0,1,0,1,0
862204000,862124000,1310996,0.0004774006,-0.0022100194,0.0017113853,0.34906584,1.908932e-07,1.8129789e-07,4.960763e-07,1310996,0.049001105,-0.0012375907,-0.1558031,0.4,0.0008805242,0.0009376532,0.00078123936,197388,0.011542568,-0.008824509,0.002915463,0.5,5.329396e-05,0.00019669544,0.00015145661,1,0,1,0,1,0
862604000,862524000,1310996,0.00048236453,-0.0022097887,0.0017104547,0.34906584,1.9215781e-07,1.8260971e-07,4.98919e-07,1310996,0.049008068,-0.00069432944,-0.15410182,0.4,0.00086537056,0.00092110096,0.00078123936,197388,0.011558508,-0.0088604465,0.0027935896,0.5,5.240763e-05,0.00019586737,0.00015065231,1,0,1,0,1,0
862820000,862740000,1310996,0.00048776952,-0.002209856,0.0017102873,0.34906584,1.9217352e-07,1.8267345e-07,5.004481e-07,1310996,0.048949495,-0.00014463064,-0.15215725,0.4,0.0008521492,0.0009066555,0.00078123936,197388,0.011538519,-0.008845816,0.0027900378,0.5,5.1987816e-05,0.00019548762,0.00015026836,1,0,1,0,1,0
863020000,862940000,1310996,0.00049033144,-0.0022118608,0.0017093172,0.34906584,1.922635e-07,1.828124e-07,5.016557e-07,1310996,0.049091768,0.00012628135,-0.15069501,0.4,0.00084066746,0.0008940455,0.00078123936,197388,0.011538525,-0.00884582,0.0027897563,0.5,5.1987816e-05,0.00019548762,0.00015026834,1,0,1,0,1,0
863236000,863156000,1310996,0.0004934955,-0.0022122224,0.0017092971,0.34906584,1.9252336e-07,1.8315086e-07,5.025865e-07,1310996,0.0490902,0.00045237227,-0.14917211,0.4,0.0008304691,0.0008827723,0.00078123936,197388,0.011538525,-0.00884582,0.0027897563,0.5,5.1987816e-05,0.00019548762,0.00015026834,1,0,1,0,1,0
863596000,863516000,1310996,0.0004928784,-0.0022133614,0.0017098871,0.34906584,1.937092e-07,1.844548e-07,5.0441673e-07,1310996,0.04915283,0.00046094033,-0.14709064,0.4,0.00082045177,0.0008716392,0.00078123936,197388,0.011538525,-0.00884582,0.0027897563,0.5,5.1987816e-05,0.00019548762,0.00015026834,1,0,1,0,1,0
863804000,863724000,1310996,0.000497349,-0.002217071,0.0017075565,0.34906584,1.9378838e-07,1.8464522e-07,5.054115e-07,1310996,0.049385503,0.00086278236,-0.14488791,0.4,0.0008118893,0.00086214335,0.00078123936,197388,0.011538525,-0.00884582,0.0027897563,0.5,5.1987816e-05,0.00019548762,0.00015026834,1,0,1,0,1,0
864012000,863932000,1310996,0.00049807545,-0.0022165438,0.0017062178,0.34906584,1.9392974e-07,1.8490249e-07,5.0638215e-07,1310996,0.049313493,0.00095968856,-0.14300255,0.4,0.00080452574,0.0008539667,0.00078123936,197388,0.011538525,-0.00884582,0.0027897563,0.5,5.1987816e-05,0.00019548762,0.00015026834,1,0,1,0,1,0
864220000,864140000,1310996,0.00049774896,-0.0022168919,0.0017056735,0.34906584,1.9411901e-07,1.8520622e-07,5.0755796e-07,1310996,0.049310252,0.000986816,-0.14097111,0.4,0.00079815276,0.0008468959,0.00078123936,197388,0.011538525,-0.00884582,0.0027897563,0.5,5.1987816e-05,0.00019548762,0.00015026834,1,0,1,0,1,0
864428000,864348000,1310996,0.0005004204,-0.0022170858,0.0017040769,0.34906584,1.9432298e-07,1.8553393e-07,5.084883e-07,1310996,0.049286038,0.0012044599,-0.13909526,0.4,0.0007926338,0.00084075256,0.00078123936,197388,0.011538525,-0.00884582,0.0027897563,0.5,5.1987816e-05,0.00019548762,0.00015026834,1,0,1,0,1,0
864804000,864724000,1310996,0.0005006623,-0.0022180167,0.001701809,0.34906584,1.9554814e-07,1.8693012e-07,5.0999284e-07,1310996,0.049303334,0.0012683866,-0.13685387,0.4,0.00078741973,0.0008348941,0.00078123936,197388,0.011538525,-0.00884582,0.0027897563,0.5,5.1987816e-05,0.00019548762,0.00015026834,1,0,1,0,1,0
865212000,865132000,1310996,0.0004999625,-0.00222003,0.0017041533,0.34906584,1.9667236e-07,1.8825521e-07,5.1191427e-07,1310996,0.049386427,0.0012831661,-0.13460794,0.4,0.0007826664,0.00082955486,0.00078123936,197388,0.011538525,-0.00884582,0.0027897563,0.5,5.1987816e-05,0.00019548762,0.00015026834,1,0,1,0,1,0
865420000,865340000,1310996,0.00050056947,-0.002222187,0.0017029651,0.34906584,1.9634581e-07,1.8810962e-07,5.1271667e-07,1310996,0.04945564,0.0013577817,-0.1323593,0.4,0.00078123936,0.0008253084,0.00078123936,197388,0.011538525,-0.00884582,0.0027897563,0.5,5.1987816e-05,0.00019548762,0.00015026834,1,0,1,0,1,0
865628000,865548000,1310996,0.00049787725,-0.002223286,0.0017030324,0.34906584,1.9611356e-07,1.8805005e-07,5.1349804e-07,1310996,0.04948403,0.0012869714,-0.13029346,0.4,0.00078123936,0.0008218873,0.00078123936,197388,0.011538525,-0.00884582,0.0027897563,0.5,5.1987816e-05,0.00019548762,0.00015026834,1,0,1,0,1,0
865836000,865756000,1310996,0.0004935783,-0.0022237033,0.0017038694,0.34906584,1.9593983e-07,1.8804322e-07,5.1425775e-07,1310996,0.0494896,0.0011575056,-0.12849899,0.4,0.00078123936,0.00081912195,0.00078123936,197388,0.011538525,-0.00884582,0.0027897563,0.5,5.1987816e-05,0.00019548762,0.00015026834,1,0,1,0,1,0
866196000,866116000,1310996,0.0004907484,-0.0022247816,0.0017031317,0.34906584,1.9667704e-07,1.8897883e-07,5.156177e-07,1310996,0.049507946,0.0011044745,-0.12656783,0.4,0.00078123936,0.00081677124,0.00078123936,197388,0.011538525,-0.00884582,0.0027897563,0.5,5.1987816e-05,0.00019548762,0.00015026834,1,1,1,0,1,0
866404000,866324000,1310996,0.00049011473,-0.0022264917,0.0017048267,0.34906584,1.9629266e-07,1.8877584e-07,5.163109e-07,1310996,0.04954418,0.001115523,-0.12474773,0.4,0.00078123936,0.00081495405,0.00078123936,197388,0.011538525,-0.00884582,0.0027897563,0.5,5.1987816e-05,0.00019548762,0.00015026834,1,1,1,0,1,0
866612000,866532000,1310996,0.00048770566,-0.0022289401,0.0017040393,0.34906584,1.9596143e-07,1.8861923e-07,5.1698345e-07,1310996,0.04959419,0.0010838473,-0.12314844,0.4,0.00078123936,0.0008135477,0.00078123936,197388,0.011538525,-0.00884582,0.0027897563,0.5,5.1987816e-05,0.00019548762,0.00015026834,1,1,1,0,1,0
866820000,866740000,1310996,0.00048656255,-0.002231828,0.0017040038,0.34906584,1.9566055e-07,1.8848742e-07,5.1763703e-07,1310996,0.04964499,0.0010817627,-0.12156458,0.4,0.00078123936,0.0008124666,0.00078123936,197388,0.011538525,-0.00884582,0.0027897563,0.5,5.1987816e-05,0.00019548762,0.00015026834,1,1,1,0,1,0
867028000,866948000,1310996,0.00048666465,-0.0022374475,0.0017025227,0.34906584,1.9537214e-07,1.8836514e-07,5.1827055e-07,1310996,0.049733024,0.0011123247,-0.11968188,0.4,0.00078123936,0.0008116436,0.00078123936,197388,0.011538525,-0.00884582,0.0027897563,0.5,5.1987816e-05,0.00019548762,0.00015026834,1,1,1,0,1,0
867404000,867324000,1310996,0.00048291063,-0.0022390578,0.0017028801,0.34906584,1.9602062e-07,1.8921384e-07,5.1955215e-07,1310996,0.049743555,0.0010816627,-0.11790025,0.4,0.00078123936,0.0008110349,0.00078123936,197388,0.011538525,-0.00884582,0.0027897563,0.5,5.1987816e-05,0.00019548762,0.00015026834,1,1,1,0,1,0
867812000,867732000,1310996,0.0004828197,-0.0022417197,0.0017028066,0.34906584,1.964559e-07,1.8988099e-07,5.2066736e-07,1310996,0.049757984,0.0011009022,-0.11606096,0.4,0.00078123936,0.0008106214,0.00078123936,197388,0.011538525,-0.00884582,0.0027897563,0.5,5.1987816e-05,0.00019548762,0.00015026834,1,1,1,0,1,0
868020000,867940000,1310996,0.00048069085,-0.0022438066,0.0017025121,0.34906584,1.9547953e-07,1.891094e-07,5.211854e-07,1310996,0.04977159,0.0010952451,-0.11503184,0.4,0.00078123936,0.00081034953,0.00078123936,197388,0.011538525,-0.00884582,0.0027897563,0.5,5.1987816e-05,0.00019548762,0.00015026834,1,1,1,0,1,0
868260000,868180000,1310996,0.00047825454,-0.0022502057,0.0017013708,0.34906584,1.9488321e-07,1.887045e-07,5.219436e-07,1310996,0.04980561,0.0010960342,-0.11401411,0.4,0.0007812416,0.00081016833,0.00078123936,197388,0.011538525,-0.00884582,0.0027897563,0.5,5.1987816e-05,0.00019548762,0.00015026834,1,1,1,0,1,0
868716000,868636000,1310996,0.0004801036,-0.0022539722,0.0016962807,0.34906584,1.9611288e-07,1.9012236e-07,5.229059e-07,1310996,0.04980906,0.0011279801,-0.11298221,0.4,0.000781258,0.00081003277,0.00078123936,197388,0.011538525,-0.00884582,0.0027897563,0.5,5.1987816e-05,0.00019548762,0.00015026834,1,1,1,0,1,0
868796000,868716000,1310996,0.00048039487,-0.002256589,0.0016951415,0.34906584,1.9396836e-07,1.8817711e-07,5.2308184e-07,1310996,0.04980131,0.0011393394,-0.11197689,0.4,0.00078123936,0.00080993876,0.00078123936,197388,0.011538525,-0.00884582,0.0027897563,0.5,5.1987816e-05,0.00019548762,0.00015026834,1,1,1,0,1,0
869420000,869340000,1310996,0.0004872932,-0.0022656105,0.0016902781,0.34906584,1.9125021e-07,1.8600045e-07,5.24703e-07,1310996,0.049763866,0.0011315299,-0.11047281,0.4,0.00078123936,0.0008096094,0.00078123936,197388,0.011538525,-0.00884582,0.0027897563,0.5,5.1987816e-05,0.00019548762,0.00015026834,1,1,1,0,1,0
870420000,870340000,1310996,0.00049506465,-0.0022627688,0.001681989,0.34906584,1.9058263e-07,1.8591271e-07,5.2656054e-07,1310996,0.049786583,0.0010966997,-0.10966257,0.4,0.0007812405,0.0008087902,0.0007812405,197388,0.011538525,-0.00884582,0.0027897563,0.5,5.1987816e-05,0.00019548762,0.00015026834,1,1,1,0,1,0
871420000,871340000,1310996,0.00051344826,-0.0022563427,0.0016748444,0.34906584,1.8669319e-07,1.8276232e-07,5.273638e-07,1310996,0.049857616,0.00088722626,-0.11026338,0.4,0.00078124076,0.00080671837,0.0007812405,197388,0.011538525,-0.00884582,0.0027897563,0.5,5.1987816e-05,0.00019548762,0.00015026834,1,1,1,0,1,0
872420000,872340000,1310996,0.00054817164,-0.002250237,0.0016608925,0.34906584,1.8375243e-07,1.8044669e-07,5.281539e-07,1310996,0.04994694,0.0003786317,-0.1106184,0.4,0.00078125246,0.0008039286,0.00078124,197388,0.011538525,-0.00884582,0.0027897563,0.5,5.1987816e-05,0.00019548762,0.00015026834,1,1,1,0,1,0
873212000,873132000,1310996,0.0005773759,-0.0022456797,0.001657309,0.34906584,1.8065833e-07,1.7783151e-07,5.284905e-07,1310996,0.05003459,-0.0001227896,-0.111502066,0.4,0.00078123936,0.0008010276,0.00078123936,197388,0.011538525,-0.00884582,0.0027897563,0.5,5.1987816e-05,0.00019548762,0.00015026834,1,1,1,0,1,0
873996000,873916000,1310996,0.00060116476,-0.0022508362,0.0016537221,0.34906584,1.7833119e-07,1.759005e-07,5.2851726e-07,1310996,0.049957775,-0.00054512033,-0.112508565,0.4,0.00078123936,0.00079816295,0.00078123936,197388,0.011538525,-0.00884582,0.0027897563,0.5,5.1987816e-05,0.00019548762,0.00015026834,1,1,1,0,1,0
874620000,874540000,1310996,0.0006234085,-0.0022518449,0.0016496653,0.34906584,1.7539396e-07,1.7329448e-07,5.282051e-07,1310996,0.049959786,-0.0009370266,-0.113814145,0.4,0.00078123936,0.0007954506,0.00078123936,197388,0.011538525,-0.00884582,0.0027897563,0.5,5.1987816e-05,0.00019548762,0.00015026834,1,1,1,0,1,0
875612000,875532000,1310996,0.00065835833,-0.0022644738,0.0016446821,0.34906584,1.7495334e-07,1.731509e-07,5.2745736e-07,1310996,0.049768828,-0.0015723073,-0.114922576,0.4,0.00078123936,0.0007925616,0.00078123936,197388,0.011538525,-0.00884582,0.0027897563,0.5,5.1987816e-05,0.00019548762,0.00015026834,1,1,1,0,1,0
876020000,875940000,1310996,0.0006900068,-0.0022702862,0.001641218,0.34906584,1.7267043e-07,1.7102708e-07,5.2618896e-07,1310996,0.049685773,-0.0021775656,-0.115822665,0.4,0.00078123936,0.00079055154,0.00078123936,197388,0.011538525,-0.00884582,0.0027897563,0.5,5.1987816e-05,0.00019548762,0.00015026834,1,1,1,0,1,0
876596000,876516000,1310996,0.0007086787,-0.002268016,0.0016460189,0.34906584,1.7170393e-07,1.7021922e-07,5.2282206e-07,1310996,0.049760878,-0.0024169555,-0.11684849,0.4,0.00078123936,0.00078633893,0.00078123936,197388,0.011563489,-0.008228853,0.0023430153,0.5,4.8251062e-05,0.00015744817,0.00012614384,1,1,1,0,1,0
877012000,876932000,1310996,0.00071128353,-0.0022629488,0.0016493804,0.34906584,1.6991845e-07,1.685273e-07,5.1973103e-07,1310996,0.049840923,-0.002534493,-0.11803307,0.4,0.00078123936,0.00078306644,0.00078123936,197388,0.011573617,-0.008144984,0.0023958732,0.5,4.4186458e-05,0.00013424923,0.000109973495,1,1,1,0,1,0
878012000,877932000,1310996,0.0007095884,-0.0022529054,0.0016509057,0.34906584,1.7076387e-07,1.6952103e-07,5.18143e-07,1310996,0.050041124,-0.0025979253,-0.118836135,0.4,0.00078123994,0.00078123994,0.0007812419,197388,0.011673449,-0.0079334555,0.0025393744,0.5,3.8418562e-05,0.00011454942,9.566407e-05,1,1,1,0,1,0
879012000,878932000,1310996,0.000685723,-0.0022421917,0.0016506648,0.34906584,1.686295e-07,1.6788002e-07,5.1951145e-07,1310996,0.050223954,-0.0022255653,-0.118820265,0.4,0.0007812411,0.0007812411,0.00078124215,197388,0.011708707,-0.007946142,0.0024817383,0.5,3.5072764e-05,0.00010668906,8.969443e-05,1,1,1,0,1,0
880012000,879932000,1310996,0.0006411755,-0.002246054,0.0016624865,0.34906584,1.6745457e-07,1.6730756e-07,5.166416e-07,1310996,0.05031774,-0.0017341946,-0.11889701,0.4,0.00078124227,0.00078124227,0.00078124227,197388,0.011821542,-0.00782485,0.002486784,0.5,3.2642285e-05,0.00010068398,8.4775915e-05,1,1,1,0,1,0
880812000,880732000,1310996,0.00060891226,-0.0022626766,0.0016911129,0.34906584,1.668316e-07,1.6776485e-07,5.0251174e-07,1310996,0.050524443,-0.0016324148,-0.1198854,0.4,0.00078123936,0.00078123936,0.00078123936,197388,0.011973156,-0.007918965,0.0023274247,0.5,3.0373421e-05,8.42615e-05,7.253548e-05,1,1,1,0,1,0
881812000,881732000,1310996,0.0005895108,-0.0022903937,0.0017245014,0.34906584,1.6532017e-07,1.6826111e-07,4.8955815e-07,1310996,0.050774626,-0.0015542544,-0.11992004,0.4,0.0007812404,0.00078123936,0.00078123936,197388,0.012211475,-0.008252096,0.0019434408,0.5,2.6919612e-05,6.937316e-05,6.0439303e-05,1,1,1,0,1,0
882812000,882732000,1310996,0.0005785968,-0.0023000394,0.0017281871,0.34906584,1.6474797e-07,1.6929884e-07,4.880581e-07,1310996,0.05098646,-0.001442429,-0.11935747,0.4,0.0007812439,0.00078124227,0.00078124227,197388,0.012411946,-0.008335294,0.0018451227,0.5,2.4697301e-05,6.320472e-05,5.5283876e-05,1,1,1,0,1,0
883812000,883732000,1310996,0.00057174347,-0.002297398,0.0017223529,0.34906584,1.6529911e-07,1.7050645e-07,4.9146894e-07,1310996,0.051183917,-0.0013229774,-0.12007133,0.4,0.0007812439,0.0007812428,0.0007812428,197388,0.012555875,-0.008291211,0.0017659012,0.5,2.3158413e-05,5.9756938e-05,5.2404575e-05,1,1,1,0,1,0
884812000,884732000,1310996,0.00055126275,-0.00228457,0.0017223927,0.34906584,1.624117e-07,1.67472e-07,4.8939654e-07,1310996,0.051282354,-0.0012289898,-0.12014472,0.4,0.00078123936,0.00078123936,0.00078123936,197388,0.012562278,-0.008310712,0.0017665724,0.5,2.3055414e-05,5.9545502e-05,5.2244264e-05,1,1,1,0,1,0
885812000,885732000,1310996,0.00053605874,-0.0022759023,0.0017197465,0.34906584,1.6428677e-07,1.6892798e-07,4.858274e-07,1310996,0.051333334,-0.0011225578,-0.12054992,0.4,0.00078123936,0.00078123936,0.0007812422,197388,0.012562278,-0.008310712,0.0017665724,0.5,2.3055414e-05,5.9545502e-05,5.2244264e-05,1,1,1,0,1,0
886812000,886732000,1310996,0.0005260429,-0.002262701,0.0017151561,0.34906584,1.6317516e-07,1.6717028e-07,4.8261376e-07,1310996,0.051407,-0.0010248249,-0.121059075,0.4,0.00078124047,0.00078124047,0.00078124274,197388,0.012562278,-0.008310712,0.0017665724,0.5,2.3055414e-05,5.9545502e-05,5.2244264e-05,1,1,1,0,1,0
887812000,887732000,1310996,0.00051905366,-0.0022556523,0.0017067529,0.34906584,1.6273195e-07,1.6611227e-07,4.792549e-07,1310996,0.051423885,-0.0009772498,-0.120888405,0.4,0.0007812422,0.0007812422,0.0007812422,197388,0.012562278,-0.008310712,0.0017665724,0.5,2.3055414e-05,5.9545502e-05,5.2244264e-05,1,1,1,0,1,0
888812000,888732000,1310996,0.00051612407,-0.0022520388,0.001701088,0.34906584,1.6415899e-07,1.6708155e-07,4.7590373e-07,1310996,0.05143452,-0.000904188,-0.12139326,0.4,0.00078124163,0.00078124163,0.00078124163,197388,0.012562278,-0.008310712,0.0017665724,0.5,2.3055414e-05,5.9545502e-05,5.2244264e-05,1,1,1,0,1,0
889604000,889524000,1310996,0.0005158845,-0.0022606058,0.0016944351,0.34906584,1.6171974e-07,1.6412338e-07,4.7306202e-07,1310996,0.051340897,-0.0009618222,-0.12034798,0.4,0.00078123936,0.00078123936,0.00078123936,197388,0.012562278,-0.008310712,0.0017665724,0.5,2.3055414e-05,5.9545502e-05,5.2244264e-05,1,1,1,0,1,0
890604000,890524000,1310996,0.00051224214,-0.0022692278,0.0016872092,0.34906584,1.6178603e-07,1.637776e-07,4.6875326e-07,1310996,0.051248197,-0.000978441,-0.11953546,0.4,0.00078123936,0.00078123936,0.00078124,197388,0.012562278,-0.008310712,0.0017665724,0.5,2.3055414e-05,5.9545502e-05,5.2244264e-05,1,1,1,0,1,0
891604000,891524000,1310996,0.00050424197,-0.0022836532,0.0016755306,0.34906584,1.6285573e-07,1.6454932e-07,4.652918e-07,1310996,0.051106498,-0.0009462029,-0.119033694,0.4,0.00078123936,0.00078123936,0.0007812428,197388,0.012562278,-0.008310712,0.0017665724,0.5,2.3055414e-05,5.9545502e-05,5.2244264e-05,1,1,1,1,1,0
892604000,892524000,1310996,0.0004948296,-0.0023054627,0.0016638311,0.34906584,1.623208e-07,1.6371439e-07,4.6177834e-07,1310996,0.050922636,-0.000904632,-0.11862885,0.4,0.00078123994,0.00078123994,0.00078124227,197388,0.012562278,-0.008310712,0.0017665724,0.5,2.3055414e-05,5.9545502e-05,5.2244264e-05,1,1,1,1,1,0
892820000,892740000,1310996,0.00048604823,-0.0023175003,0.0016610553,0.34906584,1.6010894e-07,1.6138691e-07,4.6100175e-07,1310996,0.050821237,-0.0009116469,-0.117402814,0.4,0.00078123936,0.00078123936,0.00078123936,197388,0.012562278,-0.008310712,0.0017665724,0.5,2.3055414e-05,5.9545502e-05,5.2244264e-05,1,1,1,1,1,0
893812000,893732000,1310996,0.00047384083,-0.002336274,0.001651207,0.34906584,1.6153821e-07,1.626436e-07,4.574879e-07,1310996,0.050663542,-0.000886347,-0.1161978,0.4,0.00078123936,0.00078123936,0.00078123936,197388,0.012562278,-0.008310712,0.0017665724,0.5,2.3055414e-05,5.9545502e-05,5.2244264e-05,1,1,1,1,1,0
894436000,894356000,1310996,0.00046175538,-0.0023486614,0.0016433153,0.34906584,1.6011401e-07,1.6107813e-07,4.551017e-07,1310996,0.050554708,-0.0008537393,-0.11504015,0.4,0.00078123936,0.00078123936,0.00078123936,197388,0.012562278,-0.008310712,0.0017665724,0.5,2.3055414e-05,5.9545502e-05,5.2244264e-05,1,1,1,1,1,0
895420000,895340000,1310996,0.00043263298,-0.0023646015,0.0016304743,0.34906584,1.5969654e-07,1.605097e-07,4.515216e-07,1310996,0.05040309,-0.00073440885,-0.11366466,0.4,0.00078123936,0.00078123936,0.00078123936,197388,0.012562278,-0.008310712,0.0017665724,0.5,2.3055414e-05,5.9545502e-05,5.2244264e-05,1,1,1,1,1,0
896004000,895924000,1310996,0.00041190683,-0.0023709752,0.0016245529,0.34906584,1.603511e-07,1.6110259e-07,4.4965668e-07,1310996,0.05033154,-0.00065624487,-0.11229853,0.4,0.00078123936,0.00078123936,0.00078123936,197388,0.012562278,-0.008310712,0.0017665724,0.5,2.3055414e-05,5.9545502e-05,5.2244264e-05,1,1,1,1,1,0
897004000,896924000,1310996,0.00039478458,-0.0023798454,0.0016111409,0.34906584,1.6094852e-07,1.6157425e-07,4.462025e-07,1310996,0.05035436,-0.0007169143,-0.11225376,0.4,0.00078125205,0.00078125205,0.000781252,197388,0.012562278,-0.008310712,0.0017665724,0.5,2.3055414e-05,5.9545502e-05,5.2244264e-05,1,1,1,0,1,0
897812000,897732000,1310996,0.00037442418,-0.002393858,0.001596074,0.34906584,1.5899667e-07,1.5947327e-07,4.436575e-07,1310996,0.050869826,-0.001511377,-0.11158383,0.4,0.00078123936,0.00078123936,0.00078123936,197388,0.012562278,-0.008310712,0.0017665724,0.5,2.3055414e-05,5.9545502e-05,5.2244264e-05,1,1,1,0,1,0
898380000,898300000,1310996,0.00034513857,-0.0024169246,0.0015817792,0.34906584,1.4900716e-07,1.4924407e-07,4.4082313e-07,1310996,0.05233796,-0.0034230403,-0.103277065,0.4,0.00078123936,0.00078123936,0.00078123936,197388,0.012562278,-0.008310712,0.0017665724,0.5,2.3055414e-05,5.9545502e-05,5.2244264e-05,1,1,1,0,1,0
898692000,898612000,1310996,0.0003446085,-0.0024186126,0.00157402,0.34906584,1.5043865e-07,1.5065677e-07,4.4005253e-07,1310996,0.052601404,-0.0035312385,-0.10231827,0.4,0.00078124553,0.0007812456,0.00078123936,197388,0.012562278,-0.008310712,0.0017665724,0.5,2.3055414e-05,5.9545502e-05,5.2244264e-05,1,1,1,0,1,0
898796000,898716000,1310996,0.0003345336,-0.0024246627,0.0015720254,0.34906584,1.5033511e-07,1.5054077e-07,4.4006947e-07,1310996,0.05362602,-0.005230726,-0.100633256,0.4,0.00078123936,0.00078123936,0.00078123936,197388,0.012562278,-0.008310712,0.0017665724,0.5,2.3055414e-05,5.9545502e-05,5.2244264e-05,1,1,1,0,1,0
899004000,898924000,1310996,0.0003325597,-0.002430238,0.0015681124,0.34906584,1.5111283e-07,1.5130553e-07,4.392881e-07,1310996,0.054464832,-0.005525621,-0.09639858,0.4,0.00078123936,0.00078123936,0.00078123936,197388,0.012562278,-0.008310712,0.0017665724,0.5,2.3055414e-05,5.9545502e-05,5.2244264e-05,1,1,1,0,1,0
899188000,899108000,1310996,0.00033264214,-0.0024303736,0.0015627592,0.34906584,1.5257321e-07,1.527655e-07,4.383194e-07,1310996,0.0,0.0,0.0,0.4,0.040000003,0.040000003,0.040000003,197388,0.012562278,-0.008310712,0.0017665724,0.5,2.3055414e-05,5.9545502e-05,5.2244264e-05,1,1,1,0,1,0
899212000,899132000,1310996,0.00033433278,-0.0024296436,0.0015627644,0.34906584,1.5180056e-07,1.5198111e-07,4.3850216e-07,1310996,-0.00178033,0.004132483,-0.00827359,0.4,0.034092616,0.034092247,0.03395927,197388,0.012562278,-0.008310712,0.0017665724,0.5,2.3055414e-05,5.9545502e-05,5.2244264e-05,1,1,1,0,1,0
899420000,899340000,1310996,0.0003341144,-0.0024303596,0.0015586794,0.34906584,1.5338136e-07,1.5356063e-07,4.3772712e-07,1310996,0.010539792,-0.0013491013,-0.004308246,0.4,0.0049991407,0.004998311,0.00416828,197388,0.012562278,-0.008310712,0.0017665724,0.5,2.3055414e-05,5.9545502e-05,5.2244264e-05,1,1,1,0,1,0
899628000,899548000,1310996,0.00033308426,-0.002429557,0.0015551646,0.34906584,1.5500922e-07,1.5518867e-07,4.3694766e-07,1310996,0.003494064,-0.009918856,0.007971301,0.4,0.0031030392,0.00310216,0.002211753,197388,0.012562278,-0.008310712,0.0017665724,0.5,2.3055414e-05,5.9545502e-05,5.2244264e-05,1,1,1,0,1,0
899836000,899756000,1310996,0.00033302195,-0.0024302215,0.0015495614,0.34906584,1.5661665e-07,1.5679515e-07,4.3617564e-07,1310996,0.005485162,-0.010478867,0.010344513,0.4,0.0024319715,0.0024309931,0.0015052309,197388,0.012562278,-0.008310712,0.0017665724,0.5,2.3055414e-05,5.9545502e-05,5.2244264e-05,1,1,1,0,1,0
900044000,899964000,1310996,0.00033365656,-0.0024317652,0.0015447226,0.34906584,1.5819485e-07,1.5837206e-07,4.3540265e-07,1310996,0.008317408,-0.009343788,0.01702017,0.4,0.0020944274,0.002093356,0.0011408261,197388,0.012562278,-0.008310712,0.0017665724,0.5,2.3055414e-05,5.9545502e-05,5.2244264e-05,1,1,1,0,1,0
