timestamp,timestamp_sample,xyz[0],xyz[1],xyz[2]
829264000,829264000,0.0005992936,-0.0037703665,-0.0054032467
829268000,829268000,-0.0003517864,-0.0047488203,-0.0046946593
829276000,829276000,-0.0039556967,-0.0040734606,-0.0010087917
829284000,829284000,-0.005568509,0.0008234142,-0.00020470005
829296000,829296000,-0.007998979,0.0021254206,0.0019140961
829304000,829304000,-0.0056595383,0.0012949384,0.00010362186
829316000,829316000,-0.0032623236,-0.00079716695,0.00080180774
829324000,829324000,-0.00027885672,0.0012790739,-0.0018297061
829336000,829336000,0.00010664339,0.005158644,-0.0015966244
829344000,829344000,-0.00436841,0.001859006,0.0022064464
829356000,829356000,0.00018774907,0.0025294553,0.00024259253
829364000,829364000,-0.0042625912,0.00024409546,0.0055680303
829376000,829376000,-0.0044175065,-0.0010889464,-0.003258835
829380000,829380000,-0.0066717905,-0.0030649707,-0.006712882
829396000,829396000,-0.0038896045,0.00041210884,-0.010461754
829400000,829400000,-0.011695582,-0.000807161,-0.0048509175
829416000,829416000,-0.00024195448,-0.0014216166,-0.00039017317
829424000,829424000,-0.0028205912,0.0007347963,-0.0015121978
829436000,829436000,-0.0002034693,-0.0003955434,-0.0021116799
829444000,829444000,0.0069816606,8.700532e-05,-0.0006346751
829456000,829456000,-0.006962769,-0.0007174553,-0.0013677755
829464000,829464000,-0.0050871447,-0.0011070091,-5.138805e-05
829476000,829476000,-0.00050389895,-0.0028678298,-0.0027944325
829484000,829484000,0.003537183,0.0031919456,-0.000354781
829496000,829496000,0.004445994,-0.0025736124,0.001750732
829500000,829500000,0.0061384323,-0.00336776,0.0006503654
829516000,829516000,-0.009700835,-0.00052143214,-0.00088697893
829524000,829524000,-0.0011101558,0.0077152317,-0.00025058357
829536000,829536000,-0.0033952089,-0.007267828,0.0036243857
829544000,829544000,0.0016764221,-0.003058717,-0.0006331961
829556000,829556000,0.004500769,-0.0020135555,0.0007105073
829564000,829564000,0.01224192,-0.0015519308,0.0016569131
829576000,829576000,-0.006693958,-0.0019188516,0.00071756507
829584000,829584000,0.0025721965,-0.0058850152,0.0071345624
829596000,829596000,0.001212877,-0.0014969013,-0.0023184153
829600000,829600000,0.00094860705,-0.0007363972,-0.0019540077
829612000,829612000,7.3002215e-05,-0.0031179625,-0.003294359
829620000,829620000,0.00609315,-0.00065110275,0.0010454616
829636000,829636000,-0.005608232,-0.0027905775,-0.00410343
829644000,829644000,-0.0030585984,-0.00015171198,-0.0034710919
829652000,829652000,-0.004502823,-0.00050795474,-0.005277046
829664000,829664000,0.0022252412,0.0043194275,-0.001607488
829676000,829676000,-0.007250763,-0.006581735,-0.0018450489
829684000,829684000,-0.0056786835,-0.003746858,0.0010869582
829696000,829696000,0.0072028153,-0.0025722354,-0.00015782379
829704000,829704000,-0.0056292415,0.00046658423,0.0040261075
829712000,829712000,0.0044550723,-0.0037468437,-0.00017371704
829724000,829724000,0.0011558664,-0.0054331925,0.007830072
829736000,829736000,-0.0017702987,0.0041668983,-0.0065083206
829744000,829744000,0.011654279,-0.00042290892,-0.0024098232
829756000,829756000,-0.0025141968,-0.0024139986,0.0029806045
829760000,829760000,-0.010327697,-0.00068589416,0.0013591242
829776000,829776000,0.00038921207,-0.001138377,0.0015655912
829784000,829784000,-0.0040838136,0.004537692,0.0011862656
829796000,829796000,-0.00031063115,0.0021326323,-0.001144759
829804000,829804000,0.006299345,0.0026065311,0.00040498725
829816000,829816000,0.002214182,-1.3593119e-05,0.0013652055
829820000,829820000,-0.004865783,-0.0032027133,0.001196855
829836000,829836000,-0.0009133192,0.0010293564,-0.006258603
829844000,829844000,-0.0024835442,0.002017039,-0.0049902294
829856000,829856000,0.003799734,-0.0037563578,-5.3428696e-05
829864000,829864000,0.0060548885,-0.007866552,-0.0030398637
829876000,829876000,-0.00073675596,0.0052444516,-0.0033837853
829884000,829884000,-0.0016099132,0.0018961072,0.002499804
829896000,829896000,0.0005484726,0.0006744703,0.006261795
829904000,829904000,-0.00084488466,-0.0027459064,0.005828007
829916000,829916000,0.0045932797,0.0026133037,0.0015447028
829920000,829920000,0.008721011,0.003312277,0.00065968535
829936000,829936000,-0.0025997346,-0.0022304356,0.0017218711
829944000,829944000,-0.006389993,0.00047004165,0.0039888117
829956000,829956000,0.0019447601,0.00011054939,-0.0012824301
829964000,829964000,-0.0066526886,-0.0012663766,-0.0049685338
829976000,829976000,0.00040985682,-2.7637929e-05,0.00036196376
829984000,829984000,0.0055913753,-0.0020756572,0.001316125
829996000,829996000,0.0034529192,0.0022297404,0.00015735358
830004000,830004000,0.0038308797,0.004059823,7.198262e-05
830016000,830016000,-0.006766918,0.0025903238,0.00031905703
830024000,830024000,-0.0006974257,-0.0034455173,0.00025982596
830036000,830036000,-0.00061899994,-0.0031665917,-0.0017304734
830040000,830040000,-0.004185212,-0.0031819376,-0.0036226425
830052000,830052000,-0.0004151212,0.003861297,-0.0020179856
830064000,830064000,-0.0015841508,-0.0006189684,0.0013524282
830076000,830076000,-0.002089062,0.004293414,-0.00056453346
830080000,830080000,-0.008691149,0.0052756313,-0.000771767
830092000,830092000,-0.00020277387,-0.0036210478,-0.008437678
830100000,830100000,-0.0025071946,-0.00015483168,-0.0001556091
830116000,830116000,-0.0032044852,0.0018520681,-8.618203e-05
830124000,830124000,0.0061851535,0.0014030774,-0.0020182426
830136000,830136000,-0.010575718,0.0034189168,-0.0030018832
830140000,830140000,-0.007921472,0.004894391,0.00046804093
830156000,830156000,0.00042826225,-0.0019282261,-0.0018182485
830164000,830164000,-0.001953714,-0.0005670476,-0.0012329959
830176000,830176000,-0.00039782783,-0.0014850749,-0.00392093
830180000,830180000,0.0010209602,-0.002284342,-0.0014040172
830196000,830196000,-0.007743659,0.0046083005,0.0015569788
830204000,830204000,-0.003047446,0.0018556558,-0.000910776
830212000,830212000,0.0025074908,-0.0025356608,-0.0047874157
830220000,830220000,0.0011986636,4.3371692e-05,-0.0024165693
830236000,830236000,0.007852946,-0.0033219834,0.0045904014
830244000,830244000,0.0067985584,0.0045324285,0.0039416123
830256000,830256000,-0.004493196,-0.00035557756,0.0031558175
830264000,830264000,0.00013345855,0.0018324254,0.0020153262
830276000,830276000,-0.002972685,-0.0007591734,-0.001312272
830284000,830284000,0.001605066,-0.002143135,0.0017541908
830296000,830296000,0.0012424316,0.00033779046,-0.0015475856
830304000,830304000,0.0068977973,0.0030420984,-0.0005668126
830316000,830316000,-0.0072354157,0.0031753024,0.0038404327
830324000,830324000,0.00013792241,0.0009879477,0.0059285043
830336000,830336000,-0.0029623604,-0.005496404,-0.00034676475
830344000,830344000,-0.005391018,-0.0014164085,-0.0014895604
830356000,830356000,0.0012817099,0.001438214,0.00021436834
830360000,830360000,0.004232993,-0.0010328267,-0.0013459518
830376000,830376000,0.0052481284,-0.0026067349,0.0014795093
830380000,830380000,-0.0018405719,-0.0036162164,0.0020896592
830396000,830396000,0.0017435036,-0.0026546281,-0.0004840151
830404000,830404000,-0.0031920495,0.003163788,-0.0019104299
830416000,830416000,0.0039956234,0.00357811,6.344449e-05
830424000,830424000,0.0061052497,0.00087082037,0.0016742167
830432000,830432000,0.0006084947,-0.00355983,0.005790621
830444000,830444000,-0.005045999,0.00039806624,0.0011601506
830456000,830456000,-0.00034202661,0.001324104,-0.0034599395
830464000,830464000,0.002054768,0.0036431754,-0.0019318446
830476000,830476000,-0.0012680283,0.0024815307,7.281231e-05
830480000,830480000,-0.0036542742,0.00081006077,-0.002057645
830496000,830496000,-0.0056908345,0.0012008632,-0.0010640378
830504000,830504000,-0.007263232,0.00081608933,-0.002546453
830516000,830516000,-0.0038034497,-0.001400725,0.0026156502
830524000,830524000,-0.005346068,0.0023216961,-0.001514219
830536000,830536000,-0.0011184625,-5.2268384e-05,-0.0022456192
830544000,830544000,0.0035787353,-0.0016598916,-0.0012317996
830556000,830556000,-0.004543389,0.0024849926,0.001020255
830564000,830564000,-0.0018028349,0.0027272855,-0.0021490792
830576000,830576000,-0.0015965673,0.0010921629,0.0011439417
830584000,830584000,0.0012004427,-0.000103421975,-0.0015920291
830596000,830596000,0.0024965734,0.0025149526,0.0040207244
830604000,830604000,0.008364731,0.0052834894,0.0017668502
830616000,830616000,-0.0029472297,-0.00080335606,0.0034598517
830624000,830624000,-0.004000631,-0.002287275,-0.0019111668
830636000,830636000,-0.0033517766,0.0041504363,-0.0022085174
830644000,830644000,-0.0018103584,0.002037185,-0.0014664441
830656000,830656000,0.010763728,-0.0028128338,-0.0025897007
830664000,830664000,0.0029589923,-0.0028193623,-0.001533936
830676000,830676000,-0.0069932686,-0.0005332674,-0.0007761542
830684000,830684000,0.0010527127,0.0012137648,0.00037618366
830696000,830696000,0.0012538885,0.005731459,-0.0022096974
830704000,830704000,0.0036439237,-6.876164e-05,-0.00084702246
830716000,830716000,0.0028582006,0.0015026787,0.0013747606
830724000,830724000,0.009296925,0.005320143,-6.7608664e-05
830736000,830736000,-0.0057330662,0.0013124684,-0.0001659802
830744000,830744000,-0.004364465,-0.000662063,-0.00079719035
830756000,830756000,0.00574397,-0.0038171222,0.005442462
830764000,830764000,-0.00018097946,-0.0038961906,0.0049714227
830776000,830776000,-0.0051046675,0.0030028443,0.0006508903
830780000,830780000,0.0005386139,0.0019100303,0.00087464997
830796000,830796000,0.0025262418,-0.0038761671,-0.003778125
830804000,830804000,-0.012610386,-0.004163078,-0.0008792295
830816000,830816000,0.0022604705,-0.00032374728,-0.0013032435
830824000,830824000,0.00045985493,0.0013259776,0.0007721904
830836000,830836000,-0.0010802809,-0.0034591567,-0.00024125143
830844000,830844000,0.0043850187,-0.003090747,0.004377606
830856000,830856000,-0.0021898965,0.001264757,0.0030553862
830864000,830864000,-0.008521746,0.0006173301,0.0018664757
830872000,830872000,0.0015185425,-0.0005053913,0.0007707708
830884000,830884000,-0.002792286,-0.0010149712,-0.0041747186
830896000,830896000,-0.0015207997,-0.0003061674,-0.0015337551
830904000,830904000,0.0024643482,-0.0003614393,-0.0012290583
830916000,830916000,0.0033661537,0.0035057561,0.0017333273
830924000,830924000,-0.010270265,0.0014412263,-0.0050618825
830936000,830936000,-0.0034802554,0.0017783552,-0.001986398
830944000,830944000,-0.0028883102,0.0011905301,-0.0031667587
830956000,830956000,0.0047843116,0.0032041068,0.00368253
830964000,830964000,-0.0043064873,8.872012e-06,-0.0027583793
830976000,830976000,0.0016159116,-0.00056582014,-0.0005585676
830984000,830984000,-0.0022553366,-0.0036463921,0.0013822
830996000,830996000,-0.0014199014,-0.00052465824,-0.0011673699
831004000,831004000,0.003425679,-0.001519752,0.0034719468
831012000,831012000,0.00011500955,0.00033905718,-0.0025466376
831024000,831024000,0.0049576974,-0.0005477222,-0.0032493288
831036000,831036000,0.0007325794,-0.0023910494,0.00027634553
831040000,831040000,-0.0041926065,0.0017011706,0.0016521483
831056000,831056000,-0.001769804,-3.202283e-05,-0.003588501
831064000,831064000,-0.0017213267,0.0022787289,-0.00858246
831076000,831076000,-0.0014466952,0.002217322,0.004222326
831084000,831084000,0.00434829,-0.0023471115,-0.0031517348
831096000,831096000,-0.00089991046,0.0031241304,-0.0012754352
831104000,831104000,-0.009766951,-0.001892824,-0.0014319556
831116000,831116000,0.0030537844,-6.377185e-05,0.0003619477
831124000,831124000,0.0019981484,0.0021519258,0.0017536569
831132000,831132000,-0.004045148,-0.002014437,0.0018164734
831140000,831140000,0.008346147,-0.0044047143,-0.0015965397
831156000,831156000,-0.004611669,-0.0009785041,-0.0011573763
831164000,831164000,-0.0031081627,0.008016787,0.0010027795
831176000,831176000,0.003056458,0.0013803381,0.0004936892
831184000,831184000,0.0018145829,-0.0023623223,0.0027502598
831196000,831196000,-0.0003597243,0.006179327,-0.007720995
831204000,831204000,0.011034125,0.0035802845,-0.0043111974
831216000,831216000,-0.007320667,0.0018484639,-0.005826103
831224000,831224000,-0.009165758,0.0039876346,0.00075316255
831236000,831236000,-0.0005779054,0.002353544,0.0018800353
831244000,831244000,-0.005704252,-0.0005261309,-0.0030546442
831256000,831256000,0.011160716,-0.00291691,0.0008006245
831264000,831264000,0.00623235,-0.0068237185,0.0010265203
831276000,831276000,-0.0061547244,0.0019859974,-0.0017072097
831284000,831284000,-0.0021646048,0.002202803,-0.0008868034
831296000,831296000,-0.0073101446,0.0009935906,0.0021545836
831304000,831304000,-0.0045421435,0.0026768867,0.0006378852
831316000,831316000,0.004326943,0.0040066405,0.0026632831
831324000,831324000,0.0099012,0.000978582,0.0028850026
831336000,831336000,-0.008088986,0.0005238212,0.0021833675
831344000,831344000,-0.0018217396,-0.0045962366,-0.0011013257
831356000,831356000,0.0031445823,0.0049452847,0.0027203402
831364000,831364000,-0.0034509017,-0.00043908274,0.00037052087
831376000,831376000,0.0029355804,0.00066143356,0.0023117564
831384000,831384000,-0.0034863423,-0.0025766497,0.001117106
831392000,831392000,-0.0033853124,0.00058802764,0.0019583553
831404000,831404000,-0.0009677629,0.0031353047,-0.0016836768
831416000,831416000,-0.001571535,-0.001229391,0.003738719
831424000,831424000,0.004254416,0.0012292904,0.0052106623
831436000,831436000,0.010981188,0.00017446117,0.00087025773
831444000,831444000,-0.0033025993,-0.00032606884,-0.00049069856
831452000,831452000,-0.011400849,-0.001990981,0.00047603925
831464000,831464000,0.005048817,-0.005299309,-0.00033604895
831476000,831476000,0.0027469392,0.0035229658,-0.0015788496
831484000,831484000,-9.494048e-05,0.0038015875,0.0030366252
831496000,831496000,0.0032511996,-0.0008761019,0.0013064627
831500000,831500000,-0.004897727,-0.0010743833,-0.0019278573
831516000,831516000,0.0007326051,0.002336591,0.0068361177
831524000,831524000,-0.0015026573,-0.00039622374,-0.0006195429
831536000,831536000,-0.004219187,-0.002779677,-0.004242095
831544000,831544000,-0.0021460238,0.0038031708,-4.5307563e-05
831556000,831556000,0.008833027,-0.0008176204,0.0038016764
831564000,831564000,-0.0038579826,-0.0006781672,0.0034038224
831576000,831576000,-0.004082657,0.0023139792,-0.0013044104
831584000,831584000,0.000115928444,-0.0041952883,-0.0010753187
831596000,831596000,0.007967738,0.0015975867,-0.00017545419
831604000,831604000,0.011505712,-0.0004535315,-0.0012740182
831616000,831616000,-0.0042339317,0.002257903,0.00017450796
831624000,831624000,0.00010218742,0.0028057965,0.00012162281
831636000,831636000,-0.011515958,-0.0016822745,-0.0024401243
831644000,831644000,-0.0045205667,-0.0011305024,-0.001713187
831656000,831656000,0.005376314,0.001978439,0.00018483703
831664000,831664000,0.005533907,-0.0028522825,0.0019882112
831676000,831676000,-0.0036858176,0.000244166,0.00055059826
831684000,831684000,-0.0028842627,0.000116367824,-0.00014994328
831696000,831696000,0.00013811863,0.004718465,-0.0015876
831704000,831704000,-0.003960711,0.0034095552,-0.0041410886
831716000,831716000,0.0024345664,0.0017741257,-0.00092103926
831724000,831724000,-0.0041540205,0.0020892415,0.002840931
831736000,831736000,-0.004155791,-0.0011147198,0.0026134357
831744000,831744000,-0.0035136505,0.00029916142,-0.001560358
831756000,831756000,-0.0016934532,0.0043475493,0.0008584515
831764000,831764000,-0.005590986,1.3426179e-05,-0.0022001895
831776000,831776000,0.0032807856,0.0025298602,-0.0012648307
831784000,831784000,-0.00029503158,-0.0019670515,0.0069263293
831796000,831796000,-0.0005107147,-0.0022712243,-0.0008187941
831804000,831804000,0.0018086566,0.00041075167,0.0017734261
831816000,831816000,0.002371276,0.0020403408,0.0037381514
831824000,831824000,0.006249566,0.003981795,0.0051134075
831836000,831836000,0.0043589827,0.0033886891,0.0032855724
831844000,831844000,-0.005659983,0.00022246828,0.001062589
831856000,831856000,-0.0021047622,0.0019470474,0.0028469171
831864000,831864000,-0.0025275536,0.0010501161,0.0011526416
831876000,831876000,-0.0019326783,-0.0036502574,-0.0037159
831884000,831884000,-0.00035878483,0.0020549402,-0.0051080356
831896000,831896000,0.005833634,-0.0004945458,0.00264451
831904000,831904000,-0.0054644067,0.0004269831,0.0018875562
831916000,831916000,-0.00084103516,0.00027484098,0.0011126173
831924000,831924000,-0.00053842383,0.0021460638,0.0015716355
831936000,831936000,-0.0014557387,-0.0015403575,0.00067565043
831944000,831944000,0.00593732,0.00010718615,-0.002480174
831956000,831956000,0.00032030838,0.0034116611,-0.00061640685
831964000,831964000,-0.007933948,-0.002126772,-0.0010759141
831972000,831972000,-0.0049430896,-0.0059476183,-0.0028373515
831984000,831984000,-0.004175158,-0.0028419592,0.0014738744
831996000,831996000,0.0025494557,0.002678941,-0.00293779
832004000,832004000,-0.00019853585,0.0019651465,-0.002306689
832016000,832016000,-0.0052590193,-0.002829413,-0.00066934153
832024000,832024000,-0.0044873133,0.00015249709,-0.00021191814
832036000,832036000,-0.0053195776,0.0029211943,0.004141413
832044000,832044000,-0.0035148312,0.0046008034,-0.0009038028
832056000,832056000,0.00546794,-0.0012905183,-0.0016913894
832064000,832064000,0.0065284353,-0.0015156602,-0.00199528
832076000,832076000,-0.0071628317,-0.0018332582,-0.002982683
832084000,832084000,-0.0065871924,-0.005879207,-0.005317531
832096000,832096000,-0.00088065537,-0.00079312315,0.0035365415
832104000,832104000,0.0010571873,-0.0047296435,0.0042433366
832116000,832116000,0.0010414821,0.00023586932,0.0005174489
832124000,832124000,0.01092284,-0.0018758914,0.0055253007
832136000,832136000,-0.0074401377,-0.0027057584,-0.0016448604
832144000,832144000,-0.0007609353,0.0006896476,-0.004108773
832156000,832156000,0.0029745172,-0.0027035205,-0.0006365097
832164000,832164000,0.00072849763,-0.00056484644,0.00085698906
832172000,832172000,0.0031860399,-0.0029014032,-0.0010957116
832184000,832184000,0.0016900513,0.005802687,-0.0006669097
832196000,832196000,-0.006010967,-0.0019944576,0.002946251
832200000,832200000,-0.0038460032,0.0008178834,0.0049036876
832216000,832216000,0.0009787248,-0.00051146746,-0.0016610823
832224000,832224000,-0.004120663,-0.0001781208,-0.0031513288
832236000,832236000,0.002657821,-0.00015586079,-0.0015928848
832244000,832244000,0.009553202,0.0016078835,0.00072212867
832256000,832256000,-0.0055031604,-0.0027622744,-0.0009169575
832264000,832264000,0.00023023816,-0.0033899024,0.0018750576
832272000,832272000,-0.00019747541,0.002148769,0.003622442
832280000,832280000,0.00048596037,0.0040933583,0.0050508035
832296000,832296000,0.0024289256,-0.0019210437,0.0038736863
832304000,832304000,-0.0050184363,-0.0004903595,0.003024607
832316000,832316000,0.001650935,-0.0004113752,0.0036031404
832324000,832324000,-0.002698105,-0.0006672002,0.0020678202
832336000,832336000,-0.0017651309,-0.00020150561,-0.000988175
832344000,832344000,-0.0058059623,0.0071108365,-0.004539664
832356000,832356000,0.008412486,-0.0033965064,-0.0029009301
832364000,832364000,0.0036180844,-0.0013044733,-0.0018555282
832376000,832376000,-0.00932254,0.0013551952,-0.001459301
832384000,832384000,0.0009606952,-0.00037853932,0.0014393876
832396000,832396000,-0.0015063384,0.0011335075,-0.005794938
832404000,832404000,0.00074678136,0.0034883174,-0.0038632643
832416000,832416000,0.0053872354,0.0008179996,-0.00014295301
832424000,832424000,0.0104976,-0.0015237033,-0.0035246974
832432000,832432000,-0.007459536,0.00025098072,-0.0017482756
832440000,832440000,-0.0035626658,0.00083165406,-0.0016998609
832452000,832452000,0.004908251,-0.0050784247,0.0005434805
832464000,832464000,0.0027794952,0.0020304457,0.0011298921
832472000,832472000,0.0067391326,0.00055637443,0.0036808606
832484000,832484000,0.0015858901,-0.0012417056,-0.0011644119
832496000,832496000,-0.008803012,0.0022734657,0.0008409176
832504000,832504000,-5.447422e-05,0.00026471983,0.0025512846
832512000,832512000,0.00271618,0.00010158052,0.0012650782
832524000,832524000,-0.0017915312,0.0017609331,0.0007257771
832536000,832536000,0.0073315063,0.003925167,0.0028590127
832544000,832544000,-0.0014621353,-0.00021645194,-0.0051166024
832552000,832552000,-0.011481437,0.00025897915,-0.0073955236
832564000,832564000,0.0018275088,-6.984919e-05,-0.0040048165
832572000,832572000,0.0007494481,0.0038788416,-0.005771579
832584000,832584000,0.002397776,0.00046957878,0.0008246419
832596000,832596000,0.0046233786,0.0011098961,-0.0034983999
832604000,832604000,-0.0077870223,0.0037262,-0.0011711128
832616000,832616000,-0.005132099,-0.00039316085,-0.00038473326
832624000,832624000,-0.004757978,-0.0017927166,0.003636373
832636000,832636000,-0.00022259024,-0.0011045099,-0.0023668038
832644000,832644000,0.0014021065,-0.0027433077,-0.0006544219
832656000,832656000,0.0026128911,-0.0033173326,-0.00096666306
832660000,832660000,-0.00042319036,-0.004570418,-0.00062035373
832672000,832672000,-7.082769e-05,0.0027315204,-0.0010044508
832680000,832680000,0.0019295289,0.0009143398,-0.002608491
832692000,832692000,-0.0034325277,-0.0011391379,0.0028645487
832700000,832700000,0.0072173667,0.0012051837,-0.000481667
832716000,832716000,0.0028970996,0.0016360944,-0.00024727779
832724000,832724000,-0.0023817883,-0.0008280182,0.0001655852
832736000,832736000,0.0017994872,-0.0005483157,0.002870036
832744000,832744000,-0.0026804344,0.00031758833,0.0023761634
832756000,832756000,-0.001594131,0.001680907,-0.00018294813
832764000,832764000,0.0044817985,0.0008093262,-0.003487886
832776000,832776000,0.0053050364,-0.00018333993,-0.006767641
832784000,832784000,-0.005349066,-0.00035033422,0.002531223
832796000,832796000,-0.0026467568,-0.0020915319,0.0016325999
832804000,832804000,0.004039281,0.003576106,0.0015918622
832816000,832816000,0.0026180716,-0.00037906738,0.008394578
832824000,832824000,0.0039308523,-0.0005121322,0.002825415
832836000,832836000,-0.009332972,0.0028669685,0.0003598961
832844000,832844000,0.00042641096,-0.00023651472,0.0012564107
832856000,832856000,-0.0024853332,-0.003956802,0.0024140063
832864000,832864000,0.0008562786,0.0023613125,0.0046940884
832876000,832876000,-0.0031159434,0.0006779643,-0.003907048
832884000,832884000,0.006547347,0.005130041,0.0014956002
832892000,832892000,-0.004017665,0.0010060328,0.0014229256
832904000,832904000,0.0002896707,1.7959392e-05,-0.00033950963
832912000,832912000,0.0016363735,0.0005843446,0.0059553077
832924000,832924000,0.0033690133,-0.00054790964,-0.0017949847
832932000,832932000,0.0069197733,-0.0006232369,-0.00046991912
832944000,832944000,-0.008891483,0.0048067104,0.0023996856
832956000,832956000,-0.0019748008,0.0015379065,0.0004078081
832964000,832964000,-0.0010542026,-0.0027528752,0.00031691487
832976000,832976000,-0.0022016328,0.0055918405,0.0043608714
832980000,832980000,-0.0059027015,-0.00094026024,0.0026742402
832996000,832996000,0.0073148045,0.0006100342,-0.0019094127
833004000,833004000,-0.0058561284,0.0038097915,0.0021447688
833016000,833016000,-0.003185949,-0.00020791031,-0.0013063756
833024000,833024000,0.0013163441,-0.003410797,-3.118394e-05
833036000,833036000,-0.00096123473,0.0027912986,-0.0033965288
833044000,833044000,0.008091862,0.0038242862,-0.0036056205
833056000,833056000,-0.0022148741,-0.0024577146,-0.00016392185
833064000,833064000,-0.0059754387,0.0053401096,0.0002661501
833076000,833076000,0.00048216525,0.004540651,-7.3674484e-05
833084000,833084000,-0.0014346181,0.0023093913,0.00031798705
833096000,833096000,-0.004440456,0.00147796,0.0011440302
833104000,833104000,0.0025044852,0.005002481,-0.0022298237
833116000,833116000,0.0024169437,0.005698517,0.003306861
833124000,833124000,-0.0023910194,0.0036356717,0.004903427
833132000,833132000,0.003092639,0.00047550572,-0.001031362
833144000,833144000,-0.0026612515,-0.0011699623,-0.00011479645
833156000,833156000,0.004139783,-0.0036865287,0.00028298167
833164000,833164000,0.00945922,3.178185e-05,0.0007659347
833172000,833172000,-0.004899444,0.005537638,-2.616737e-05
833184000,833184000,-0.00322521,0.002686423,-0.003881311
833196000,833196000,0.0027758675,-0.00074956706,-0.0037511624
833204000,833204000,0.0005336942,-0.0035008304,0.0033155605
833212000,833212000,0.0017440852,-0.0056523555,0.0001059178
833220000,833220000,0.002868802,0.0019007411,-0.0020925452
833236000,833236000,-0.008320739,0.00065460964,-0.0012005524
833240000,833240000,-0.008566071,-1.7233193e-05,-0.002184375
833252000,833252000,-0.0022151344,-0.0007131372,-0.0023661195
833260000,833260000,-0.0017433309,-0.0032740068,-0.00055991305
833276000,833276000,0.010185578,0.004588211,-0.0005356626
833280000,833280000,0.009087486,0.0032961133,-0.0040596104
833296000,833296000,-0.0066986503,0.001887422,-0.0006091231
833304000,833304000,-0.001741454,0.0037112525,0.0013426145
833316000,833316000,0.0015788544,-0.0011040447,-0.005266735
833324000,833324000,-0.0033060813,-0.005071911,-0.001509261
833336000,833336000,0.0036838837,0.0034299605,0.0009936866
833340000,833340000,0.009454734,0.0014542306,-0.000368852
833356000,833356000,-0.0023689752,0.0030090413,0.0027890634
833364000,833364000,-0.0060359784,0.0006362309,0.0057256315
833376000,833376000,0.0029198097,0.0021433376,0.0017865499
833384000,833384000,0.0006731293,0.0029770916,0.00039138924
833392000,833392000,0.004458058,0.002055693,-0.0028168901
833404000,833404000,-0.003376958,0.0036360282,-0.002363808
833416000,833416000,-0.003245904,0.00034134963,-0.0010135856
833424000,833424000,0.0005648084,0.001595211,-0.00010545843
833436000,833436000,0.004890482,0.0047024367,-0.002539251
833444000,833444000,0.0011459896,0.004450517,-0.0026158863
833456000,833456000,0.005492721,0.0060285935,-0.004111662
833464000,833464000,-0.0045278734,0.003615152,-0.0028612227
833476000,833476000,-0.0011476327,0.002042602,0.0052099903
833484000,833484000,-0.0018619106,-0.0018610526,0.0034596678
833496000,833496000,0.0022473948,0.002797134,0.0019322712
833504000,833504000,0.00788749,0.0012356829,-0.0009471944
833516000,833516000,0.008590598,0.00044393144,-0.0028450435
833524000,833524000,-0.001801915,0.0032808513,-0.00035690563
833536000,833536000,0.0020425133,-0.0013784254,0.0037331432
833544000,833544000,0.0027424856,-0.0017482392,0.0012030712
833556000,833556000,0.0010690442,0.0001227702,-0.0071725748
833564000,833564000,0.00357422,-0.0017653583,-0.0011957088
833572000,833572000,0.0088019585,0.0011649727,-0.0012655004
833580000,833580000,-0.003986548,-0.004462005,-0.00055884715
833596000,833596000,-0.0021928127,-0.0022334429,-0.0012429024
833604000,833604000,-0.0004379989,-0.0009866718,-0.0027810247
833616000,833616000,-0.001753212,0.0009818978,-0.0010655092
833624000,833624000,0.011430558,0.0046054726,-5.6426972e-05
833636000,833636000,-0.0021132273,-0.00037638727,0.0038020778
833640000,833640000,-0.011025267,-0.0006990717,0.001902867
833656000,833656000,-0.0027791604,7.722597e-05,-0.004114814
833664000,833664000,0.0023937807,0.0014325649,-0.00012467499
833676000,833676000,-0.00093005155,0.002415639,-0.001318432
833684000,833684000,0.004715892,0.0019805033,0.0008741644
833696000,833696000,-0.0027223153,-0.0026782155,0.00092990894
833704000,833704000,-0.006765527,-0.0007925122,0.0034789639
833716000,833716000,-0.0035171486,-0.0015449428,-0.0003154897
833724000,833724000,-0.004148848,-0.0038359133,0.00067352876
833736000,833736000,0.0045017446,-0.0035217376,-0.0020386563
833744000,833744000,0.004150114,0.0013695762,-0.0014543361
833756000,833756000,-0.009840719,0.0044097397,0.0039416864
833764000,833764000,-0.005149773,-0.00018094736,0.004669626
833776000,833776000,-2.5163317e-05,0.0016114217,0.0011669389
833784000,833784000,0.0019393293,0.0035841293,0.0034776046
833796000,833796000,0.0014445756,-0.0027118414,0.001736279
833800000,833800000,0.006440184,-0.0010819875,-0.0009043329
833816000,833816000,-0.0076062432,-4.145503e-05,-0.001408147
833820000,833820000,-0.00767266,0.0006627757,-0.0026512109
833836000,833836000,-0.0031835032,0.0008313358,0.0022321315
833844000,833844000,-0.0030994215,-0.0012799643,0.0021424643
833856000,833856000,0.009828054,0.0015988732,0.0014637649
833864000,833864000,0.00970873,0.0022403928,-0.0035107005
833876000,833876000,-0.00967991,-0.0006954444,0.0010188661
833884000,833884000,0.00062435865,0.0009936319,0.0026126439
833896000,833896000,0.0005424811,0.0031458745,0.001456244
833904000,833904000,1.134476e-05,0.00010242616,2.0731473e-05
833916000,833916000,0.005607695,0.0011277371,0.0008405488
833924000,833924000,0.007961058,0.0037266407,-0.004110415
833936000,833936000,-0.0024588788,-0.0018444615,0.0038254764
833944000,833944000,0.0008226188,-0.0020978255,0.0021396405
833956000,833956000,0.00082915596,-0.0041722707,-0.0030842908
833960000,833960000,-0.0030110613,-0.0017201896,-0.0040003625
833976000,833976000,0.0042000646,-0.0009149213,-0.0031999517
833984000,833984000,-0.002702703,-0.0017781139,-0.0049376516
833996000,833996000,-0.0022487678,0.0006006486,-0.000570083
834004000,834004000,-0.003460292,-0.0010146257,-0.0013127695
834016000,834016000,-0.0031771234,0.0014484018,0.002625168
834024000,834024000,-0.0036734152,-0.00082022464,-0.0009641778
834036000,834036000,0.00586425,-0.0037732045,-0.0012548324
834040000,834040000,0.0016450807,-0.0018178215,0.0014039199
834056000,834056000,-0.0024549025,0.0031126353,0.0055151586
834064000,834064000,-0.00021421484,0.001865071,0.002850127
834072000,834072000,-0.00012645576,0.0019557667,0.006770889
834084000,834084000,0.0051559974,-0.005045085,0.0026271075
834096000,834096000,0.0046876166,-0.0017771949,-0.0017760554
834104000,834104000,-0.00839456,0.0033232209,-0.00022533571
834116000,834116000,0.004192389,-0.00072516873,-0.0058358586
834124000,834124000,0.005199613,-0.006470137,-0.0016479725
834136000,834136000,0.00525144,0.0038199106,0.00214106
834144000,834144000,0.003191284,-0.0006650444,-0.00081964466
834156000,834156000,0.012200328,-0.004952998,-0.0054689287
834164000,834164000,-0.0050724023,0.0016895807,-0.0018264526
834176000,834176000,0.0029663646,0.002856315,-0.003425235
834184000,834184000,-0.000111014815,0.0011445306,-0.005189568
834196000,834196000,0.00030338007,-0.0007725132,-0.001018999
834204000,834204000,0.0067766835,-0.001508628,0.0038868827
834216000,834216000,-0.0012348421,-0.00062665134,0.0020501332
834224000,834224000,-0.010450966,0.0035255132,-0.0017282901
834236000,834236000,-0.0018642603,-0.0009767248,-0.00057680823
834244000,834244000,-0.0018464385,-0.0011285774,-0.0013166314
834256000,834256000,-0.00093184767,-0.0014384624,-0.00050377887
834260000,834260000,-0.00014219053,0.0010289532,-0.001699432
834276000,834276000,0.004366916,-0.00026053237,0.00094206096
834284000,834284000,-0.0031347831,-0.002723358,-0.002051806
834292000,834292000,-0.0004731901,0.0006167204,8.2115526e-05
834304000,834304000,0.002967561,-0.0013634576,-0.0026040552
834316000,834316000,0.0038112663,0.0002618126,-0.0015714809
834324000,834324000,0.00790786,-0.00030677812,0.0010223517
834336000,834336000,-0.0032711062,-0.0005439562,-0.0005150366
834344000,834344000,-0.001664276,-0.0022641663,-0.0014812725
834356000,834356000,-0.003019966,0.0035021068,-0.0015607105
834364000,834364000,-0.002839033,0.00088639755,-0.0014294368
834376000,834376000,-0.0013406172,0.0002906078,-0.0011549348
834384000,834384000,0.0031426821,-0.0036777728,0.002742397
834396000,834396000,-0.007537185,-0.003870177,0.003833307
834404000,834404000,-0.0015617432,0.0002010488,0.000118423835
834412000,834412000,0.0010360274,-0.00034028594,-0.0006543071
834424000,834424000,0.0039349357,0.0012950912,0.0040801205
834436000,834436000,0.005928391,0.00630097,-0.001932658
834444000,834444000,0.004824218,-0.00080783037,0.0017792813
834452000,834452000,-0.0037443384,-0.0022179743,0.00301301
834464000,834464000,0.0016062224,0.0036258001,0.001364046
834476000,834476000,-0.0031816077,-0.0009834112,0.0060755387
834484000,834484000,-0.00086065335,0.0030275048,0.0017796459
834496000,834496000,0.0060232757,0.0041686636,-0.00563237
834504000,834504000,0.010318395,0.0046407394,-0.00252415
834516000,834516000,-0.0077855974,0.0022005744,-0.0021344228
834524000,834524000,-0.0061220485,-0.0002647806,0.00066847506
834536000,834536000,-0.0037382885,-0.0032364891,-0.0038174926
834544000,834544000,-0.00085293746,-0.0017396703,-0.0013047301
834556000,834556000,0.006710276,-0.002136668,0.0033595797
834564000,834564000,0.0058800834,-0.0029192504,0.0020706737
834576000,834576000,-0.0033522248,0.0058889817,-0.00057288114
834584000,834584000,-0.0008435928,0.005547759,-0.0019784023
834596000,834596000,-0.0034554666,0.0033798232,0.0012345389
834604000,834604000,-0.002214584,0.0059013506,-0.0021676533
834616000,834616000,0.004644676,0.0017411886,0.0019978217
834624000,834624000,0.0029924987,-0.0018166171,0.0035940737
834636000,834636000,0.0020663433,0.0015206016,-0.00047339854
834640000,834640000,0.0007609771,0.0008171798,-0.003568653
834656000,834656000,-7.361127e-05,0.007503379,-0.004803434
834664000,834664000,0.0051996126,0.002705019,-0.0010734331
834676000,834676000,0.010408948,0.0009205482,0.0020438917
834680000,834680000,0.004187927,0.0026484847,0.0026971395
834696000,834696000,-0.0031969761,0.0032795828,-0.0050451537
834704000,834704000,-0.010296472,0.000749871,-0.0004378446
834712000,834712000,-0.0025612642,-0.0012841625,0.00021939236
834724000,834724000,-0.00144456,0.0032856315,0.0012787672
834736000,834736000,0.0035784286,-0.0009303277,-0.00029624545
834740000,834740000,-0.0029876211,-0.0016191285,-0.0014823143
834756000,834756000,0.0017518778,0.0010964585,0.0028087832
834760000,834760000,0.006892138,0.0026362357,0.0029912447
834772000,834772000,0.00046379754,0.0027414882,-0.0008360633
834780000,834780000,-0.00071318937,0.00061036623,0.00034160295
834796000,834796000,-0.004664134,-0.0018037457,0.00034365826
834804000,834804000,-0.005664538,-0.0028189605,0.005646392
834816000,834816000,-0.0033487345,0.00089868484,0.0019254741
834824000,834824000,-0.001956901,0.00039599475,-0.00039106986
834836000,834836000,0.0031096723,-0.0014426732,0.00016550045
834844000,834844000,0.007491217,0.0028103369,0.0003660312
834852000,834852000,0.009545534,0.0019077362,0.0024253372
834864000,834864000,-4.850191e-05,-0.0036028621,-0.0010133435
834876000,834876000,-4.996758e-05,0.0014384545,0.004985688
834884000,834884000,-0.002703624,-0.0040442143,0.0037050168
834896000,834896000,0.00803623,0.0027091112,-0.0018559026
834904000,834904000,0.0076596886,0.0009618178,0.0037278607
834916000,834916000,-0.008883131,0.0025765859,0.0014229593
834924000,834924000,-0.0046464745,-0.0013294569,-0.0012245321
834936000,834936000,0.008460226,-0.0045621637,-0.0021695113
834944000,834944000,0.0020952935,0.0013760247,-0.0019124355
834952000,834952000,0.0065364223,0.0028704081,-0.00049579376
834964000,834964000,-0.000970891,0.0018259647,0.0024345415
834976000,834976000,-0.0030648657,0.00093920657,-0.0027162284
834984000,834984000,0.0010807919,0.00073787954,-0.002417782
834992000,834992000,0.0032467993,-0.0026140076,-0.007093144
835004000,835004000,0.0040989458,7.329346e-05,0.0031025144
835016000,835016000,0.0060015717,-0.0022576915,0.0035197418
835024000,835024000,-0.0036553582,-0.0073080277,0.0076930206
835036000,835036000,-0.00075658073,-8.266675e-05,-0.0012921256
835044000,835044000,-0.0027417892,0.0010686103,-0.00068286853
835052000,835052000,0.004731338,0.0022694576,-0.0010458948
835064000,835064000,0.0014136736,-0.00097287307,-0.0015138031
835072000,835072000,0.008185253,-0.0038523616,-0.00023523689
835084000,835084000,-0.00836796,0.004351126,-0.010788101
835096000,835096000,-0.0031356425,-0.0013685576,-0.008230454
835104000,835104000,0.005657633,9.110896e-06,-0.0022784993
835116000,835116000,0.0019523136,0.0012065633,-0.0013301909
835124000,835124000,0.004969682,-0.0004121596,0.0016912102
835136000,835136000,0.0005602536,-0.0070673935,0.0007874934
835140000,835140000,-0.007215431,-0.0031158233,-0.0004396619
835156000,835156000,-0.0020964069,-0.0002848974,-0.00373103
835164000,835164000,-0.0029584444,-0.0012516894,-0.00014249492
835172000,835172000,-0.002425572,-0.0015201687,-0.0008496846
835180000,835180000,-0.001380821,-0.0025484993,-0.0027304399
835196000,835196000,-0.0022669637,-0.0023022194,0.005759182
835204000,835204000,-0.005018406,0.0016869952,0.0013287122
835216000,835216000,0.00789396,0.0012019771,-5.3490396e-05
835224000,835224000,0.0046037897,-0.0029915741,0.0001399524
835236000,835236000,0.0038145958,0.0024106419,-0.0014727816
835240000,835240000,0.00506551,0.002764624,-0.0042189965
835256000,835256000,-0.003042855,-0.00048381346,0.0010230831
835264000,835264000,-0.0009660779,0.0014312027,0.0036069034
835272000,835272000,-0.00019574993,-0.00037566992,0.006507524
835280000,835280000,0.0022526097,-0.0007181796,0.003528636
835296000,835296000,0.0017360877,0.0045139496,0.00048188888
835304000,835304000,0.009512197,-0.0033584856,0.0026275408
835316000,835316000,-0.0033484406,-0.006825952,-0.0018233068
835324000,835324000,-0.0018580309,-0.0037194542,-0.00056378316
835336000,835336000,-0.00097501895,0.004522117,0.0021807654
835344000,835344000,-0.0031096037,0.005385234,-0.0019237727
835356000,835356000,0.00667947,0.00086324,-0.0010940338
835364000,835364000,0.0034685945,-0.004095765,-0.0016552445
835376000,835376000,-0.0038145501,0.0011328796,0.0029838532
835384000,835384000,-0.0027096258,0.0016757832,-0.0025849252
835396000,835396000,0.0011013018,0.0015449724,0.00024149811
835404000,835404000,-0.001039631,0.002612735,0.004988
835416000,835416000,0.006428789,0.0012312211,0.001771739
835424000,835424000,0.0051617655,-0.00013200683,-0.0022954857
835436000,835436000,-0.002123042,-0.0033074548,-0.0021894376
835444000,835444000,0.001595428,-0.00061055436,0.0007210565
835456000,835456000,0.0060268524,-0.0058793193,0.0008685414
835464000,835464000,0.00609292,-0.0028238073,-0.00028029748
835476000,835476000,-0.0057103434,0.0040355516,-0.0007598635
835484000,835484000,-0.00692468,0.002867354,-0.0024169872
835496000,835496000,-0.006293116,0.0028294707,-0.001760619
835504000,835504000,0.0013293861,-0.0012368935,-0.0019877949
835516000,835516000,-0.0049597574,-0.0024874036,-0.005846929
835524000,835524000,0.003082375,0.00055897655,-0.0027227195
835536000,835536000,-0.007727071,-0.0015028508,-0.002498892
835544000,835544000,-0.0032984298,-0.0041787587,0.00083811
835556000,835556000,-0.003952293,-0.0059605055,-0.0018789317
835564000,835564000,-0.012865364,0.0007159463,-0.00035905233
835576000,835576000,0.008823075,0.0058449814,0.00016787497
835584000,835584000,0.013208103,0.0004934779,-0.00037057698
835596000,835596000,-0.010013058,0.00086642767,0.0035621587
835604000,835604000,0.011281934,0.0027263672,-0.002349294
835616000,835616000,-0.023817077,-0.0034492447,0.0050358167
835624000,835624000,0.0036942065,0.00027267216,0.0011790309
835636000,835636000,0.00063954294,-0.002424596,0.0050694877
835644000,835644000,-0.004919433,-0.00024598045,0.0034725743
835656000,835656000,0.00057660847,0.005315505,0.003230681
835664000,835664000,-0.0019896487,-0.0018194357,0.0028996037
835676000,835676000,0.004301981,-0.0037733114,-0.0004701863
835684000,835684000,0.0067302557,-0.001092768,-0.0028011675
835692000,835692000,-0.006932155,-0.0028745334,0.002023125
835700000,835700000,0.0042293933,0.0018070596,-0.00054774905
835716000,835716000,0.0022532595,-0.0007886188,-0.0017401006
835724000,835724000,0.00096079696,-0.0045992555,-0.0011346524
835736000,835736000,0.0037463768,-0.0040239478,-0.0019172014
835744000,835744000,-0.0022112373,0.0015719348,-0.0038815336
835756000,835756000,-0.0016802131,0.0054647857,-0.0017861164
835764000,835764000,-0.0065085683,0.0033536279,-0.0026700068
835776000,835776000,0.00883886,0.0019091769,-0.0017105143
835784000,835784000,-0.007874863,-0.002156926,-0.0058207037
835796000,835796000,0.012404471,-0.0020468014,-0.0010454118
835804000,835804000,0.009038763,0.0012361642,-0.0041346224
835816000,835816000,-0.011318553,0.0013770049,-0.00169198
835824000,835824000,0.0005196553,-0.00052596396,-0.0015835783
835836000,835836000,-0.0045613144,0.0017455275,0.0021436007
835844000,835844000,0.0033343043,0.0009593541,-0.005190598
835856000,835856000,-0.0042508515,0.001007342,-0.001844703
835864000,835864000,0.0059080315,0.0022901157,-0.0009527572
835876000,835876000,0.008886427,-0.0013385045,-0.0009131075
835884000,835884000,-0.005507832,0.003334167,-0.00072425645
835896000,835896000,0.013043241,-0.0020028076,-0.0034086758
835904000,835904000,0.0015773643,-0.0025530353,0.006291827
835916000,835916000,0.0012857699,0.0023224473,-0.00070830924
835924000,835924000,0.0085760625,0.00020056008,-0.004119509
835932000,835932000,-0.00690013,6.906944e-05,-0.0027570855
835940000,835940000,0.00043963525,-0.0019586158,-0.0026947127
835956000,835956000,-0.0040000197,0.00089192076,-0.0008079746
835960000,835960000,0.004054262,0.0022788763,-0.0037781002
835976000,835976000,0.013517709,-0.00404739,-0.00056467595
835984000,835984000,-0.0022377986,0.0019873262,-0.0042359373
835996000,835996000,-0.0022581406,-0.0019425924,0.0026219003
836000000,836000000,-0.004150903,0.0011470031,0.0014041988
836012000,836012000,-0.0022293418,0.0005300151,0.0028637538
836020000,836020000,-0.006556504,-0.0013899673,-0.0036506807
836036000,836036000,-0.0008303961,0.00056656497,0.0016443548
836040000,836040000,0.0059175584,-0.00016870699,0.0023819262
836056000,836056000,0.0054126442,-0.001365931,0.000309275
836064000,836064000,0.0077192,0.0036172224,0.0047144257
836076000,836076000,0.005864622,0.0017076719,-0.0010494898
836084000,836084000,-0.0058926474,0.0020566517,-0.0023401873
836096000,836096000,0.003911056,0.0021082403,-0.0025410966
836104000,836104000,-0.0036383525,0.0033509196,0.0073562833
836116000,836116000,-0.006747777,0.00077812106,-0.00045281503
836120000,836120000,-0.00890854,-0.0005331037,-0.0010208566
836132000,836132000,-0.0050425804,-0.0009968725,0.0011532388
836140000,836140000,-0.0049307477,-0.00075904955,0.00040246896
836156000,836156000,-0.0050451118,0.000113429036,0.0064830054
836164000,836164000,-0.0054736906,0.0068944227,0.0043509156
836176000,836176000,-0.0027169792,0.0032344605,0.002517674
836180000,836180000,-0.005372247,0.0031858266,0.0011751007
836196000,836196000,-0.0012255679,-0.0010630512,6.689143e-05
836204000,836204000,-0.009901608,-0.0022230644,0.0029481396
836216000,836216000,0.0020157262,-0.00012490759,-0.0063323593
836224000,836224000,0.009234951,7.539615e-05,0.0005285598
836236000,836236000,0.0045439294,0.0035965191,0.0027737059
836240000,836240000,0.010677807,0.0053892927,0.0023017405
836256000,836256000,0.009017566,-0.0045260563,-0.0013689158
836264000,836264000,0.004516078,-0.0049543045,-0.00086509483
836276000,836276000,-0.022752754,0.0015171356,0.006694534
836284000,836284000,0.022128906,0.0008312798,0.0018576535
836296000,836296000,-0.013005131,-0.002491847,0.0016242207
836304000,836304000,0.006172804,-0.003978594,0.00091238227
836316000,836316000,0.020029135,0.0024210792,0.0075680204
836324000,836324000,-0.021621577,0.0029752655,0.0064648697
836336000,836336000,0.024705064,0.0052757505,-0.0017652423
836344000,836344000,-0.02466153,0.0017506003,0.0005837772
836356000,836356000,0.018338293,0.0014225703,0.000873002
836364000,836364000,-0.008217108,-0.0007445961,0.008123048
836376000,836376000,0.022910949,-0.0004189089,0.0013865435
836384000,836384000,-0.0076438673,0.0020676847,-0.0013368683
836396000,836396000,0.016108163,0.00032406044,0.0017808785
836404000,836404000,-0.000664391,0.0045334245,-0.00063976366
836416000,836416000,0.0146584865,-0.0004570305,0.0053479588
836424000,836424000,-0.024870131,-0.0030102187,0.011793595
836436000,836436000,0.035235137,0.003902847,-0.002117842
836444000,836444000,-0.021447163,-0.0035121504,0.0036737092
836456000,836456000,0.010699876,0.002651653,0.004752404
836464000,836464000,-0.01675966,-0.00044892216,-0.004048625
836476000,836476000,0.02608925,-0.0037481438,0.0023941752
836484000,836484000,0.0129346,-0.00028581475,-0.010593209
836492000,836492000,-0.022409197,0.0037254253,-0.002163953
836500000,836500000,0.025795551,-0.00043575396,0.010851682
836516000,836516000,-0.029157266,0.005153906,0.000486754
836524000,836524000,0.0438466,0.0075384267,0.0034615635
836536000,836536000,-0.032695208,0.0039299037,-0.0027889174
836544000,836544000,-0.008781034,0.0074959304,-0.006930629
836556000,836556000,0.0032564201,-0.0002334693,0.024089819
836564000,836564000,-0.014734391,0.0005733414,0.0155312475
836576000,836576000,0.0220292,0.0030640648,-0.004650295
836584000,836584000,-0.0030740523,0.0029049679,0.024275664
836596000,836596000,-0.0017029893,-0.00068332115,-0.014713002
836604000,836604000,0.001218096,-0.0022821075,-0.015048292
836616000,836616000,-0.015839312,0.0016853155,0.03043688
836624000,836624000,-0.017421288,-0.0023770148,0.008073178
836636000,836636000,0.009872669,-0.0024378228,-0.013776034
836640000,836640000,0.022203209,-0.0019984662,-0.009803397
836656000,836656000,-0.040887356,-0.0044822106,0.00940073
836664000,836664000,0.00055684894,-0.0012970902,-0.005822855
836676000,836676000,0.0024298492,0.0007988007,-0.005944285
836684000,836684000,-0.0033189044,2.2866763e-05,0.008979292
836696000,836696000,0.0044251457,0.0019079392,-0.0035158
836704000,836704000,-0.010830904,0.0037119421,-0.0047751623
836716000,836716000,0.04247086,0.01140553,0.017799718
836724000,836724000,0.009080803,0.009348495,-0.008095014
836736000,836736000,-0.0124087455,0.00070941995,-0.0046137567
836744000,836744000,-0.042329844,-0.0064200424,0.0015559628
836756000,836756000,0.014696786,-0.0030997575,-0.008192266
836764000,836764000,0.012752275,-0.005327708,-0.004077688
836772000,836772000,0.0055234064,0.0022910025,-0.009551353
836784000,836784000,-0.014052503,0.00028754375,0.0009780423
836796000,836796000,-0.012423661,-0.012432894,-0.0029406012
836804000,836804000,0.015433346,-0.0018615711,-0.010242908
836816000,836816000,0.0045703803,-0.0013457842,-0.0017880476
836824000,836824000,0.0021939422,-0.004215601,-0.0012071531
836836000,836836000,0.00019635729,-0.004435406,-0.0022324082
836844000,836844000,0.019148968,-0.00023265649,0.0027441084
836856000,836856000,0.007268848,0.0056482423,0.012472347
836860000,836860000,-0.01734606,0.0036351546,0.006539813
836872000,836872000,-0.008343403,-0.0023632862,-0.0055810846
836884000,836884000,0.0004556318,-0.003367109,-0.0032851081
836892000,836892000,0.00033964528,0.002405213,-0.0020703499
836904000,836904000,0.0013418362,-0.0030339037,-0.004307372
836916000,836916000,0.0002109163,-8.208328e-05,0.00034578703
836924000,836924000,-0.0034625167,-0.0002960572,-0.0035328846
836936000,836936000,0.0045550163,-0.0020979557,-0.0013174014
836944000,836944000,0.0019968615,-0.0029253534,-0.001436767
836956000,836956000,-0.000813,-0.003370607,-0.002993619
836964000,836964000,0.0019429745,-0.0036564718,-0.0053069317
836976000,836976000,0.0018252693,0.00013238844,0.00085754145
836984000,836984000,0.003453576,0.0011692321,-0.00020985928
836996000,836996000,-0.08899239,0.0030241907,0.023374066
837004000,837004000,-0.13405804,0.0026572328,0.047524385
837016000,837016000,-0.10517589,0.0009016013,0.02937734
837024000,837024000,-0.092348635,-0.00044705113,0.02239029
837036000,837036000,-0.100819275,-0.0006172387,0.015530685
837040000,837040000,-0.10303144,-0.0007662163,0.014862629
837056000,837056000,-0.12304475,-0.00017326022,0.011276924
837060000,837060000,-0.13081071,-0.0036271985,0.00673823
837072000,837072000,-0.16079015,-0.0008007183,0.013454861
837084000,837084000,0.2418421,0.028317675,0.023084069
837092000,837092000,0.3382258,0.057211664,0.027146649
837100000,837100000,0.276865,0.06681315,0.023723982
837116000,837116000,0.1839058,0.062796466,0.022102239
837124000,837124000,0.07587881,0.05072209,0.02020279
837136000,837136000,-0.07209168,0.038136132,0.018587235
837144000,837144000,-0.14589001,0.024002243,0.022010215
837156000,837156000,-0.22253498,0.011187816,0.018495364
837164000,837164000,-0.2435805,0.0020267672,0.013531409
837176000,837176000,-0.2181648,0.0032440198,0.0029743942
837184000,837184000,-0.18715735,-0.0001217511,0.0036229063
837196000,837196000,-0.1250575,0.0068007912,-0.0023577912
837204000,837204000,-0.07489846,0.010107977,-0.0066700424
837216000,837216000,-0.016481576,0.01576809,-0.013489467
837224000,837224000,0.008555864,0.014108038,-0.014538884
837236000,837236000,0.024451997,0.011682318,-0.011698034
837244000,837244000,0.022224447,0.009785604,-0.0074827042
837256000,837256000,-0.047530748,0.018564204,-0.008398985
837264000,837264000,0.13880025,0.017370112,-0.021359717
837276000,837276000,-0.056712497,0.0051461905,-0.0055231955
837284000,837284000,-0.045676038,0.004019608,-0.005931384
837296000,837296000,-0.06779221,0.0049545965,-0.0016052523
837304000,837304000,-0.062074855,0.0012526226,0.0006305006
837316000,837316000,-0.042601418,-0.0021356365,0.0021492378
837324000,837324000,-0.033683006,0.005854491,0.0033715554
837336000,837336000,-0.0049988152,0.003955189,0.0006059052
837344000,837344000,0.010292539,0.0033746262,0.0024447367
837356000,837356000,0.025387203,0.0016322554,-0.0044311536
837364000,837364000,0.04408182,-0.0013023559,-0.0011088128
837376000,837376000,0.049207892,0.006642038,-0.0029865624
837384000,837384000,0.049098063,0.0027962183,-0.0036946717
837396000,837396000,0.04092727,-0.001197143,-0.009346506
837400000,837400000,0.038832214,0.0003093991,-0.00961084
837416000,837416000,0.030464716,0.0020116544,0.00081708375
837424000,837424000,-0.03480961,0.0035832117,0.0051036626
837436000,837436000,0.16398625,0.0059752557,-0.008461618
837440000,837440000,0.17960389,0.007696376,-0.009922837
837456000,837456000,0.0064737364,-0.002515584,0.0011418696
837464000,837464000,0.020830473,-0.0053444626,-0.0020597607
837476000,837476000,0.005349945,-0.0037718785,0.0010701619
837484000,837484000,0.009080785,9.357231e-05,0.0010565695
837496000,837496000,0.014722346,-0.0016392234,0.002444408
837504000,837504000,0.023676956,-0.0021551189,0.0033935905
837516000,837516000,0.03027755,-0.006010155,-0.0037119072
837524000,837524000,0.034917343,-0.0010016097,-9.3621085e-05
837536000,837536000,0.04264126,-0.002190062,0.0012066682
837540000,837540000,0.043732848,-0.0033675188,-2.8571812e-06
837556000,837556000,0.040044826,-0.0051447544,-0.0019190938
837564000,837564000,0.036855653,-0.0040999074,-0.0063029854
837576000,837576000,0.034338895,-0.0016948625,0.0015530536
837584000,837584000,0.028754909,-0.0032337157,-0.0007377146
837596000,837596000,0.03054767,-0.0016046029,-0.0004745967
837604000,837604000,-0.120148644,0.0018913723,0.0073814034
837616000,837616000,0.16468455,-0.004951154,-0.014599979
837624000,837624000,0.0057858224,-0.008030268,-0.0020990311
837636000,837636000,0.013649555,-0.00010929839,-0.0022299723
837644000,837644000,0.00422506,-0.0057686465,0.003916425
837652000,837652000,0.00672154,-0.0072876085,0.007184749
837660000,837660000,0.011975889,-0.0018671413,0.0016606835
837676000,837676000,0.013243185,0.003407205,-0.0005196566
837684000,837684000,0.017295714,0.008934751,0.0035218326
837696000,837696000,0.01896979,-0.0025069087,0.002272156
837704000,837704000,0.01983749,-0.0032146669,0.0052968776
837716000,837716000,0.019977858,-0.011153917,0.0008986072
837724000,837724000,0.017935857,-0.009518033,-0.00145404
837736000,837736000,0.012559825,-0.013596032,-0.002805059
837744000,837744000,0.0063052573,-0.008869301,-0.000675276
837756000,837756000,0.006985087,-0.007741851,-0.0033571953
837764000,837764000,0.009080559,-0.0076315636,-0.0035326732
837776000,837776000,-0.050935335,1.6955659e-05,-0.0057467828
837784000,837784000,-0.031688694,0.0037585786,-0.0035872366
837796000,837796000,0.06835099,0.0014237595,-0.0006842148
837804000,837804000,-0.012043591,-0.003509498,-0.00084496173
837816000,837816000,0.012391096,0.0012084777,0.0034361905
837824000,837824000,-0.004236109,0.0048879804,0.00074286177
837836000,837836000,-0.0034250678,0.0012254958,-0.0020171308
837844000,837844000,-0.00027093856,0.0018142189,-0.0007651991
837856000,837856000,-0.003952052,-8.424255e-05,0.0021883743
837864000,837864000,-0.0031070071,-0.00040301378,0.0052281646
837876000,837876000,-0.0017386184,-0.0007646959,0.00042807637
837884000,837884000,0.0039253593,-0.0047938805,9.486114e-05
837896000,837896000,0.0053919028,-0.006540306,-0.0009584922
837904000,837904000,0.004950934,-0.0061129257,-0.0063603153
837912000,837912000,0.00779375,-0.0065298863,-0.004619925
837920000,837920000,0.003766363,-0.012186796,-0.0046180375
837932000,837932000,0.0007887791,-0.008746345,-0.0005302388
837944000,837944000,0.011815263,-0.012578885,0.002538891
837956000,837956000,-0.13285887,-0.016728481,0.009626849
837964000,837964000,0.1457425,-0.00818421,-0.0107985055
837976000,837976000,-0.0017711039,-0.013575392,-0.0003362082
837980000,837980000,-0.019896025,-0.010646587,-0.0005008928
837996000,837996000,-0.0025609275,-0.013747286,0.0012926982
838004000,838004000,-0.011039679,-0.008277025,0.006294888
838016000,838016000,-0.009473074,-0.0071520414,0.00097145454
838024000,838024000,-0.014873387,-0.008302729,-0.0013006061
838036000,838036000,-0.010311414,-0.002713044,0.0017657414
838044000,838044000,-0.013274017,-0.0010689602,0.0008169074
838056000,838056000,-0.007941263,-7.912074e-05,-8.171238e-05
838064000,838064000,-0.0057531814,0.008950548,-0.0028624483
838076000,838076000,0.0018938632,0.015284645,0.00035468733
838084000,838084000,0.0059436443,0.018636683,-0.00020748453
838096000,838096000,0.012161477,0.018274477,-0.0029656966
838104000,838104000,0.009695071,0.018460955,-0.0036178147
838116000,838116000,0.022720946,0.01968607,-0.0057848133
838124000,838124000,0.02472184,0.018643994,-0.0037069083
838132000,838132000,-0.11143543,0.017003676,0.01103896
838144000,838144000,0.18670312,0.010508559,-0.015420788
838152000,838152000,0.015856564,0.008337049,-0.0024128444
838164000,838164000,0.020668719,0.009025749,-0.0005239833
838176000,838176000,0.013152171,0.005598881,-0.0015645343
838184000,838184000,0.006105714,0.0059834803,0.00047864078
838196000,838196000,0.005093925,0.016587663,0.0040884153
838204000,838204000,-0.0003188638,0.022012513,0.002808711
838212000,838212000,0.005803484,0.027453573,-0.0006392929
838224000,838224000,0.007935403,0.026897637,0.0061789406
838236000,838236000,0.009129792,0.035146978,0.0010217434
838244000,838244000,0.014310869,0.02882439,-0.0017749225
838256000,838256000,0.014810513,0.025072377,-0.004035634
838264000,838264000,0.016661908,0.024732977,-0.0013108826
838276000,838276000,0.02015991,0.019100027,-0.0018773319
838284000,838284000,0.021403898,0.016946595,0.0005824703
838296000,838296000,0.010940036,0.01204945,-0.0030211264
838304000,838304000,-0.048892953,0.01063765,0.0055955458
838316000,838316000,0.15014544,0.009438925,-0.008775304
838324000,838324000,0.0637997,0.0027761133,-0.0017396817
838336000,838336000,-0.004376118,0.0024511009,-0.001496689
838344000,838344000,0.0029886472,0.0039444994,0.0013220272
838356000,838356000,-0.01076918,0.009762341,0.006090225
838364000,838364000,-0.012630059,0.0041624545,0.0017239357
838376000,838376000,-0.011048406,0.015149676,-0.0026968312
838384000,838384000,-0.014832085,0.013482881,-0.0061537544
838396000,838396000,-0.010200467,0.018039346,-0.0024848422
838404000,838404000,-0.011798446,0.017744692,-0.0014787819
838416000,838416000,-0.007252313,0.013282208,-0.0037230388
838424000,838424000,-0.006136315,0.015001148,-0.0021991215
838436000,838436000,-0.007842213,0.0076130405,0.0011202091
838444000,838444000,-0.0055829203,0.009988889,-0.0006608641
838456000,838456000,-0.003699352,0.005769801,-0.0011857167
838464000,838464000,-0.006880049,0.002745191,-0.0041474826
838476000,838476000,-0.004420757,-0.0019186686,-0.0056157517
838484000,838484000,-0.14025389,0.001835101,0.010997977
838496000,838496000,0.14624952,0.00149238,-0.01041383
838504000,838504000,-0.023562703,-0.0056187715,0.0022326787
838516000,838516000,-0.008024203,-0.0034613486,-0.0020585195
838524000,838524000,-0.00968312,-0.00085880747,0.0018233937
838536000,838536000,-0.010572525,0.0048856875,-0.00030783372
838544000,838544000,-0.011220007,0.0034046983,-0.0006738298
838556000,838556000,-0.006193803,0.0057509216,0.002731272
838564000,838564000,-0.0023215231,0.0056523755,0.0053648856
838576000,838576000,-0.0040932857,0.0086479215,-0.00036882673
838580000,838580000,-0.0015729793,0.008827247,-0.000296215
838596000,838596000,0.008668519,0.014290679,-0.00097043277
838604000,838604000,0.015481462,0.0102268765,-0.002086924
838616000,838616000,0.012890964,0.0023162675,0.00049638015
838624000,838624000,0.012936929,0.00558341,-0.0064251893
838636000,838636000,0.0174588,0.004537681,-0.02405324
838640000,838640000,0.01714661,0.0025964018,-0.023475915
838656000,838656000,-0.04348031,-0.0026793492,-0.030412612
838664000,838664000,-0.039272685,-0.006525576,-0.029696947
838676000,838676000,0.054342974,-0.01089662,-0.03570557
838684000,838684000,-0.026137032,-0.009498953,-0.02726368
838696000,838696000,0.0009661921,-0.011757588,-0.018095825
838704000,838704000,-0.0076269507,-0.0019259525,-0.016736425
838716000,838716000,-0.010564592,-0.0030434488,-0.014453841
838724000,838724000,-0.015026059,-0.0017464708,-0.0017557503
838732000,838732000,-0.013069728,-0.0019005386,0.00034814526
838744000,838744000,-0.005811362,-0.0017373727,0.00026650506
838752000,838752000,-0.008333582,-0.0002531088,-0.0018518455
838764000,838764000,0.00017101053,0.004726711,0.0073173135
838776000,838776000,-0.0060593653,0.0003855409,0.010485357
838784000,838784000,-0.0030205578,-0.006932863,0.0054069255
838792000,838792000,0.00017280583,-0.00795364,0.0060392376
838804000,838804000,0.0026379763,-0.0035638001,0.0029194579
838816000,838816000,0.004437425,-0.0014769027,0.001513647
838824000,838824000,0.008755608,0.0002657806,0.0057434523
838836000,838836000,-0.12956627,-0.0011569532,0.013356858
838844000,838844000,0.14128067,0.0055717444,-0.004994139
838856000,838856000,-0.014994875,0.011164854,0.002612284
838864000,838864000,-0.008396663,0.0058618607,0.0015994228
838876000,838876000,-0.0024438337,0.015532328,0.0012046561
838884000,838884000,-0.017989304,0.011657934,0.006054751
838896000,838896000,-0.013361921,0.020245146,0.004318879
838904000,838904000,-0.012567335,0.01774776,0.0037167026
838916000,838916000,-0.0020226242,0.011154985,0.0033123665
838924000,838924000,-0.002738883,0.006609914,0.0018247879
838932000,838932000,-0.002653137,0.003980634,-0.0005005164
838944000,838944000,-0.0005426293,-0.0006378265,0.0015743406
838956000,838956000,0.00026948386,-0.003309198,0.0014956597
838964000,838964000,-0.0023476349,-0.0057858545,-0.0009222468
838972000,838972000,-0.0022673674,-0.009243795,-0.0015390492
838980000,838980000,-0.0020075985,-0.009172096,-0.007290999
838996000,838996000,0.0025309152,-0.013163693,-0.00017258385
839004000,839004000,0.00073660654,-0.009587097,-0.0011477931
839016000,839016000,-0.049543608,-0.005256611,0.0038269078
839020000,839020000,0.13261771,-0.0032672586,-0.010226054
839036000,839036000,-0.02122416,-0.0013455155,0.008530198
839044000,839044000,0.0037574582,-0.0030164307,-6.753311e-05
839056000,839056000,-0.01650245,-0.0025297387,-7.5784046e-05
839064000,839064000,-0.008981242,-0.00090551795,0.0016258786
839072000,839072000,-0.01292664,-0.002964237,0.000836016
839084000,839084000,-0.008426395,-0.0022747403,-0.0018921678
839096000,839096000,-0.0034731405,0.0022625267,0.0055582207
839104000,839104000,-0.0019274395,0.0028150543,0.004372672
839116000,839116000,-0.0013187508,0.0028457856,0.003465205
839124000,839124000,-0.0031270965,0.0021522837,-2.7106493e-05
839136000,839136000,-0.003221413,0.010331803,0.0020515788
839144000,839144000,-0.008205762,0.010919095,-0.0006719214
839156000,839156000,-0.0047937394,0.012943131,-0.0048128385
839164000,839164000,-0.014520436,0.009344822,0.002729782
839176000,839176000,-0.0067720087,0.006024489,-0.0005003452
839184000,839184000,-0.059250444,0.0050819297,0.005840868
839196000,839196000,0.136519,0.012297675,-0.0075169783
839204000,839204000,0.04974731,0.009198406,-0.004481341
839216000,839216000,-0.0054687154,0.007919018,0.004968933
839224000,839224000,0.0076203276,0.009479564,0.0019490427
839232000,839232000,-0.0022863224,0.0021801658,0.0013827007
839244000,839244000,-0.005488343,0.008795368,0.0007000711
839256000,839256000,-0.0022343497,0.014596223,-0.0047109434
839264000,839264000,-0.0038226556,0.011958306,0.005004914
839276000,839276000,0.0017386463,0.0078890845,0.0012432438
839284000,839284000,0.0015252322,0.008276655,-0.0035389112
