timestamp,timestamp_sample,lat,lon,alt,alt_ellipsoid,delta_alt,eph,epv,terrain_alt,lat_lon_reset_counter,alt_reset_counter,terrain_alt_valid,dead_reckoning
830204000,830204000,41.60669997457722,-86.35561553265367,229.27875,229.26912,-0.0,1.0015682,1.0018,229.17899,2,0,1,0
831196000,831196000,41.60669998155535,-86.3556155338681,229.2798,229.2701,-0.0,1.0015616,1.0017926,229.17967,2,0,1,0
832196000,832196000,41.606699975880595,-86.35561552433482,229.28033,229.27023,-0.0,1.0015556,1.001786,229.17978,2,0,1,0
833204000,833204000,41.606699970286236,-86.35561551079553,229.28009,229.27003,-0.0,1.0015497,1.0017791,229.17946,2,0,1,0
834196000,834196000,41.60669998465472,-86.35561550710352,229.27948,229.2696,-0.0,1.0015477,1.001773,229.17914,2,0,1,0
835196000,835196000,41.606699984500345,-86.35561551617081,229.27861,229.26881,-0.0,1.001541,1.0017656,229.17883,2,0,1,0
836204000,836204000,41.60669998047283,-86.35561552004205,229.27792,229.2678,-0.0,1.0015326,1.0017587,229.17812,2,0,1,0
837204000,837204000,41.6066999904265,-86.35561560171365,229.29744,229.28735,-0.0,1.0021474,1.0021123,229.17812,2,0,1,0
838204000,838204000,41.60669986460106,-86.35561579878392,230.3721,230.35164,-0.0,1.0068139,1.0049052,229.17812,2,0,1,0
839196000,839196000,41.60669986786874,-86.35561589445793,231.18979,231.16223,-0.0,1.0188768,1.0131297,229.17812,2,0,1,0
840204000,840204000,41.60669978706002,-86.35561582052017,231.4988,231.46902,-0.0,1.0310984,1.0259099,229.17812,2,0,1,0
841204000,841204000,41.6066994965117,-86.35561536619187,231.50696,231.4788,-0.0,1.0446469,1.0414306,nan,2,0,0,0
842196000,842196000,41.606699769658015,-86.35560699576989,231.95332,231.91849,-0.0,1.060865,1.0585035,nan,2,0,0,0
843204000,843204000,41.606700733761784,-86.35558345946853,232.64313,232.59914,-0.0,1.0673077,1.0698735,nan,2,0,0,0
844196000,844196000,41.606700915276676,-86.35555392150533,233.30629,233.25395,-0.0,1.0710648,1.0772899,nan,2,0,0,0
845196000,845196000,41.606700161763285,-86.35552335968723,233.94946,233.88454,-0.0,1.0712022,1.0816361,nan,2,0,0,0
846204000,846204000,41.6066991648945,-86.35549255777906,234.61661,234.53676,-0.0,1.0714469,1.0843626,nan,2,0,0,0
847204000,847204000,41.60669852431134,-86.35546257172685,235.31816,235.22183,-0.0,1.0797615,1.088408,nan,2,0,0,0
848204000,848204000,41.606698279983014,-86.35543270207508,236.00627,235.89215,-0.0,1.0691262,1.0858161,nan,2,0,0,0
849204000,849204000,41.60669822406438,-86.3554026784338,236.741,236.6158,-0.0,1.0687437,1.0858957,nan,2,0,0,0
850196000,850196000,41.60669824409343,-86.35537294610423,237.48212,237.34802,-0.0,1.0747918,1.0877409,nan,2,0,0,0
851196000,851196000,41.60669816484649,-86.35534727651941,237.78722,237.6486,-0.0,1.0734141,1.0872159,nan,2,0,0,0
852196000,852196000,41.60669724015159,-86.35534569483364,237.21133,237.0761,-0.0,1.0825888,1.0893928,nan,2,0,0,0
853204000,853204000,41.606695468716424,-86.35535894919434,236.59363,236.46547,-0.0,1.0710864,1.0863522,nan,2,0,0,0
854204000,854204000,41.60669660598198,-86.35536799170838,235.96088,235.83777,-0.0,1.0705928,1.0860136,nan,2,0,0,0
855196000,855196000,41.60669836140118,-86.3553711858443,235.24002,235.12614,-0.0,1.0769621,1.0878248,nan,2,0,0,0
856204000,856204000,41.60669908337805,-86.35535985285908,236.12343,236.00757,-0.0,1.0758528,1.0875051,nan,2,0,0,0
857204000,857204000,41.60670164622348,-86.35529139095314,239.65155,239.5155,-0.0,1.075958,1.0862937,nan,2,0,0,0
858204000,858204000,41.60670151940259,-86.355234302875,241.3433,241.2105,-0.0,1.0738145,1.084691,nan,2,0,0,0
859204000,859204000,41.6066986012942,-86.35521063770035,241.61023,241.49402,-0.0,1.0725288,1.0842763,nan,2,0,0,0
860196000,860196000,41.60669766575175,-86.35521332015695,241.51315,241.41817,-0.0,1.0803335,1.0841303,nan,2,0,0,0
861204000,861204000,41.60669766792353,-86.3552177253594,241.53232,241.46426,-0.0,1.0695368,1.0813527,nan,2,0,0,0
862204000,862204000,41.6066987369962,-86.355218087196,241.58861,241.54626,-0.0,1.0691276,1.0803627,nan,2,0,0,0
863196000,863196000,41.606699459524336,-86.35521729592256,241.64069,241.62167,-0.0,1.0754884,1.0812773,nan,2,0,0,0
864196000,864196000,41.60669967772311,-86.35521670389173,241.69093,241.70126,-0.0,1.0740547,1.0814748,nan,2,0,0,0
865204000,865204000,41.60669977040596,-86.35521657349648,241.70546,241.73799,-0.0,1.0836742,1.0846034,nan,2,0,0,0
866204000,866204000,41.606699902176636,-86.35521643690701,241.7319,241.79999,-0.0,1.0714207,1.0830246,nan,2,0,0,0
867196000,867196000,41.606699961863,-86.35521625273905,241.73438,241.81909,-0.0,1.0706111,1.0835285,nan,2,0,0,0
868204000,868204000,41.60669990807807,-86.35521625241822,241.70563,241.80373,-0.0,1.077555,1.0854996,nan,2,0,0,0
869196000,869196000,41.606699851388136,-86.35521618846,241.67741,241.78395,-0.0,1.0755502,1.0856726,nan,2,0,0,0
870204000,870204000,41.60669975392975,-86.35521632413163,241.64288,241.75229,-0.0,1.0753592,1.0873927,nan,2,0,0,0
871196000,871196000,41.60669973700255,-86.3552167440834,241.61551,241.72392,-0.0,1.0730585,1.0868707,nan,2,0,0,0
872204000,872204000,41.606699580227755,-86.35521692517788,241.59328,241.69795,-0.0,1.0721505,1.0868067,nan,2,0,0,0
873204000,873204000,41.60669952602506,-86.3552168682395,241.58276,241.6805,-0.0,1.079906,1.0890154,nan,2,0,0,0
874196000,874196000,41.606699381143805,-86.35521679253618,241.57196,241.66129,-0.0,1.077624,1.0893403,nan,2,0,0,0
875204000,875204000,41.60669923334862,-86.35521663231953,241.56229,241.63968,-0.0,1.0687991,1.086415,nan,2,0,0,0
876196000,876196000,41.606704893771244,-86.35521511714695,241.65591,241.72429,-0.0,1.0749527,1.0879097,nan,2,0,0,0
877204000,877204000,41.60672259094784,-86.3552131264793,241.75598,241.81386,-0.0,1.0738194,1.0873798,nan,2,0,0,0
878204000,878204000,41.60674477087701,-86.35521089811802,241.80597,241.85706,-0.0,1.0828077,1.0893584,nan,2,0,0,0
879204000,879204000,41.60676607082742,-86.35520857056507,241.76758,241.8075,-0.0,1.0710392,1.0859873,nan,2,0,0,0
880204000,880204000,41.60677666731326,-86.35520699961414,241.39406,241.42845,-0.0,1.0704832,1.0855675,nan,2,0,0,0
881196000,881196000,41.60677634679521,-86.35520642472255,240.45595,240.48842,-0.0,1.076722,1.0884582,nan,2,0,0,0
882204000,882204000,41.606772953330534,-86.35520634702033,239.6181,239.6465,-0.0,1.0753952,1.0880893,nan,2,0,0,0
883196000,883196000,41.60677051624987,-86.35520718441606,238.74016,238.76248,-0.0,1.0747353,1.087401,nan,2,0,0,0
884204000,884204000,41.606769893591085,-86.35520786447344,237.83977,237.85487,-0.0,1.07303,1.0870359,nan,2,0,0,0
885204000,885204000,41.60677015987367,-86.35520804584084,236.96443,236.97334,-0.0,1.0719411,1.0866101,nan,2,0,0,0
886204000,886204000,41.60677026846631,-86.35520805781522,236.14359,236.14734,-0.0,1.0796937,1.0887798,nan,2,0,0,0
887196000,887196000,41.606770268346445,-86.35520811778217,235.37782,235.37772,-0.0,1.0774808,1.0880002,nan,2,0,0,0
888204000,888204000,41.6067701340755,-86.3552081154889,234.64421,234.6403,-0.0,1.0687232,1.0853856,nan,2,0,0,0
889196000,889196000,41.60676993591724,-86.3552080507974,233.95436,233.94931,-0.0,1.0748241,1.0871233,nan,2,0,0,0
890196000,890196000,41.60676984942168,-86.35520788658853,233.2728,233.26735,-0.0,1.0734607,1.086834,nan,2,0,0,0
891204000,891204000,41.60676978087304,-86.35520783639474,232.57753,232.57156,-0.0,1.082701,1.0894855,nan,2,0,0,0
892196000,892196000,41.60676981984478,-86.35520774077774,231.87767,231.8733,-0.0,1.0707535,1.0871304,nan,2,0,0,0
893204000,893204000,41.60676991479131,-86.35520753467807,231.20053,231.1979,-0.0,1.07053,1.0869513,nan,2,0,0,0
894196000,894196000,41.606769923020956,-86.35520765084962,230.52055,230.521,-0.0,1.0769598,1.0887094,nan,2,0,0,0
895196000,895196000,41.606770023337496,-86.35520774999866,229.83583,229.83882,-0.0,1.0753223,1.088064,nan,2,0,0,0
896204000,896204000,41.60677026467416,-86.35520767759638,229.3101,229.31572,-0.0,1.0752499,1.0878338,nan,2,0,0,0
897204000,897204000,41.60677034430355,-86.35520766043626,229.29901,229.30121,-0.0,1.0732515,1.0865687,229.20247,2,0,1,0
898196000,898196000,41.60677038128134,-86.35520759886325,229.26663,229.26692,-0.0,1.0719299,1.0858191,229.17186,2,0,1,0
899196000,899196000,41.606770610837074,-86.35520724084955,229.43584,229.42549,-0.0,1.0412749,1.0443621,229.31429,2,0,1,0
