timestamp,timestamp_sample,states[0],states[1],states[2],states[3],states[4],states[5],states[6],states[7],states[8],states[9],states[10],states[11],states[12],states[13],states[14],states[15],states[16],states[17],states[18],states[19],states[20],states[21],states[22],states[23],covariances[0],covariances[1],covariances[2],covariances[3],covariances[4],covariances[5],covariances[6],covariances[7],covariances[8],covariances[9],covariances[10],covariances[11],covariances[12],covariances[13],covariances[14],covariances[15],covariances[16],covariances[17],covariances[18],covariances[19],covariances[20],covariances[21],covariances[22],covariances[23],n_states
830044000,829964000,0.85032207,0.010766395,0.0021279643,-0.5261484,0.0016610757,0.0001061018,0.0004234607,-0.44895473,-1.1155155,0.13034758,2.6342248e-06,-1.7445178e-05,9.284097e-06,0.00012816748,8.5680316e-05,-0.0010543605,0.19078018,-0.016706513,0.4908765,0.0032542006,-0.0009013086,-0.0007686833,0.0,0.0,2.266287e-05,6.051744e-06,6.0679504e-06,5.8173955e-05,0.0002070985,0.00020710436,0.0002180319,0.001569605,0.001569605,0.0036056985,8.922384e-12,8.922607e-12,2.3018162e-11,1.1573432e-07,1.15694945e-07,5.0000185e-08,0.0,0.0,0.0,0.0,0.0,0.0,0.0,0.0,24
831044000,830964000,0.8503647,0.010559483,0.0024795919,-0.52608204,0.00031637037,-0.0025959685,-0.0011393433,-0.44925457,-1.116112,0.13004065,2.7394674e-06,-1.7470287e-05,9.2294895e-06,0.00012817654,8.565025e-05,-0.0010313237,0.19078018,-0.016706513,0.4908765,0.0032542006,-0.0009013086,-0.0007686833,0.0,0.0,2.2652543e-05,6.02734e-06,6.0430702e-06,5.8149722e-05,0.00016120644,0.00016120658,0.00016811451,0.0015624922,0.0015624921,0.0035903498,8.90197e-12,8.901986e-12,2.3013747e-11,1.1573834e-07,1.1569891e-07,5.0000185e-08,0.0,0.0,0.0,0.0,0.0,0.0,0.0,0.0,24
832044000,831964000,0.8504459,0.01061804,0.0030896019,-0.5259463,0.0013428592,0.0012529019,0.0015307511,-0.44909215,-1.1161402,0.12999289,2.785643e-06,-1.7775506e-05,9.198052e-06,0.00012809866,8.5593216e-05,-0.0010426552,0.19078018,-0.016706513,0.4908765,0.0032542006,-0.0009013086,-0.0007686833,0.0,0.0,2.2712762e-05,6.0000684e-06,6.01598e-06,5.8343263e-05,0.00011677363,0.000116775656,0.000120636156,0.0015559589,0.0015559591,0.0035756906,8.881404e-12,8.881005e-12,2.3045177e-11,1.1574183e-07,1.1570289e-07,5.000004e-08,0.0,0.0,0.0,0.0,0.0,0.0,0.0,0.0,24
833044000,832964000,0.85056114,0.010654574,0.0030849376,-0.5257594,0.00037260348,0.001101139,-0.00038785537,-0.4489826,-1.116446,0.12960069,2.7326637e-06,-1.77911e-05,9.127979e-06,0.00012811006,8.560299e-05,-0.0010754145,0.19078018,-0.016706513,0.4908765,0.0032542006,-0.0009013086,-0.0007686833,0.0,0.0,2.2694452e-05,5.9724134e-06,5.9887425e-06,5.832897e-05,7.408703e-05,7.40876e-05,7.568965e-05,0.0015498659,0.0015498662,0.0035615566,8.860638e-12,8.860378e-12,2.3040923e-11,1.1574541e-07,1.1570663e-07,5.000011e-08,0.0,0.0,0.0,0.0,0.0,0.0,0.0,0.0,24
834044000,833964000,0.850615,0.010583294,0.0031714928,-0.5256731,-0.00046961696,-0.0008875189,0.0010266895,-0.44846183,-1.1163706,0.12992616,2.9101773e-06,-1.7525868e-05,9.050546e-06,0.00012818264,8.567538e-05,-0.0010962489,0.19078018,-0.016706513,0.4908765,0.0032542006,-0.0009013086,-0.0007686833,0.0,0.0,2.268571e-05,5.9473423e-06,5.9632557e-06,5.8303933e-05,3.2874123e-05,3.287408e-05,3.3202676e-05,0.0015464559,0.0015464565,0.0035477935,8.839858e-12,8.839746e-12,2.3037258e-11,1.1574944e-07,1.1571079e-07,5.000015e-08,0.0,0.0,0.0,0.0,0.0,0.0,0.0,0.0,24
835044000,834964000,0.8506817,0.010763732,0.003322413,-0.52556044,-0.0003505761,-0.0008900888,-0.0019624995,-0.4487592,-1.116095,0.12983418,3.0365309e-06,-1.7592123e-05,9.0095655e-06,0.00012823219,8.567714e-05,-0.0010945695,0.19078018,-0.016706513,0.4908765,0.0032542006,-0.0009013086,-0.0007686833,0.0,0.0,2.2669143e-05,6.049763e-06,6.0659836e-06,5.8290156e-05,0.0002165389,0.00021654581,0.00022832569,0.0015426659,0.0015426667,0.0035363103,8.926299e-12,8.92593e-12,2.3033336e-11,1.157537e-07,1.15715196e-07,5.000022e-08,0.0,0.0,0.0,0.0,0.0,0.0,0.0,0.0,24
836044000,835964000,0.85062605,0.010782382,0.0033577003,-0.5256499,-0.0011580128,-0.0013829821,-0.0013831406,-0.4486844,-1.1159697,0.13054271,3.2612886e-06,-1.771897e-05,8.951231e-06,0.00012832457,8.567441e-05,-0.0010955476,0.19078018,-0.016706513,0.4908765,0.0032542006,-0.0009013086,-0.0007686833,0.0,0.0,2.267108e-05,6.026557e-06,6.0428106e-06,5.824871e-05,0.00017043881,0.00017044359,0.00017798695,0.0015357734,0.0015357742,0.0035225286,8.906327e-12,8.905549e-12,2.3027658e-11,1.15757835e-07,1.15719445e-07,5.000074e-08,0.0,0.0,0.0,0.0,0.0,0.0,0.0,0.0,24
837044000,836964000,0.85092396,0.011109138,0.0033072846,-0.525161,0.005796852,-0.005844036,-0.002057836,-0.44570845,-1.1187217,0.12823974,3.2722123e-06,-1.7713975e-05,8.878698e-06,0.0001283467,8.565441e-05,-0.0010972222,0.19078018,-0.016706513,0.4908765,0.0032542006,-0.0009013086,-0.0007686833,0.0,0.0,2.2708215e-05,6.5111053e-06,6.5280283e-06,5.846874e-05,0.0013988372,0.0013989821,0.0016180358,0.001896622,0.0018966553,0.003934212,9.298623e-12,9.2979e-12,2.3059698e-11,1.1576245e-07,1.1572405e-07,5.000011e-08,0.0,0.0,0.0,0.0,0.0,0.0,0.0,0.0,24
838044000,837964000,0.8516561,0.010669056,0.005465494,-0.52396417,-0.011293264,-0.00623142,-1.5663581,-0.46233854,-1.1376448,-0.6122006,3.3318472e-06,-1.771684e-05,8.8190545e-06,0.00012869717,8.370853e-05,-0.0011065919,0.19078018,-0.016706513,0.4908765,0.0032542006,-0.0009013086,-0.0007686833,0.0,0.0,2.2599319e-05,7.000872e-06,7.0156343e-06,5.854043e-05,0.004227117,0.0042277044,0.0045481133,0.005494817,0.005495226,0.008297551,9.693025e-12,9.692389e-12,2.3054185e-11,1.15664285e-07,1.1562586e-07,5.0000146e-08,0.0,0.0,0.0,0.0,0.0,0.0,0.0,0.0,24
839044000,838964000,0.8572868,0.01327913,0.0076502687,-0.5146111,0.010030566,-0.0051341923,-0.59945756,-0.46967342,-1.147558,-1.6560833,3.406046e-06,-1.777592e-05,8.785614e-06,0.00012848896,8.31652e-05,-0.0010961142,0.19413194,-0.016731905,0.48900244,0.0032542006,-0.0009013086,-0.0007686833,0.0,0.0,0.0003727781,7.486411e-06,7.66238e-06,0.0010586806,0.006413486,0.0064143855,0.008327873,0.01630118,0.016302818,0.022694634,1.0026191e-11,1.0025531e-11,2.3307469e-11,1.1555229e-07,1.1551406e-07,5.0000075e-08,0.0,0.0,0.0,0.0,0.0,0.0,0.0,0.0,24
840044000,839964000,0.8554416,0.013871705,0.00678026,-0.51766926,0.008755915,7.737389e-05,-0.23537134,-0.47971073,-1.1439254,-2.0366292,3.4926034e-06,-1.7849565e-05,8.7926e-06,0.00013939774,9.3346025e-05,-0.0010982641,0.19413194,-0.016731905,0.48900244,0.0032542006,-0.0009013086,-0.0007686833,0.0,0.0,0.00019725632,7.354536e-06,7.4724576e-06,0.00056016725,0.0109791225,0.010978835,0.0113546,0.030346772,0.030349087,0.04855066,1.03208084e-11,1.032013e-11,2.38186e-11,1.1018631e-07,1.1015303e-07,5.0000146e-08,0.0,0.0,0.0,0.0,0.0,0.0,0.0,0.0,24
841044000,840964000,0.85574436,0.025716651,0.014515669,-0.51655555,-0.019509193,0.03813366,-0.03437268,-0.5059111,-1.1228111,-2.0672305,3.5342368e-06,-1.7928272e-05,8.799125e-06,0.00016344362,9.832452e-05,-0.0010919576,0.19413194,-0.016731905,0.48900244,0.0032542006,-0.0009013086,-0.0007686833,0.0,0.0,0.00013304003,6.362575e-06,6.596722e-06,0.00038193516,0.012396191,0.012393733,0.012345136,0.040456068,0.040457513,0.07690314,1.06814575e-11,1.0680795e-11,2.4328317e-11,9.587324e-08,9.585077e-08,5.000007e-08,0.0,0.0,0.0,0.0,0.0,0.0,0.0,0.0,24
842044000,841964000,0.84889644,0.12637803,0.0771498,-0.5073965,0.030518996,1.056342,-0.5988662,-0.4639795,-0.71330935,-2.3856363,3.512196e-06,-1.7890596e-05,8.800666e-06,0.0001362392,7.883855e-05,-0.0011116544,0.19413194,-0.016731905,0.48900244,0.0032542006,-0.0009013086,-0.0007686833,0.0,0.0,9.567378e-05,7.826733e-06,1.1234563e-05,0.00028116006,0.015392692,0.014520856,0.01360611,0.05621688,0.0562183,0.11167951,1.1137572e-11,1.11367625e-11,2.4835878e-11,8.839054e-08,8.838964e-08,5e-08,0.0,0.0,0.0,0.0,0.0,0.0,0.0,0.0,24
843044000,842964000,0.8408923,0.13880704,0.101909764,-0.5130762,-0.022428636,2.1973827,-0.7491956,-0.336557,1.0017245,-3.0466046,3.4153225e-06,-1.784895e-05,8.799482e-06,0.00011289843,2.8447921e-05,-0.0011345154,0.19373897,-0.016699024,0.48991117,0.0028928462,-0.0012288315,0.00013530883,0.0,0.0,8.043806e-05,8.098335e-06,9.9976905e-06,0.00023048709,0.014228358,0.012930896,0.01347372,0.062863186,0.06285994,0.13721502,1.1599456e-11,1.1596886e-11,2.5343975e-11,8.322828e-08,8.349354e-08,5.000018e-08,0.0013372968,2.472718e-05,0.0013463879,0.0007528627,0.0010948905,0.0012384187,0.0,0.0,24
844044000,843964000,0.84063053,0.1254046,0.10764496,-0.51577777,-0.13835825,2.4805913,-0.7590326,-0.3131433,3.424573,-3.7235172,3.2925002e-06,-1.7838556e-05,8.761424e-06,0.00011473271,-1.0249511e-05,-0.0011647099,0.1931939,-0.016658759,0.48998928,0.003540226,-0.0022233475,0.00037511069,0.0,0.0,7.771878e-05,8.069995e-06,8.54416e-06,0.00022261665,0.012056602,0.011879085,0.013163111,0.06744248,0.067414135,0.15299614,1.2063685e-11,1.20562085e-11,2.5849918e-11,8.0613454e-08,8.125714e-08,5.000001e-08,0.0012708576,2.391536e-05,0.0012786711,0.0005788877,0.0009868701,0.0011593904,0.0,0.0,24
845044000,844964000,0.8376019,0.123019345,0.10326363,-0.52213603,-0.11828881,2.5019164,-0.7353227,-0.40843287,5.9603796,-4.35457,3.1904572e-06,-1.7838982e-05,8.701274e-06,0.00012944113,-3.0141562e-05,-0.0012091096,0.19282751,-0.016628679,0.49035105,0.003769693,-0.0027850824,0.0006418987,0.0,0.0,7.918875e-05,7.841088e-06,8.550766e-06,0.00022015237,0.010421328,0.0104602985,0.012872999,0.06815441,0.068109825,0.16329457,1.2481666e-11,1.2464935e-11,2.6325957e-11,7.8808405e-08,7.9848235e-08,5e-08,0.0012582411,2.3542276e-05,0.0012654364,0.0005412075,0.0009697038,0.0011468987,0.0,0.0,24
846044000,845964000,0.83409953,0.12275252,0.10060044,-0.52828914,-0.084314264,2.5147188,-0.8071849,-0.5389188,8.493597,-5.0101423,3.2240698e-06,-1.7888653e-05,8.734914e-06,0.00015224186,-3.470683e-05,-0.0012598701,0.19288754,-0.016636508,0.49033487,0.004077811,-0.0028001952,0.0006237928,0.0,0.0,8.061738e-05,7.982808e-06,8.972851e-06,0.00021738169,0.009985609,0.009837173,0.012893614,0.0684401,0.06841022,0.17175096,1.2829903e-11,1.28026175e-11,2.6755043e-11,7.7528426e-08,7.906425e-08,5.000011e-08,0.0012497357,2.3189526e-05,0.001258657,0.0005177263,0.00096415705,0.0011412023,0.0,0.0,24
847044000,846964000,0.8296304,0.12356958,0.09783355,-0.535605,-0.012773829,2.4806533,-0.84633607,-0.61622816,10.98842,-5.716863,3.3587226e-06,-1.7897402e-05,8.821233e-06,0.00017014744,-3.685871e-05,-0.0013072788,0.19288754,-0.01663651,0.49033487,0.0040779375,-0.002800258,0.0006238315,0.0,0.0,6.921268e-05,8.021303e-06,9.137314e-06,0.00017976006,0.011310306,0.010950788,0.013667403,0.07660274,0.076595664,0.17832367,1.31423015e-11,1.3099819e-11,2.712477e-11,7.667339e-08,7.8571965e-08,5e-08,0.0,0.0,0.0,0.0,0.0,0.0,0.0,0.0,24
848044000,847964000,0.8241501,0.125468,0.09780896,-0.5435697,0.04030944,2.496303,-0.87939894,-0.64397573,13.474409,-6.4013066,3.5326145e-06,-1.7920032e-05,8.943098e-06,0.00019571428,-4.1885214e-05,-0.0013732847,0.19288754,-0.01663651,0.49033487,0.0040779375,-0.002800258,0.0006238315,0.0,0.0,6.0723854e-05,8.151575e-06,9.321717e-06,0.00015134663,0.010892749,0.010571414,0.013606802,0.07490113,0.07488536,0.17916013,1.3276732e-11,1.3198507e-11,2.7422526e-11,7.565826e-08,7.821743e-08,5e-08,0.0,0.0,0.0,0.0,0.0,0.0,0.0,0.0,24
849044000,848964000,0.8189813,0.12506314,0.09897953,-0.55120945,0.05294972,2.5096626,-0.8906076,-0.64372,15.970375,-7.147656,3.7642228e-06,-1.7934619e-05,9.097789e-06,0.00021476732,-4.6654015e-05,-0.0014272985,0.19288754,-0.01663651,0.49033487,0.0040779375,-0.002800258,0.0006238315,0.0,0.0,5.4530134e-05,8.369062e-06,9.438956e-06,0.00013070705,0.010984159,0.0107260505,0.013664421,0.074434124,0.07439509,0.17932427,1.3335401e-11,1.3207466e-11,2.7705017e-11,7.479626e-08,7.8006025e-08,5.0000036e-08,0.0,0.0,0.0,0.0,0.0,0.0,0.0,0.0,24
850044000,849964000,0.8151747,0.12001429,0.098131694,-0.55808324,0.030745953,2.480303,-0.8261968,-0.6387294,18.4694,-7.897625,3.984568e-06,-1.7976994e-05,9.2412565e-06,0.0002269759,-5.0931285e-05,-0.001468347,0.19288754,-0.01663651,0.49033487,0.0040779375,-0.002800258,0.0006238315,0.0,0.0,4.9753613e-05,8.3707555e-06,9.252232e-06,0.00011531147,0.010471445,0.0102821095,0.013552817,0.07233894,0.072298765,0.18104687,1.320803e-11,1.30046755e-11,2.7927851e-11,7.400544e-08,7.78254e-08,5.0000075e-08,0.0,0.0,0.0,0.0,0.0,0.0,0.0,0.0,24
851044000,850964000,0.82234156,0.0058157286,0.020420741,-0.5685979,0.029620828,1.8154624,-0.049280353,-0.64769644,20.835056,-8.41907,4.129319e-06,-1.8213597e-05,9.376483e-06,0.00023427285,-5.1891908e-05,-0.0014967469,0.19288754,-0.01663651,0.49033487,0.0040779375,-0.002800258,0.0006238315,0.0,0.0,4.645369e-05,7.086058e-06,7.0457527e-06,0.00010556413,0.010440264,0.00984195,0.013392929,0.07102774,0.07099127,0.1800044,1.30981155e-11,1.2803466e-11,2.814103e-11,7.3368646e-08,7.7670975e-08,5.0000143e-08,0.0,0.0,0.0,0.0,0.0,0.0,0.0,0.0,24
852044000,851964000,0.8160614,-0.10611771,-0.06972729,-0.563845,0.025557179,-0.5422632,0.6834243,-0.7438285,21.48302,-7.9776707,4.5357615e-06,-1.8721194e-05,9.877145e-06,0.00023635935,-4.4652523e-05,-0.0015111726,0.19375427,-0.016740879,0.48905402,0.005078242,-0.002974644,-0.000906869,0.0,0.0,4.1312873e-05,7.714813e-06,7.989653e-06,9.452056e-05,0.015240341,0.011373955,0.013973861,0.079921275,0.07929624,0.18189256,1.3239036e-11,1.28091825e-11,2.8378914e-11,7.287833e-08,7.736907e-08,5.0000036e-08,0.0005836269,1.7589597e-05,0.0006478955,0.00024249758,0.0005110348,0.00061942823,0.0,0.0,24
853044000,852964000,0.8257138,-0.0054272106,-0.041318137,-0.5625479,0.10952877,-1.0676911,0.6836284,-0.95952487,20.435005,-7.376854,5.5436076e-06,-1.8880824e-05,1.0804122e-05,0.00023731988,-4.1230287e-05,-0.0015111496,0.19466504,-0.016870124,0.48918438,0.006728075,-0.0035043354,-0.0017229917,0.0,0.0,3.5378864e-05,7.1683635e-06,7.549477e-06,8.527895e-05,0.0122914165,0.0113398405,0.01391926,0.07770026,0.07708016,0.18311618,1.3300933e-11,1.2509948e-11,2.8568883e-11,7.270377e-08,7.7228094e-08,5e-08,0.0005365473,1.6884698e-05,0.0006020148,0.00018538976,0.00046348185,0.0005819375,0.0,0.0,24
854044000,853964000,0.82832783,0.011331352,-0.02359025,-0.5596321,0.2572679,-0.57365483,0.74712896,-0.8461349,19.572186,-6.7669253,6.136437e-06,-1.8529592e-05,1.1035431e-05,0.00024807124,-4.9672733e-05,-0.0014579265,0.19499493,-0.016904125,0.4891234,0.0068483213,-0.0032741104,-0.0016073607,0.0,0.0,3.4333003e-05,6.8355484e-06,7.664455e-06,8.4551786e-05,0.009637212,0.009799218,0.013130272,0.06820423,0.0678471,0.17450708,1.3052512e-11,1.20121855e-11,2.8966687e-11,7.229378e-08,7.709222e-08,5.000007e-08,0.00052073103,1.6510363e-05,0.00056495576,0.00016395004,0.00044264103,0.00055449555,0.0,0.0,24
855044000,854964000,0.82745653,0.020330412,0.0040891287,-0.56114686,0.14474453,-0.121327,0.78360856,-0.61302507,19.205946,-6.038691,6.0597745e-06,-1.8220386e-05,1.1038071e-05,0.00026225226,-5.176957e-05,-0.0014160089,0.19484395,-0.016897382,0.48922023,0.0067157047,-0.0033299457,-0.0013435245,0.0,0.0,3.4269193e-05,7.1109866e-06,7.825312e-06,8.424822e-05,0.011151323,0.010837052,0.014097143,0.074478075,0.07432714,0.1786151,1.28076e-11,1.18377036e-11,2.945692e-11,7.181613e-08,7.69688e-08,5.0000036e-08,0.0005128246,1.6177408e-05,0.00053081126,0.00015129092,0.00043264776,0.00052528,0.0,0.0,24
856044000,855964000,0.76341194,0.28511307,0.20675522,-0.5414473,-0.055938885,2.224988,-3.417789,-0.4831185,19.290617,-5.8924594,5.7486186e-06,-1.7095019e-05,1.1139584e-05,0.00027138312,-5.189772e-05,-0.0013883115,0.19454174,-0.01688244,0.49011362,0.006594589,-0.0035108263,-0.0002994867,0.0,0.0,2.8135037e-05,1.1948516e-05,1.688701e-05,6.314256e-05,0.017880592,0.013232762,0.013504219,0.07279822,0.07273136,0.18036091,1.2085861e-11,1.1434925e-11,2.9869645e-11,7.149348e-08,7.688025e-08,5.0000146e-08,0.00038916976,1.5115672e-05,0.00039703096,0.00013558581,0.00034378594,0.00039054445,0.0,0.0,24
857044000,856964000,0.75875324,0.21770804,0.20280583,-0.57945377,-0.05454515,6.391342,-3.4995115,-0.18480895,24.345356,-9.445752,3.7967552e-06,-1.563625e-05,1.2181688e-05,0.000253405,-9.361936e-05,-0.001383316,0.19316396,-0.01690273,0.49120644,0.0073165786,-0.0057159304,0.0038802454,0.0,0.0,2.2713224e-05,7.3598876e-06,7.4736245e-06,4.596505e-05,0.019398393,0.0132991,0.011706392,0.072710305,0.072607055,0.17842472,1.1377017e-11,1.10347426e-11,3.011386e-11,7.097458e-08,7.6304204e-08,5.0000153e-08,0.00026518956,1.3722128e-05,0.00025234508,0.00010600706,0.00025036582,0.0002235522,0.0,0.0,24
858044000,857964000,0.80437815,0.027622707,0.061945554,-0.59023345,-0.22836244,3.6451857,-0.84143114,-0.23412485,29.858627,-11.785127,2.8882607e-06,-1.6404847e-05,1.2258039e-05,0.00029683785,-0.00014852465,-0.0013246834,0.19289476,-0.017048016,0.4906199,0.008666966,-0.0074414457,0.004888794,0.0,0.0,2.180643e-05,4.6267573e-06,4.708592e-06,4.8057205e-05,0.01198647,0.011562892,0.010351403,0.07126623,0.07084721,0.1754544,1.1374468e-11,1.098752e-11,3.0571337e-11,6.789148e-08,7.278013e-08,5.000004e-08,0.00024265025,1.3094966e-05,0.00022029129,8.5684485e-05,0.00022634226,0.00020132764,0.0,0.0,24
859044000,858964000,0.8079699,-0.036637712,-0.020856613,-0.58771354,-0.24963683,1.2425996,-0.09861647,-0.60143405,32.340527,-12.215551,3.082451e-06,-1.7038481e-05,1.2613667e-05,0.00035554002,-0.0001091949,-0.0012913123,0.19377086,-0.017308002,0.4900446,0.009778826,-0.008185096,0.004065905,0.0,0.0,2.0562584e-05,4.691855e-06,4.7087237e-06,4.628305e-05,0.013324713,0.011486097,0.010649053,0.06995659,0.06967743,0.17217207,1.1569804e-11,1.1147026e-11,3.0822206e-11,6.3596495e-08,6.766296e-08,5.0000036e-08,0.00023129542,1.2605992e-05,0.00019888768,7.2594754e-05,0.00021287006,0.00018844819,0.0,0.0,24
860044000,859964000,0.81013924,-0.019420648,-0.029967586,-0.5851489,0.100398116,-0.5518684,0.115070716,-0.76542866,32.42993,-12.130066,3.5081896e-06,-1.7298422e-05,1.3144587e-05,0.00036402114,-8.7965345e-05,-0.0012880369,0.19517437,-0.017678922,0.48999426,0.010548642,-0.009332795,0.0024279142,0.0,0.0,1.8955116e-05,4.6266728e-06,4.5307406e-06,4.3514545e-05,0.015028015,0.012552934,0.009907671,0.077461876,0.07724926,0.17481682,1.1862093e-11,1.1382694e-11,3.1003474e-11,6.305339e-08,6.699669e-08,5.000011e-08,0.00022277846,1.2094388e-05,0.00016571648,6.172419e-05,0.00020419384,0.00016177002,0.0,0.0,24
861044000,860964000,0.8066947,0.024139352,-0.007894657,-0.5904226,0.20714927,-0.23233624,0.05606793,-0.7567289,31.981737,-12.142512,4.023427e-06,-1.7388198e-05,1.3567776e-05,0.00036995494,-4.0615534e-05,-0.0012668783,0.19590409,-0.017809406,0.48962736,0.010923412,-0.009561225,0.0021053655,0.0,0.0,1.8788176e-05,4.264186e-06,4.4414483e-06,4.200503e-05,0.013065955,0.012563358,0.009937948,0.0755414,0.075324625,0.17156544,1.2057702e-11,1.1490052e-11,3.1294755e-11,6.0568496e-08,6.444267e-08,5e-08,0.00021795335,1.1803973e-05,0.00015921977,5.722242e-05,0.0001995833,0.00015650893,0.0,0.0,24
862044000,861964000,0.8051608,0.020902598,0.0010880462,-0.5926872,0.18864645,0.042668797,0.06783643,-0.6092355,31.904175,-12.191778,4.2721495e-06,-1.7435545e-05,1.3647892e-05,0.00037286768,-1.3507337e-05,-0.0012371995,0.19615273,-0.017840106,0.48952982,0.010970141,-0.009497175,0.0019942452,0.0,0.0,1.9504032e-05,4.259763e-06,4.4223075e-06,4.2815293e-05,0.012978921,0.012807524,0.0108791245,0.075027965,0.07485485,0.169211,1.2232542e-11,1.1623728e-11,3.1733102e-11,5.7274523e-08,6.099125e-08,5.0000054e-08,0.00021500267,1.15802095e-05,0.00015618539,5.4410542e-05,0.00019672087,0.00015399349,0.0,0.0,24
863044000,862964000,0.8040474,0.012179641,0.0033286233,-0.5944311,0.07993924,0.07166951,0.06279321,-0.5074563,31.972153,-12.255062,4.4145536e-06,-1.7487388e-05,1.3643987e-05,0.00037630837,2.4894866e-06,-0.001186526,0.19626455,-0.017851688,0.48941958,0.010914842,-0.00941393,0.0018773926,0.0,0.0,2.0316427e-05,4.3001633e-06,4.388979e-06,4.3877215e-05,0.012020573,0.011858866,0.011913259,0.0728884,0.07277533,0.16805123,1.23169756e-11,1.17147065e-11,3.2175356e-11,5.3820845e-08,5.7227943e-08,5.0000114e-08,0.0,0.0,0.0,0.0,0.0,0.0,0.0,0.0,24
864044000,863964000,0.80350405,0.009902701,0.0016886514,-0.5952145,0.033557683,0.037895262,0.10096257,-0.47441915,32.03295,-12.311704,4.477588e-06,-1.7532228e-05,1.3632131e-05,0.00037876712,9.357502e-06,-0.0011253617,0.19626455,-0.017851688,0.48941958,0.010914842,-0.00941393,0.0018773926,0.0,0.0,2.0470508e-05,4.5198844e-06,4.583882e-06,4.365958e-05,0.011325435,0.011164382,0.012814032,0.071511984,0.0714414,0.16805182,1.24270845e-11,1.1852248e-11,3.2493137e-11,5.1503022e-08,5.4657804e-08,5.000015e-08,0.0,0.0,0.0,0.0,0.0,0.0,0.0,0.0,24
865044000,864964000,0.80313087,0.010322632,0.0008475884,-0.59571266,0.012049238,0.008067482,0.14618483,-0.46186322,32.053146,-12.320197,4.4973785e-06,-1.7537071e-05,1.3629708e-05,0.00037838385,1.1931772e-05,-0.001074575,0.19626455,-0.017851688,0.48941958,0.010914842,-0.00941393,0.0018773926,0.0,0.0,2.0650683e-05,4.998725e-06,5.056768e-06,4.355668e-05,0.012806636,0.012599514,0.0143958535,0.08037847,0.08030423,0.17126252,1.2635247e-11,1.2088269e-11,3.27805e-11,5.0407607e-08,5.3432952e-08,5e-08,0.0,0.0,0.0,0.0,0.0,0.0,0.0,0.0,24
866044000,865964000,0.8028398,0.009671339,0.0011898022,-0.59611523,0.0020516415,-0.0012400338,0.14997983,-0.44746652,32.067577,-12.345048,4.448393e-06,-1.7557608e-05,1.3632909e-05,0.00037876843,1.1447365e-05,-0.0010081668,0.19626455,-0.017851688,0.48941958,0.010914842,-0.00941393,0.0018773926,0.0,0.0,2.08288e-05,5.2742284e-06,5.3118997e-06,4.3482512e-05,0.01180169,0.011628793,0.014687944,0.07789679,0.07784182,0.17523625,1.26436925e-11,1.2143621e-11,3.302773e-11,5.0000875e-08,5.24218e-08,5.0000224e-08,0.0,0.0,0.0,0.0,0.0,0.0,0.0,0.0,24
867044000,866964000,0.8027744,0.008343938,0.0024122058,-0.5962196,-0.0104777515,0.0011300712,0.14885308,-0.44275224,32.086906,-12.353884,4.4000076e-06,-1.7626868e-05,1.3601511e-05,0.00037966334,1.1328076e-05,-0.0009396374,0.19626455,-0.017851688,0.48941958,0.010914842,-0.00941393,0.0018773926,0.0,0.0,2.1023028e-05,5.4215084e-06,5.435849e-06,4.34914e-05,0.009849026,0.009738643,0.013753176,0.068267606,0.06824011,0.17188127,1.2508658e-11,1.20656376e-11,3.3237312e-11,5.000005e-08,5.1942532e-08,5.0000075e-08,0.0,0.0,0.0,0.0,0.0,0.0,0.0,0.0,24
868044000,867964000,0.8027922,0.008473534,0.0004716385,-0.59619856,-0.008716794,-0.014299282,0.12890282,-0.45119607,32.08832,-12.313765,4.3593e-06,-1.7642076e-05,1.3561003e-05,0.0003795064,1.1449483e-05,-0.00090207905,0.19626455,-0.017851688,0.48941958,0.010914842,-0.00941393,0.0018773926,0.0,0.0,2.1297006e-05,5.790201e-06,5.7983743e-06,4.3673077e-05,0.010814179,0.010715033,0.0145104565,0.074701555,0.074659735,0.1753968,1.251924e-11,1.2117267e-11,3.3423774e-11,5.0000075e-08,5.185928e-08,5.0000036e-08,0.0,0.0,0.0,0.0,0.0,0.0,0.0,0.0,24
869044000,868964000,0.80287397,0.006524726,0.00028589848,-0.5961131,-0.008666025,-0.015830953,0.108517155,-0.4615217,32.092,-12.27346,4.3698046e-06,-1.771901e-05,1.3504151e-05,0.00037956904,1.1808947e-05,-0.00087442144,0.19626455,-0.017851688,0.48941958,0.010914842,-0.00941393,0.0018773926,0.0,0.0,2.1662032e-05,5.948573e-06,5.9421072e-06,4.4055887e-05,0.010474345,0.010403417,0.014310097,0.073062,0.07302586,0.17634912,1.2367129e-11,1.2014322e-11,3.3600362e-11,5.000018e-08,5.1827136e-08,5.000011e-08,0.0,0.0,0.0,0.0,0.0,0.0,0.0,0.0,24
870044000,869964000,0.8029787,0.0067062066,-0.0017317116,-0.59596765,-4.4478787e-05,-0.013858943,0.08371732,-0.4745962,32.07613,-12.232743,4.440451e-06,-1.7722707e-05,1.3430687e-05,0.00037945778,1.1707138e-05,-0.0008611752,0.19626455,-0.017851688,0.48941958,0.010914842,-0.00941393,0.0018773926,0.0,0.0,2.207019e-05,6.0883162e-06,6.0757e-06,4.4525146e-05,0.01052641,0.010468684,0.014216588,0.072553925,0.072519824,0.17695351,1.2214648e-11,1.19073015e-11,3.3749233e-11,5.000018e-08,5.1785207e-08,5.0000036e-08,0.0,0.0,0.0,0.0,0.0,0.0,0.0,0.0,24
871044000,870964000,0.802947,0.007330987,0.00049992796,-0.59600526,0.008000699,-0.002339775,0.042723875,-0.47797263,32.03602,-12.198271,4.5572715e-06,-1.7567823e-05,1.336299e-05,0.0003810608,1.0658403e-05,-0.000860757,0.19626455,-0.017851688,0.48941958,0.010914842,-0.00941393,0.0018773926,0.0,0.0,2.2453e-05,6.0478733e-06,6.032191e-06,4.4912565e-05,0.010082924,0.01003523,0.013903963,0.070627205,0.07060109,0.17649937,1.1951273e-11,1.16927015e-11,3.3836683e-11,5.000007e-08,5.1669538e-08,5e-08,0.0,0.0,0.0,0.0,0.0,0.0,0.0,0.0,24
872044000,871964000,0.80284375,0.0075370832,0.00331238,-0.5961326,0.0070014307,0.0150361145,0.009997516,-0.50148153,32.019814,-12.176803,4.823142e-06,-1.7490676e-05,1.3295882e-05,0.00038215757,6.7704905e-06,-0.00086371135,0.19626455,-0.017851688,0.48941958,0.010914842,-0.00941393,0.0018773926,0.0,0.0,2.2868173e-05,6.0172024e-06,6.000646e-06,4.5347002e-05,0.009930432,0.009889105,0.013798024,0.06949456,0.06947237,0.17849687,1.1729383e-11,1.1513223e-11,3.3892087e-11,5.000011e-08,5.149598e-08,5.000011e-08,0.0,0.0,0.0,0.0,0.0,0.0,0.0,0.0,24
873044000,872964000,0.80286354,0.008450252,0.002610913,-0.59609735,0.0316082,0.030605905,-0.005439066,-0.50862986,32.024734,-12.16923,5.0270583e-06,-1.7423472e-05,1.322319e-05,0.00038329198,3.5404041e-06,-0.00087051885,0.19626455,-0.017851688,0.48941958,0.010914842,-0.00941393,0.0018773926,0.0,0.0,2.3294697e-05,6.1839737e-06,6.168733e-06,4.5839555e-05,0.011247082,0.011204098,0.014636957,0.076895714,0.07686269,0.18316631,1.1669946e-11,1.1483567e-11,3.391969e-11,5.0000136e-08,5.132672e-08,5.0000146e-08,0.0,0.0,0.0,0.0,0.0,0.0,0.0,0.0,24
874044000,873964000,0.8031069,0.005769612,0.004609983,-0.5957892,0.030629678,0.027152311,-0.0067038094,-0.52215296,32.038963,-12.157494,5.2980067e-06,-1.7437487e-05,1.3191563e-05,0.00038316907,-1.271827e-06,-0.00088168774,0.19626455,-0.017851688,0.48941958,0.010914842,-0.00941393,0.0018773926,0.0,0.0,2.377596e-05,6.0495863e-06,6.0331913e-06,4.6532103e-05,0.0108272005,0.010796974,0.014374847,0.07499313,0.07496715,0.18173872,1.14348826e-11,1.1282927e-11,3.3950603e-11,5.0000217e-08,5.1081095e-08,5.0000036e-08,0.0,0.0,0.0,0.0,0.0,0.0,0.0,0.0,24
875044000,874964000,0.8025991,0.022394873,-0.0018440943,-0.59609556,0.040921208,0.030507617,-0.036900282,-0.54465157,32.043877,-12.142443,5.4925276e-06,-1.7447455e-05,1.3175029e-05,0.00038315717,-4.7397157e-06,-0.00089337275,0.19626455,-0.017851688,0.48941958,0.010914842,-0.00941393,0.0018773926,0.0,0.0,2.4242036e-05,5.9992126e-06,6.0131742e-06,4.7036996e-05,0.010883367,0.010861595,0.014390534,0.07449008,0.07446678,0.18324941,1.1285101e-11,1.1160059e-11,3.392069e-11,5.0000978e-08,5.0853956e-08,5.000022e-08,0.0,0.0,0.0,0.0,0.0,0.0,0.0,0.0,24
876044000,875964000,0.7922433,0.109836645,-0.112558626,-0.5895906,1.0971336,0.1567741,-0.15652119,-0.21170244,32.140068,-12.207709,5.983084e-06,-1.756334e-05,1.31146535e-05,0.00038145608,-1.3919079e-05,-0.0009074855,0.19626455,-0.017851688,0.48941958,0.010914842,-0.00941393,0.0018773926,0.0,0.0,2.418982e-05,6.5182066e-06,6.394782e-06,4.6440597e-05,0.010399666,0.010573179,0.01405404,0.07242416,0.072407864,0.18151425,1.1061392e-11,1.09586255e-11,3.380807e-11,5.000011e-08,5.0594338e-08,5.000011e-08,0.0,0.0,0.0,0.0,0.0,0.0,0.0,0.0,24
877044000,876964000,0.79021245,0.12042651,-0.12361313,-0.5880321,2.2355158,0.18082234,-0.11969247,1.5242466,32.296066,-12.319309,6.1229894e-06,-1.7486973e-05,1.3181446e-05,0.00038297838,-1.6196016e-05,-0.00092533155,0.19714856,-0.017903559,0.48917964,0.010947156,-0.008756728,0.0014367253,0.0,0.0,2.3973984e-05,6.2664253e-06,6.150769e-06,4.5776524e-05,0.010147295,0.010452789,0.013733452,0.0710846,0.07107069,0.1799517,1.0889591e-11,1.0802263e-11,3.3387463e-11,5.000015e-08,5.011509e-08,5.0000114e-08,0.00014173,1.0625102e-05,0.00011197822,4.4732715e-05,0.00013412416,0.00011130793,0.0,0.0,24
878044000,877964000,0.7874286,0.118224904,-0.11525129,-0.5938824,2.4955142,0.20547906,-0.053777106,3.9395838,32.478367,-12.393137,6.0851326e-06,-1.7402277e-05,1.3208152e-05,0.00038442094,-1.6314894e-05,-0.00093205343,0.1973782,-0.01792717,0.48935956,0.011006801,-0.008542559,0.0015630753,0.0,0.0,2.4940508e-05,6.203897e-06,6.1851097e-06,4.6082332e-05,0.011768306,0.011680483,0.014597011,0.079645865,0.07963572,0.1840083,1.0943655e-11,1.0865603e-11,3.327958e-11,5.0000114e-08,5.0000075e-08,5.0000075e-08,0.00011972896,1.0096637e-05,9.707618e-05,3.8854403e-05,0.000114477574,9.683214e-05,0.0,0.0,24
879044000,878964000,0.7893965,0.048428416,-0.034581847,-0.61099255,2.1492004,0.17572851,0.078115664,6.442706,32.680897,-12.394006,5.8698265e-06,-1.7320825e-05,1.31736515e-05,0.00038632916,-1.3276537e-05,-0.0009327712,0.19743058,-0.017956821,0.48941073,0.011138015,-0.0086059375,0.0016651705,0.0,0.0,2.7037611e-05,5.6221184e-06,5.598325e-06,4.7171663e-05,0.011137002,0.010954143,0.014362811,0.07733322,0.07727604,0.1823405,1.0806926e-11,1.0760246e-11,3.3361907e-11,5.000015e-08,5.0000075e-08,5.0000075e-08,0.000111040696,9.76919e-06,9.093612e-05,3.5458463e-05,0.0001066006,9.077247e-05,0.0,0.0,24
880044000,879964000,0.7856673,0.00859574,0.0045219525,-0.618573,0.9033126,0.06347861,0.63120794,7.9089756,32.84321,-12.175129,5.425463e-06,-1.7434842e-05,1.336649e-05,0.00038666071,-8.783477e-06,-0.00093542115,0.19746186,-0.017989842,0.48913258,0.011301977,-0.008422584,0.0017524644,0.0,0.0,2.8100907e-05,5.442906e-06,5.3894287e-06,4.72362e-05,0.00927638,0.009747645,0.0133475205,0.06798279,0.06795025,0.17607173,1.0610043e-11,1.0616668e-11,3.3005397e-11,5e-08,5e-08,5.0000075e-08,0.0,0.0,0.0,0.0,0.0,0.0,0.0,0.0,24
881044000,880964000,0.7915059,-0.019751832,0.03425867,-0.60988086,-0.336951,-0.033155344,0.87259704,8.125909,32.914368,-11.2524805,5.19161e-06,-1.7676555e-05,1.3751649e-05,0.00038820578,-8.602389e-06,-0.0009482156,0.19752526,-0.018034672,0.48880756,0.011455165,-0.008449531,0.0014338436,0.0,0.0,2.640444e-05,5.5606542e-06,5.5127316e-06,4.6272195e-05,0.010304944,0.011339757,0.014048349,0.07424458,0.074160665,0.17997651,1.0635844e-11,1.0731719e-11,3.1944863e-11,5.0000104e-08,5e-08,5e-08,8.195252e-05,9.1351085e-06,6.980655e-05,2.987856e-05,7.9638354e-05,6.9641676e-05,0.0,0.0,24
882044000,881964000,0.7919683,-0.01789207,0.01775061,-0.6100419,-0.41986334,-0.08790964,0.8396145,7.761408,32.923874,-10.4283085,5.005481e-06,-1.793092e-05,1.4041733e-05,0.00039005862,-6.633655e-06,-0.0009437811,0.19762804,-0.018107858,0.48839936,0.011698329,-0.008567755,0.0010343789,0.0,0.0,2.6278478e-05,5.4272623e-06,5.4006837e-06,4.5986617e-05,0.010185934,0.010443662,0.0139827775,0.07267208,0.07262115,0.1813495,1.0552015e-11,1.0776408e-11,3.133224e-11,5.000015e-08,5.000015e-08,5.000015e-08,6.934127e-05,8.731123e-06,5.9883787e-05,2.6697391e-05,6.779228e-05,5.97626e-05,0.0,0.0,24
883044000,882964000,0.7909133,-0.00047190618,0.0004057819,-0.6119279,-0.23744017,-0.106933035,0.89929354,7.438988,32.844097,-9.548188,4.902792e-06,-1.7993134e-05,1.4032167e-05,0.00039191358,-5.6885033e-06,-0.0009455284,0.1977047,-0.01817229,0.4883015,0.011913007,-0.008719518,0.0009229399,0.0,0.0,2.725375e-05,5.5056285e-06,5.452667e-06,4.7089055e-05,0.01028941,0.010197563,0.014010687,0.072253704,0.07219891,0.1803874,1.05141095e-11,1.0830515e-11,3.133664e-11,5.0000036e-08,5.0000036e-08,5.000009e-08,6.371886e-05,8.447551e-06,5.5334694e-05,2.4611363e-05,6.243002e-05,5.5236666e-05,0.0,0.0,24
884044000,883964000,0.78998214,0.007877651,-0.003111771,-0.6130714,-0.0524016,-0.05021708,0.8836807,7.3354716,32.77385,-8.655639,4.7352187e-06,-1.7950068e-05,1.398386e-05,0.0003935268,-4.8428597e-06,-0.0009444876,0.19775487,-0.018211162,0.4882844,0.012044626,-0.008803469,0.0008987738,0.0,0.0,2.8380155e-05,5.445547e-06,5.426225e-06,4.854539e-05,0.009872151,0.009795234,0.013818983,0.07040064,0.07034208,0.17911448,1.0422297e-11,1.0768914e-11,3.1485096e-11,5e-08,5e-08,5.0000033e-08,0.0,0.0,0.0,0.0,0.0,0.0,0.0,0.0,24
885044000,884964000,0.78939605,0.0067409524,-0.00018752084,-0.61384714,-0.004815315,-0.011300603,0.86178267,7.356034,32.753273,-7.76596,4.51525e-06,-1.7885744e-05,1.4003026e-05,0.0003941624,-3.3485471e-06,-0.00095196493,0.19775487,-0.018211162,0.4882844,0.012044626,-0.008803469,0.0008987738,0.0,0.0,2.8791968e-05,5.4051648e-06,5.405005e-06,4.8855778e-05,0.009738034,0.009727434,0.013713849,0.06933939,0.06927838,0.17818482,1.0386036e-11,1.0710251e-11,3.1310246e-11,5.0000036e-08,5.0000036e-08,5.0000107e-08,0.0,0.0,0.0,0.0,0.0,0.0,0.0,0.0,24
886044000,885964000,0.7894347,0.0044142934,0.0018207808,-0.6138161,-0.029408073,-5.604334e-05,0.8078973,7.3661118,32.74869,-6.935125,4.386972e-06,-1.782741e-05,1.3982049e-05,0.0003945193,-2.5372676e-06,-0.00095327507,0.19775487,-0.018211162,0.4882844,0.012044626,-0.008803469,0.0008987738,0.0,0.0,2.9116793e-05,5.5589044e-06,5.561664e-06,4.919985e-05,0.011032746,0.01106171,0.014602022,0.076746576,0.07665959,0.1826811,1.047004e-11,1.0763649e-11,3.1117296e-11,5.0000036e-08,5.0000036e-08,5.0000143e-08,0.0,0.0,0.0,0.0,0.0,0.0,0.0,0.0,24
887044000,886964000,0.7894795,0.004939283,0.0033802213,-0.61374784,-0.033479955,0.005826938,0.75710416,7.367654,32.74721,-6.152673,4.2392808e-06,-1.7767425e-05,1.3934017e-05,0.00039476439,-1.5762873e-06,-0.0009535802,0.19775487,-0.018211162,0.4882844,0.012044626,-0.008803469,0.0008987738,0.0,0.0,2.9388828e-05,5.475563e-06,5.49041e-06,4.946962e-05,0.01065105,0.0107032545,0.014392403,0.07491142,0.0748522,0.18157798,1.0414883e-11,1.06665145e-11,3.090177e-11,5e-08,5e-08,5.0000185e-08,0.0,0.0,0.0,0.0,0.0,0.0,0.0,0.0,24
888044000,887964000,0.7896397,0.0050240215,0.0049242442,-0.61353046,-0.034737736,0.003691748,0.72698486,7.3522077,32.751217,-5.4131365,4.1692974e-06,-1.7744906e-05,1.3823194e-05,0.00039452998,-8.350117e-07,-0.00095391285,0.19775487,-0.018211162,0.4882844,0.012044626,-0.008803469,0.0008987738,0.0,0.0,2.9655359e-05,5.4720967e-06,5.494017e-06,4.9743958e-05,0.010689562,0.010752193,0.014350818,0.074415386,0.074378826,0.18087852,1.041253e-11,1.0625959e-11,3.0678855e-11,5.000007e-08,5.000007e-08,5.0000146e-08,0.0,0.0,0.0,0.0,0.0,0.0,0.0,0.0,24
889044000,888964000,0.78950745,0.006088255,0.004363687,-0.6136954,-0.018127317,0.003934117,0.6903895,7.325658,32.761196,-4.7120285,4.157945e-06,-1.7760214e-05,1.3778743e-05,0.00039429223,-5.414664e-07,-0.00095513917,0.19775487,-0.018211162,0.4882844,0.012044626,-0.008803469,0.0008987738,0.0,0.0,2.9929177e-05,5.364082e-06,5.387676e-06,4.99681e-05,0.010162812,0.010221714,0.014093319,0.07234143,0.072322376,0.17973012,1.0339225e-11,1.0513759e-11,3.044519e-11,5.0000036e-08,5.0000036e-08,5.000007e-08,0.0,0.0,0.0,0.0,0.0,0.0,0.0,0.0,24
890044000,889964000,0.7894139,0.005713198,0.002313448,-0.61383045,-0.00834694,-0.006016213,0.7060644,7.317742,32.777298,-4.034285,4.115831e-06,-1.7813016e-05,1.3742728e-05,0.0003936815,-8.5737287e-07,-0.00094601384,0.19775487,-0.018211162,0.4882844,0.012044626,-0.008803469,0.0008987738,0.0,0.0,3.020556e-05,5.328595e-06,5.3451417e-06,5.0208087e-05,0.009923725,0.009972419,0.013947796,0.0710282,0.07102184,0.17908807,1.0310967e-11,1.04542295e-11,3.021072e-11,5e-08,5e-08,5.0000146e-08,0.0,0.0,0.0,0.0,0.0,0.0,0.0,0.0,24
891044000,890964000,0.789474,0.0071078455,0.0013684201,-0.61374146,-0.005456583,-0.020541754,0.71296376,7.3110456,32.785213,-3.3427095,4.093864e-06,-1.790559e-05,1.3631752e-05,0.000392604,-1.0709145e-06,-0.0009368109,0.19775487,-0.018211162,0.4882844,0.012044626,-0.008803469,0.0008987738,0.0,0.0,3.0483088e-05,5.55043e-06,5.570174e-06,5.0491097e-05,0.011506782,0.011556247,0.014932929,0.07956098,0.07957613,0.18412344,1.0441287e-11,1.0565173e-11,2.998289e-11,5.000004e-08,5.000004e-08,5.000015e-08,0.0,0.0,0.0,0.0,0.0,0.0,0.0,0.0,24
892044000,891964000,0.78942,0.007079859,0.0016238057,-0.6138105,0.00078639126,-0.025251035,0.7039365,7.316818,32.794384,-2.633385,4.010637e-06,-1.8033554e-05,1.3536235e-05,0.00039141564,-5.534637e-07,-0.00093568716,0.19775487,-0.018211162,0.4882844,0.012044626,-0.008803469,0.0008987738,0.0,0.0,3.0758634e-05,5.461766e-06,5.4825337e-06,5.0742216e-05,0.011025909,0.011060044,0.014655542,0.07729478,0.07731069,0.18274143,1.0382883e-11,1.0483791e-11,2.974892e-11,5e-08,5e-08,5.000004e-08,0.0,0.0,0.0,0.0,0.0,0.0,0.0,0.0,24
893044000,892964000,0.78937644,0.0046633543,0.0008643453,-0.61389107,0.0005486401,-0.02494122,0.6965779,7.3304214,32.814793,-1.965876,3.893185e-06,-1.8233757e-05,1.3416297e-05,0.00038958518,-4.7424467e-07,-0.0009197596,0.19775487,-0.018211162,0.4882844,0.012044626,-0.008803469,0.0008987738,0.0,0.0,3.1035725e-05,5.2384376e-06,5.252015e-06,5.0983133e-05,0.009469641,0.009487891,0.013536691,0.06796007,0.06796839,0.17635852,1.0242267e-11,1.0322483e-11,2.9515522e-11,5.000004e-08,5.000004e-08,5.0000075e-08,0.0,0.0,0.0,0.0,0.0,0.0,0.0,0.0,24
894044000,893964000,0.7893739,0.0054294546,0.000568434,-0.61388856,-0.007552933,-0.0378046,0.7111689,7.3343644,32.806644,-1.2781637,3.8207686e-06,-1.8352954e-05,1.33355425e-05,0.00038853692,-3.6596987e-07,-0.00090950436,0.19775487,-0.018211162,0.4882844,0.012044626,-0.008803469,0.0008987738,0.0,0.0,3.1288728e-05,5.363151e-06,5.37905e-06,5.124244e-05,0.01049448,0.010509857,0.014305809,0.07439822,0.07441169,0.18042547,1.03125486e-11,1.0381453e-11,2.928683e-11,5e-08,5e-08,5.000004e-08,0.0,0.0,0.0,0.0,0.0,0.0,0.0,0.0,24
895044000,894964000,0.7893561,0.0069162846,0.0012967373,-0.6138954,-0.012660562,-0.03534297,0.71074617,7.3517113,32.797825,-0.59183717,3.656602e-06,-1.845363e-05,1.32086925e-05,0.00038743,2.7812482e-07,-0.0008968958,0.19775487,-0.018211162,0.4882844,0.012044626,-0.008803469,0.0008987738,0.0,0.0,3.1650103e-05,5.313818e-06,5.3344074e-06,5.1661962e-05,0.010212444,0.010223051,0.014190592,0.07282754,0.07283845,0.1818103,1.0279399e-11,1.033707e-11,2.9109236e-11,5.0000185e-08,5.0000185e-08,5.0000185e-08,0.0,0.0,0.0,0.0,0.0,0.0,0.0,0.0,24
896044000,895964000,0.78941554,0.003683463,0.0023101617,-0.61384386,-0.02036191,-0.030233826,0.7099239,7.3747506,32.796906,0.08320401,3.4151851e-06,-1.8542367e-05,1.30871995e-05,0.00038637908,1.2560754e-06,-0.00087932346,0.19775487,-0.018211162,0.4882844,0.012044626,-0.008803469,0.0008987738,0.0,0.0,3.1878095e-05,5.3218523e-06,5.3372346e-06,5.188343e-05,0.010265341,0.010273407,0.014142719,0.07238541,0.07239464,0.18084612,1.0282839e-11,1.0332082e-11,2.8878611e-11,5.0000185e-08,5.0000185e-08,5.0000185e-08,0.0,0.0,0.0,0.0,0.0,0.0,0.0,0.0,24
897044000,896964000,0.7933341,0.0039012465,0.0009673523,-0.6087731,-0.01571301,-0.013798986,0.047631837,7.382716,32.799816,0.097640656,3.2896035e-06,-1.860286e-05,1.292569e-05,0.0003868011,2.4125825e-07,-0.0008783594,0.19775487,-0.018211162,0.4882844,0.012044626,-0.008803469,0.0008987738,0.0,0.0,3.1576114e-05,4.8924735e-06,4.904405e-06,5.2583662e-05,0.010609267,0.01062306,0.010900286,0.07052721,0.0705335,0.17905904,1.018533e-11,1.0224123e-11,2.8646639e-11,5.000004e-08,5.000004e-08,5.000004e-08,0.0,0.0,0.0,0.0,0.0,0.0,0.0,0.0,24
898044000,897964000,0.79337806,0.0040344484,0.000570971,-0.6087156,-0.013966085,-0.01185362,0.06214712,7.3851943,32.804512,0.12625913,3.175247e-06,-1.8677085e-05,1.2725355e-05,0.000389883,-5.223183e-06,-0.00087080273,0.19775487,-0.018211162,0.4882844,0.012044626,-0.008803469,0.0008987738,0.0,0.0,3.1772044e-05,4.3865616e-06,4.396158e-06,5.273316e-05,0.01133902,0.01135039,0.009910675,0.069457695,0.06946409,0.17583606,1.0184292e-11,1.0213834e-11,2.8415962e-11,5.000011e-08,5.000011e-08,5.000004e-08,0.0,0.0,0.0,0.0,0.0,0.0,0.0,0.0,24
899044000,898964000,0.7937585,0.00473557,0.00052150886,-0.60821444,0.00037880635,-0.00053264335,0.0002766321,7.3912787,32.812748,-0.019742321,2.9027408e-06,-1.885979e-05,1.2532449e-05,0.0004087932,-3.5400077e-05,-0.0007732387,0.19775487,-0.018211162,0.4882844,0.012044626,-0.008803469,0.0008987738,0.0,0.0,3.1897303e-05,2.3993998e-06,2.404991e-06,5.288993e-05,3.318287e-05,3.3183165e-05,3.3203887e-05,0.04225389,0.04225045,0.09312973,9.692815e-12,9.7063425e-12,2.8185478e-11,5.000015e-08,5.000015e-08,5.000015e-08,0.0,0.0,0.0,0.0,0.0,0.0,0.0,0.0,24
900044000,899964000,0.7938233,0.0043465127,0.0003667342,-0.60813296,0.0017049265,-0.0019356913,0.0017628963,7.392465,32.812458,-0.0013476008,2.9006305e-06,-1.8866236e-05,1.23329e-05,9.824497e-06,-0.00010518167,0.00010544456,0.19775487,-0.018211162,0.4882844,0.012044626,-0.008803469,0.0008987738,0.0,0.0,3.2057895e-05,2.9393207e-06,2.9447122e-06,5.30066e-05,0.00025923402,0.00025923757,0.0002573907,0.035928592,0.03592605,0.08222237,1.0135258e-11,1.0147856e-11,2.795901e-11,1.562728e-07,1.5620905e-07,9.593961e-08,0.0,0.0,0.0,0.0,0.0,0.0,0.0,0.0,24
