timestamp,timestamp_sample,hover_thrust,hover_thrust_var,accel_innov,accel_innov_var,accel_innov_test_ratio,accel_noise_var,valid
838068000,838068000,0.4938137,0.0064228396,0.28859127,7.78472,0.0011887236,5.1754427,0
838076000,838076000,0.49152717,0.004713898,0.14687943,7.05171,0.00033992648,5.3497148,0
838172000,838172000,0.4875383,0.0012488865,0.08160567,7.451176,9.9305515e-05,7.180207,0
838268000,838268000,0.48692027,0.00078698393,-0.019644856,8.707273,4.9246237e-06,8.559938,0
838372000,838372000,0.48631373,0.0005836376,0.07658005,9.752831,6.681255e-05,9.635543,0
838468000,838468000,0.48506418,0.0004778465,0.101388454,10.403858,0.00010978427,10.296137,0
838564000,838564000,0.48382524,0.0004067319,0.12152523,10.828238,0.00015154186,10.723828,0
838668000,838668000,0.4816518,0.00035085942,0.13670832,11.039572,0.00018810276,10.9374,0
838764000,838764000,0.48006666,0.000311189,0.23318136,11.111856,0.00054369896,11.008225,0
838868000,838868000,0.47887087,0.0002766747,0.35515505,11.091562,0.0012635742,10.9860735,0
838972000,838972000,0.4773494,0.00024835274,0.20035934,10.942978,0.00040760657,10.843103,0
839068000,839068000,0.47596866,0.00022624363,0.35223845,10.748312,0.0012825986,10.647498,0
839164000,839164000,0.47469506,0.00020711991,0.25402158,10.503142,0.00068262074,10.406601,0
839268000,839268000,0.4732349,0.00018905537,0.29869843,10.198818,0.00097201613,10.104532,0
839364000,839364000,0.47193384,0.00017436074,0.74906796,9.897161,0.006299257,9.800089,0
839468000,839468000,0.47068772,0.00016020903,0.32587913,9.54751,0.0012358918,9.459127,0
839564000,839564000,0.4696118,0.00014852328,0.38418305,9.222672,0.0017781856,9.136632,0
839668000,839668000,0.46818182,0.00013712358,0.36145064,8.85126,0.0016400248,8.769301,0
839772000,839772000,0.46684676,0.00012686024,0.4086135,8.485644,0.0021862413,8.40695,0
839868000,839868000,0.4658051,0.00011825917,0.322943,8.152813,0.0014213524,8.078079,0
839964000,839964000,0.4648581,0.000110378685,0.30349106,7.829832,0.0013070639,7.7583265,0
840068000,840068000,0.46375433,0.00010256266,0.80199194,7.4844656,0.009548535,7.413708,0
840172000,840172000,0.46271095,9.542735e-05,0.30970186,7.1446605,0.0014916384,7.0798254,0
840268000,840268000,0.4612818,9.0266534e-05,-0.27204895,6.8370113,0.0012027775,6.787358,1
840372000,840372000,0.4628865,8.499796e-05,-0.3640315,6.6064477,0.002228781,6.554646,1
840468000,840468000,0.46320736,8.0030346e-05,0.13111168,6.3527184,0.0003006635,6.296958,1
840564000,840564000,0.46263084,7.519025e-05,0.2692034,6.075075,0.001325461,6.0202093,1
840668000,840668000,0.46137443,7.01849e-05,0.47746134,5.7811756,0.004381449,5.727872,1
840764000,840764000,0.46016598,6.5811175e-05,0.35819274,5.5169754,0.002583985,5.465766,1
840868000,840868000,0.45842132,6.134756e-05,0.49360022,5.245184,0.0051611615,5.196313,1
840964000,840964000,0.45688012,5.7474674e-05,-0.18790048,5.004033,0.0007839586,4.9597397,1
841068000,841068000,0.45478907,5.3562206e-05,0.50775903,4.7548895,0.0060246577,4.710645,1
841172000,841172000,0.4530479,4.993349e-05,0.6498762,4.5190554,0.010384153,4.476821,1
841268000,841268000,0.45148712,4.6841928e-05,0.5391345,4.3091683,0.0074947695,4.2694287,1
841372000,841372000,0.44980454,4.3747386e-05,0.51033163,4.0969014,0.0070632887,4.059292,1
841468000,841468000,0.44832718,4.111234e-05,0.26382416,3.907382,0.0019792505,3.8724427,1
841564000,841564000,0.44700345,3.867264e-05,0.4664142,3.7287796,0.0064823776,3.6950736,1
841668000,841668000,0.44561815,3.6233097e-05,0.663546,3.5457187,0.013797339,3.5141683,1
841764000,841764000,0.44414213,3.4165358e-05,0.47461566,3.3805015,0.0074038994,3.3509166,1
841868000,841868000,0.44275025,3.2084747e-05,0.477073,3.2134984,0.007869536,3.1854262,1
841964000,841964000,0.441346,3.0307061e-05,0.6448934,3.0638392,0.015082294,3.0373704,1
842068000,842068000,0.4397465,2.8515658e-05,0.47805804,2.9133189,0.008716271,2.8882537,1
842164000,842164000,0.43853784,2.6975438e-05,-0.123154074,2.7794666,0.0006063084,2.7576232,1
842268000,842268000,0.43693584,2.541377e-05,0.49212098,2.641423,0.010187399,2.6189342,1
842364000,842364000,0.43559587,2.407095e-05,0.77071476,2.5230932,0.02615842,2.5019753,1
842468000,842468000,0.43416962,2.2707865e-05,0.43079376,2.3965442,0.008604207,2.376385,1
842564000,842564000,0.43294105,2.1525604e-05,0.6378293,2.2871208,0.019764112,2.2679687,1
842668000,842668000,0.43165457,2.03171e-05,0.4885657,2.1724322,0.012208357,2.1541767,1
842764000,842764000,0.4304036,1.9270448e-05,0.56904435,2.0739377,0.017348183,2.05665,1
842868000,842868000,0.42907572,1.8199566e-05,0.93049943,1.9700184,0.048833676,1.9541153,1
842964000,842964000,0.42815652,1.7265425e-05,0.53071743,1.8817105,0.016631499,1.8660105,1
843068000,843068000,0.4271663,1.630532e-05,-0.22739086,1.7886155,0.003212081,1.7757367,1
843172000,843172000,0.42592376,1.5397109e-05,0.4636438,1.7007105,0.0140441675,1.686529,1
843268000,843268000,0.42519405,1.4602057e-05,0.41203025,1.6253711,0.011605482,1.6116518,1
843364000,843364000,0.42431375,1.3843375e-05,0.3739706,1.5504488,0.010022475,1.5374175,1
843468000,843468000,0.42349342,1.3062794e-05,0.3717314,1.4762511,0.0104005365,1.4637402,1
843564000,843564000,0.42278144,1.23800055e-05,0.25185627,1.4086733,0.005003256,1.3969054,1
843668000,843668000,0.4218999,1.1681531e-05,0.37677932,1.340625,0.011765876,1.3292652,1
843772000,843772000,0.4211714,1.1026347e-05,0.2890609,1.2741953,0.007286184,1.2635474,1
843868000,843868000,0.4206206,1.0455344e-05,0.15863186,1.2182565,0.0022950894,1.2081952,1
843964000,843964000,0.42011628,9.91747e-06,0.18718664,1.1631651,0.003347078,1.1535581,1
844068000,844068000,0.41961986,9.368494e-06,0.053823903,1.1087198,0.00029032608,1.0997694,1
844172000,844172000,0.41924015,8.851297e-06,0.3800146,1.0588,0.015154589,1.0499684,1
844268000,844268000,0.4187816,8.40058e-06,0.23324987,1.01055,0.0059819464,1.002103,1
844372000,844372000,0.41846555,7.950713e-06,0.22700079,1.0042125,0.005701467,1.0,1
844468000,844468000,0.41814065,7.5746666e-06,0.07940374,1.0040886,0.0006976979,1.0,1
844572000,844572000,0.4178514,7.205234e-06,0.18262097,1.0038604,0.0036913522,1.0,1
844668000,844668000,0.4177293,6.8933987e-06,-0.0050192215,1.0037879,2.788613e-06,1.0,1
844772000,844772000,0.41758078,6.582107e-06,0.09493737,1.0036013,0.0009978624,1.0,1
844868000,844868000,0.41746312,6.3171124e-06,-0.045951664,1.0035344,0.00023379097,1.0,1
844964000,844964000,0.41726145,6.0716834e-06,0.053399205,1.003384,0.00031576204,1.0,1
845068000,845068000,0.41705686,5.8265537e-06,-0.14160803,1.0032881,0.0022207904,1.0,1
845164000,845164000,0.41693678,5.616315e-06,-0.019964404,1.0031593,4.414691e-05,1.0,1
845268000,845268000,0.4168058,5.404722e-06,0.18314515,1.0030688,0.0037155028,1.0,1
845372000,845372000,0.41655377,5.2108026e-06,0.2118492,1.0028869,0.004972321,1.0,1
845468000,845468000,0.41648236,5.044538e-06,0.09325382,1.0028416,0.0009635148,1.0,1
845572000,845572000,0.41640037,4.876763e-06,0.14077654,1.0027081,0.0021960568,1.0,1
845668000,845668000,0.4163797,4.7314484e-06,-0.063960314,1.0026772,0.00045333322,1.0,1
845772000,845772000,0.41642705,4.58348e-06,0.085672446,1.002573,0.0008134368,1.0,1
845868000,845868000,0.4164017,4.454875e-06,-0.047843307,1.0025362,0.00025368796,1.0,1
845964000,845964000,0.4163853,4.333765e-06,-0.21275786,1.0024445,0.0050172806,1.0,1
846068000,846068000,0.41642356,4.210331e-06,-0.07593019,1.0024052,0.0006390623,1.0,1
846164000,846164000,0.41650727,4.1022695e-06,0.057742417,1.0023385,0.00036960086,1.0,1
846268000,846268000,0.41646498,3.992099e-06,-0.079090446,1.0022941,0.00069344236,1.0,1
846372000,846372000,0.41656452,3.887656e-06,0.009487882,1.0022192,9.9800645e-06,1.0,1
846468000,846468000,0.41659907,3.7962775e-06,-0.07553231,1.0021931,0.0006325161,1.0,1
846564000,846564000,0.41662684,3.709935e-06,-0.027272902,1.0021095,8.247171e-05,1.0,1
846668000,846668000,0.41672245,3.6216975e-06,-0.1227281,1.0020849,0.0016700944,1.0,1
846772000,846772000,0.41680092,3.5375667e-06,-0.091754764,1.00201,0.000933561,1.0,1
846868000,846868000,0.4168537,3.4638244e-06,-0.25902128,1.0019855,0.007439897,1.0,1
846972000,846972000,0.41693255,3.3881665e-06,-0.042480767,1.0019076,0.00020013108,1.0,1
847068000,847068000,0.41708094,3.3216932e-06,-0.012312487,1.0019118,1.6812006e-05,1.0,1
847172000,847172000,0.41714776,3.2527546e-06,-0.127846,1.0018423,0.0018127272,1.0,1
847268000,847268000,0.41723803,3.1921638e-06,-0.029747523,1.001804,9.814684e-05,1.0,1
847364000,847364000,0.4173327,3.1334016e-06,-0.10281887,1.0018026,0.0011725221,1.0,1
847468000,847468000,0.41734856,3.0727915e-06,0.022152424,1.0017453,5.443054e-05,1.0,1
847572000,847572000,0.41743463,3.0143208e-06,-0.095728785,1.0017374,0.0010164563,1.0,1
847668000,847668000,0.41746962,2.9627126e-06,0.030400112,1.0016909,0.00010251187,1.0,1
847772000,847772000,0.41753367,2.909051e-06,-0.80998886,1.0016669,0.07277668,1.0,1
847868000,847868000,0.41751525,2.8619056e-06,-0.10389113,1.0016521,0.0011972849,1.0,1
847972000,847972000,0.41757643,2.8133063e-06,0.06220396,1.0015906,0.00042924305,1.0,1
848068000,848068000,0.41764647,2.7705173e-06,-0.04474283,1.0015532,0.0002220907,1.0,1
848164000,848164000,0.41775635,2.7290225e-06,-0.026833758,1.0015572,7.988122e-05,1.0,1
848268000,848268000,0.4178639,2.6857704e-06,-0.06577276,1.0015206,0.00047994306,1.0,1
848372000,848372000,0.4179368,2.6437199e-06,-0.029620409,1.0015088,9.733853e-05,1.0,1
848468000,848468000,0.41796544,2.6067444e-06,-0.08160508,1.0014699,0.0007388461,1.0,1
848564000,848564000,0.4180264,2.5708825e-06,-0.10383403,1.0014682,0.0011961889,1.0,1
848668000,848668000,0.4180691,2.5337133e-06,0.44779825,1.0014266,0.022248624,1.0,1
848764000,848764000,0.41817367,2.500289e-06,-0.070433244,1.0014251,0.00055042026,1.0,1
848868000,848868000,0.4182508,2.465621e-06,0.055238336,1.001414,0.0003385517,1.0,1
848972000,848972000,0.418317,2.432184e-06,-0.09035417,1.0013733,0.00090585335,1.0,1
849068000,849068000,0.418398,2.4026765e-06,0.04610479,1.0013424,0.00023586687,1.0,1
849164000,849164000,0.41849095,2.3741484e-06,-0.24475339,1.0013386,0.0066471263,1.0,1
849268000,849268000,0.41858253,2.3443588e-06,0.04471276,1.0013068,0.00022184686,1.0,1
849364000,849364000,0.41866124,2.317721e-06,-0.20748225,1.0013053,0.0047769737,1.0,1
849468000,849468000,0.41875854,2.2898873e-06,-0.037797723,1.0012711,0.00015853935,1.0,1
849572000,849572000,0.41884974,2.2630447e-06,-0.50128573,1.001264,0.027885573,1.0,1
849668000,849668000,0.41892987,2.2391782e-06,-0.11132421,1.0012428,0.0013752998,1.0,1
849772000,849772000,0.41904998,2.2138786e-06,-0.0729516,1.0012488,0.0005905886,1.0,1
849868000,849868000,0.4191074,2.1912208e-06,-0.09432782,1.0012245,0.0009874284,1.0,1
849972000,849972000,0.41920602,2.1672488e-06,-0.072378024,1.0012287,0.00058135,1.0,1
850068000,850068000,0.41926873,2.1457897e-06,-0.086028524,1.0012057,0.00082133274,1.0,1
850164000,850164000,0.41932577,2.124854e-06,-0.031377718,1.0012124,0.00010926322,1.0,1
850268000,850268000,0.41938344,2.1029018e-06,-0.035644084,1.0011818,0.00014100011,1.0,1
850364000,850364000,0.41934416,2.0845168e-06,0.032367647,1.0010836,0.000116281175,1.0,1
850468000,850468000,0.41948676,2.0673676e-06,-0.72480696,1.0010072,0.058312953,1.0,1
850564000,850564000,0.4198425,2.0533103e-06,-0.7999937,1.0009508,0.07104244,1.0,1
850668000,850668000,0.42041487,2.038762e-06,-1.8043242,1.0015229,0.3611817,1.0062994,1
850772000,850772000,0.420986,2.0232383e-06,-0.9218668,1.0010087,0.094331324,1.0,1
850868000,850868000,0.42152727,2.0083764e-06,-0.89424163,1.0010438,0.08875936,1.0,1
850964000,850964000,0.42203817,1.9933711e-06,-0.9807356,1.0010448,0.106759824,1.0,1
851068000,851068000,0.42262405,1.9771514e-06,-0.92190546,1.0010604,0.09433438,1.0,1
851164000,851164000,0.42316112,1.9623226e-06,-1.0695363,1.0010499,0.12696758,1.0,1
851268000,851268000,0.42374545,1.9465401e-06,-0.94406676,1.0010549,0.09892476,1.0,1
851364000,851364000,0.42419526,1.932461e-06,-0.8173268,1.0010258,0.07414872,1.0,1
851468000,851468000,0.42460516,1.9179902e-06,-0.5277965,1.0010083,0.030920953,1.0,1
851572000,851572000,0.42488572,1.9044946e-06,-0.4564675,1.0009642,0.0231291,1.0,1
851668000,851668000,0.4250811,1.8925142e-06,-0.36556247,1.0009644,0.01483413,1.0,1
851772000,851772000,0.4252868,1.8801015e-06,-0.44659925,1.0009534,0.022140099,1.0,1
851868000,851868000,0.42544708,1.8679665e-06,-0.11471209,1.0010036,0.0014606301,1.0,1
851964000,851964000,0.42547902,1.8553093e-06,0.0787096,1.0010221,0.00068765285,1.0,1
852068000,852068000,0.42538115,1.8414521e-06,0.20014569,1.0010285,0.0044463486,1.0,1
852164000,852164000,0.4252322,1.8287602e-06,0.083164215,1.0027462,0.00076637167,1.0,1
852268000,852268000,0.42504644,1.8158013e-06,0.32437947,1.0009823,0.011679865,1.0,1
852372000,852372000,0.42497557,1.804023e-06,0.17522341,1.0009482,0.00340824,1.0,1
852468000,852468000,0.42499524,1.7935985e-06,-0.09885518,1.0009463,0.0010847899,1.0,1
852564000,852564000,0.4250809,1.7833534e-06,-0.17478211,1.0009435,0.00339111,1.0,1
852668000,852668000,0.4252353,1.772283e-06,-0.37960088,1.0009544,0.015995493,1.0,1
852764000,852764000,0.42542452,1.7619824e-06,-0.35934538,1.0009608,0.014333905,1.0,1
852868000,852868000,0.42569375,1.7506691e-06,-0.8004708,1.0009776,0.071125306,1.0,1
852964000,852964000,0.42598498,1.7400282e-06,-0.6347323,1.0009899,0.044720743,1.0,1
853068000,853068000,0.4263075,1.7283528e-06,-0.47911373,1.0010071,0.02547989,1.0,1
853172000,853172000,0.42658535,1.7167133e-06,-0.5123077,1.001,0.029132996,1.0,1
853268000,853268000,0.4267926,1.7061348e-06,-0.3276794,1.0009977,0.011918531,1.0,1
853372000,853372000,0.42701802,1.6951205e-06,0.060602486,1.0009809,0.00040767362,1.0,1
853468000,853468000,0.4272343,1.6852605e-06,-0.4157835,1.0009736,0.01918975,1.0,1
853564000,853564000,0.42748937,1.6757793e-06,-0.40728566,1.0009632,0.018413553,1.0,1
853668000,853668000,0.4277206,1.6658289e-06,-0.5075722,1.0009507,0.028598312,1.0,1
853772000,853772000,0.4279883,1.6566055e-06,-0.57959616,1.0009204,0.037291422,1.0,1
853868000,853868000,0.42829692,1.6481919e-06,-0.6876172,1.0009328,0.052486308,1.0,1
853972000,853972000,0.42859778,1.6391878e-06,-0.5784446,1.0009221,0.037143324,1.0,1
854068000,854068000,0.42887616,1.6309664e-06,-0.15584749,1.0009314,0.0026962042,1.0,1
854172000,854172000,0.42920065,1.6222107e-06,-0.5981864,1.0009204,0.03972199,1.0,1
854268000,854268000,0.42949474,1.614205e-06,-0.5237554,1.0009327,0.030451562,1.0,1
854372000,854372000,0.4297782,1.6056302e-06,-0.61102676,1.0009223,0.04144552,1.0,1
854468000,854468000,0.4300371,1.5978042e-06,-0.44538146,1.0009274,0.022020094,1.0,1
854564000,854564000,0.43028578,1.5902074e-06,-0.6382462,1.0009168,0.045220565,1.0,1
854668000,854668000,0.4305448,1.5821341e-06,-0.52677923,1.0009171,0.030804679,1.0,1
854772000,854772000,0.430777,1.5742585e-06,0.026427448,1.0009048,7.753096e-05,1.0,1
854868000,854868000,0.4310016,1.5671853e-06,-0.48245978,1.0009011,0.025839765,1.0,1
854964000,854964000,0.43122435,1.5604493e-06,-1.2450678,1.0008848,0.1720915,1.0,1
855068000,855068000,0.43143505,1.5534193e-06,-0.5273956,1.0008774,0.030878032,1.0,1
855172000,855172000,0.43168902,1.5466468e-06,-0.38034132,1.000868,0.01605934,1.0,1
855268000,855268000,0.43191785,1.5405224e-06,-0.56477803,1.0008696,0.035410784,1.0,1
855372000,855372000,0.43216154,1.5340811e-06,-0.53615546,1.0008574,0.031912938,1.0,1
855468000,855468000,0.43238622,1.5282346e-06,-0.52917993,1.0008615,0.03108782,1.0,1
855564000,855564000,0.4325973,1.5225914e-06,-0.58656347,1.0008526,0.038195956,1.0,1
855668000,855668000,0.43279964,1.5178779e-06,-12.6298895,1.003786,17.656942,1.5730045,1
855764000,855764000,0.43268377,1.5214727e-06,11.2869835,5.0921674,2.779781,5.599279,1
855868000,855868000,0.4325096,1.5313907e-06,13.228567,24.168047,0.8045288,11.9870825,1
855972000,855972000,0.43242276,1.5418477e-06,2.4229002,88.00139,0.007412061,14.797619,1
856068000,856068000,0.4324228,1.5516583e-06,-0.72729766,78.90775,0.0007448386,14.252779,1
856164000,856164000,0.43242535,1.5614297e-06,0.060991228,69.853905,5.917e-06,13.756923,1
856268000,856268000,0.43242076,1.5719943e-06,1.2830718,68.41249,0.0026737696,13.086184,1
856364000,856364000,0.43241176,1.5817591e-06,1.6022471,70.21866,0.004062225,12.480593,1
856468000,856468000,0.4324006,1.5923584e-06,1.9939542,71.62964,0.0061673,11.867785,1
856564000,856564000,0.43239042,1.6021561e-06,2.102701,71.142426,0.0069053206,11.331473,1
856668000,856668000,0.43237942,1.6127751e-06,1.9503993,69.132774,0.0061139315,10.773522,1
856764000,856764000,0.4323692,1.6225764e-06,2.0514584,66.223045,0.007061123,10.28213,1
856868000,856868000,0.4323575,1.6331891e-06,1.9412417,62.752617,0.0066724434,9.772617,1
856972000,856972000,0.4323468,1.6437895e-06,1.4570043,57.751698,0.00408427,9.28319,1
857068000,857068000,0.43233863,1.6535562e-06,1.3696814,51.517357,0.0040461593,8.853546,1
857172000,857172000,0.43233132,1.6641496e-06,0.57813215,41.02744,0.000905185,8.426179,1
857268000,857268000,0.4323286,1.6738952e-06,0.09571004,29.40571,3.4613124e-05,8.091496,1
857364000,857364000,0.43233067,1.6835359e-06,-0.22235465,19.023264,0.0002887785,7.816012,1
857468000,857468000,0.43234202,1.6936904e-06,-0.6137619,10.549553,0.003967558,7.5521994,1
857564000,857564000,0.43237182,1.7025095e-06,-0.71601915,7.3588905,0.007740954,7.339761,1
857668000,857668000,0.4324138,1.7117356e-06,-0.7960179,7.1209464,0.00988702,7.1015754,1
857764000,857764000,0.43246108,1.7200095e-06,-0.8061074,6.90643,0.010454173,6.886217,1
857868000,857868000,0.4325149,1.7286826e-06,-0.77260804,6.654016,0.009967634,6.6328945,1
857972000,857972000,0.43256608,1.7370588e-06,-0.7293279,6.388364,0.009251528,6.366768,1
858068000,858068000,0.4326135,1.7445208e-06,-0.6457531,6.135662,0.007551427,6.11364,1
858172000,858172000,0.43266153,1.7523151e-06,-0.57259876,5.862623,0.006213929,5.840635,1
858268000,858268000,0.43270805,1.7592344e-06,-0.55445224,5.6127615,0.006085681,5.591255,1
858364000,858364000,0.4327501,1.7658828e-06,-0.47555315,5.3696275,0.004679629,5.3484435,1
858468000,858468000,0.43279412,1.7727799e-06,0.16492845,5.1117773,0.0005912576,5.0906405,1
858572000,858572000,0.43284285,1.7793681e-06,-0.41677827,4.8650637,0.0039671543,4.84531,1
858668000,858668000,0.43288568,1.7851738e-06,-0.6456237,4.643715,0.009973574,4.625553,1
858772000,858772000,0.43293577,1.7911459e-06,-0.42658395,4.416923,0.004577693,4.3987722,1
858868000,858868000,0.43298897,1.7963622e-06,-0.2603888,4.220053,0.0017851887,4.2023435,1
858972000,858972000,0.43293726,1.80336e-06,-0.74559,4.061332,0.0152085945,4.0461764,1
859068000,859068000,0.43297324,1.8092113e-06,-0.38577682,3.8790288,0.004262916,3.8630993,1
859172000,859172000,0.4330652,1.814779e-06,-0.6634619,3.6977694,0.013226644,3.683146,1
859268000,859268000,0.43313566,1.8191852e-06,-0.41793454,3.534708,0.0054906085,3.5198817,1
859364000,859364000,0.43316737,1.8230481e-06,-0.09663662,3.3699265,0.0003079077,3.355581,1
859468000,859468000,0.4331619,1.8267849e-06,0.026348874,3.2047055,2.4070963e-05,3.1911366,1
859564000,859564000,0.43314672,1.8298867e-06,0.55135566,3.0571291,0.011048604,3.045955,1
859668000,859668000,0.43314102,1.8328776e-06,-0.027168795,2.9076962,2.8206503e-05,2.895194,1
859764000,859764000,0.43315694,1.8352634e-06,0.027824089,2.774939,3.0998875e-05,2.7630115,1
859868000,859868000,0.4331656,1.8373826e-06,-0.15133661,2.6353662,0.00096561614,2.6238976,1
859964000,859964000,0.4331948,1.8388733e-06,-0.047340453,2.5161173,9.8967226e-05,2.5051355,1
860068000,860068000,0.43323183,1.8399699e-06,-0.12938243,2.3891332,0.00077851635,2.378631,1
860164000,860164000,0.43327132,1.8405203e-06,-0.22173518,2.2816658,0.0023942785,2.2716224,1
860268000,860268000,0.43332198,1.8405761e-06,-0.38556075,2.1675415,0.007620364,2.158163,1
860372000,860372000,0.43338993,1.8400691e-06,-0.28029975,2.0607703,0.0042361696,2.0516388,1
860468000,860468000,0.43346703,1.839048e-06,-0.124944836,1.9677652,0.000881497,1.9589396,1
860572000,860572000,0.43354273,1.8373709e-06,-0.28529802,1.8689564,0.0048390026,1.86057,1
860668000,860668000,0.4336134,1.8352699e-06,-0.20857051,1.786259,0.0027059442,1.7781578,1
860772000,860772000,0.43370193,1.8323838e-06,0.15869638,1.6968646,0.00164909,1.6896008,1
860868000,860868000,0.4337946,1.8291197e-06,-0.3440016,1.6202556,0.008115118,1.6128962,1
860972000,860972000,0.43390873,1.8249001e-06,-0.23999915,1.5428829,0.0041480493,1.5357494,1
861068000,861068000,0.4339847,1.8204436e-06,-0.29123095,1.4709029,0.0064069084,1.4640908,1
861172000,861172000,0.43410242,1.8150452e-06,-0.23390087,1.4013668,0.0043377983,1.3948133,1
861268000,861268000,0.4342137,1.8094689e-06,-0.38474953,1.3361685,0.012309842,1.3299766,1
861372000,861372000,0.43433794,1.8027629e-06,-0.25149682,1.2741233,0.0055158325,1.2680883,1
861468000,861468000,0.43444452,1.7959297e-06,0.34974974,1.2149404,0.011187095,1.210525,1
861572000,861572000,0.43460545,1.7878738e-06,-0.30047795,1.1580157,0.008662999,1.1524643,1
861668000,861668000,0.434757,1.7797469e-06,-0.19585997,1.1082517,0.0038460104,1.102909,1
861764000,861764000,0.43487033,1.7710115e-06,-0.36921865,1.056582,0.014335788,1.0514864,1
861868000,861868000,0.4350264,1.7607738e-06,-0.11838891,1.0077523,0.001545346,1.0028883,1
861964000,861964000,0.43516734,1.7510619e-06,-0.3225364,1.0009315,0.011548102,1.0,1
862068000,862068000,0.43531027,1.7407559e-06,-0.25149363,1.0009266,0.0070211655,1.0,1
862172000,862172000,0.43544158,1.7306708e-06,0.31096345,1.0009241,0.010734333,1.0,1
862268000,862268000,0.43558657,1.7215573e-06,-0.21854071,1.0009158,0.0053018164,1.0,1
862364000,862364000,0.43573642,1.7127296e-06,-1.0219746,1.0009079,0.11594274,1.0,1
862468000,862468000,0.43586373,1.7033667e-06,-0.39330095,1.0009055,0.017171742,1.0,1
862572000,862572000,0.4360065,1.6941652e-06,-0.11621332,1.0009046,0.001499259,1.0,1
862668000,862668000,0.43611145,1.685905e-06,-0.26511428,1.0008931,0.007802541,1.0,1
862772000,862772000,0.43624765,1.677242e-06,-0.2562819,1.0008862,0.007291363,1.0,1
862868000,862868000,0.43635455,1.6695124e-06,-0.23084795,1.000875,0.005916021,1.0,1
862964000,862964000,0.4364781,1.6620608e-06,-0.24867019,1.0008682,0.006864803,1.0,1
863068000,863068000,0.43664682,1.654168e-06,-1.0787653,1.0008624,0.12919243,1.0,1
863172000,863172000,0.43675843,1.646481e-06,-0.38696918,1.000858,0.016624087,1.0,1
863268000,863268000,0.43689612,1.6395189e-06,-0.16297506,1.0008576,0.002948679,1.0,1
863364000,863364000,0.43700376,1.6327338e-06,-0.29320168,1.0008504,0.009543798,1.0,1
863468000,863468000,0.43713036,1.6255242e-06,-0.14641324,1.0008491,0.00237985,1.0,1
863564000,863564000,0.4372483,1.6189659e-06,-0.26064706,1.0008484,0.007542144,1.0,1
863668000,863668000,0.43735456,1.6119941e-06,-0.16019481,1.0008409,0.0028489798,1.0,1
863772000,863772000,0.43748775,1.6052546e-06,-0.9062552,1.000835,0.09117925,1.0,1
863868000,863868000,0.43757504,1.599194e-06,-0.3012594,1.0008283,0.010075792,1.0,1
863964000,863964000,0.43769103,1.593328e-06,-0.13523443,1.0008259,0.0020303621,1.0,1
864068000,864068000,0.43779308,1.5871441e-06,-0.28820097,1.0008172,0.009221331,1.0,1
864164000,864164000,0.43790188,1.5815839e-06,-0.1216272,1.0008152,0.0016423473,1.0,1
864268000,864268000,0.4380118,1.5756933e-06,-0.20206633,1.0008097,0.0045330855,1.0,1
864364000,864364000,0.43811673,1.5704072e-06,-0.2296612,1.0008062,0.005855753,1.0,1
864468000,864468000,0.43822047,1.5647793e-06,-0.4274328,1.0008026,0.020283585,1.0,1
864564000,864564000,0.4383172,1.5597253e-06,-0.32197002,1.0007985,0.011509109,1.0,1
864668000,864668000,0.43843338,1.5543216e-06,-0.0592402,1.000802,0.00038962098,1.0,1
864764000,864764000,0.4385098,1.5493753e-06,-0.12778825,1.000801,0.0018129741,1.0,1
864868000,864868000,0.43858838,1.5440849e-06,-0.07341518,1.0007958,0.00059838925,1.0,1
864964000,864964000,0.43866965,1.5393836e-06,-0.2734821,1.0007913,0.008303703,1.0,1
865068000,865068000,0.43874896,1.5343587e-06,-0.14665417,1.0007902,0.0023878294,1.0,1
865164000,865164000,0.43880627,1.5297906e-06,0.38143516,1.0007904,0.016153097,1.0,1
865268000,865268000,0.43889904,1.5249226e-06,-0.12992412,1.0007846,0.0018741157,1.0,1
865372000,865372000,0.4389807,1.52023e-06,-0.045128115,1.0007818,0.0002261062,1.0,1
865468000,865468000,0.43902886,1.5160331e-06,-0.2411468,1.0007724,0.0064563225,1.0,1
865572000,865572000,0.43911213,1.5116584e-06,-0.11505795,1.000769,0.0014697956,1.0,1
865668000,865668000,0.43919346,1.5077104e-06,-0.15170461,1.0007657,0.0025551866,1.0,1
865764000,865764000,0.4392542,1.503886e-06,-0.15953878,1.0007601,0.0028259212,1.0,1
865868000,865868000,0.43931976,1.4998443e-06,0.4123327,1.0007589,0.018876594,1.0,1
865972000,865972000,0.4394158,1.4958888e-06,-0.28275767,1.0007558,0.008876836,1.0,1
866068000,866068000,0.4395111,1.4922684e-06,-0.044525467,1.0007591,0.0002201126,1.0,1
866164000,866164000,0.43955758,1.4886429e-06,-0.18056306,1.0007586,0.0036198113,1.0,1
866268000,866268000,0.4396254,1.4847753e-06,-0.062106147,1.0007566,0.00042825082,1.0,1
866364000,866364000,0.4396849,1.4812965e-06,-0.20976642,1.0007542,0.004885421,1.0,1
866468000,866468000,0.43975675,1.477578e-06,-0.16015518,1.0007516,0.0028478242,1.0,1
866572000,866572000,0.43979964,1.4739744e-06,0.49316064,1.000749,0.027002823,1.0,1
866668000,866668000,0.43987122,1.4707322e-06,-0.23309013,1.000744,0.006032291,1.0,1
866772000,866772000,0.43995324,1.4673133e-06,0.0038443804,1.0007443,1.6409188e-06,1.0,1
866868000,866868000,0.4399921,1.4642011e-06,-0.15516156,1.0007406,0.0026730322,1.0,1
866972000,866972000,0.44006398,1.4609051e-06,0.010922819,1.0007414,1.3246622e-05,1.0,1
867068000,867068000,0.44011924,1.4579006e-06,-0.122675866,1.0007381,0.0016709187,1.0,1
867172000,867172000,0.4401743,1.454746e-06,-0.07560141,1.000735,0.00063459715,1.0,1
867268000,867268000,0.44024912,1.4518828e-06,-0.31866053,1.0007366,0.011274422,1.0,1
867372000,867372000,0.4403014,1.4487515e-06,-0.08496607,1.0007378,0.0008015456,1.0,1
867468000,867468000,0.440373,1.4459102e-06,-0.9119385,1.0007339,0.09233577,1.0,1
867572000,867572000,0.44039607,1.442916e-06,-0.08947155,1.0007317,0.00088881166,1.0,1
867668000,867668000,0.44045064,1.4402139e-06,0.074362054,1.0007335,0.0006139625,1.0,1
867772000,867772000,0.44048727,1.4373171e-06,-0.061322197,1.000732,0.0004175179,1.0,1
867868000,867868000,0.4405248,1.4346756e-06,-0.014925145,1.0007284,2.473309e-05,1.0,1
867972000,867972000,0.4405768,1.4319314e-06,-0.0998856,1.0007253,0.001107767,1.0,1
868068000,868068000,0.44061494,1.4294558e-06,-0.12928669,1.0007219,0.0018558877,1.0,1
868164000,868164000,0.44064847,1.4270543e-06,-0.38562196,1.0007193,0.016510824,1.0,1
868268000,868268000,0.44069102,1.424501e-06,-0.049349703,1.0007175,0.00027040523,1.0,1
868372000,868372000,0.44074896,1.4220166e-06,0.001603283,1.0007182,2.8540794e-07,1.0,1
868468000,868468000,0.4407934,1.4197442e-06,-0.076838925,1.0007172,0.00065555435,1.0,1
868564000,868564000,0.44084063,1.4174894e-06,0.047870077,1.0007175,0.0002544335,1.0,1
868668000,868668000,0.44088206,1.4150955e-06,-0.14706595,1.0007163,0.0024014348,1.0,1
868764000,868764000,0.44090936,1.4128956e-06,-0.105382316,1.0007155,0.0012330547,1.0,1
868868000,868868000,0.44094163,1.4105622e-06,-0.29776242,1.0007125,0.00984437,1.0,1
868964000,868964000,0.44098544,1.408471e-06,-0.09876691,1.0007116,0.0010831073,1.0,1
869068000,869068000,0.44103512,1.406234e-06,0.08468033,1.0007129,0.00079618325,1.0,1
869164000,869164000,0.4410612,1.4042137e-06,-0.106015936,1.0007094,0.0012479345,1.0,1
869268000,869268000,0.44110742,1.4020495e-06,0.028997779,1.00071,9.336385e-05,1.0,1
869372000,869372000,0.44115004,1.3999207e-06,-0.10757883,1.0007093,0.0012850001,1.0,1
869468000,869468000,0.44116703,1.3979935e-06,-0.059078448,1.0007054,0.00038753363,1.0,1
869564000,869564000,0.44118986,1.3961384e-06,0.5056699,1.0007046,0.028391333,1.0,1
869668000,869668000,0.4412374,1.394163e-06,-0.10105403,1.0007023,0.0011338611,1.0,1
869764000,869764000,0.44129303,1.3923698e-06,0.05426068,1.0007037,0.00032690566,1.0,1
869868000,869868000,0.44130665,1.3904549e-06,-0.13849005,1.000701,0.0021295622,1.0,1
869964000,869964000,0.44135612,1.3886998e-06,-0.051770225,1.0007036,0.00029758574,1.0,1
870068000,870068000,0.44137505,1.386825e-06,-0.11380477,1.0007006,0.0014380509,1.0,1
870172000,870172000,0.44139698,1.3849983e-06,-0.12313813,1.0006986,0.0016836016,1.0,1
870268000,870268000,0.44141123,1.3833478e-06,0.5330922,1.0006987,0.03155432,1.0,1
870364000,870364000,0.44145384,1.3817269e-06,-0.07592567,1.0006968,0.00064007705,1.0,1
870468000,870468000,0.44149315,1.3800179e-06,0.040702946,1.0006958,0.00018395309,1.0,1
870564000,870564000,0.44150472,1.378472e-06,-0.07675812,1.0006938,0.0006541915,1.0,1
870668000,870668000,0.44154453,1.3768163e-06,0.045301847,1.0006955,0.00022787011,1.0,1
870764000,870764000,0.44155863,1.3753172e-06,-0.094156064,1.0006927,0.0009843587,1.0,1
870868000,870868000,0.44158354,1.3737301e-06,-0.04041651,1.0006908,0.00018137407,1.0,1
870964000,870964000,0.44160795,1.3723248e-06,-0.07489658,1.0006887,0.00062284863,1.0,1
871068000,871068000,0.44162846,1.3708382e-06,-0.0729076,1.0006872,0.0005902074,1.0,1
871164000,871164000,0.4416802,1.3694786e-06,-0.8457611,1.0006878,0.07942447,1.0,1
871268000,871268000,0.44168347,1.3680121e-06,-0.11663777,1.0006871,0.0015105586,1.0,1
871364000,871364000,0.44171482,1.366692e-06,0.023464113,1.0006878,6.1131796e-05,1.0,1
871468000,871468000,0.44173092,1.365295e-06,-0.047608763,1.0006864,0.00025167104,1.0,1
871564000,871564000,0.44175148,1.3640096e-06,-0.031642333,1.0006862,0.00011117229,1.0,1
871668000,871668000,0.4417819,1.362639e-06,-0.02880457,1.0006866,9.2126e-05,1.0,1
871772000,871772000,0.44179046,1.3612879e-06,-0.025263771,1.0006837,7.0869115e-05,1.0,1
871868000,871868000,0.4418267,1.3600935e-06,-0.7906774,1.0006808,0.06941616,1.0,1
871972000,871972000,0.44182757,1.3588443e-06,-0.0865683,1.0006791,0.0008321095,1.0,1
872068000,872068000,0.4418597,1.357723e-06,0.077583835,1.0006804,0.0006683509,1.0,1
872172000,872172000,0.4418884,1.356527e-06,-0.06213245,1.0006797,0.00042864657,1.0,1
872268000,872268000,0.44190148,1.3554255e-06,0.005427055,1.0006789,3.2703272e-06,1.0,1
872364000,872364000,0.441925,1.3543479e-06,-0.03414148,1.000679,0.00012942776,1.0,1
872468000,872468000,0.4419327,1.353202e-06,-0.07926066,1.0006762,0.0006975564,1.0,1
872564000,872564000,0.44194332,1.3521893e-06,-0.27507877,1.0006744,0.008401927,1.0,1
872668000,872668000,0.44196698,1.3511209e-06,-0.11186266,1.0006745,0.0013894245,1.0,1
872764000,872764000,0.4420012,1.3501219e-06,0.13998032,1.0006781,0.0021756901,1.0,1
872868000,872868000,0.4420059,1.349066e-06,-0.10280433,1.0006738,0.0011735128,1.0,1
872972000,872972000,0.4420278,1.3480405e-06,-0.02635286,1.0006728,7.711181e-05,1.0,1
873068000,873068000,0.44206375,1.3471167e-06,-0.118405715,1.0006729,0.0015567205,1.0,1
873172000,873172000,0.44208282,1.3461217e-06,-0.00080780685,1.0006716,7.2457105e-08,1.0,1
873268000,873268000,0.44209975,1.3452432e-06,-0.32145888,1.0006707,0.011474062,1.0,1
873372000,873372000,0.44212553,1.3442869e-06,-0.13841751,1.0006707,0.0021273964,1.0,1
873468000,873468000,0.44215858,1.3434109e-06,0.06844498,1.0006734,0.00052017363,1.0,1
873572000,873572000,0.4421627,1.3424866e-06,-0.08769459,1.0006697,0.0008539106,1.0,1
873668000,873668000,0.4421821,1.3416486e-06,0.06885831,1.0006703,0.00052647677,1.0,1
873764000,873764000,0.4421998,1.3408394e-06,-0.14340124,1.0006684,0.0022833531,1.0,1
873868000,873868000,0.4422213,1.3399736e-06,0.08002472,1.0006628,0.00071107934,1.0,1
873972000,873972000,0.44224125,1.3392194e-06,-0.26568863,1.0006618,0.007838195,1.0,1
874068000,874068000,0.4422813,1.3384862e-06,-0.10461813,1.000666,0.0012152966,1.0,1
874172000,874172000,0.44232312,1.337662e-06,0.051584065,1.0006692,0.00029545955,1.0,1
874268000,874268000,0.4423367,1.3369036e-06,-0.09449884,1.0006673,0.000991564,1.0,1
874372000,874372000,0.44236365,1.3360764e-06,-0.040429935,1.0006696,0.00018149843,1.0,1
874468000,874468000,0.44238204,1.3352926e-06,-0.06299912,1.0006707,0.00044069215,1.0,1
874564000,874564000,0.44238698,1.3345091e-06,-0.02773869,1.0006695,8.5435575e-05,1.0,1
874668000,874668000,0.44238666,1.3336808e-06,0.4688533,1.0006711,0.024408441,1.0,1
874772000,874772000,0.44239998,1.3328422e-06,0.020567916,1.0006689,4.697294e-05,1.0,1
874868000,874868000,0.44240814,1.3321112e-06,0.087389015,1.0006685,0.0008479709,1.0,1
874972000,874972000,0.44240814,1.3313401e-06,-0.03387531,1.0006665,0.00012741913,1.0,1
875068000,875068000,0.4424078,1.3306532e-06,0.06394401,1.0006654,0.00045401306,1.0,1
875172000,875172000,0.44240692,1.3299674e-06,0.04605135,1.0006617,0.00023548047,1.0,1
875268000,875268000,0.442394,1.3293816e-06,0.060403313,1.0006586,0.00040512873,1.0,1
875364000,875364000,0.44236472,1.328851e-06,-0.09817302,1.0006542,0.0010701824,1.0,1
875468000,875468000,0.44230276,1.3283765e-06,0.17151505,1.000647,0.0032664882,1.0,1
875572000,875572000,0.44221482,1.3280408e-06,0.42971015,1.0006415,0.020503603,1.0,1
875668000,875668000,0.44205996,1.3279167e-06,0.44570455,1.0006249,0.022058722,1.0,1
875764000,875764000,0.44189462,1.3280402e-06,0.5135335,1.0006108,0.029283963,1.0,1
875868000,875868000,0.441729,1.3283869e-06,-0.18639871,1.0005988,0.0038581877,1.0,1
875964000,875964000,0.44154495,1.328848e-06,0.45511585,1.000591,0.0230009,1.0,1
876068000,876068000,0.4413461,1.3294804e-06,0.67889136,1.000586,0.051180396,1.0,1
876164000,876164000,0.44113457,1.3301593e-06,0.5913408,1.0005784,0.03883131,1.0,1
876268000,876268000,0.44088846,1.3310064e-06,0.7109298,1.0005703,0.056125905,1.0,1
876364000,876364000,0.44066146,1.3318836e-06,0.7295755,1.0005666,0.059108783,1.0,1
876468000,876468000,0.44039193,1.3329176e-06,0.7265768,1.0005594,0.058624297,1.0,1
876572000,876572000,0.44014123,1.334022e-06,0.83250725,1.0005592,0.07696456,1.0,1
876668000,876668000,0.4398891,1.3350517e-06,0.77488863,1.000557,0.0666798,1.0,1
876764000,876764000,0.43963936,1.336079e-06,0.93213177,1.0005581,0.09648722,1.0,1
876868000,876868000,0.43936175,1.3371972e-06,0.7241656,1.0005568,0.058236,1.0,1
876964000,876964000,0.4391044,1.3381982e-06,0.8354878,1.0005587,0.07751667,1.0,1
877068000,877068000,0.43883428,1.3392604e-06,0.6788707,1.0005604,0.051178586,1.0,1
877164000,877164000,0.4385666,1.3401805e-06,0.8336258,1.000562,0.0771713,1.0,1
877268000,877268000,0.43829384,1.3411691e-06,0.7172076,1.0005627,0.057121944,1.0,1
877364000,877364000,0.43804574,1.3420405e-06,0.7484715,1.0005645,0.062210392,1.0,1
877468000,877468000,0.4377818,1.34294e-06,0.67686415,1.0005672,0.05087615,1.0,1
877572000,877572000,0.43750718,1.3437985e-06,0.78995574,1.0005693,0.06929722,1.0,1
877668000,877668000,0.43727574,1.3445517e-06,0.67773813,1.0005722,0.051007368,1.0,1
877764000,877764000,0.43703336,1.3452438e-06,0.7300669,1.0005741,0.059187982,1.0,1
877868000,877868000,0.43677554,1.3459476e-06,0.72615135,1.0005788,0.05855453,1.0,1
877964000,877964000,0.43653786,1.3465145e-06,0.74049705,1.0005819,0.060890783,1.0,1
878068000,878068000,0.43627706,1.3470843e-06,0.6939657,1.0005844,0.053478565,1.0,1
878172000,878172000,0.4359982,1.3476289e-06,0.71840733,1.0005844,0.057311963,1.0,1
878268000,878268000,0.43578416,1.3481039e-06,0.568831,1.0005889,0.03593092,1.0,1
878372000,878372000,0.43552616,1.3485234e-06,0.74293375,1.0005924,0.061291534,1.0,1
878468000,878468000,0.4353085,1.3488732e-06,0.58622146,1.0005957,0.038161222,1.0,1
878564000,878564000,0.43510568,1.3491598e-06,0.5385111,1.0005985,0.032202303,1.0,1
878668000,878668000,0.43500206,1.3493135e-06,0.07957816,1.0006143,0.0007031996,1.0,1
878772000,878772000,0.43496367,1.3491116e-06,0.03513813,1.0006363,0.00013710035,1.0,1
878868000,878868000,0.43498346,1.3485762e-06,-0.07822892,1.000658,0.0006795266,1.0,1
878964000,878964000,0.43500078,1.3477334e-06,0.0036201328,1.0006742,1.4551701e-06,1.0,1
879068000,879068000,0.43503,1.346568e-06,0.38049972,1.0006893,0.01607559,1.0,1
879164000,879164000,0.43508947,1.3453022e-06,-0.12284692,1.0006998,0.0016756458,1.0,1
879268000,879268000,0.43514836,1.3437617e-06,-0.40087265,1.0007081,0.017842798,1.0,1
879364000,879364000,0.43522087,1.3421989e-06,-0.1949834,1.0007174,0.004221252,1.0,1
879468000,879468000,0.43531978,1.3404025e-06,-0.92969865,1.0007232,0.09596833,1.0012188,1
879572000,879572000,0.43515724,1.3405411e-06,-0.026010692,1.0005815,7.512921e-05,1.0,1
879668000,879668000,0.435244,1.3412581e-06,-0.32549334,1.0005729,0.011765027,1.0,1
879772000,879772000,0.43548405,1.342249e-06,-0.88586,1.0009197,0.0871141,1.0002619,1
879868000,879868000,0.43580562,1.3425656e-06,-0.9516367,1.0048822,0.100134715,1.0039238,1
879964000,879964000,0.43611372,1.3423224e-06,-0.78503627,1.000647,0.068431504,1.0,1
880068000,880068000,0.43638837,1.3416839e-06,-0.63929015,1.0006671,0.045379937,1.0,1
880164000,880164000,0.43659982,1.3410038e-06,-0.5560719,1.0006626,0.034334578,1.0,1
880268000,880268000,0.4367859,1.3403007e-06,-0.5508235,1.0006639,0.033689473,1.0,1
880364000,880364000,0.43696332,1.3397702e-06,-0.59915245,1.0006533,0.039861035,1.0,1
880468000,880468000,0.4371667,1.3391594e-06,-0.5784777,1.0006642,0.037157144,1.0,1
880572000,880572000,0.4374099,1.3379e-06,-0.4833281,1.000717,0.02593763,1.0,1
880668000,880668000,0.43750978,1.3359893e-06,-0.14633355,1.0007545,0.002377485,1.0,1
880772000,880772000,0.4375353,1.3335039e-06,0.1337837,1.0007597,0.0019871655,1.0,1
880868000,880868000,0.4374983,1.3315092e-06,-0.04931128,1.0007403,0.0002699782,1.0,1
880972000,880972000,0.43754545,1.3297084e-06,-0.74702644,1.0007191,0.061960835,1.0,1
881068000,881068000,0.4376234,1.3281514e-06,-0.31394175,1.0007252,0.010943111,1.0,1
881164000,881164000,0.43772647,1.326659e-06,-0.22305232,1.0007162,0.005524081,1.0,1
881268000,881268000,0.43781415,1.3251704e-06,-0.33013323,1.0007144,0.012101127,1.0,1
881364000,881364000,0.43789387,1.3238699e-06,-0.19378152,1.0007062,0.0041694203,1.0,1
881468000,881468000,0.4379921,1.32257e-06,-0.33640888,1.0007055,0.012565684,1.0,1
881564000,881564000,0.43807378,1.3214405e-06,-0.20797512,1.0006973,0.0048026126,1.0,1
881668000,881668000,0.43818784,1.3203019e-06,-0.9869436,1.0006967,0.10815329,1.0,1
881764000,881764000,0.43827796,1.3192844e-06,-0.31401095,1.0006931,0.010948286,1.0,1
881868000,881868000,0.43840557,1.318192e-06,-0.32829887,1.0006983,0.011967215,1.0,1
881964000,881964000,0.4385166,1.3171954e-06,-0.37392232,1.0006937,0.015524553,1.0,1
882068000,882068000,0.438634,1.3161209e-06,-0.35641187,1.000696,0.014104564,1.0,1
882172000,882172000,0.4387515,1.3150944e-06,0.17590679,1.000688,0.0034357698,1.0,1
882268000,882268000,0.43888673,1.3141462e-06,-0.36298648,1.0006943,0.014629752,1.0,1
882364000,882364000,0.4390252,1.3132446e-06,-0.17413157,1.0006902,0.0033667656,1.0,1
882468000,882468000,0.43916032,1.3122676e-06,-0.4672187,1.0006943,0.024237985,1.0,1
882572000,882572000,0.43931273,1.3112682e-06,-0.31721467,1.0006884,0.0111728795,1.0,1
882668000,882668000,0.43945357,1.3103128e-06,-0.47344944,1.0007021,0.024888566,1.0,1
882772000,882772000,0.43958446,1.309144e-06,-0.27555048,1.000697,0.008430576,1.0,1
882868000,882868000,0.43969306,1.3081267e-06,-0.56639874,1.0007001,0.035620347,1.0,1
882972000,882972000,0.4398158,1.3071067e-06,-0.32290214,1.0006896,0.011577104,1.0,1
883068000,883068000,0.43994078,1.3061925e-06,-0.25844294,1.0006996,0.0074162274,1.0,1
883172000,883172000,0.44005895,1.3052343e-06,-0.30445018,1.00069,0.010291778,1.0,1
883268000,883268000,0.44016922,1.3043448e-06,-0.33185616,1.0006968,0.012227981,1.0,1
883372000,883372000,0.44027707,1.303434e-06,0.33982456,1.0006887,0.012822362,1.0,1
883468000,883468000,0.44040373,1.3025864e-06,-0.35629869,1.000695,0.014095621,1.0,1
883564000,883564000,0.44051862,1.3017994e-06,-0.85550964,1.0006849,0.08126621,1.0,1
883668000,883668000,0.44062707,1.3009522e-06,-0.41820037,1.000693,0.019418936,1.0,1
883764000,883764000,0.44074532,1.3001836e-06,-0.22948605,1.0006864,0.005847525,1.0,1
883868000,883868000,0.4408455,1.2993614e-06,-0.35686,1.0006912,0.014140123,1.0,1
883964000,883964000,0.4409394,1.2986799e-06,-0.22055155,1.0006789,0.0054011093,1.0,1
884068000,884068000,0.44104815,1.2979502e-06,0.15236953,1.0006889,0.0025778322,1.0,1
884164000,884164000,0.44116682,1.2973078e-06,-0.31516817,1.0006777,0.0110293,1.0,1
884268000,884268000,0.44129604,1.2965812e-06,-0.21627834,1.000691,0.0051937797,1.0,1
884364000,884364000,0.44138354,1.2959475e-06,-0.30981684,1.000677,0.0106579475,1.0,1
884468000,884468000,0.44148767,1.2952532e-06,-0.23489688,1.0006878,0.0061265132,1.0,1
884564000,884564000,0.4415776,1.2946681e-06,-0.27152553,1.0006759,0.008186257,1.0,1
884668000,884668000,0.4416783,1.2940037e-06,-0.31329882,1.0006859,0.010898764,1.0,1
884764000,884764000,0.44177112,1.2934356e-06,-0.22963582,1.000675,0.0058552264,1.0,1
884868000,884868000,0.44186676,1.292812e-06,-0.30284682,1.0006838,0.010183725,1.0,1
884964000,884964000,0.44195917,1.2922983e-06,-0.79811966,1.0006707,0.07072979,1.0,1
885068000,885068000,0.44203907,1.291741e-06,-0.36075068,1.0006813,0.014450273,1.0,1
885164000,885164000,0.4421258,1.2912479e-06,-0.1194351,1.0006721,0.0015839069,1.0,1
885268000,885268000,0.44221732,1.2906995e-06,-0.29667848,1.0006812,0.009773134,1.0,1
885364000,885364000,0.44229013,1.290233e-06,-0.13647175,1.0006695,0.0020680088,1.0,1
885468000,885468000,0.44238257,1.2897349e-06,-0.3574279,1.0006785,0.014185341,1.0,1
885564000,885564000,0.44244203,1.2893289e-06,-0.17635725,1.0006651,0.0034534677,1.0,1
885668000,885668000,0.44253427,1.2889205e-06,-0.8880902,1.000672,0.08757495,1.0,1
885772000,885772000,0.44260344,1.2885635e-06,-0.2602436,1.0006651,0.0075201914,1.0,1
885868000,885868000,0.44268465,1.2882209e-06,-0.13453132,1.0006723,0.002009613,1.0,1
885972000,885972000,0.44277123,1.2878874e-06,-0.25146884,1.0006653,0.007021615,1.0,1
886068000,886068000,0.4428541,1.2875411e-06,-0.23948671,1.0006728,0.006368369,1.0,1
886164000,886164000,0.44293326,1.2872227e-06,-0.2374758,1.0006629,0.0062619327,1.0,1
886268000,886268000,0.44300961,1.2868423e-06,-0.2914951,1.0006722,0.009434702,1.0,1
886364000,886364000,0.44306555,1.2865376e-06,-0.32545537,1.0006591,0.0117612695,1.0,1
886468000,886468000,0.4431378,1.2862153e-06,-0.31661737,1.0006685,0.011131065,1.0,1
886564000,886564000,0.4432068,1.2859588e-06,0.020197049,1.0006597,4.5294648e-05,1.0,1
886668000,886668000,0.44327107,1.2856829e-06,-0.29087436,1.0006663,0.009394617,1.0,1
886772000,886772000,0.44333926,1.2854542e-06,-0.09625167,1.0006596,0.0010286974,1.0,1
886868000,886868000,0.44341102,1.2852397e-06,-0.26486242,1.0006648,0.0077894996,1.0,1
886972000,886972000,0.4434841,1.2850335e-06,-0.070569456,1.0006591,0.00055297423,1.0,1
887068000,887068000,0.44354472,1.284834e-06,-0.43736106,1.0006616,0.021239802,1.0,1
887164000,887164000,0.44361287,1.2846765e-06,-0.19163361,1.0006526,0.004077722,1.0,1
887268000,887268000,0.44369188,1.284484e-06,-0.14519198,1.0006641,0.0023407468,1.0,1
887364000,887364000,0.4437518,1.2843335e-06,-0.18782423,1.000653,0.0039172135,1.0,1
887468000,887468000,0.44382307,1.2841498e-06,-0.13972962,1.0006616,0.0021679397,1.0,1
887564000,887564000,0.44387567,1.284052e-06,-0.20372061,1.0006486,0.004608354,1.0,1
887668000,887668000,0.44394866,1.2839241e-06,-0.1723917,1.0006597,0.0032999227,1.0,1
887764000,887764000,0.4439991,1.283825e-06,0.2938339,1.0006503,0.009586918,1.0,1
887868000,887868000,0.4440689,1.2836898e-06,-0.19599584,1.0006592,0.0042654513,1.0,1
887972000,887972000,0.44414294,1.2835682e-06,0.02313158,1.0006565,5.9413218e-05,1.0,1
888068000,888068000,0.44418508,1.2834489e-06,-0.24923852,1.0006584,0.0068976637,1.0,1
888172000,888172000,0.44424045,1.2833648e-06,-0.082266,1.0006528,0.0007514756,1.0,1
888268000,888268000,0.44430232,1.2832735e-06,-0.25142825,1.0006577,0.0070194015,1.0,1
888364000,888364000,0.44434386,1.2832213e-06,-0.063048266,1.0006458,0.000441391,1.0,1
888468000,888468000,0.44439065,1.2831705e-06,0.24048997,1.000655,0.0064219516,1.0,1
888564000,888564000,0.44445112,1.2831478e-06,-0.10692117,1.0006443,0.0012694196,1.0,1
888668000,888668000,0.4445226,1.2830988e-06,-0.085096374,1.0006573,0.00080407073,1.0,1
888764000,888764000,0.4445562,1.2830798e-06,-0.15995099,1.0006443,0.0028408715,1.0,1
888868000,888868000,0.444615,1.2831148e-06,-0.09272657,1.0006477,0.00095473917,1.0,1
888964000,888964000,0.44467506,1.2831589e-06,-0.21542534,1.000645,0.0051531293,1.0,1
889068000,889068000,0.4447244,1.2831849e-06,-0.114758894,1.0006467,0.0014623436,1.0,1
889164000,889164000,0.44478598,1.2832382e-06,-0.16145207,1.0006442,0.002894443,1.0,1
889268000,889268000,0.44484168,1.2832897e-06,-0.21332285,1.0006453,0.005053032,1.0,1
889364000,889364000,0.4449059,1.2833756e-06,-0.810653,1.0006399,0.07297089,1.0,1
889468000,889468000,0.44495833,1.2834724e-06,-0.18493594,1.000644,0.0037976992,1.0,1
889572000,889572000,0.4450301,1.2835512e-06,-0.103998415,1.0006402,0.0012009724,1.0,1
889668000,889668000,0.44507724,1.2836358e-06,-0.26969677,1.0006433,0.008076621,1.0,1
889772000,889772000,0.44513425,1.2837423e-06,-0.102123186,1.0006373,0.0011580558,1.0,1
889868000,889868000,0.44519737,1.2838351e-06,-0.22205445,1.0006441,0.0054751607,1.0,1
889964000,889964000,0.44525313,1.2839077e-06,-0.15921384,1.0006422,0.0028147532,1.0,1
890068000,890068000,0.4453288,1.2839771e-06,-0.77354586,1.0006449,0.066443056,1.0,1
890172000,890172000,0.4453727,1.2840434e-06,-0.20147593,1.0006394,0.0045074015,1.0,1
890268000,890268000,0.44543403,1.2840916e-06,-0.053486094,1.0006465,0.0003176571,1.0,1
890364000,890364000,0.44547993,1.2841698e-06,-0.20105368,1.0006411,0.0044885203,1.0,1
890468000,890468000,0.4455358,1.2842452e-06,-0.0380051,1.0006437,0.00016038425,1.0,1
890572000,890572000,0.4455983,1.2843574e-06,-0.122896045,1.0006378,0.0016770902,1.0,1
890668000,890668000,0.44565105,1.2844373e-06,-0.16551763,1.0006435,0.0030420518,1.0,1
890772000,890772000,0.44572034,1.2845356e-06,-0.75139445,1.0006373,0.06269267,1.0,1
890868000,890868000,0.44575655,1.2846106e-06,-0.1959968,1.0006429,0.004265563,1.0,1
890964000,890964000,0.44581562,1.2847029e-06,-0.012958825,1.0006415,1.8647053e-05,1.0,1
891068000,891068000,0.44585532,1.28482e-06,-0.18694901,1.0006415,0.0038808363,1.0,1
891172000,891172000,0.44591066,1.2849357e-06,-0.077863276,1.0006368,0.00067320344,1.0,1
891268000,891268000,0.44596753,1.2850271e-06,-0.20485428,1.000643,0.0046598124,1.0,1
891364000,891364000,0.44601476,1.2851189e-06,-0.117505796,1.0006402,0.0015331977,1.0,1
891468000,891468000,0.44606194,1.2852166e-06,-0.38525882,1.0006409,0.016481033,1.0,1
891572000,891572000,0.44610798,1.2853277e-06,-0.1802572,1.0006359,0.0036080012,1.0,1
891668000,891668000,0.44617742,1.2854014e-06,-0.06492956,1.000646,0.00046812513,1.0,1
891764000,891764000,0.44621745,1.2854595e-06,-0.17140049,1.0006421,0.003262142,1.0,1
891868000,891868000,0.44625953,1.2855222e-06,-0.096992664,1.0006441,0.0010446135,1.0,1
891972000,891972000,0.44630125,1.285621e-06,-0.13837583,1.0006369,0.0021261869,1.0,1
892068000,892068000,0.4463474,1.2857026e-06,-0.16979596,1.0006425,0.0032013506,1.0,1
892172000,892172000,0.44638878,1.2858063e-06,-0.2956534,1.0006349,0.009706163,1.0,1
892268000,892268000,0.44643247,1.2859035e-06,-0.13270405,1.0006404,0.001955455,1.0,1
892364000,892364000,0.44647685,1.2860396e-06,0.023785293,1.0006379,6.281995e-05,1.0,1
892468000,892468000,0.44651103,1.2862063e-06,-0.07770794,1.000638,0.0006705193,1.0,1
892572000,892572000,0.44655442,1.2863827e-06,-0.05590035,1.000632,0.00034698614,1.0,1
892668000,892668000,0.44660598,1.2865416e-06,-0.21222752,1.0006378,0.0050013126,1.0,1
892772000,892772000,0.44665536,1.2867158e-06,-0.17485982,1.000632,0.0033951825,1.0,1
892868000,892868000,0.44668803,1.286867e-06,0.3280115,1.0006369,0.011947008,1.0,1
892964000,892964000,0.44673923,1.2870559e-06,-0.1527968,1.000632,0.0025924572,1.0,1
893068000,893068000,0.4468001,1.2872674e-06,-0.024726532,1.0006372,6.789023e-05,1.0,1
893164000,893164000,0.44683793,1.2874532e-06,-0.09334237,1.0006335,0.0009674759,1.0,1
893268000,893268000,0.4468749,1.2876397e-06,-0.09788319,1.000636,0.001063892,1.0,1
893364000,893364000,0.4469218,1.2878082e-06,-0.081379294,1.0006348,0.00073537644,1.0,1
893468000,893468000,0.44695553,1.2879844e-06,-0.08997088,1.0006357,0.0008988462,1.0,1
893564000,893564000,0.44699803,1.2881725e-06,-0.13484171,1.0006328,0.0020189765,1.0,1
893668000,893668000,0.447046,1.2883562e-06,-0.15922116,1.0006367,0.0028150273,1.0,1
893764000,893764000,0.4471068,1.2885067e-06,-0.75101465,1.0006348,0.06262947,1.0,1
893868000,893868000,0.4471289,1.2886545e-06,-0.16579454,1.0006369,0.0030522589,1.0,1
893972000,893972000,0.44717813,1.2888136e-06,-0.0474654,1.0006325,0.0002501711,1.0,1
894068000,894068000,0.44721133,1.2889587e-06,-0.15510981,1.0006367,0.002671527,1.0,1
894164000,894164000,0.4472472,1.2891186e-06,-0.11563623,1.0006338,0.0014848075,1.0,1
894268000,894268000,0.44729513,1.2892816e-06,-0.14994057,1.0006368,0.0024964295,1.0,1
894364000,894364000,0.44733298,1.289447e-06,-0.15577525,1.0006326,0.0026945097,1.0,1
894468000,894468000,0.4473987,1.2896179e-06,-0.7371254,1.0006357,0.06033429,1.0,1
894572000,894572000,0.44742462,1.2897926e-06,-0.12114929,1.0006299,0.0016297678,1.0,1
894668000,894668000,0.44747064,1.2899457e-06,-0.080541626,1.0006372,0.00072031363,1.0,1
894764000,894764000,0.4475113,1.2900929e-06,-0.14804205,1.0006346,0.002433617,1.0,1
894868000,894868000,0.4475412,1.2902445e-06,-0.1302398,1.0006355,0.0018835148,1.0,1
894964000,894964000,0.44757995,1.2904187e-06,-0.1453561,1.0006326,0.0023461157,1.0,1
895068000,895068000,0.4476161,1.290592e-06,-0.111005485,1.0006353,0.0013682662,1.0,1
895164000,895164000,0.4476572,1.2907545e-06,-0.37705946,1.000632,0.015787115,1.0,1
895268000,895268000,0.44769657,1.2909004e-06,-0.122849174,1.0006368,0.0016758126,1.0,1
895372000,895372000,0.44774836,1.2910382e-06,-0.054126024,1.0006338,0.00032530786,1.0,1
895468000,895468000,0.44778162,1.2911528e-06,-0.14097671,1.0006374,0.0022068638,1.0,1
895564000,895564000,0.44781396,1.291297e-06,-0.03136169,1.000633,0.00010921483,1.0,1
895668000,895668000,0.44784498,1.2914916e-06,-0.18500668,1.0006324,0.003800649,1.0,1
895764000,895764000,0.4478697,1.2917158e-06,-0.13466667,1.0006268,0.0020137501,1.0,1
895868000,895868000,0.44790864,1.2919709e-06,-0.28039175,1.0006292,0.00873001,1.0,1
895964000,895964000,0.44795856,1.2921707e-06,-0.1616514,1.0006299,0.0029016363,1.0,1
896068000,896068000,0.44794136,1.3027518e-06,-0.2992127,18.1835,0.00054706633,18.11499,1
896164000,896164000,0.4479147,1.3124692e-06,3.3303068,18.429277,0.066867895,18.377745,1
896268000,896268000,0.4478666,1.3230143e-06,4.804457,17.827934,0.14386168,17.807318,1
896372000,896372000,0.4478159,1.3335832e-06,5.113838,17.315279,0.16781159,17.297714,1
896468000,896468000,0.44776675,1.3433609e-06,4.9990215,16.912136,0.16418332,16.885878,1
896564000,896564000,0.44772473,1.3532499e-06,6.961918,17.16249,0.313787,17.18311,1
896668000,896668000,0.44768152,1.3639855e-06,7.883692,17.418186,0.3964732,17.454762,1
896772000,896772000,0.44763872,1.3747209e-06,7.4320593,17.473782,0.35122782,17.476803,1
896868000,896868000,0.44759908,1.3846294e-06,6.889028,17.343903,0.3040371,17.31998,1
896964000,896964000,0.44755846,1.3945369e-06,6.919492,17.093546,0.31122446,17.062952,1
897068000,897068000,0.44751307,1.4052682e-06,7.716779,16.72622,0.39557773,16.70949,1
897164000,897164000,0.44746992,1.4151719e-06,7.5342484,16.33574,0.3860989,16.308546,1
897172000,0,nan,nan,nan,nan,nan,nan,0
