timestamp,time_utc_usec,lat,lon,alt,alt_ellipsoid,s_variance_m_s,c_variance_rad,eph,epv,hdop,vdop,noise_per_ms,jamming_indicator,vel_m_s,vel_n_m_s,vel_e_m_s,vel_d_m_s,cog_rad,timestamp_time_relative,heading,heading_offset,fix_type,jamming_state,vel_ned_valid,satellites_used,selected
829220000,1694470180863612,416066999,-863556155,229273,229273,0.25,0.5,1.0,1.0,0.0,0.0,0,0,0.0,0.0,0.02,0.02,1.4343116,0,nan,nan,3,0,1,10,0
829428000,1694470181071612,416066999,-863556155,229264,229264,0.25,0.5,1.0,1.0,0.0,0.0,0,0,0.0,0.0,0.0,0.0,1.4580481,0,nan,nan,3,0,1,10,0
829792000,1694470181435612,416066999,-863556156,229267,229267,0.25,0.5,1.0,1.0,0.0,0.0,0,0,0.0,0.0,0.01,-0.049999997,1.1643091,0,nan,nan,3,0,1,10,0
830000000,1694470181643612,416067000,-863556156,229267,229267,0.25,0.5,1.0,1.0,0.0,0.0,0,0,0.0,0.0,0.01,0.0,1.1972958,0,nan,nan,3,0,1,10,0
830208000,1694470181851611,416067000,-863556156,229267,229267,0.25,0.5,1.0,1.0,0.0,0.0,0,0,0.0,0.0,-0.01,0.03,4.195597,0,nan,nan,3,0,1,10,0
830416000,1694470182059612,416067000,-863556156,229272,229272,0.25,0.5,1.0,1.0,0.0,0.0,0,0,0.0,0.0,-0.02,0.01,4.5638614,0,nan,nan,3,0,1,10,0
830624000,1694470182267612,416066999,-863556155,229270,229270,0.25,0.5,1.0,1.0,0.0,0.0,0,0,0.0,0.0,0.0,0.0,2.5005333,0,nan,nan,3,0,1,10,0
831000000,1694470182647611,416067000,-863556156,229267,229267,0.25,0.5,1.0,1.0,0.0,0.0,0,0,0.0,0.0,0.0,-0.01,1.6430529,0,nan,nan,3,0,1,10,0
831404000,1694470183051612,416067000,-863556156,229262,229262,0.25,0.5,1.0,1.0,0.0,0.0,0,0,0.0,0.0,0.0,0.01,4.780108,0,nan,nan,3,0,1,10,0
831612000,1694470183259611,416066999,-863556156,229266,229266,0.25,0.5,1.0,1.0,0.0,0.0,0,0,0.0,0.0,0.0,-0.01,3.510206,0,nan,nan,3,0,1,10,0
831820000,1694470183467612,416066999,-863556156,229273,229273,0.25,0.5,1.0,1.0,0.0,0.0,0,0,0.0,0.01,-0.01,0.0,5.565506,0,nan,nan,3,0,1,10,0
832028000,1694470183675612,416066999,-863556156,229269,229269,0.25,0.5,1.0,1.0,0.0,0.0,0,0,0.0,0.0,0.0,0.03,4.6715484,0,nan,nan,3,0,1,10,0
832392000,1694470184039611,416067000,-863556156,229265,229265,0.25,0.5,1.0,1.0,0.0,0.0,0,0,0.0,0.01,0.0,0.01,6.04966,0,nan,nan,3,0,1,10,0
832600000,1694470184247612,416067000,-863556156,229272,229272,0.25,0.5,1.0,1.0,0.0,0.0,0,0,0.0,0.01,0.0,0.049999997,0.1977458,0,nan,nan,3,0,1,10,0
832808000,1694470184455612,416066999,-863556156,229280,229280,0.25,0.5,1.0,1.0,0.0,0.0,0,0,0.0,0.0,0.01,0.0,2.0961404,0,nan,nan,3,0,1,10,0
833016000,1694470184663612,416066999,-863556156,229274,229274,0.25,0.5,1.0,1.0,0.0,0.0,0,0,0.0,0.0,-0.01,0.01,5.1841516,0,nan,nan,3,0,1,10,0
833224000,1694470184871611,416066999,-863556156,229271,229271,0.25,0.5,1.0,1.0,0.0,0.0,0,0,0.0,0.0,0.0,-0.02,2.73336,0,nan,nan,3,0,1,10,0
833600000,1694470185243612,416067000,-863556156,229272,229272,0.25,0.5,1.0,1.0,0.0,0.0,0,0,0.0,0.03,0.0,-0.04,6.153158,0,nan,nan,3,0,1,10,0
834004000,1694470185647611,416067000,-863556156,229271,229271,0.25,0.5,1.0,1.0,0.0,0.0,0,0,0.0,-0.01,0.0,0.02,3.2128022,0,nan,nan,3,0,1,10,0
834212000,1694470185855612,416066999,-863556155,229273,229273,0.25,0.5,1.0,1.0,0.0,0.0,0,0,0.0,0.02,0.01,-0.02,0.6517059,0,nan,nan,3,0,1,10,0
834420000,1694470186063612,416066999,-863556155,229272,229272,0.25,0.5,1.0,1.0,0.0,0.0,0,0,0.0,0.0,0.0,0.02,6.2247167,0,nan,nan,3,0,1,10,0
834628000,1694470186271612,416067000,-863556155,229272,229272,0.25,0.5,1.0,1.0,0.0,0.0,0,0,0.0,0.0,0.0,0.04,5.4197707,0,nan,nan,3,0,1,10,0
834992000,1694470186635612,416067000,-863556155,229266,229266,0.25,0.5,1.0,1.0,0.0,0.0,0,0,0.0,0.01,0.02,-0.02,1.1102039,0,nan,nan,3,0,1,10,0
835200000,1694470186843612,416067000,-863556155,229260,229260,0.25,0.5,1.0,1.0,0.0,0.0,0,0,0.0,0.0,0.0,0.0,1.6020377,0,nan,nan,3,0,1,10,0
835408000,1694470187051612,416066999,-863556155,229267,229267,0.25,0.5,1.0,1.0,0.0,0.0,0,0,0.0,-0.02,-0.01,0.0,3.565533,0,nan,nan,3,0,1,10,0
835616000,1694470187259611,416066999,-863556156,229266,229266,0.25,0.5,1.0,1.0,0.0,0.0,0,0,0.0,0.0,0.0,0.0,1.7191494,0,nan,nan,3,0,1,10,0
835824000,1694470187467612,416067000,-863556156,229271,229271,0.25,0.5,1.0,1.0,0.0,0.0,0,0,0.0,0.0,0.0,-0.02,4.20188,0,nan,nan,3,0,1,10,0
836200000,1694470187847612,416067000,-863556155,229264,229264,0.25,0.5,1.0,1.0,0.0,0.0,0,0,0.0,-0.01,-0.02,-0.04,4.2081633,0,nan,nan,3,0,1,10,0
836604000,1694470188251612,416066999,-863556156,229268,229268,0.25,0.5,1.0,1.0,0.0,0.0,0,0,0.0,0.0,-0.01,0.0,4.2990947,0,nan,nan,3,0,1,10,0
836812000,1694470188459612,416066999,-863556156,229269,229269,0.25,0.5,1.0,1.0,0.0,0.0,0,0,0.0,0.0,0.01,0.049999997,1.7217673,0,nan,nan,3,0,1,10,0
837020000,1694470188667611,416067000,-863556156,229275,229275,0.25,0.5,1.0,1.0,0.0,0.0,0,0,0.0,0.01,0.0,0.0,5.7253776,0,nan,nan,3,0,1,10,0
837228000,1694470188871611,416066999,-863556156,229283,229283,0.25,0.5,1.0,1.0,0.0,0.0,0,0,0.02,-0.02,0.01,-0.07,2.7422612,0,nan,nan,3,0,1,10,0
837592000,1694470189239611,416066998,-863556157,229419,229419,0.25,0.5,1.0,1.0,0.0,0.0,0,0,0.049999997,-0.04,-0.049999997,-0.77,4.027347,0,nan,nan,3,0,1,10,0
837800000,1694470189447612,416066997,-863556157,229625,229625,0.25,0.5,1.0,1.0,0.0,0.0,0,0,0.049999997,-0.04,-0.049999997,-1.17,4.053004,0,nan,nan,3,0,1,10,0
838008000,1694470189655612,416066996,-863556157,229917,229917,0.25,0.5,1.0,1.0,0.0,0.0,0,0,0.049999997,-0.049999997,-0.01,-1.56,3.4531338,0,nan,nan,3,0,1,10,0
838216000,1694470189863612,416066996,-863556158,230244,230244,0.25,0.5,1.0,1.0,0.0,0.0,0,0,0.04,-0.049999997,-0.01,-1.42,3.3108895,0,nan,nan,3,0,1,10,0
838424000,1694470190071612,416066995,-863556159,230507,230507,0.25,0.5,1.0,1.0,0.0,0.0,0,0,0.03,-0.03,0.0,-1.1999999,3.0257027,0,nan,nan,3,0,1,10,0
838800000,1694470190443611,416066994,-863556160,230873,230873,0.25,0.5,1.0,1.0,0.0,0.0,0,0,0.02,-0.03,0.0,-0.82,3.1450832,0,nan,nan,3,0,1,10,0
839204000,1694470190847612,416066993,-863556160,231139,231139,0.25,0.5,1.0,1.0,0.0,0.0,0,0,0.02,-0.02,0.0,-0.51,3.083124,0,nan,nan,3,0,1,10,0
839412000,1694470191055611,416066992,-863556159,231231,231231,0.25,0.5,1.0,1.0,0.0,0.0,0,0,0.02,-0.02,0.03,-0.38,2.1034708,0,nan,nan,3,0,1,10,0
839620000,1694470191267612,416066991,-863556159,231316,231316,0.25,0.5,1.0,1.0,0.0,0.0,0,0,0.03,-0.03,0.0,-0.34,2.8516934,0,nan,nan,3,0,1,10,0
839828000,1694470191475612,416066991,-863556159,231384,231384,0.25,0.5,1.0,1.0,0.0,0.0,0,0,0.03,-0.01,0.01,-0.28,2.322335,0,nan,nan,3,0,1,10,0
840192000,1694470191835611,416066991,-863556157,231462,231462,0.25,0.5,1.0,1.0,0.0,0.0,0,0,0.03,-0.01,0.01,-0.19,2.5436428,0,nan,nan,3,0,1,10,0
840400000,1694470192043612,416066990,-863556157,231499,231499,0.25,0.5,1.0,1.0,0.0,0.0,0,0,0.02,0.0,0.02,-0.099999994,1.828756,0,nan,nan,3,0,1,10,0
840608000,1694470192251612,416066990,-863556156,231499,231499,0.25,0.5,1.0,1.0,0.0,0.0,0,0,0.03,-0.01,0.01,0.12,2.6042056,0,nan,nan,3,0,1,10,0
840816000,1694470192459612,416066990,-863556155,231467,231467,0.25,0.5,1.0,1.0,0.0,0.0,0,0,0.03,-0.04,0.02,0.08,2.6241024,0,nan,nan,3,0,1,10,0
841024000,1694470192667611,416066989,-863556154,231460,231460,0.25,0.5,1.0,1.0,0.0,0.0,0,0,0.049999997,-0.03,0.06,-0.03,2.131047,0,nan,nan,3,0,1,10,0
841400000,1694470193047612,416066989,-863556149,231484,231484,0.25,0.5,1.0,1.0,0.0,0.0,0,0,0.22,0.03,0.22999999,-0.25,1.4433873,0,nan,nan,3,0,1,10,0
841804000,1694470193451612,416066990,-863556128,231630,231630,0.25,0.5,1.0,1.0,0.0,0.0,0,0,0.68,0.089999996,0.65999997,-0.44,1.4227923,0,nan,nan,3,0,1,10,0
842012000,1694470193655612,416066992,-863556107,231730,231730,0.25,0.5,1.0,1.0,0.0,0.0,0,0,0.98999995,0.11,0.97999996,-0.52,1.4508921,0,nan,nan,3,0,1,10,0
842220000,1694470193863612,416066994,-863556079,231851,231851,0.25,0.5,1.0,1.0,0.0,0.0,0,0,1.31,0.14,1.31,-0.64,1.4582225,0,nan,nan,3,0,1,10,0
842428000,1694470194071612,416066997,-863556042,231991,231991,0.25,0.5,1.0,1.0,0.0,0.0,0,0,1.61,0.14999999,1.61,-0.64,1.4777702,0,nan,nan,3,0,1,10,0
842792000,1694470194439612,416067003,-863555961,232227,232227,0.25,0.5,1.0,1.0,0.0,0.0,0,0,2.02,0.13,2.01,-0.66999996,1.5020303,0,nan,nan,3,0,1,10,0
843000000,1694470194647611,416067005,-863555908,232362,232362,0.25,0.5,1.0,1.0,0.0,0.0,0,0,2.19,0.12,2.2,-0.65999997,1.5119786,0,nan,nan,3,0,1,10,0
843208000,1694470194855612,416067008,-863555851,232511,232511,0.25,0.5,1.0,1.0,0.0,0.0,0,0,2.31,0.099999994,2.33,-0.61,1.5259414,0,nan,nan,3,0,1,10,0
843416000,1694470195063612,416067009,-863555792,232646,232646,0.25,0.5,1.0,1.0,0.0,0.0,0,0,2.3999999,0.07,2.3899999,-0.64,1.5409513,0,nan,nan,3,0,1,10,0
843624000,1694470195271612,416067010,-863555731,232790,232790,0.25,0.5,1.0,1.0,0.0,0.0,0,0,2.45,0.04,2.46,-0.68,1.5538666,0,nan,nan,3,0,1,10,0
844000000,1694470195643612,416067010,-863555619,233042,233042,0.25,0.5,1.0,1.0,0.0,0.0,0,0,2.52,-0.06,2.52,-0.68,1.5961035,0,nan,nan,3,0,1,10,0
844404000,1694470196051612,416067007,-863555493,233295,233295,0.25,0.5,1.0,1.0,0.0,0.0,0,0,2.54,-0.099999994,2.53,-0.66999996,1.6126842,0,nan,nan,3,0,1,10,0
844612000,1694470196259611,416067005,-863555430,233418,233418,0.25,0.5,1.0,1.0,0.0,0.0,0,0,2.54,-0.08,2.52,-0.62,1.6048301,0,nan,nan,3,0,1,10,0
844820000,1694470196467612,416067003,-863555367,233537,233537,0.25,0.5,1.0,1.0,0.0,0.0,0,0,2.54,-0.08,2.53,-0.58,1.6043066,0,nan,nan,3,0,1,10,0
845028000,1694470196675612,416067001,-863555303,233661,233661,0.25,0.5,1.0,1.0,0.0,0.0,0,0,2.53,-0.08,2.53,-0.58,1.6057029,0,nan,nan,3,0,1,10,0
845392000,1694470197035611,416066998,-863555193,233868,233868,0.25,0.5,1.0,1.0,0.0,0.0,0,0,2.53,-0.12,2.53,-0.64,1.6187929,0,nan,nan,3,0,1,10,0
845600000,1694470197243612,416066995,-863555130,234006,234006,0.25,0.5,1.0,1.0,0.0,0.0,0,0,2.53,-0.13,2.52,-0.65,1.6240288,0,nan,nan,3,0,1,10,0
845812000,1694470197451612,416066993,-863555066,234140,234140,0.25,0.5,1.0,1.0,0.0,0.0,0,0,2.53,-0.11,2.54,-0.69,1.6158257,0,nan,nan,3,0,1,10,0
846012000,1694470197659612,416066991,-863555002,234262,234262,0.25,0.5,1.0,1.0,0.0,0.0,0,0,2.53,-0.13,2.52,-0.61,1.6221089,0,nan,nan,3,0,1,10,0
846224000,1694470197867612,416066989,-863554939,234397,234397,0.25,0.5,1.0,1.0,0.0,0.0,0,0,2.52,-0.089999996,2.5,-0.64,1.6084954,0,nan,nan,3,0,1,10,0
846604000,1694470198247612,416066986,-863554824,234644,234644,0.25,0.5,1.0,1.0,0.0,0.0,0,0,2.49,-0.08,2.48,-0.65999997,1.6048301,0,nan,nan,3,0,1,10,0
847004000,1694470198647611,416066984,-863554704,234923,234923,0.25,0.5,1.0,1.0,0.0,0.0,0,0,2.48,-0.08,2.45,-0.7,1.6036085,0,nan,nan,3,0,1,10,0
847212000,1694470198855612,416066983,-863554642,235066,235066,0.25,0.5,1.0,1.0,0.0,0.0,0,0,2.47,-0.049999997,2.48,-0.64,1.5922638,0,nan,nan,3,0,1,10,0
847420000,1694470199063612,416066982,-863554580,235214,235214,0.25,0.5,1.0,1.0,0.0,0.0,0,0,2.47,-0.03,2.46,-0.61,1.5847589,0,nan,nan,3,0,1,10,0
847628000,1694470199271612,416066981,-863554518,235343,235343,0.25,0.5,1.0,1.0,0.0,0.0,0,0,2.47,-0.02,2.47,-0.7,1.5826646,0,nan,nan,3,0,1,10,0
847992000,1694470199639612,416066981,-863554408,235608,235608,0.25,0.5,1.0,1.0,0.0,0.0,0,0,2.47,-0.01,2.48,-0.71999997,1.574985,0,nan,nan,3,0,1,10,0
848200000,1694470199847612,416066982,-863554346,235757,235757,0.25,0.5,1.0,1.0,0.0,0.0,0,0,2.48,-0.02,2.47,-0.7,1.5803956,0,nan,nan,3,0,1,10,0
848408000,1694470200055611,416066981,-863554284,235908,235908,0.25,0.5,1.0,1.0,0.0,0.0,0,0,2.48,-0.03,2.48,-0.71999997,1.582839,0,nan,nan,3,0,1,10,0
848616000,1694470200263612,416066981,-863554222,236064,236064,0.25,0.5,1.0,1.0,0.0,0.0,0,0,2.48,0.0,2.48,-0.75,1.5681783,0,nan,nan,3,0,1,10,0
848824000,1694470200471612,416066982,-863554159,236238,236238,0.25,0.5,1.0,1.0,0.0,0.0,0,0,2.48,0.01,2.48,-0.72999996,1.5660839,0,nan,nan,3,0,1,10,0
849200000,1694470200843612,416066982,-863554047,236514,236514,0.25,0.5,1.0,1.0,0.0,0.0,0,0,2.5,0.01,2.5,-0.78,1.5666075,0,nan,nan,3,0,1,10,0
849604000,1694470201251612,416066983,-863553924,236820,236820,0.25,0.5,1.0,1.0,0.0,0.0,0,0,2.49,0.0,2.5,-0.75,1.5704472,0,nan,nan,3,0,1,10,0
849812000,1694470201459612,416066982,-863553862,236976,236976,0.25,0.5,1.0,1.0,0.0,0.0,0,0,2.47,0.0,2.47,-0.75,1.5714945,0,nan,nan,3,0,1,10,0
850020000,1694470201667611,416066982,-863553800,237136,237136,0.25,0.5,1.0,1.0,0.0,0.0,0,0,2.46,-0.01,2.46,-0.71999997,1.5770795,0,nan,nan,3,0,1,10,0
850228000,1694470201871611,416066982,-863553740,237291,237291,0.25,0.5,1.0,1.0,0.0,0.0,0,0,2.47,0.0,2.47,-0.72999996,1.5680038,0,nan,nan,3,0,1,10,0
850592000,1694470202235612,416066982,-863553630,237558,237558,0.25,0.5,1.0,1.0,0.0,0.0,0,0,2.4199998,-0.01,2.4199998,-0.65999997,1.5751597,0,nan,nan,3,0,1,10,0
850800000,1694470202443611,416066982,-863553572,237650,237650,0.25,0.5,1.0,1.0,0.0,0.0,0,0,2.25,0.0,2.25,-0.28,1.5748105,0,nan,nan,3,0,1,10,0
851008000,1694470202651612,416066981,-863553519,237679,237679,0.25,0.5,1.0,1.0,0.0,0.0,0,0,1.93,-0.04,1.9499999,0.0,1.5912167,0,nan,nan,3,0,1,10,0
851216000,1694470202859612,416066980,-863553476,237664,237664,0.25,0.5,1.0,1.0,0.0,0.0,0,0,1.48,-0.099999994,1.48,0.17999999,1.6397368,0,nan,nan,3,0,1,10,0
851424000,1694470203067612,416066978,-863553445,237605,237605,0.25,0.5,1.0,1.0,0.0,0.0,0,0,0.96,-0.14999999,0.97999996,0.39999998,1.7299702,0,nan,nan,3,0,1,10,0
851800000,1694470203447612,416066972,-863553425,237394,237394,0.25,0.5,1.0,1.0,0.0,0.0,0,0,0.22,-0.22999999,-0.01,0.69,3.2042499,0,nan,nan,3,0,1,10,0
852204000,1694470203847612,416066963,-863553446,237120,237120,0.25,0.5,1.0,1.0,0.0,0.0,0,0,0.84999996,-0.26999998,-0.82,0.65999997,4.3961353,0,nan,nan,3,0,1,10,0
852412000,1694470204055611,416066958,-863553470,236992,236992,0.25,0.5,1.0,1.0,0.0,0.0,0,0,1.1,-0.25,-1.06,0.53,4.47834,0,nan,nan,3,0,1,10,0
852620000,1694470204267612,416066954,-863553500,236874,236874,0.25,0.5,1.0,1.0,0.0,0.0,0,0,1.23,-0.22,-1.2099999,0.55,4.5317473,0,nan,nan,3,0,1,10,0
852828000,1694470204475612,416066950,-863553531,236764,236764,0.25,0.5,1.0,1.0,0.0,0.0,0,0,1.25,-0.14,-1.26,0.62,4.600862,0,nan,nan,3,0,1,10,0
853192000,1694470204839612,416066947,-863553582,236532,236532,0.25,0.5,1.0,1.0,0.0,0.0,0,0,1.06,0.01,-1.0699999,0.63,4.728097,0,nan,nan,3,0,1,10,0
853400000,1694470205047612,416066948,-863553608,236393,236393,0.25,0.5,1.0,1.0,0.0,0.0,0,0,0.91999996,0.099999994,-0.9,0.57,4.824788,0,nan,nan,3,0,1,10,0
853608000,1694470205255612,416066951,-863553629,236267,236267,0.25,0.5,1.0,1.0,0.0,0.0,0,0,0.83,0.17,-0.79999995,0.56,4.922701,0,nan,nan,3,0,1,10,0
853816000,1694470205463611,416066955,-863553648,236155,236155,0.25,0.5,1.0,1.0,0.0,0.0,0,0,0.77,0.22999999,-0.72999996,0.59,5.022534,0,nan,nan,3,0,1,10,0
854024000,1694470205671612,416066959,-863553666,236019,236019,0.25,0.5,1.0,1.0,0.0,0.0,0,0,0.69,0.25,-0.64,0.64,5.0850167,0,nan,nan,3,0,1,10,0
854400000,1694470206043612,416066968,-863553691,235763,235763,0.25,0.5,1.0,1.0,0.0,0.0,0,0,0.52,0.26999998,-0.45,0.71,5.262691,0,nan,nan,3,0,1,10,0
854804000,1694470206451612,416066977,-863553708,235488,235488,0.25,0.5,1.0,1.0,0.0,0.0,0,0,0.34,0.22999999,-0.24,0.64,5.4733524,0,nan,nan,3,0,1,10,0
855012000,1694470206655612,416066981,-863553713,235344,235344,0.25,0.5,1.0,1.0,0.0,0.0,0,0,0.26999998,0.19,-0.17,0.64,5.5377545,0,nan,nan,3,0,1,10,0
855220000,1694470206863612,416066985,-863553717,235211,235211,0.25,0.5,1.0,1.0,0.0,0.0,0,0,0.19999999,0.16,-0.099999994,0.65,5.718571,0,nan,nan,3,0,1,10,0
855428000,1694470207071612,416066988,-863553719,235066,235066,0.25,0.5,1.0,1.0,0.0,0.0,0,0,0.14999999,0.14,-0.02,0.64,6.101496,0,nan,nan,3,0,1,10,0
855792000,1694470207435612,416066992,-863553718,234822,234822,0.25,0.5,1.0,1.0,0.0,0.0,0,0,0.099999994,0.089999996,0.049999997,0.65,0.5030039,0,nan,nan,3,0,1,10,0
855996000,1694470207643612,416066994,-863553706,235060,235060,0.25,0.5,1.0,1.0,0.0,0.0,0,0,1.3399999,0.13,1.3399999,-2.97,1.4667747,0,nan,nan,3,0,1,10,0
856208000,1694470207851611,416066998,-863553644,235796,235796,0.25,0.5,1.0,1.0,0.0,0.0,0,0,3.3999999,0.25,3.3799999,-3.5,1.495049,0,nan,nan,3,0,1,10,0
856416000,1694470208059612,416067004,-863553538,236523,236523,0.25,0.5,1.0,1.0,0.0,0.0,0,0,4.96,0.41,4.92,-3.5,1.4875441,0,nan,nan,3,0,1,10,0
856624000,1694470208267612,416067012,-863553401,237258,237258,0.25,0.5,1.0,1.0,0.0,0.0,0,0,5.8399997,0.45,5.83,-3.6599998,1.4929546,0,nan,nan,3,0,1,10,0
857000000,1694470208647611,416067025,-863553117,238670,238670,0.25,0.5,1.0,1.0,0.0,0.0,0,0,6.46,0.24,6.45,-3.6499999,1.5327481,0,nan,nan,3,0,1,10,0
857404000,1694470209051612,416067030,-863552805,240054,240054,0.25,0.5,1.0,1.0,0.0,0.0,0,0,6.0699997,0.03,6.08,-2.9199998,1.5648621,0,nan,nan,3,0,1,10,0
857612000,1694470209259611,416067029,-863552661,240577,240577,0.25,0.5,1.0,1.0,0.0,0.0,0,0,5.39,-0.07,5.39,-2.18,1.5844098,0,nan,nan,3,0,1,10,0
857820000,1694470209467612,416067027,-863552535,240943,240943,0.25,0.5,1.0,1.0,0.0,0.0,0,0,4.62,-0.12,4.6,-1.5,1.5976744,0,nan,nan,3,0,1,10,0
858032000,1694470209675612,416067024,-863552429,241203,241203,0.25,0.5,1.0,1.0,0.0,0.0,0,0,3.87,-0.22999999,3.87,-0.98999995,1.6318828,0,nan,nan,3,0,1,10,0
858392000,1694470210039611,416067014,-863552284,241472,241472,0.25,0.5,1.0,1.0,0.0,0.0,0,0,2.79,-0.38,2.77,-0.53,1.7083282,0,nan,nan,3,0,1,10,0
858600000,1694470210247612,416067006,-863552221,241554,241554,0.25,0.5,1.0,1.0,0.0,0.0,0,0,2.3,-0.38,2.28,-0.35999998,1.739395,0,nan,nan,3,0,1,10,0
858808000,1694470210455612,416066999,-863552170,241618,241618,0.25,0.5,1.0,1.0,0.0,0.0,0,0,1.9,-0.44,1.8199999,-0.29,1.8123498,0,nan,nan,3,0,1,10,0
859016000,1694470210663612,416066991,-863552128,241684,241684,0.25,0.5,1.0,1.0,0.0,0.0,0,0,1.52,-0.41,1.4699999,-0.22999999,1.8442894,0,nan,nan,3,0,1,10,0
859224000,1694470210871611,416066984,-863552100,241698,241698,0.25,0.5,1.0,1.0,0.0,0.0,0,0,0.91999996,-0.34,0.84,0.01,1.9572122,0,nan,nan,3,0,1,10,0
859596000,1694470211243612,416066975,-863552089,241655,241655,0.25,0.5,1.0,1.0,0.0,0.0,0,0,0.29,-0.17999999,-0.21,0.13,4.0006437,0,nan,nan,3,0,1,10,0
860004000,1694470211647611,416066969,-863552110,241635,241635,0.25,0.5,1.0,1.0,0.0,0.0,0,0,0.58,-0.099999994,-0.57,0.01,4.5231953,0,nan,nan,3,0,1,10,0
860212000,1694470211855612,416066968,-863552124,241628,241628,0.25,0.5,1.0,1.0,0.0,0.0,0,0,0.59,-0.07,-0.57,-0.01,4.590041,0,nan,nan,3,0,1,10,0
860420000,1694470212063612,416066967,-863552139,241637,241637,0.25,0.5,1.0,1.0,0.0,0.0,0,0,0.53999996,-0.01,-0.55,-0.03,4.6846385,0,nan,nan,3,0,1,10,0
860628000,1694470212271612,416066967,-863552151,241652,241652,0.25,0.5,1.0,1.0,0.0,0.0,0,0,0.45999998,0.01,-0.44,0.0,4.7565455,0,nan,nan,3,0,1,10,0
860992000,1694470212635612,416066970,-863552168,241671,241671,0.25,0.5,1.0,1.0,0.0,0.0,0,0,0.31,0.099999994,-0.29,-0.16,5.045747,0,nan,nan,3,0,1,10,0
861200000,1694470212843612,416066972,-863552174,241692,241692,0.25,0.5,1.0,1.0,0.0,0.0,0,0,0.24,0.13,-0.21,-0.06,5.2883477,0,nan,nan,3,0,1,10,0
861408000,1694470213051612,416066975,-863552178,241723,241723,0.25,0.5,1.0,1.0,0.0,0.0,0,0,0.19,0.16,-0.12,-0.099999994,5.6339226,0,nan,nan,3,0,1,10,0
861616000,1694470213259611,416066977,-863552181,241752,241752,0.25,0.5,1.0,1.0,0.0,0.0,0,0,0.16,0.14,-0.04,-0.06,5.9767056,0,nan,nan,3,0,1,10,0
861824000,1694470213467612,416066980,-863552182,241770,241770,0.25,0.5,1.0,1.0,0.0,0.0,0,0,0.14999999,0.16,0.0,-0.08,6.2611938,0,nan,nan,3,0,1,10,0
862200000,1694470213847612,416066986,-863552181,241806,241806,0.25,0.5,1.0,1.0,0.0,0.0,0,0,0.14,0.13,0.049999997,-0.07,0.37891096,0,nan,nan,3,0,1,10,0
862604000,1694470214251612,416066990,-863552178,241843,241843,0.25,0.5,1.0,1.0,0.0,0.0,0,0,0.12,0.099999994,0.07,-0.089999996,0.6072001,0,nan,nan,3,0,1,10,0
862812000,1694470214459612,416066993,-863552176,241860,241860,0.25,0.5,1.0,1.0,0.0,0.0,0,0,0.11,0.07,0.06,-0.12,0.7326892,0,nan,nan,3,0,1,10,0
863016000,1694470214667611,416066993,-863552175,241890,241890,0.25,0.5,1.0,1.0,0.0,0.0,0,0,0.089999996,0.06,0.08,-0.07,0.87388635,0,nan,nan,3,0,1,10,0
863228000,1694470214871611,416066995,-863552173,241906,241906,0.25,0.5,1.0,1.0,0.0,0.0,0,0,0.08,0.04,0.06,-0.06,0.9670869,0,nan,nan,3,0,1,10,0
863592000,1694470215239611,416066995,-863552169,241947,241947,0.25,0.5,1.0,1.0,0.0,0.0,0,0,0.06,0.049999997,0.06,-0.07,0.84543747,0,nan,nan,3,0,1,10,0
863800000,1694470215447612,416066996,-863552168,241960,241960,0.25,0.5,1.0,1.0,0.0,0.0,0,0,0.06,0.0,0.06,-0.089999996,1.6313592,0,nan,nan,3,0,1,10,0
864008000,1694470215655612,416066996,-863552167,241973,241973,0.25,0.5,1.0,1.0,0.0,0.0,0,0,0.049999997,0.03,0.03,-0.06,0.8162905,0,nan,nan,3,0,1,10,0
864216000,1694470215863612,416066997,-863552166,241990,241990,0.25,0.5,1.0,1.0,0.0,0.0,0,0,0.04,0.03,0.03,-0.06,0.86236715,0,nan,nan,3,0,1,10,0
864424000,1694470216071612,416066997,-863552165,242000,242000,0.25,0.5,1.0,1.0,0.0,0.0,0,0,0.03,0.0,0.01,-0.03,1.4781193,0,nan,nan,3,0,1,10,0
864800000,1694470216443611,416066998,-863552164,242009,242009,0.25,0.5,1.0,1.0,0.0,0.0,0,0,0.02,0.01,0.01,-0.02,0.7244861,0,nan,nan,3,0,1,10,0
865204000,1694470216847612,416066999,-863552164,242018,242018,0.25,0.5,1.0,1.0,0.0,0.0,0,0,0.02,0.01,0.01,-0.01,0.8578293,0,nan,nan,3,0,1,10,0
865412000,1694470217051612,416066999,-863552163,242019,242019,0.25,0.5,1.0,1.0,0.0,0.0,0,0,0.02,0.0,0.01,-0.04,0.90687305,0,nan,nan,3,0,1,10,0
865620000,1694470217267612,416066999,-863552162,242016,242016,0.25,0.5,1.0,1.0,0.0,0.0,0,0,0.02,0.02,0.01,-0.03,0.4766494,0,nan,nan,3,0,1,10,0
865828000,1694470217475612,416067000,-863552162,242028,242028,0.25,0.5,1.0,1.0,0.0,0.0,0,0,0.02,0.03,0.01,0.0,0.35098568,0,nan,nan,3,0,1,10,0
866192000,1694470217835611,416067000,-863552161,242025,242025,0.25,0.5,1.0,1.0,0.0,0.0,0,0,0.02,0.02,0.0,0.03,0.27262044,0,nan,nan,3,0,1,10,0
866400000,1694470218043612,416067000,-863552161,242020,242020,0.25,0.5,1.0,1.0,0.0,0.0,0,0,0.02,0.0,0.0,0.02,1.3231341,0,nan,nan,3,0,1,10,0
866608000,1694470218251612,416067000,-863552160,242011,242011,0.25,0.5,1.0,1.0,0.0,0.0,0,0,0.02,0.01,0.01,0.03,0.8370599,0,nan,nan,3,0,1,10,0
866816000,1694470218459612,416067001,-863552160,242005,242005,0.25,0.5,1.0,1.0,0.0,0.0,0,0,0.01,0.0,0.01,0.03,1.9156733,0,nan,nan,3,0,1,10,0
867024000,1694470218667611,416067001,-863552159,241991,241991,0.25,0.5,1.0,1.0,0.0,0.0,0,0,0.01,-0.02,0.03,0.0,2.1619391,0,nan,nan,3,0,1,10,0
867400000,1694470219047612,416067001,-863552159,241959,241959,0.25,0.5,1.0,1.0,0.0,0.0,0,0,0.01,0.0,0.0,0.04,2.8352873,0,nan,nan,3,0,1,10,0
867804000,1694470219451612,416067000,-863552158,241930,241930,0.25,0.5,1.0,1.0,0.0,0.0,0,0,0.0,-0.02,-0.01,0.02,3.6229544,0,nan,nan,3,0,1,10,0
868012000,1694470219655612,416067000,-863552158,241924,241924,0.25,0.5,1.0,1.0,0.0,0.0,0,0,0.0,0.0,-0.01,0.06,5.0933943,0,nan,nan,3,0,1,10,0
868220000,1694470219863612,416067000,-863552158,241914,241914,0.25,0.5,1.0,1.0,0.0,0.0,0,0,0.0,0.0,0.02,0.06,1.7880898,0,nan,nan,3,0,1,10,0
868424000,1694470220071612,416067000,-863552158,241897,241897,0.25,0.5,1.0,1.0,0.0,0.0,0,0,0.01,-0.02,0.0,0.07,3.2909927,0,nan,nan,3,0,1,10,0
868792000,1694470220439612,416066999,-863552160,241870,241870,0.25,0.5,1.0,1.0,0.0,0.0,0,0,0.02,-0.01,-0.01,0.04,3.8931313,0,nan,nan,3,0,1,10,0
869000000,1694470220647611,416066999,-863552160,241852,241852,0.25,0.5,1.0,1.0,0.0,0.0,0,0,0.02,-0.02,-0.01,0.08,3.485946,0,nan,nan,3,0,1,10,0
869208000,1694470220855612,416066999,-863552160,241842,241842,0.25,0.5,1.0,1.0,0.0,0.0,0,0,0.03,-0.02,-0.03,0.089999996,4.08407,0,nan,nan,3,0,1,10,0
869416000,1694470221063612,416066999,-863552161,241819,241819,0.25,0.5,1.0,1.0,0.0,0.0,0,0,0.03,-0.03,0.0,0.049999997,3.1695178,0,nan,nan,3,0,1,10,0
869624000,1694470221271612,416066998,-863552162,241793,241793,0.25,0.5,1.0,1.0,0.0,0.0,0,0,0.03,-0.01,0.0,0.07,3.585779,0,nan,nan,3,0,1,10,0
870000000,1694470221643612,416066998,-863552163,241770,241770,0.25,0.5,1.0,1.0,0.0,0.0,0,0,0.03,-0.01,-0.04,0.08,4.4450045,0,nan,nan,3,0,1,10,0
870404000,1694470222051612,416066997,-863552165,241741,241741,0.25,0.5,1.0,1.0,0.0,0.0,0,0,0.04,0.0,-0.049999997,0.07,4.585503,0,nan,nan,3,0,1,10,0
870612000,1694470222259611,416066997,-863552167,241737,241737,0.25,0.5,1.0,1.0,0.0,0.0,0,0,0.04,-0.01,-0.04,0.089999996,4.4251075,0,nan,nan,3,0,1,10,0
870820000,1694470222467612,416066997,-863552167,241721,241721,0.25,0.5,1.0,1.0,0.0,0.0,0,0,0.04,-0.01,-0.03,0.02,4.335223,0,nan,nan,3,0,1,10,0
871024000,1694470222675612,416066997,-863552168,241708,241708,0.25,0.5,1.0,1.0,0.0,0.0,0,0,0.04,0.01,-0.04,0.08,4.9624944,0,nan,nan,3,0,1,10,0
871392000,1694470223035611,416066996,-863552170,241688,241688,0.25,0.5,1.0,1.0,0.0,0.0,0,0,0.03,-0.02,0.0,0.089999996,3.4667473,0,nan,nan,3,0,1,10,0
871600000,1694470223243612,416066996,-863552170,241675,241675,0.25,0.5,1.0,1.0,0.0,0.0,0,0,0.03,-0.01,-0.02,0.049999997,4.045673,0,nan,nan,3,0,1,10,0
871808000,1694470223451612,416066995,-863552171,241660,241660,0.25,0.5,1.0,1.0,0.0,0.0,0,0,0.03,-0.04,-0.02,0.0,3.6498325,0,nan,nan,3,0,1,10,0
872016000,1694470223659612,416066995,-863552172,241657,241657,0.25,0.5,1.0,1.0,0.0,0.0,0,0,0.03,-0.04,-0.01,0.02,3.5627403,0,nan,nan,3,0,1,10,0
872224000,1694470223867612,416066994,-863552172,241639,241639,0.25,0.5,1.0,1.0,0.0,0.0,0,0,0.03,-0.03,0.0,0.049999997,2.9047513,0,nan,nan,3,0,1,10,0
872596000,1694470224243612,416066994,-863552171,241618,241618,0.25,0.5,1.0,1.0,0.0,0.0,0,0,0.02,-0.02,0.0,0.06,2.997603,0,nan,nan,3,0,1,10,0
873004000,1694470224647611,416066992,-863552172,241608,241608,0.25,0.5,1.0,1.0,0.0,0.0,0,0,0.02,0.0,0.0,0.0,2.16543,0,nan,nan,3,0,1,10,0
873212000,1694470224855612,416066992,-863552171,241609,241609,0.25,0.5,1.0,1.0,0.0,0.0,0,0,0.02,-0.02,0.01,0.03,2.772979,0,nan,nan,3,0,1,10,0
873420000,1694470225063612,416066992,-863552171,241595,241595,0.25,0.5,1.0,1.0,0.0,0.0,0,0,0.02,0.0,0.0,0.02,3.7231362,0,nan,nan,3,0,1,10,0
873628000,1694470225271612,416066992,-863552170,241587,241587,0.25,0.5,1.0,1.0,0.0,0.0,0,0,0.03,-0.02,0.02,0.02,2.3977332,0,nan,nan,3,0,1,10,0
873992000,1694470225639612,416066991,-863552170,241574,241574,0.25,0.5,1.0,1.0,0.0,0.0,0,0,0.03,-0.01,0.04,0.04,1.9797269,0,nan,nan,3,0,1,10,0
874200000,1694470225839612,416066990,-863552169,241569,241569,0.25,0.5,1.0,1.0,0.0,0.0,0,0,0.03,-0.01,0.0,0.08,3.0075512,0,nan,nan,3,0,1,10,0
874408000,1694470226055611,416066990,-863552168,241556,241556,0.25,0.5,1.0,1.0,0.0,0.0,0,0,0.04,-0.04,0.0,0.0,3.099181,0,nan,nan,3,0,1,10,0
874620000,1694470226263612,416066989,-863552168,241550,241550,0.25,0.5,1.0,1.0,0.0,0.0,0,0,0.049999997,-0.03,-0.01,0.049999997,3.597647,0,nan,nan,3,0,1,10,0
874824000,1694470226471612,416066987,-863552168,241537,241537,0.25,0.5,1.0,1.0,0.0,0.0,0,0,0.049999997,-0.01,0.02,0.0,2.1436133,0,nan,nan,3,0,1,10,0
875200000,1694470226843612,416066987,-863552166,241536,241536,0.25,0.5,1.0,1.0,0.0,0.0,0,0,0.07,0.02,0.04,0.0,1.0882127,0,nan,nan,3,0,1,10,0
875604000,1694470227251612,416066992,-863552161,241552,241552,0.25,0.5,1.0,1.0,0.0,0.0,0,0,0.35,0.32,0.12,-0.07,0.35814157,0,nan,nan,3,0,1,10,0
875812000,1694470227451612,416067001,-863552158,241563,241563,0.25,0.5,1.0,1.0,0.0,0.0,0,0,0.62,0.61,0.13,-0.14999999,0.2206096,0,nan,nan,3,0,1,10,0
876016000,1694470227667611,416067017,-863552155,241596,241596,0.25,0.5,1.0,1.0,0.0,0.0,0,0,1.0,0.97999996,0.14,-0.089999996,0.14468779,0,nan,nan,3,0,1,10,0
876228000,1694470227871611,416067039,-863552150,241621,241621,0.25,0.5,1.0,1.0,0.0,0.0,0,0,1.35,1.3399999,0.14,-0.14999999,0.10733775,0,nan,nan,3,0,1,10,0
876592000,1694470228235612,416067091,-863552144,241663,241663,0.25,0.5,1.0,1.0,0.0,0.0,0,0,1.8499999,1.8399999,0.14999999,-0.11,0.083775796,0,nan,nan,3,0,1,10,0
876800000,1694470228443611,416067128,-863552140,241688,241688,0.25,0.5,1.0,1.0,0.0,0.0,0,0,2.06,2.07,0.17,-0.089999996,0.08325221,0,nan,nan,3,0,1,10,0
877008000,1694470228651612,416067168,-863552137,241709,241709,0.25,0.5,1.0,1.0,0.0,0.0,0,0,2.22,2.22,0.14999999,-0.07,0.067718774,0,nan,nan,3,0,1,10,0
877216000,1694470228859612,416067211,-863552133,241737,241737,0.25,0.5,1.0,1.0,0.0,0.0,0,0,2.34,2.34,0.14999999,-0.099999994,0.06702064,0,nan,nan,3,0,1,10,0
877424000,1694470229067612,416067256,-863552129,241746,241746,0.25,0.5,1.0,1.0,0.0,0.0,0,0,2.4199998,2.4199998,0.17999999,-0.08,0.07731808,0,nan,nan,3,0,1,10,0
877804000,1694470229447612,416067341,-863552120,241759,241759,0.25,0.5,1.0,1.0,0.0,0.0,0,0,2.51,2.49,0.19,0.0,0.07644542,0,nan,nan,3,0,1,10,0
878204000,1694470229847612,416067432,-863552111,241768,241768,0.25,0.5,1.0,1.0,0.0,0.0,0,0,2.55,2.54,0.22,-0.04,0.08674286,0,nan,nan,3,0,1,10,0
878412000,1694470230055611,416067480,-863552105,241776,241776,0.25,0.5,1.0,1.0,0.0,0.0,0,0,2.56,2.56,0.19,-0.01,0.07644542,0,nan,nan,3,0,1,10,0
878620000,1694470230267612,416067529,-863552100,241775,241775,0.25,0.5,1.0,1.0,0.0,0.0,0,0,2.58,2.57,0.21,-0.04,0.08395033,0,nan,nan,3,0,1,10,0
878828000,1694470230475612,416067577,-863552094,241768,241768,0.25,0.5,1.0,1.0,0.0,0.0,0,0,2.49,2.48,0.19999999,0.02,0.082205005,0,nan,nan,3,0,1,10,0
879192000,1694470230839612,416067651,-863552086,241739,241739,0.25,0.5,1.0,1.0,0.0,0.0,0,0,1.9799999,1.9799999,0.19,0.13,0.099483766,0,nan,nan,3,0,1,10,0
879400000,1694470231047612,416067684,-863552081,241702,241702,0.25,0.5,1.0,1.0,0.0,0.0,0,0,1.61,1.5999999,0.17999999,0.14999999,0.11623892,0,nan,nan,3,0,1,10,0
879608000,1694470231255612,416067711,-863552077,241670,241670,0.25,0.5,1.0,1.0,0.0,0.0,0,0,1.25,1.25,0.14,0.099999994,0.11746066,0,nan,nan,3,0,1,10,0
879812000,1694470231463611,416067733,-863552073,241633,241633,0.25,0.5,1.0,1.0,0.0,0.0,0,0,1.09,1.0799999,0.13,0.28,0.1277581,0,nan,nan,3,0,1,10,0
880024000,1694470231671612,416067752,-863552069,241514,241514,0.25,0.5,1.0,1.0,0.0,0.0,0,0,0.96999997,0.96,0.11,0.62,0.12025318,0,nan,nan,3,0,1,10,0
880400000,1694470232043612,416067776,-863552063,241236,241236,0.25,0.5,1.0,1.0,0.0,0.0,0,0,0.42999998,0.39999998,0.08,0.89,0.21554816,0,nan,nan,3,0,1,10,0
880804000,1694470232451612,416067780,-863552060,240827,240827,0.25,0.5,1.0,1.0,0.0,0.0,0,0,0.16,-0.14999999,0.08,1.1,2.6352725,0,nan,nan,3,0,1,10,0
881012000,1694470232655612,416067775,-863552058,240614,240614,0.25,0.5,1.0,1.0,0.0,0.0,0,0,0.29999998,-0.32999998,0.049999997,0.91999996,2.979975,0,nan,nan,3,0,1,10,0
881220000,1694470232863612,416067769,-863552057,240428,240428,0.25,0.5,1.0,1.0,0.0,0.0,0,0,0.35,-0.35999998,0.04,0.83,3.0199432,0,nan,nan,3,0,1,10,0
881428000,1694470233071612,416067763,-863552056,240256,240256,0.25,0.5,1.0,1.0,0.0,0.0,0,0,0.35,-0.34,0.0,0.81,3.1133182,0,nan,nan,3,0,1,10,0
881792000,1694470233435612,416067750,-863552056,239943,239943,0.25,0.5,1.0,1.0,0.0,0.0,0,0,0.39999998,-0.41,-0.01,0.83,3.1885421,0,nan,nan,3,0,1,10,0
882000000,1694470233643612,416067742,-863552056,239764,239764,0.25,0.5,1.0,1.0,0.0,0.0,0,0,0.41,-0.41,-0.02,0.81,3.2040753,0,nan,nan,3,0,1,10,0
882208000,1694470233851611,416067735,-863552058,239595,239595,0.25,0.5,1.0,1.0,0.0,0.0,0,0,0.39999998,-0.39,-0.07,0.78999996,3.3410835,0,nan,nan,3,0,1,10,0
882416000,1694470234059612,416067728,-863552060,239403,239403,0.25,0.5,1.0,1.0,0.0,0.0,0,0,0.37,-0.35999998,-0.07,0.87,3.333404,0,nan,nan,3,0,1,10,0
882624000,1694470234267612,416067721,-863552062,239213,239213,0.25,0.5,1.0,1.0,0.0,0.0,0,0,0.32999998,-0.32,-0.11,0.91999996,3.4686673,0,nan,nan,3,0,1,10,0
883000000,1694470234647611,416067712,-863552066,238878,238878,0.25,0.5,1.0,1.0,0.0,0.0,0,0,0.25,-0.22999999,-0.089999996,0.94,3.5173619,0,nan,nan,3,0,1,10,0
883408000,1694470235051612,416067705,-863552070,238498,238498,0.25,0.5,1.0,1.0,0.0,0.0,0,0,0.14999999,-0.14,-0.08,0.9,3.6763616,0,nan,nan,3,0,1,10,0
883612000,1694470235259611,416067702,-863552072,238303,238303,0.25,0.5,1.0,1.0,0.0,0.0,0,0,0.11,-0.099999994,-0.08,0.90999997,3.7941713,0,nan,nan,3,0,1,10,0
883820000,1694470235467612,416067701,-863552074,238123,238123,0.25,0.5,1.0,1.0,0.0,0.0,0,0,0.08,-0.04,-0.06,0.85999995,4.073773,0,nan,nan,3,0,1,10,0
884028000,1694470235675612,416067701,-863552075,237933,237933,0.25,0.5,1.0,1.0,0.0,0.0,0,0,0.049999997,-0.01,-0.06,0.88,4.5216246,0,nan,nan,3,0,1,10,0
884392000,1694470236039611,416067701,-863552077,237616,237616,0.25,0.5,1.0,1.0,0.0,0.0,0,0,0.04,0.02,-0.04,0.90999997,5.247507,0,nan,nan,3,0,1,10,0
884600000,1694470236247612,416067701,-863552078,237433,237433,0.25,0.5,1.0,1.0,0.0,0.0,0,0,0.04,0.02,0.0,0.88,5.993984,0,nan,nan,3,0,1,10,0
884808000,1694470236455612,416067702,-863552078,237252,237252,0.25,0.5,1.0,1.0,0.0,0.0,0,0,0.04,0.02,-0.03,0.87,5.2110295,0,nan,nan,3,0,1,10,0
885012000,1694470236663612,416067702,-863552079,237087,237087,0.25,0.5,1.0,1.0,0.0,0.0,0,0,0.03,0.06,-0.02,0.9,5.9082885,0,nan,nan,3,0,1,10,0
885220000,1694470236871611,416067703,-863552080,236896,236896,0.25,0.5,1.0,1.0,0.0,0.0,0,0,0.03,0.01,0.0,0.85999995,5.9840355,0,nan,nan,3,0,1,10,0
885600000,1694470237243612,416067704,-863552080,236584,236584,0.25,0.5,1.0,1.0,0.0,0.0,0,0,0.02,0.04,-0.01,0.79999995,5.880189,0,nan,nan,3,0,1,10,0
886004000,1694470237647611,416067704,-863552080,236255,236255,0.25,0.5,1.0,1.0,0.0,0.0,0,0,0.01,0.0,-0.02,0.83,4.8696427,0,nan,nan,3,0,1,10,0
886208000,1694470237855612,416067704,-863552081,236095,236095,0.25,0.5,1.0,1.0,0.0,0.0,0,0,0.01,0.0,-0.02,0.82,4.8017497,0,nan,nan,3,0,1,10,0
886420000,1694470238063612,416067704,-863552081,235933,235933,0.25,0.5,1.0,1.0,0.0,0.0,0,0,0.0,0.0,0.0,0.79999995,3.5290556,0,nan,nan,3,0,1,10,0
886628000,1694470238271612,416067705,-863552082,235767,235767,0.25,0.5,1.0,1.0,0.0,0.0,0,0,0.0,0.0,0.0,0.76,2.9120817,0,nan,nan,3,0,1,10,0
886992000,1694470238635612,416067704,-863552082,235487,235487,0.25,0.5,1.0,1.0,0.0,0.0,0,0,0.0,0.0,0.0,0.75,5.265833,0,nan,nan,3,0,1,10,0
887200000,1694470238843612,416067704,-863552082,235332,235332,0.25,0.5,1.0,1.0,0.0,0.0,0,0,0.01,-0.01,0.0,0.76,2.9724703,0,nan,nan,3,0,1,10,0
887408000,1694470239051612,416067704,-863552082,235183,235183,0.25,0.5,1.0,1.0,0.0,0.0,0,0,0.01,-0.01,0.01,0.69,2.4109979,0,nan,nan,3,0,1,10,0
887616000,1694470239259611,416067703,-863552081,235033,235033,0.25,0.5,1.0,1.0,0.0,0.0,0,0,0.02,-0.03,0.0,0.76,3.2627184,0,nan,nan,3,0,1,10,0
887824000,1694470239467612,416067703,-863552081,234886,234886,0.25,0.5,1.0,1.0,0.0,0.0,0,0,0.03,-0.02,0.0,0.75,2.9626963,0,nan,nan,3,0,1,10,0
888200000,1694470239847612,416067702,-863552080,234615,234615,0.25,0.5,1.0,1.0,0.0,0.0,0,0,0.03,-0.04,0.0,0.7,3.1674235,0,nan,nan,3,0,1,10,0
888604000,1694470240251612,416067701,-863552080,234336,234336,0.25,0.5,1.0,1.0,0.0,0.0,0,0,0.03,-0.01,0.0,0.72999996,3.2477088,0,nan,nan,3,0,1,10,0
888812000,1694470240459612,416067700,-863552079,234201,234201,0.25,0.5,1.0,1.0,0.0,0.0,0,0,0.03,-0.03,0.0,0.69,3.144036,0,nan,nan,3,0,1,10,0
889020000,1694470240667611,416067700,-863552079,234068,234068,0.25,0.5,1.0,1.0,0.0,0.0,0,0,0.03,-0.03,0.02,0.68,2.4661503,0,nan,nan,3,0,1,10,0
889224000,1694470240871611,416067699,-863552078,233925,233925,0.25,0.5,1.0,1.0,0.0,0.0,0,0,0.03,-0.01,0.02,0.64,2.223724,0,nan,nan,3,0,1,10,0
889596000,1694470241239611,416067698,-863552077,233671,233671,0.25,0.5,1.0,1.0,0.0,0.0,0,0,0.03,0.0,0.02,0.65,1.9193386,0,nan,nan,3,0,1,10,0
889800000,1694470241447612,416067698,-863552076,233534,233534,0.25,0.5,1.0,1.0,0.0,0.0,0,0,0.02,0.0,0.0,0.71,3.240029,0,nan,nan,3,0,1,10,0
890008000,1694470241655612,416067698,-863552076,233390,233390,0.25,0.5,1.0,1.0,0.0,0.0,0,0,0.02,-0.01,0.0,0.69,2.6748915,0,nan,nan,3,0,1,10,0
890216000,1694470241863612,416067697,-863552076,233242,233242,0.25,0.5,1.0,1.0,0.0,0.0,0,0,0.01,0.0,0.02,0.66999996,1.9903735,0,nan,nan,3,0,1,10,0
890424000,1694470242071612,416067697,-863552075,233096,233096,0.25,0.5,1.0,1.0,0.0,0.0,0,0,0.01,0.0,0.01,0.66999996,1.8783232,0,nan,nan,3,0,1,10,0
890800000,1694470242443611,416067697,-863552075,232847,232847,0.25,0.5,1.0,1.0,0.0,0.0,0,0,0.01,-0.01,0.01,0.68,2.2485077,0,nan,nan,3,0,1,10,0
891204000,1694470242847612,416067697,-863552075,232575,232575,0.25,0.5,1.0,1.0,0.0,0.0,0,0,0.0,0.01,0.0,0.7,0.6574655,0,nan,nan,3,0,1,10,0
891412000,1694470243055611,416067697,-863552074,232433,232433,0.25,0.5,1.0,1.0,0.0,0.0,0,0,0.01,0.02,0.01,0.71,0.45675266,0,nan,nan,3,0,1,10,0
891620000,1694470243267612,416067697,-863552074,232284,232284,0.25,0.5,1.0,1.0,0.0,0.0,0,0,0.01,0.01,0.0,0.72999996,5.6302576,0,nan,nan,3,0,1,10,0
891828000,1694470243475612,416067697,-863552074,232142,232142,0.25,0.5,1.0,1.0,0.0,0.0,0,0,0.01,0.0,0.01,0.7,1.4631095,0,nan,nan,3,0,1,10,0
892192000,1694470243835611,416067698,-863552073,231884,231884,0.25,0.5,1.0,1.0,0.0,0.0,0,0,0.02,0.0,0.0,0.66999996,1.0676179,0,nan,nan,3,0,1,10,0
892400000,1694470244043612,416067699,-863552073,231749,231749,0.25,0.5,1.0,1.0,0.0,0.0,0,0,0.02,0.01,0.02,0.68,1.0655235,0,nan,nan,3,0,1,10,0
892608000,1694470244251612,416067699,-863552072,231615,231615,0.25,0.5,1.0,1.0,0.0,0.0,0,0,0.02,0.03,0.03,0.65999997,0.80773836,0,nan,nan,3,0,1,10,0
892816000,1694470244459612,416067699,-863552073,231473,231473,0.25,0.5,1.0,1.0,0.0,0.0,0,0,0.02,0.01,0.0,0.62,0.26843163,0,nan,nan,3,0,1,10,0
893024000,1694470244667611,416067699,-863552072,231336,231336,0.25,0.5,1.0,1.0,0.0,0.0,0,0,0.01,0.01,0.0,0.68,0.6948155,0,nan,nan,3,0,1,10,0
893400000,1694470245047612,416067700,-863552072,231084,231084,0.25,0.5,1.0,1.0,0.0,0.0,0,0,0.01,0.0,0.02,0.65,1.2704252,0,nan,nan,3,0,1,10,0
893804000,1694470245451612,416067701,-863552073,230822,230822,0.25,0.5,1.0,1.0,0.0,0.0,0,0,0.01,0.01,-0.01,0.68,5.5157638,0,nan,nan,3,0,1,10,0
894008000,1694470245655612,416067701,-863552073,230676,230676,0.25,0.5,1.0,1.0,0.0,0.0,0,0,0.02,0.0,-0.02,0.69,4.991118,0,nan,nan,3,0,1,10,0
894220000,1694470245863612,416067701,-863552072,230532,230532,0.25,0.5,1.0,1.0,0.0,0.0,0,0,0.02,0.02,-0.03,0.65,5.439493,0,nan,nan,3,0,1,10,0
894428000,1694470246071612,416067701,-863552073,230385,230385,0.25,0.5,1.0,1.0,0.0,0.0,0,0,0.02,0.0,0.0,0.68,6.2419953,0,nan,nan,3,0,1,10,0
894792000,1694470246439612,416067702,-863552074,230138,230138,0.25,0.5,1.0,1.0,0.0,0.0,0,0,0.01,0.01,-0.02,0.66999996,5.257281,0,nan,nan,3,0,1,10,0
895000000,1694470246647611,416067703,-863552074,229991,229991,0.25,0.5,1.0,1.0,0.0,0.0,0,0,0.02,0.03,0.0,0.7,0.049916413,0,nan,nan,3,0,1,10,0
895204000,1694470246855612,416067703,-863552074,229855,229855,0.25,0.5,1.0,1.0,0.0,0.0,0,0,0.02,0.02,-0.01,0.71999997,5.8175316,0,nan,nan,3,0,1,10,0
895416000,1694470247063612,416067703,-863552074,229715,229715,0.25,0.5,1.0,1.0,0.0,0.0,0,0,0.02,0.02,0.01,0.63,0.71453774,0,nan,nan,3,0,1,10,0
895624000,1694470247271612,416067703,-863552074,229575,229575,0.25,0.5,1.0,1.0,0.0,0.0,0,0,0.02,0.02,0.01,0.62,0.41922805,0,nan,nan,3,0,1,10,0
896000000,1694470247643612,416067704,-863552075,229334,229334,0.25,0.5,1.0,1.0,0.0,0.0,0,0,0.01,0.049999997,-0.01,0.66999996,6.0456457,0,nan,nan,3,0,1,10,0
896404000,1694470248051612,416067705,-863552074,229275,229275,0.25,0.5,1.0,1.0,0.0,0.0,0,0,0.0,0.0,0.0,0.01,5.8231163,0,nan,nan,3,0,1,10,0
896608000,1694470248259611,416067705,-863552074,229271,229271,0.25,0.5,1.0,1.0,0.0,0.0,0,0,0.0,0.0,0.0,-0.03,2.541374,0,nan,nan,3,0,1,10,0
896820000,1694470248467612,416067705,-863552074,229275,229275,0.25,0.5,1.0,1.0,0.0,0.0,0,0,0.0,0.0,-0.01,0.0,5.086762,0,nan,nan,3,0,1,10,0
897028000,1694470248675612,416067705,-863552074,229274,229274,0.25,0.5,1.0,1.0,0.0,0.0,0,0,0.0,0.0,0.0,0.01,0.60178953,0,nan,nan,3,0,1,10,0
897392000,1694470249035611,416067705,-863552074,229264,229264,0.25,0.5,1.0,1.0,0.0,0.0,0,0,0.0,0.0,0.0,0.02,2.514845,0,nan,nan,3,0,1,10,0
897600000,1694470249243612,416067704,-863552075,229261,229261,0.25,0.5,1.0,1.0,0.0,0.0,0,0,0.0,0.0,0.02,0.0,2.0221384,0,nan,nan,3,0,1,10,0
897808000,1694470249451612,416067705,-863552075,229265,229265,0.25,0.5,1.0,1.0,0.0,0.0,0,0,0.0,0.01,0.0,-0.02,0.07138396,0,nan,nan,3,0,1,10,0
898016000,1694470249659612,416067705,-863552075,229268,229268,0.25,0.5,1.0,1.0,0.0,0.0,0,0,0.0,0.0,0.0,0.0,5.459215,0,nan,nan,3,0,1,10,0
898224000,1694470249867612,416067705,-863552075,229267,229267,0.25,0.5,1.0,1.0,0.0,0.0,0,0,0.0,0.01,0.0,0.01,0.20874138,0,nan,nan,3,0,1,10,0
898596000,1694470250247612,416067705,-863552074,229270,229270,0.25,0.5,1.0,1.0,0.0,0.0,0,0,0.0,0.0,0.01,-0.06,1.025381,0,nan,nan,3,0,1,10,0
899004000,1694470250647611,416067705,-863552075,229267,229267,0.25,0.5,1.0,1.0,0.0,0.0,0,0,0.0,0.0,0.0,0.04,1.1431906,0,nan,nan,3,0,1,10,0
899212000,1694470250855612,416067705,-863552074,229276,229276,0.25,0.5,1.0,1.0,0.0,0.0,0,0,0.0,0.01,-0.02,0.0,5.146627,0,nan,nan,3,0,1,10,0
899420000,1694470251063612,416067705,-863552075,229266,229266,0.25,0.5,1.0,1.0,0.0,0.0,0,0,0.0,0.0,-0.03,0.0,4.5137706,0,nan,nan,3,0,1,10,0
899628000,1694470251271612,416067705,-863552074,229269,229269,0.25,0.5,1.0,1.0,0.0,0.0,0,0,0.0,0.01,0.0,0.03,5.6749377,0,nan,nan,3,0,1,10,0
899992000,1694470251639612,416067705,-863552075,229267,229267,0.25,0.5,1.0,1.0,0.0,0.0,0,0,0.0,-0.01,0.0,0.0,3.2403781,0,nan,nan,3,0,1,10,0
