timestamp,timestamp_sample,q[0],q[1],q[2],q[3],delta_q_reset[0],delta_q_reset[1],delta_q_reset[2],delta_q_reset[3],quat_reset_counter
829712000,829712000,0.8502939,0.010642838,0.0022595704,-0.52619576,0.99998516,1.8432958e-10,-2.209305e-11,-0.005459938,4
830216000,830216000,0.8502652,0.010662386,0.0023407752,-0.5262413,0.99998516,1.8432958e-10,-2.209305e-11,-0.005459938,4
830716000,830716000,0.8502988,0.010620525,0.0024110938,-0.52618766,0.99998516,1.8432958e-10,-2.209305e-11,-0.005459938,4
831216000,831216000,0.8502979,0.0106202485,0.0025348861,-0.5261883,0.99998516,1.8432958e-10,-2.209305e-11,-0.005459938,4
831716000,831716000,0.85038,0.01058352,0.002887282,-0.5260547,0.99998516,1.8432958e-10,-2.209305e-11,-0.005459938,4
832216000,832216000,0.8504597,0.010506574,0.0030280869,-0.5259265,0.99998516,1.8432958e-10,-2.209305e-11,-0.005459938,4
832716000,832716000,0.8504568,0.0105631305,0.003045988,-0.52593005,0.99998516,1.8432958e-10,-2.209305e-11,-0.005459938,4
833216000,833216000,0.8505616,0.010713375,0.0032007971,-0.5257566,0.99998516,1.8432958e-10,-2.209305e-11,-0.005459938,4
833716000,833716000,0.85053015,0.010672064,0.0031895412,-0.5258083,0.99998516,1.8432958e-10,-2.209305e-11,-0.005459938,4
834216000,834216000,0.850597,0.010662112,0.0030902752,-0.525701,0.99998516,1.8432958e-10,-2.209305e-11,-0.005459938,4
834716000,834716000,0.85060084,0.010733776,0.0033130744,-0.525692,0.99998516,1.8432958e-10,-2.209305e-11,-0.005459938,4
835216000,835216000,0.8506389,0.010790688,0.0032093802,-0.5256299,0.99998516,1.8432958e-10,-2.209305e-11,-0.005459938,4
835716000,835716000,0.85070884,0.010791662,0.0032418722,-0.52551657,0.99998516,1.8432958e-10,-2.209305e-11,-0.005459938,4
836216000,836216000,0.8506625,0.010813177,0.0034325735,-0.5255898,0.99998516,1.8432958e-10,-2.209305e-11,-0.005459938,4
836716000,836716000,0.851006,0.011245665,0.0034439752,-0.5250244,0.99998516,1.8432958e-10,-2.209305e-11,-0.005459938,4
837216000,837216000,0.85190314,0.006986437,0.008135103,-0.5235896,0.99998516,1.8432958e-10,-2.209305e-11,-0.005459938,4
837716000,837716000,0.85167634,0.010303677,0.0063980827,-0.52392787,0.99998516,1.8432958e-10,-2.209305e-11,-0.005459938,4
838216000,838216000,0.8516167,0.011913314,0.0057228245,-0.5239985,0.99998516,1.8432958e-10,-2.209305e-11,-0.005459938,4
838716000,838716000,0.85919034,0.013259991,0.0072373534,-0.5114331,0.9998458,-6.176273e-10,-1.3537136e-09,0.017562326,5
839216000,839216000,0.8570361,0.01310248,0.007894364,-0.5150292,0.9998458,-6.176273e-10,-1.3537136e-09,0.017562326,5
839716000,839716000,0.85602325,0.012810841,0.0077472744,-0.5167204,0.9998458,-6.176273e-10,-1.3537136e-09,0.017562326,5
840216000,840216000,0.8552558,0.0140199475,0.0066056484,-0.51797444,0.9998458,-6.176273e-10,-1.3537136e-09,0.017562326,5
840716000,840716000,0.85519266,0.014236495,0.010359091,-0.5180112,0.9998458,-6.176273e-10,-1.3537136e-09,0.017562326,5
841216000,841216000,0.85702837,0.046716582,0.025277123,-0.51252407,0.9998458,-6.176273e-10,-1.3537136e-09,0.017562326,5
841716000,841716000,0.85295975,0.1069592,0.06386836,-0.5068928,0.9998458,-6.176273e-10,-1.3537136e-09,0.017562326,5
842216000,842216000,0.84580183,0.13777982,0.08929723,-0.5076042,0.9998458,-6.176273e-10,-1.3537136e-09,0.017562326,5
842716000,842716000,0.84265804,0.14004248,0.102357544,-0.5097435,0.9998458,-6.176273e-10,-1.3537136e-09,0.017562326,5
843216000,843216000,0.84097147,0.13462721,0.10480085,-0.51347774,0.9998458,-6.176273e-10,-1.3537136e-09,0.017562326,5
843716000,843716000,0.841131,0.12706935,0.10776863,-0.51452696,0.9998458,-6.176273e-10,-1.3537136e-09,0.017562326,5
844216000,844216000,0.8400779,0.12581871,0.10442858,-0.5172366,0.9998458,-6.176273e-10,-1.3537136e-09,0.017562326,5
844716000,844716000,0.83861345,0.12519987,0.10147487,-0.52034175,0.9998458,-6.176273e-10,-1.3537136e-09,0.017562326,5
845212000,845212000,0.8362402,0.12269926,0.10362837,-0.52431715,0.9998458,-6.176273e-10,-1.3537136e-09,0.017562326,5
845716000,845716000,0.8348678,0.12436963,0.09997496,-0.5268142,0.9998458,-6.176273e-10,-1.3537136e-09,0.017562326,5
846216000,846216000,0.83221775,0.123691596,0.098568626,-0.53141147,0.9998458,-6.176273e-10,-1.3537136e-09,0.017562326,5
846716000,846716000,0.8303993,0.123608336,0.097144604,-0.53452885,0.9998458,-6.176273e-10,-1.3537136e-09,0.017562326,5
847216000,847216000,0.8283389,0.1236282,0.0974709,-0.53765243,0.9998458,-6.176273e-10,-1.3537136e-09,0.017562326,5
847716000,847716000,0.8250009,0.1243075,0.09558284,-0.5429411,0.9998458,-6.176273e-10,-1.3537136e-09,0.017562326,5
848216000,848216000,0.82432795,0.12125682,0.09703942,-0.544393,0.9998458,-6.176273e-10,-1.3537136e-09,0.017562326,5
848716000,848716000,0.82054305,0.123555034,0.09671217,-0.5496272,0.9998458,-6.176273e-10,-1.3537136e-09,0.017562326,5
849216000,849216000,0.81893665,0.12080303,0.09878071,-0.55226064,0.9998458,-6.176273e-10,-1.3537136e-09,0.017562326,5
849716000,849716000,0.81655914,0.11871646,0.09787061,-0.5563803,0.9998458,-6.176273e-10,-1.3537136e-09,0.017562326,5
850216000,850216000,0.8144991,0.11914391,0.09993657,-0.55893546,0.9998458,-6.176273e-10,-1.3537136e-09,0.017562326,5
850716000,850716000,0.8175318,0.060866755,0.05833029,-0.5696793,0.9998458,-6.176273e-10,-1.3537136e-09,0.017562326,5
851216000,851216000,0.82326984,-0.05513633,-0.02265708,-0.5645117,0.9998458,-6.176273e-10,-1.3537136e-09,0.017562326,5
851716000,851716000,0.8168552,-0.11290995,-0.07116593,-0.56119007,0.9998458,-6.176273e-10,-1.3537136e-09,0.017562326,5
852216000,852216000,0.81770474,-0.09463329,-0.06717776,-0.5638181,0.9998458,-6.176273e-10,-1.3537136e-09,0.017562326,5
852716000,852716000,0.8222954,-0.043726657,-0.057359427,-0.56447154,0.9998458,-6.176273e-10,-1.3537136e-09,0.017562326,5
853216000,853216000,0.82772183,0.0039912127,-0.037039567,-0.55990064,0.9998458,-6.176273e-10,-1.3537136e-09,0.017562326,5
853716000,853716000,0.8280347,0.0020198268,-0.03459287,-0.5596052,0.9998458,-6.176273e-10,-1.3537136e-09,0.017562326,5
854212000,854212000,0.82834035,0.018260192,-0.0130966315,-0.55977446,0.9998458,-6.176273e-10,-1.3537136e-09,0.017562326,5
854716000,854716000,0.8277608,0.021245217,0.0009463698,-0.56067795,0.9998458,-6.176273e-10,-1.3537136e-09,0.017562326,5
855216000,855216000,0.8273706,0.019285835,0.008120499,-0.56126654,0.9998458,-6.176273e-10,-1.3537136e-09,0.017562326,5
855716000,855716000,0.8269068,0.025571946,0.01731634,-0.56149036,0.9998458,-6.176273e-10,-1.3537136e-09,0.017562326,5
856216000,856216000,0.746926,0.3015436,0.21914989,-0.5505873,0.9998458,-6.176273e-10,-1.3537136e-09,0.017562326,5
856716000,856716000,0.7574631,0.2298609,0.19644238,-0.5786399,0.9998458,-6.176273e-10,-1.3537136e-09,0.017562326,5
857216000,857216000,0.7821463,0.14036293,0.13549177,-0.5917665,0.9998458,-6.176273e-10,-1.3537136e-09,0.017562326,5
857716000,857716000,0.79923564,0.03983512,0.06511737,-0.59615046,0.9998458,-6.176273e-10,-1.3537136e-09,0.017562326,5
858216000,858216000,0.806831,0.020835008,0.056927938,-0.587664,0.9998458,-6.176273e-10,-1.3537136e-09,0.017562326,5
858716000,858716000,0.807905,0.012895242,0.035472043,-0.5881029,0.9998458,-6.176273e-10,-1.3537136e-09,0.017562326,5
859216000,859216000,0.80081767,-0.10759426,-0.102102615,-0.58024955,0.9998458,-6.176273e-10,-1.3537136e-09,0.017562326,5
859712000,859712000,0.8098337,-0.039620075,-0.042964112,-0.5837413,0.9998458,-6.176273e-10,-1.3537136e-09,0.017562326,5
860216000,860216000,0.808955,-0.0036509307,-0.018541008,-0.58756685,0.9998458,-6.176273e-10,-1.3537136e-09,0.017562326,5
860716000,860716000,0.806428,0.020327054,-0.011676906,-0.5908674,0.9998458,-6.176273e-10,-1.3537136e-09,0.017562326,5
861216000,861216000,0.8061647,0.023950037,-0.003481594,-0.59119606,0.9998458,-6.176273e-10,-1.3537136e-09,0.017562326,5
861716000,861716000,0.80533165,0.022670304,0.0006130553,-0.5923907,0.9998458,-6.176273e-10,-1.3537136e-09,0.017562326,5
862216000,862216000,0.80461276,0.017977344,0.0021653208,-0.5935239,0.9998458,-6.176273e-10,-1.3537136e-09,0.017562326,5
862716000,862716000,0.8039538,0.013416896,0.003492472,-0.59453005,0.9998458,-6.176273e-10,-1.3537136e-09,0.017562326,5
863216000,863216000,0.80381274,0.011913666,0.0023281921,-0.59475857,0.9998458,-6.176273e-10,-1.3537136e-09,0.017562326,5
863716000,863716000,0.8034515,0.010904027,0.0016563421,-0.59526813,0.9998458,-6.176273e-10,-1.3537136e-09,0.017562326,5
864216000,864216000,0.8033317,0.009054717,0.0010922984,-0.5954621,0.9998458,-6.176273e-10,-1.3537136e-09,0.017562326,5
864712000,864712000,0.8031615,0.010427745,0.0003847029,-0.59567004,0.9998458,-6.176273e-10,-1.3537136e-09,0.017562326,5
865216000,865216000,0.803029,0.010572387,0.0016309234,-0.595844,0.9998458,-6.176273e-10,-1.3537136e-09,0.017562326,5
865716000,865716000,0.80284786,0.01103296,0.0004135149,-0.5960818,0.9998458,-6.176273e-10,-1.3537136e-09,0.017562326,5
866216000,866216000,0.8027726,0.009758297,0.0019555185,-0.59620225,0.9998458,-6.176273e-10,-1.3537136e-09,0.017562326,5
866716000,866716000,0.80277836,0.008991129,0.0029393146,-0.5962026,0.9998458,-6.176273e-10,-1.3537136e-09,0.017562326,5
867216000,867216000,0.8027817,0.008259478,0.0011816479,-0.5962146,0.9998458,-6.176273e-10,-1.3537136e-09,0.017562326,5
867716000,867716000,0.8027686,0.008395875,0.0005447519,-0.5962314,0.9998458,-6.176273e-10,-1.3537136e-09,0.017562326,5
868216000,868216000,0.802762,0.008374572,0.0010166739,-0.5962399,0.9998458,-6.176273e-10,-1.3537136e-09,0.017562326,5
868716000,868716000,0.8028373,0.0068053408,0.00018859342,-0.5961593,0.9998458,-6.176273e-10,-1.3537136e-09,0.017562326,5
869216000,869216000,0.8029095,0.0061522163,0.0001573504,-0.5960693,0.9998458,-6.176273e-10,-1.3537136e-09,0.017562326,5
869712000,869712000,0.8029609,0.006838068,-0.0010145061,-0.59599185,0.9998458,-6.176273e-10,-1.3537136e-09,0.017562326,5
870216000,870216000,0.80291086,0.0062966663,-0.00085706235,-0.5960653,0.9998458,-6.176273e-10,-1.3537136e-09,0.017562326,5
870716000,870716000,0.80292416,0.00610724,0.0005270294,-0.5960498,0.9998458,-6.176273e-10,-1.3537136e-09,0.017562326,5
871216000,871216000,0.80290306,0.0076937405,0.0015874103,-0.596058,0.9998458,-6.176273e-10,-1.3537136e-09,0.017562326,5
871716000,871716000,0.8029116,0.007178804,0.0025494169,-0.59604955,0.9998458,-6.176273e-10,-1.3537136e-09,0.017562326,5
872216000,872216000,0.80282253,0.009514323,0.0018460993,-0.59613925,0.9998458,-6.176273e-10,-1.3537136e-09,0.017562326,5
872716000,872716000,0.80290097,0.008314377,0.0026646142,-0.59604865,0.9998458,-6.176273e-10,-1.3537136e-09,0.017562326,5
873216000,873216000,0.80287915,0.0075225006,0.0034312138,-0.59608454,0.9998458,-6.176273e-10,-1.3537136e-09,0.017562326,5
873716000,873716000,0.80296504,0.008772955,0.00355095,-0.59595096,0.9998458,-6.176273e-10,-1.3537136e-09,0.017562326,5
874216000,874216000,0.8030083,0.002770253,0.005286474,-0.595938,0.9998458,-6.176273e-10,-1.3537136e-09,0.017562326,5
874716000,874716000,0.80292994,0.009974892,0.0041182376,-0.5959757,0.9998458,-6.176273e-10,-1.3537136e-09,0.017562326,5
875216000,875216000,0.80161786,0.03940687,-0.02086669,-0.5961716,0.9998458,-6.176273e-10,-1.3537136e-09,0.017562326,5
875716000,875716000,0.794494,0.096267484,-0.09121821,-0.5926139,0.9998458,-6.176273e-10,-1.3537136e-09,0.017562326,5
876216000,876216000,0.79058844,0.116550185,-0.12128839,-0.5887914,0.9998458,-6.176273e-10,-1.3537136e-09,0.017562326,5
876716000,876716000,0.79082215,0.12001239,-0.12471974,-0.58706254,0.9998458,-6.176273e-10,-1.3537136e-09,0.017562326,5
877216000,877216000,0.7898987,0.119396396,-0.120783485,-0.5892504,0.9998458,-6.176273e-10,-1.3537136e-09,0.017562326,5
877716000,877716000,0.7879381,0.11837334,-0.11634612,-0.59296286,0.9998458,-6.176273e-10,-1.3537136e-09,0.017562326,5
878216000,878216000,0.7863237,0.118058145,-0.11446315,-0.5955297,0.9998458,-6.176273e-10,-1.3537136e-09,0.017562326,5
878716000,878716000,0.7870766,0.08990012,-0.08177883,-0.60476494,0.9998458,-6.176273e-10,-1.3537136e-09,0.017562326,5
879216000,879216000,0.78932905,0.024720289,-0.00800407,-0.6134203,0.9998458,-6.176273e-10,-1.3537136e-09,0.017562326,5
879716000,879716000,0.7842711,0.0546019,-0.05077606,-0.6159216,0.9998458,-6.176273e-10,-1.3537136e-09,0.017562326,5
880212000,880212000,0.7856059,-0.040146578,0.06432463,-0.6140636,0.9998458,-6.176273e-10,-1.3537136e-09,0.017562326,5
880716000,880716000,0.79013675,-0.036036227,0.05130329,-0.6097158,0.9998458,-6.176273e-10,-1.3537136e-09,0.017562326,5
881216000,881216000,0.7925206,-0.011173636,0.017499454,-0.60949165,0.9998458,-6.176273e-10,-1.3537136e-09,0.017562326,5
881716000,881716000,0.7920897,-0.023232503,0.02355491,-0.60950744,0.9998458,-6.176273e-10,-1.3537136e-09,0.017562326,5
882216000,882216000,0.7918263,-0.013837733,0.010963324,-0.6104913,0.9998458,-6.176273e-10,-1.3537136e-09,0.017562326,5
882716000,882716000,0.7912638,-0.004884434,0.0023406888,-0.611451,0.9998458,-6.176273e-10,-1.3537136e-09,0.017562326,5
883216000,883216000,0.7906281,0.0035347305,-0.0017759833,-0.6122839,0.9998458,-6.176273e-10,-1.3537136e-09,0.017562326,5
883716000,883716000,0.79015946,0.007557366,-0.0028339752,-0.61284816,0.9998458,-6.176273e-10,-1.3537136e-09,0.017562326,5
884216000,884216000,0.78977555,0.007829277,-0.0017005389,-0.6133436,0.9998458,-6.176273e-10,-1.3537136e-09,0.017562326,5
884716000,884716000,0.7895511,0.0076527293,1.103642e-05,-0.6136371,0.9998458,-6.176273e-10,-1.3537136e-09,0.017562326,5
885216000,885216000,0.78939676,0.0059069097,0.0019196721,-0.6138519,0.9998458,-6.176273e-10,-1.3537136e-09,0.017562326,5
885716000,885716000,0.78941107,0.0047503426,0.0017774997,-0.613844,0.9998458,-6.176273e-10,-1.3537136e-09,0.017562326,5
886216000,886216000,0.7894391,0.0051079555,0.002137369,-0.613804,0.9998458,-6.176273e-10,-1.3537136e-09,0.017562326,5
886716000,886716000,0.7895105,0.0053415378,0.0034528463,-0.61370414,0.9998458,-6.176273e-10,-1.3537136e-09,0.017562326,5
887216000,887216000,0.78948283,0.0045758286,0.004160867,-0.6137415,0.9998458,-6.176273e-10,-1.3537136e-09,0.017562326,5
887716000,887716000,0.78957814,0.004266182,0.0048781466,-0.61361593,0.9998458,-6.176273e-10,-1.3537136e-09,0.017562326,5
888216000,888216000,0.7896435,0.005652865,0.00421959,-0.61352545,0.9998458,-6.176273e-10,-1.3537136e-09,0.017562326,5
888716000,888716000,0.7895336,0.0064247935,0.002868225,-0.61366695,0.9998458,-6.176273e-10,-1.3537136e-09,0.017562326,5
889216000,889216000,0.7894774,0.0063347663,0.003908442,-0.6137346,0.9998458,-6.176273e-10,-1.3537136e-09,0.017562326,5
889716000,889716000,0.7894083,0.0066529796,0.002094101,-0.61382884,0.9998458,-6.176273e-10,-1.3537136e-09,0.017562326,5
890216000,890216000,0.7893511,0.0058781146,0.0025884253,-0.6139085,0.9998458,-6.176273e-10,-1.3537136e-09,0.017562326,5
890716000,890716000,0.78948116,0.005640816,0.0018906527,-0.6137459,0.9998458,-6.176273e-10,-1.3537136e-09,0.017562326,5
891216000,891216000,0.7894325,0.0069948304,0.0017652203,-0.61379504,0.9998458,-6.176273e-10,-1.3537136e-09,0.017562326,5
891716000,891716000,0.7894477,0.007355756,0.0017241535,-0.6137713,0.9998458,-6.176273e-10,-1.3537136e-09,0.017562326,5
892216000,892216000,0.7893237,0.007304515,0.0009255388,-0.61393327,0.9998458,-6.176273e-10,-1.3537136e-09,0.017562326,5
892716000,892716000,0.78937805,0.006627752,0.0011481266,-0.61387056,0.9998458,-6.176273e-10,-1.3537136e-09,0.017562326,5
893216000,893216000,0.78934073,0.004892607,0.00073912507,-0.6139354,0.9998458,-6.176273e-10,-1.3537136e-09,0.017562326,5
893716000,893716000,0.7893795,0.0047669495,0.00046267413,-0.61388695,0.9998458,-6.176273e-10,-1.3537136e-09,0.017562326,5
894216000,894216000,0.7894002,0.0050806934,0.0012063497,-0.61385673,0.9998458,-6.176273e-10,-1.3537136e-09,0.017562326,5
894716000,894716000,0.78933364,0.005580674,0.0011722702,-0.61393803,0.9998458,-6.176273e-10,-1.3537136e-09,0.017562326,5
895216000,895216000,0.7893548,0.00612882,0.0012886735,-0.6139054,0.9998458,-6.176273e-10,-1.3537136e-09,0.017562326,5
895716000,895716000,0.78937787,0.0043921676,0.0024053517,-0.61388725,0.9998458,-6.176273e-10,-1.3537136e-09,0.017562326,5
896216000,896216000,0.792695,0.0052620615,0.0012226712,-0.60959464,0.9998458,-6.176273e-10,-1.3537136e-09,0.017562326,5
896716000,896716000,0.79332924,0.0043876595,0.0011592109,-0.608776,0.9998458,-6.176273e-10,-1.3537136e-09,0.017562326,5
897216000,897216000,0.7931795,0.0038085966,0.00070264813,-0.60897565,0.9998458,-6.176273e-10,-1.3537136e-09,0.017562326,5
897716000,897716000,0.7932528,0.003920173,0.00054748636,-0.6088797,0.9998458,-6.176273e-10,-1.3537136e-09,0.017562326,5
898216000,898216000,0.7933571,0.004088952,0.0005616991,-0.6087426,0.9998458,-6.176273e-10,-1.3537136e-09,0.017562326,5
898716000,898716000,0.793633,0.0044307397,0.00071021984,-0.60838026,0.9998458,-6.176273e-10,-1.3537136e-09,0.017562326,5
899216000,899216000,0.7937843,0.004621023,0.00036103654,-0.6081818,0.9998458,-6.176273e-10,-1.3537136e-09,0.017562326,5
899716000,899716000,0.793768,0.004506975,0.00031639414,-0.6082038,0.9998458,-6.176273e-10,-1.3537136e-09,0.017562326,5
