timestamp,timestamp_sample,device_id,magnetometer_ga[0],magnetometer_ga[1],magnetometer_ga[2],calibration_count
829232000,829226000,197388,0.100532465,0.17292532,0.49215865,0
829352000,829297200,197388,0.09726057,0.17183219,0.4883294,0
829364000,829364000,197388,0.09477089,0.17161779,0.48808983,0
829496000,829435636,197388,0.09777608,0.17109661,0.4892869,0
829508000,829508000,197388,0.09989823,0.17347321,0.48133448,0
829640000,829580000,197388,0.09776807,0.17062292,0.48729333,0
829652000,829652000,197388,0.095413044,0.16675943,0.48891446,0
829784000,829723636,197388,0.09583439,0.17072491,0.48754624,0
829796000,829796000,197388,0.0976505,0.16482393,0.48508167,0
829928000,829867636,197388,0.09619252,0.17044139,0.4869624,0
829940000,829940000,197388,0.10131303,0.16891941,0.48623094,0
830072000,830011272,197388,0.09655217,0.17141987,0.48711014,0
830080000,830080000,197388,0.09665827,0.17223027,0.48451972,0
830204000,830150000,197388,0.09647653,0.17154439,0.4886999,0
830228000,830222000,197388,0.09349598,0.1709648,0.48703247,0
830348000,830294000,197388,0.09740162,0.17060761,0.4870262,0
830372000,830366000,197388,0.09984295,0.17441766,0.48369467,0
830492000,830437600,197388,0.09888976,0.17392153,0.48781872,0
830516000,830510000,197388,0.099828035,0.16964729,0.4856619,0
830636000,830582000,197388,0.098609135,0.17090157,0.488092,0
830660000,830654000,197388,0.1005525,0.169383,0.48769936,0
830780000,830726000,197388,0.099474125,0.17161092,0.49090478,0
830804000,830798000,197388,0.099045426,0.16990778,0.4896361,0
830924000,830870000,197388,0.09761759,0.17112021,0.48786855,0
830948000,830940000,197388,0.09271775,0.17292604,0.4856116,0
831056000,831008000,197388,0.09933935,0.17130937,0.4899484,0
831092000,831080000,197388,0.09626456,0.17253396,0.48768124,0
831200000,831152000,197388,0.09691987,0.17153578,0.48912922,0
831236000,831224000,197388,0.0987825,0.17115657,0.48776245,0
831344000,831296000,197388,0.09797088,0.17164178,0.48783174,0
831380000,831368000,197388,0.09846942,0.16945693,0.4884898,0
831484000,831439555,197388,0.096712284,0.17133342,0.48976624,0
831524000,831512000,197388,0.09639492,0.17226493,0.48987496,0
831632000,831584000,197388,0.09779151,0.17215087,0.48850903,0
831668000,831656000,197388,0.09931164,0.17188147,0.4903257,0
831776000,831728000,197388,0.097114116,0.1720161,0.4876732,0
831812000,831800000,197388,0.10174584,0.17061898,0.48756218,0
831920000,831871555,197388,0.09679669,0.17248508,0.49033234,0
831956000,831944000,197388,0.098259114,0.17158628,0.48361087,0
832064000,832015555,197388,0.09737399,0.16963513,0.48786175,0
832100000,832088000,197388,0.10279195,0.1725609,0.488924,0
832208000,832158666,197388,0.099361636,0.17365141,0.48845312,0
832244000,832230666,197388,0.09825238,0.17066467,0.48650703,0
832340000,832297500,197388,0.098492466,0.17153381,0.48640913,0
832388000,832370000,197388,0.09488239,0.17014039,0.48524767,0
832484000,832442000,197388,0.095398165,0.16920906,0.48909593,0
832532000,832513000,197388,0.098749824,0.1749884,0.48705658,0
832628000,832585500,197388,0.09917045,0.17059365,0.48770347,0
832676000,832658000,197388,0.09362242,0.16597763,0.4890498,0
832772000,832729500,197388,0.09596082,0.17081672,0.48639464,0
832816000,832801000,197388,0.0984447,0.17127243,0.48681888,0
832904000,832868000,197388,0.097479545,0.16937776,0.4881854,0
832964000,832940000,197388,0.09972536,0.17022848,0.48727423,0
833048000,833012000,197388,0.09814253,0.17016903,0.48540482,0
833104000,833083200,197388,0.100692235,0.17217182,0.487118,0
833180000,833150000,197388,0.09546493,0.17188945,0.49013874,0
833248000,833221333,197388,0.0992693,0.17103867,0.48629093,0
833324000,833293333,197388,0.097159944,0.16971454,0.4895832,0
833396000,833365333,197388,0.09554723,0.17438155,0.48904145,0
833456000,833432000,197388,0.097821645,0.17176585,0.48632827,0
833540000,833504000,197388,0.09832854,0.17129065,0.48757863,0
833600000,833576000,197388,0.10059231,0.17009261,0.48740387,0
833684000,833646857,197388,0.09745602,0.17338373,0.49012905,0
833732000,833714000,197388,0.09935772,0.168412,0.4875099,0
833828000,833785500,197388,0.09870717,0.17082632,0.48900968,0
833876000,833858000,197388,0.10024519,0.16874829,0.48636305,0
833972000,833930000,197388,0.09494706,0.17354,0.4892629,0
834016000,834001000,197388,0.09983592,0.17290029,0.4920318,0
834116000,834073500,197388,0.09662256,0.17012474,0.48724124,0
834164000,834146000,197388,0.09571896,0.17313805,0.48735726,0
834260000,834218000,197388,0.10034816,0.1711325,0.48803434,0
834308000,834289000,197388,0.09669266,0.16968712,0.48771623,0
834400000,834361000,197388,0.09900179,0.17077789,0.48826113,0
834440000,834428000,197388,0.099042706,0.16805303,0.4870742,0
834548000,834499111,197388,0.09588521,0.1698295,0.48722532,0
834572000,834566000,197388,0.09788546,0.17152312,0.4892372,0
834688000,834637200,197388,0.09930589,0.17339121,0.4888632,0
834704000,834704000,197388,0.095330425,0.17265768,0.48820052,0
834836000,834776000,197388,0.09632255,0.17129506,0.4895212,0
834848000,834848000,197388,0.09400951,0.17802958,0.48991513,0
834980000,834920000,197388,0.097827904,0.17325957,0.4869955,0
834992000,834992000,197388,0.10201715,0.16869748,0.48502737,0
835124000,835064000,197388,0.09614698,0.17067887,0.48768473,0
835136000,835136000,197388,0.09283464,0.17506497,0.48906767,0
835268000,835207636,197388,0.09885747,0.17045486,0.4875547,0
835280000,835280000,197388,0.096866205,0.17204374,0.48752534,0
835412000,835352000,197388,0.099539734,0.17159308,0.4879505,0
835424000,835424000,197388,0.10069325,0.17373602,0.48705485,0
835556000,835495636,197388,0.099608846,0.17285033,0.48757347,0
835568000,835568000,197388,0.08995553,0.17681369,0.4855678,0
835700000,835640000,197388,0.095686994,0.16984229,0.48926163,0
835712000,835712000,197388,0.10078694,0.17355172,0.48984697,0
835844000,835783636,197388,0.097917594,0.17337747,0.48658246,0
835856000,835856000,197388,0.10263922,0.17053865,0.48591733,0
835988000,835927636,197388,0.09688868,0.16912465,0.49006122,0
836000000,836000000,197388,0.099640936,0.1690911,0.48751825,0
836132000,836071636,197388,0.096126914,0.17183524,0.48633412,0
836144000,836144000,197388,0.09679134,0.1748883,0.4849204,0
836276000,836214909,197388,0.09765353,0.17012945,0.48704427,0
836288000,836288000,197388,0.09766695,0.1693237,0.48873907,0
836420000,836359636,197388,0.095898196,0.1726618,0.48691422,0
836432000,836432000,197388,0.10173287,0.17585224,0.48537526,0
836560000,836503636,197388,0.099352494,0.16978948,0.48767418,0
836572000,836572000,197388,0.104166,0.16998595,0.48412535,0
836696000,836641600,197388,0.099234596,0.17229505,0.48808065,0
836720000,836714000,197388,0.10224867,0.16947731,0.49097395,0
836840000,836785600,197388,0.09897957,0.17081967,0.48712263,0
836864000,836858000,197388,0.09292337,0.16944355,0.4831919,0
836984000,836930000,197388,0.09751964,0.17017463,0.48908034,0
837008000,837002000,197388,0.09559944,0.17272896,0.48527575,0
837128000,837073600,197388,0.095834546,0.16981564,0.48897344,0
837152000,837146000,197388,0.09456374,0.17052734,0.4856502,0
837272000,837217600,197388,0.09535159,0.1650732,0.48957562,0
837296000,837290000,197388,0.09630786,0.16431382,0.4904744,0
837416000,837361600,197388,0.09640775,0.16549645,0.48977134,0
837440000,837434000,197388,0.0936614,0.16855666,0.48745593,0
837560000,837505600,197388,0.0950134,0.16703679,0.48734316,0
837584000,837576000,197388,0.09643208,0.16903257,0.48776507,0
837692000,837644000,197388,0.096224636,0.16699131,0.48992148,0
837724000,837713333,197388,0.09424084,0.1705839,0.48911962,0
837824000,837782000,197388,0.098597646,0.16985166,0.48991787,0
837872000,837853000,197388,0.09720952,0.16964777,0.48591495,0
837968000,837924500,197388,0.09704804,0.17216225,0.49001765,0
838004000,837992000,197388,0.09306498,0.16621932,0.48846906,0
838112000,838063555,197388,0.097902,0.16888566,0.49077135,0
838148000,838136000,197388,0.09615445,0.16747254,0.49247503,0
838256000,838207555,197388,0.09449747,0.16968928,0.48937458,0
838292000,838280000,197388,0.091529846,0.16682908,0.48763055,0
838400000,838352000,197388,0.0945099,0.16991577,0.4891313,0
838436000,838424000,197388,0.09301373,0.1682153,0.4895396,0
838544000,838495555,197388,0.09333942,0.17109516,0.48689428,0
838576000,838564000,197388,0.09462258,0.16911843,0.48870072,0
838676000,838633000,197388,0.092172086,0.17063443,0.48967415,0
838712000,838700000,197388,0.091540575,0.16708672,0.48761785,0
838820000,838771555,197388,0.09494927,0.17066963,0.48767963,0
838852000,838840000,197388,0.09352892,0.17081341,0.48847649,0
838964000,838912444,197388,0.09464354,0.17213583,0.48691675,0
838988000,838982000,197388,0.092444554,0.17098628,0.48516992,0
839108000,839054000,197388,0.09412613,0.17002846,0.48781618,0
839132000,839126000,197388,0.09284106,0.17055202,0.4892474,0
839252000,839197200,197388,0.09274612,0.1703106,0.48924595,0
839276000,839268000,197388,0.09536871,0.17178799,0.48603836,0
839384000,839335555,197388,0.093002364,0.17105964,0.48987833,0
839420000,839408000,197388,0.0925941,0.1750159,0.48922592,0
839528000,839480000,197388,0.09350406,0.16834804,0.4889475,0
839564000,839552000,197388,0.09361015,0.17469648,0.4886771,0
839672000,839623111,197388,0.09453758,0.1724611,0.49070227,0
839696000,839690000,197388,0.09358978,0.16973408,0.4838957,0
839816000,839761600,197388,0.09340649,0.17031366,0.48734847,0
839840000,839834000,197388,0.09290305,0.17277029,0.4911232,0
839960000,839904800,197388,0.09458468,0.17173271,0.4887944,0
839984000,839976000,197388,0.09060033,0.17182714,0.48723578,0
840092000,840044000,197388,0.09285539,0.17160055,0.48755944,0
840128000,840116000,197388,0.095287904,0.17153387,0.48751897,0
840236000,840187555,197388,0.095381476,0.17454031,0.4876672,0
840272000,840260000,197388,0.089275524,0.17158651,0.48823294,0
840380000,840331555,197388,0.09449226,0.16771892,0.48927727,0
840416000,840404000,197388,0.093518645,0.16654533,0.48782393,0
840524000,840476000,197388,0.0931295,0.16564174,0.4908833,0
840560000,840548000,197388,0.09403364,0.16519621,0.48735055,0
840668000,840620000,197388,0.09073429,0.16919565,0.491424,0
840704000,840692000,197388,0.09161761,0.17293689,0.48807296,0
840808000,840763555,197388,0.08947779,0.17110838,0.4893962,0
840848000,840836000,197388,0.0891857,0.17711365,0.4876737,0
840956000,840906666,197388,0.08603851,0.17595096,0.48738375,0
840980000,840974000,197388,0.08254653,0.17742372,0.48915562,0
841100000,841045200,197388,0.07836815,0.17865959,0.4871946,0
841112000,841112000,197388,0.071705855,0.19086099,0.49004406,0
841244000,841183272,197388,0.06681268,0.18832758,0.48650736,0
841256000,841256000,197388,0.06486436,0.19757338,0.4849839,0
841388000,841327636,197388,0.05039106,0.19409265,0.48519596,0
841400000,841400000,197388,0.041992754,0.20180677,0.48702675,0
841528000,841471272,197388,0.032146733,0.20548785,0.4822355,0
841544000,841544000,197388,0.024638034,0.20801455,0.4864996,0
841676000,841616000,197388,0.013645771,0.21403894,0.48059872,0
841688000,841688000,197388,0.0023359812,0.21763743,0.47930455,0
841820000,841759272,197388,0.0012583932,0.22131427,0.4770628,0
841832000,841832000,197388,-0.0035984318,0.22190037,0.47729442,0
841964000,841903636,197388,-0.012919035,0.22756818,0.47453228,0
841976000,841976000,197388,-0.023297004,0.23375583,0.46855706,0
842104000,842047272,197388,-0.026701476,0.22977413,0.4717731,0
842120000,842120000,197388,-0.035159823,0.22974074,0.47215146,0
842248000,842191636,197388,-0.03285816,0.233417,0.46920532,0
842264000,842264000,197388,-0.040603735,0.23579945,0.4759909,0
842396000,842334909,197388,-0.03947075,0.23234934,0.4701144,0
842408000,842408000,197388,-0.04186003,0.23088448,0.46910965,0
842540000,842480000,197388,-0.042276528,0.23216721,0.4729516,0
842548000,842548000,197388,-0.04508723,0.22886193,0.4667226,0
842672000,842618000,197388,-0.047254585,0.22729853,0.47242856,0
842692000,842688000,197388,-0.047396325,0.22903383,0.47306806,0
842804000,842755555,197388,-0.04782373,0.22860853,0.469418,0
842840000,842826666,197388,-0.048170082,0.23039216,0.47425652,0
842936000,842893500,197388,-0.04937885,0.22840023,0.47150323,0
842984000,842964000,197388,-0.050019566,0.22788203,0.4720124,0
843068000,843030857,197388,-0.047576617,0.22800708,0.47309393,0
843116000,843098000,197388,-0.050149314,0.22509293,0.47332793,0
843212000,843170000,197388,-0.05062351,0.22170575,0.4746619,0
843256000,843240000,197388,-0.049834855,0.22234109,0.47674328,0
843344000,843307428,197388,-0.045635246,0.21866557,0.47618207,0
843404000,843380000,197388,-0.048539266,0.2128504,0.47244602,0
843488000,843450857,197388,-0.045776334,0.21688703,0.4783753,0
843536000,843518000,197388,-0.049940296,0.2183513,0.47967312,0
843632000,843590000,197388,-0.047161832,0.21393415,0.4779922,0
843680000,843662000,197388,-0.048995685,0.21377705,0.47886768,0
843776000,843734000,197388,-0.047340862,0.21157697,0.47913265,0
843824000,843806000,197388,-0.046607938,0.20843464,0.4777944,0
843920000,843878000,197388,-0.048258387,0.20984632,0.48103422,0
843968000,843950000,197388,-0.048054043,0.21285087,0.4819311,0
844064000,844022000,197388,-0.048485484,0.2089619,0.477155,0
844112000,844093000,197388,-0.047212616,0.2109166,0.4795768,0
844196000,844160000,197388,-0.046911392,0.21276596,0.47828752,0
844256000,844230400,197388,-0.046728108,0.21179073,0.47967377,0
844328000,844298000,197388,-0.046680354,0.21159601,0.477041,0
844400000,844370000,197388,-0.046250623,0.2151989,0.47856566,0
844472000,844442000,197388,-0.041632,0.21631038,0.47857127,0
844544000,844514000,197388,-0.045162663,0.21436292,0.47794673,0
844616000,844586000,197388,-0.04769486,0.21739921,0.47674966,0
844688000,844657333,197388,-0.044866752,0.21467796,0.47641346,0
844760000,844729333,197388,-0.047088854,0.21451992,0.4801721,0
844820000,844796000,197388,-0.045055974,0.21197549,0.4792734,0
844904000,844867428,197388,-0.045730226,0.21289673,0.4823338,0
844964000,844940000,197388,-0.044075172,0.20782594,0.47920847,0
845044000,845009714,197388,-0.044399336,0.2092664,0.47923103,0
845096000,845078000,197388,-0.04867874,0.21040598,0.47685832,0
845192000,845149000,197388,-0.044337552,0.21303762,0.47948602,0
845236000,845220000,197388,-0.044741943,0.20777455,0.47916993,0
845324000,845287428,197388,-0.04993554,0.21270004,0.47967714,0
845384000,845359200,197388,-0.050296735,0.21776457,0.475952,0
845468000,845431428,197388,-0.050491747,0.21230955,0.48126355,0
845528000,845503200,197388,-0.0502264,0.21514562,0.48122945,0
845600000,845570000,197388,-0.045644008,0.21458751,0.47564894,0
845672000,845641333,197388,-0.04523506,0.21524256,0.47804785,0
845744000,845713333,197388,-0.046047375,0.21508229,0.4767385,0
845804000,845780000,197388,-0.042789947,0.21117544,0.48016748,0
845888000,845852000,197388,-0.045955885,0.2115533,0.4775594,0
845948000,845923200,197388,-0.04601757,0.21339245,0.47885075,0
846032000,845994857,197388,-0.046360895,0.21307108,0.47807747,0
846080000,846062000,197388,-0.04610753,0.21294464,0.47885746,0
846176000,846134000,197388,-0.046978034,0.21256335,0.47714323,0
846224000,846206000,197388,-0.049146008,0.21854873,0.47756365,0
846320000,846277500,197388,-0.04499557,0.21513706,0.4796968,0
846368000,846350000,197388,-0.0426776,0.21833974,0.4793304,0
846464000,846421500,197388,-0.042457033,0.21407977,0.4784246,0
846512000,846494000,197388,-0.042399395,0.21233079,0.47762284,0
846608000,846565500,197388,-0.043638393,0.21614596,0.4761848,0
846656000,846637000,197388,-0.044239175,0.21553579,0.47266975,0
846752000,846709500,197388,-0.046941873,0.21483189,0.4771338,0
846800000,846781000,197388,-0.045303334,0.2175396,0.4802795,0
846884000,846848000,197388,-0.046520896,0.21838671,0.4784807,0
846944000,846920000,197388,-0.044347137,0.2149591,0.47362205,0
847028000,846991428,197388,-0.049168803,0.21868566,0.47714236,0
847088000,847063200,197388,-0.04948273,0.21575975,0.47729278,0
847172000,847135428,197388,-0.047283344,0.21536994,0.47806668,0
847232000,847207200,197388,-0.04896427,0.21765403,0.4780446,0
847312000,847278857,197388,-0.045207255,0.21748014,0.4786777,0
847364000,847346000,197388,-0.04350883,0.21414241,0.47669813,0
847460000,847417000,197388,-0.047917258,0.22014979,0.4768568,0
847508000,847489000,197388,-0.042076126,0.21983498,0.47499165,0
847600000,847561000,197388,-0.04853492,0.2169398,0.47624657,0
847640000,847628000,197388,-0.04803404,0.21786301,0.47941527,0
847748000,847700000,197388,-0.049046565,0.21897624,0.4746664,0
847784000,847772000,197388,-0.049482003,0.21876876,0.4755494,0
847892000,847844000,197388,-0.051661182,0.21981497,0.47442546,0
847928000,847916000,197388,-0.052990954,0.21793005,0.47591278,0
848036000,847988000,197388,-0.054133702,0.21821225,0.47661155,0
848072000,848060000,197388,-0.054179814,0.21571165,0.47737688,0
848180000,848131555,197388,-0.052036215,0.21404456,0.4776913,0
848216000,848204000,197388,-0.051287577,0.21693651,0.47492883,0
848324000,848275555,197388,-0.049464885,0.21306276,0.47867283,0
848360000,848348000,197388,-0.05217745,0.21823153,0.47666508,0
848464000,848419111,197388,-0.050817944,0.21534151,0.47867775,0
848492000,848486000,197388,-0.05048671,0.2132238,0.4751842,0
848608000,848557600,197388,-0.052523185,0.21812432,0.47656766,0
848636000,848630000,197388,-0.054297082,0.21738061,0.47918692,0
848756000,848701200,197388,-0.053228956,0.21736689,0.4785214,0
848768000,848768000,197388,-0.057895005,0.21407923,0.48119625,0
848900000,848839636,197388,-0.055404447,0.21907401,0.47601354,0
848912000,848912000,197388,-0.06075486,0.21861897,0.47631386,0
849044000,848983272,197388,-0.05537716,0.21713383,0.47531375,0
849056000,849056000,197388,-0.06265259,0.21531257,0.4790836,0
849188000,849127636,197388,-0.0547489,0.21494597,0.47659558,0
849200000,849200000,197388,-0.054491006,0.21186562,0.48017442,0
849332000,849272000,197388,-0.05554858,0.21389072,0.47841555,0
849344000,849344000,197388,-0.053883836,0.21149284,0.48324057,0
849476000,849415272,197388,-0.053852532,0.21410932,0.4775054,0
849488000,849488000,197388,-0.058951642,0.21279423,0.4777626,0
849620000,849559636,197388,-0.05524841,0.21348794,0.4786397,0
849632000,849632000,197388,-0.046427175,0.2125691,0.4795308,0
849764000,849703636,197388,-0.055114992,0.21380255,0.47732,0
849776000,849776000,197388,-0.04864807,0.21019714,0.47882357,0
849908000,849847636,197388,-0.055888407,0.21629581,0.47701365,0
849920000,849920000,197388,-0.05393552,0.20648329,0.47552356,0
850052000,849992000,197388,-0.056570217,0.21385196,0.47655445,0
850064000,850064000,197388,-0.05629728,0.21173415,0.47705576,0
850196000,850135272,197388,-0.058367174,0.21384294,0.47555938,0
850208000,850208000,197388,-0.056058846,0.21965711,0.48183906,0
850340000,850278909,197388,-0.058873247,0.21269053,0.47701994,0
850352000,850352000,197388,-0.058098186,0.2129348,0.47771606,0
850484000,850424000,197388,-0.053161483,0.21241201,0.47768208,0
850496000,850496000,197388,-0.048602577,0.2086947,0.48050505,0
850628000,850566909,197388,-0.025772845,0.20126522,0.48451647,0
850640000,850640000,197388,-0.0093182,0.19476016,0.4856805,0
850772000,850712000,197388,0.007472296,0.1905963,0.48919138,0
850784000,850784000,197388,0.023065563,0.17882341,0.4902723,0
850916000,850856000,197388,0.04087492,0.17606111,0.49073023,0
850928000,850928000,197388,0.06269217,0.16469117,0.4937317,0
851060000,851000000,197388,0.08188931,0.15986994,0.4930283,0
851072000,851072000,197388,0.1030426,0.1521649,0.48998073,0
851204000,851143636,197388,0.12410404,0.1438672,0.48911396,0
851216000,851216000,197388,0.13735741,0.13709182,0.48633537,0
851348000,851286909,197388,0.15075438,0.13399485,0.48533377,0
851360000,851360000,197388,0.16686131,0.13031696,0.4890129,0
851492000,851431636,197388,0.17619868,0.12826905,0.47901067,0
851504000,851504000,197388,0.1885498,0.12452646,0.48082227,0
851636000,851574545,197388,0.20191334,0.120835915,0.4709602,0
851648000,851648000,197388,0.20287004,0.11617428,0.46655723,0
851780000,851719272,197388,0.20713976,0.121713676,0.46749315,0
851792000,851792000,197388,0.20905095,0.118486255,0.47295046,0
851924000,851864000,197388,0.20371914,0.12320131,0.46942967,0
851936000,851936000,197388,0.19947891,0.12345681,0.46793464,0
852068000,852008000,197388,0.20490502,0.12823622,0.4683584,0
852080000,852080000,197388,0.19914281,0.13015297,0.46163163,0
852208000,852151636,197388,0.19817737,0.13230789,0.47004145,0
852220000,852220000,197388,0.20021077,0.1405857,0.46488327,0
852344000,852290000,197388,0.19094977,0.13616484,0.4711929,0
852368000,852362000,197388,0.1865693,0.13830498,0.472335,0
852488000,852434000,197388,0.18322192,0.14540355,0.47213078,0
852512000,852506000,197388,0.17738539,0.15451652,0.4748093,0
852632000,852578000,197388,0.17369007,0.15691619,0.47224632,0
852656000,852650000,197388,0.16940898,0.16337198,0.47124213,0
852776000,852721600,197388,0.1603903,0.16967091,0.47296104,0
852800000,852794000,197388,0.15003735,0.17535314,0.46860003,0
852920000,852865600,197388,0.14366277,0.18024693,0.47363016,0
852944000,852936000,197388,0.13437687,0.18812883,0.4732014,0
853052000,853003555,197388,0.12338628,0.19110861,0.47630146,0
853088000,853076000,197388,0.1163234,0.19770992,0.47512317,0
853196000,853148000,197388,0.1208048,0.195529,0.47079748,0
853232000,853220000,197388,0.12581664,0.194041,0.47234046,0
853340000,853292000,197388,0.124677844,0.1909691,0.47593874,0
853376000,853362666,197388,0.13003503,0.19255172,0.47274548,0
853484000,853435111,197388,0.12828982,0.19096294,0.47406822,0
853520000,853506666,197388,0.1283612,0.18913469,0.47368765,0
853616000,853573500,197388,0.12595586,0.18940239,0.4734801,0
853664000,853646000,197388,0.124823876,0.19283305,0.47553208,0
853756000,853717500,197388,0.12512854,0.19011872,0.4737902,0
853808000,853788000,197388,0.115850285,0.19229206,0.47314408,0
853892000,853856000,197388,0.11526264,0.1977318,0.47604662,0
853952000,853928000,197388,0.108902715,0.19168733,0.4767739,0
854036000,853999428,197388,0.10612662,0.19188425,0.47797814,0
854096000,854072000,197388,0.10136952,0.19484562,0.47906706,0
854180000,854143428,197388,0.09876514,0.19406705,0.47755578,0
854240000,854216000,197388,0.09637352,0.19296728,0.4793395,0
854320000,854287428,197388,0.091224894,0.19304314,0.48233613,0
854380000,854359200,197388,0.09276166,0.19274713,0.48099732,0
854464000,854430857,197388,0.085670635,0.19052246,0.48184448,0
854528000,854502400,197388,0.08859638,0.18921112,0.48436356,0
854600000,854569333,197388,0.08605634,0.19148853,0.48307806,0
854672000,854641333,197388,0.08617602,0.18909356,0.48409674,0
854744000,854713333,197388,0.082939565,0.1861873,0.48282057,0
854804000,854780000,197388,0.08226368,0.1891436,0.4869561,0
854888000,854852000,197388,0.0811439,0.18539815,0.48426497,0
854944000,854923200,197388,0.08195634,0.18838294,0.48782673,0
855032000,854995428,197388,0.081017725,0.1815315,0.4849953,0
855092000,855068000,197388,0.08002948,0.18445706,0.48631802,0
855172000,855138285,197388,0.07827567,0.18258275,0.4875051,0
855220000,855205000,197388,0.07842534,0.18034637,0.48631284,0
855308000,855272000,197388,0.07838415,0.1788016,0.48650157,0
855368000,855344000,197388,0.07602713,0.180826,0.48756433,0
855452000,855414857,197388,0.07630162,0.17973979,0.48828453,0
855500000,855482000,197388,0.073598,0.1800461,0.4878508,0
855596000,855553500,197388,0.07248439,0.1806852,0.48708525,0
855644000,855625000,197388,0.07789898,0.18211125,0.48939714,0
855728000,855692000,197388,0.069701925,0.18253508,0.48835075,0
855788000,855764000,197388,0.004096897,0.20695062,0.48711172,0
855872000,855836000,197388,-0.06820841,0.22844316,0.468306,0
855932000,855907200,197388,-0.17796104,0.26460847,0.41481552,0
856016000,855978857,197388,-0.23456997,0.28353462,0.37826508,0
856064000,856046000,197388,-0.24914671,0.28773978,0.36026457,0
856160000,856117500,197388,-0.25462425,0.2884069,0.3611488,0
856208000,856190000,197388,-0.24774566,0.28559056,0.36639723,0
856304000,856261000,197388,-0.24349312,0.27546057,0.37615767,0
856340000,856328000,197388,-0.23730692,0.26889604,0.38455257,0
856448000,856399555,197388,-0.2268469,0.26334012,0.3953261,0
856484000,856470666,197388,-0.21334282,0.25760433,0.40288872,0
856576000,856537500,197388,-0.21364394,0.24873751,0.4122366,0
856628000,856609000,197388,-0.20961061,0.24850461,0.41495654,0
856712000,856676000,197388,-0.20872764,0.23836167,0.42112267,0
856772000,856747200,197388,-0.20885812,0.23360513,0.4230004,0
856856000,856819428,197388,-0.20630714,0.22857977,0.4232635,0
856916000,856891200,197388,-0.21036375,0.22756396,0.42393073,0
857000000,856962857,197388,-0.20517747,0.22174618,0.4317063,0
857048000,857030000,197388,-0.19116625,0.21881518,0.43595254,0
857144000,857101500,197388,-0.16249701,0.21921611,0.44960392,0
857192000,857173000,197388,-0.12896216,0.21022093,0.46823424,0
857276000,857240000,197388,-0.100045726,0.19923784,0.47656995,0
857336000,857311200,197388,-0.0701245,0.18861404,0.48771667,0
857408000,857378000,197388,-0.04967087,0.18168244,0.48966265,0
857480000,857448666,197388,-0.026182406,0.17573452,0.49407905,0
857552000,857521333,197388,-0.018488653,0.17637965,0.49331492,0
857612000,857588000,197388,-0.0029521221,0.17046967,0.4971873,0
857696000,857660000,197388,-0.00081823,0.16654353,0.4980628,0
857756000,857732000,197388,0.004684487,0.16002345,0.4997947,0
857840000,857803428,197388,0.014715538,0.1606335,0.4983944,0
857900000,857876000,197388,0.013415706,0.1586104,0.5052992,0
857984000,857947428,197388,0.016172506,0.15717681,0.50222677,0
858044000,858020000,197388,0.018780857,0.15425833,0.5017533,0
858128000,858091428,197388,0.021629471,0.1529753,0.50119585,0
858184000,858161600,197388,0.026218234,0.1543775,0.50498384,0
858260000,858230000,197388,0.028953565,0.15307331,0.5027223,0
858332000,858302000,197388,0.031226527,0.15120268,0.50261074,0
858400000,858373333,197388,0.03580606,0.15203707,0.5037817,0
858464000,858440000,197388,0.038027804,0.15494531,0.49870047,0
858548000,858511428,197388,0.038182937,0.15528491,0.5007872,0
858608000,858584000,197388,0.040557694,0.15701173,0.49841124,0
858692000,858656000,197388,0.045627203,0.15928859,0.50114113,0
858752000,858728000,197388,0.05056979,0.15953688,0.49998933,0
858836000,858798857,197388,0.057780366,0.15925103,0.49840483,0
858884000,858866000,197388,0.06176523,0.16241938,0.49696365,0
858980000,858937000,197388,0.09990525,0.15715462,0.49084994,0
859028000,859009000,197388,0.19972296,0.14093295,0.47005385,0
859124000,859081000,197388,0.23539382,0.13823602,0.44883114,0
859160000,859148000,197388,0.2430425,0.14022762,0.44699475,0
859268000,859220000,197388,0.22472885,0.14289932,0.45240027,0
859304000,859292000,197388,0.20736536,0.14629364,0.45747894,0
859412000,859364000,197388,0.18921411,0.1514997,0.46570036,0
859448000,859436000,197388,0.1800264,0.15479317,0.47453767,0
859556000,859507555,197388,0.16926183,0.15891105,0.47195897,0
859592000,859580000,197388,0.15874681,0.1537036,0.47457457,0
859700000,859651555,197388,0.15207501,0.16135691,0.47823837,0
859736000,859722666,197388,0.14435834,0.16354091,0.477635,0
859832000,859790000,197388,0.13961634,0.16650818,0.47875568,0
859880000,859862000,197388,0.13787603,0.16902663,0.48191217,0
859976000,859933500,197388,0.12536041,0.17226654,0.48143336,0
860024000,860006000,197388,0.12240299,0.1730269,0.48212296,0
860120000,860077500,197388,0.11576787,0.17291716,0.4839069,0
860168000,860150000,197388,0.107174434,0.17696595,0.48219416,0
860260000,860221000,197388,0.10430425,0.17763695,0.48349085,0
860312000,860293000,197388,0.099662095,0.17841305,0.48663467,0
860408000,860365500,197388,0.09695012,0.1853261,0.48479834,0
860456000,860438000,197388,0.09924689,0.19032371,0.48282474,0
860552000,860510000,197388,0.09139541,0.19223088,0.48052832,0
860600000,860582000,197388,0.090146855,0.19156744,0.4796486,0
860696000,860654000,197388,0.086352594,0.1939821,0.48115876,0
860744000,860725000,197388,0.086396605,0.19326094,0.4813139,0
860840000,860797500,197388,0.083167,0.19466254,0.48115134,0
860888000,860870000,197388,0.0822388,0.19728579,0.48091447,0
860984000,860941500,197388,0.08005814,0.19333641,0.47984678,0
861032000,861014000,197388,0.0798706,0.19539633,0.48221928,0
861128000,861086000,197388,0.07664485,0.19470917,0.483294,0
861176000,861158000,197388,0.07584293,0.19207591,0.4872504,0
861272000,861229500,197388,0.07757235,0.19424017,0.48272553,0
861320000,861302000,197388,0.078950435,0.19186679,0.48354256,0
861412000,861372500,197388,0.07669369,0.19239402,0.48519948,0
861464000,861445000,197388,0.0720896,0.19222587,0.48561564,0
861560000,861517500,197388,0.0715318,0.19075562,0.4839404,0
861608000,861589000,197388,0.07238095,0.18960817,0.48465535,0
861704000,861661500,197388,0.07058917,0.18951711,0.48430908,0
861752000,861734000,197388,0.073762946,0.19124621,0.48585397,0
861848000,861805500,197388,0.07465774,0.18859488,0.48535413,0
861892000,861877000,197388,0.07116253,0.19014809,0.48670864,0
861992000,861949000,197388,0.07209262,0.18853097,0.4844049,0
862028000,862016000,197388,0.07314409,0.18742323,0.49056157,0
862132000,862087555,197388,0.07320681,0.18769236,0.4860735,0
862172000,862158666,197388,0.075278245,0.18636957,0.4833499,0
862268000,862225500,197388,0.07294252,0.18589365,0.48384532,0
862316000,862298000,197388,0.075491756,0.18286669,0.48713714,0
862412000,862370000,197388,0.07385782,0.18308513,0.48767304,0
862460000,862441000,197388,0.07391441,0.18159895,0.4885708,0
862556000,862513500,197388,0.07684815,0.18249878,0.48648185,0
862604000,862586000,197388,0.072597936,0.18178567,0.4918091,0
862700000,862658000,197388,0.07458192,0.18057169,0.48944625,0
862748000,862730000,197388,0.07487644,0.17948426,0.48705685,0
862844000,862802000,197388,0.07743051,0.17937127,0.48656386,0
862892000,862874000,197388,0.07449929,0.17786199,0.48936766,0
862988000,862945000,197388,0.07527863,0.18095803,0.48801038,0
863024000,863012000,197388,0.07538241,0.18228549,0.48682398,0
863132000,863084000,197388,0.07553087,0.18122555,0.487231,0
863168000,863156000,197388,0.078089654,0.18380162,0.48962283,0
863276000,863227555,197388,0.076996505,0.18014611,0.48745528,0
863312000,863300000,197388,0.07493332,0.18375163,0.48730323,0
863420000,863371111,197388,0.07715239,0.18229675,0.48789656,0
863444000,863438000,197388,0.07571109,0.179267,0.48725158,0
863564000,863509200,197388,0.07778161,0.18136303,0.48872647,0
863576000,863576000,197388,0.08095935,0.1836942,0.4884233,0
863708000,863648000,197388,0.07796779,0.18010867,0.489401,0
863720000,863720000,197388,0.081434704,0.18055588,0.48649538,0
863848000,863790545,197388,0.077012554,0.17947407,0.48795688,0
863864000,863864000,197388,0.083560035,0.18201101,0.47769856,0
863996000,863936000,197388,0.078840986,0.17996013,0.4869389,0
864008000,864008000,197388,0.0811929,0.1783182,0.48949972,0
864140000,864080000,197388,0.07870559,0.18106171,0.48763663,0
864152000,864152000,197388,0.079255484,0.17731084,0.4864986,0
864284000,864223636,197388,0.079862654,0.17894913,0.488123,0
864296000,864296000,197388,0.07944251,0.1750949,0.49161583,0
864428000,864367636,197388,0.080429815,0.18061052,0.48715034,0
864440000,864440000,197388,0.08192742,0.17744996,0.485471,0
864572000,864511272,197388,0.0822077,0.17778707,0.4883392,0
864584000,864584000,197388,0.08319297,0.18628235,0.48209015,0
864716000,864655272,197388,0.0783131,0.18135719,0.48468623,0
864728000,864728000,197388,0.07888655,0.18742642,0.49180505,0
864860000,864799636,197388,0.078915134,0.18147826,0.48754233,0
864872000,864872000,197388,0.07681657,0.1850963,0.4887893,0
865004000,864942909,197388,0.07874067,0.1790722,0.48725232,0
865016000,865016000,197388,0.074031875,0.1868243,0.48581693,0
865148000,865087272,197388,0.07740559,0.17922127,0.48720452,0
865160000,865160000,197388,0.08005688,0.18202074,0.4866159,0
865292000,865232000,197388,0.0785474,0.17939098,0.48731503,0
865304000,865304000,197388,0.07780807,0.17962885,0.49039894,0
865432000,865375272,197388,0.07869471,0.1787143,0.4888959,0
865448000,865448000,197388,0.077170424,0.18332717,0.49054614,0
865580000,865520000,197388,0.0793945,0.1811398,0.4880364,0
865592000,865592000,197388,0.074185446,0.17726855,0.49096385,0
865724000,865662909,197388,0.07992882,0.18144523,0.48902565,0
865736000,865736000,197388,0.077049,0.17879112,0.48298523,0
865868000,865807636,197388,0.077716246,0.18391915,0.48729014,0
865880000,865880000,197388,0.08580458,0.17685798,0.4869355,0
866012000,865951272,197388,0.07736773,0.17936608,0.4879497,0
866024000,866024000,197388,0.077018514,0.18244433,0.4905095,0
866152000,866094545,197388,0.07711971,0.17826529,0.4887266,0
866168000,866168000,197388,0.078108326,0.18076919,0.48442927,0
866300000,866238909,197388,0.07595776,0.18005475,0.48821962,0
866312000,866312000,197388,0.075634755,0.18720411,0.49465415,0
866440000,866382545,197388,0.07639399,0.17825766,0.48729858,0
866452000,866452000,197388,0.081669465,0.18323204,0.49388,0
866576000,866520800,197388,0.07895347,0.17952737,0.4884846,0
866596000,866590000,197388,0.07642785,0.17938176,0.48922884,0
866708000,866659555,197388,0.07886252,0.17885509,0.4890685,0
866744000,866730666,197388,0.07694055,0.17655015,0.48640442,0
866840000,866797500,197388,0.078452244,0.17740345,0.4877159,0
866888000,866868000,197388,0.08128838,0.18004692,0.4835896,0
866972000,866935428,197388,0.07804433,0.17659985,0.4901076,0
867032000,867008000,197388,0.0761773,0.1747354,0.4914975,0
867116000,867080000,197388,0.0783671,0.17796163,0.48809183,0
867176000,867152000,197388,0.0794353,0.18236227,0.4900755,0
867260000,867223428,197388,0.07963555,0.18059823,0.48720697,0
867320000,867296000,197388,0.08117083,0.17758839,0.4889743,0
867404000,867366857,197388,0.08021974,0.1802152,0.48899096,0
867464000,867439200,197388,0.079225585,0.1785406,0.49002114,0
867536000,867506000,197388,0.07891783,0.17959046,0.48720896,0
867608000,867577333,197388,0.08163785,0.17946468,0.48641634,0
867680000,867649333,197388,0.07920769,0.18125485,0.4912053,0
867752000,867721333,197388,0.07917575,0.17955303,0.48756665,0
867824000,867793333,197388,0.07977189,0.17565325,0.4878009,0
867884000,867860000,197388,0.07884812,0.17944843,0.48831606,0
867968000,867932000,197388,0.080082,0.17832251,0.48528945,0
868028000,868003200,197388,0.08332919,0.18038534,0.49013734,0
868100000,868070000,197388,0.07851114,0.17676167,0.4878571,0
868172000,868141333,197388,0.07878447,0.17693964,0.49002182,0
868232000,868208000,197388,0.07934542,0.17942677,0.4916605,0
868316000,868278857,197388,0.08095227,0.17798306,0.49014747,0
868376000,868351200,197388,0.08248247,0.17884639,0.48855886,0
868460000,868422857,197388,0.08384986,0.17794518,0.49062145,0
868508000,868490000,197388,0.08071748,0.17577913,0.4912817,0
868604000,868562000,197388,0.0821651,0.17596065,0.4878852,0
868652000,868634000,197388,0.083055526,0.17649141,0.49124354,0
868748000,868706000,197388,0.08362524,0.17709106,0.48886028,0
868796000,868778000,197388,0.08555075,0.17474872,0.48708677,0
868892000,868849500,197388,0.07944478,0.1784172,0.48748136,0
868940000,868921000,197388,0.082350895,0.17692152,0.48680452,0
869036000,868993500,197388,0.08232262,0.17902401,0.48674655,0
869084000,869066000,197388,0.080787495,0.17519525,0.49095905,0
869180000,869138000,197388,0.08000098,0.1770896,0.4887087,0
869228000,869209000,197388,0.084213786,0.17760728,0.48717168,0
869320000,869280000,197388,0.081434466,0.17835401,0.48846695,0
869360000,869348000,197388,0.0820384,0.17516875,0.4901271,0
869468000,869419555,197388,0.08037971,0.17901972,0.48886454,0
869504000,869492000,197388,0.08306646,0.17767414,0.48467666,0
869612000,869564000,197388,0.08398839,0.17813523,0.4885504,0
869648000,869636000,197388,0.08180441,0.177039,0.48663944,0
869756000,869707555,197388,0.08187596,0.17690784,0.4878183,0
869792000,869780000,197388,0.08282854,0.17821485,0.4869164,0
869900000,869851555,197388,0.08343869,0.17875484,0.48813587,0
869936000,869924000,197388,0.08288261,0.17851484,0.48821867,0
870040000,869995555,197388,0.085445926,0.17847285,0.48802525,0
870076000,870066666,197388,0.08376779,0.1774118,0.48861036,0
870176000,870134000,197388,0.084476784,0.1798118,0.48965064,0
870224000,870206000,197388,0.08487282,0.1771094,0.48753443,0
870320000,870278000,197388,0.082511604,0.1791105,0.48922122,0
870368000,870350000,197388,0.08123945,0.17871717,0.4891429,0
870464000,870422000,197388,0.081918105,0.1797848,0.48835924,0
870512000,870494000,197388,0.08342743,0.1802727,0.48837328,0
870608000,870566000,197388,0.082572885,0.17774357,0.48880315,0
870656000,870638000,197388,0.08417742,0.17582707,0.4904434,0
870752000,870709000,197388,0.08120574,0.17596814,0.48837632,0
870800000,870780000,197388,0.08135775,0.17487572,0.49010628,0
870884000,870848000,197388,0.08116737,0.18020524,0.48904687,0
870944000,870919200,197388,0.08048137,0.17772748,0.48617575,0
871016000,870986000,197388,0.08093085,0.18189363,0.48682973,0
871088000,871056666,197388,0.08162323,0.17758259,0.48941338,0
871156000,871128000,197388,0.07835449,0.17543179,0.48956105,0
871220000,871196000,197388,0.078915976,0.1770524,0.4916423,0
871304000,871266857,197388,0.07956343,0.17559989,0.48818457,0
871352000,871334000,197388,0.07829948,0.17280999,0.4888268,0
871448000,871406000,197388,0.08042198,0.17638594,0.48883247,0
871496000,871477000,197388,0.07943406,0.17802396,0.48872036,0
871580000,871544000,197388,0.077821776,0.18015037,0.48640266,0
871640000,871616000,197388,0.08165571,0.17613302,0.4910729,0
871720000,871686857,197388,0.07930773,0.17516424,0.4910249,0
871784000,871759200,197388,0.081109315,0.17930146,0.4875128,0
871856000,871826000,197388,0.07675992,0.17632654,0.49011654,0
871928000,871898000,197388,0.07952635,0.17585883,0.49265453,0
872000000,871970000,197388,0.08005306,0.17708701,0.48865414,0
872072000,872041333,197388,0.080881916,0.17603335,0.4918997,0
872132000,872108000,197388,0.08056492,0.17741597,0.48880178,0
872216000,872180000,197388,0.07808475,0.17839617,0.4905363,0
872276000,872252000,197388,0.08040067,0.17619117,0.4898491,0
872360000,872324000,197388,0.080401644,0.17695323,0.48878217,0
872420000,872396000,197388,0.08088821,0.17943823,0.48609468,0
872500000,872467428,197388,0.07903258,0.17879112,0.48798707,0
872560000,872536000,197388,0.078490674,0.17632066,0.48822972,0
872636000,872602666,197388,0.07466027,0.17592889,0.4880608,0
872696000,872671200,197388,0.07859818,0.17856708,0.48951364,0
872768000,872738000,197388,0.07675639,0.17730725,0.48793685,0
872840000,872809333,197388,0.07857348,0.17836526,0.4894974,0
872900000,872876000,197388,0.07716496,0.17827824,0.49146637,0
872984000,872948000,197388,0.075005524,0.17615946,0.48944238,0
873044000,873020000,197388,0.076834515,0.17784084,0.48728475,0
873128000,873092000,197388,0.07784769,0.17952842,0.49044096,0
873188000,873164000,197388,0.07870119,0.1776239,0.49047276,0
873272000,873236000,197388,0.078436196,0.1752924,0.4906633,0
873332000,873307200,197388,0.07688524,0.17744616,0.48807105,0
873416000,873379428,197388,0.07573444,0.1763172,0.4888152,0
873476000,873451200,197388,0.07936901,0.17906587,0.48824784,0
873548000,873518000,197388,0.07547733,0.17663625,0.48796052,0
873620000,873590000,197388,0.078188896,0.17894816,0.48821217,0
873692000,873661333,197388,0.07675974,0.18170309,0.48665452,0
873764000,873733333,197388,0.07629125,0.18141553,0.4909317,0
873836000,873805333,197388,0.076732226,0.17905132,0.48890024,0
873908000,873877333,197388,0.07914588,0.17995295,0.48984933,0
873968000,873944000,197388,0.07802817,0.1787443,0.48692474,0
874052000,874016000,197388,0.08053322,0.17327902,0.48824674,0
874108000,874087200,197388,0.08052623,0.16966662,0.49038416,0
874184000,874154000,197388,0.08115141,0.1749864,0.49173528,0
874256000,874226000,197388,0.08000259,0.17063141,0.49037874,0
874328000,874297333,197388,0.07921052,0.17348105,0.48872226,0
874388000,874364000,197388,0.07665908,0.17514654,0.49064395,0
874472000,874436000,197388,0.07754191,0.17395751,0.49009243,0
874532000,874508000,197388,0.07831647,0.17711557,0.4898355,0
874616000,874579428,197388,0.07601923,0.17518945,0.4921613,0
874676000,874650400,197388,0.076480485,0.17943208,0.49146318,0
874748000,874717333,197388,0.07715711,0.18137586,0.48831198,0
874820000,874789333,197388,0.07511844,0.18432575,0.48646146,0
874880000,874856000,197388,0.071936496,0.18785481,0.48864493,0
874964000,874927428,197388,0.0761281,0.1911411,0.48432067,0
875024000,875000000,197388,0.07347461,0.19681185,0.48246542,0
875108000,875070285,197388,0.07663494,0.20368217,0.47899246,0
875156000,875138000,197388,0.07992348,0.21029864,0.47723046,0
875252000,875209500,197388,0.07911415,0.21854067,0.473762,0
875300000,875282000,197388,0.078737125,0.22707868,0.4712476,0
875396000,875354000,197388,0.084605396,0.23629731,0.46312094,0
875444000,875426000,197388,0.084712416,0.24669847,0.4548974,0
875536000,875497000,197388,0.08827846,0.25356126,0.4521612,0
875584000,875567000,197388,0.090660565,0.26466691,0.44777024,0
875672000,875635428,197388,0.09474125,0.27722716,0.43738517,0
875732000,875707200,197388,0.09966828,0.29516268,0.42239004,0
875816000,875779428,197388,0.10338857,0.3032099,0.41577062,0
875876000,875852000,197388,0.10467807,0.31382686,0.41101295,0
875960000,875924000,197388,0.10518407,0.3138229,0.40992138,0
876020000,875996000,197388,0.10834234,0.31549942,0.40525004,0
876104000,876067428,197388,0.10823209,0.3242627,0.4030229,0
876164000,876140000,197388,0.10978409,0.323162,0.39964223,0
876248000,876212000,197388,0.10758489,0.3231047,0.39861634,0
876308000,876284000,197388,0.10725387,0.32414734,0.3953261,0
876392000,876355428,197388,0.11085765,0.33014745,0.39549452,0
876452000,876427200,197388,0.11168212,0.32918128,0.39412695,0
876524000,876494000,197388,0.11259385,0.3319151,0.3919729,0
876596000,876564666,197388,0.10951677,0.3287679,0.3957491,0
876668000,876637333,197388,0.11128467,0.3288703,0.39699924,0
876728000,876704000,197388,0.11347213,0.32945365,0.39408728,0
876812000,876776000,197388,0.10761019,0.32599515,0.3924856,0
876872000,876848000,197388,0.11190528,0.32593203,0.3966028,0
876956000,876920000,197388,0.110010095,0.32917982,0.39859357,0
877016000,876992000,197388,0.11017008,0.32867265,0.39894435,0
877100000,877064000,197388,0.10916771,0.32865876,0.39857566,0
877160000,877136000,197388,0.108331755,0.32732007,0.39875075,0
877240000,877207428,197388,0.10765067,0.32761374,0.3984923,0
877304000,877280000,197388,0.10601659,0.3255005,0.3985709,0
877388000,877352000,197388,0.10491603,0.3255971,0.39899287,0
877448000,877424000,197388,0.10372883,0.32417879,0.40332338,0
877528000,877495428,197388,0.10335595,0.32676566,0.4006143,0
877592000,877568000,197388,0.1075657,0.32264373,0.39960507,0
877676000,877640000,197388,0.10417109,0.32497275,0.40199098,0
877736000,877712000,197388,0.100495376,0.3254523,0.39801297,0
877820000,877783428,197388,0.10361581,0.3253731,0.40166727,0
877876000,877855200,197388,0.1037172,0.32638493,0.40188438,0
877960000,877926857,197388,0.103413716,0.32322708,0.40053022,0
878012000,877994000,197388,0.10244929,0.32148036,0.39992684,0
878108000,878066000,197388,0.10212095,0.3231396,0.40086964,0
878156000,878138000,197388,0.103111565,0.3280116,0.40123382,0
878252000,878209000,197388,0.09993854,0.3261011,0.40127492,0
878288000,878276000,197388,0.10298653,0.32465652,0.40285143,0
878396000,878348000,197388,0.1001221,0.32255402,0.39970243,0
878432000,878420000,197388,0.09684899,0.3262505,0.40329468,0
878536000,878491555,197388,0.09815822,0.32338005,0.40177834,0
878572000,878561333,197388,0.091275424,0.32181367,0.40128374,0
878668000,878628000,197388,0.09198219,0.3102494,0.4167539,0
878708000,878696000,197388,0.09529539,0.29729643,0.42303643,0
878816000,878768000,197388,0.08465037,0.27697107,0.43824807,0
878848000,878837333,197388,0.07929456,0.257881,0.4506503,0
878944000,878904500,197388,0.07780734,0.24446271,0.4596074,0
878984000,878972000,197388,0.07681926,0.23683509,0.4681178,0
879092000,879042666,197388,0.072004415,0.22544408,0.4702472,0
879116000,879110000,197388,0.06672815,0.21162412,0.47797635,0
879236000,879180400,197388,0.0705506,0.20739548,0.4806819,0
879248000,879248000,197388,0.07143432,0.1982214,0.47962472,0
879380000,879319272,197388,0.06744333,0.19432697,0.48384342,0
879392000,879392000,197388,0.062488936,0.18761212,0.4843995,0
879524000,879462181,197388,0.065803386,0.18187803,0.4889777,0
879536000,879536000,197388,0.06304733,0.19233452,0.48521647,0
879668000,879607272,197388,0.078493655,0.23391302,0.46504056,0
879680000,879680000,197388,0.08367515,0.26186487,0.45507455,0
879808000,879751636,197388,0.078778304,0.24263352,0.46113393,0
879824000,879824000,197388,0.077812865,0.22601086,0.4650047,0
879952000,879895272,197388,0.071728,0.20257087,0.4812455,0
879964000,879964000,197388,0.062035993,0.17895575,0.49068528,0
880088000,880033600,197388,0.063388474,0.15957072,0.49325877,0
880108000,880104000,197388,0.052639782,0.13567346,0.49997807,0
880220000,880171555,197388,0.053261396,0.11884998,0.51127684,0
880256000,880244000,197388,0.049648203,0.10196268,0.5101661,0
880364000,880316000,197388,0.050333507,0.09876092,0.5155813,0
880400000,880388000,197388,0.05204109,0.09926358,0.5118524,0
880508000,880460000,197388,0.054577015,0.106053345,0.5128217,0
880544000,880532000,197388,0.054192167,0.10911754,0.51505065,0
880652000,880603555,197388,0.05765261,0.11095623,0.51227987,0
880688000,880676000,197388,0.061395597,0.11542686,0.51305056,0
880796000,880748000,197388,0.062285304,0.12165716,0.5082723,0
880832000,880820000,197388,0.06309638,0.12423301,0.5079038,0
880936000,880891111,197388,0.06635282,0.1330427,0.5055086,0
880964000,880958000,197388,0.061408736,0.1413069,0.49506074,0
881084000,881029200,197388,0.06834522,0.14951418,0.5011077,0
881096000,881096000,197388,0.07227006,0.15832935,0.5038687,0
881228000,881167636,197388,0.07235491,0.1603281,0.4969982,0
881240000,881240000,197388,0.07867912,0.15481368,0.4940791,0
881372000,881312000,197388,0.07315633,0.14963971,0.50008255,0
881384000,881384000,197388,0.07244092,0.1355545,0.49762565,0
881512000,881455636,197388,0.0725569,0.14208688,0.50095385,0
881528000,881528000,197388,0.06891103,0.13798618,0.50023013,0
881660000,881599636,197388,0.07244485,0.14193371,0.5008291,0
881672000,881672000,197388,0.07527107,0.14393693,0.50357276,0
881804000,881744000,197388,0.075959384,0.1452957,0.49999586,0
881816000,881816000,197388,0.074027546,0.14442189,0.4958146,0
881948000,881888000,197388,0.07820434,0.14943409,0.49856326,0
881960000,881960000,197388,0.078222975,0.1547726,0.49786845,0
882092000,882031636,197388,0.07867299,0.15281858,0.49854654,0
882104000,882104000,197388,0.08038952,0.16009122,0.49538338,0
882232000,882174909,197388,0.07823747,0.16027626,0.49629325,0
882244000,882244000,197388,0.08261686,0.16494735,0.49271283,0
882368000,882312800,197388,0.08302628,0.16245912,0.49489364,0
882380000,882380000,197388,0.080345914,0.16168997,0.49775425,0
882512000,882451636,197388,0.08365907,0.16702259,0.4941677,0
882524000,882524000,197388,0.075325914,0.16763805,0.48823497,0
882656000,882595636,197388,0.083775796,0.17074811,0.4925581,0
882668000,882668000,197388,0.08504688,0.17096806,0.49164546,0
882800000,882740000,197388,0.08117429,0.17325151,0.4891938,0
882812000,882812000,197388,0.078715384,0.1771852,0.49134827,0
882940000,882883272,197388,0.08063998,0.17647843,0.48928058,0
882956000,882956000,197388,0.080499485,0.1811344,0.4873482,0
883088000,883028000,197388,0.08202731,0.17914751,0.48706043,0
883100000,883100000,197388,0.07430378,0.18254323,0.49283445,0
883232000,883170909,197388,0.08052208,0.18133187,0.48911083,0
883244000,883244000,197388,0.08361869,0.17796339,0.4864477,0
883376000,883315272,197388,0.07837596,0.18366626,0.48755205,0
883384000,883384000,197388,0.083736226,0.18833739,0.48675105,0
883508000,883454000,197388,0.078617744,0.18446694,0.48744154,0
883532000,883526000,197388,0.0809048,0.18616015,0.4825606,0
883652000,883598000,197388,0.07932311,0.18591613,0.48670053,0
883676000,883670000,197388,0.0758888,0.18445769,0.48225266,0
883796000,883742000,197388,0.078108236,0.1861913,0.48550054,0
883820000,883814000,197388,0.07763718,0.18656301,0.48606294,0
883940000,883886000,197388,0.07741712,0.18673517,0.4852459,0
883964000,883958000,197388,0.07809358,0.19320491,0.48555532,0
884084000,884029600,197388,0.07594525,0.18585262,0.48775044,0
884108000,884102000,197388,0.077693686,0.1896809,0.48421073,0
884228000,884173200,197388,0.07682761,0.18820094,0.48580167,0
884240000,884240000,197388,0.07578155,0.18235223,0.4908039,0
884368000,884311636,197388,0.076193154,0.1857459,0.48710355,0
884384000,884384000,197388,0.07409162,0.1900513,0.48428202,0
884512000,884454909,197388,0.07595024,0.18406132,0.48705545,0
884524000,884524000,197388,0.076524034,0.18608096,0.48458892,0
884648000,884594000,197388,0.07418459,0.18664257,0.4874149,0
884672000,884666000,197388,0.07409549,0.19028364,0.48842663,0
884792000,884738000,197388,0.074301004,0.18485151,0.48660555,0
884816000,884810000,197388,0.074364245,0.18684362,0.49184203,0
884936000,884881600,197388,0.07219017,0.18256085,0.48823115,0
884960000,884954000,197388,0.07459167,0.18556148,0.48800755,0
885080000,885026000,197388,0.07476015,0.18220606,0.48956177,0
885104000,885098000,197388,0.08000094,0.18649301,0.4817773,0
885224000,885170000,197388,0.07629024,0.18177937,0.4876527,0
885244000,885240000,197388,0.07348026,0.17969759,0.4873463,0
885356000,885308000,197388,0.07400159,0.18286707,0.4878067,0
885392000,885380000,197388,0.07392972,0.17949395,0.48929486,0
885500000,885452000,197388,0.073714465,0.18034108,0.48869228,0
885536000,885521333,197388,0.07492398,0.1804449,0.4849741,0
885632000,885590000,197388,0.07364353,0.1821548,0.488727,0
885680000,885661000,197388,0.07541691,0.1788054,0.48880252,0
885776000,885733500,197388,0.07468497,0.17997357,0.48940876,0
885824000,885805000,197388,0.077071,0.18072784,0.4870452,0
885908000,885872000,197388,0.07333614,0.1807732,0.48938254,0
885968000,885943200,197388,0.07416941,0.18280703,0.48817664,0
886052000,886015428,197388,0.075508945,0.18108073,0.48551816,0
886108000,886087200,197388,0.07432513,0.18271242,0.4869731,0
886196000,886159428,197388,0.07681097,0.18346372,0.48773104,0
886256000,886232000,197388,0.07374843,0.18094017,0.48664412,0
886340000,886304000,197388,0.07425581,0.17972472,0.4881003,0
886400000,886374400,197388,0.07467355,0.18123342,0.48823792,0
886472000,886441333,197388,0.07417091,0.17843603,0.48693085,0
886532000,886508000,197388,0.07664664,0.17891441,0.48813182,0
886616000,886578857,197388,0.07499619,0.18036392,0.48751998,0
886676000,886651200,197388,0.07344632,0.18173625,0.489713,0
886748000,886718000,197388,0.07515353,0.18122917,0.48911393,0
886820000,886790000,197388,0.07509072,0.1775829,0.48783287,0
886892000,886862000,197388,0.0726274,0.17991614,0.48941192,0
886964000,886932666,197388,0.07186844,0.17927685,0.4869252,0
887024000,887000000,197388,0.07366138,0.17841105,0.4901913,0
887104000,887071428,197388,0.07416405,0.17977147,0.48859295,0
887168000,887143200,197388,0.0765386,0.18115643,0.4878696,0
887240000,887210000,197388,0.07302582,0.17909633,0.49016106,0
887312000,887281333,197388,0.07359396,0.17795561,0.49112988,0
887372000,887348000,197388,0.07310938,0.17637923,0.48869106,0
887456000,887420000,197388,0.07322945,0.17563783,0.48931658,0
887516000,887490400,197388,0.07545537,0.177042,0.49172458,0
887588000,887558000,197388,0.07462457,0.17708181,0.48794648,0
887656000,887628666,197388,0.07445703,0.17767613,0.49075204,0
887720000,887696000,197388,0.073389284,0.1772673,0.4884245,0
887804000,887766857,197388,0.072139144,0.17918092,0.49048737,0
887864000,887839200,197388,0.07400764,0.17641047,0.48884088,0
887948000,887911428,197388,0.07094927,0.17455472,0.4903244,0
888008000,887984000,197388,0.07334391,0.18169373,0.488405,0
888092000,888056000,197388,0.07340737,0.17818816,0.49077207,0
888152000,888128000,197388,0.07509634,0.17713213,0.49131647,0
888236000,888200000,197388,0.07384246,0.18101257,0.48892912,0
888296000,888272000,197388,0.07377229,0.18195973,0.48913294,0
888380000,888344000,197388,0.07234843,0.18110892,0.488187,0
888440000,888416000,197388,0.074407294,0.17986582,0.48870498,0
888520000,888486857,197388,0.07316329,0.18404183,0.48703855,0
888584000,888559200,197388,0.07299699,0.17915995,0.4880992,0
888656000,888626000,197388,0.07460889,0.1822015,0.49080825,0
888728000,888696666,197388,0.07251206,0.18120365,0.49162686,0
888788000,888764000,197388,0.07372404,0.17908381,0.49146834,0
888872000,888836000,197388,0.07165672,0.17849234,0.4891916,0
888928000,888907200,197388,0.06950445,0.1789255,0.48762092,0
889016000,888979428,197388,0.07406738,0.18156078,0.49038342,0
889076000,889052000,197388,0.07157168,0.18098186,0.4878776,0
889160000,889121714,197388,0.07371746,0.17931744,0.4874152,0
889216000,889192800,197388,0.07341363,0.18134753,0.48607707,0
889304000,889265714,197388,0.07370217,0.18133852,0.48834425,0
889352000,889334000,197388,0.07332424,0.1811649,0.4896633,0
889448000,889404500,197388,0.07428387,0.18001957,0.48883778,0
889496000,889477000,197388,0.07277996,0.17874528,0.48816842,0
889580000,889544000,197388,0.0711143,0.17938295,0.48730996,0
889640000,889616000,197388,0.074403346,0.18150079,0.4875104,0
889724000,889688000,197388,0.07314925,0.1825575,0.48780912,0
889784000,889759200,197388,0.07144814,0.1792469,0.49036464,0
889856000,889826000,197388,0.07218317,0.1792048,0.48794648,0
889928000,889898000,197388,0.073927924,0.18088943,0.4906823,0
890000000,889969333,197388,0.07330136,0.17855841,0.48897716,0
890060000,890036000,197388,0.07402585,0.18106125,0.48645878,0
890144000,890108000,197388,0.07632823,0.18202884,0.48782906,0
890204000,890180000,197388,0.07406211,0.17986314,0.48691258,0
890284000,890250857,197388,0.07491636,0.18200299,0.4904158,0
890348000,890323200,197388,0.07442259,0.18133526,0.48941126,0
890420000,890390000,197388,0.07306671,0.18049625,0.48793024,0
890488000,890461333,197388,0.079387635,0.18224113,0.4877283,0
890552000,890528000,197388,0.07230656,0.18077697,0.48885965,0
890636000,890599428,197388,0.07541386,0.18157609,0.48791492,0
890696000,890672000,197388,0.07483774,0.18088488,0.48927936,0
890776000,890741142,197388,0.07336572,0.18245085,0.48876432,0
890828000,890809000,197388,0.07938336,0.18334481,0.48736167,0
890924000,890880500,197388,0.0750256,0.18243071,0.48608536,0
890960000,890948000,197388,0.07561658,0.18808638,0.4877168,0
891068000,891020000,197388,0.07387061,0.18293677,0.48775747,0
891104000,891092000,197388,0.07290368,0.17868826,0.49040136,0
891212000,891163555,197388,0.07535349,0.18019815,0.48695597,0
891248000,891236000,197388,0.07430616,0.18334621,0.48557538,0
891356000,891308000,197388,0.07287576,0.18366632,0.48848784,0
891392000,891380000,197388,0.07386573,0.18192182,0.4847505,0
891500000,891452000,197388,0.076558106,0.1853507,0.48747793,0
891536000,891524000,197388,0.076436654,0.18167216,0.48503053,0
891644000,891595555,197388,0.07637418,0.18662895,0.48851252,0
891680000,891668000,197388,0.07921066,0.18598056,0.48636007,0
891788000,891739111,197388,0.07303939,0.18201464,0.48833147,0
891824000,891810666,197388,0.07578902,0.17911896,0.48845536,0
891920000,891878000,197388,0.073620595,0.18405877,0.48639688,0
891968000,891950000,197388,0.07454184,0.18030608,0.48816374,0
892060000,892020500,197388,0.07383844,0.1818522,0.49058345,0
892100000,892088000,197388,0.07368754,0.1835289,0.48669332,0
892208000,892159555,197388,0.0747039,0.18381439,0.48795012,0
892240000,892230666,197388,0.0706115,0.18305048,0.48709154,0
892340000,892297500,197388,0.07284348,0.18385184,0.4897816,0
892388000,892370000,197388,0.07802993,0.18456042,0.48739338,0
892480000,892441500,197388,0.074531876,0.1835758,0.48708838,0
892532000,892514000,197388,0.07771849,0.18142948,0.48958564,0
892628000,892586000,197388,0.07586529,0.18203107,0.48718917,0
892676000,892658000,197388,0.07252043,0.18443583,0.48861212,0
892772000,892730000,197388,0.07552355,0.1809995,0.48755425,0
892820000,892802000,197388,0.07704392,0.18115611,0.48755857,0
892916000,892873000,197388,0.075277165,0.18042248,0.48686805,0
892952000,892940000,197388,0.07964319,0.18220966,0.48837388,0
893060000,893011111,197388,0.07811082,0.18051274,0.48421234,0
893096000,893082666,197388,0.07766919,0.18179259,0.48703107,0
893192000,893149500,197388,0.0767958,0.18353488,0.48975888,0
893240000,893221000,197388,0.078881264,0.18389462,0.48624662,0
893324000,893288000,197388,0.07613672,0.18425375,0.48877758,0
893384000,893359200,197388,0.07623457,0.18030833,0.48716792,0
893456000,893426000,197388,0.0769422,0.18369082,0.48758098,0
893528000,893498000,197388,0.074248135,0.18262121,0.4904828,0
893600000,893569333,197388,0.07795993,0.1813818,0.48572683,0
893660000,893636000,197388,0.07454325,0.18093753,0.4875053,0
893744000,893708000,197388,0.0764228,0.18390803,0.48834193,0
893804000,893780000,197388,0.07681745,0.18306631,0.48628876,0
893888000,893852000,197388,0.07427285,0.18290636,0.48633698,0
893948000,893922400,197388,0.07749664,0.17920859,0.4877832,0
894016000,893989333,197388,0.076749355,0.18354732,0.4869135,0
894080000,894056000,197388,0.078402795,0.18186127,0.48830232,0
894164000,894127428,197388,0.076780304,0.1834714,0.48878032,0
894224000,894200000,197388,0.07967841,0.18113305,0.4858975,0
894308000,894272000,197388,0.076114655,0.18364124,0.4885248,0
894368000,894344000,197388,0.0760785,0.18074359,0.48596355,0
894452000,894416000,197388,0.07694301,0.18226641,0.48701918,0
894508000,894486400,197388,0.07892609,0.18492214,0.48443294,0
894584000,894554000,197388,0.07750299,0.1819798,0.48616946,0
894656000,894626000,197388,0.07536086,0.1810332,0.4875053,0
894724000,894697333,197388,0.075194255,0.18305945,0.48602355,0
894788000,894764000,197388,0.07640918,0.18009636,0.48984176,0
894872000,894834857,197388,0.0767048,0.18162747,0.49044693,0
894920000,894902000,197388,0.07458249,0.18207969,0.48814303,0
895016000,894973500,197388,0.073674686,0.1825426,0.48842657,0
895060000,895045000,197388,0.07588462,0.184171,0.48609394,0
895148000,895112000,197388,0.074077174,0.18134946,0.48808557,0
895204000,895182400,197388,0.076817915,0.18269289,0.4885479,0
895292000,895254285,197388,0.07756934,0.18332656,0.48623097,0
895340000,895322000,197388,0.07549452,0.17800869,0.49053633,0
895436000,895393500,197388,0.07635424,0.18141605,0.49099687,0
895484000,895464000,197388,0.07748471,0.18135194,0.48801664,0
895568000,895532000,197388,0.07453743,0.1794452,0.48731917,0
895628000,895604000,197388,0.074738316,0.18235146,0.48733288,0
895712000,895675428,197388,0.07755338,0.17933373,0.4888602,0
895772000,895748000,197388,0.07528063,0.17959948,0.48760882,0
895856000,895820000,197388,0.07658487,0.17940941,0.48944288,0
895916000,895892000,197388,0.0767123,0.1818235,0.48874712,0
896000000,895963428,197388,0.0770789,0.18310772,0.48720968,0
896060000,896036000,197388,0.07893765,0.16969192,0.4918519,0
896144000,896108000,197388,0.07872485,0.17799787,0.49020872,0
896204000,896180000,197388,0.08018066,0.18153514,0.48721886,0
896288000,896251428,197388,0.07971541,0.18125714,0.48724967,0
896348000,896323200,197388,0.077748775,0.17999227,0.48768425,0
896420000,896390000,197388,0.07894178,0.17942896,0.4896376,0
896492000,896462000,197388,0.07735488,0.17820245,0.48826766,0
896564000,896534000,197388,0.07949881,0.17868793,0.49042186,0
896636000,896605333,197388,0.07862733,0.18196599,0.48894906,0
896708000,896677333,197388,0.07912486,0.17854255,0.48641357,0
896768000,896744000,197388,0.07971308,0.1772986,0.48733076,0
896852000,896816000,197388,0.07939468,0.17931823,0.48935944,0
896912000,896888000,197388,0.081578754,0.18001495,0.48744702,0
896992000,896958857,197388,0.07799548,0.17774267,0.49059117,0
897056000,897031200,197388,0.07875077,0.17914867,0.4901037,0
897128000,897098000,197388,0.08104674,0.17740107,0.48843133,0
897200000,897170000,197388,0.08120536,0.17981331,0.48892125,0
897272000,897242000,197388,0.07888998,0.18047267,0.48914945,0
897344000,897313333,197388,0.080599055,0.17922997,0.48824197,0
897416000,897384666,197388,0.0791757,0.17669809,0.489918,0
897488000,897457333,197388,0.080996946,0.18006127,0.48942456,0
897560000,897528666,197388,0.081150174,0.18201225,0.4896439,0
897628000,897600666,197388,0.08121218,0.17732897,0.4889763,0
897692000,897668000,197388,0.07986285,0.18323304,0.49055585,0
897776000,897740000,197388,0.07904598,0.18037578,0.4894438,0
897836000,897811200,197388,0.08100666,0.17958872,0.49071333,0
