timestamp,timestamp_sample,ref_timestamp,ref_lat,ref_lon,x,y,z,delta_xy[0],delta_xy[1],delta_z,vx,vy,vz,z_deriv,delta_vxy[0],delta_vxy[1],delta_vz,ax,ay,az,heading,delta_heading,ref_alt,dist_bottom,eph,epv,evh,evv,vxy_max,vz_max,hagl_min,hagl_max,xy_valid,z_valid,v_xy_valid,v_z_valid,xy_reset_counter,z_reset_counter,vxy_reset_counter,vz_reset_counter,heading_reset_counter,heading_good_for_control,xy_global,z_global,dist_bottom_valid,dist_bottom_sensor_bitfield
829264000,0,0,0.0,0.0,6451297.0,-7249869.0,-229.26901,0.0,0.0,0.0,0.0,0.0,0.0,0.0,0.0,0.0,0.0,-0.12100001,-0.041,0.003,-1.2312632,0.0,0.0,0.0,0.0,0.0,0.0,0.0,inf,inf,inf,inf,1,1,1,1,0,0,0,0,0,0,1,1,0,0
829268000,0,0,0.0,0.0,6451297.0,-7249869.0,-229.26901,0.0,0.0,0.0,0.0,0.0,0.0,0.0,0.0,0.0,0.0,0.11800001,0.039,-0.004,-1.2312661,0.0,0.0,0.0,0.0,0.0,0.0,0.0,inf,inf,inf,inf,1,1,1,1,0,0,0,0,0,0,1,1,0,0
829284000,0,0,0.0,0.0,6451297.0,-7249869.0,-229.26901,0.0,0.0,0.0,0.0,0.0,0.0,0.0,0.0,0.0,0.0,-0.054,-0.030000001,-0.082,-1.2312663,0.0,0.0,0.0,0.0,0.0,0.0,0.0,inf,inf,inf,inf,1,1,1,1,0,0,0,0,0,0,1,1,0,0
829304000,0,0,0.0,0.0,6451297.0,-7249869.0,-229.26901,0.0,0.0,0.0,0.0,0.0,0.0,0.0,0.0,0.0,0.0,0.05,0.031000001,0.163,-1.2312646,0.0,0.0,0.0,0.0,0.0,0.0,0.0,inf,inf,inf,inf,1,1,1,1,0,0,0,0,0,0,1,1,0,0
829324000,0,0,0.0,0.0,6451297.0,-7249869.0,-229.26901,0.0,0.0,0.0,0.0,0.0,0.0,0.0,0.0,0.0,0.0,0.123,0.049000002,0.124000005,-1.231266,0.0,0.0,0.0,0.0,0.0,0.0,0.0,inf,inf,inf,inf,1,1,1,1,0,0,0,0,0,0,1,1,0,0
829344000,0,0,0.0,0.0,6451297.0,-7249869.0,-229.26901,0.0,0.0,0.0,0.0,0.0,0.0,0.0,0.0,0.0,0.0,-0.11800001,-0.040000003,0.009000001,-1.2312617,0.0,0.0,0.0,0.0,0.0,0.0,0.0,inf,inf,inf,inf,1,1,1,1,0,0,0,0,0,0,1,1,0,0
829360000,0,0,0.0,0.0,6451297.0,-7249869.0,-229.26901,0.0,0.0,0.0,0.0,0.0,0.0,0.0,0.0,0.0,0.0,-0.12100001,-0.041,0.007,-1.2312617,0.0,0.0,0.0,0.0,0.0,0.0,0.0,inf,inf,inf,inf,1,1,1,1,0,0,0,0,0,0,1,1,0,0
829380000,0,0,0.0,0.0,6451297.0,-7249869.0,-229.26901,0.0,0.0,0.0,0.0,0.0,0.0,0.0,0.0,0.0,0.0,-0.029000001,0.007,0.79300004,-1.2312642,0.0,0.0,0.0,0.0,0.0,0.0,0.0,inf,inf,inf,inf,1,1,1,1,0,0,0,0,0,0,1,1,0,0
829404000,0,0,0.0,0.0,6451297.0,-7249869.0,-229.26901,0.0,0.0,0.0,0.0,0.0,0.0,0.0,0.0,0.0,0.0,-0.13700001,-0.045,0.019000001,-1.2312641,0.0,0.0,0.0,0.0,0.0,0.0,0.0,inf,inf,inf,inf,1,1,1,1,0,0,0,0,0,0,1,1,0,0
829420000,0,0,0.0,0.0,6451297.0,-7249869.0,-229.26901,0.0,0.0,0.0,0.0,0.0,0.0,0.0,0.0,0.0,0.0,-0.123,-0.040000003,0.010000001,-1.2312627,0.0,0.0,0.0,0.0,0.0,0.0,0.0,inf,inf,inf,inf,1,1,1,1,0,0,0,0,0,0,1,1,0,0
829440000,0,0,0.0,0.0,6451297.0,-7249869.0,-229.26901,0.0,0.0,0.0,0.0,0.0,0.0,0.0,0.0,0.0,0.0,0.028,0.003,-0.30400002,-1.2312658,0.0,0.0,0.0,0.0,0.0,0.0,0.0,inf,inf,inf,inf,1,1,1,1,0,0,0,0,0,0,1,1,0,0
829464000,0,0,0.0,0.0,6451297.0,-7249869.0,-229.26901,0.0,0.0,0.0,0.0,0.0,0.0,0.0,0.0,0.0,0.0,0.106000006,0.035,0.0,-1.2312664,0.0,0.0,0.0,0.0,0.0,0.0,0.0,inf,inf,inf,inf,1,1,1,1,0,0,0,0,0,0,1,1,0,0
829484000,0,0,0.0,0.0,6451297.0,-7249869.0,-229.26901,0.0,0.0,0.0,0.0,0.0,0.0,0.0,0.0,0.0,0.0,-0.11800001,-0.038000003,0.006,-1.2312623,0.0,0.0,0.0,0.0,0.0,0.0,0.0,inf,inf,inf,inf,1,1,1,1,0,0,0,0,0,0,1,1,0,0
829500000,0,0,0.0,0.0,6451297.0,-7249869.0,-229.26901,0.0,0.0,0.0,0.0,0.0,0.0,0.0,0.0,0.0,0.0,-0.012,-0.018000001,-0.675,-1.2312638,0.0,0.0,0.0,0.0,0.0,0.0,0.0,inf,inf,inf,inf,1,1,1,1,0,0,0,0,0,0,1,1,0,0
829524000,0,0,0.0,0.0,6451297.0,-7249869.0,-229.26901,0.0,0.0,0.0,0.0,0.0,0.0,0.0,0.0,0.0,0.0,0.11000001,0.035,0.006,-1.2312672,0.0,0.0,0.0,0.0,0.0,0.0,0.0,inf,inf,inf,inf,1,1,1,1,0,0,0,0,0,0,1,1,0,0
829544000,0,0,0.0,0.0,6451297.0,-7249869.0,-229.26901,0.0,0.0,0.0,0.0,0.0,0.0,0.0,0.0,0.0,0.0,-0.12200001,-0.039,0.007,-1.2312627,0.0,0.0,0.0,0.0,0.0,0.0,0.0,inf,inf,inf,inf,1,1,1,1,0,0,0,0,0,0,1,1,0,0
829564000,0,0,0.0,0.0,6451297.0,-7249869.0,-229.26901,0.0,0.0,0.0,0.0,0.0,0.0,0.0,0.0,0.0,0.0,0.15100001,0.059000004,0.055000003,-1.2312646,0.0,0.0,0.0,0.0,0.0,0.0,0.0,inf,inf,inf,inf,1,1,1,1,0,0,0,0,0,0,1,1,0,0
829584000,0,0,0.0,0.0,6451297.0,-7249869.0,-229.26901,0.0,0.0,0.0,0.0,0.0,0.0,0.0,0.0,0.0,0.0,-0.127,-0.042000003,0.009000001,-1.2312635,0.0,0.0,0.0,0.0,0.0,0.0,0.0,inf,inf,inf,inf,1,1,1,1,0,0,0,0,0,0,1,1,0,0
829600000,0,0,0.0,0.0,6451297.0,-7249869.0,-229.26901,0.0,0.0,0.0,0.0,0.0,0.0,0.0,0.0,0.0,0.0,-0.124000005,-0.041,0.006,-1.2312629,0.0,0.0,0.0,0.0,0.0,0.0,0.0,inf,inf,inf,inf,1,1,1,1,0,0,0,0,0,0,1,1,0,0
829620000,0,0,0.0,0.0,6451297.0,-7249869.0,-229.26901,0.0,0.0,0.0,0.0,0.0,0.0,0.0,0.0,0.0,0.0,0.028,0.003,-0.30400002,-1.2312659,0.0,0.0,0.0,0.0,0.0,0.0,0.0,inf,inf,inf,inf,1,1,1,1,0,0,0,0,0,0,1,1,0,0
829640000,0,0,0.0,0.0,6451297.0,-7249869.0,-229.26901,0.0,0.0,0.0,0.0,0.0,0.0,0.0,0.0,0.0,0.0,-0.13800001,-0.046000004,0.013,-1.231264,0.0,0.0,0.0,0.0,0.0,0.0,0.0,inf,inf,inf,inf,1,1,1,1,0,0,0,0,0,0,1,1,0,0
829664000,0,0,0.0,0.0,6451297.0,-7249869.0,-229.26901,0.0,0.0,0.0,0.0,0.0,0.0,0.0,0.0,0.0,0.0,-0.12200001,-0.041,0.0050000004,-1.2312629,0.0,0.0,0.0,0.0,0.0,0.0,0.0,inf,inf,inf,inf,1,1,1,1,0,0,0,0,0,0,1,1,0,0
829684000,0,0,0.0,0.0,6451297.0,-7249869.0,-229.26901,0.0,0.0,0.0,0.0,0.0,0.0,0.0,0.0,0.0,0.0,-0.029000001,0.007,0.79300004,-1.2312651,0.0,0.0,0.0,0.0,0.0,0.0,0.0,inf,inf,inf,inf,1,1,1,1,0,0,0,0,0,0,1,1,0,0
829704000,0,0,0.0,0.0,6451297.0,-7249869.0,-229.26901,0.0,0.0,0.0,0.0,0.0,0.0,0.0,0.0,0.0,0.0,0.12200001,0.038000003,0.023000002,-1.2312686,0.0,0.0,0.0,0.0,0.0,0.0,0.0,inf,inf,inf,inf,1,1,1,1,0,0,0,0,0,0,1,1,0,0
829724000,0,0,0.0,0.0,6451297.0,-7249869.0,-229.26901,0.0,0.0,0.0,0.0,0.0,0.0,0.0,0.0,0.0,0.0,-0.125,-0.041,0.009000001,-1.2312636,0.0,0.0,0.0,0.0,0.0,0.0,0.0,inf,inf,inf,inf,1,1,1,1,0,0,0,0,0,0,1,1,0,0
829744000,0,0,0.0,0.0,6451297.0,-7249869.0,-229.26901,0.0,0.0,0.0,0.0,0.0,0.0,0.0,0.0,0.0,0.0,0.028,0.003,-0.30400002,-1.2312665,0.0,0.0,0.0,0.0,0.0,0.0,0.0,inf,inf,inf,inf,1,1,1,1,0,0,0,0,0,0,1,1,0,0
829760000,0,0,0.0,0.0,6451297.0,-7249869.0,-229.26901,0.0,0.0,0.0,0.0,0.0,0.0,0.0,0.0,0.0,0.0,0.116000004,0.036000002,0.018000001,-1.2312679,0.0,0.0,0.0,0.0,0.0,0.0,0.0,inf,inf,inf,inf,1,1,1,1,0,0,0,0,0,0,1,1,0,0
829780000,0,0,0.0,0.0,6451297.0,-7249869.0,-229.26901,0.0,0.0,0.0,0.0,0.0,0.0,0.0,0.0,0.0,0.0,-0.12100001,-0.040000003,0.007,-1.2312636,0.0,0.0,0.0,0.0,0.0,0.0,0.0,inf,inf,inf,inf,1,1,1,1,0,0,0,0,0,0,1,1,0,0
829800000,0,0,0.0,0.0,6451297.0,-7249869.0,-229.26901,0.0,0.0,0.0,0.0,0.0,0.0,0.0,0.0,0.0,0.0,-0.029000001,0.007,0.794,-1.2312658,0.0,0.0,0.0,0.0,0.0,0.0,0.0,inf,inf,inf,inf,1,1,1,1,0,0,0,0,0,0,1,1,0,0
829824000,0,0,0.0,0.0,6451297.0,-7249869.0,-229.26901,0.0,0.0,0.0,0.0,0.0,0.0,0.0,0.0,0.0,0.0,-0.134,-0.044000003,0.019000001,-1.2312655,0.0,0.0,0.0,0.0,0.0,0.0,0.0,inf,inf,inf,inf,1,1,1,1,0,0,0,0,0,0,1,1,0,0
829844000,0,0,0.0,0.0,6451297.0,-7249869.0,-229.26901,0.0,0.0,0.0,0.0,0.0,0.0,0.0,0.0,0.0,0.0,0.113000005,0.037,0.001,-1.2312667,0.0,0.0,0.0,0.0,0.0,0.0,0.0,inf,inf,inf,inf,1,1,1,1,0,0,0,0,0,0,1,1,0,0
829864000,0,0,0.0,0.0,6451297.0,-7249869.0,-229.26901,0.0,0.0,0.0,0.0,0.0,0.0,0.0,0.0,0.0,0.0,0.020000001,0.001,-0.054,-1.2312665,0.0,0.0,0.0,0.0,0.0,0.0,0.0,inf,inf,inf,inf,1,1,1,1,0,0,0,0,0,0,1,1,0,0
829884000,0,0,0.0,0.0,6451297.0,-7249869.0,-229.26901,0.0,0.0,0.0,0.0,0.0,0.0,0.0,0.0,0.0,0.0,0.11000001,0.036000002,0.0,-1.2312677,0.0,0.0,0.0,0.0,0.0,0.0,0.0,inf,inf,inf,inf,1,1,1,1,0,0,0,0,0,0,1,1,0,0
829900000,0,0,0.0,0.0,6451297.0,-7249869.0,-229.26901,0.0,0.0,0.0,0.0,0.0,0.0,0.0,0.0,0.0,0.0,0.11400001,0.039,-0.002,-1.231267,0.0,0.0,0.0,0.0,0.0,0.0,0.0,inf,inf,inf,inf,1,1,1,1,0,0,0,0,0,0,1,1,0,0
829920000,0,0,0.0,0.0,6451297.0,-7249869.0,-229.26901,0.0,0.0,0.0,0.0,0.0,0.0,0.0,0.0,0.0,0.0,-0.014,-0.019000001,-0.67300004,-1.2312653,0.0,0.0,0.0,0.0,0.0,0.0,0.0,inf,inf,inf,inf,1,1,1,1,0,0,0,0,0,0,1,1,0,0
829944000,0,0,0.0,0.0,6451297.0,-7249869.0,-229.26901,0.0,0.0,0.0,0.0,0.0,0.0,0.0,0.0,0.0,0.0,-0.142,-0.047000002,0.012,-1.2312651,0.0,0.0,0.0,0.0,0.0,0.0,0.0,inf,inf,inf,inf,1,1,1,1,0,0,0,0,0,0,1,1,0,0
829964000,0,0,0.0,0.0,6451297.0,-7249869.0,-229.26901,0.0,0.0,0.0,0.0,0.0,0.0,0.0,0.0,0.0,0.0,0.11800001,0.040000003,-0.001,-1.231267,0.0,0.0,0.0,0.0,0.0,0.0,0.0,inf,inf,inf,inf,1,1,1,1,0,0,0,0,0,0,1,1,0,0
829980000,0,0,0.0,0.0,6451297.0,-7249869.0,-229.26901,0.0,0.0,0.0,0.0,0.0,0.0,0.0,0.0,0.0,0.0,0.120000005,0.041,-0.002,-1.2312665,0.0,0.0,0.0,0.0,0.0,0.0,0.0,inf,inf,inf,inf,1,1,1,1,0,0,0,0,0,0,1,1,0,0
830004000,0,0,0.0,0.0,6451297.0,-7249869.0,-229.26901,0.0,0.0,0.0,0.0,0.0,0.0,0.0,0.0,0.0,0.0,0.155,0.061000004,0.056,-1.2312654,0.0,0.0,0.0,0.0,0.0,0.0,0.0,inf,inf,inf,inf,1,1,1,1,0,0,0,0,0,0,1,1,0,0
830024000,0,0,0.0,0.0,6451297.0,-7249869.0,-229.26901,0.0,0.0,0.0,0.0,0.0,0.0,0.0,0.0,0.0,0.0,-0.128,-0.043,0.008,-1.2312644,0.0,0.0,0.0,0.0,0.0,0.0,0.0,inf,inf,inf,inf,1,1,1,1,0,0,0,0,0,0,1,1,0,0
830040000,0,0,0.0,0.0,6451297.0,-7249869.0,-229.26901,0.0,0.0,0.0,0.0,0.0,0.0,0.0,0.0,0.0,0.0,-0.120000005,-0.041,0.006,-1.2312638,0.0,0.0,0.0,0.0,0.0,0.0,0.0,inf,inf,inf,inf,1,1,1,1,0,0,0,0,0,0,1,1,0,0
830064000,0,0,0.0,0.0,6451297.0,-7249869.0,-229.26901,0.0,0.0,0.0,0.0,0.0,0.0,0.0,0.0,0.0,0.0,-0.012,-0.018000001,-0.674,-1.231265,0.0,0.0,0.0,0.0,0.0,0.0,0.0,inf,inf,inf,inf,1,1,1,1,0,0,0,0,0,0,1,1,0,0
830084000,0,0,0.0,0.0,6451297.0,-7249869.0,-229.26901,0.0,0.0,0.0,0.0,0.0,0.0,0.0,0.0,0.0,0.0,-0.13700001,-0.045,0.019000001,-1.2312658,0.0,0.0,0.0,0.0,0.0,0.0,0.0,inf,inf,inf,inf,1,1,1,1,0,0,0,0,0,0,1,1,0,0
830100000,0,0,0.0,0.0,6451297.0,-7249869.0,-229.26901,0.0,0.0,0.0,0.0,0.0,0.0,0.0,0.0,0.0,0.0,-0.12100001,-0.040000003,0.009000001,-1.2312646,0.0,0.0,0.0,0.0,0.0,0.0,0.0,inf,inf,inf,inf,1,1,1,1,0,0,0,0,0,0,1,1,0,0
830124000,0,0,0.0,0.0,6451297.0,-7249869.0,-229.26901,0.0,0.0,0.0,0.0,0.0,0.0,0.0,0.0,0.0,0.0,0.019000001,0.002,-0.054,-1.2312672,0.0,0.0,0.0,0.0,0.0,0.0,0.0,inf,inf,inf,inf,1,1,1,1,0,0,0,0,0,0,1,1,0,0
830144000,0,0,0.0,0.0,6451297.0,-7249869.0,-229.26901,0.0,0.0,0.0,0.0,0.0,0.0,0.0,0.0,0.0,0.0,0.106000006,0.035,0.0,-1.2312682,0.0,0.0,0.0,0.0,0.0,0.0,0.0,inf,inf,inf,inf,1,1,1,1,0,0,0,0,0,0,1,1,0,0
830164000,0,0,0.0,0.0,6451297.0,-7249869.0,-229.26901,0.0,0.0,0.0,0.0,0.0,0.0,0.0,0.0,0.0,0.0,-0.115,-0.037,0.006,-1.2312642,0.0,0.0,0.0,0.0,0.0,0.0,0.0,inf,inf,inf,inf,1,1,1,1,0,0,0,0,0,0,1,1,0,0
830184000,0,0,0.0,0.0,6451297.0,-7249869.0,-229.26901,0.0,0.0,0.0,0.0,0.0,0.0,0.0,0.0,0.0,0.0,0.029000001,0.003,-0.30400002,-1.2312672,0.0,0.0,0.0,0.0,0.0,0.0,0.0,inf,inf,inf,inf,1,1,1,1,0,0,0,0,0,0,1,1,0,0
830204000,0,0,0.0,0.0,6451297.0,-7249869.0,-229.26901,0.0,0.0,0.0,0.0,0.0,0.0,0.0,0.0,0.0,0.0,0.11100001,0.036000002,0.006,-1.231269,0.0,0.0,0.0,0.0,0.0,0.0,0.0,inf,inf,inf,inf,1,1,1,1,0,0,0,0,0,0,1,1,0,0
830224000,0,0,0.0,0.0,6451297.0,-7249869.0,-229.26901,0.0,0.0,0.0,0.0,0.0,0.0,0.0,0.0,0.0,0.0,-0.12100001,-0.040000003,0.007,-1.2312646,0.0,0.0,0.0,0.0,0.0,0.0,0.0,inf,inf,inf,inf,1,1,1,1,0,0,0,0,0,0,1,1,0,0
830244000,0,0,0.0,0.0,6451297.0,-7249869.0,-229.26901,0.0,0.0,0.0,0.0,0.0,0.0,0.0,0.0,0.0,0.0,0.15100001,0.058000002,0.055000003,-1.2312665,0.0,0.0,0.0,0.0,0.0,0.0,0.0,inf,inf,inf,inf,1,1,1,1,0,0,0,0,0,0,1,1,0,0
830264000,0,0,0.0,0.0,6451297.0,-7249869.0,-229.26901,0.0,0.0,0.0,0.0,0.0,0.0,0.0,0.0,0.0,0.0,-0.13100001,-0.043,0.009000001,-1.2312654,0.0,0.0,0.0,0.0,0.0,0.0,0.0,inf,inf,inf,inf,1,1,1,1,0,0,0,0,0,0,1,1,0,0
830280000,0,0,0.0,0.0,6451297.0,-7249869.0,-229.26901,0.0,0.0,0.0,0.0,0.0,0.0,0.0,0.0,0.0,0.0,-0.124000005,-0.040000003,0.0050000004,-1.231265,0.0,0.0,0.0,0.0,0.0,0.0,0.0,inf,inf,inf,inf,1,1,1,1,0,0,0,0,0,0,1,1,0,0
830304000,0,0,0.0,0.0,6451297.0,-7249869.0,-229.26901,0.0,0.0,0.0,0.0,0.0,0.0,0.0,0.0,0.0,0.0,0.020000001,0.002,-0.055000003,-1.2312677,0.0,0.0,0.0,0.0,0.0,0.0,0.0,inf,inf,inf,inf,1,1,1,1,0,0,0,0,0,0,1,1,0,0
830324000,0,0,0.0,0.0,6451297.0,-7249869.0,-229.26901,0.0,0.0,0.0,0.0,0.0,0.0,0.0,0.0,0.0,0.0,0.11000001,0.037,0.0,-1.2312688,0.0,0.0,0.0,0.0,0.0,0.0,0.0,inf,inf,inf,inf,1,1,1,1,0,0,0,0,0,0,1,1,0,0
830344000,0,0,0.0,0.0,6451297.0,-7249869.0,-229.26901,0.0,0.0,0.0,0.0,0.0,0.0,0.0,0.0,0.0,0.0,-0.119,-0.040000003,0.006,-1.231265,0.0,0.0,0.0,0.0,0.0,0.0,0.0,inf,inf,inf,inf,1,1,1,1,0,0,0,0,0,0,1,1,0,0
830360000,0,0,0.0,0.0,6451297.0,-7249869.0,-229.26901,0.0,0.0,0.0,0.0,0.0,0.0,0.0,0.0,0.0,0.0,-0.117000006,-0.040000003,0.0050000004,-1.2312644,0.0,0.0,0.0,0.0,0.0,0.0,0.0,inf,inf,inf,inf,1,1,1,1,0,0,0,0,0,0,1,1,0,0
830384000,0,0,0.0,0.0,6451297.0,-7249869.0,-229.26901,0.0,0.0,0.0,0.0,0.0,0.0,0.0,0.0,0.0,0.0,0.12200001,0.038000003,0.023000002,-1.2312707,0.0,0.0,0.0,0.0,0.0,0.0,0.0,inf,inf,inf,inf,1,1,1,1,0,0,0,0,0,0,1,1,0,0
830400000,0,0,0.0,0.0,6451297.0,-7249869.0,-229.26901,0.0,0.0,0.0,0.0,0.0,0.0,0.0,0.0,0.0,0.0,0.117000006,0.038000003,0.002,-1.231269,0.0,0.0,0.0,0.0,0.0,0.0,0.0,inf,inf,inf,inf,1,1,1,1,0,0,0,0,0,0,1,1,0,0
830420000,0,0,0.0,0.0,6451297.0,-7249869.0,-229.26901,0.0,0.0,0.0,0.0,0.0,0.0,0.0,0.0,0.0,0.0,-0.015000001,-0.018000001,-0.674,-1.231267,0.0,0.0,0.0,0.0,0.0,0.0,0.0,inf,inf,inf,inf,1,1,1,1,0,0,0,0,0,0,1,1,0,0
830440000,0,0,0.0,0.0,6451297.0,-7249869.0,-229.26901,0.0,0.0,0.0,0.0,0.0,0.0,0.0,0.0,0.0,0.0,0.113000005,0.035,0.018000001,-1.23127,0.0,0.0,0.0,0.0,0.0,0.0,0.0,inf,inf,inf,inf,1,1,1,1,0,0,0,0,0,0,1,1,0,0
830460000,0,0,0.0,0.0,6451297.0,-7249869.0,-229.26901,0.0,0.0,0.0,0.0,0.0,0.0,0.0,0.0,0.0,0.0,-0.120000005,-0.039,0.007,-1.2312658,0.0,0.0,0.0,0.0,0.0,0.0,0.0,inf,inf,inf,inf,1,1,1,1,0,0,0,0,0,0,1,1,0,0
830480000,0,0,0.0,0.0,6451297.0,-7249869.0,-229.26901,0.0,0.0,0.0,0.0,0.0,0.0,0.0,0.0,0.0,0.0,-0.030000001,0.006,0.79200006,-1.2312678,0.0,0.0,0.0,0.0,0.0,0.0,0.0,inf,inf,inf,inf,1,1,1,1,0,0,0,0,0,0,1,1,0,0
830504000,0,0,0.0,0.0,6451297.0,-7249869.0,-229.26901,0.0,0.0,0.0,0.0,0.0,0.0,0.0,0.0,0.0,0.0,-0.133,-0.044000003,0.019000001,-1.2312676,0.0,0.0,0.0,0.0,0.0,0.0,0.0,inf,inf,inf,inf,1,1,1,1,0,0,0,0,0,0,1,1,0,0
830524000,0,0,0.0,0.0,6451297.0,-7249869.0,-229.26901,0.0,0.0,0.0,0.0,0.0,0.0,0.0,0.0,0.0,0.0,0.11400001,0.037,0.001,-1.2312689,0.0,0.0,0.0,0.0,0.0,0.0,0.0,inf,inf,inf,inf,1,1,1,1,0,0,0,0,0,0,1,1,0,0
830540000,0,0,0.0,0.0,6451297.0,-7249869.0,-229.26901,0.0,0.0,0.0,0.0,0.0,0.0,0.0,0.0,0.0,0.0,0.028,0.003,-0.303,-1.2312689,0.0,0.0,0.0,0.0,0.0,0.0,0.0,inf,inf,inf,inf,1,1,1,1,0,0,0,0,0,0,1,1,0,0
830564000,0,0,0.0,0.0,6451297.0,-7249869.0,-229.26901,0.0,0.0,0.0,0.0,0.0,0.0,0.0,0.0,0.0,0.0,0.108,0.036000002,0.0,-1.2312698,0.0,0.0,0.0,0.0,0.0,0.0,0.0,inf,inf,inf,inf,1,1,1,1,0,0,0,0,0,0,1,1,0,0
830584000,0,0,0.0,0.0,6451297.0,-7249869.0,-229.26901,0.0,0.0,0.0,0.0,0.0,0.0,0.0,0.0,0.0,0.0,-0.11800001,-0.040000003,0.006,-1.2312658,0.0,0.0,0.0,0.0,0.0,0.0,0.0,inf,inf,inf,inf,1,1,1,1,0,0,0,0,0,0,1,1,0,0
830600000,0,0,0.0,0.0,6451297.0,-7249869.0,-229.26901,0.0,0.0,0.0,0.0,0.0,0.0,0.0,0.0,0.0,0.0,-0.015000001,-0.019000001,-0.671,-1.2312672,0.0,0.0,0.0,0.0,0.0,0.0,0.0,inf,inf,inf,inf,1,1,1,1,0,0,0,0,0,0,1,1,0,0
830620000,0,0,0.0,0.0,6451297.0,-7249869.0,-229.26901,0.0,0.0,0.0,0.0,0.0,0.0,0.0,0.0,0.0,0.0,-0.14,-0.047000002,0.019000001,-1.2312682,0.0,0.0,0.0,0.0,0.0,0.0,0.0,inf,inf,inf,inf,1,1,1,1,0,0,0,0,0,0,1,1,0,0
830644000,0,0,0.0,0.0,6451297.0,-7249869.0,-229.26901,0.0,0.0,0.0,0.0,0.0,0.0,0.0,0.0,0.0,0.0,-0.124000005,-0.041,0.007,-1.2312664,0.0,0.0,0.0,0.0,0.0,0.0,0.0,inf,inf,inf,inf,1,1,1,1,0,0,0,0,0,0,1,1,0,0
830664000,0,0,0.0,0.0,6451297.0,-7249869.0,-229.26901,0.0,0.0,0.0,0.0,0.0,0.0,0.0,0.0,0.0,0.0,0.155,0.061000004,0.058000002,-1.2312682,0.0,0.0,0.0,0.0,0.0,0.0,0.0,inf,inf,inf,inf,1,1,1,1,0,0,0,0,0,0,1,1,0,0
830684000,0,0,0.0,0.0,6451297.0,-7249869.0,-229.26901,0.0,0.0,0.0,0.0,0.0,0.0,0.0,0.0,0.0,0.0,-0.128,-0.043,0.009000001,-1.231267,0.0,0.0,0.0,0.0,0.0,0.0,0.0,inf,inf,inf,inf,1,1,1,1,0,0,0,0,0,0,1,1,0,0
830700000,0,0,0.0,0.0,6451297.0,-7249869.0,-229.26901,0.0,0.0,0.0,0.0,0.0,0.0,0.0,0.0,0.0,0.0,-0.119,-0.040000003,0.006,-1.2312664,0.0,0.0,0.0,0.0,0.0,0.0,0.0,inf,inf,inf,inf,1,1,1,1,0,0,0,0,0,0,1,1,0,0
830724000,0,0,0.0,0.0,6451297.0,-7249869.0,-229.26901,0.0,0.0,0.0,0.0,0.0,0.0,0.0,0.0,0.0,0.0,0.020000001,0.002,-0.055000003,-1.2312694,0.0,0.0,0.0,0.0,0.0,0.0,0.0,inf,inf,inf,inf,1,1,1,1,0,0,0,0,0,0,1,1,0,0
830744000,0,0,0.0,0.0,6451297.0,-7249869.0,-229.26901,0.0,0.0,0.0,0.0,0.0,0.0,0.0,0.0,0.0,0.0,0.11000001,0.035,0.0,-1.2312703,0.0,0.0,0.0,0.0,0.0,0.0,0.0,inf,inf,inf,inf,1,1,1,1,0,0,0,0,0,0,1,1,0,0
830764000,0,0,0.0,0.0,6451297.0,-7249869.0,-229.26901,0.0,0.0,0.0,0.0,0.0,0.0,0.0,0.0,0.0,0.0,-0.116000004,-0.038000003,0.006,-1.2312665,0.0,0.0,0.0,0.0,0.0,0.0,0.0,inf,inf,inf,inf,1,1,1,1,0,0,0,0,0,0,1,1,0,0
830784000,0,0,0.0,0.0,6451297.0,-7249869.0,-229.26901,0.0,0.0,0.0,0.0,0.0,0.0,0.0,0.0,0.0,0.0,-0.028,0.007,0.78900003,-1.2312686,0.0,0.0,0.0,0.0,0.0,0.0,0.0,inf,inf,inf,inf,1,1,1,1,0,0,0,0,0,0,1,1,0,0
830804000,0,0,0.0,0.0,6451297.0,-7249869.0,-229.26901,0.0,0.0,0.0,0.0,0.0,0.0,0.0,0.0,0.0,0.0,0.11800001,0.035,0.023000002,-1.231272,0.0,0.0,0.0,0.0,0.0,0.0,0.0,inf,inf,inf,inf,1,1,1,1,0,0,0,0,0,0,1,1,0,0
830824000,0,0,0.0,0.0,6451297.0,-7249869.0,-229.26901,0.0,0.0,0.0,0.0,0.0,0.0,0.0,0.0,0.0,0.0,-0.119,-0.038000003,0.009000001,-1.2312671,0.0,0.0,0.0,0.0,0.0,0.0,0.0,inf,inf,inf,inf,1,1,1,1,0,0,0,0,0,0,1,1,0,0
830844000,0,0,0.0,0.0,6451297.0,-7249869.0,-229.26901,0.0,0.0,0.0,0.0,0.0,0.0,0.0,0.0,0.0,0.0,0.029000001,0.003,-0.30200002,-1.2312698,0.0,0.0,0.0,0.0,0.0,0.0,0.0,inf,inf,inf,inf,1,1,1,1,0,0,0,0,0,0,1,1,0,0
830864000,0,0,0.0,0.0,6451297.0,-7249869.0,-229.26901,0.0,0.0,0.0,0.0,0.0,0.0,0.0,0.0,0.0,0.0,-0.136,-0.044000003,0.013,-1.2312679,0.0,0.0,0.0,0.0,0.0,0.0,0.0,inf,inf,inf,inf,1,1,1,1,0,0,0,0,0,0,1,1,0,0
830880000,0,0,0.0,0.0,6451297.0,-7249869.0,-229.26901,0.0,0.0,0.0,0.0,0.0,0.0,0.0,0.0,0.0,0.0,-0.123,-0.039,0.007,-1.231267,0.0,0.0,0.0,0.0,0.0,0.0,0.0,inf,inf,inf,inf,1,1,1,1,0,0,0,0,0,0,1,1,0,0
830900000,0,0,0.0,0.0,6451297.0,-7249869.0,-229.26901,0.0,0.0,0.0,0.0,0.0,0.0,0.0,0.0,0.0,0.0,-0.025,0.009000001,0.78900003,-1.2312691,0.0,0.0,0.0,0.0,0.0,0.0,0.0,inf,inf,inf,inf,1,1,1,1,0,0,0,0,0,0,1,1,0,0
830924000,0,0,0.0,0.0,6451297.0,-7249869.0,-229.26901,0.0,0.0,0.0,0.0,0.0,0.0,0.0,0.0,0.0,0.0,-0.13700001,-0.047000002,0.020000001,-1.2312689,0.0,0.0,0.0,0.0,0.0,0.0,0.0,inf,inf,inf,inf,1,1,1,1,0,0,0,0,0,0,1,1,0,0
830940000,0,0,0.0,0.0,6451297.0,-7249869.0,-229.26901,0.0,0.0,0.0,0.0,0.0,0.0,0.0,0.0,0.0,0.0,-0.126,-0.041,0.009000001,-1.2312676,0.0,0.0,0.0,0.0,0.0,0.0,0.0,inf,inf,inf,inf,1,1,1,1,0,0,0,0,0,0,1,1,0,0
830960000,0,0,0.0,0.0,6451297.0,-7249869.0,-229.26901,0.0,0.0,0.0,0.0,0.0,0.0,0.0,0.0,0.0,0.0,0.155,0.061000004,0.059000004,-1.2312691,0.0,0.0,0.0,0.0,0.0,0.0,0.0,inf,inf,inf,inf,1,1,1,1,0,0,0,0,0,0,1,1,0,0
830984000,0,0,0.0,0.0,6451297.0,-7249869.0,-229.26901,0.0,0.0,0.0,0.0,0.0,0.0,0.0,0.0,0.0,0.0,0.115,0.039,0.0,-1.2312708,0.0,0.0,0.0,0.0,0.0,0.0,0.0,inf,inf,inf,inf,1,1,1,1,0,0,0,0,0,0,1,1,0,0
831004000,0,0,0.0,0.0,6451297.0,-7249869.0,-229.26901,0.0,0.0,0.0,0.0,0.0,0.0,0.0,0.0,0.0,0.0,-0.11800001,-0.040000003,0.0050000004,-1.231267,0.0,0.0,0.0,0.0,0.0,0.0,0.0,inf,inf,inf,inf,1,1,1,1,0,0,0,0,0,0,1,1,0,0
831024000,0,0,0.0,0.0,6451297.0,-7249869.0,-229.26901,0.0,0.0,0.0,0.0,0.0,0.0,0.0,0.0,0.0,0.0,0.029000001,0.004,-0.303,-1.2312701,0.0,0.0,0.0,0.0,0.0,0.0,0.0,inf,inf,inf,inf,1,1,1,1,0,0,0,0,0,0,1,1,0,0
831040000,0,0,0.0,0.0,6451297.0,-7249869.0,-229.26901,0.0,0.0,0.0,0.0,0.0,0.0,0.0,0.0,0.0,0.0,0.11400001,0.037,0.017,-1.2312717,0.0,0.0,0.0,0.0,0.0,0.0,0.0,inf,inf,inf,inf,1,1,1,1,0,0,0,0,0,0,1,1,0,0
831060000,0,0,0.0,0.0,6451297.0,-7249869.0,-229.26901,0.0,0.0,0.0,0.0,0.0,0.0,0.0,0.0,0.0,0.0,-0.124000005,-0.041,0.007,-1.2312675,0.0,0.0,0.0,0.0,0.0,0.0,0.0,inf,inf,inf,inf,1,1,1,1,0,0,0,0,0,0,1,1,0,0
831080000,0,0,0.0,0.0,6451297.0,-7249869.0,-229.26901,0.0,0.0,0.0,0.0,0.0,0.0,0.0,0.0,0.0,0.0,-0.025,0.007,0.78900003,-1.2312698,0.0,0.0,0.0,0.0,0.0,0.0,0.0,inf,inf,inf,inf,1,1,1,1,0,0,0,0,0,0,1,1,0,0
831104000,0,0,0.0,0.0,6451297.0,-7249869.0,-229.26901,0.0,0.0,0.0,0.0,0.0,0.0,0.0,0.0,0.0,0.0,-0.132,-0.045,0.019000001,-1.2312694,0.0,0.0,0.0,0.0,0.0,0.0,0.0,inf,inf,inf,inf,1,1,1,1,0,0,0,0,0,0,1,1,0,0
831124000,0,0,0.0,0.0,6451297.0,-7249869.0,-229.26901,0.0,0.0,0.0,0.0,0.0,0.0,0.0,0.0,0.0,0.0,0.11400001,0.038000003,0.0,-1.2312708,0.0,0.0,0.0,0.0,0.0,0.0,0.0,inf,inf,inf,inf,1,1,1,1,0,0,0,0,0,0,1,1,0,0
831140000,0,0,0.0,0.0,6451297.0,-7249869.0,-229.26901,0.0,0.0,0.0,0.0,0.0,0.0,0.0,0.0,0.0,0.0,0.028,0.003,-0.30200002,-1.2312708,0.0,0.0,0.0,0.0,0.0,0.0,0.0,inf,inf,inf,inf,1,1,1,1,0,0,0,0,0,0,1,1,0,0
831160000,0,0,0.0,0.0,6451297.0,-7249869.0,-229.26901,0.0,0.0,0.0,0.0,0.0,0.0,0.0,0.0,0.0,0.0,-0.133,-0.043,0.013,-1.2312689,0.0,0.0,0.0,0.0,0.0,0.0,0.0,inf,inf,inf,inf,1,1,1,1,0,0,0,0,0,0,1,1,0,0
831180000,0,0,0.0,0.0,6451297.0,-7249869.0,-229.26901,0.0,0.0,0.0,0.0,0.0,0.0,0.0,0.0,0.0,0.0,0.112,0.036000002,0.0,-1.2312706,0.0,0.0,0.0,0.0,0.0,0.0,0.0,inf,inf,inf,inf,1,1,1,1,0,0,0,0,0,0,1,1,0,0
831200000,0,0,0.0,0.0,6451297.0,-7249869.0,-229.26901,0.0,0.0,0.0,0.0,0.0,0.0,0.0,0.0,0.0,0.0,-0.012,-0.018000001,-0.67,-1.2312688,0.0,0.0,0.0,0.0,0.0,0.0,0.0,inf,inf,inf,inf,1,1,1,1,0,0,0,0,0,0,1,1,0,0
831224000,0,0,0.0,0.0,6451297.0,-7249869.0,-229.26901,0.0,0.0,0.0,0.0,0.0,0.0,0.0,0.0,0.0,0.0,0.11100001,0.037,0.0050000004,-1.2312722,0.0,0.0,0.0,0.0,0.0,0.0,0.0,inf,inf,inf,inf,1,1,1,1,0,0,0,0,0,0,1,1,0,0
831240000,0,0,0.0,0.0,6451297.0,-7249869.0,-229.26901,0.0,0.0,0.0,0.0,0.0,0.0,0.0,0.0,0.0,0.0,0.116000004,0.040000003,0.0,-1.2312711,0.0,0.0,0.0,0.0,0.0,0.0,0.0,inf,inf,inf,inf,1,1,1,1,0,0,0,0,0,0,1,1,0,0
831264000,0,0,0.0,0.0,6451297.0,-7249869.0,-229.26901,0.0,0.0,0.0,0.0,0.0,0.0,0.0,0.0,0.0,0.0,0.15200001,0.059000004,0.055000003,-1.2312698,0.0,0.0,0.0,0.0,0.0,0.0,0.0,inf,inf,inf,inf,1,1,1,1,0,0,0,0,0,0,1,1,0,0
831284000,0,0,0.0,0.0,6451297.0,-7249869.0,-229.26901,0.0,0.0,0.0,0.0,0.0,0.0,0.0,0.0,0.0,0.0,-0.132,-0.043,0.008,-1.2312686,0.0,0.0,0.0,0.0,0.0,0.0,0.0,inf,inf,inf,inf,1,1,1,1,0,0,0,0,0,0,1,1,0,0
831304000,0,0,0.0,0.0,6451297.0,-7249869.0,-229.26901,0.0,0.0,0.0,0.0,0.0,0.0,0.0,0.0,0.0,0.0,0.120000005,0.040000003,-0.002,-1.2312708,0.0,0.0,0.0,0.0,0.0,0.0,0.0,inf,inf,inf,inf,1,1,1,1,0,0,0,0,0,0,1,1,0,0
831324000,0,0,0.0,0.0,6451297.0,-7249869.0,-229.26901,0.0,0.0,0.0,0.0,0.0,0.0,0.0,0.0,0.0,0.0,0.163,0.062000003,-0.026,-1.2312708,0.0,0.0,0.0,0.0,0.0,0.0,0.0,inf,inf,inf,inf,1,1,1,1,0,0,0,0,0,0,1,1,0,0
831344000,0,0,0.0,0.0,6451297.0,-7249869.0,-229.26901,0.0,0.0,0.0,0.0,0.0,0.0,0.0,0.0,0.0,0.0,-0.128,-0.043,0.013,-1.2312694,0.0,0.0,0.0,0.0,0.0,0.0,0.0,inf,inf,inf,inf,1,1,1,1,0,0,0,0,0,0,1,1,0,0
831364000,0,0,0.0,0.0,6451297.0,-7249869.0,-229.26901,0.0,0.0,0.0,0.0,0.0,0.0,0.0,0.0,0.0,0.0,-0.030000001,0.007,0.794,-1.231271,0.0,0.0,0.0,0.0,0.0,0.0,0.0,inf,inf,inf,inf,1,1,1,1,0,0,0,0,0,0,1,1,0,0
831384000,0,0,0.0,0.0,6451297.0,-7249869.0,-229.26901,0.0,0.0,0.0,0.0,0.0,0.0,0.0,0.0,0.0,0.0,-0.109000005,-0.037,0.13100001,-1.2312689,0.0,0.0,0.0,0.0,0.0,0.0,0.0,inf,inf,inf,inf,1,1,1,1,0,0,0,0,0,0,1,1,0,0
831400000,0,0,0.0,0.0,6451297.0,-7249869.0,-229.26901,0.0,0.0,0.0,0.0,0.0,0.0,0.0,0.0,0.0,0.0,-0.13000001,-0.042000003,0.008,-1.231269,0.0,0.0,0.0,0.0,0.0,0.0,0.0,inf,inf,inf,inf,1,1,1,1,0,0,0,0,0,0,1,1,0,0
831420000,0,0,0.0,0.0,6451297.0,-7249869.0,-229.26901,0.0,0.0,0.0,0.0,0.0,0.0,0.0,0.0,0.0,0.0,0.115,0.037,-0.002,-1.2312711,0.0,0.0,0.0,0.0,0.0,0.0,0.0,inf,inf,inf,inf,1,1,1,1,0,0,0,0,0,0,1,1,0,0
831444000,0,0,0.0,0.0,6451297.0,-7249869.0,-229.26901,0.0,0.0,0.0,0.0,0.0,0.0,0.0,0.0,0.0,0.0,-0.098000005,-0.035,0.11800001,-1.2312701,0.0,0.0,0.0,0.0,0.0,0.0,0.0,inf,inf,inf,inf,1,1,1,1,0,0,0,0,0,0,1,1,0,0
831464000,0,0,0.0,0.0,6451297.0,-7249869.0,-229.26901,0.0,0.0,0.0,0.0,0.0,0.0,0.0,0.0,0.0,0.0,0.112,0.037,0.002,-1.2312725,0.0,0.0,0.0,0.0,0.0,0.0,0.0,inf,inf,inf,inf,1,1,1,1,0,0,0,0,0,0,1,1,0,0
831480000,0,0,0.0,0.0,6451297.0,-7249869.0,-229.26901,0.0,0.0,0.0,0.0,0.0,0.0,0.0,0.0,0.0,0.0,-0.031000001,0.006,0.794,-1.2312713,0.0,0.0,0.0,0.0,0.0,0.0,0.0,inf,inf,inf,inf,1,1,1,1,0,0,0,0,0,0,1,1,0,0
831504000,0,0,0.0,0.0,6451297.0,-7249869.0,-229.26901,0.0,0.0,0.0,0.0,0.0,0.0,0.0,0.0,0.0,0.0,0.11000001,0.034,0.019000001,-1.2312732,0.0,0.0,0.0,0.0,0.0,0.0,0.0,inf,inf,inf,inf,1,1,1,1,0,0,0,0,0,0,1,1,0,0
831524000,0,0,0.0,0.0,6451297.0,-7249869.0,-229.26901,0.0,0.0,0.0,0.0,0.0,0.0,0.0,0.0,0.0,0.0,-0.120000005,-0.038000003,0.007,-1.2312689,0.0,0.0,0.0,0.0,0.0,0.0,0.0,inf,inf,inf,inf,1,1,1,1,0,0,0,0,0,0,1,1,0,0
831540000,0,0,0.0,0.0,6451297.0,-7249869.0,-229.26901,0.0,0.0,0.0,0.0,0.0,0.0,0.0,0.0,0.0,0.0,-0.117000006,-0.038000003,0.0050000004,-1.2312684,0.0,0.0,0.0,0.0,0.0,0.0,0.0,inf,inf,inf,inf,1,1,1,1,0,0,0,0,0,0,1,1,0,0
831564000,0,0,0.0,0.0,6451297.0,-7249869.0,-229.26901,0.0,0.0,0.0,0.0,0.0,0.0,0.0,0.0,0.0,0.0,0.12100001,0.038000003,0.023000002,-1.2312744,0.0,0.0,0.0,0.0,0.0,0.0,0.0,inf,inf,inf,inf,1,1,1,1,0,0,0,0,0,0,1,1,0,0
831584000,0,0,0.0,0.0,6451297.0,-7249869.0,-229.26901,0.0,0.0,0.0,0.0,0.0,0.0,0.0,0.0,0.0,0.0,-0.12200001,-0.041,0.010000001,-1.2312694,0.0,0.0,0.0,0.0,0.0,0.0,0.0,inf,inf,inf,inf,1,1,1,1,0,0,0,0,0,0,1,1,0,0
831604000,0,0,0.0,0.0,6451297.0,-7249869.0,-229.26901,0.0,0.0,0.0,0.0,0.0,0.0,0.0,0.0,0.0,0.0,0.15200001,0.059000004,0.057000004,-1.231271,0.0,0.0,0.0,0.0,0.0,0.0,0.0,inf,inf,inf,inf,1,1,1,1,0,0,0,0,0,0,1,1,0,0
831620000,0,0,0.0,0.0,6451297.0,-7249869.0,-229.26901,0.0,0.0,0.0,0.0,0.0,0.0,0.0,0.0,0.0,0.0,0.11400001,0.038000003,0.0,-1.2312732,0.0,0.0,0.0,0.0,0.0,0.0,0.0,inf,inf,inf,inf,1,1,1,1,0,0,0,0,0,0,1,1,0,0
831644000,0,0,0.0,0.0,6451297.0,-7249869.0,-229.26901,0.0,0.0,0.0,0.0,0.0,0.0,0.0,0.0,0.0,0.0,0.119,0.040000003,-0.002,-1.231272,0.0,0.0,0.0,0.0,0.0,0.0,0.0,inf,inf,inf,inf,1,1,1,1,0,0,0,0,0,0,1,1,0,0
831664000,0,0,0.0,0.0,6451297.0,-7249869.0,-229.26901,0.0,0.0,0.0,0.0,0.0,0.0,0.0,0.0,0.0,0.0,0.163,0.062000003,-0.027,-1.231272,0.0,0.0,0.0,0.0,0.0,0.0,0.0,inf,inf,inf,inf,1,1,1,1,0,0,0,0,0,0,1,1,0,0
831684000,0,0,0.0,0.0,6451297.0,-7249869.0,-229.26901,0.0,0.0,0.0,0.0,0.0,0.0,0.0,0.0,0.0,0.0,-0.128,-0.043,0.013,-1.2312704,0.0,0.0,0.0,0.0,0.0,0.0,0.0,inf,inf,inf,inf,1,1,1,1,0,0,0,0,0,0,1,1,0,0
831704000,0,0,0.0,0.0,6451297.0,-7249869.0,-229.26901,0.0,0.0,0.0,0.0,0.0,0.0,0.0,0.0,0.0,0.0,-0.029000001,0.007,0.79300004,-1.2312722,0.0,0.0,0.0,0.0,0.0,0.0,0.0,inf,inf,inf,inf,1,1,1,1,0,0,0,0,0,0,1,1,0,0
831720000,0,0,0.0,0.0,6451297.0,-7249869.0,-229.26901,0.0,0.0,0.0,0.0,0.0,0.0,0.0,0.0,0.0,0.0,0.15400001,0.060000002,0.056,-1.2312713,0.0,0.0,0.0,0.0,0.0,0.0,0.0,inf,inf,inf,inf,1,1,1,1,0,0,0,0,0,0,1,1,0,0
831744000,0,0,0.0,0.0,6451297.0,-7249869.0,-229.26901,0.0,0.0,0.0,0.0,0.0,0.0,0.0,0.0,0.0,0.0,0.112,0.036000002,0.0,-1.2312729,0.0,0.0,0.0,0.0,0.0,0.0,0.0,inf,inf,inf,inf,1,1,1,1,0,0,0,0,0,0,1,1,0,0
831764000,0,0,0.0,0.0,6451297.0,-7249869.0,-229.26901,0.0,0.0,0.0,0.0,0.0,0.0,0.0,0.0,0.0,0.0,-0.115,-0.037,0.0050000004,-1.2312691,0.0,0.0,0.0,0.0,0.0,0.0,0.0,inf,inf,inf,inf,1,1,1,1,0,0,0,0,0,0,1,1,0,0
831784000,0,0,0.0,0.0,6451297.0,-7249869.0,-229.26901,0.0,0.0,0.0,0.0,0.0,0.0,0.0,0.0,0.0,0.0,-0.098000005,-0.035,0.117000006,-1.2312713,0.0,0.0,0.0,0.0,0.0,0.0,0.0,inf,inf,inf,inf,1,1,1,1,0,0,0,0,0,0,1,1,0,0
831804000,0,0,0.0,0.0,6451297.0,-7249869.0,-229.26901,0.0,0.0,0.0,0.0,0.0,0.0,0.0,0.0,0.0,0.0,0.11100001,0.037,0.002,-1.2312734,0.0,0.0,0.0,0.0,0.0,0.0,0.0,inf,inf,inf,inf,1,1,1,1,0,0,0,0,0,0,1,1,0,0
831820000,0,0,0.0,0.0,6451297.0,-7249869.0,-229.26901,0.0,0.0,0.0,0.0,0.0,0.0,0.0,0.0,0.0,0.0,-0.031000001,0.006,0.794,-1.2312725,0.0,0.0,0.0,0.0,0.0,0.0,0.0,inf,inf,inf,inf,1,1,1,1,0,0,0,0,0,0,1,1,0,0
831844000,0,0,0.0,0.0,6451297.0,-7249869.0,-229.26901,0.0,0.0,0.0,0.0,0.0,0.0,0.0,0.0,0.0,0.0,0.11100001,0.034,0.019000001,-1.2312742,0.0,0.0,0.0,0.0,0.0,0.0,0.0,inf,inf,inf,inf,1,1,1,1,0,0,0,0,0,0,1,1,0,0
831864000,0,0,0.0,0.0,6451297.0,-7249869.0,-229.26901,0.0,0.0,0.0,0.0,0.0,0.0,0.0,0.0,0.0,0.0,-0.12100001,-0.039,0.007,-1.23127,0.0,0.0,0.0,0.0,0.0,0.0,0.0,inf,inf,inf,inf,1,1,1,1,0,0,0,0,0,0,1,1,0,0
831880000,0,0,0.0,0.0,6451297.0,-7249869.0,-229.26901,0.0,0.0,0.0,0.0,0.0,0.0,0.0,0.0,0.0,0.0,-0.117000006,-0.038000003,0.0050000004,-1.2312691,0.0,0.0,0.0,0.0,0.0,0.0,0.0,inf,inf,inf,inf,1,1,1,1,0,0,0,0,0,0,1,1,0,0
831904000,0,0,0.0,0.0,6451297.0,-7249869.0,-229.26901,0.0,0.0,0.0,0.0,0.0,0.0,0.0,0.0,0.0,0.0,0.12100001,0.038000003,0.023000002,-1.2312753,0.0,0.0,0.0,0.0,0.0,0.0,0.0,inf,inf,inf,inf,1,1,1,1,0,0,0,0,0,0,1,1,0,0
831924000,0,0,0.0,0.0,6451297.0,-7249869.0,-229.26901,0.0,0.0,0.0,0.0,0.0,0.0,0.0,0.0,0.0,0.0,-0.124000005,-0.041,0.010000001,-1.2312703,0.0,0.0,0.0,0.0,0.0,0.0,0.0,inf,inf,inf,inf,1,1,1,1,0,0,0,0,0,0,1,1,0,0
831944000,0,0,0.0,0.0,6451297.0,-7249869.0,-229.26901,0.0,0.0,0.0,0.0,0.0,0.0,0.0,0.0,0.0,0.0,0.027,0.003,-0.30100003,-1.231273,0.0,0.0,0.0,0.0,0.0,0.0,0.0,inf,inf,inf,inf,1,1,1,1,0,0,0,0,0,0,1,1,0,0
831964000,0,0,0.0,0.0,6451297.0,-7249869.0,-229.26901,0.0,0.0,0.0,0.0,0.0,0.0,0.0,0.0,0.0,0.0,-0.14,-0.046000004,0.013,-1.2312711,0.0,0.0,0.0,0.0,0.0,0.0,0.0,inf,inf,inf,inf,1,1,1,1,0,0,0,0,0,0,1,1,0,0
831984000,0,0,0.0,0.0,6451297.0,-7249869.0,-229.26901,0.0,0.0,0.0,0.0,0.0,0.0,0.0,0.0,0.0,0.0,0.117000006,0.040000003,-0.001,-1.2312728,0.0,0.0,0.0,0.0,0.0,0.0,0.0,inf,inf,inf,inf,1,1,1,1,0,0,0,0,0,0,1,1,0,0
832004000,0,0,0.0,0.0,6451297.0,-7249869.0,-229.26901,0.0,0.0,0.0,0.0,0.0,0.0,0.0,0.0,0.0,0.0,-0.011000001,-0.017,-0.669,-1.2312711,0.0,0.0,0.0,0.0,0.0,0.0,0.0,inf,inf,inf,inf,1,1,1,1,0,0,0,0,0,0,1,1,0,0
832024000,0,0,0.0,0.0,6451297.0,-7249869.0,-229.26901,0.0,0.0,0.0,0.0,0.0,0.0,0.0,0.0,0.0,0.0,-0.136,-0.047000002,0.020000001,-1.231272,0.0,0.0,0.0,0.0,0.0,0.0,0.0,inf,inf,inf,inf,1,1,1,1,0,0,0,0,0,0,1,1,0,0
832044000,0,0,0.0,0.0,6451297.0,-7249869.0,-229.26901,0.0,0.0,0.0,0.0,0.0,0.0,0.0,0.0,0.0,0.0,0.117000006,0.040000003,0.0,-1.2312732,0.0,0.0,0.0,0.0,0.0,0.0,0.0,inf,inf,inf,inf,1,1,1,1,0,0,0,0,0,0,1,1,0,0
832060000,0,0,0.0,0.0,6451297.0,-7249869.0,-229.26901,0.0,0.0,0.0,0.0,0.0,0.0,0.0,0.0,0.0,0.0,0.028,0.004,-0.30200002,-1.2312733,0.0,0.0,0.0,0.0,0.0,0.0,0.0,inf,inf,inf,inf,1,1,1,1,0,0,0,0,0,0,1,1,0,0
832084000,0,0,0.0,0.0,6451297.0,-7249869.0,-229.26901,0.0,0.0,0.0,0.0,0.0,0.0,0.0,0.0,0.0,0.0,0.10700001,0.034,0.001,-1.2312741,0.0,0.0,0.0,0.0,0.0,0.0,0.0,inf,inf,inf,inf,1,1,1,1,0,0,0,0,0,0,1,1,0,0
832104000,0,0,0.0,0.0,6451297.0,-7249869.0,-229.26901,0.0,0.0,0.0,0.0,0.0,0.0,0.0,0.0,0.0,0.0,-0.116000004,-0.038000003,0.0050000004,-1.2312701,0.0,0.0,0.0,0.0,0.0,0.0,0.0,inf,inf,inf,inf,1,1,1,1,0,0,0,0,0,0,1,1,0,0
832120000,0,0,0.0,0.0,6451297.0,-7249869.0,-229.26901,0.0,0.0,0.0,0.0,0.0,0.0,0.0,0.0,0.0,0.0,-0.013,-0.018000001,-0.66700006,-1.2312713,0.0,0.0,0.0,0.0,0.0,0.0,0.0,inf,inf,inf,inf,1,1,1,1,0,0,0,0,0,0,1,1,0,0
832144000,0,0,0.0,0.0,6451297.0,-7249869.0,-229.26901,0.0,0.0,0.0,0.0,0.0,0.0,0.0,0.0,0.0,0.0,0.10700001,0.035,0.006,-1.2312747,0.0,0.0,0.0,0.0,0.0,0.0,0.0,inf,inf,inf,inf,1,1,1,1,0,0,0,0,0,0,1,1,0,0
832160000,0,0,0.0,0.0,6451297.0,-7249869.0,-229.26901,0.0,0.0,0.0,0.0,0.0,0.0,0.0,0.0,0.0,0.0,0.112,0.037,0.0,-1.2312734,0.0,0.0,0.0,0.0,0.0,0.0,0.0,inf,inf,inf,inf,1,1,1,1,0,0,0,0,0,0,1,1,0,0
832184000,0,0,0.0,0.0,6451297.0,-7249869.0,-229.26901,0.0,0.0,0.0,0.0,0.0,0.0,0.0,0.0,0.0,0.0,0.15200001,0.058000002,0.054,-1.231272,0.0,0.0,0.0,0.0,0.0,0.0,0.0,inf,inf,inf,inf,1,1,1,1,0,0,0,0,0,0,1,1,0,0
832200000,0,0,0.0,0.0,6451297.0,-7249869.0,-229.26901,0.0,0.0,0.0,0.0,0.0,0.0,0.0,0.0,0.0,0.0,0.108,0.035,0.001,-1.2312741,0.0,0.0,0.0,0.0,0.0,0.0,0.0,inf,inf,inf,inf,1,1,1,1,0,0,0,0,0,0,1,1,0,0
832224000,0,0,0.0,0.0,6451297.0,-7249869.0,-229.26901,0.0,0.0,0.0,0.0,0.0,0.0,0.0,0.0,0.0,0.0,0.115,0.039,-0.002,-1.2312729,0.0,0.0,0.0,0.0,0.0,0.0,0.0,inf,inf,inf,inf,1,1,1,1,0,0,0,0,0,0,1,1,0,0
832240000,0,0,0.0,0.0,6451297.0,-7249869.0,-229.26901,0.0,0.0,0.0,0.0,0.0,0.0,0.0,0.0,0.0,0.0,0.028,0.003,-0.30100003,-1.2312732,0.0,0.0,0.0,0.0,0.0,0.0,0.0,inf,inf,inf,inf,1,1,1,1,0,0,0,0,0,0,1,1,0,0
832264000,0,0,0.0,0.0,6451297.0,-7249869.0,-229.26901,0.0,0.0,0.0,0.0,0.0,0.0,0.0,0.0,0.0,0.0,-0.132,-0.044000003,0.013,-1.2312715,0.0,0.0,0.0,0.0,0.0,0.0,0.0,inf,inf,inf,inf,1,1,1,1,0,0,0,0,0,0,1,1,0,0
832284000,0,0,0.0,0.0,6451297.0,-7249869.0,-229.26901,0.0,0.0,0.0,0.0,0.0,0.0,0.0,0.0,0.0,0.0,0.027,0.003,-0.30100003,-1.2312741,0.0,0.0,0.0,0.0,0.0,0.0,0.0,inf,inf,inf,inf,1,1,1,1,0,0,0,0,0,0,1,1,0,0
832304000,0,0,0.0,0.0,6451297.0,-7249869.0,-229.26901,0.0,0.0,0.0,0.0,0.0,0.0,0.0,0.0,0.0,0.0,-0.14,-0.047000002,0.013,-1.231272,0.0,0.0,0.0,0.0,0.0,0.0,0.0,inf,inf,inf,inf,1,1,1,1,0,0,0,0,0,0,1,1,0,0
832324000,0,0,0.0,0.0,6451297.0,-7249869.0,-229.26901,0.0,0.0,0.0,0.0,0.0,0.0,0.0,0.0,0.0,0.0,0.116000004,0.040000003,-0.001,-1.2312737,0.0,0.0,0.0,0.0,0.0,0.0,0.0,inf,inf,inf,inf,1,1,1,1,0,0,0,0,0,0,1,1,0,0
832340000,0,0,0.0,0.0,6451297.0,-7249869.0,-229.26901,0.0,0.0,0.0,0.0,0.0,0.0,0.0,0.0,0.0,0.0,0.116000004,0.040000003,-0.002,-1.2312729,0.0,0.0,0.0,0.0,0.0,0.0,0.0,inf,inf,inf,inf,1,1,1,1,0,0,0,0,0,0,1,1,0,0
832364000,0,0,0.0,0.0,6451297.0,-7249869.0,-229.26901,0.0,0.0,0.0,0.0,0.0,0.0,0.0,0.0,0.0,0.0,0.15300001,0.061000004,0.054,-1.2312719,0.0,0.0,0.0,0.0,0.0,0.0,0.0,inf,inf,inf,inf,1,1,1,1,0,0,0,0,0,0,1,1,0,0
832380000,0,0,0.0,0.0,6451297.0,-7249869.0,-229.26901,0.0,0.0,0.0,0.0,0.0,0.0,0.0,0.0,0.0,0.0,0.108,0.036000002,0.0,-1.2312741,0.0,0.0,0.0,0.0,0.0,0.0,0.0,inf,inf,inf,inf,1,1,1,1,0,0,0,0,0,0,1,1,0,0
832400000,0,0,0.0,0.0,6451297.0,-7249869.0,-229.26901,0.0,0.0,0.0,0.0,0.0,0.0,0.0,0.0,0.0,0.0,-0.117000006,-0.037,0.006,-1.2312703,0.0,0.0,0.0,0.0,0.0,0.0,0.0,inf,inf,inf,inf,1,1,1,1,0,0,0,0,0,0,1,1,0,0
832420000,0,0,0.0,0.0,6451297.0,-7249869.0,-229.26901,0.0,0.0,0.0,0.0,0.0,0.0,0.0,0.0,0.0,0.0,0.028,0.003,-0.30100003,-1.2312732,0.0,0.0,0.0,0.0,0.0,0.0,0.0,inf,inf,inf,inf,1,1,1,1,0,0,0,0,0,0,1,1,0,0
832444000,0,0,0.0,0.0,6451297.0,-7249869.0,-229.26901,0.0,0.0,0.0,0.0,0.0,0.0,0.0,0.0,0.0,0.0,-0.125,-0.041,0.012,-1.2312715,0.0,0.0,0.0,0.0,0.0,0.0,0.0,inf,inf,inf,inf,1,1,1,1,0,0,0,0,0,0,1,1,0,0
832460000,0,0,0.0,0.0,6451297.0,-7249869.0,-229.26901,0.0,0.0,0.0,0.0,0.0,0.0,0.0,0.0,0.0,0.0,-0.115,-0.038000003,0.008,-1.2312704,0.0,0.0,0.0,0.0,0.0,0.0,0.0,inf,inf,inf,inf,1,1,1,1,0,0,0,0,0,0,1,1,0,0
832480000,0,0,0.0,0.0,6451297.0,-7249869.0,-229.26901,0.0,0.0,0.0,0.0,0.0,0.0,0.0,0.0,0.0,0.0,0.15100001,0.058000002,0.053000003,-1.2312722,0.0,0.0,0.0,0.0,0.0,0.0,0.0,inf,inf,inf,inf,1,1,1,1,0,0,0,0,0,0,1,1,0,0
832504000,0,0,0.0,0.0,6451297.0,-7249869.0,-229.26901,0.0,0.0,0.0,0.0,0.0,0.0,0.0,0.0,0.0,0.0,0.109000005,0.036000002,0.0,-1.2312738,0.0,0.0,0.0,0.0,0.0,0.0,0.0,inf,inf,inf,inf,1,1,1,1,0,0,0,0,0,0,1,1,0,0
832524000,0,0,0.0,0.0,6451297.0,-7249869.0,-229.26901,0.0,0.0,0.0,0.0,0.0,0.0,0.0,0.0,0.0,0.0,-0.116000004,-0.037,0.0050000004,-1.23127,0.0,0.0,0.0,0.0,0.0,0.0,0.0,inf,inf,inf,inf,1,1,1,1,0,0,0,0,0,0,1,1,0,0
832544000,0,0,0.0,0.0,6451297.0,-7249869.0,-229.26901,0.0,0.0,0.0,0.0,0.0,0.0,0.0,0.0,0.0,0.0,-0.102000006,-0.035,0.11800001,-1.2312721,0.0,0.0,0.0,0.0,0.0,0.0,0.0,inf,inf,inf,inf,1,1,1,1,0,0,0,0,0,0,1,1,0,0
832560000,0,0,0.0,0.0,6451297.0,-7249869.0,-229.26901,0.0,0.0,0.0,0.0,0.0,0.0,0.0,0.0,0.0,0.0,-0.127,-0.042000003,0.012,-1.2312716,0.0,0.0,0.0,0.0,0.0,0.0,0.0,inf,inf,inf,inf,1,1,1,1,0,0,0,0,0,0,1,1,0,0
832580000,0,0,0.0,0.0,6451297.0,-7249869.0,-229.26901,0.0,0.0,0.0,0.0,0.0,0.0,0.0,0.0,0.0,0.0,-0.024,0.009000001,0.791,-1.2312734,0.0,0.0,0.0,0.0,0.0,0.0,0.0,inf,inf,inf,inf,1,1,1,1,0,0,0,0,0,0,1,1,0,0
832604000,0,0,0.0,0.0,6451297.0,-7249869.0,-229.26901,0.0,0.0,0.0,0.0,0.0,0.0,0.0,0.0,0.0,0.0,0.120000005,0.038000003,0.017,-1.2312751,0.0,0.0,0.0,0.0,0.0,0.0,0.0,inf,inf,inf,inf,1,1,1,1,0,0,0,0,0,0,1,1,0,0
832624000,0,0,0.0,0.0,6451297.0,-7249869.0,-229.26901,0.0,0.0,0.0,0.0,0.0,0.0,0.0,0.0,0.0,0.0,-0.123,-0.040000003,0.007,-1.2312708,0.0,0.0,0.0,0.0,0.0,0.0,0.0,inf,inf,inf,inf,1,1,1,1,0,0,0,0,0,0,1,1,0,0
832644000,0,0,0.0,0.0,6451297.0,-7249869.0,-229.26901,0.0,0.0,0.0,0.0,0.0,0.0,0.0,0.0,0.0,0.0,-0.027,0.007,0.78700006,-1.2312729,0.0,0.0,0.0,0.0,0.0,0.0,0.0,inf,inf,inf,inf,1,1,1,1,0,0,0,0,0,0,1,1,0,0
832660000,0,0,0.0,0.0,6451297.0,-7249869.0,-229.26901,0.0,0.0,0.0,0.0,0.0,0.0,0.0,0.0,0.0,0.0,-0.104,-0.038000003,0.116000004,-1.2312722,0.0,0.0,0.0,0.0,0.0,0.0,0.0,inf,inf,inf,inf,1,1,1,1,0,0,0,0,0,0,1,1,0,0
832684000,0,0,0.0,0.0,6451297.0,-7249869.0,-229.26901,0.0,0.0,0.0,0.0,0.0,0.0,0.0,0.0,0.0,0.0,-0.123,-0.041,0.010000001,-1.2312713,0.0,0.0,0.0,0.0,0.0,0.0,0.0,inf,inf,inf,inf,1,1,1,1,0,0,0,0,0,0,1,1,0,0
832704000,0,0,0.0,0.0,6451297.0,-7249869.0,-229.26901,0.0,0.0,0.0,0.0,0.0,0.0,0.0,0.0,0.0,0.0,0.028,0.004,-0.30100003,-1.2312739,0.0,0.0,0.0,0.0,0.0,0.0,0.0,inf,inf,inf,inf,1,1,1,1,0,0,0,0,0,0,1,1,0,0
832724000,0,0,0.0,0.0,6451297.0,-7249869.0,-229.26901,0.0,0.0,0.0,0.0,0.0,0.0,0.0,0.0,0.0,0.0,-0.134,-0.044000003,0.013,-1.231272,0.0,0.0,0.0,0.0,0.0,0.0,0.0,inf,inf,inf,inf,1,1,1,1,0,0,0,0,0,0,1,1,0,0
832744000,0,0,0.0,0.0,6451297.0,-7249869.0,-229.26901,0.0,0.0,0.0,0.0,0.0,0.0,0.0,0.0,0.0,0.0,0.11400001,0.037,0.0,-1.2312738,0.0,0.0,0.0,0.0,0.0,0.0,0.0,inf,inf,inf,inf,1,1,1,1,0,0,0,0,0,0,1,1,0,0
832764000,0,0,0.0,0.0,6451297.0,-7249869.0,-229.26901,0.0,0.0,0.0,0.0,0.0,0.0,0.0,0.0,0.0,0.0,-0.013,-0.018000001,-0.66800004,-1.231272,0.0,0.0,0.0,0.0,0.0,0.0,0.0,inf,inf,inf,inf,1,1,1,1,0,0,0,0,0,0,1,1,0,0
832784000,0,0,0.0,0.0,6451297.0,-7249869.0,-229.26901,0.0,0.0,0.0,0.0,0.0,0.0,0.0,0.0,0.0,0.0,-0.13100001,-0.044000003,0.019000001,-1.2312727,0.0,0.0,0.0,0.0,0.0,0.0,0.0,inf,inf,inf,inf,1,1,1,1,0,0,0,0,0,0,1,1,0,0
832804000,0,0,0.0,0.0,6451297.0,-7249869.0,-229.26901,0.0,0.0,0.0,0.0,0.0,0.0,0.0,0.0,0.0,0.0,0.11100001,0.037,0.0,-1.231274,0.0,0.0,0.0,0.0,0.0,0.0,0.0,inf,inf,inf,inf,1,1,1,1,0,0,0,0,0,0,1,1,0,0
832824000,0,0,0.0,0.0,6451297.0,-7249869.0,-229.26901,0.0,0.0,0.0,0.0,0.0,0.0,0.0,0.0,0.0,0.0,0.020000001,0.002,-0.054,-1.2312737,0.0,0.0,0.0,0.0,0.0,0.0,0.0,inf,inf,inf,inf,1,1,1,1,0,0,0,0,0,0,1,1,0,0
832840000,0,0,0.0,0.0,6451297.0,-7249869.0,-229.26901,0.0,0.0,0.0,0.0,0.0,0.0,0.0,0.0,0.0,0.0,-0.134,-0.043,0.013,-1.2312721,0.0,0.0,0.0,0.0,0.0,0.0,0.0,inf,inf,inf,inf,1,1,1,1,0,0,0,0,0,0,1,1,0,0
832860000,0,0,0.0,0.0,6451297.0,-7249869.0,-229.26901,0.0,0.0,0.0,0.0,0.0,0.0,0.0,0.0,0.0,0.0,0.115,0.037,0.0,-1.2312737,0.0,0.0,0.0,0.0,0.0,0.0,0.0,inf,inf,inf,inf,1,1,1,1,0,0,0,0,0,0,1,1,0,0
832884000,0,0,0.0,0.0,6451297.0,-7249869.0,-229.26901,0.0,0.0,0.0,0.0,0.0,0.0,0.0,0.0,0.0,0.0,0.028,0.003,-0.30100003,-1.2312738,0.0,0.0,0.0,0.0,0.0,0.0,0.0,inf,inf,inf,inf,1,1,1,1,0,0,0,0,0,0,1,1,0,0
832900000,0,0,0.0,0.0,6451297.0,-7249869.0,-229.26901,0.0,0.0,0.0,0.0,0.0,0.0,0.0,0.0,0.0,0.0,-0.134,-0.046000004,0.020000001,-1.2312729,0.0,0.0,0.0,0.0,0.0,0.0,0.0,inf,inf,inf,inf,1,1,1,1,0,0,0,0,0,0,1,1,0,0
832924000,0,0,0.0,0.0,6451297.0,-7249869.0,-229.26901,0.0,0.0,0.0,0.0,0.0,0.0,0.0,0.0,0.0,0.0,-0.017,-0.019000001,-0.671,-1.2312729,0.0,0.0,0.0,0.0,0.0,0.0,0.0,inf,inf,inf,inf,1,1,1,1,0,0,0,0,0,0,1,1,0,0
832944000,0,0,0.0,0.0,6451297.0,-7249869.0,-229.26901,0.0,0.0,0.0,0.0,0.0,0.0,0.0,0.0,0.0,0.0,0.11800001,0.038000003,0.017,-1.2312758,0.0,0.0,0.0,0.0,0.0,0.0,0.0,inf,inf,inf,inf,1,1,1,1,0,0,0,0,0,0,1,1,0,0
832964000,0,0,0.0,0.0,6451297.0,-7249869.0,-229.26901,0.0,0.0,0.0,0.0,0.0,0.0,0.0,0.0,0.0,0.0,-0.12200001,-0.040000003,0.007,-1.2312715,0.0,0.0,0.0,0.0,0.0,0.0,0.0,inf,inf,inf,inf,1,1,1,1,0,0,0,0,0,0,1,1,0,0
832980000,0,0,0.0,0.0,6451297.0,-7249869.0,-229.26901,0.0,0.0,0.0,0.0,0.0,0.0,0.0,0.0,0.0,0.0,-0.119,-0.040000003,0.0050000004,-1.2312708,0.0,0.0,0.0,0.0,0.0,0.0,0.0,inf,inf,inf,inf,1,1,1,1,0,0,0,0,0,0,1,1,0,0
833000000,0,0,0.0,0.0,6451297.0,-7249869.0,-229.26901,0.0,0.0,0.0,0.0,0.0,0.0,0.0,0.0,0.0,0.0,-0.104,-0.038000003,0.117000006,-1.2312729,0.0,0.0,0.0,0.0,0.0,0.0,0.0,inf,inf,inf,inf,1,1,1,1,0,0,0,0,0,0,1,1,0,0
833020000,0,0,0.0,0.0,6451297.0,-7249869.0,-229.26901,0.0,0.0,0.0,0.0,0.0,0.0,0.0,0.0,0.0,0.0,0.115,0.040000003,0.002,-1.2312751,0.0,0.0,0.0,0.0,0.0,0.0,0.0,inf,inf,inf,inf,1,1,1,1,0,0,0,0,0,0,1,1,0,0
833040000,0,0,0.0,0.0,6451297.0,-7249869.0,-229.26901,0.0,0.0,0.0,0.0,0.0,0.0,0.0,0.0,0.0,0.0,-0.013,-0.018000001,-0.67,-1.2312729,0.0,0.0,0.0,0.0,0.0,0.0,0.0,inf,inf,inf,inf,1,1,1,1,0,0,0,0,0,0,1,1,0,0
833060000,0,0,0.0,0.0,6451297.0,-7249869.0,-229.26901,0.0,0.0,0.0,0.0,0.0,0.0,0.0,0.0,0.0,0.0,0.112,0.034,0.018000001,-1.231276,0.0,0.0,0.0,0.0,0.0,0.0,0.0,inf,inf,inf,inf,1,1,1,1,0,0,0,0,0,0,1,1,0,0
833084000,0,0,0.0,0.0,6451297.0,-7249869.0,-229.26901,0.0,0.0,0.0,0.0,0.0,0.0,0.0,0.0,0.0,0.0,0.115,0.038000003,-0.001,-1.2312744,0.0,0.0,0.0,0.0,0.0,0.0,0.0,inf,inf,inf,inf,1,1,1,1,0,0,0,0,0,0,1,1,0,0
833104000,0,0,0.0,0.0,6451297.0,-7249869.0,-229.26901,0.0,0.0,0.0,0.0,0.0,0.0,0.0,0.0,0.0,0.0,-0.013,-0.018000001,-0.66700006,-1.2312725,0.0,0.0,0.0,0.0,0.0,0.0,0.0,inf,inf,inf,inf,1,1,1,1,0,0,0,0,0,0,1,1,0,0
833124000,0,0,0.0,0.0,6451297.0,-7249869.0,-229.26901,0.0,0.0,0.0,0.0,0.0,0.0,0.0,0.0,0.0,0.0,-0.13100001,-0.044000003,0.019000001,-1.2312733,0.0,0.0,0.0,0.0,0.0,0.0,0.0,inf,inf,inf,inf,1,1,1,1,0,0,0,0,0,0,1,1,0,0
833144000,0,0,0.0,0.0,6451297.0,-7249869.0,-229.26901,0.0,0.0,0.0,0.0,0.0,0.0,0.0,0.0,0.0,0.0,0.11100001,0.037,0.0,-1.2312746,0.0,0.0,0.0,0.0,0.0,0.0,0.0,inf,inf,inf,inf,1,1,1,1,0,0,0,0,0,0,1,1,0,0
833164000,0,0,0.0,0.0,6451297.0,-7249869.0,-229.26901,0.0,0.0,0.0,0.0,0.0,0.0,0.0,0.0,0.0,0.0,0.020000001,0.002,-0.054,-1.2312744,0.0,0.0,0.0,0.0,0.0,0.0,0.0,inf,inf,inf,inf,1,1,1,1,0,0,0,0,0,0,1,1,0,0
833180000,0,0,0.0,0.0,6451297.0,-7249869.0,-229.26901,0.0,0.0,0.0,0.0,0.0,0.0,0.0,0.0,0.0,0.0,-0.135,-0.044000003,0.013,-1.2312727,0.0,0.0,0.0,0.0,0.0,0.0,0.0,inf,inf,inf,inf,1,1,1,1,0,0,0,0,0,0,1,1,0,0
833204000,0,0,0.0,0.0,6451297.0,-7249869.0,-229.26901,0.0,0.0,0.0,0.0,0.0,0.0,0.0,0.0,0.0,0.0,-0.119,-0.039,0.006,-1.2312713,0.0,0.0,0.0,0.0,0.0,0.0,0.0,inf,inf,inf,inf,1,1,1,1,0,0,0,0,0,0,1,1,0,0
833224000,0,0,0.0,0.0,6451297.0,-7249869.0,-229.26901,0.0,0.0,0.0,0.0,0.0,0.0,0.0,0.0,0.0,0.0,0.028,0.003,-0.30100003,-1.2312744,0.0,0.0,0.0,0.0,0.0,0.0,0.0,inf,inf,inf,inf,1,1,1,1,0,0,0,0,0,0,1,1,0,0
833240000,0,0,0.0,0.0,6451297.0,-7249869.0,-229.26901,0.0,0.0,0.0,0.0,0.0,0.0,0.0,0.0,0.0,0.0,-0.136,-0.046000004,0.020000001,-1.2312733,0.0,0.0,0.0,0.0,0.0,0.0,0.0,inf,inf,inf,inf,1,1,1,1,0,0,0,0,0,0,1,1,0,0
833260000,0,0,0.0,0.0,6451297.0,-7249869.0,-229.26901,0.0,0.0,0.0,0.0,0.0,0.0,0.0,0.0,0.0,0.0,0.12100001,0.041,0.0,-1.2312747,0.0,0.0,0.0,0.0,0.0,0.0,0.0,inf,inf,inf,inf,1,1,1,1,0,0,0,0,0,0,1,1,0,0
833284000,0,0,0.0,0.0,6451297.0,-7249869.0,-229.26901,0.0,0.0,0.0,0.0,0.0,0.0,0.0,0.0,0.0,0.0,0.15300001,0.060000002,0.056,-1.2312733,0.0,0.0,0.0,0.0,0.0,0.0,0.0,inf,inf,inf,inf,1,1,1,1,0,0,0,0,0,0,1,1,0,0
833304000,0,0,0.0,0.0,6451297.0,-7249869.0,-229.26901,0.0,0.0,0.0,0.0,0.0,0.0,0.0,0.0,0.0,0.0,-0.128,-0.042000003,0.009000001,-1.2312722,0.0,0.0,0.0,0.0,0.0,0.0,0.0,inf,inf,inf,inf,1,1,1,1,0,0,0,0,0,0,1,1,0,0
833324000,0,0,0.0,0.0,6451297.0,-7249869.0,-229.26901,0.0,0.0,0.0,0.0,0.0,0.0,0.0,0.0,0.0,0.0,0.117000006,0.040000003,-0.002,-1.2312741,0.0,0.0,0.0,0.0,0.0,0.0,0.0,inf,inf,inf,inf,1,1,1,1,0,0,0,0,0,0,1,1,0,0
833344000,0,0,0.0,0.0,6451297.0,-7249869.0,-229.26901,0.0,0.0,0.0,0.0,0.0,0.0,0.0,0.0,0.0,0.0,0.163,0.062000003,-0.027,-1.2312741,0.0,0.0,0.0,0.0,0.0,0.0,0.0,inf,inf,inf,inf,1,1,1,1,0,0,0,0,0,0,1,1,0,0
833364000,0,0,0.0,0.0,6451297.0,-7249869.0,-229.26901,0.0,0.0,0.0,0.0,0.0,0.0,0.0,0.0,0.0,0.0,-0.12900001,-0.043,0.012,-1.2312727,0.0,0.0,0.0,0.0,0.0,0.0,0.0,inf,inf,inf,inf,1,1,1,1,0,0,0,0,0,0,1,1,0,0
833384000,0,0,0.0,0.0,6451297.0,-7249869.0,-229.26901,0.0,0.0,0.0,0.0,0.0,0.0,0.0,0.0,0.0,0.0,-0.029000001,0.006,0.79200006,-1.2312744,0.0,0.0,0.0,0.0,0.0,0.0,0.0,inf,inf,inf,inf,1,1,1,1,0,0,0,0,0,0,1,1,0,0
833404000,0,0,0.0,0.0,6451297.0,-7249869.0,-229.26901,0.0,0.0,0.0,0.0,0.0,0.0,0.0,0.0,0.0,0.0,-0.104,-0.034,0.13100001,-1.2312722,0.0,0.0,0.0,0.0,0.0,0.0,0.0,inf,inf,inf,inf,1,1,1,1,0,0,0,0,0,0,1,1,0,0
833424000,0,0,0.0,0.0,6451297.0,-7249869.0,-229.26901,0.0,0.0,0.0,0.0,0.0,0.0,0.0,0.0,0.0,0.0,0.112,0.037,0.0,-1.2312751,0.0,0.0,0.0,0.0,0.0,0.0,0.0,inf,inf,inf,inf,1,1,1,1,0,0,0,0,0,0,1,1,0,0
833444000,0,0,0.0,0.0,6451297.0,-7249869.0,-229.26901,0.0,0.0,0.0,0.0,0.0,0.0,0.0,0.0,0.0,0.0,-0.11400001,-0.037,0.0050000004,-1.2312713,0.0,0.0,0.0,0.0,0.0,0.0,0.0,inf,inf,inf,inf,1,1,1,1,0,0,0,0,0,0,1,1,0,0
833464000,0,0,0.0,0.0,6451297.0,-7249869.0,-229.26901,0.0,0.0,0.0,0.0,0.0,0.0,0.0,0.0,0.0,0.0,-0.096,-0.034,0.117000006,-1.2312733,0.0,0.0,0.0,0.0,0.0,0.0,0.0,inf,inf,inf,inf,1,1,1,1,0,0,0,0,0,0,1,1,0,0
833480000,0,0,0.0,0.0,6451297.0,-7249869.0,-229.26901,0.0,0.0,0.0,0.0,0.0,0.0,0.0,0.0,0.0,0.0,-0.124000005,-0.041,0.013,-1.2312727,0.0,0.0,0.0,0.0,0.0,0.0,0.0,inf,inf,inf,inf,1,1,1,1,0,0,0,0,0,0,1,1,0,0
833500000,0,0,0.0,0.0,6451297.0,-7249869.0,-229.26901,0.0,0.0,0.0,0.0,0.0,0.0,0.0,0.0,0.0,0.0,-0.030000001,0.006,0.79200006,-1.2312744,0.0,0.0,0.0,0.0,0.0,0.0,0.0,inf,inf,inf,inf,1,1,1,1,0,0,0,0,0,0,1,1,0,0
833524000,0,0,0.0,0.0,6451297.0,-7249869.0,-229.26901,0.0,0.0,0.0,0.0,0.0,0.0,0.0,0.0,0.0,0.0,0.115,0.035,0.019000001,-1.2312763,0.0,0.0,0.0,0.0,0.0,0.0,0.0,inf,inf,inf,inf,1,1,1,1,0,0,0,0,0,0,1,1,0,0
833544000,0,0,0.0,0.0,6451297.0,-7249869.0,-229.26901,0.0,0.0,0.0,0.0,0.0,0.0,0.0,0.0,0.0,0.0,-0.12100001,-0.040000003,0.006,-1.2312719,0.0,0.0,0.0,0.0,0.0,0.0,0.0,inf,inf,inf,inf,1,1,1,1,0,0,0,0,0,0,1,1,0,0
833560000,0,0,0.0,0.0,6451297.0,-7249869.0,-229.26901,0.0,0.0,0.0,0.0,0.0,0.0,0.0,0.0,0.0,0.0,-0.11400001,-0.038000003,0.0050000004,-1.2312713,0.0,0.0,0.0,0.0,0.0,0.0,0.0,inf,inf,inf,inf,1,1,1,1,0,0,0,0,0,0,1,1,0,0
833580000,0,0,0.0,0.0,6451297.0,-7249869.0,-229.26901,0.0,0.0,0.0,0.0,0.0,0.0,0.0,0.0,0.0,0.0,-0.105000004,-0.037,0.120000005,-1.2312733,0.0,0.0,0.0,0.0,0.0,0.0,0.0,inf,inf,inf,inf,1,1,1,1,0,0,0,0,0,0,1,1,0,0
833600000,0,0,0.0,0.0,6451297.0,-7249869.0,-229.26901,0.0,0.0,0.0,0.0,0.0,0.0,0.0,0.0,0.0,0.0,0.11800001,0.040000003,0.001,-1.2312756,0.0,0.0,0.0,0.0,0.0,0.0,0.0,inf,inf,inf,inf,1,1,1,1,0,0,0,0,0,0,1,1,0,0
833624000,0,0,0.0,0.0,6451297.0,-7249869.0,-229.26901,0.0,0.0,0.0,0.0,0.0,0.0,0.0,0.0,0.0,0.0,0.028,0.003,-0.30100003,-1.231275,0.0,0.0,0.0,0.0,0.0,0.0,0.0,inf,inf,inf,inf,1,1,1,1,0,0,0,0,0,0,1,1,0,0
833644000,0,0,0.0,0.0,6451297.0,-7249869.0,-229.26901,0.0,0.0,0.0,0.0,0.0,0.0,0.0,0.0,0.0,0.0,-0.13700001,-0.046000004,0.013,-1.2312729,0.0,0.0,0.0,0.0,0.0,0.0,0.0,inf,inf,inf,inf,1,1,1,1,0,0,0,0,0,0,1,1,0,0
833664000,0,0,0.0,0.0,6451297.0,-7249869.0,-229.26901,0.0,0.0,0.0,0.0,0.0,0.0,0.0,0.0,0.0,0.0,0.117000006,0.040000003,-0.001,-1.2312748,0.0,0.0,0.0,0.0,0.0,0.0,0.0,inf,inf,inf,inf,1,1,1,1,0,0,0,0,0,0,1,1,0,0
833684000,0,0,0.0,0.0,6451297.0,-7249869.0,-229.26901,0.0,0.0,0.0,0.0,0.0,0.0,0.0,0.0,0.0,0.0,-0.012,-0.018000001,-0.66800004,-1.2312729,0.0,0.0,0.0,0.0,0.0,0.0,0.0,inf,inf,inf,inf,1,1,1,1,0,0,0,0,0,0,1,1,0,0
833704000,0,0,0.0,0.0,6451297.0,-7249869.0,-229.26901,0.0,0.0,0.0,0.0,0.0,0.0,0.0,0.0,0.0,0.0,-0.134,-0.046000004,0.019000001,-1.2312737,0.0,0.0,0.0,0.0,0.0,0.0,0.0,inf,inf,inf,inf,1,1,1,1,0,0,0,0,0,0,1,1,0,0
833724000,0,0,0.0,0.0,6451297.0,-7249869.0,-229.26901,0.0,0.0,0.0,0.0,0.0,0.0,0.0,0.0,0.0,0.0,0.112,0.037,0.0,-1.2312751,0.0,0.0,0.0,0.0,0.0,0.0,0.0,inf,inf,inf,inf,1,1,1,1,0,0,0,0,0,0,1,1,0,0
833744000,0,0,0.0,0.0,6451297.0,-7249869.0,-229.26901,0.0,0.0,0.0,0.0,0.0,0.0,0.0,0.0,0.0,0.0,0.019000001,0.002,-0.054,-1.2312748,0.0,0.0,0.0,0.0,0.0,0.0,0.0,inf,inf,inf,inf,1,1,1,1,0,0,0,0,0,0,1,1,0,0
833760000,0,0,0.0,0.0,6451297.0,-7249869.0,-229.26901,0.0,0.0,0.0,0.0,0.0,0.0,0.0,0.0,0.0,0.0,-0.135,-0.045,0.013,-1.2312732,0.0,0.0,0.0,0.0,0.0,0.0,0.0,inf,inf,inf,inf,1,1,1,1,0,0,0,0,0,0,1,1,0,0
833780000,0,0,0.0,0.0,6451297.0,-7249869.0,-229.26901,0.0,0.0,0.0,0.0,0.0,0.0,0.0,0.0,0.0,0.0,0.112,0.037,-0.001,-1.2312748,0.0,0.0,0.0,0.0,0.0,0.0,0.0,inf,inf,inf,inf,1,1,1,1,0,0,0,0,0,0,1,1,0,0
833804000,0,0,0.0,0.0,6451297.0,-7249869.0,-229.26901,0.0,0.0,0.0,0.0,0.0,0.0,0.0,0.0,0.0,0.0,0.028,0.003,-0.30100003,-1.2312746,0.0,0.0,0.0,0.0,0.0,0.0,0.0,inf,inf,inf,inf,1,1,1,1,0,0,0,0,0,0,1,1,0,0
833820000,0,0,0.0,0.0,6451297.0,-7249869.0,-229.26901,0.0,0.0,0.0,0.0,0.0,0.0,0.0,0.0,0.0,0.0,-0.132,-0.044000003,0.020000001,-1.2312737,0.0,0.0,0.0,0.0,0.0,0.0,0.0,inf,inf,inf,inf,1,1,1,1,0,0,0,0,0,0,1,1,0,0
833840000,0,0,0.0,0.0,6451297.0,-7249869.0,-229.26901,0.0,0.0,0.0,0.0,0.0,0.0,0.0,0.0,0.0,0.0,0.11400001,0.038000003,0.001,-1.2312751,0.0,0.0,0.0,0.0,0.0,0.0,0.0,inf,inf,inf,inf,1,1,1,1,0,0,0,0,0,0,1,1,0,0
833864000,0,0,0.0,0.0,6451297.0,-7249869.0,-229.26901,0.0,0.0,0.0,0.0,0.0,0.0,0.0,0.0,0.0,0.0,0.15300001,0.058000002,0.055000003,-1.2312737,0.0,0.0,0.0,0.0,0.0,0.0,0.0,inf,inf,inf,inf,1,1,1,1,0,0,0,0,0,0,1,1,0,0
833880000,0,0,0.0,0.0,6451297.0,-7249869.0,-229.26901,0.0,0.0,0.0,0.0,0.0,0.0,0.0,0.0,0.0,0.0,0.106000006,0.035,0.0,-1.2312758,0.0,0.0,0.0,0.0,0.0,0.0,0.0,inf,inf,inf,inf,1,1,1,1,0,0,0,0,0,0,1,1,0,0
833900000,0,0,0.0,0.0,6451297.0,-7249869.0,-229.26901,0.0,0.0,0.0,0.0,0.0,0.0,0.0,0.0,0.0,0.0,-0.117000006,-0.039,0.007,-1.2312717,0.0,0.0,0.0,0.0,0.0,0.0,0.0,inf,inf,inf,inf,1,1,1,1,0,0,0,0,0,0,1,1,0,0
833924000,0,0,0.0,0.0,6451297.0,-7249869.0,-229.26901,0.0,0.0,0.0,0.0,0.0,0.0,0.0,0.0,0.0,0.0,0.163,0.060000002,-0.027,-1.2312744,0.0,0.0,0.0,0.0,0.0,0.0,0.0,inf,inf,inf,inf,1,1,1,1,0,0,0,0,0,0,1,1,0,0
833944000,0,0,0.0,0.0,6451297.0,-7249869.0,-229.26901,0.0,0.0,0.0,0.0,0.0,0.0,0.0,0.0,0.0,0.0,-0.12900001,-0.043,0.012,-1.231273,0.0,0.0,0.0,0.0,0.0,0.0,0.0,inf,inf,inf,inf,1,1,1,1,0,0,0,0,0,0,1,1,0,0
833960000,0,0,0.0,0.0,6451297.0,-7249869.0,-229.26901,0.0,0.0,0.0,0.0,0.0,0.0,0.0,0.0,0.0,0.0,-0.11800001,-0.039,0.008,-1.231272,0.0,0.0,0.0,0.0,0.0,0.0,0.0,inf,inf,inf,inf,1,1,1,1,0,0,0,0,0,0,1,1,0,0
833984000,0,0,0.0,0.0,6451297.0,-7249869.0,-229.26901,0.0,0.0,0.0,0.0,0.0,0.0,0.0,0.0,0.0,0.0,-0.108,-0.036000002,0.13100001,-1.2312725,0.0,0.0,0.0,0.0,0.0,0.0,0.0,inf,inf,inf,inf,1,1,1,1,0,0,0,0,0,0,1,1,0,0
834004000,0,0,0.0,0.0,6451297.0,-7249869.0,-229.26901,0.0,0.0,0.0,0.0,0.0,0.0,0.0,0.0,0.0,0.0,0.115,0.039,0.0,-1.2312753,0.0,0.0,0.0,0.0,0.0,0.0,0.0,inf,inf,inf,inf,1,1,1,1,0,0,0,0,0,0,1,1,0,0
834024000,0,0,0.0,0.0,6451297.0,-7249869.0,-229.26901,0.0,0.0,0.0,0.0,0.0,0.0,0.0,0.0,0.0,0.0,-0.116000004,-0.039,0.0050000004,-1.2312716,0.0,0.0,0.0,0.0,0.0,0.0,0.0,inf,inf,inf,inf,1,1,1,1,0,0,0,0,0,0,1,1,0,0
834040000,0,0,0.0,0.0,6451297.0,-7249869.0,-229.26901,0.0,0.0,0.0,0.0,0.0,0.0,0.0,0.0,0.0,0.0,0.15900001,0.060000002,-0.030000001,-1.2312746,0.0,0.0,0.0,0.0,0.0,0.0,0.0,inf,inf,inf,inf,1,1,1,1,0,0,0,0,0,0,1,1,0,0
834064000,0,0,0.0,0.0,6451297.0,-7249869.0,-229.26901,0.0,0.0,0.0,0.0,0.0,0.0,0.0,0.0,0.0,0.0,0.112,0.036000002,0.003,-1.2312758,0.0,0.0,0.0,0.0,0.0,0.0,0.0,inf,inf,inf,inf,1,1,1,1,0,0,0,0,0,0,1,1,0,0
834080000,0,0,0.0,0.0,6451297.0,-7249869.0,-229.26901,0.0,0.0,0.0,0.0,0.0,0.0,0.0,0.0,0.0,0.0,-0.029000001,0.006,0.791,-1.2312748,0.0,0.0,0.0,0.0,0.0,0.0,0.0,inf,inf,inf,inf,1,1,1,1,0,0,0,0,0,0,1,1,0,0
834104000,0,0,0.0,0.0,6451297.0,-7249869.0,-229.26901,0.0,0.0,0.0,0.0,0.0,0.0,0.0,0.0,0.0,0.0,0.112,0.035,0.018000001,-1.2312765,0.0,0.0,0.0,0.0,0.0,0.0,0.0,inf,inf,inf,inf,1,1,1,1,0,0,0,0,0,0,1,1,0,0
834120000,0,0,0.0,0.0,6451297.0,-7249869.0,-229.26901,0.0,0.0,0.0,0.0,0.0,0.0,0.0,0.0,0.0,0.0,0.109000005,0.036000002,0.0,-1.2312753,0.0,0.0,0.0,0.0,0.0,0.0,0.0,inf,inf,inf,inf,1,1,1,1,0,0,0,0,0,0,1,1,0,0
834144000,0,0,0.0,0.0,6451297.0,-7249869.0,-229.26901,0.0,0.0,0.0,0.0,0.0,0.0,0.0,0.0,0.0,0.0,-0.029000001,0.006,0.78700006,-1.2312744,0.0,0.0,0.0,0.0,0.0,0.0,0.0,inf,inf,inf,inf,1,1,1,1,0,0,0,0,0,0,1,1,0,0
834164000,0,0,0.0,0.0,6451297.0,-7249869.0,-229.26901,0.0,0.0,0.0,0.0,0.0,0.0,0.0,0.0,0.0,0.0,0.119,0.036000002,0.024,-1.2312776,0.0,0.0,0.0,0.0,0.0,0.0,0.0,inf,inf,inf,inf,1,1,1,1,0,0,0,0,0,0,1,1,0,0
834180000,0,0,0.0,0.0,6451297.0,-7249869.0,-229.26901,0.0,0.0,0.0,0.0,0.0,0.0,0.0,0.0,0.0,0.0,0.11400001,0.038000003,0.002,-1.2312758,0.0,0.0,0.0,0.0,0.0,0.0,0.0,inf,inf,inf,inf,1,1,1,1,0,0,0,0,0,0,1,1,0,0
834200000,0,0,0.0,0.0,6451297.0,-7249869.0,-229.26901,0.0,0.0,0.0,0.0,0.0,0.0,0.0,0.0,0.0,0.0,-0.014,-0.018000001,-0.66800004,-1.2312737,0.0,0.0,0.0,0.0,0.0,0.0,0.0,inf,inf,inf,inf,1,1,1,1,0,0,0,0,0,0,1,1,0,0
834220000,0,0,0.0,0.0,6451297.0,-7249869.0,-229.26901,0.0,0.0,0.0,0.0,0.0,0.0,0.0,0.0,0.0,0.0,0.113000005,0.036000002,0.018000001,-1.2312768,0.0,0.0,0.0,0.0,0.0,0.0,0.0,inf,inf,inf,inf,1,1,1,1,0,0,0,0,0,0,1,1,0,0
834244000,0,0,0.0,0.0,6451297.0,-7249869.0,-229.26901,0.0,0.0,0.0,0.0,0.0,0.0,0.0,0.0,0.0,0.0,0.11800001,0.040000003,-0.001,-1.2312751,0.0,0.0,0.0,0.0,0.0,0.0,0.0,inf,inf,inf,inf,1,1,1,1,0,0,0,0,0,0,1,1,0,0
834260000,0,0,0.0,0.0,6451297.0,-7249869.0,-229.26901,0.0,0.0,0.0,0.0,0.0,0.0,0.0,0.0,0.0,0.0,-0.025,0.008,0.78400004,-1.2312744,0.0,0.0,0.0,0.0,0.0,0.0,0.0,inf,inf,inf,inf,1,1,1,1,0,0,0,0,0,0,1,1,0,0
834284000,0,0,0.0,0.0,6451297.0,-7249869.0,-229.26901,0.0,0.0,0.0,0.0,0.0,0.0,0.0,0.0,0.0,0.0,-0.135,-0.046000004,0.019000001,-1.2312741,0.0,0.0,0.0,0.0,0.0,0.0,0.0,inf,inf,inf,inf,1,1,1,1,0,0,0,0,0,0,1,1,0,0
834304000,0,0,0.0,0.0,6451297.0,-7249869.0,-229.26901,0.0,0.0,0.0,0.0,0.0,0.0,0.0,0.0,0.0,0.0,0.11400001,0.039,0.0,-1.2312753,0.0,0.0,0.0,0.0,0.0,0.0,0.0,inf,inf,inf,inf,1,1,1,1,0,0,0,0,0,0,1,1,0,0
834320000,0,0,0.0,0.0,6451297.0,-7249869.0,-229.26901,0.0,0.0,0.0,0.0,0.0,0.0,0.0,0.0,0.0,0.0,0.028,0.003,-0.30100003,-1.2312753,0.0,0.0,0.0,0.0,0.0,0.0,0.0,inf,inf,inf,inf,1,1,1,1,0,0,0,0,0,0,1,1,0,0
834344000,0,0,0.0,0.0,6451297.0,-7249869.0,-229.26901,0.0,0.0,0.0,0.0,0.0,0.0,0.0,0.0,0.0,0.0,0.109000005,0.037,0.0,-1.231276,0.0,0.0,0.0,0.0,0.0,0.0,0.0,inf,inf,inf,inf,1,1,1,1,0,0,0,0,0,0,1,1,0,0
834360000,0,0,0.0,0.0,6451297.0,-7249869.0,-229.26901,0.0,0.0,0.0,0.0,0.0,0.0,0.0,0.0,0.0,0.0,0.113000005,0.038000003,-0.001,-1.2312752,0.0,0.0,0.0,0.0,0.0,0.0,0.0,inf,inf,inf,inf,1,1,1,1,0,0,0,0,0,0,1,1,0,0
834384000,0,0,0.0,0.0,6451297.0,-7249869.0,-229.26901,0.0,0.0,0.0,0.0,0.0,0.0,0.0,0.0,0.0,0.0,0.028,0.003,-0.30100003,-1.231275,0.0,0.0,0.0,0.0,0.0,0.0,0.0,inf,inf,inf,inf,1,1,1,1,0,0,0,0,0,0,1,1,0,0
834400000,0,0,0.0,0.0,6451297.0,-7249869.0,-229.26901,0.0,0.0,0.0,0.0,0.0,0.0,0.0,0.0,0.0,0.0,-0.133,-0.044000003,0.019000001,-1.2312741,0.0,0.0,0.0,0.0,0.0,0.0,0.0,inf,inf,inf,inf,1,1,1,1,0,0,0,0,0,0,1,1,0,0
834424000,0,0,0.0,0.0,6451297.0,-7249869.0,-229.26901,0.0,0.0,0.0,0.0,0.0,0.0,0.0,0.0,0.0,0.0,-0.117000006,-0.039,0.008,-1.2312722,0.0,0.0,0.0,0.0,0.0,0.0,0.0,inf,inf,inf,inf,1,1,1,1,0,0,0,0,0,0,1,1,0,0
834440000,0,0,0.0,0.0,6451297.0,-7249869.0,-229.26901,0.0,0.0,0.0,0.0,0.0,0.0,0.0,0.0,0.0,0.0,0.019000001,0.002,-0.054,-1.2312751,0.0,0.0,0.0,0.0,0.0,0.0,0.0,inf,inf,inf,inf,1,1,1,1,0,0,0,0,0,0,1,1,0,0
834464000,0,0,0.0,0.0,6451297.0,-7249869.0,-229.26901,0.0,0.0,0.0,0.0,0.0,0.0,0.0,0.0,0.0,0.0,-0.123,-0.040000003,0.008,-1.2312728,0.0,0.0,0.0,0.0,0.0,0.0,0.0,inf,inf,inf,inf,1,1,1,1,0,0,0,0,0,0,1,1,0,0
834484000,0,0,0.0,0.0,6451297.0,-7249869.0,-229.26901,0.0,0.0,0.0,0.0,0.0,0.0,0.0,0.0,0.0,0.0,0.112,0.037,-0.001,-1.2312747,0.0,0.0,0.0,0.0,0.0,0.0,0.0,inf,inf,inf,inf,1,1,1,1,0,0,0,0,0,0,1,1,0,0
834504000,0,0,0.0,0.0,6451297.0,-7249869.0,-229.26901,0.0,0.0,0.0,0.0,0.0,0.0,0.0,0.0,0.0,0.0,0.16100001,0.059000004,-0.029000001,-1.2312746,0.0,0.0,0.0,0.0,0.0,0.0,0.0,inf,inf,inf,inf,1,1,1,1,0,0,0,0,0,0,1,1,0,0
834520000,0,0,0.0,0.0,6451297.0,-7249869.0,-229.26901,0.0,0.0,0.0,0.0,0.0,0.0,0.0,0.0,0.0,0.0,0.11100001,0.036000002,0.006,-1.2312768,0.0,0.0,0.0,0.0,0.0,0.0,0.0,inf,inf,inf,inf,1,1,1,1,0,0,0,0,0,0,1,1,0,0
834544000,0,0,0.0,0.0,6451297.0,-7249869.0,-229.26901,0.0,0.0,0.0,0.0,0.0,0.0,0.0,0.0,0.0,0.0,-0.025,0.008,0.78900003,-1.2312751,0.0,0.0,0.0,0.0,0.0,0.0,0.0,inf,inf,inf,inf,1,1,1,1,0,0,0,0,0,0,1,1,0,0
834564000,0,0,0.0,0.0,6451297.0,-7249869.0,-229.26901,0.0,0.0,0.0,0.0,0.0,0.0,0.0,0.0,0.0,0.0,-0.10700001,-0.036000002,0.133,-1.2312728,0.0,0.0,0.0,0.0,0.0,0.0,0.0,inf,inf,inf,inf,1,1,1,1,0,0,0,0,0,0,1,1,0,0
834584000,0,0,0.0,0.0,6451297.0,-7249869.0,-229.26901,0.0,0.0,0.0,0.0,0.0,0.0,0.0,0.0,0.0,0.0,0.116000004,0.039,0.0,-1.2312757,0.0,0.0,0.0,0.0,0.0,0.0,0.0,inf,inf,inf,inf,1,1,1,1,0,0,0,0,0,0,1,1,0,0
834604000,0,0,0.0,0.0,6451297.0,-7249869.0,-229.26901,0.0,0.0,0.0,0.0,0.0,0.0,0.0,0.0,0.0,0.0,-0.119,-0.040000003,0.0050000004,-1.2312719,0.0,0.0,0.0,0.0,0.0,0.0,0.0,inf,inf,inf,inf,1,1,1,1,0,0,0,0,0,0,1,1,0,0
834620000,0,0,0.0,0.0,6451297.0,-7249869.0,-229.26901,0.0,0.0,0.0,0.0,0.0,0.0,0.0,0.0,0.0,0.0,0.16100001,0.060000002,-0.028,-1.2312748,0.0,0.0,0.0,0.0,0.0,0.0,0.0,inf,inf,inf,inf,1,1,1,1,0,0,0,0,0,0,1,1,0,0
834644000,0,0,0.0,0.0,6451297.0,-7249869.0,-229.26901,0.0,0.0,0.0,0.0,0.0,0.0,0.0,0.0,0.0,0.0,0.11400001,0.038000003,0.002,-1.231276,0.0,0.0,0.0,0.0,0.0,0.0,0.0,inf,inf,inf,inf,1,1,1,1,0,0,0,0,0,0,1,1,0,0
834664000,0,0,0.0,0.0,6451297.0,-7249869.0,-229.26901,0.0,0.0,0.0,0.0,0.0,0.0,0.0,0.0,0.0,0.0,-0.013,-0.018000001,-0.66800004,-1.2312739,0.0,0.0,0.0,0.0,0.0,0.0,0.0,inf,inf,inf,inf,1,1,1,1,0,0,0,0,0,0,1,1,0,0
834684000,0,0,0.0,0.0,6451297.0,-7249869.0,-229.26901,0.0,0.0,0.0,0.0,0.0,0.0,0.0,0.0,0.0,0.0,0.11400001,0.036000002,0.017,-1.2312769,0.0,0.0,0.0,0.0,0.0,0.0,0.0,inf,inf,inf,inf,1,1,1,1,0,0,0,0,0,0,1,1,0,0
834704000,0,0,0.0,0.0,6451297.0,-7249869.0,-229.26901,0.0,0.0,0.0,0.0,0.0,0.0,0.0,0.0,0.0,0.0,-0.11800001,-0.039,0.007,-1.2312726,0.0,0.0,0.0,0.0,0.0,0.0,0.0,inf,inf,inf,inf,1,1,1,1,0,0,0,0,0,0,1,1,0,0
834724000,0,0,0.0,0.0,6451297.0,-7249869.0,-229.26901,0.0,0.0,0.0,0.0,0.0,0.0,0.0,0.0,0.0,0.0,-0.029000001,0.006,0.786,-1.2312746,0.0,0.0,0.0,0.0,0.0,0.0,0.0,inf,inf,inf,inf,1,1,1,1,0,0,0,0,0,0,1,1,0,0
834744000,0,0,0.0,0.0,6451297.0,-7249869.0,-229.26901,0.0,0.0,0.0,0.0,0.0,0.0,0.0,0.0,0.0,0.0,0.116000004,0.035,0.024,-1.2312778,0.0,0.0,0.0,0.0,0.0,0.0,0.0,inf,inf,inf,inf,1,1,1,1,0,0,0,0,0,0,1,1,0,0
834764000,0,0,0.0,0.0,6451297.0,-7249869.0,-229.26901,0.0,0.0,0.0,0.0,0.0,0.0,0.0,0.0,0.0,0.0,-0.120000005,-0.039,0.010000001,-1.2312729,0.0,0.0,0.0,0.0,0.0,0.0,0.0,inf,inf,inf,inf,1,1,1,1,0,0,0,0,0,0,1,1,0,0
834784000,0,0,0.0,0.0,6451297.0,-7249869.0,-229.26901,0.0,0.0,0.0,0.0,0.0,0.0,0.0,0.0,0.0,0.0,0.028,0.003,-0.3,-1.2312756,0.0,0.0,0.0,0.0,0.0,0.0,0.0,inf,inf,inf,inf,1,1,1,1,0,0,0,0,0,0,1,1,0,0
834804000,0,0,0.0,0.0,6451297.0,-7249869.0,-229.26901,0.0,0.0,0.0,0.0,0.0,0.0,0.0,0.0,0.0,0.0,-0.132,-0.043,0.013,-1.2312735,0.0,0.0,0.0,0.0,0.0,0.0,0.0,inf,inf,inf,inf,1,1,1,1,0,0,0,0,0,0,1,1,0,0
834820000,0,0,0.0,0.0,6451297.0,-7249869.0,-229.26901,0.0,0.0,0.0,0.0,0.0,0.0,0.0,0.0,0.0,0.0,-0.11800001,-0.039,0.007,-1.2312725,0.0,0.0,0.0,0.0,0.0,0.0,0.0,inf,inf,inf,inf,1,1,1,1,0,0,0,0,0,0,1,1,0,0
834840000,0,0,0.0,0.0,6451297.0,-7249869.0,-229.26901,0.0,0.0,0.0,0.0,0.0,0.0,0.0,0.0,0.0,0.0,-0.027,0.007,0.785,-1.2312745,0.0,0.0,0.0,0.0,0.0,0.0,0.0,inf,inf,inf,inf,1,1,1,1,0,0,0,0,0,0,1,1,0,0
834860000,0,0,0.0,0.0,6451297.0,-7249869.0,-229.26901,0.0,0.0,0.0,0.0,0.0,0.0,0.0,0.0,0.0,0.0,0.12100001,0.037,0.023000002,-1.2312778,0.0,0.0,0.0,0.0,0.0,0.0,0.0,inf,inf,inf,inf,1,1,1,1,0,0,0,0,0,0,1,1,0,0
834880000,0,0,0.0,0.0,6451297.0,-7249869.0,-229.26901,0.0,0.0,0.0,0.0,0.0,0.0,0.0,0.0,0.0,0.0,-0.12100001,-0.040000003,0.010000001,-1.2312729,0.0,0.0,0.0,0.0,0.0,0.0,0.0,inf,inf,inf,inf,1,1,1,1,0,0,0,0,0,0,1,1,0,0
834904000,0,0,0.0,0.0,6451297.0,-7249869.0,-229.26901,0.0,0.0,0.0,0.0,0.0,0.0,0.0,0.0,0.0,0.0,-0.109000005,-0.037,0.133,-1.2312732,0.0,0.0,0.0,0.0,0.0,0.0,0.0,inf,inf,inf,inf,1,1,1,1,0,0,0,0,0,0,1,1,0,0
834924000,0,0,0.0,0.0,6451297.0,-7249869.0,-229.26901,0.0,0.0,0.0,0.0,0.0,0.0,0.0,0.0,0.0,0.0,0.116000004,0.039,0.0,-1.231276,0.0,0.0,0.0,0.0,0.0,0.0,0.0,inf,inf,inf,inf,1,1,1,1,0,0,0,0,0,0,1,1,0,0
834944000,0,0,0.0,0.0,6451297.0,-7249869.0,-229.26901,0.0,0.0,0.0,0.0,0.0,0.0,0.0,0.0,0.0,0.0,-0.11800001,-0.039,0.0050000004,-1.2312722,0.0,0.0,0.0,0.0,0.0,0.0,0.0,inf,inf,inf,inf,1,1,1,1,0,0,0,0,0,0,1,1,0,0
834964000,0,0,0.0,0.0,6451297.0,-7249869.0,-229.26901,0.0,0.0,0.0,0.0,0.0,0.0,0.0,0.0,0.0,0.0,-0.101,-0.037,0.117000006,-1.2312742,0.0,0.0,0.0,0.0,0.0,0.0,0.0,inf,inf,inf,inf,1,1,1,1,0,0,0,0,0,0,1,1,0,0
834984000,0,0,0.0,0.0,6451297.0,-7249869.0,-229.26901,0.0,0.0,0.0,0.0,0.0,0.0,0.0,0.0,0.0,0.0,0.11400001,0.038000003,0.002,-1.2312763,0.0,0.0,0.0,0.0,0.0,0.0,0.0,inf,inf,inf,inf,1,1,1,1,0,0,0,0,0,0,1,1,0,0
835004000,0,0,0.0,0.0,6451297.0,-7249869.0,-229.26901,0.0,0.0,0.0,0.0,0.0,0.0,0.0,0.0,0.0,0.0,-0.014,-0.018000001,-0.66800004,-1.2312742,0.0,0.0,0.0,0.0,0.0,0.0,0.0,inf,inf,inf,inf,1,1,1,1,0,0,0,0,0,0,1,1,0,0
835020000,0,0,0.0,0.0,6451297.0,-7249869.0,-229.26901,0.0,0.0,0.0,0.0,0.0,0.0,0.0,0.0,0.0,0.0,-0.105000004,-0.036000002,0.13000001,-1.2312732,0.0,0.0,0.0,0.0,0.0,0.0,0.0,inf,inf,inf,inf,1,1,1,1,0,0,0,0,0,0,1,1,0,0
835044000,0,0,0.0,0.0,6451297.0,-7249869.0,-229.26901,0.0,0.0,0.0,0.0,0.0,0.0,0.0,0.0,0.0,0.0,-0.119,-0.038000003,0.007,-1.2312729,0.0,0.0,0.0,0.0,0.0,0.0,0.0,inf,inf,inf,inf,1,1,1,1,0,0,0,0,0,0,1,1,0,0
