timestamp,timestamp_sample,yaw_composite,yaw_variance,yaw[0],yaw[1],yaw[2],yaw[3],yaw[4],innov_vn[0],innov_vn[1],innov_vn[2],innov_vn[3],innov_vn[4],innov_ve[0],innov_ve[1],innov_ve[2],innov_ve[3],innov_ve[4],weight[0],weight[1],weight[2],weight[3],weight[4]
836212000,836132000,3.0079389,3.7977512,-2.5132742,-1.2566371,0.0,1.2566371,2.5132742,0.0,0.0,0.0,0.0,0.0,0.0,0.0,0.0,0.0,0.0,0.2,0.2,0.2,0.2,0.2
836220000,836140000,-2.3874087,3.5688996,-2.5132706,-1.2566335,3.6458894e-06,1.2566407,2.513278,0.0,0.0,0.0,0.0,0.0,0.0,0.0,0.0,0.0,0.0,0.2,0.2,0.2,0.2,0.2
837204000,837124000,-0.062312976,3.5568357,-2.5097234,-1.2530577,0.003488073,1.2600406,2.516717,-0.011459255,-0.005934451,-0.010574673,-0.018967044,-0.01951442,-0.013675176,-0.007000656,0.00031588148,-0.001835722,-0.0104827285,0.19996569,0.20001672,0.200045,0.20001073,0.19996175
838212000,838132000,0.25090677,3.61218,-2.5101938,-1.2533417,0.003035977,1.259298,2.515963,0.052676212,0.04643558,0.024143882,0.016600557,0.03423424,-0.013092574,0.008321905,0.009006376,-0.01198256,-0.025645183,0.19984302,0.20001088,0.20016412,0.2000903,0.19989172
839204000,839124000,0.6429044,3.9242864,-2.5122437,-1.2547884,0.001545083,1.2571774,2.513497,0.026565807,0.048246577,0.010620041,-0.03428828,-0.024469996,-0.051435884,-0.004813404,0.030185452,0.0052469424,-0.04519259,0.1995729,0.19986126,0.20034184,0.2003498,0.19987415
840204000,840124000,0.053077314,3.5376923,-2.5114028,-1.2537727,0.00071600976,1.2550328,2.512384,0.00672405,0.040075153,-0.0003162846,-0.058614306,-0.054404303,-0.06349061,-0.010085054,0.03805825,0.014640486,-0.048155956,0.19900416,0.20030667,0.2011875,0.20042504,0.19907665
841204000,841124000,0.003653338,3.5224223,-2.5012846,-1.2431929,0.009573461,1.2623613,2.5204911,0.045815874,0.042318273,-0.0069611873,-0.034093916,-0.0015826467,-0.08063642,-0.029795632,-0.017409429,-0.060359336,-0.09958421,0.19834115,0.20064767,0.20206471,0.20062162,0.19832486
842204000,842124000,-1.1773639,1.2592956,-2.2009714,-1.2344769,-0.30203864,1.0300783,2.68347,0.7661547,0.056402937,-0.8386382,-0.84885305,0.31760043,-0.6634281,-0.0021665096,-0.3351876,-1.4319086,-1.6902997,0.20967375,0.43362266,0.24731879,0.058784444,0.050600395
843204000,843124000,-1.2064006,0.13378261,-1.6426793,-1.2233713,-0.8412683,0.52264506,3.1140034,0.81815016,-0.028849877,-0.7800815,-1.5347908,1.1739774,-0.41429162,-0.29248583,-0.29055607,-2.0425575,-2.405384,0.07326545,0.8017739,0.12479372,8.346471e-05,8.346471e-05
844204000,844124000,-1.2284939,0.07824348,-1.4536031,-1.237191,-1.0288092,0.34263968,-2.9892862,0.41867417,-0.019370873,-0.36878344,-0.91969585,1.0740794,-0.44123626,-0.59869576,-0.45290995,-1.6721157,-1.5992155,0.055175636,0.8455069,0.099151544,8.2925326e-05,8.2925326e-05
845212000,845132000,-1.2690687,0.071001105,-1.4040543,-1.277521,-1.140079,0.3111967,-2.9988992,0.19706894,-0.016643018,-0.18242358,-0.2825675,0.41428316,-0.6305648,-0.7769357,-0.61181855,-1.1666602,-1.0113529,0.06827814,0.807086,0.12445712,8.938423e-05,8.938423e-05
846204000,846124000,-1.3014612,0.068702236,-1.3918868,-1.3113395,-1.2139764,0.32139027,-3.061997,0.1690837,0.04922145,-0.038594812,0.15863392,0.014877461,-0.72839713,-0.8352709,-0.6930684,-0.7675828,-0.6572994,0.0832569,0.7460267,0.1705131,9.544048e-05,0.00010782762
847204000,847124000,-1.3201772,0.06633992,-1.3923471,-1.3307648,-1.2529439,0.32979995,-3.1139488,0.11975706,0.04404901,-0.0032751262,0.39630008,-0.35549247,-0.8092507,-0.8904059,-0.76922774,-0.4424579,-0.41498637,0.09182939,0.69867665,0.2091731,0.00014139817,0.00017950509
848204000,848124000,-1.3315779,0.06273725,-1.3892097,-1.3422565,-1.2822134,0.3395756,3.1170516,0.06128656,0.012315709,-0.014664995,0.42317724,-0.52044374,-0.7936406,-0.85016656,-0.76121724,-0.25887012,-0.28476572,0.100069724,0.6427382,0.25654134,0.0003043836,0.00034631664
849212000,849132000,-1.3445528,0.0597519,-1.3936695,-1.3547802,-1.3070301,0.33941096,3.0717254,0.028247038,0.0004272228,-0.012234664,0.4412745,-0.5407644,-0.71829677,-0.75545347,-0.6978351,-0.14500761,-0.14748597,0.10573835,0.5943114,0.2986703,0.00066128245,0.0006186186
850212000,850132000,-1.3582306,0.058485944,-1.404602,-1.3683484,-1.3244108,0.3306573,3.0477169,0.014732834,-0.002465967,-0.007331766,0.4998551,-0.5239864,-0.65046024,-0.6798123,-0.6371844,-0.07224655,-0.0055377483,0.108145244,0.57419664,0.31593025,0.0009182513,0.0008096455
851204000,851124000,-1.3478945,0.05089136,-1.3917158,-1.3579012,-1.3171813,0.31686655,3.0813553,-0.062322102,-0.05129402,-0.026702344,1.0810478,-0.97631365,-0.65669155,-0.68040836,-0.65358925,0.44307387,0.7654511,0.11058539,0.5553929,0.33286706,0.000659003,0.00049573305
852204000,852124000,-1.3494631,0.031218365,-1.3841426,-1.3576043,-1.3255199,0.057489343,-2.929589,-0.1343883,-0.076375484,0.0038916618,2.7658918,-2.3275504,-0.41457924,-0.43976584,-0.42554757,1.8237853,2.773822,0.111249745,0.5428308,0.3457526,8.340855e-05,8.340855e-05
853212000,853132000,-1.314679,0.017130064,-1.3364418,-1.3197416,-1.299929,-0.2968265,-2.5092292,0.02389879,0.037953176,0.059839852,1.5717736,-1.8063399,0.5285222,0.52100617,0.53866357,1.3529937,1.4115623,0.10994208,0.54142475,0.3484734,7.986026e-05,7.986026e-05
854212000,854132000,-1.3189856,0.016521318,-1.3392956,-1.3237114,-1.3047382,-0.33079976,-2.4915829,-0.005343735,-0.008350074,-0.008439079,0.40757024,-0.7456386,0.70655835,0.7038749,0.7188428,1.0327189,0.695541,0.110543385,0.5490585,0.34022525,8.6466636e-05,8.6466636e-05
855212000,855132000,-1.3298458,0.01659425,-1.3496275,-1.3343909,-1.3155982,-0.34307542,-2.503694,-0.0023025125,-0.015772656,-0.02974622,-0.26929784,0.13873893,0.84559816,0.84243613,0.8523133,0.7013882,0.45758492,0.11098206,0.55445224,0.33431727,0.00010323253,0.00014508454
856212000,856132000,-1.4928634,0.015004925,-1.511062,-1.4970734,-1.4796147,-0.5481061,-2.6164074,0.13910142,0.09541784,0.041711986,-2.0352209,2.2893949,1.4224193,1.4212947,1.4287689,0.33882248,-0.29804087,0.11047386,0.55863535,0.33052525,0.00018282767,0.00018282767
857212000,857132000,-1.4145889,0.0058745453,-1.4229376,-1.4164497,-1.4088417,-0.8803889,-2.063413,0.18134378,0.13164006,0.07137911,-3.276584,4.0908403,0.7569256,0.75579405,0.7607751,-0.055936813,-0.69840956,0.1068213,0.55611515,0.33686453,9.95019e-05,9.95019e-05
858204000,858124000,-1.3458117,0.004814279,-1.352801,-1.3473731,-1.3410175,-0.8672889,-1.9406669,-0.020403951,-0.03201565,-0.0453718,-0.81357634,1.1731542,0.43018055,0.42589092,0.42557764,0.26754093,0.5887337,0.106049895,0.5564108,0.33738896,7.5212956e-05,7.5212956e-05
859212000,859132000,-1.3437465,0.0048739715,-1.3509371,-1.3453459,-1.3388553,-0.86018354,-1.9503498,0.00010102987,0.0015448928,0.004082918,0.2661029,-0.091254026,0.6359266,0.6322149,0.63121235,0.6507231,1.0903829,0.10508987,0.5565064,0.33823875,8.253194e-05,8.253194e-05
860212000,860132000,-1.3332206,0.0049014846,-1.3403795,-1.3348022,-1.3283417,-0.860429,-1.9232856,0.019764125,0.025789365,0.03374304,0.58331746,-0.5693735,1.479702,1.4785479,1.4797655,1.7292755,1.8005924,0.104616955,0.5570535,0.3379544,0.00018758619,0.00018758619
861204000,861124000,-1.3475072,0.0050662016,-1.3549412,-1.3491558,-1.3423245,-0.86827487,-1.9397655,0.043177336,0.040415585,0.03735946,-0.15361327,0.2631207,1.9361248,1.9365312,1.9387348,2.0717986,1.8465191,0.10485329,0.5590196,0.33536434,0.00038136664,0.00038136664
862212000,862132000,-1.3589134,0.005342209,-1.3664895,-1.3603461,-1.3528739,-0.8572206,-1.972001,0.024398074,0.015851364,0.005185187,-0.6300565,0.7629872,2.0196538,2.0200636,2.021636,1.9780478,1.7591807,0.10579542,0.5615316,0.33117115,0.00044501066,0.00105687
863212000,863132000,-1.3619754,0.005506462,-1.3695406,-1.3632274,-1.355505,-0.84983194,-1.9861449,0.007277552,-0.0022541285,-0.014313597,-0.7105238,0.8431385,1.9443697,1.9442383,1.9448701,1.8137212,1.6993257,0.10590009,0.5621519,0.32995602,0.00049706217,0.001494904
864212000,864132000,-1.3628421,0.005612327,-1.3704276,-1.3639598,-1.3560394,-0.84166247,-1.9974164,0.0020048078,-0.007344397,-0.019234411,-0.6969784,0.8208392,1.7791252,1.7788613,1.7790644,1.6184293,1.5441899,0.105756104,0.5624217,0.32943952,0.0005522702,0.0018304491
865212000,865132000,-1.3627115,0.005705051,-1.3703196,-1.3637525,-1.3557125,-0.8357795,-2.0041757,0.016018892,0.0067847036,-0.0049893833,-0.67460907,0.82115006,1.6428635,1.6426542,1.6427443,1.4738778,1.401663,0.10557262,0.5624343,0.32929102,0.00063630025,0.0020657291
866204000,866124000,-1.3624198,0.005799616,-1.3699946,-1.3633674,-1.3552529,-0.83182746,-2.0080903,0.0020017512,-0.0061960015,-0.016663088,-0.6110739,0.7148846,1.400825,1.4006631,1.4006908,1.2459068,1.1822135,0.10546851,0.56241167,0.32914057,0.0006911102,0.0022879918
867212000,867132000,-1.3612176,0.005839942,-1.3688465,-1.3621844,-1.3540323,-0.8286812,-2.009426,0.031705968,0.024778865,0.01592883,-0.48559788,0.6342868,1.118774,1.1186142,1.1185681,0.98276114,0.9348727,0.10534245,0.5623448,0.3292435,0.000750917,0.002318305
868212000,868132000,-1.3603101,0.00589714,-1.3679684,-1.3612883,-1.3531172,-0.8267638,-2.0098538,0.013291646,0.0069806227,-0.0010853091,-0.45945352,0.5601667,1.0331495,1.0330714,1.0330828,0.91221875,0.85892457,0.105268896,0.5622895,0.3293142,0.00078950136,0.002337917
869212000,869132000,-1.3590485,0.005943076,-1.3667464,-1.3600525,-1.351867,-0.824743,-2.0096538,0.033634443,0.028470756,0.021867504,-0.35420635,0.47943532,0.8310713,0.8310574,0.8311102,0.7345923,0.6836239,0.10519767,0.5622353,0.32941264,0.0008244565,0.0023299933
870204000,870124000,-1.3581688,0.006003873,-1.3658903,-1.3591874,-1.3509924,-0.8233645,-2.009472,0.031696454,0.02743728,0.021987207,-0.2907376,0.39570984,0.7036361,0.70374286,0.7039179,0.632202,0.57121557,0.105147585,0.56218445,0.32948476,0.0008510361,0.0023321179
871204000,871124000,-1.3579515,0.00609285,-1.3656453,-1.3589362,-1.3507326,-0.8227064,-2.009686,0.01751515,0.01401096,0.009522367,-0.24954948,0.31444973,0.5661065,0.5662751,0.56651014,0.51290345,0.44971213,0.10514019,0.5621582,0.32944974,0.00085675484,0.0023950583
872204000,872124000,-1.3573163,0.006148274,-1.3650434,-1.3583313,-1.3501263,-0.82198,-2.0092897,0.07134504,0.06853447,0.06493072,-0.14486423,0.3064872,0.4230983,0.42332792,0.42362785,0.38735268,0.32120395,0.10510457,0.56212646,0.3295374,0.0008721478,0.0023593705
873204000,873124000,-1.3566169,0.006218334,-1.3643501,-1.3576372,-1.3494312,-0.8212442,-2.0086412,0.055423636,0.053097334,0.050109513,-0.1286245,0.24244551,0.3400754,0.3405058,0.34104672,0.32881704,0.23422058,0.10509662,0.5621199,0.3295583,0.0008730708,0.0023520805
874204000,874124000,-1.3552545,0.0062877615,-1.3629949,-1.3562818,-1.3480759,-0.81988317,-2.0072794,0.06372521,0.06222067,0.0602836,-0.058158755,0.17987111,0.18209672,0.18251815,0.18304676,0.18603045,0.10081398,0.1050906,0.5621173,0.32957953,0.00087222556,0.002340246
875212000,875132000,-1.3573877,0.0063791643,-1.3655491,-1.3586099,-1.3497455,-0.81938285,-2.012896,0.10121274,0.10031973,0.099159494,0.014974985,0.14978062,0.094747,0.095646866,0.09675715,0.14697006,-0.011592995,0.105084926,0.5621126,0.3295971,0.00087315106,0.002332161
876204000,876124000,-1.3664074,0.0061034826,-1.3748273,-1.3679348,-1.3591301,-0.83185166,-2.018149,0.06579739,0.06532866,0.06465143,-0.11084682,-0.09358835,-0.044522315,-0.038009748,-0.030058436,0.44448906,-0.6402536,0.10510574,0.5624639,0.32997197,0.00074730744,0.0017111457
877204000,877124000,-1.3612674,0.0052749943,-1.370052,-1.3634045,-1.3549399,-0.84533286,-1.9924102,-0.32664704,-0.32625484,-0.3258524,-0.48296094,-0.62384236,-0.14401062,-0.13523649,-0.124566905,0.5377517,-0.9230764,0.104745366,0.5628411,0.33177966,0.00036705795,0.00026676926
878204000,878124000,-1.3710153,0.0051706596,-1.37967,-1.3731657,-1.3649101,-0.8658823,-1.9896561,-0.6434783,-0.64293885,-0.6423155,-0.71857953,-0.85584795,-0.18579139,-0.18018201,-0.17338674,0.2573292,-0.679549,0.1042799,0.562407,0.3329637,0.00026482154,8.450778e-05
879212000,879132000,-1.3891726,0.005242718,-1.3977635,-1.3913052,-1.3831469,-0.88799024,-2.0038667,-1.0594597,-1.058579,-1.057434,-0.9127259,-1.0262941,-0.19667265,-0.20052727,-0.20512928,-0.47584635,0.17665434,0.10371681,0.56166315,0.33420637,0.00029665325,0.00011712875
880212000,880132000,-1.4005944,0.0051426166,-1.4090761,-1.4026837,-1.3945901,-0.90308917,-2.009684,-0.83619314,-0.8349445,-0.8332847,-0.56433415,-0.698813,-0.16548467,-0.17409623,-0.18441054,-0.8048236,0.6506544,0.10389027,0.5618626,0.33392078,0.00022576094,0.00010054387
881204000,881124000,-1.3811362,0.0048967134,-1.3892498,-1.3830966,-1.3752575,-0.89950126,-1.9688711,-0.5045652,-0.50295454,-0.5007903,-0.12989649,-0.2965927,-0.18053135,-0.19301143,-0.20802239,-1.1179492,1.0020982,0.1043955,0.5625355,0.3329101,7.950835e-05,7.950835e-05
882212000,882132000,-1.3841536,0.0047640675,-1.3919934,-1.386052,-1.3784248,-0.9163186,-1.9527414,-0.13170436,-0.12979224,-0.12727043,0.16195591,-0.1018742,-0.20702724,-0.2144387,-0.22340173,-0.753122,0.5246657,0.10503149,0.5633204,0.33150586,7.111624e-05,7.111624e-05
883212000,883132000,-1.3903928,0.0047806054,-1.3981323,-1.3922683,-1.3847058,-0.9272389,-1.9519621,0.10585859,0.107744426,0.11020564,0.3118086,0.016837656,-0.18800336,-0.19102284,-0.19467825,-0.39221913,0.13884194,0.10546094,0.56385565,0.33054256,7.0442715e-05,7.0442715e-05
884204000,884124000,-1.3942717,0.004853213,-1.4019911,-1.3961394,-1.3885758,-0.93152666,-1.9547005,0.1560149,0.15742667,0.1592577,0.27749664,0.043392442,-0.17586935,-0.17642356,-0.17708081,-0.1944446,-0.08898251,0.10570164,0.5641572,0.3299927,7.0544025e-05,7.8031415e-05
885212000,885132000,-1.3951817,0.004931619,-1.4028957,-1.3970456,-1.3894774,-0.9323571,-1.9554368,0.118484184,0.11966908,0.12120195,0.21102732,0.01076353,-0.1886551,-0.18862897,-0.18857881,-0.16534829,-0.16126844,0.10580788,0.564291,0.32974756,7.023789e-05,8.336171e-05
886204000,886124000,-1.3945619,0.005009491,-1.4022734,-1.3964239,-1.3888528,-0.93167776,-1.954749,0.1389354,0.14021492,0.1418705,0.23967403,0.023813002,-0.20599133,-0.20600677,-0.20600568,-0.1841346,-0.17245877,0.105870895,0.5643698,0.3296014,7.1129914e-05,8.685504e-05
887204000,887124000,-1.3922361,0.0050836136,-1.3995585,-1.3939065,-1.3869683,-0.9339479,-1.9499042,0.0922334,0.09351149,0.095166124,0.19315644,-0.022281408,-0.22668554,-0.22671737,-0.22673629,-0.2060621,-0.19171722,0.10594304,0.5644598,0.32943526,7.088708e-05,9.105622e-05
888212000,888132000,-1.3919095,0.00516043,-1.3992288,-1.3935771,-1.3866347,-0.93352497,-1.9495158,0.082375094,0.08373026,0.085485876,0.19028792,-0.037651256,-0.23651315,-0.23659576,-0.23667654,-0.21846789,-0.19492027,0.10602029,0.5645551,0.329258,7.086283e-05,9.5807525e-05
889204000,889124000,-1.3915101,0.0052365363,-1.398828,-1.3931766,-1.3862321,-0.9330704,-1.9491007,0.066775225,0.06819474,0.070033535,0.17811032,-0.06123522,-0.2665911,-0.26659024,-0.26656833,-0.24078569,-0.23109181,0.106056176,0.5645987,0.32917574,7.128384e-05,9.81419e-05
890212000,890132000,-1.391463,0.005311631,-1.3987802,-1.3931285,-1.3861827,-0.932981,-1.9490572,0.019040998,0.020533245,0.022467459,0.13755104,-0.11339313,-0.25370598,-0.2537827,-0.25385562,-0.23271611,-0.20918837,0.10607963,0.56462616,0.32912353,7.099127e-05,9.972089e-05
891204000,891124000,-1.390886,0.005386354,-1.3982031,-1.3925513,-1.3856041,-0.9323707,-1.9484878,-0.007039562,-0.0054247417,-0.003330293,0.12324251,-0.1474595,-0.2828226,-0.28301227,-0.28322247,-0.268544,-0.22476754,0.10609222,0.56463933,0.3290965,7.142167e-05,0.00010062618
892204000,892124000,-1.3908951,0.005456076,-1.3982123,-1.3925605,-1.385613,-0.9323768,-1.9484932,-0.06240012,-0.060708843,-0.058513,0.07839902,-0.20342892,-0.2852344,-0.28565875,-0.28615597,-0.28808725,-0.20356515,0.10609559,0.56463635,0.32909548,7.170917e-05,0.00010089628
893212000,893132000,-1.3907441,0.005528169,-1.3980621,-1.39241,-1.3854618,-0.93220824,-1.9483718,-0.09351928,-0.0919104,-0.08982022,0.043118477,-0.22393039,-0.2687187,-0.2692623,-0.2699071,-0.28248638,-0.17807738,0.106091395,0.56462336,0.3291124,7.203542e-05,0.00010087869
894212000,894132000,-1.3900397,0.0056001195,-1.3973577,-1.3917059,-1.3847576,-0.9315191,-1.9476385,-0.12145389,-0.119733386,-0.11749675,0.027908294,-0.2564282,-0.26889625,-0.26964563,-0.27054146,-0.2968814,-0.15643162,0.10609011,0.5646141,0.3291226,7.2278905e-05,0.00010082007
895204000,895124000,-1.3898689,0.005668796,-1.3971875,-1.3915358,-1.3845881,-0.93138254,-1.9474534,-0.17873955,-0.17715757,-0.17509966,-0.03736698,-0.29733258,-0.27240357,-0.27330095,-0.27437952,-0.31453946,-0.14977217,0.10607537,0.56458503,0.32916704,7.259283e-05,9.997528e-05
896212000,896132000,-1.378397,0.0057392293,-1.3857197,-1.380066,-1.3731147,-0.91978705,-1.9360749,-0.22933194,-0.22781895,-0.22584905,-0.08961889,-0.33657968,-0.24936531,-0.2504563,-0.25177267,-0.30799332,-0.110594735,0.10605852,0.564552,0.32921696,7.317089e-05,9.9380566e-05
897156000,897076000,-1.3768587,0.005803604,-1.3841809,-1.3785274,-1.3715756,-0.9182509,-1.9344846,-0.18158399,-0.1802133,-0.1784282,-0.052854214,-0.27587065,-0.23664328,-0.23774202,-0.23906898,-0.29840133,-0.1007623,0.106061935,0.56454396,0.3292215,7.276121e-05,9.98165e-05
