timestamp,timestamp_sample,states[0],states[1],states[2],states[3],states[4],states[5],states[6],states[7],states[8],states[9],states[10],states[11],states[12],states[13],states[14],states[15],states[16],states[17],states[18],states[19],states[20],states[21],states[22],states[23],covariances[0],covariances[1],covariances[2],covariances[3],covariances[4],covariances[5],covariances[6],covariances[7],covariances[8],covariances[9],covariances[10],covariances[11],covariances[12],covariances[13],covariances[14],covariances[15],covariances[16],covariances[17],covariances[18],covariances[19],covariances[20],covariances[21],covariances[22],covariances[23],n_states
830040000,829960000,0.84923005,0.010457374,0.0022944277,-0.5279147,0.0016338484,9.5957694e-05,0.00038471774,-0.45040825,-1.1155343,0.13348715,2.4916926e-06,-1.8867007e-05,9.943318e-06,0.00016346044,9.949255e-05,-0.0010679064,0.19084708,-0.016722213,0.48985815,0.00406333,-0.0007098313,-5.653436e-05,0.0,0.0,2.280366e-05,6.043918e-06,6.0598695e-06,5.8001948e-05,0.00020706693,0.00020707256,0.0002180183,0.0015695613,0.0015695675,0.0036056351,8.922371e-12,8.922344e-12,2.3016013e-11,1.1555337e-07,1.155058e-07,5.000015e-08,0.0,0.0,0.0,0.0,0.0,0.0,0.0,0.0,24
831040000,830960000,0.8492665,0.010293632,0.0026233515,-0.5278575,0.00045502998,-0.0028827498,-0.001168408,-0.45071417,-1.1162056,0.13302542,2.6133316e-06,-1.889689e-05,9.8883165e-06,0.00016349365,9.9441706e-05,-0.0010458337,0.19084708,-0.016722213,0.48985815,0.00406333,-0.0007098313,-5.653436e-05,0.0,0.0,2.2793689e-05,6.019365e-06,6.0349503e-06,5.79762e-05,0.00016118425,0.00016118359,0.00016810474,0.0015624491,0.0015624552,0.0035902858,8.9019556e-12,8.901704e-12,2.3011464e-11,1.1555721e-07,1.15509614e-07,5.000015e-08,0.0,0.0,0.0,0.0,0.0,0.0,0.0,0.0,24
832032000,831952000,0.8493488,0.010406989,0.0032487216,-0.5277195,0.0015582336,0.0011159105,0.00029359697,-0.45060328,-1.1162655,0.1331365,2.688805e-06,-1.9218201e-05,9.855692e-06,0.00016341438,9.938039e-05,-0.0010554517,0.19084708,-0.016722213,0.48985815,0.00406333,-0.0007098313,-5.653436e-05,0.0,0.0,2.2845414e-05,5.9875383e-06,6.003349e-06,5.8146034e-05,0.00010809936,0.000108101325,0.00011143865,0.0015558276,0.0015558337,0.0035755322,8.877371e-12,8.876643e-12,2.3038942e-11,1.1556082e-07,1.15513664e-07,5e-08,0.0,0.0,0.0,0.0,0.0,0.0,0.0,0.0,24
833032000,832952000,0.84946704,0.010432301,0.003255966,-0.5275285,0.0005774094,0.001048792,-0.00079669,-0.4505132,-1.1165968,0.13248478,2.6721088e-06,-1.9225663e-05,9.7826605e-06,0.0001634364,9.937978e-05,-0.001087561,0.19084708,-0.016722213,0.48985815,0.00406333,-0.0007098313,-5.653436e-05,0.0,0.0,2.2827451e-05,5.959973e-06,5.9761064e-06,5.8131503e-05,6.5708235e-05,6.570871e-05,6.698595e-05,0.0015497905,0.0015497962,0.0035614574,8.856599e-12,8.855971e-12,2.303476e-11,1.15564596e-07,1.15517494e-07,5.000004e-08,0.0,0.0,0.0,0.0,0.0,0.0,0.0,0.0,24
834040000,833960000,0.8495185,0.010344464,0.003351536,-0.527447,-0.00042538551,-0.00080077525,0.0009728218,-0.44991288,-1.1164683,0.13266866,2.8995526e-06,-1.8940393e-05,9.7011e-06,0.00016351651,9.945924e-05,-0.0011115932,0.19084708,-0.016722213,0.48985815,0.00406333,-0.0007098313,-5.653436e-05,0.0,0.0,2.2828684e-05,5.9394238e-06,5.95504e-06,5.8127785e-05,3.287424e-05,3.287423e-05,3.3202734e-05,0.001546414,0.0015464195,0.003547731,8.8398455e-12,8.8393745e-12,2.3035065e-11,1.1556874e-07,1.1552167e-07,5.0000146e-08,0.0,0.0,0.0,0.0,0.0,0.0,0.0,0.0,24
835032000,834952000,0.8495887,0.010526655,0.0034896794,-0.5273292,-8.738664e-05,-0.00048629765,-0.00014177761,-0.45015013,-1.1161861,0.13241722,3.0620588e-06,-1.9007919e-05,9.657979e-06,0.00016357345,9.9469646e-05,-0.0011098306,0.19084708,-0.016722213,0.48985815,0.00406333,-0.0007098313,-5.653436e-05,0.0,0.0,2.2803024e-05,6.03699e-06,6.052877e-06,5.8090973e-05,0.00020706026,0.00020706664,0.00021801643,0.0015423084,0.0015423135,0.00353693,8.922188e-12,8.9214495e-12,2.3027122e-11,1.15572966e-07,1.1552598e-07,5.000015e-08,0.0,0.0,0.0,0.0,0.0,0.0,0.0,0.0,24
836032000,835952000,0.84952915,0.010504603,0.0035472454,-0.52742517,-0.00080464955,-0.0010816876,-0.002141126,-0.44993347,-1.1159667,0.13291301,3.3286237e-06,-1.913319e-05,9.606993e-06,0.00016366912,9.9480145e-05,-0.0011089209,0.19084708,-0.016722213,0.48985815,0.00406333,-0.0007098313,-5.653436e-05,0.0,0.0,2.2886024e-05,6.014071e-06,6.0299003e-06,5.8259775e-05,0.00016137032,0.00016137451,0.00016819038,0.0015355366,0.0015355415,0.0035222585,8.9022765e-12,8.90112e-12,2.3058368e-11,1.15577045e-07,1.1553015e-07,5.00007e-08,0.0,0.0,0.0,0.0,0.0,0.0,0.0,0.0,24
837032000,836952000,0.8498273,0.010864383,0.0035007002,-0.52693766,0.0062698233,-0.0054075816,-0.0024338667,-0.446581,-1.1184756,0.13074553,3.3473762e-06,-1.912849e-05,9.522963e-06,0.00016368767,9.946017e-05,-0.001112284,0.19084708,-0.016722213,0.48985815,0.00406333,-0.0007098313,-5.653436e-05,0.0,0.0,2.2843964e-05,6.4978167e-06,6.5143067e-06,5.826829e-05,0.0013817537,0.0013818908,0.0015983245,0.0018862807,0.0018863142,0.0039220606,9.294377e-12,9.293293e-12,2.305374e-11,1.15581656e-07,1.1553475e-07,5.0000036e-08,0.0,0.0,0.0,0.0,0.0,0.0,0.0,0.0,24
838032000,837952000,0.8505823,0.010117959,0.0059107156,-0.5257115,-0.010083104,-0.0062583666,-1.5713707,-0.46172082,-1.1372025,-0.5934281,3.411917e-06,-1.913187e-05,9.459581e-06,0.00016403424,9.7379554e-05,-0.0011226677,0.19084708,-0.016722213,0.48985815,0.00406333,-0.0007098313,-5.653436e-05,0.0,0.0,2.2732698e-05,6.985492e-06,6.9989787e-06,5.834219e-05,0.0041931397,0.0041937004,0.004514827,0.005430296,0.005430676,0.0082258005,9.687586e-12,9.686586e-12,2.3048138e-11,1.1548292e-07,1.1543597e-07,5.0000075e-08,0.0,0.0,0.0,0.0,0.0,0.0,0.0,0.0,24
839032000,838952000,0.8569752,0.013142001,0.007994327,-0.51512814,0.015509441,-0.0031173676,-0.605761,-0.4660761,-1.1462146,-1.647637,3.4959694e-06,-1.919378e-05,9.423283e-06,0.00016381526,9.6874326e-05,-0.0011105491,0.19435854,-0.01675143,0.48891175,0.00406333,-0.0007098313,-5.653436e-05,0.0,0.0,0.00037268957,7.4816644e-06,7.644337e-06,0.001058759,0.006359174,0.006360165,0.008278387,0.01614844,0.016149981,0.022484893,1.0019761e-11,1.0018729e-11,2.3301507e-11,1.15371506e-07,1.1532479e-07,5e-08,0.0,0.0,0.0,0.0,0.0,0.0,0.0,0.0,24
840040000,839960000,0.85489064,0.013692346,0.007105597,-0.5185789,0.012948633,0.0024942195,-0.23576437,-0.47378683,-1.1415818,-2.0335283,3.6005497e-06,-1.9267683e-05,9.4312745e-06,0.000174727,0.00010961606,-0.0011129616,0.19435854,-0.01675143,0.48891175,0.00406333,-0.0007098313,-5.653436e-05,0.0,0.0,0.00019721212,7.3573524e-06,7.467627e-06,0.0005602054,0.010934709,0.0109347245,0.011343963,0.030313117,0.030315425,0.048502054,1.0318092e-11,1.03170346e-11,2.3816726e-11,1.10089196e-07,1.1004834e-07,5.000011e-08,0.0,0.0,0.0,0.0,0.0,0.0,0.0,0.0,24
841032000,840952000,0.85515624,0.024173535,0.015138447,-0.51758516,-0.019243762,0.03817142,-0.031718586,-0.5002399,-1.1213193,-2.0645442,3.6550666e-06,-1.9344714e-05,9.438415e-06,0.00019790341,0.0001183421,-0.0011066229,0.19435854,-0.01675143,0.48891175,0.00406333,-0.0007098313,-5.653436e-05,0.0,0.0,0.00013303933,6.3633465e-06,6.5472336e-06,0.00038195937,0.012250872,0.012248629,0.012281584,0.040132754,0.040134236,0.076345235,1.0673969e-11,1.0672935e-11,2.4322334e-11,9.576652e-08,9.573832e-08,5e-08,0.0,0.0,0.0,0.0,0.0,0.0,0.0,0.0,24
842032000,841952000,0.8484024,0.12603472,0.07712053,-0.5083121,0.029931039,1.0477496,-0.593711,-0.4595411,-0.721402,-2.3772316,3.6373801e-06,-1.9303761e-05,9.440261e-06,0.00016875949,0.00010035733,-0.0011263746,0.19435854,-0.01675143,0.48891175,0.00406333,-0.0007098313,-5.653436e-05,0.0,0.0,9.5606105e-05,7.8237845e-06,1.1183264e-05,0.00028120817,0.015254067,0.014402719,0.0136413695,0.055775676,0.055776875,0.111970246,1.1130079e-11,1.1128901e-11,2.48299e-11,8.8306955e-08,8.830179e-08,5.000007e-08,0.0,0.0,0.0,0.0,0.0,0.0,0.0,0.0,24
843032000,842952000,0.8400208,0.13934337,0.10254041,-0.51423156,-0.022935111,2.2022815,-0.7471091,-0.33200625,0.9788217,-3.0361226,3.5479734e-06,-1.9248664e-05,9.4394145e-06,0.00014027194,5.226498e-05,-0.0011497427,0.1940954,-0.016732853,0.48963812,0.0042557744,-0.0012167125,0.00083101384,0.0,0.0,8.2686296e-05,8.208806e-06,1.0138373e-05,0.00023678747,0.014182112,0.012838578,0.013409319,0.062412303,0.06241018,0.13639787,1.1591882e-11,1.1588894e-11,2.5339057e-11,8.314412e-08,8.3428866e-08,5.000011e-08,0.0013147107,2.4545665e-05,0.0013236392,0.00069624843,0.0010600764,0.00120931,0.0,0.0,24
844032000,843952000,0.839691,0.1255885,0.10858254,-0.5170652,-0.1444961,2.4930577,-0.75888634,-0.30755,3.395118,-3.7120273,3.4304978e-06,-1.9217234e-05,9.399381e-06,0.0001372584,1.4490601e-05,-0.001181188,0.19339126,-0.016678557,0.4896015,0.0048514176,-0.0022432269,0.00086649135,0.0,0.0,7.985762e-05,8.188789e-06,8.608732e-06,0.00022857625,0.011981245,0.011791098,0.013093411,0.06694486,0.06691721,0.15213223,1.2056263e-11,1.2048222e-11,2.5845163e-11,8.052724e-08,8.1220136e-08,5e-08,0.0012689492,2.3913992e-05,0.0012768257,0.00057474396,0.0009867464,0.0011555146,0.0,0.0,24
845032000,844952000,0.83657664,0.12318516,0.10387454,-0.5236172,-0.12954941,2.5149374,-0.7349429,-0.4034032,5.932986,-4.344366,3.3242272e-06,-1.9185703e-05,9.328308e-06,0.00014832779,-6.3208527e-06,-0.0012268744,0.19305658,-0.016649976,0.49000752,0.0049321097,-0.0027518328,0.0011231353,0.0,0.0,8.1311715e-05,7.916536e-06,8.611694e-06,0.00022570122,0.010360987,0.010405103,0.012918069,0.067760326,0.067713715,0.16465382,1.2474424e-11,1.2456953e-11,2.6320519e-11,7.872343e-08,7.981809e-08,5e-08,0.0012562069,2.3519306e-05,0.0012633486,0.0005371272,0.00097013224,0.0011433281,0.0,0.0,24
846040000,845960000,0.8330123,0.122616015,0.101389095,-0.52988315,-0.09963699,2.5258656,-0.80798423,-0.5362597,8.486496,-5.004082,3.3410054e-06,-1.918637e-05,9.337155e-06,0.00016877319,-1.2471188e-05,-0.0012796574,0.19306298,-0.016652804,0.4899954,0.005161453,-0.0027421727,0.0010757091,0.0,0.0,8.2816725e-05,8.062426e-06,9.029022e-06,0.0002226889,0.009974967,0.009823418,0.012874447,0.0683255,0.06829395,0.17148705,1.2826281e-11,1.27983665e-11,2.6752508e-11,7.7438415e-08,7.902829e-08,5.000011e-08,0.0012477011,2.3167891e-05,0.0012567836,0.00051461835,0.00096517964,0.0011381236,0.0,0.0,24
847040000,846960000,0.8284496,0.12365671,0.098426685,-0.5373011,-0.030198978,2.490652,-0.84825915,-0.61868656,10.98367,-5.7153883,3.4511845e-06,-1.9149791e-05,9.3950575e-06,0.00018541682,-1.5844018e-05,-0.001327397,0.19306298,-0.016652806,0.4899954,0.0051615774,-0.0027422325,0.0010757466,0.0,0.0,7.085884e-05,8.065485e-06,9.192838e-06,0.00018326419,0.011296747,0.010924986,0.013750311,0.07645365,0.07644698,0.18066883,1.3138414e-11,1.309554e-11,2.7120922e-11,7.6582126e-08,7.851784e-08,5.0000104e-08,0.0,0.0,0.0,0.0,0.0,0.0,0.0,0.0,24
848040000,847960000,0.82293963,0.12562466,0.098367356,-0.5452639,0.023379318,2.5044322,-0.8801283,-0.6475465,13.47035,-6.396565,3.581655e-06,-1.910387e-05,9.472388e-06,0.00021067838,-2.22921e-05,-0.0013952724,0.19306298,-0.016652806,0.4899954,0.0051615774,-0.0027422325,0.0010757466,0.0,0.0,6.201043e-05,8.183509e-06,9.376543e-06,0.00015374519,0.010882037,0.010549501,0.013587637,0.07478232,0.074766755,0.17888638,1.3273669e-11,1.3195522e-11,2.7418304e-11,7.5562596e-08,7.8150464e-08,5e-08,0.0,0.0,0.0,0.0,0.0,0.0,0.0,0.0,24
849032000,848952000,0.81776255,0.12517175,0.09942197,-0.552912,0.035285614,2.5171654,-0.8915721,-0.6499801,15.944642,-7.1373897,3.7675861e-06,-1.9050094e-05,9.5836485e-06,0.00022986757,-2.7806951e-05,-0.0014501658,0.19306298,-0.016652806,0.4899954,0.0051615774,-0.0027422325,0.0010757466,0.0,0.0,5.5573666e-05,8.381887e-06,9.477634e-06,0.00013241782,0.010906851,0.010644339,0.013691529,0.07400993,0.073972486,0.1811495,1.3327881e-11,1.3200231e-11,2.7696387e-11,7.470094e-08,7.793125e-08,5.0000242e-08,0.0,0.0,0.0,0.0,0.0,0.0,0.0,0.0,24
850032000,849952000,0.8138933,0.11996223,0.0987027,-0.5598612,0.014060473,2.4856935,-0.82516074,-0.6443334,18.44497,-7.8866844,3.920088e-06,-1.9013049e-05,9.669927e-06,0.00024297544,-3.2609365e-05,-0.0014921377,0.19306298,-0.016652806,0.4899954,0.0051615774,-0.0027422325,0.0010757466,0.0,0.0,5.0649407e-05,8.385259e-06,9.280222e-06,0.00011656431,0.0104064485,0.010214104,0.013492264,0.07196714,0.07192791,0.1802462,1.3202945e-11,1.300045e-11,2.7920216e-11,7.3904985e-08,7.774421e-08,5.0000036e-08,0.0,0.0,0.0,0.0,0.0,0.0,0.0,0.0,24
851040000,850960000,0.82113993,0.0060044224,0.021547692,-0.57028836,0.011298966,1.8259748,-0.05374279,-0.6535083,20.834671,-8.42036,3.9836505e-06,-1.9203215e-05,9.743145e-06,0.000250593,-3.3535944e-05,-0.0015190461,0.19306298,-0.016652806,0.4899954,0.0051615774,-0.0027422325,0.0010757466,0.0,0.0,4.7226327e-05,7.0823794e-06,7.0408532e-06,0.00010651811,0.0104132285,0.00981517,0.013370402,0.07089122,0.0708563,0.17973712,1.3096386e-11,1.2802406e-11,2.8137043e-11,7.3265824e-08,7.758439e-08,5.000011e-08,0.0,0.0,0.0,0.0,0.0,0.0,0.0,0.0,24
852040000,851960000,0.8151158,-0.10669471,-0.068809874,-0.5652147,-0.00022821536,-0.53004134,0.681608,-0.75670964,21.496452,-7.9835706,4.313367e-06,-1.970404e-05,1.0181885e-05,0.00025258138,-2.62226e-05,-0.0015329195,0.19370797,-0.016729577,0.4883281,0.005846884,-0.0028000844,-0.0007860223,0.0,0.0,4.214213e-05,7.700912e-06,7.991691e-06,9.572026e-05,0.015230245,0.011329691,0.013945318,0.079704955,0.079091534,0.18158978,1.3238591e-11,1.2808524e-11,2.8377238e-11,7.277284e-08,7.7276944e-08,5e-08,0.00057657453,1.7491599e-05,0.0006407692,0.00023342451,0.00050545874,0.0006138749,0.0,0.0,24
853040000,852960000,0.8251173,-0.0057952283,-0.040800057,-0.56345654,0.09199866,-1.0589086,0.68148696,-0.97025704,20.446695,-7.3846984,5.2624396e-06,-1.9754527e-05,1.10282435e-05,0.00025435654,-2.3809898e-05,-0.0015320069,0.19462693,-0.016856708,0.4885275,0.0073987963,-0.0032072652,-0.0015016418,0.0,0.0,3.6042726e-05,7.159226e-06,7.549618e-06,8.6310225e-05,0.012275766,0.011311636,0.013895721,0.077543944,0.07692407,0.18282771,1.3303427e-11,1.2513154e-11,2.8569888e-11,7.260285e-08,7.713594e-08,5e-08,0.00053467555,1.6836568e-05,0.00059923076,0.00018210303,0.00046278234,0.00057953014,0.0,0.0,24
854040000,853960000,0.82787174,0.011327617,-0.023068616,-0.56032836,0.24720898,-0.5641252,0.7460765,-0.8545406,19.578394,-6.776548,5.8173578e-06,-1.9271176e-05,1.1236574e-05,0.00026691135,-3.2746575e-05,-0.0014768036,0.19490924,-0.016886678,0.48844886,0.007488459,-0.0029779477,-0.0012801611,0.0,0.0,3.4948866e-05,6.8249865e-06,7.674149e-06,8.5590225e-05,0.009605383,0.009766745,0.013104757,0.06805778,0.06769481,0.17423229,1.30517645e-11,1.20127675e-11,2.8967717e-11,7.2193004e-08,7.700013e-08,5.000004e-08,0.00051942864,1.6470858e-05,0.0005628801,0.0001619667,0.0004425001,0.0005524212,0.0,0.0,24
855040000,854960000,0.82690394,0.020442603,0.0048969607,-0.5619502,0.13511823,-0.105968215,0.7812868,-0.62236464,19.213501,-6.048989,5.7130583e-06,-1.8872619e-05,1.1234971e-05,0.00028236688,-3.4656226e-05,-0.0014338797,0.1947792,-0.01688448,0.4884224,0.0074246665,-0.0030888163,-0.0008574746,0.0,0.0,3.4861037e-05,7.1100276e-06,7.840583e-06,8.521037e-05,0.011150382,0.010819196,0.0140778795,0.07434972,0.07419671,0.1783425,1.2807075e-11,1.1840002e-11,2.9457572e-11,7.171757e-08,7.687582e-08,5e-08,0.00051181647,1.6142641e-05,0.0005286431,0.00014983688,0.00043269756,0.00052306044,0.0,0.0,24
856040000,855960000,0.7628684,0.2843499,0.20652512,-0.5427011,-0.06769544,2.227318,-3.404686,-0.49086735,19.293413,-5.880641,5.3444633e-06,-1.7610753e-05,1.1350045e-05,0.0002923515,-3.46174e-05,-0.0014053716,0.19443415,-0.01684782,0.48949942,0.007110519,-0.0030507515,-2.3847278e-05,0.0,0.0,2.8558066e-05,1.1969605e-05,1.6961701e-05,6.374535e-05,0.017883554,0.01319319,0.013486131,0.072666265,0.07259659,0.18009864,1.2080526e-11,1.14339736e-11,2.9872237e-11,7.139476e-08,7.678572e-08,5.000011e-08,0.0003886294,1.5085127e-05,0.00039572228,0.00013441307,0.00034382244,0.00038931158,0.0,0.0,24
857040000,856960000,0.75746024,0.21782199,0.20336317,-0.58090544,-0.05503786,6.3953457,-3.4953225,-0.1900094,24.314165,-9.431813,3.4520438e-06,-1.5914546e-05,1.23957225e-05,0.0002717257,-7.6226715e-05,-0.0014016444,0.19317321,-0.016882317,0.49069673,0.007861168,-0.0051813247,0.004321506,0.0,0.0,2.289827e-05,7.348981e-06,7.4669606e-06,4.5992467e-05,0.019349169,0.013227653,0.011683314,0.0725204,0.07242278,0.17818241,1.1378635e-11,1.1030495e-11,3.012149e-11,7.087748e-08,7.621297e-08,5.0000118e-08,0.00026502056,1.3694934e-05,0.00025129586,0.00010519032,0.00025041966,0.00022285045,0.0,0.0,24
858040000,857960000,0.80333453,0.027157446,0.062598914,-0.5916058,-0.23995432,3.6553588,-0.8417262,-0.23618762,29.839937,-11.777567,2.5026839e-06,-1.668055e-05,1.2470153e-05,0.00031407774,-0.00013429874,-0.0013418013,0.19280626,-0.016999999,0.49009192,0.008957009,-0.00672999,0.00519222,0.0,0.0,2.1967133e-05,4.6170544e-06,4.701704e-06,4.808721e-05,0.011938015,0.011519102,0.010326447,0.07110853,0.07068804,0.17522241,1.1380793e-11,1.0984376e-11,3.0579376e-11,6.7815726e-08,7.2712446e-08,5e-08,0.00024254691,1.3068387e-05,0.00021942164,8.500025e-05,0.0002264802,0.00020075137,0.0,0.0,24
859032000,858952000,0.80764496,-0.025556337,-0.008369289,-0.58905554,-0.2706833,1.2708024,-0.11732205,-0.6010688,32.323074,-12.208285,2.6325004e-06,-1.7309594e-05,1.2766251e-05,0.00037265662,-0.00010351275,-0.0013071111,0.1937139,-0.017273592,0.48966062,0.010172643,-0.007580235,0.0042572822,0.0,0.0,2.0710348e-05,4.58588e-06,4.6224854e-06,4.6387013e-05,0.013209544,0.011404958,0.010613191,0.06955059,0.069260895,0.17153373,1.1569915e-11,1.1139586e-11,3.0826907e-11,6.353032e-08,6.760148e-08,5.000004e-08,0.00023120729,1.2580853e-05,0.00019832105,7.20467e-05,0.00021306658,0.00018802333,0.0,0.0,24
860040000,859960000,0.8096162,-0.019807804,-0.02972474,-0.5858717,0.08869894,-0.5525614,0.118253104,-0.7717431,32.4296,-12.124258,3.020979e-06,-1.7573873e-05,1.324973e-05,0.0003807151,-8.3771905e-05,-0.0013037144,0.1950672,-0.017639777,0.4896582,0.010918421,-0.008760485,0.0025799687,0.0,0.0,1.903453e-05,4.622219e-06,4.525779e-06,4.348573e-05,0.015012711,0.012522243,0.009887532,0.07728882,0.07707856,0.17457369,1.1864745e-11,1.1379894e-11,3.1014823e-11,6.298859e-08,6.693779e-08,5.000011e-08,0.00022267958,1.2070152e-05,0.00016539214,6.127609e-05,0.00020438922,0.00016149625,0.0,0.0,24
861032000,860952000,0.80614585,0.024361268,-0.007822678,-0.59116346,0.20403242,-0.2336467,0.054541968,-0.76426715,31.98219,-12.136978,3.5239404e-06,-1.7643912e-05,1.3649612e-05,0.00038510907,-3.765214e-05,-0.0012819461,0.19575879,-0.017766947,0.4893564,0.0113181025,-0.00901226,0.0022558637,0.0,0.0,1.8859018e-05,4.250554e-06,4.4297744e-06,4.1950887e-05,0.012971007,0.012464731,0.0098941,0.0750932,0.074881546,0.17092629,1.2055044e-11,1.14830775e-11,3.1306395e-11,6.0493846e-08,6.437719e-08,5.0000075e-08,0.0002180937,1.1797678e-05,0.00015923103,5.7043788e-05,0.00020001146,0.00015650476,0.0,0.0,24
862032000,861952000,0.8045757,0.020986015,0.0016442767,-0.593477,0.18900368,0.04809265,0.06941228,-0.6156731,31.90219,-12.186425,3.779873e-06,-1.7659899e-05,1.3721701e-05,0.00038540974,-1.0044716e-05,-0.001251405,0.19603264,-0.017805764,0.48928317,0.011413689,-0.009013843,0.002096134,0.0,0.0,1.9575622e-05,4.2449637e-06,4.4078615e-06,4.27448e-05,0.012853999,0.01268629,0.010824476,0.07453594,0.074364364,0.16856828,1.2228636e-11,1.1615779e-11,3.1746068e-11,5.719298e-08,6.091656e-08,5.000011e-08,0.00021502034,1.1571315e-05,0.00015612876,5.4184282e-05,0.00019702487,0.0001539268,0.0,0.0,24
863032000,862952000,0.8033981,0.011972259,0.003741915,-0.59531015,0.079616785,0.076040976,0.063741684,-0.5111716,31.970701,-12.249738,3.925404e-06,-1.7682632e-05,1.37141205e-05,0.00038633143,6.1214055e-06,-0.0011998608,0.1961455,-0.017819153,0.48917216,0.011368028,-0.008948827,0.0019596738,0.0,0.0,2.038903e-05,4.284532e-06,4.3722857e-06,4.3778557e-05,0.011898304,0.011740146,0.011849204,0.07239691,0.07228397,0.16738683,1.2311122e-11,1.170526e-11,3.2185206e-11,5.3748792e-08,5.716102e-08,5.0000036e-08,0.0,0.0,0.0,0.0,0.0,0.0,0.0,0.0,24
864040000,863960000,0.80284953,0.00951274,0.001989487,-0.59610254,0.032917492,0.03743934,0.1022987,-0.47667512,32.03286,-12.3063,3.986464e-06,-1.7720058e-05,1.370052e-05,0.0003881412,1.2782018e-05,-0.0011381315,0.1961455,-0.017819153,0.48917216,0.011368028,-0.008948827,0.0019596738,0.0,0.0,2.054994e-05,4.513317e-06,4.575772e-06,4.3567583e-05,0.011278381,0.011119815,0.0127893435,0.07132062,0.071249895,0.16779697,1.242663e-11,1.1847634e-11,3.2508718e-11,5.1444857e-08,5.460587e-08,5.0000114e-08,0.0,0.0,0.0,0.0,0.0,0.0,0.0,0.0,24
865032000,864952000,0.8024835,0.009873152,0.001039913,-0.5965918,0.0114914095,0.0037872214,0.14624003,-0.46378565,32.052105,-12.312439,4.0013756e-06,-1.7731802e-05,1.36992e-05,0.00038817833,1.4995437e-05,-0.0010873862,0.1961455,-0.017819153,0.48917216,0.011368028,-0.008948827,0.0019596738,0.0,0.0,2.0720376e-05,4.983731e-06,5.0400495e-06,4.344766e-05,0.012689532,0.012488449,0.014396205,0.07979768,0.079725586,0.17290793,1.2630538e-11,1.2078902e-11,3.2793882e-11,5.0353332e-08,5.3385346e-08,5.000022e-08,0.0,0.0,0.0,0.0,0.0,0.0,0.0,0.0,24
866040000,865960000,0.80219483,0.009274732,0.0013905636,-0.59698886,0.0029077285,-0.008173985,0.15006538,-0.44875792,32.066277,-12.341552,3.9470774e-06,-1.7777433e-05,1.3702475e-05,0.0003896258,1.4235247e-05,-0.0010199785,0.1961455,-0.017819153,0.48917216,0.011368028,-0.008948827,0.0019596738,0.0,0.0,2.0907939e-05,5.270023e-06,5.306476e-06,4.33889e-05,0.011770441,0.011601482,0.014663571,0.0777157,0.077661514,0.17495129,1.2645712e-11,1.21400685e-11,3.3047322e-11,5.0000864e-08,5.2381235e-08,5.0000224e-08,0.0,0.0,0.0,0.0,0.0,0.0,0.0,0.0,24
867032000,866952000,0.8021469,0.007859926,0.0027232226,-0.5970689,-0.008729869,-0.004681088,0.14959759,-0.4438335,32.086372,-12.3524275,3.8935186e-06,-1.7887907e-05,1.36765075e-05,0.0003915676,1.3917577e-05,-0.0009512703,0.1961455,-0.017819153,0.48917216,0.011368028,-0.008948827,0.0019596738,0.0,0.0,2.1152264e-05,5.406698e-06,5.4196244e-06,4.3510136e-05,0.009761457,0.009654784,0.013680948,0.067844935,0.06781845,0.17111322,1.250468e-11,1.20555215e-11,3.3275483e-11,5e-08,5.1904866e-08,5e-08,0.0,0.0,0.0,0.0,0.0,0.0,0.0,0.0,24
868040000,867960000,0.802185,0.008007784,0.000645668,-0.5970215,-0.006916321,-0.023236483,0.12835796,-0.45177007,32.085983,-12.311798,3.847509e-06,-1.7939823e-05,1.3640022e-05,0.00039183313,1.3939669e-05,-0.000913798,0.1961455,-0.017819153,0.48917216,0.011368028,-0.008948827,0.0019596738,0.0,0.0,2.1435186e-05,5.7852217e-06,5.792424e-06,4.3711017e-05,0.010784033,0.010688338,0.014483735,0.07452392,0.074483246,0.1751001,1.2521196e-11,1.2112864e-11,3.3469994e-11,5.0000107e-08,5.1822315e-08,5.0000036e-08,0.0,0.0,0.0,0.0,0.0,0.0,0.0,0.0,24
869040000,868960000,0.802312,0.0060446705,0.00046477598,-0.59687406,-0.006221955,-0.02467751,0.10817615,-0.46162817,32.089436,-12.272089,3.8547973e-06,-1.8068016e-05,1.3582937e-05,0.000392054,1.42593835e-05,-0.0008862228,0.1961455,-0.017819153,0.48917216,0.011368028,-0.008948827,0.0019596738,0.0,0.0,2.1735515e-05,5.9416093e-06,5.9344375e-06,4.397167e-05,0.010438674,0.010370632,0.014282317,0.07287964,0.07284469,0.17605096,1.2367247e-11,1.2008514e-11,3.3625037e-11,5.0000146e-08,5.1789986e-08,5.000011e-08,0.0,0.0,0.0,0.0,0.0,0.0,0.0,0.0,24
870032000,869952000,0.8024501,0.0063012415,-0.0015823487,-0.596684,0.0036893212,-0.022770619,0.084264226,-0.47407073,32.07299,-12.229972,3.925261e-06,-1.8123515e-05,1.3513128e-05,0.00039172036,1.4119016e-05,-0.0008734662,0.1961455,-0.017819153,0.48917216,0.011368028,-0.008948827,0.0019596738,0.0,0.0,2.2130494e-05,6.073216e-06,6.06031e-06,4.4425175e-05,0.010441841,0.010386652,0.014232472,0.07210402,0.07207179,0.17870907,1.2210684e-11,1.1897782e-11,3.377128e-11,5.000015e-08,5.174775e-08,5.000015e-08,0.0,0.0,0.0,0.0,0.0,0.0,0.0,0.0,24
871032000,870952000,0.8024424,0.00689136,0.0007668959,-0.59668946,0.011705669,-0.011085508,0.042213537,-0.4774701,32.03304,-12.197267,4.0482123e-06,-1.8028159e-05,1.3448095e-05,0.00039271772,1.2975621e-05,-0.0008730367,0.1961455,-0.017819153,0.48917216,0.011368028,-0.008948827,0.0019596738,0.0,0.0,2.2510752e-05,6.035628e-06,6.019878e-06,4.4813456e-05,0.010015763,0.00996969,0.01392519,0.0702404,0.07021556,0.17827427,1.1949051e-11,1.1685416e-11,3.3860154e-11,5.000004e-08,5.1631975e-08,5.000004e-08,0.0,0.0,0.0,0.0,0.0,0.0,0.0,0.0,24
872032000,871952000,0.80236554,0.007089613,0.0037249033,-0.5967793,0.009183301,0.0088910945,0.0099046,-0.50072736,32.01647,-12.176277,4.3219657e-06,-1.7996945e-05,1.3380322e-05,0.00039319284,8.957325e-06,-0.00087622495,0.1961455,-0.017819153,0.48917216,0.011368028,-0.008948827,0.0019596738,0.0,0.0,2.2922894e-05,6.0032235e-06,5.9867534e-06,4.524739e-05,0.009856956,0.009816393,0.013732392,0.069103435,0.06908248,0.17770559,1.1725313e-11,1.1504876e-11,3.3916456e-11,5.0000075e-08,5.145771e-08,5.0000075e-08,0.0,0.0,0.0,0.0,0.0,0.0,0.0,0.0,24
873032000,872952000,0.80237734,0.008241976,0.0029297282,-0.59675306,0.0341923,0.026095442,-0.0055925404,-0.5073863,32.02013,-12.16899,4.530774e-06,-1.7956158e-05,1.3304512e-05,0.00039391738,5.6530625e-06,-0.0008831029,0.1961455,-0.017819153,0.48917216,0.011368028,-0.008948827,0.0019596738,0.0,0.0,2.3350545e-05,6.1714486e-06,6.156793e-06,4.573507e-05,0.011174213,0.011131415,0.014570768,0.07645902,0.07642734,0.18233372,1.1666731e-11,1.1476583e-11,3.3945034e-11,5.0000097e-08,5.1288673e-08,5.0000075e-08,0.0,0.0,0.0,0.0,0.0,0.0,0.0,0.0,24
874040000,873960000,0.80267894,0.005739809,0.00493505,-0.59636337,0.032543514,0.023303954,-0.00818424,-0.5206562,32.035378,-12.157548,4.8049533e-06,-1.7998844e-05,1.3269638e-05,0.00039332875,7.896883e-07,-0.0008944776,0.1961455,-0.017819153,0.48917216,0.011368028,-0.008948827,0.0019596738,0.0,0.0,2.3837283e-05,6.0452717e-06,6.0297016e-06,4.645039e-05,0.010810428,0.010779932,0.014357033,0.07487654,0.074851,0.18147331,1.1435386e-11,1.1280317e-11,3.3980558e-11,5.000018e-08,5.1043042e-08,5.0000036e-08,0.0,0.0,0.0,0.0,0.0,0.0,0.0,0.0,24
875032000,874952000,0.8022353,0.021671709,-0.000807274,-0.596614,0.040093467,0.027536025,-0.036781795,-0.5434855,32.040638,-12.142126,5.0040494e-06,-1.8027104e-05,1.3245133e-05,0.00039301763,-2.7357462e-06,-0.00090648193,0.1961455,-0.017819153,0.48917216,0.011368028,-0.008948827,0.0019596738,0.0,0.0,2.4287814e-05,5.984734e-06,5.998538e-06,4.69371e-05,0.010805419,0.010783374,0.014324417,0.074067846,0.07404524,0.18244077,1.12800125e-11,1.1152384e-11,3.394709e-11,5.0000942e-08,5.0815494e-08,5.0000185e-08,0.0,0.0,0.0,0.0,0.0,0.0,0.0,0.0,24
876032000,875952000,0.7920234,0.10931404,-0.11180622,-0.59012604,1.08113,0.15580726,-0.15660086,-0.22506401,32.135895,-12.205854,5.5287305e-06,-1.8156923e-05,1.3166571e-05,0.00039111203,-1.2509842e-05,-0.00092106377,0.1961455,-0.017819153,0.48917216,0.011368028,-0.008948827,0.0019596738,0.0,0.0,2.4234918e-05,6.4939377e-06,6.3750845e-06,4.6348123e-05,0.010318702,0.010485287,0.0139877545,0.07200449,0.07198892,0.18071377,1.1055554e-11,1.0950872e-11,3.383357e-11,5.0000036e-08,5.0555773e-08,5.0000036e-08,0.0,0.0,0.0,0.0,0.0,0.0,0.0,0.0,24
877040000,876960000,0.7899065,0.12039318,-0.12361649,-0.58844906,2.2383108,0.17999448,-0.11740176,1.5154327,32.29352,-12.317718,5.6968997e-06,-1.8093477e-05,1.3228044e-05,0.00039233555,-1.5499752e-05,-0.0009391902,0.19688287,-0.017860135,0.48893243,0.011383145,-0.008402397,0.0015530218,0.0,0.0,2.4019391e-05,6.259728e-06,6.143702e-06,4.5692024e-05,0.010116379,0.01042464,0.013709884,0.07093635,0.07092238,0.17967997,1.0888139e-11,1.0799562e-11,3.3415774e-11,5.0000114e-08,5.00773e-08,5.0000075e-08,0.00014167979,1.0603366e-05,0.0001118535,4.4456618e-05,0.00013419065,0.00011118752,0.0,0.0,24
878032000,877952000,0.787047,0.118275695,-0.11506807,-0.5944134,2.5007915,0.20812322,-0.04980444,3.9126139,32.47485,-12.389906,5.678553e-06,-1.8010775e-05,1.3246989e-05,0.00039389796,-1.5884438e-05,-0.0009454099,0.197143,-0.01789052,0.48909104,0.011467184,-0.008200164,0.001657886,0.0,0.0,2.497991e-05,6.1896744e-06,6.1734268e-06,4.5957935e-05,0.011686942,0.011605805,0.014531127,0.07917701,0.079168424,0.18317828,1.0939112e-11,1.0859969e-11,3.33016e-11,5.0000075e-08,5.0000036e-08,5e-08,0.00011970547,1.007532e-05,9.696872e-05,3.863803e-05,0.00011453483,9.6724e-05,0.0,0.0,24
879040000,878960000,0.7888544,0.048635446,-0.03429731,-0.61169183,2.1563544,0.18248779,0.082866795,6.4383287,32.680172,-12.390279,5.4920356e-06,-1.791337e-05,1.3201486e-05,0.00039624318,-1.2966287e-05,-0.000945164,0.1973134,-0.017933669,0.489072,0.011632167,-0.00817905,0.0017219117,0.0,0.0,2.7103495e-05,5.620485e-06,5.597207e-06,4.703678e-05,0.01112651,0.010941773,0.01434862,0.077236965,0.077180415,0.18207736,1.0808073e-11,1.0760364e-11,3.3386394e-11,5.000011e-08,5.0000075e-08,5.0000075e-08,0.00011101914,9.7481e-06,9.082344e-05,3.5270128e-05,0.00010664997,9.065612e-05,0.0,0.0,24
880032000,879952000,0.7850441,0.010535876,0.002761352,-0.6193442,0.9139606,0.07492132,0.62534535,7.9015846,32.841602,-12.176626,5.0602143e-06,-1.7969438e-05,1.3339999e-05,0.00039726653,-8.294389e-06,-0.00094600924,0.19735524,-0.017968148,0.48878452,0.011799828,-0.00797394,0.001825214,0.0,0.0,2.8260425e-05,5.427358e-06,5.375568e-06,4.7222664e-05,0.0092192795,0.009681533,0.013290165,0.06764726,0.067620404,0.1753282,1.0605505e-11,1.06101985e-11,3.3071067e-11,5.0000036e-08,5.0000036e-08,5.0000036e-08,0.000104828425,9.508103e-06,8.619899e-05,3.289237e-05,0.00010089051,8.5949236e-05,0.0,0.0,24
881032000,880952000,0.7911571,-0.020994904,0.03599668,-0.61019176,-0.3357839,-0.019844793,0.87564236,8.131679,32.91689,-11.255139,4.832799e-06,-1.8164455e-05,1.3634939e-05,0.00039904605,-8.030882e-06,-0.0009571117,0.197394,-0.018017575,0.48849815,0.011969925,-0.008047231,0.0015441445,0.0,0.0,2.6437105e-05,5.557808e-06,5.5077626e-06,4.6114797e-05,0.010240711,0.011275512,0.0140782865,0.07387042,0.073785365,0.18187085,1.0631625e-11,1.0724132e-11,3.196488e-11,5.000007e-08,5.000007e-08,5.000007e-08,8.194273e-05,9.11547e-06,6.9727466e-05,2.9737557e-05,7.96671e-05,6.956042e-05,0.0,0.0,24
882040000,881960000,0.79180247,-0.018003551,0.018253766,-0.610239,-0.41813925,-0.07841129,0.84041125,7.763956,32.92715,-10.423588,4.66643e-06,-1.837422e-05,1.3868262e-05,0.0004009211,-6.0855705e-06,-0.00095174584,0.19750659,-0.018087389,0.48809716,0.012199887,-0.008143665,0.0011517901,0.0,0.0,2.6318854e-05,5.4244124e-06,5.3980903e-06,4.586883e-05,0.010171892,0.010430035,0.013967235,0.07258187,0.072529994,0.18109842,1.0551586e-11,1.07710715e-11,3.135739e-11,5.000011e-08,5.000011e-08,5.000011e-08,6.9337955e-05,8.712567e-06,5.9818118e-05,2.6582931e-05,6.781353e-05,5.9695558e-05,0.0,0.0,24
883032000,882952000,0.7907251,-0.0005744283,0.00070087664,-0.61217076,-0.23378532,-0.09857662,0.8987483,7.44297,32.849,-9.550763,4.5987877e-06,-1.8405945e-05,1.3838523e-05,0.00040264285,-5.489629e-06,-0.0009531403,0.19754252,-0.018143248,0.48801214,0.012388259,-0.008310074,0.0010573519,0.0,0.0,2.7287473e-05,5.4933316e-06,5.4391367e-06,4.6947094e-05,0.010216118,0.010125602,0.01394644,0.07186582,0.07181184,0.17960572,1.0508203e-11,1.0818621e-11,3.135888e-11,5e-08,5e-08,5.0000025e-08,6.371714e-05,8.429456e-06,5.527257e-05,2.4512146e-05,6.244688e-05,5.5173587e-05,0.0,0.0,24
884040000,883960000,0.7897455,0.007995826,-0.0029418988,-0.61337537,-0.042067036,-0.04257344,0.8828947,7.336394,32.777267,-8.651439,4.497594e-06,-1.833383e-05,1.3784121e-05,0.00040425023,-5.1233674e-06,-0.00095192663,0.19757862,-0.01817812,0.48799643,0.012507037,-0.008393691,0.0010400554,0.0,0.0,2.8431745e-05,5.4414177e-06,5.42049e-06,4.8416558e-05,0.009849212,0.009773443,0.013798179,0.07027989,0.07022158,0.17885412,1.0421058e-11,1.0760635e-11,3.151206e-11,5e-08,5e-08,5.0000033e-08,0.0,0.0,0.0,0.0,0.0,0.0,0.0,0.0,24
885032000,884952000,0.78918654,0.006501498,0.00021812264,-0.61411905,0.007358448,-0.0027116593,0.85517246,7.357704,32.756702,-7.7692175,4.348735e-06,-1.8242898e-05,1.3805676e-05,0.0004049775,-4.0351756e-06,-0.00095953577,0.19757862,-0.01817812,0.48799643,0.012507037,-0.008393691,0.0010400554,0.0,0.0,2.8923012e-05,5.392344e-06,5.389805e-06,4.8875707e-05,0.009667448,0.009658899,0.013648371,0.06895639,0.06889709,0.17741649,1.0380271e-11,1.069777e-11,3.13813e-11,5.0000075e-08,5.0000075e-08,5.0000075e-08,0.0,0.0,0.0,0.0,0.0,0.0,0.0,0.0,24
886032000,885952000,0.7892586,0.004243516,0.0022284575,-0.61404234,-0.018747598,0.007870764,0.8064677,7.3711123,32.753876,-6.93874,4.2706865e-06,-1.8163844e-05,1.3784616e-05,0.0004054376,-3.495629e-06,-0.00096119504,0.19757862,-0.01817812,0.48799643,0.012507037,-0.008393691,0.0010400554,0.0,0.0,2.914187e-05,5.546879e-06,5.547855e-06,4.905528e-05,0.010958841,0.010989204,0.014535396,0.07631039,0.07622455,0.18186517,1.0465081e-11,1.0751513e-11,3.113967e-11,5e-08,5e-08,5.0000107e-08,0.0,0.0,0.0,0.0,0.0,0.0,0.0,0.0,24
887040000,886960000,0.78932434,0.0046701715,0.0038430423,-0.6139466,-0.02605604,0.012231656,0.75515574,7.3724256,32.751915,-6.1504745,4.1760372e-06,-1.8077822e-05,1.374696e-05,0.00040588682,-2.838676e-06,-0.0009621221,0.19757862,-0.01817812,0.48799643,0.012507037,-0.008393691,0.0010400554,0.0,0.0,2.9422768e-05,5.470161e-06,5.483186e-06,4.9353395e-05,0.0106272595,0.010680248,0.014370412,0.07477082,0.07471184,0.18129721,1.041373e-11,1.0658713e-11,3.0928298e-11,5e-08,5e-08,5.0000143e-08,0.0,0.0,0.0,0.0,0.0,0.0,0.0,0.0,24
888032000,887952000,0.7895131,0.004670403,0.0054312423,-0.61369205,-0.03143553,0.007531649,0.7271254,7.357132,32.75571,-5.417322,4.1408157e-06,-1.8036026e-05,1.3649979e-05,0.00040584386,-2.2896588e-06,-0.00096317014,0.19757862,-0.01817812,0.48799643,0.012507037,-0.008393691,0.0010400554,0.0,0.0,2.966898e-05,5.458342e-06,5.4784614e-06,4.9613747e-05,0.010607004,0.010668507,0.014281311,0.07397268,0.073936336,0.18006049,1.04062375e-11,1.0613733e-11,3.070134e-11,5.0000036e-08,5.0000036e-08,5.0000075e-08,0.0,0.0,0.0,0.0,0.0,0.0,0.0,0.0,24
889040000,888960000,0.7893978,0.0056660553,0.0048556295,-0.6138367,-0.015808962,0.0055623143,0.68830323,7.329492,32.765015,-4.71112,4.1503613e-06,-1.803841e-05,1.3622454e-05,0.0004057705,-2.1104295e-06,-0.0009651291,0.19757862,-0.01817812,0.48799643,0.012507037,-0.008393691,0.0010400554,0.0,0.0,2.9954417e-05,5.359847e-06,5.3817917e-06,4.987169e-05,0.010143185,0.0102014765,0.014072804,0.07221551,0.07219658,0.1794554,1.0338479e-11,1.0508183e-11,3.0472458e-11,5.0000036e-08,5.0000036e-08,5.000007e-08,0.0,0.0,0.0,0.0,0.0,0.0,0.0,0.0,24
890040000,889960000,0.78930134,0.005232913,0.0027253132,-0.6139777,-0.0076847808,-0.006707856,0.70431143,7.3207736,32.78058,-4.0340567,4.1169214e-06,-1.809109e-05,1.3604592e-05,0.00040523038,-2.4753663e-06,-0.00095675036,0.19757862,-0.01817812,0.48799643,0.012507037,-0.008393691,0.0010400554,0.0,0.0,3.0230656e-05,5.3244567e-06,5.339593e-06,5.0120252e-05,0.009903854,0.009951669,0.013927792,0.07090686,0.07090055,0.17881732,1.03099985e-11,1.0449313e-11,3.0238652e-11,5e-08,5e-08,5.0000146e-08,0.0,0.0,0.0,0.0,0.0,0.0,0.0,0.0,24
891032000,890952000,0.7893835,0.006601203,0.0017904018,-0.6138624,-0.007290757,-0.02387816,0.71228063,7.31361,32.787262,-3.3490489,4.093473e-06,-1.818978e-05,1.3514629e-05,0.00040417793,-2.71423e-06,-0.0009479785,0.19757862,-0.01817812,0.48799643,0.012507037,-0.008393691,0.0010400554,0.0,0.0,3.0488958e-05,5.5371393e-06,5.5555524e-06,5.0391413e-05,0.011418991,0.011466599,0.014860892,0.07906466,0.0790788,0.18326944,1.0434742e-11,1.0555221e-11,3.000686e-11,5e-08,5e-08,5.0000075e-08,0.0,0.0,0.0,0.0,0.0,0.0,0.0,0.0,24
892040000,891960000,0.7893182,0.0065431115,0.0020636239,-0.6139461,-0.00055802363,-0.03092695,0.7023465,7.318523,32.795155,-2.634663,4.0012824e-06,-1.8337598e-05,1.343759e-05,0.00040291343,-2.1863195e-06,-0.0009474159,0.19757862,-0.01817812,0.48799643,0.012507037,-0.008393691,0.0010400554,0.0,0.0,3.0779825e-05,5.457519e-06,5.477338e-06,5.0673465e-05,0.011002486,0.011035619,0.014634254,0.077149056,0.0771647,0.18246269,1.0381627e-11,1.0479839e-11,2.977745e-11,5e-08,5e-08,5.000004e-08,0.0,0.0,0.0,0.0,0.0,0.0,0.0,0.0,24
893032000,892952000,0.7892562,0.0040866216,0.0013070346,-0.61404914,-0.0022118886,-0.031286687,0.695078,7.3317394,32.81607,-1.9729596,3.8617018e-06,-1.8569988e-05,1.3349832e-05,0.00040096013,-2.0785524e-06,-0.0009321356,0.19757862,-0.01817812,0.48799643,0.012507037,-0.008393691,0.0010400554,0.0,0.0,3.1153082e-05,5.2262667e-06,5.239419e-06,5.108481e-05,0.0093957195,0.009413134,0.013469697,0.067577966,0.067585856,0.17558345,1.0235885e-11,1.0313996e-11,2.95923e-11,5e-08,5e-08,5e-08,0.0,0.0,0.0,0.0,0.0,0.0,0.0,0.0,24
894032000,893952000,0.78926396,0.0048561394,0.0009350755,-0.6140342,-0.010319363,-0.045109015,0.71059436,7.3349605,32.80625,-1.2870185,3.763937e-06,-1.8715404e-05,1.3286144e-05,0.00039978515,-1.920321e-06,-0.00092166796,0.19757862,-0.01817812,0.48799643,0.012507037,-0.008393691,0.0010400554,0.0,0.0,3.1404514e-05,5.3514195e-06,5.366834e-06,5.135411e-05,0.010414417,0.010429134,0.014325968,0.073952354,0.07396524,0.18228316,1.0306346e-11,1.0373461e-11,2.9363425e-11,5.000007e-08,5.000007e-08,5.000007e-08,0.0,0.0,0.0,0.0,0.0,0.0,0.0,0.0,24
895032000,894952000,0.7892552,0.0063535003,0.0018137657,-0.6140299,-0.017498974,-0.04244964,0.7089655,7.3517513,32.79661,-0.6011558,3.5679086e-06,-1.884665e-05,1.3174741e-05,0.00039852172,-1.1779749e-06,-0.0009096016,0.19757862,-0.01817812,0.48799643,0.012507037,-0.008393691,0.0010400554,0.0,0.0,3.164813e-05,5.3037916e-06,5.3241192e-06,5.1592455e-05,0.010145075,0.010155223,0.014125491,0.07243,0.07244048,0.18100122,1.02743005e-11,1.03304075e-11,2.913248e-11,5.0000146e-08,5.0000146e-08,5.0000146e-08,0.0,0.0,0.0,0.0,0.0,0.0,0.0,0.0,24
896040000,895960000,0.78930765,0.0030493774,0.0027703275,-0.6139841,-0.025857633,-0.037246194,0.7084569,7.374167,32.79474,0.07824807,3.2911253e-06,-1.896198e-05,1.3077251e-05,0.00039736097,-1.1500427e-07,-0.0008920315,0.19757862,-0.01817812,0.48799643,0.012507037,-0.008393691,0.0010400554,0.0,0.0,3.188829e-05,5.3169e-06,5.332078e-06,5.184356e-05,0.010235387,0.010243248,0.014117791,0.07222856,0.0722375,0.18056071,1.0280584e-11,1.032845e-11,2.8905472e-11,5.000015e-08,5.000015e-08,5.000015e-08,0.0,0.0,0.0,0.0,0.0,0.0,0.0,0.0,24
897040000,896960000,0.79321015,0.003229468,0.0013770403,-0.60893786,-0.022013446,-0.021517288,0.047441907,7.3818426,32.797794,0.09318458,3.1193026e-06,-1.9055238e-05,1.29415475e-05,0.0003982406,-1.8433113e-06,-0.0008909217,0.19757862,-0.01817812,0.48799643,0.012507037,-0.008393691,0.0010400554,0.0,0.0,3.1586027e-05,4.889756e-06,4.9015266e-06,5.2549643e-05,0.010610193,0.0106234485,0.010915114,0.07040799,0.07041405,0.17880057,1.0184619e-11,1.0222301e-11,2.867315e-11,5.0000036e-08,5.0000036e-08,5.0000036e-08,0.0,0.0,0.0,0.0,0.0,0.0,0.0,0.0,24
898040000,897960000,0.7932207,0.0034677517,0.0008256492,-0.6089239,-0.018160291,-0.019739097,0.062621824,7.384019,32.802395,0.1224899,2.966014e-06,-1.9163548e-05,1.2769336e-05,0.00040311343,-9.35135e-06,-0.00088334194,0.19757862,-0.01817812,0.48799643,0.012507037,-0.008393691,0.0010400554,0.0,0.0,3.178218e-05,4.3832383e-06,4.392719e-06,5.270167e-05,0.011312076,0.0113229435,0.009957964,0.06929822,0.06930429,0.17560111,1.018362e-11,1.0212222e-11,2.8441652e-11,5.0000075e-08,5.0000075e-08,5.0000036e-08,0.0,0.0,0.0,0.0,0.0,0.0,0.0,0.0,24
899040000,898960000,0.7935934,0.0043538124,0.0007812465,-0.6084324,0.0004421024,-0.00054000126,0.00013044426,7.396137,32.818214,-0.011896921,2.6594055e-06,-1.9432842e-05,1.2593638e-05,0.00043010406,-4.0414045e-05,-0.00077863433,0.19757862,-0.01817812,0.48799643,0.012507037,-0.008393691,0.0010400554,0.0,0.0,3.1905685e-05,2.417702e-06,2.4232882e-06,5.286029e-05,3.317891e-05,3.3179283e-05,3.320389e-05,0.04224522,0.042241573,0.09330579,9.699575e-12,9.712336e-12,2.8209924e-11,5.0000146e-08,5.0000146e-08,5.0000146e-08,0.0,0.0,0.0,0.0,0.0,0.0,0.0,0.0,24
900032000,899952000,0.79365134,0.0039183283,0.0005578417,-0.6083602,0.0017831133,-0.0015029034,0.003087252,7.3972077,32.8175,0.0057671187,2.6681398e-06,-1.9438825e-05,1.2416853e-05,4.230298e-05,-8.4948355e-05,9.7735756e-05,0.19757862,-0.01817812,0.48799643,0.012507037,-0.008393691,0.0010400554,0.0,0.0,3.2048192e-05,2.944889e-06,2.9501432e-06,5.2956544e-05,0.00024667144,0.0002466753,0.00024502995,0.03590566,0.035902966,0.082333535,1.0133421e-11,1.0145248e-11,2.7978047e-11,1.5651351e-07,1.5644947e-07,9.6318445e-08,0.0,0.0,0.0,0.0,0.0,0.0,0.0,0.0,24
