timestamp,x,y,z,yaw,yawspeed,vx,vy,vz,acceleration[0],acceleration[1],acceleration[2],jerk[0],jerk[1],jerk[2],thrust[0],thrust[1],thrust[2]
829244000,-0.44873968,-1.1149832,0.14132428,-1.1102686,0.00061130716,-9.536559e-09,0.00051198504,0.699488,-5.9604645e-07,0.063999064,-0.063999064,0.0,4.0,-4.0,nan,nan,nan
829268000,-0.44876674,-1.1150061,0.14692244,nan,0.0,-5.09191e-07,-0.0010340014,0.69884807,-2.1219254e-05,-0.06528151,-0.095997214,0.0,0.0,-4.0,nan,nan,nan
829444000,-0.44927064,-1.1156696,0.14174144,nan,0.0,0.00051196944,-0.00051196944,0.69948804,0.06399809,-0.06399809,-0.06399809,4.0,-4.0,-4.0,nan,nan,nan
829644000,-0.4498484,-1.1162788,0.14152193,nan,0.0,0.00051197596,-0.00051197596,0.699488,0.0639985,-0.0639985,-0.0639985,4.0,-4.0,-4.0,nan,nan,nan
829844000,-0.4498945,-1.1167244,0.14168775,nan,0.0,0.00051197695,-0.00051197695,0.699488,0.06399856,-0.06399856,-0.06399856,4.0,-4.0,-4.0,nan,nan,nan
830044000,-0.44944578,-1.1171147,0.1418427,nan,0.0,0.00051196414,-0.00051196414,0.69948804,0.06399776,-0.06399776,-0.06399776,4.0,-4.0,-4.0,nan,nan,nan
830244000,-0.44889438,-1.1174407,0.14198314,nan,0.0,0.0005119929,-0.0005119929,0.699488,0.063999556,-0.063999556,-0.063999556,4.0,-4.0,-4.0,nan,nan,nan
830444000,-0.4489327,-1.1169103,0.14177707,nan,0.0,0.0005119639,-0.0005119639,0.69948804,0.063997746,-0.063997746,-0.063997746,4.0,-4.0,-4.0,nan,nan,nan
830644000,-0.44918656,-1.1167936,0.14147815,nan,0.0,0.0005119811,-0.0005119811,0.699488,0.06399882,-0.06399882,-0.06399882,4.0,-4.0,-4.0,nan,nan,nan
830844000,-0.4490236,-1.1169889,0.14134954,nan,0.0,0.0005119737,-0.0005119737,0.69948804,0.06399836,-0.06399836,-0.06399836,4.0,-4.0,-4.0,nan,nan,nan
831044000,-0.44849595,-1.1172137,0.14104311,nan,0.0,0.00051197404,-0.00051197404,0.69948804,0.06399838,-0.06399838,-0.06399838,4.0,-4.0,-4.0,nan,nan,nan
831244000,-0.4482533,-1.1176502,0.14071709,nan,0.0,0.0005119822,-0.0005119822,0.699488,0.063998885,-0.063998885,-0.063998885,4.0,-4.0,-4.0,nan,nan,nan
831444000,-0.44783854,-1.1178082,0.14049573,nan,0.0,0.00051198096,-0.00051198096,0.699488,0.06399881,-0.06399881,-0.06399881,4.0,-4.0,-4.0,nan,nan,nan
831644000,-0.44781604,-1.1179762,0.14075263,nan,0.0,0.0005119855,-0.0005119855,0.699488,0.063999094,-0.063999094,-0.063999094,4.0,-4.0,-4.0,nan,nan,nan
831844000,-0.44820648,-1.11792,0.14064252,nan,0.0,0.00051197753,-0.00051197753,0.699488,0.063998595,-0.063998595,-0.063998595,4.0,-4.0,-4.0,nan,nan,nan
832044000,-0.44854847,-1.1176097,0.14012481,nan,0.0,0.0005119675,-0.0005119675,0.69948804,0.06399797,-0.06399797,-0.06399797,4.0,-4.0,-4.0,nan,nan,nan
832244000,-0.44908717,-1.116824,0.14034697,nan,0.0,0.00051195215,-0.00051195215,0.69948804,0.06399701,-0.06399701,-0.06399701,4.0,-4.0,-4.0,nan,nan,nan
832444000,-0.4498593,-1.11627,0.13945957,nan,0.0,0.0005119936,-0.0005119936,0.699488,0.0639996,-0.0639996,-0.0639996,4.0,-4.0,-4.0,nan,nan,nan
832644000,-0.44982356,-1.1165882,0.13872886,nan,0.0,0.00051198836,-0.00051198836,0.699488,0.06399927,-0.06399927,-0.06399927,4.0,-4.0,-4.0,nan,nan,nan
832844000,-0.45000395,-1.1167938,0.13907787,nan,0.0,0.00051198265,-0.00051198265,0.699488,0.063998915,-0.063998915,-0.063998915,4.0,-4.0,-4.0,nan,nan,nan
833044000,-0.44962794,-1.1165924,0.13964581,nan,0.0,0.00051197346,-0.00051197346,0.69948804,0.06399834,-0.06399834,-0.06399834,4.0,-4.0,-4.0,nan,nan,nan
833244000,-0.4495434,-1.1157686,0.14029938,nan,0.0,0.000511963,-0.000511963,0.69948804,0.063997686,-0.063997686,-0.063997686,4.0,-4.0,-4.0,nan,nan,nan
833436000,nan,nan,nan,nan,nan,0.0,0.0,-0.0,nan,nan,nan,0.0,0.0,0.0,nan,nan,nan
833640000,nan,nan,nan,nan,nan,0.0,0.0,-0.0,nan,nan,nan,0.0,0.0,0.0,nan,nan,nan
833840000,nan,nan,nan,nan,nan,0.0,0.0,-0.0,nan,nan,nan,0.0,0.0,0.0,nan,nan,nan
834044000,nan,nan,nan,nan,nan,0.0,0.0,-0.0,nan,nan,nan,0.0,0.0,0.0,nan,nan,nan
834244000,nan,nan,nan,nan,nan,0.0,0.0,-0.0,nan,nan,nan,0.0,0.0,0.0,nan,nan,nan
834436000,nan,nan,nan,nan,nan,0.0,0.0,-0.0,nan,nan,nan,0.0,0.0,0.0,nan,nan,nan
834632000,nan,nan,nan,nan,nan,0.0,0.0,-0.0,nan,nan,nan,0.0,0.0,0.0,nan,nan,nan
834836000,nan,nan,nan,nan,nan,0.0,0.0,-0.0,nan,nan,nan,0.0,0.0,0.0,nan,nan,nan
835040000,nan,nan,nan,nan,nan,0.0,0.0,-0.0,nan,nan,nan,0.0,0.0,0.0,nan,nan,nan
835240000,nan,nan,nan,nan,nan,0.0,0.0,-0.0,nan,nan,nan,0.0,0.0,0.0,nan,nan,nan
835436000,-0.45589912,-1.1141125,0.12817383,-1.1087146,0.0,nan,nan,nan,nan,nan,nan,0.0,0.0,0.0,nan,nan,nan
835640000,-0.45589912,-1.1141125,0.09979248,-1.1087328,0.0,nan,nan,nan,nan,nan,nan,0.0,0.0,0.0,nan,nan,nan
835840000,-0.45589912,-1.1141125,0.013580322,-1.1090095,0.0,nan,nan,nan,nan,nan,nan,0.0,0.0,0.0,nan,nan,nan
836044000,-0.45589912,-1.1141125,-0.1587677,-1.1091312,0.0,nan,nan,nan,nan,nan,nan,0.0,0.0,0.0,nan,nan,nan
836244000,-0.45589912,-1.1141125,-0.40644836,-1.1087707,0.0,nan,nan,nan,nan,nan,nan,0.0,0.0,0.0,nan,nan,nan
836448000,-0.45589912,-1.1141125,-0.696167,-1.1082016,0.0,nan,nan,nan,nan,nan,nan,0.0,0.0,0.0,nan,nan,nan
836644000,-0.45589912,-1.1141125,-0.9983368,-1.1075155,0.0,nan,nan,nan,nan,nan,nan,0.0,0.0,0.0,nan,nan,nan
836844000,-0.45589912,-1.1141125,-1.2997437,-1.1077019,0.0,nan,nan,nan,nan,nan,nan,0.0,0.0,0.0,nan,nan,nan
837048000,-0.45589912,-1.1141125,-1.6006927,-1.106582,0.0,nan,nan,nan,nan,nan,nan,0.0,0.0,0.0,nan,nan,nan
837248000,-0.45589912,-1.1141125,-1.885437,-1.104212,0.0,nan,nan,nan,nan,nan,nan,0.0,0.0,0.0,nan,nan,nan
837448000,-0.45589912,-1.1141125,-2.1210022,-1.1049654,0.0,nan,nan,nan,nan,nan,nan,0.0,0.0,0.0,nan,nan,nan
837652000,-0.45589912,-1.1141125,-2.2758179,-1.1050768,0.0,nan,nan,nan,nan,nan,nan,0.0,0.0,0.0,nan,nan,nan
837852000,-0.45589912,-1.1141125,-2.3483887,-1.1050965,0.0,nan,nan,nan,nan,nan,nan,0.0,0.0,0.0,nan,nan,nan
838052000,-0.45589912,-1.1141125,-2.3690948,-1.1050363,0.0,nan,nan,nan,nan,nan,nan,0.0,0.0,0.0,nan,nan,nan
838252000,-0.45589912,-1.1141125,-2.370163,-1.105055,0.0,nan,nan,nan,nan,nan,nan,0.0,0.0,0.0,nan,nan,nan
838456000,-0.45589912,-1.1141125,-2.370163,-1.1050932,0.0,nan,nan,nan,nan,nan,nan,0.0,0.0,0.0,nan,nan,nan
838656000,-0.45589912,-1.1141125,-2.370163,-1.0712553,0.0,nan,nan,nan,nan,nan,nan,0.0,0.0,0.0,nan,nan,nan
838844000,-0.45589912,-1.1141125,-2.370163,-1.0780458,0.0,nan,nan,nan,nan,nan,nan,0.0,0.0,0.0,nan,nan,nan
839040000,-0.45589912,-1.1141125,-2.370163,-1.0817147,0.0,nan,nan,nan,nan,nan,nan,0.0,0.0,0.0,nan,nan,nan
839252000,-0.45589912,-1.1141125,-2.370163,-1.0841415,0.0,nan,nan,nan,nan,nan,nan,0.0,0.0,0.0,nan,nan,nan
839440000,-0.45589912,-1.1141125,-2.370163,-1.0859244,0.0,nan,nan,nan,nan,nan,nan,0.0,0.0,0.0,nan,nan,nan
839644000,-0.45589912,-1.1141125,-2.370163,-1.0876443,0.0,nan,nan,nan,nan,nan,nan,0.0,0.0,0.0,nan,nan,nan
839848000,-0.45589912,-1.1141125,-2.370163,-1.0891336,0.0,nan,nan,nan,nan,nan,nan,0.0,0.0,0.0,nan,nan,nan
840052000,-0.45589912,-1.1141125,-2.370163,-1.089979,0.0,nan,nan,nan,nan,nan,nan,0.0,0.0,0.0,nan,nan,nan
840232000,nan,nan,nan,nan,nan,0.0,0.0,-0.0,nan,nan,nan,0.0,0.0,0.0,nan,nan,nan
840436000,-0.50037706,-1.130741,-2.1009064,-1.0907532,0.0,nan,nan,nan,nan,nan,nan,0.0,0.0,0.0,nan,nan,nan
840636000,-0.50037706,-1.1057982,-2.1295776,-1.0863112,0.0,nan,nan,nan,nan,nan,nan,0.0,0.0,0.0,nan,nan,nan
840832000,-0.5003771,-1.0143412,-2.212967,-1.0764484,0.0,nan,nan,nan,nan,nan,nan,0.0,0.0,0.0,nan,nan,nan
841032000,-0.5003771,-0.83974147,-2.3424377,-1.0656905,0.0,nan,nan,nan,nan,nan,nan,0.0,0.0,0.0,nan,nan,nan
841236000,-0.5003772,-0.54874194,-2.4871674,-1.059052,0.0,nan,nan,nan,nan,nan,nan,0.0,0.0,0.0,nan,nan,nan
841436000,-0.51149666,-0.15797117,-2.6313934,-1.0577945,0.0,nan,nan,nan,nan,nan,nan,0.0,0.0,0.0,nan,nan,nan
841636000,-0.51149666,0.30762807,-2.7760925,-1.0644791,0.0,nan,nan,nan,nan,nan,nan,0.0,0.0,0.0,nan,nan,nan
841836000,-0.5114966,0.79817015,-2.9209747,-1.0625046,0.0,nan,nan,nan,nan,nan,nan,0.0,0.0,0.0,nan,nan,nan
842036000,-0.51149654,1.3053408,-3.065445,-1.0593151,0.0,nan,nan,nan,nan,nan,nan,0.0,0.0,0.0,nan,nan,nan
842236000,-0.5114964,1.8041971,-3.2097168,-1.0586241,0.0,nan,nan,nan,nan,nan,nan,0.0,0.0,0.0,nan,nan,nan
842436000,-0.5114963,2.3030534,-3.3540344,-1.0590557,0.0,nan,nan,nan,nan,nan,nan,0.0,0.0,0.0,nan,nan,nan
842640000,-0.5226156,2.810224,-3.4996033,-1.0624156,0.0,nan,nan,nan,nan,nan,nan,0.0,0.0,0.0,nan,nan,nan
842840000,-0.5226154,3.3090804,-3.6444702,-1.0658673,0.0,nan,nan,nan,nan,nan,nan,0.0,0.0,0.0,nan,nan,nan
843036000,-0.52261513,3.8162508,-3.7890778,-1.0663769,0.0,nan,nan,nan,nan,nan,nan,0.0,0.0,0.0,nan,nan,nan
843244000,-0.52261484,4.3151073,-3.93396,-1.0668155,0.0,nan,nan,nan,nan,nan,nan,0.0,0.0,0.0,nan,nan,nan
843444000,-0.52261454,4.8139634,-4.078659,-1.0709844,0.0,nan,nan,nan,nan,nan,nan,0.0,0.0,0.0,nan,nan,nan
843644000,-0.53373367,5.321134,-4.223053,-1.0780944,0.0,nan,nan,nan,nan,nan,nan,0.0,0.0,0.0,nan,nan,nan
843848000,-0.5337333,5.8199906,-4.3674774,-1.0832084,0.0,nan,nan,nan,nan,nan,nan,0.0,0.0,0.0,nan,nan,nan
844048000,-0.5337329,6.3188467,-4.511734,-1.0840731,0.0,nan,nan,nan,nan,nan,nan,0.0,0.0,0.0,nan,nan,nan
844248000,-0.5337324,6.8177032,-4.6562805,-1.090026,0.0,nan,nan,nan,nan,nan,nan,0.0,0.0,0.0,nan,nan,nan
844448000,-0.53373194,7.324874,-4.800583,-1.0922824,0.0,nan,nan,nan,nan,nan,nan,0.0,0.0,0.0,nan,nan,nan
844652000,-0.5448509,7.82373,-4.944931,-1.0993189,0.0,nan,nan,nan,nan,nan,nan,0.0,0.0,0.0,nan,nan,nan
844852000,-0.5448503,8.322586,-5.0894012,-1.1072506,0.0,nan,nan,nan,nan,nan,nan,0.0,0.0,0.0,nan,nan,nan
845052000,-0.5448497,8.829757,-5.235428,-1.1112651,0.0,nan,nan,nan,nan,nan,nan,0.0,0.0,0.0,nan,nan,nan
845248000,-0.54484904,9.336927,-5.380768,-1.1085991,0.0,nan,nan,nan,nan,nan,nan,0.0,0.0,0.0,nan,nan,nan
845444000,-0.5448484,9.835784,-5.525116,-1.1096601,0.0,nan,nan,nan,nan,nan,nan,0.0,0.0,0.0,nan,nan,nan
845648000,-0.5448477,10.3346405,-5.6698456,-1.1140264,0.0,nan,nan,nan,nan,nan,nan,0.0,0.0,0.0,nan,nan,nan
845848000,-0.55596644,10.841811,-5.814392,-1.1226577,0.0,nan,nan,nan,nan,nan,nan,0.0,0.0,0.0,nan,nan,nan
846052000,-0.55596566,11.340667,-5.958679,-1.130749,0.0,nan,nan,nan,nan,nan,nan,0.0,0.0,0.0,nan,nan,nan
846252000,-0.5559649,11.839523,-6.103119,-1.1339754,0.0,nan,nan,nan,nan,nan,nan,0.0,0.0,0.0,nan,nan,nan
846456000,-0.555964,12.346694,-6.2492523,-1.1306709,0.0,nan,nan,nan,nan,nan,nan,0.0,0.0,0.0,nan,nan,nan
846656000,-0.55596316,12.845551,-6.393448,-1.1315076,0.0,nan,nan,nan,nan,nan,nan,0.0,0.0,0.0,nan,nan,nan
846856000,-0.5670817,13.344407,-6.5378265,-1.1369754,0.0,nan,nan,nan,nan,nan,nan,0.0,0.0,0.0,nan,nan,nan
847060000,-0.56708074,13.851578,-6.682556,-1.1461134,0.0,nan,nan,nan,nan,nan,nan,0.0,0.0,0.0,nan,nan,nan
847260000,-0.5670798,14.350433,-6.826584,-1.1538206,0.0,nan,nan,nan,nan,nan,nan,0.0,0.0,0.0,nan,nan,nan
847460000,-0.56707877,14.84929,-6.971756,-1.1563609,0.0,nan,nan,nan,nan,nan,nan,0.0,0.0,0.0,nan,nan,nan
847660000,-0.5670777,15.356461,-7.1161346,-1.1517172,0.0,nan,nan,nan,nan,nan,nan,0.0,0.0,0.0,nan,nan,nan
847860000,-0.5781961,15.855317,-7.2605133,-1.1525588,0.0,nan,nan,nan,nan,nan,nan,0.0,0.0,0.0,nan,nan,nan
848060000,-0.578195,16.354174,-7.405182,-1.1580408,0.0,nan,nan,nan,nan,nan,nan,0.0,0.0,0.0,nan,nan,nan
848260000,-0.5781938,16.861343,-7.550415,-1.167046,0.0,nan,nan,nan,nan,nan,nan,0.0,0.0,0.0,nan,nan,nan
848460000,-0.5781926,17.3602,-7.694687,-1.1744361,0.0,nan,nan,nan,nan,nan,nan,0.0,0.0,0.0,nan,nan,nan
848660000,-0.5781914,17.859056,-7.8390656,-1.1766826,0.0,nan,nan,nan,nan,nan,nan,0.0,0.0,0.0,nan,nan,nan
848856000,-0.5781901,18.366228,-7.9839325,-1.1767896,0.0,nan,nan,nan,nan,nan,nan,0.0,0.0,0.0,nan,nan,nan
849060000,-0.5893083,18.865084,-8.128265,-1.1790404,0.0,nan,nan,nan,nan,nan,nan,0.0,0.0,0.0,nan,nan,nan
849224000,-0.58930725,19.272484,-8.245178,-1.1841137,0.0,nan,nan,nan,nan,nan,nan,0.0,0.0,0.0,nan,nan,nan
849424000,-0.5893059,19.763025,-8.388306,-1.1908759,0.0,nan,nan,nan,nan,nan,nan,0.0,0.0,0.0,nan,nan,nan
849628000,-0.58930445,20.270195,-8.532837,-1.1940029,0.0,nan,nan,nan,nan,nan,nan,0.0,0.0,0.0,nan,nan,nan
849828000,-0.5893031,20.769053,-8.6772,-1.1941808,0.0,nan,nan,nan,nan,nan,nan,0.0,0.0,0.0,nan,nan,nan
850028000,-0.6004211,21.267908,-8.821701,-1.1956267,0.0,nan,nan,nan,nan,nan,nan,0.0,0.0,0.0,nan,nan,nan
850232000,-0.6004196,21.77508,-8.967529,-1.2013103,0.0,nan,nan,nan,nan,nan,nan,0.0,0.0,0.0,nan,nan,nan
850444000,-0.6266409,19.658272,-8.272351,-1.1945647,-0.10510204,0.027106583,2.4205132,-0.77349085,-0.020175934,-0.70400006,0.70400006,0.0,-4.0,4.0,nan,nan,nan
850644000,-0.6216302,20.122963,-8.407841,-1.1945647,-0.040588427,0.022975344,2.1997137,-0.5618609,-0.021001816,-1.504,1.2331495,0.0,-4.0,0.0,nan,nan,nan
850844000,-0.6174601,20.527496,-8.495549,-1.1945647,-0.015674483,0.018706618,1.8189135,-0.31523103,-0.021595716,-2.3039997,1.2331495,0.0,-4.0,0.0,nan,nan,nan
851044000,-0.6141545,20.83988,-8.533933,-1.1945647,-0.0060531897,0.014332836,1.2794654,-0.06860114,-0.022085428,-3.0,1.2331495,0.0,0.0,0.0,nan,nan,nan
851244000,-0.61173356,21.035776,-8.522988,-1.1945647,-0.002337628,0.009860062,0.6794654,0.17802876,-0.02260077,-3.0,1.2331495,0.0,0.0,0.0,nan,nan,nan
851444000,-0.6102181,21.111675,-8.462719,-1.1945647,-0.00090274797,0.005273878,0.0794654,0.42465863,-0.02322042,-3.0,1.2331495,0.0,0.0,0.0,nan,nan,nan
851644000,-0.6096633,21.084957,-8.374462,-1.1945647,-0.00034862425,0.001356588,-0.38151583,0.6308772,-0.023454785,-2.429425,1.2331495,0.0,4.0,0.0,nan,nan,nan
851844000,-0.6097265,21.001755,-8.265401,-1.1945647,-0.0001346321,-0.0021915138,-0.70325726,0.8012401,-0.023454785,-1.8243285,0.8733632,0.0,4.0,-4.0,nan,nan,nan
852044000,-0.61029744,20.881552,-8.141033,-1.1945647,-5.1992374e-05,-0.005619973,-0.9271919,0.8861691,-0.023454785,-1.2396361,0.28867084,0.0,4.0,-4.0,nan,nan,nan
852244000,-0.6113632,20.735607,-8.010927,-1.1945647,-2.0078474e-05,-0.009032103,-1.0652035,0.89443314,-0.023454785,-0.6577281,-0.032453716,0.0,4.0,0.0,nan,nan,nan
852444000,-0.6129419,20.573486,-7.8793783,-1.1945647,-7.753928e-06,-0.011855913,-1.1187055,0.88919026,0.0003566742,-0.067750886,-0.038456857,0.0,4.0,0.0,nan,nan,nan
852644000,-0.6147151,20.40661,-7.746001,-1.1945647,-2.9944208e-06,-0.011661352,-1.0835934,0.88292384,0.0020510554,0.5343105,-0.045007646,0.0,4.0,0.0,nan,nan,nan
852844000,-0.6164778,20.248585,-7.6106634,-1.1945647,-1.1563887e-06,-0.011196104,-0.95396596,0.87535423,0.0038285851,1.1500027,-0.053807974,0.0,4.0,0.0,nan,nan,nan
853044000,-0.61818695,20.114225,-7.4732866,-1.1945647,-4.465755e-07,-0.010419932,-0.7490117,0.86587214,0.0058330894,1.1875881,-0.066874266,0.0,-4.0,0.0,nan,nan,nan
853244000,-0.6197919,20.006649,-7.3335943,-1.1945647,-1.7245902e-07,-0.009288045,-0.5861955,0.85380644,0.007839292,0.80190665,-0.08119503,0.0,-4.0,0.0,nan,nan,nan
853444000,-0.6212227,19.918684,-7.192531,-1.1945647,-6.6600414e-08,-0.007866775,-0.4790731,0.8397222,0.008787155,0.4755799,-0.085977525,0.0,-4.0,0.0,nan,nan,nan
853644000,-0.62250537,19.838495,-7.0415926,-1.1945647,-2.5719823e-08,-0.0062725022,-0.41120774,0.8241232,0.008787155,0.2691156,-0.085977525,0.0,-4.0,0.0,nan,nan,nan
853844000,-0.6236542,19.761604,-6.877464,-1.1945647,-9.93251e-09,-0.0054729776,-0.359455,0.81804395,0.002915725,0.21705613,-0.0363784,0.0,-4.0,0.0,nan,nan,nan
854044000,-0.62468326,19.694256,-6.7146173,-1.1945647,-3.835748e-09,-0.004808671,-0.3150511,0.81021696,0.003375411,0.18798137,-0.041765936,0.0,-4.0,0.0,nan,nan,nan
854244000,-0.6255776,19.63524,-6.553408,-1.1945647,-1.4812935e-09,-0.00413359,-0.27601838,0.8018233,0.003375411,0.16307795,-0.044199124,0.0,-4.0,0.0,nan,nan,nan
854444000,-0.62634206,19.583553,-6.3939567,-1.1945647,-5.720476e-10,-0.0036256164,-0.24170235,0.7925721,0.0010974929,0.14107104,-0.047430567,0.0,-4.0,0.0,nan,nan,nan
854644000,-0.62702703,19.538301,-6.2363935,-1.1945647,-2.2091401e-10,-0.0032052067,-0.21155617,0.783086,0.0022461265,0.121640794,-0.047430567,0.0,-4.0,0.0,nan,nan,nan
854844000,-0.6276231,19.498705,-6.080726,-1.1945647,-8.531281e-11,-0.002755981,-0.18509227,0.7735999,0.0022461265,0.10453859,-0.047430567,0.0,-4.0,0.0,nan,nan,nan
855044000,-0.62813747,19.464071,-5.9269285,-1.1945647,-3.29462e-11,-0.0024433099,-0.16188534,0.7653904,0.0014476255,0.0895256,-0.030106157,0.0,-4.0,0.0,nan,nan,nan
855244000,-0.6285944,19.433786,-5.7746534,-1.1945647,-1.27232e-11,-0.0021251875,-0.1415489,0.75707346,0.0015954599,0.07643864,-0.043272424,0.0,-4.0,0.0,nan,nan,nan
855444000,-0.62898785,19.407295,-5.624105,-1.1945647,-4.91346e-12,-0.0018381872,-0.12372683,0.74841887,-0.0004427284,0.06512868,-0.043272424,0.0,-4.0,0.0,nan,nan,nan
855656000,-0.6559722,33.43169,-12.594208,-1.2090325,0.0,nan,nan,nan,nan,nan,nan,0.0,0.0,0.0,nan,nan,nan
855856000,-0.6559722,33.43169,-12.594208,-1.2154105,0.0,nan,nan,nan,nan,nan,nan,0.0,0.0,0.0,nan,nan,nan
856052000,-0.6559722,33.43169,-12.594208,-1.2169065,0.0,nan,nan,nan,nan,nan,nan,0.0,0.0,0.0,nan,nan,nan
856244000,-0.6559722,33.43169,-12.594208,-1.2169641,0.0,nan,nan,nan,nan,nan,nan,0.0,0.0,0.0,nan,nan,nan
856452000,-0.6559722,33.43169,-12.594208,-1.2188256,0.0,nan,nan,nan,nan,nan,nan,0.0,0.0,0.0,nan,nan,nan
856652000,-0.6559722,33.43169,-12.594208,-1.2215083,0.0,nan,nan,nan,nan,nan,nan,0.0,0.0,0.0,nan,nan,nan
856852000,-0.6559722,33.43169,-12.594208,-1.2218539,0.0,nan,nan,nan,nan,nan,nan,0.0,0.0,0.0,nan,nan,nan
857056000,-0.6559722,33.43169,-12.594208,-1.22271,0.0,nan,nan,nan,nan,nan,nan,0.0,0.0,0.0,nan,nan,nan
857256000,-0.6559722,33.43169,-12.594208,-1.2280478,0.0,nan,nan,nan,nan,nan,nan,0.0,0.0,0.0,nan,nan,nan
857456000,-0.6559722,33.43169,-12.594208,-1.2362545,0.0,nan,nan,nan,nan,nan,nan,0.0,0.0,0.0,nan,nan,nan
857660000,-0.6559722,33.43169,-12.594208,-1.2423126,0.0,nan,nan,nan,nan,nan,nan,0.0,0.0,0.0,nan,nan,nan
857860000,-0.6559722,33.43169,-12.594208,-1.2436177,0.0,nan,nan,nan,nan,nan,nan,0.0,0.0,0.0,nan,nan,nan
858052000,-0.6559722,33.43169,-12.594208,-1.2700567,0.0,nan,nan,nan,nan,nan,nan,0.0,0.0,0.0,nan,nan,nan
858248000,-0.6559722,33.43169,-12.594208,-1.2715503,0.0,nan,nan,nan,nan,nan,nan,0.0,0.0,0.0,nan,nan,nan
858448000,-0.6559722,33.43169,-12.594208,-1.2725446,0.0,nan,nan,nan,nan,nan,nan,0.0,0.0,0.0,nan,nan,nan
858652000,-0.6559722,33.43169,-12.594208,-1.2625159,0.0,nan,nan,nan,nan,nan,nan,0.0,0.0,0.0,nan,nan,nan
858772000,-0.6559722,33.43169,-12.594208,-1.2633101,0.0,nan,nan,nan,nan,nan,nan,0.0,0.0,0.0,nan,nan,nan
859060000,-0.46694702,32.068146,-12.1801605,-1.249348,0.0,nan,nan,nan,nan,nan,nan,0.0,0.0,0.0,nan,nan,nan
859264000,-0.46694702,32.068146,-12.1801605,-1.2484187,0.0,nan,nan,nan,nan,nan,nan,0.0,0.0,0.0,nan,nan,nan
859424000,-0.46694702,32.068146,-12.1801605,-1.2493172,0.0,nan,nan,nan,nan,nan,nan,0.0,0.0,0.0,nan,nan,nan
859624000,-0.46694702,32.068146,-12.1801605,-1.2525933,0.0,nan,nan,nan,nan,nan,nan,0.0,0.0,0.0,nan,nan,nan
859824000,-0.46694702,32.068146,-12.1801605,-1.2613615,0.0,nan,nan,nan,nan,nan,nan,0.0,0.0,0.0,nan,nan,nan
860024000,-0.46694702,32.068146,-12.1801605,-1.2715442,0.0,nan,nan,nan,nan,nan,nan,0.0,0.0,0.0,nan,nan,nan
860228000,-0.46694702,32.068146,-12.1801605,-1.2780597,0.0,nan,nan,nan,nan,nan,nan,0.0,0.0,0.0,nan,nan,nan
860428000,-0.46694702,32.068146,-12.1801605,-1.2793174,0.0,nan,nan,nan,nan,nan,nan,0.0,0.0,0.0,nan,nan,nan
860632000,-0.46694702,32.068146,-12.1801605,-1.2665445,0.0,nan,nan,nan,nan,nan,nan,0.0,0.0,0.0,nan,nan,nan
860832000,-0.46694702,32.068146,-12.1801605,-1.2686878,0.0,nan,nan,nan,nan,nan,nan,0.0,0.0,0.0,nan,nan,nan
861032000,-0.46694702,32.068146,-12.1801605,-1.273377,0.0,nan,nan,nan,nan,nan,nan,0.0,0.0,0.0,nan,nan,nan
861236000,-0.46694702,32.068146,-12.1801605,-1.2760342,0.0,nan,nan,nan,nan,nan,nan,0.0,0.0,0.0,nan,nan,nan
861432000,-0.46694702,32.068146,-12.1801605,-1.2695566,0.0,nan,nan,nan,nan,nan,nan,0.0,0.0,0.0,nan,nan,nan
861628000,-0.46694702,32.068146,-12.1801605,-1.270398,0.0,nan,nan,nan,nan,nan,nan,0.0,0.0,0.0,nan,nan,nan
861832000,-0.46694702,32.068146,-12.1801605,-1.2737566,0.0,nan,nan,nan,nan,nan,nan,0.0,0.0,0.0,nan,nan,nan
862036000,-0.46694702,32.068146,-12.1801605,-1.2757394,0.0,nan,nan,nan,nan,nan,nan,0.0,0.0,0.0,nan,nan,nan
862236000,-0.46694702,32.068146,-12.1801605,-1.2758476,0.0,nan,nan,nan,nan,nan,nan,0.0,0.0,0.0,nan,nan,nan
862428000,-0.46694702,32.068146,-12.1801605,-1.2767898,0.0,nan,nan,nan,nan,nan,nan,0.0,0.0,0.0,nan,nan,nan
862632000,-0.46694702,32.068146,-12.1801605,-1.2746943,0.0,nan,nan,nan,nan,nan,nan,0.0,0.0,0.0,nan,nan,nan
862836000,-0.46694702,32.068146,-12.1801605,-1.2755,0.0,nan,nan,nan,nan,nan,nan,0.0,0.0,0.0,nan,nan,nan
863036000,-0.46694702,32.068146,-12.1801605,-1.277474,0.0,nan,nan,nan,nan,nan,nan,0.0,0.0,0.0,nan,nan,nan
863240000,-0.46694702,32.068146,-12.1801605,-1.277716,0.0,nan,nan,nan,nan,nan,nan,0.0,0.0,0.0,nan,nan,nan
863440000,-0.46694702,32.068146,-12.1801605,-1.278174,0.0,nan,nan,nan,nan,nan,nan,0.0,0.0,0.0,nan,nan,nan
863640000,-0.46694702,32.068146,-12.1801605,-1.2766778,0.0,nan,nan,nan,nan,nan,nan,0.0,0.0,0.0,nan,nan,nan
863852000,-0.46694702,32.068146,-12.1801605,-1.2777544,0.0,nan,nan,nan,nan,nan,nan,0.0,0.0,0.0,nan,nan,nan
864056000,-0.46694702,32.068146,-12.1801605,-1.2785463,0.0,nan,nan,nan,nan,nan,nan,0.0,0.0,0.0,nan,nan,nan
864220000,-0.46694702,32.068146,-12.1801605,-1.2785977,0.0,nan,nan,nan,nan,nan,nan,0.0,0.0,0.0,nan,nan,nan
864424000,-0.46694702,32.068146,-12.1801605,-1.2787861,0.0,nan,nan,nan,nan,nan,nan,0.0,0.0,0.0,nan,nan,nan
864660000,-0.46694702,32.068146,-12.1801605,-1.2789612,0.0,nan,nan,nan,nan,nan,nan,0.0,0.0,0.0,nan,nan,nan
864856000,-0.46694702,32.068146,-12.1801605,-1.2777349,0.0,nan,nan,nan,nan,nan,nan,0.0,0.0,0.0,nan,nan,nan
865064000,-0.46694702,32.068146,-12.1801605,-1.2788968,0.0,nan,nan,nan,nan,nan,nan,0.0,0.0,0.0,nan,nan,nan
865228000,-0.46694702,32.068146,-12.1801605,-1.2789934,0.0,nan,nan,nan,nan,nan,nan,0.0,0.0,0.0,nan,nan,nan
865436000,-0.46694702,32.068146,-12.1801605,-1.2783775,0.0,nan,nan,nan,nan,nan,nan,0.0,0.0,0.0,nan,nan,nan
865632000,-0.46694702,32.068146,-12.1801605,-1.2788441,0.0,nan,nan,nan,nan,nan,nan,0.0,0.0,0.0,nan,nan,nan
865836000,-0.46694702,32.068146,-12.1801605,-1.2785342,0.0,nan,nan,nan,nan,nan,nan,0.0,0.0,0.0,nan,nan,nan
866032000,-0.46694702,32.068146,-12.1801605,-1.2790121,0.0,nan,nan,nan,nan,nan,nan,0.0,0.0,0.0,nan,nan,nan
866228000,-0.46694702,32.068146,-12.1801605,-1.2787142,0.0,nan,nan,nan,nan,nan,nan,0.0,0.0,0.0,nan,nan,nan
866444000,-0.46694702,32.068146,-12.1801605,-1.2791601,0.0,nan,nan,nan,nan,nan,nan,0.0,0.0,0.0,nan,nan,nan
866640000,-0.46694702,32.068146,-12.1801605,-1.2789619,0.0,nan,nan,nan,nan,nan,nan,0.0,0.0,0.0,nan,nan,nan
866840000,-0.46694702,32.068146,-12.1801605,-1.2793406,0.0,nan,nan,nan,nan,nan,nan,0.0,0.0,0.0,nan,nan,nan
867044000,-0.46694702,32.068146,-12.1801605,-1.2789016,0.0,nan,nan,nan,nan,nan,nan,0.0,0.0,0.0,nan,nan,nan
867248000,-0.46694702,32.068146,-12.1801605,-1.279363,0.0,nan,nan,nan,nan,nan,nan,0.0,0.0,0.0,nan,nan,nan
867448000,-0.46694702,32.068146,-12.1801605,-1.2790353,0.0,nan,nan,nan,nan,nan,nan,0.0,0.0,0.0,nan,nan,nan
867652000,-0.46694702,32.068146,-12.1801605,-1.2793748,0.0,nan,nan,nan,nan,nan,nan,0.0,0.0,0.0,nan,nan,nan
867856000,-0.46694702,32.068146,-12.1801605,-1.279072,0.0,nan,nan,nan,nan,nan,nan,0.0,0.0,0.0,nan,nan,nan
868056000,-0.46694702,32.068146,-12.1801605,-1.2794071,0.0,nan,nan,nan,nan,nan,nan,0.0,0.0,0.0,nan,nan,nan
868248000,-0.46694702,32.068146,-12.1801605,-1.279121,0.0,nan,nan,nan,nan,nan,nan,0.0,0.0,0.0,nan,nan,nan
868452000,-0.46694702,32.068146,-12.1801605,-1.2794077,0.0,nan,nan,nan,nan,nan,nan,0.0,0.0,0.0,nan,nan,nan
868656000,-0.46694702,32.068146,-12.1801605,-1.2789843,0.0,nan,nan,nan,nan,nan,nan,0.0,0.0,0.0,nan,nan,nan
868856000,-0.46694702,32.068146,-12.1801605,-1.2794076,0.0,nan,nan,nan,nan,nan,nan,0.0,0.0,0.0,nan,nan,nan
869052000,-0.46694702,32.068146,-12.1801605,-1.2788038,0.0,nan,nan,nan,nan,nan,nan,0.0,0.0,0.0,nan,nan,nan
869256000,-0.46694702,32.068146,-12.1801605,-1.2792645,0.0,nan,nan,nan,nan,nan,nan,0.0,0.0,0.0,nan,nan,nan
869456000,-0.46694702,32.068146,-12.1801605,-1.2786868,0.0,nan,nan,nan,nan,nan,nan,0.0,0.0,0.0,nan,nan,nan
869656000,-0.46694702,32.068146,-12.1801605,-1.2792596,0.0,nan,nan,nan,nan,nan,nan,0.0,0.0,0.0,nan,nan,nan
869860000,-0.46694702,32.068146,-12.1801605,-1.278567,0.0,nan,nan,nan,nan,nan,nan,0.0,0.0,0.0,nan,nan,nan
870060000,-0.46694702,32.068146,-12.1801605,-1.2791185,0.0,nan,nan,nan,nan,nan,nan,0.0,0.0,0.0,nan,nan,nan
870260000,-0.46694702,32.068146,-12.1801605,-1.2787133,0.0,nan,nan,nan,nan,nan,nan,0.0,0.0,0.0,nan,nan,nan
870464000,-0.46694702,32.068146,-12.1801605,-1.2790899,0.0,nan,nan,nan,nan,nan,nan,0.0,0.0,0.0,nan,nan,nan
870624000,-0.46694702,32.068146,-12.1801605,-1.2791221,0.0,nan,nan,nan,nan,nan,nan,0.0,0.0,0.0,nan,nan,nan
870864000,-0.46694702,32.068146,-12.1801605,-1.2788695,0.0,nan,nan,nan,nan,nan,nan,0.0,0.0,0.0,nan,nan,nan
871060000,-0.46694702,32.068146,-12.1801605,-1.2785206,0.0,nan,nan,nan,nan,nan,nan,0.0,0.0,0.0,nan,nan,nan
871252000,-0.46694702,32.068146,-12.1801605,-1.2788124,0.0,nan,nan,nan,nan,nan,nan,0.0,0.0,0.0,nan,nan,nan
871460000,-0.46694702,32.068146,-12.1801605,-1.2785791,0.0,nan,nan,nan,nan,nan,nan,0.0,0.0,0.0,nan,nan,nan
871620000,-0.46694702,32.068146,-12.1801605,-1.2786565,0.0,nan,nan,nan,nan,nan,nan,0.0,0.0,0.0,nan,nan,nan
871824000,-0.46694702,32.068146,-12.1801605,-1.2786049,0.0,nan,nan,nan,nan,nan,nan,0.0,0.0,0.0,nan,nan,nan
872028000,-0.46694702,32.068146,-12.1801605,-1.2786261,0.0,nan,nan,nan,nan,nan,nan,0.0,0.0,0.0,nan,nan,nan
872224000,-0.46694702,32.068146,-12.1801605,-1.2787604,0.0,nan,nan,nan,nan,nan,nan,0.0,0.0,0.0,nan,nan,nan
872428000,-0.46694702,32.068146,-12.1801605,-1.2785563,0.0,nan,nan,nan,nan,nan,nan,0.0,0.0,0.0,nan,nan,nan
872632000,-0.46694702,32.068146,-12.1801605,-1.278506,0.0,nan,nan,nan,nan,nan,nan,0.0,0.0,0.0,nan,nan,nan
872832000,-0.46694702,32.068146,-12.1801605,-1.2786179,0.0,nan,nan,nan,nan,nan,nan,0.0,0.0,0.0,nan,nan,nan
873036000,-0.46694702,32.068146,-12.1801605,-1.2784542,0.0,nan,nan,nan,nan,nan,nan,0.0,0.0,0.0,nan,nan,nan
873240000,-0.46694702,32.068146,-12.1801605,-1.2785903,0.0,nan,nan,nan,nan,nan,nan,0.0,0.0,0.0,nan,nan,nan
873436000,-0.46694702,32.068146,-12.1801605,-1.2783722,0.0,nan,nan,nan,nan,nan,nan,0.0,0.0,0.0,nan,nan,nan
873640000,-0.46694702,32.068146,-12.1801605,-1.2782427,0.0,nan,nan,nan,nan,nan,nan,0.0,0.0,0.0,nan,nan,nan
873852000,nan,nan,nan,nan,nan,0.0,0.0,-0.0,nan,nan,nan,0.0,0.0,0.0,nan,nan,nan
874052000,nan,nan,nan,nan,nan,0.0,0.0,-0.0,nan,nan,nan,0.0,0.0,0.0,nan,nan,nan
874252000,nan,nan,nan,nan,nan,0.0,0.0,-0.0,nan,nan,nan,0.0,0.0,0.0,nan,nan,nan
874456000,-0.52254456,32.051517,-12.162827,-1.2783052,0.0,nan,nan,nan,nan,nan,nan,0.0,0.0,0.0,nan,nan,nan
874656000,-0.5003055,32.07646,-12.174423,-1.278138,0.0,nan,nan,nan,nan,nan,nan,0.0,0.0,0.0,nan,nan,nan
874860000,-0.41134933,32.118034,-12.186493,-1.278307,0.0,nan,nan,nan,nan,nan,nan,0.0,0.0,0.0,nan,nan,nan
875056000,-0.2334373,32.15129,-12.198395,-1.2783912,0.0,nan,nan,nan,nan,nan,nan,0.0,0.0,0.0,nan,nan,nan
875260000,0.06678919,32.19286,-12.210358,-1.2797235,0.0,nan,nan,nan,nan,nan,nan,0.0,0.0,0.0,nan,nan,nan
875464000,0.45597163,32.23443,-12.222336,-1.2801436,0.0,nan,nan,nan,nan,nan,nan,0.0,0.0,0.0,nan,nan,nan
875648000,1.0341854,32.284313,-12.237152,-1.2784919,0.0,nan,nan,nan,nan,nan,nan,0.0,0.0,0.0,nan,nan,nan
875852000,1.5345628,32.317566,-12.249161,-1.2870617,0.0,nan,nan,nan,nan,nan,nan,0.0,0.0,0.0,nan,nan,nan
876060000,2.0349402,32.359135,-12.26123,-1.2865268,0.0,nan,nan,nan,nan,nan,nan,0.0,0.0,0.0,nan,nan,nan
876224000,2.4463615,32.39239,-12.270798,-1.2843422,0.0,nan,nan,nan,nan,nan,nan,0.0,0.0,0.0,nan,nan,nan
876428000,2.946739,32.43396,-12.282837,-1.2818711,0.0,nan,nan,nan,nan,nan,nan,0.0,0.0,0.0,nan,nan,nan
876628000,3.4471161,32.467216,-12.294815,-1.2887677,0.0,nan,nan,nan,nan,nan,nan,0.0,0.0,0.0,nan,nan,nan
876832000,3.9586132,32.508785,-12.306915,-1.288276,0.0,nan,nan,nan,nan,nan,nan,0.0,0.0,0.0,nan,nan,nan
877032000,4.4589906,32.550354,-12.318832,-1.2911348,0.0,nan,nan,nan,nan,nan,nan,0.0,0.0,0.0,nan,nan,nan
877236000,4.9593678,32.591923,-12.330841,-1.2956623,0.0,nan,nan,nan,nan,nan,nan,0.0,0.0,0.0,nan,nan,nan
877436000,5.470865,32.625175,-12.342804,-1.2973676,0.0,nan,nan,nan,nan,nan,nan,0.0,0.0,0.0,nan,nan,nan
877636000,5.971242,32.666744,-12.354782,-1.2969533,0.0,nan,nan,nan,nan,nan,nan,0.0,0.0,0.0,nan,nan,nan
877840000,6.471619,32.708313,-12.366852,-1.2984345,0.0,nan,nan,nan,nan,nan,nan,0.0,0.0,0.0,nan,nan,nan
878036000,6.971997,32.749886,-12.378738,-1.3050771,0.0,nan,nan,nan,nan,nan,nan,0.0,0.0,0.0,nan,nan,nan
878240000,7.4834933,32.78314,-12.390732,-1.3147198,0.0,nan,nan,nan,nan,nan,nan,0.0,0.0,0.0,nan,nan,nan
878440000,7.983871,32.824707,-12.4027405,-1.3222485,0.0,nan,nan,nan,nan,nan,nan,0.0,0.0,0.0,nan,nan,nan
879468000,7.319736,32.758854,-12.332731,-1.2864828,nan,1.2607452,0.10981049,0.0898931,0.0,0.0,0.0,0.0,0.0,0.0,nan,nan,nan
879484000,7.3399053,32.76061,-12.33129,-1.2990491,-0.058177646,1.2602332,0.10929849,0.0904051,-0.064,-0.064,0.064,-4.0,-4.0,4.0,nan,nan,nan
879668000,7.566552,32.779034,-12.309419,-1.3226523,-0.06288651,1.1807449,0.0905989,0.16989309,-0.8000001,-0.10493516,0.8000001,-4.0,0.0,4.0,nan,nan,nan
879868000,7.7813673,32.795013,-12.256919,-1.3226523,-0.02428558,0.94074476,0.06905332,0.35769764,-1.5999999,-0.10983264,0.9538083,-4.0,0.0,0.0,nan,nan,nan
880068000,7.9321837,32.806587,-12.166305,-1.3226523,-0.0093786325,0.5407449,0.04661607,0.5484593,-2.3999996,-0.1140747,0.9538083,-4.0,0.0,0.0,nan,nan,nan
880268000,7.99185,32.81358,-12.037536,-1.3226523,-0.0036218506,0.07403938,0.023308463,0.739221,-1.9978487,-0.11862408,0.9538083,4.0,0.0,0.0,nan,nan,nan
880468000,7.975006,32.81584,-11.882604,-1.3226523,-0.0013986904,-0.2309402,0.00078547274,0.91668266,-1.2572882,-0.12077742,0.867543,4.0,0.0,-4.0,nan,nan,nan
880668000,7.918474,32.814114,-11.711342,-1.3226523,-0.0005401479,-0.3903385,-0.020486113,1.0074383,-0.55279946,-0.12077742,0.16305411,4.0,0.0,-4.0,nan,nan,nan
880868000,7.8467207,32.808987,-11.538205,-1.3226523,-0.00020859492,-0.42630535,-0.034575205,1.0065275,0.13361248,0.0065606683,-0.033428308,4.0,0.0,0.0,nan,nan,nan
881068000,7.77972,32.803303,-11.368431,-1.3226523,-8.0555415e-05,-0.34950748,-0.032279726,1.0008733,0.6005997,0.019705161,-0.033428308,-4.0,0.0,0.0,nan,nan,nan
881268000,7.727506,32.798203,-11.19939,-1.3226523,-3.1108983e-05,-0.27798167,-0.027820783,1.0000025,0.25120398,0.029367313,0.003135968,-4.0,0.0,0.0,nan,nan,nan
881468000,7.683243,32.793903,-11.02893,-1.3226523,-1.2013703e-05,-0.24411114,-0.022814834,1.0000002,0.14542246,0.029367313,9.711832e-06,-4.0,0.0,0.0,nan,nan,nan
881668000,7.6434193,32.79006,-10.856265,-1.3226523,-4.6394653e-06,-0.21765868,-0.021218998,0.99999994,0.12516388,0.014179967,1.2926757e-06,-4.0,0.0,0.0,nan,nan,nan
881868000,7.607222,32.786537,-10.68009,-1.3226523,-1.7916741e-06,-0.19366361,-0.018720843,1.0,0.10901423,0.014179967,1.4044344e-06,-4.0,0.0,0.0,nan,nan,nan
882068000,7.5743713,32.783386,-10.500125,-1.3226523,-6.9191054e-07,-0.17182137,-0.016558737,1.0,0.09426738,0.0050299615,1.4044344e-06,-4.0,0.0,0.0,nan,nan,nan
882268000,7.5446973,32.78051,-10.316662,-1.3226523,-2.6720284e-07,-0.15203066,-0.014728188,1.0,0.08080373,0.010533825,1.4044344e-06,-4.0,0.0,0.0,nan,nan,nan
882468000,7.5180306,32.777946,-10.130118,-1.3226523,-1.031887e-07,-0.13419181,-0.012763167,1.0,0.068553746,0.010533825,1.4044344e-06,-4.0,0.0,0.0,nan,nan,nan
882668000,7.494209,32.77566,-9.941164,-1.3226523,-3.984953e-08,-0.1182091,-0.011448015,0.99878484,0.057415716,0.0080007315,-0.03844366,-4.0,0.0,0.0,nan,nan,nan
882868000,7.472851,32.77361,-9.749999,-1.3226523,-1.5389139e-08,-0.10391623,-0.0099075865,0.98752296,0.043068316,0.0080007315,-0.04306832,-4.0,0.0,4.0,nan,nan,nan
883068000,7.453396,32.77172,-9.553581,-1.3226523,-5.942995e-09,-0.09082351,-0.00877413,0.9766888,0.0376715,0.0063081607,-0.03767149,-4.0,0.0,4.0,nan,nan,nan
883268000,7.436387,32.770073,-9.359355,-1.3226523,-2.2950726e-09,-0.07936099,-0.007512499,0.96568835,0.034247786,0.0063081607,-0.03424779,-4.0,0.0,4.0,nan,nan,nan
883468000,7.4215226,32.768635,-9.1673155,-1.3226523,-8.863138e-10,-0.06931617,-0.0066238875,0.95480114,0.030450221,0.005279381,-0.030450225,-4.0,0.0,4.0,nan,nan,nan
883668000,7.408536,32.767384,-8.977443,-1.3226523,-3.4227762e-10,-0.0605155,-0.0058143656,0.9440089,0.025953397,0.0045372285,-0.025953397,-4.0,0.0,4.0,nan,nan,nan
883868000,7.3971972,32.766296,-8.789722,-1.3226523,-1.3218117e-10,-0.05281846,-0.005087948,0.9332228,0.021470882,0.0038544163,-0.021470882,-4.0,0.0,4.0,nan,nan,nan
884068000,7.3872995,32.765347,-8.604129,-1.3226523,-5.104587e-11,-0.046085045,-0.004430668,0.92272246,0.015706725,0.0021859668,-0.015706725,-4.0,0.0,4.0,nan,nan,nan
884268000,7.378662,32.76452,-8.420641,-1.3226523,-1.9712952e-11,-0.04021959,-0.003795004,0.91217315,0.014431,0.0032654032,-0.014431,-4.0,0.0,4.0,nan,nan,nan
884468000,7.371124,32.763798,-8.239266,-1.3226523,-7.61277e-12,-0.035101093,-0.0033187314,0.9015656,0.015310124,0.0029161908,-0.015310124,-4.0,0.0,4.0,nan,nan,nan
884668000,7.3645473,32.76317,-8.06002,-1.3226523,-2.9399079e-12,-0.03062666,-0.0029158161,0.8909419,0.014721081,0.0024154745,-0.014721081,-4.0,0.0,4.0,nan,nan,nan
884868000,7.3588123,32.762623,-7.882885,-1.3226523,-1.1353369e-12,-0.026717989,-0.0025583874,0.88044393,0.013706535,0.0020747036,-0.013706535,-4.0,0.0,4.0,nan,nan,nan
885068000,7.3538103,32.762142,-7.707831,-1.3226523,-4.3844572e-13,-0.023312937,-0.00224713,0.87007225,0.014441222,0.0016467944,-0.014441222,-4.0,0.0,4.0,nan,nan,nan
885268000,7.349454,32.761723,-7.5350003,-1.3226523,-1.6931947e-13,-0.020337176,-0.0019623064,0.85964954,0.013496373,0.0010599196,-0.013496377,-4.0,0.0,4.0,nan,nan,nan
885468000,7.3456697,32.761356,-7.364887,-1.3226523,-6.538798e-14,-0.017730754,-0.001693978,0.849445,0.012348849,0.00137306,-0.012348846,-4.0,0.0,4.0,nan,nan,nan
885668000,7.342385,32.76104,-7.19717,-1.3226523,-2.5251607e-14,-0.0153831905,-0.001484445,0.8395307,0.010278132,0.0012331232,-0.010278128,-4.0,0.0,4.0,nan,nan,nan
885868000,7.3395357,32.76076,-7.031967,-1.3226523,-9.751694e-15,-0.013553934,-0.0012985471,0.8298671,0.008718897,0.0010463372,-0.010545962,0.0,0.0,4.0,nan,nan,nan
886068000,7.337037,32.76052,-6.8688707,-1.3226523,-3.7659203e-15,-0.011715439,-0.001135644,0.820191,0.009351283,0.0009492487,-0.012038037,0.0,0.0,4.0,nan,nan,nan
886268000,7.334854,32.76031,-6.707946,-1.3226523,-1.4543274e-15,-0.010294819,-0.0009922697,0.8104406,0.007880192,0.00078416243,-0.011842623,0.0,0.0,4.0,nan,nan,nan
886468000,7.332956,32.760124,-6.5492597,-1.3226523,-5.6163377e-16,-0.009031407,-0.0008677776,0.80081224,0.0069323033,0.00071953237,-0.010350063,0.0,0.0,4.0,nan,nan,nan
886668000,7.3312945,32.759968,-6.392707,-1.3226523,-2.1689237e-16,-0.007908828,-0.00076121534,0.79138815,0.005750444,0.00057744235,-0.00884483,0.0,0.0,4.0,nan,nan,nan
886868000,7.3298464,32.759827,-6.2381773,-1.3226523,-8.3759746e-17,-0.0069241193,-0.00066675455,0.7822465,0.003963098,0.0004892573,-0.008220658,0.0,0.0,4.0,nan,nan,nan
887068000,7.328578,32.759697,-6.085387,-1.3226523,-3.2346435e-17,-0.0060560293,-0.00057063455,0.7731932,0.0038160197,0.0004892573,-0.0073893666,0.0,0.0,4.0,nan,nan,nan
887268000,7.327468,32.759598,-5.9344416,-1.3226523,-1.2491584e-17,-0.0052323155,-0.0005006398,0.7642424,0.0042280294,0.00039454922,-0.007685609,0.0,0.0,4.0,nan,nan,nan
887468000,7.326498,32.759502,-5.785331,-1.3226523,-4.824014e-18,-0.0045956424,-0.00044027535,0.7553718,0.00360832,0.00036761165,-0.004240878,0.0,0.0,4.0,nan,nan,nan
887668000,7.3256507,32.759415,-5.637939,-1.3226523,-1.862943e-18,-0.0040380037,-0.00038015918,0.74678206,0.0030143224,0.0003439039,-0.0070575178,0.0,0.0,4.0,nan,nan,nan
887868000,7.3249116,32.759354,-5.492105,-1.3226523,-7.194335e-19,-0.0035463274,-0.0003395447,0.7379964,0.0026561432,0.00021202117,-0.00667993,0.0,0.0,4.0,nan,nan,nan
888068000,7.324262,32.759296,-5.34779,-1.3226523,-2.7783167e-19,-0.0031010166,-0.00030223187,0.7292242,0.0022469498,0.00020171702,-0.005536303,0.0,0.0,4.0,nan,nan,nan
888268000,7.323693,32.75924,-5.204821,-1.3226523,-1.0729334e-19,-0.0027102716,-0.00026244877,0.7206533,0.0016743578,0.00020171702,-0.004075244,0.0,0.0,4.0,nan,nan,nan
888468000,7.323191,32.75919,-5.0630755,-1.3226523,-4.1434663e-20,-0.0023384818,-0.00022546192,0.7122527,0.0018969998,0.0002049543,-0.003279455,0.0,0.0,4.0,nan,nan,nan
888668000,7.322751,32.75915,-4.9225554,-1.3226523,-1.6001284e-20,-0.002055098,-0.0002005091,0.7038833,0.0015718974,0.00015322492,-0.0045633614,0.0,0.0,4.0,nan,nan,nan
888868000,7.3223696,32.759113,-4.783299,-1.3226523,-6.179394e-21,-0.0018037008,-0.00017795498,0.7,0.0,0.0,0.0,0.0,0.0,0.0,nan,nan,nan
889068000,7.3220353,32.759083,-4.6440597,-1.3226523,-2.3863658e-21,-0.0015750056,-0.00015508529,0.7,0.0,0.0,0.0,0.0,0.0,0.0,nan,nan,nan
889268000,7.321743,32.759064,-4.504563,-1.3226523,-9.215694e-22,-0.0013745198,-0.000142378,0.7,0.0,0.0,0.0,0.0,0.0,0.0,nan,nan,nan
889468000,7.321488,32.759045,-4.364977,-1.3226523,-3.5589272e-22,-0.0012003649,-0.00012970045,0.7,0.0,0.0,0.0,0.0,0.0,0.0,nan,nan,nan
889668000,7.3212647,32.759026,-4.22548,-1.3226523,-1.3743907e-22,-0.0010472985,-0.00011696689,0.7,0.0,0.0,0.0,0.0,0.0,0.0,nan,nan,nan
889868000,7.321071,32.759007,-4.0862517,-1.3226523,-5.3076367e-23,-0.0009143725,-0.00010424545,0.7,0.0,0.0,0.0,0.0,0.0,0.0,nan,nan,nan
890068000,7.320902,32.758995,-3.9472325,-1.3226523,-2.049709e-23,-0.0007989015,-9.410061e-05,0.7,0.0,0.0,0.0,0.0,0.0,0.0,nan,nan,nan
890268000,7.320754,32.75899,-3.8083327,-1.3226523,-7.915588e-24,-0.0006973524,-9.153942e-05,0.7,0.0,0.0,0.0,0.0,0.0,0.0,nan,nan,nan
890468000,7.320626,32.75899,-3.6696525,-1.3226523,-3.0568512e-24,-0.0006092366,-9.15285e-05,0.7,0.0,0.0,0.0,0.0,0.0,0.0,nan,nan,nan
890668000,7.320512,32.75899,-3.5312092,-1.3226523,-1.1804982e-24,-0.000530997,-9.1518334e-05,0.7,0.0,0.0,0.0,0.0,0.0,0.0,nan,nan,nan
890868000,7.320416,32.758987,-3.3928204,-1.3226523,-4.558862e-25,-0.00046505852,-8.900641e-05,0.7,0.0,0.0,0.0,0.0,0.0,0.0,nan,nan,nan
891068000,7.3203306,32.758987,-3.2529535,-1.3226523,-1.7605466e-25,-0.00040714315,-8.899304e-05,0.7,0.0,0.0,0.0,0.0,0.0,0.0,nan,nan,nan
891268000,7.3202543,32.758984,-3.112954,-1.3226523,-6.7988994e-26,-0.000355368,-8.645805e-05,0.7,0.0,0.0,0.0,0.0,0.0,0.0,nan,nan,nan
891468000,7.3201866,32.758984,-2.973163,-1.3226523,-2.6256067e-26,-0.00030903934,-8.648015e-05,0.7,0.0,0.0,0.0,0.0,0.0,0.0,nan,nan,nan
891668000,7.320127,32.758984,-2.834989,-1.3226523,-1.01395975e-26,-0.0002681957,-8.653527e-05,0.7,0.0,0.0,0.0,0.0,0.0,0.0,nan,nan,nan
891868000,7.320078,32.758984,-2.696984,-1.3226523,-3.9157206e-27,-0.000234408,-8.65115e-05,0.7,0.0,0.0,0.0,0.0,0.0,0.0,nan,nan,nan
892068000,7.320038,32.758984,-2.5591722,-1.3226523,-1.5121774e-27,-0.00020576746,-8.637153e-05,0.7,0.0,0.0,0.0,0.0,0.0,0.0,nan,nan,nan
892268000,7.3200026,32.758984,-2.4213598,-1.3226523,-5.839743e-28,-0.00018221454,-8.6496264e-05,0.7,0.0,0.0,0.0,0.0,0.0,0.0,nan,nan,nan
892468000,7.319972,32.75898,-2.2836359,-1.3226523,-2.2551985e-28,-0.00016135172,-8.656346e-05,0.7,0.0,0.0,0.0,0.0,0.0,0.0,nan,nan,nan
892668000,7.3199444,32.75898,-2.1461797,-1.3226523,-8.709153e-29,-0.00014255231,-8.400404e-05,0.7,0.0,0.0,0.0,0.0,0.0,0.0,nan,nan,nan
892868000,7.3199205,32.75898,-2.0091586,-1.3226523,-3.363311e-29,-0.00012626508,-8.396469e-05,0.7,0.0,0.0,0.0,0.0,0.0,0.0,nan,nan,nan
893068000,7.3198986,32.75898,-1.8724506,-1.3226523,-1.2988472e-29,-0.00011104459,-8.3999344e-05,0.7,0.0,0.0,0.0,0.0,0.0,0.0,nan,nan,nan
893268000,7.3198795,32.75898,-1.7358816,-1.3226523,-5.0159032e-30,-9.824785e-05,-8.3939914e-05,0.7,0.0,0.0,0.0,0.0,0.0,0.0,nan,nan,nan
893468000,7.319863,32.75898,-1.5991924,-1.3226523,-1.9370471e-30,-8.672274e-05,-8.386375e-05,0.7,0.0,0.0,0.0,0.0,0.0,0.0,nan,nan,nan
893668000,7.3198476,32.75898,-1.4625688,-1.3226523,-7.4805117e-31,-7.6339784e-05,-8.397376e-05,0.7,0.0,0.0,0.0,0.0,0.0,0.0,nan,nan,nan
893868000,7.3198357,32.75898,-1.3257833,-1.3226523,-2.8888324e-31,-6.816066e-05,-8.408605e-05,0.7,0.0,0.0,0.0,0.0,0.0,0.0,nan,nan,nan
894068000,7.3198237,32.75898,-1.1888978,-1.3226523,-1.1156127e-31,-5.995568e-05,-8.374761e-05,0.7,0.0,0.0,0.0,0.0,0.0,0.0,nan,nan,nan
894268000,7.3198123,32.75898,-1.0519091,-1.3226523,-4.3082852e-32,-5.2085124e-05,-8.3844345e-05,0.7,0.0,0.0,0.0,0.0,0.0,0.0,nan,nan,nan
894468000,7.3198037,32.758976,-0.9148182,-1.3226523,-1.6637785e-32,-4.6060966e-05,-8.132143e-05,0.7,0.0,0.0,0.0,0.0,0.0,0.0,nan,nan,nan
894668000,7.3197966,32.758976,-0.7777268,-1.3226523,-6.425199e-33,-4.1453022e-05,-8.163057e-05,0.7,0.0,0.0,0.0,0.0,0.0,0.0,nan,nan,nan
894868000,7.3197894,32.758976,-0.6404513,-1.3226523,-2.4812908e-33,-3.653877e-05,-8.133848e-05,0.7,0.0,0.0,0.0,0.0,0.0,0.0,nan,nan,nan
895068000,7.3197823,32.758976,-0.50306964,-1.3226523,-9.582276e-34,-3.175003e-05,-8.1280086e-05,0.7,0.0,0.0,0.0,0.0,0.0,0.0,nan,nan,nan
895268000,7.3197775,32.758976,-0.36589125,-1.3226523,-3.7004943e-34,-2.834145e-05,-8.152148e-05,0.7,0.0,0.0,0.0,0.0,0.0,0.0,nan,nan,nan
895468000,7.3197727,32.758976,-0.22901033,-1.3226523,-1.429061e-34,-2.5168512e-05,-8.155873e-05,0.7,0.0,0.0,0.0,0.0,0.0,0.0,nan,nan,nan
895668000,7.319768,32.758976,-0.09246526,-1.3226523,-5.5187646e-35,-2.1964639e-05,-8.149199e-05,0.7,0.0,0.0,0.0,0.0,0.0,0.0,nan,nan,nan
895868000,7.319763,32.758976,0.043775212,-1.3226523,-2.1312424e-35,-1.8740542e-05,-8.131489e-05,0.7,0.0,0.0,0.0,0.0,0.0,0.0,nan,nan,nan
896068000,7.319759,32.758976,0.17993592,-1.3226523,-8.230456e-36,-1.5597758e-05,-8.149033e-05,0.7,0.0,0.0,0.0,0.0,0.0,0.0,nan,nan,nan
896268000,7.319756,32.758976,0.31549206,-1.3226523,-3.1784466e-36,-1.36647905e-05,-8.135318e-05,0.7,0.0,0.0,0.0,0.0,0.0,0.0,nan,nan,nan
896468000,7.3197536,32.758976,0.45100155,-1.3226523,-1.227456e-36,-1.2042304e-05,-8.11271e-05,0.7,0.0,0.0,0.0,0.0,0.0,0.0,nan,nan,nan
896668000,7.3197517,32.758976,0.5863909,-1.3226523,-4.740203e-37,-1.04856135e-05,-8.134294e-05,0.7,0.0,0.0,0.0,0.0,0.0,0.0,nan,nan,nan
896868000,7.3197513,32.758976,0.72156453,-1.3226523,-1.8305775e-37,-1.0172831e-05,-8.1382655e-05,0.7,0.0,0.0,0.0,0.0,0.0,0.0,nan,nan,nan
897068000,7.3197513,32.758976,0.856567,-1.3226523,-7.069346e-38,-1.0172831e-05,-8.1382655e-05,0.7,0.0,0.0,0.0,0.0,0.0,0.0,nan,nan,nan
897268000,7.380568,32.79943,0.12753366,-1.3226523,0.0,-0.0010493024,-0.00082010916,0.6988481,-0.067352414,-0.04447782,-0.09599335,0.0,0.0,-4.0,nan,nan,nan
897468000,7.3799324,32.79895,0.13532211,-1.3226523,0.0,-0.0010428777,-0.00081177725,0.6988481,-0.066465974,-0.04383385,-0.095994584,0.0,0.0,-4.0,nan,nan,nan
897668000,7.3800135,32.799706,0.14327167,-1.3226523,0.0,-0.0010430523,-0.0008192628,0.6988485,-0.06652331,-0.044423938,-0.09597966,0.0,0.0,-4.0,nan,nan,nan
897868000,7.3808784,32.801807,0.14914767,-1.3226523,0.0,-0.0010486055,-0.000849343,0.69884855,-0.067296505,-0.046816826,-0.09597574,0.0,0.0,-4.0,nan,nan,nan
898068000,7.3828416,32.803707,0.15435073,-1.3226523,0.0,-0.0010644506,-0.0008757658,0.6988484,-0.069581985,-0.049009323,-0.09598215,0.0,0.0,-4.0,nan,nan,nan
898268000,7.38437,32.804577,0.15997677,-1.3226523,0.0,-0.0010748479,-0.00088785915,0.6988485,-0.071217895,-0.05005467,-0.09597849,0.0,0.0,-4.0,nan,nan,nan
898468000,7.3906474,32.809673,0.122522935,-1.3226523,0.0,-0.0011072352,-0.000935084,0.6988505,-0.07751691,-0.054482102,-0.095893614,0.0,0.0,-4.0,nan,nan,nan
898668000,7.399562,32.820477,0.039028242,-1.3226523,0.0,-0.001143898,-0.0010489129,0.6988491,-0.08846545,-0.06738937,-0.09595452,0.0,0.0,-4.0,nan,nan,nan
898868000,7.4013476,32.824257,0.0002623648,-1.3226523,0.0,-0.0011488105,-0.0010818365,0.69884837,-0.09124923,-0.072357416,-0.095983855,0.0,0.0,-4.0,nan,nan,nan
899068000,7.399342,32.82315,-0.013400811,-1.3226523,0.0,-0.0011450137,-0.0010760152,0.6988485,-0.08877039,-0.07140398,-0.09597959,0.0,0.0,-4.0,nan,nan,nan
899268000,7.3983903,32.82112,-0.015852623,-1.3079801,0.00083459675,-0.0010341357,-0.0010343506,0.6988481,-0.06530547,-0.065333486,-0.09599418,0.0,0.0,-4.0,nan,nan,nan
899468000,7.3977785,32.820175,-0.013864412,-1.3079916,0.00026137778,-0.0010342993,-0.0010342746,0.6988482,-0.06533015,-0.06532693,-0.0959926,0.0,0.0,-4.0,nan,nan,nan
899668000,7.3969793,32.819576,-0.010610099,-1.308129,-0.00036522665,-0.0010340121,-0.0010341676,0.69884807,-0.06528294,-0.06530321,-0.0959972,0.0,0.0,-4.0,nan,nan,nan
899868000,7.3970165,32.81866,-0.0069894604,-1.308173,-0.00015127583,-0.0010337203,-0.0010345076,0.6988482,-0.06525552,-0.06535816,-0.09599222,0.0,0.0,-4.0,nan,nan,nan
900068000,7.3974156,32.817543,-0.0034709712,-1.3080964,1.5102799e-05,-0.001033607,-0.0010343621,0.6988481,-0.06523526,-0.065333605,-0.09599483,0.0,0.0,-4.0,nan,nan,nan
