timestamp,timestamp_sample,xyz[0],xyz[1],xyz[2]
829264000,829264000,0.15773521,-0.19443169,-0.3951012
829268000,829268000,-0.012280154,-0.21600324,-0.14910951
829276000,829276000,-0.25934798,0.041879307,0.2450803
829284000,829284000,-0.26773906,0.4109304,0.1250627
829296000,829296000,-1.0577998,0.2722778,0.22342321
829304000,829304000,0.5119053,-0.058061462,-0.06795616
829316000,829316000,-0.82681316,0.009035759,-0.0804069
829324000,829324000,0.25178066,0.17085806,-0.23917572
829336000,829336000,-0.32730025,0.3450178,-0.034820627
829344000,829344000,-0.42439452,-0.22985381,0.34395748
829356000,829356000,0.013932082,0.10091514,-0.16998576
829364000,829364000,-0.3370839,-0.13283426,0.40245104
829376000,829376000,-0.09156892,-0.23232111,-0.64028656
829380000,829380000,-0.2944679,-0.34481135,-0.73624414
829396000,829396000,-0.29449713,0.16362607,-0.16895095
829400000,829400000,-1.0067887,-0.037743207,0.50665677
829416000,829416000,0.42813635,0.26462433,0.16071327
829424000,829424000,-0.049014274,0.27136564,-0.033481944
829436000,829436000,0.29739147,0.03639075,-0.12605774
829444000,829444000,0.60423297,0.027904334,0.15964608
829456000,829456000,-1.1225672,-0.1904985,-0.19847648
829464000,829464000,-0.1338586,-0.0461119,0.057840645
829476000,829476000,0.23449695,-0.030500233,-0.02979381
829484000,829484000,0.4521436,0.4689336,0.14920126
829496000,829496000,-0.026025834,-0.40388605,0.18096375
829504000,829504000,0.2523653,-0.12083977,-0.16933474
829516000,829516000,-1.3656058,0.26086494,-0.03878974
829524000,829524000,0.3479082,0.7349994,0.09621592
829536000,829536000,-0.18056892,-1.0433837,0.008865907
829544000,829544000,0.38747475,0.15904123,-0.30048308
829556000,829556000,0.56947297,-0.2218598,0.07789876
829564000,829564000,0.75943655,0.060410794,0.09284656
829576000,829576000,-0.8400657,-0.1661308,0.09133321
829584000,829584000,0.48843718,-0.37337792,0.45742726
829596000,829596000,-0.062245,0.23607172,-0.35777155
829600000,829600000,-0.06388818,0.2163211,-0.16481484
829612000,829612000,-0.04595905,-0.160223,-0.06451627
829620000,829620000,0.4463041,0.19143264,0.36986125
829636000,829636000,-0.8469977,-0.1420199,-0.42314425
829644000,829644000,-0.05114486,0.19089119,-0.070679285
829652000,829652000,-0.15561044,0.014062016,-0.19287235
829664000,829664000,0.5062682,0.3711496,0.2921663
829676000,829676000,-0.6130021,-0.5941157,0.024402488
829684000,829684000,-0.010750695,0.03250799,0.21183632
829696000,829696000,0.664349,-0.007392236,0.07139899
829704000,829704000,-0.9008155,0.2731393,0.35715204
829712000,829712000,0.6604812,-0.30382836,-0.24369997
829724000,829724000,-0.3106348,-0.07296417,0.3923551
829736000,829736000,-0.085913554,0.5596336,-0.8264695
829744000,829744000,1.1024396,-0.21345744,0.14561813
829756000,829756000,-1.1277628,-0.057282403,0.30643508
829760000,829760000,-1.4826678,0.15305609,0.0004522292
829776000,829776000,0.44682994,0.0399354,-0.049782563
829784000,829784000,-0.29073682,0.4182604,0.040574905
829796000,829796000,0.21530642,0.0051162136,-0.32476616
829804000,829804000,0.74018896,0.05380323,0.05955885
829816000,829816000,-0.5908297,-0.3169832,0.109076515
829820000,829820000,-1.0977145,-0.5234479,0.04409576
829836000,829836000,-0.34680164,0.4309667,-0.22757578
829844000,829844000,-0.16065438,0.18161736,0.01849132
829856000,829856000,0.5167219,-0.4267539,0.38850424
829864000,829864000,0.24969095,-0.4328991,-0.18319845
829876000,829876000,-0.75834256,0.76694643,0.09325703
829884000,829884000,-0.23193792,-0.034619756,0.5164242
829896000,829896000,-0.03937097,-0.2475156,0.3058378
829904000,829904000,-0.10173492,-0.33347395,0.1047313
829916000,829916000,0.25404438,0.3271773,-0.30502987
829920000,829920000,0.58843434,0.26165068,-0.2690174
829936000,829936000,-1.2120974,-0.29708326,0.25197288
829944000,829944000,-0.48148814,0.09898824,0.22400682
829956000,829956000,0.253863,0.06658415,-0.24693237
829964000,829964000,-0.61763877,-0.097911954,-0.4528481
829976000,829976000,0.47310904,0.091163985,0.49304584
829984000,829984000,0.46288255,-0.12096916,0.18885186
829996000,829996000,0.27309272,0.2294736,-0.026349548
830004000,830004000,0.07990343,0.17527127,-0.0012806507
830016000,830016000,-0.4092466,-0.105165444,-0.002105025
830024000,830024000,0.3590266,-0.49686286,-0.03083485
830036000,830036000,-0.097030744,-0.1970296,-0.09824947
830040000,830040000,-0.4385711,-0.113981895,-0.25936124
830052000,830052000,0.17150803,0.39726007,0.18944867
830064000,830064000,0.21041416,-0.32730266,0.2015239
830076000,830076000,-0.5069649,0.42840317,0.034007028
830080000,830080000,-0.9985444,0.34980217,-0.0028823449
830092000,830092000,0.2641939,-0.37003565,-0.46906918
830100000,830100000,-0.114761986,0.19247416,0.6178702
830116000,830116000,0.3469668,-0.05349485,-0.12615997
830124000,830124000,0.68642,-0.00027463204,-0.23385228
830136000,830136000,-1.0276978,0.07766588,-0.012678232
830140000,830140000,-0.3006781,0.20284487,0.3656748
830156000,830156000,0.36449766,-0.36536172,-0.33299845
830164000,830164000,-0.099749416,0.07691955,-0.08125563
830176000,830176000,0.11254176,-0.26838532,-0.18866828
830180000,830180000,0.21663675,-0.23890986,0.16291991
830196000,830196000,-0.9228191,0.35079512,0.01712086
830204000,830204000,0.13550799,-0.15339719,-0.28438434
830212000,830212000,0.53789926,-0.3983087,-0.31673026
830220000,830220000,0.00011538406,0.12689799,0.037215758
830236000,830236000,0.74430674,0.12801315,0.6312633
830244000,830244000,0.065611705,0.6504301,0.09857068
830256000,830256000,-0.47351706,-0.2851555,0.09878662
830264000,830264000,0.22339043,0.16790819,-0.121352494
830276000,830276000,-0.1899664,-0.26390898,-0.13910188
830284000,830284000,0.32727048,-0.18115328,0.1747498
830296000,830296000,0.14551404,0.18404901,-0.06908888
830304000,830304000,0.47977686,0.23832098,0.019792624
830316000,830316000,-1.2036308,0.03090136,0.4638286
830324000,830324000,0.2550271,-0.15657355,0.22265704
830336000,830336000,-0.2721271,-0.59332794,-0.2826715
830344000,830344000,-0.24755524,0.21895815,-0.14773244
830356000,830356000,0.47310182,0.058282077,-0.07246845
830364000,830364000,0.34567603,-0.08143392,-0.15060554
830376000,830376000,-0.14971524,-0.27349925,0.19949715
830380000,830380000,-0.84716016,-0.2644166,0.17931065
830396000,830396000,0.2437744,0.25847843,-0.11153111
830404000,830404000,-0.33303565,0.50254285,-0.12953797
830416000,830416000,0.44088194,0.17497392,0.03160645
830424000,830424000,0.25405627,-0.19923268,0.19356528
830432000,830432000,-0.3234248,-0.4176361,0.37444162
830444000,830444000,-0.117052525,0.16805641,-0.29283416
830456000,830456000,0.18315986,0.15641125,-0.32643914
830464000,830464000,0.24838653,0.19630262,0.03381071
830476000,830476000,-0.1805066,-0.03055112,0.018949443
830484000,830484000,0.1376905,-0.28755197,-0.21001694
830496000,830496000,-0.7418723,0.028774183,0.042282518
830504000,830504000,-0.22625063,0.033529557,-0.069134854
830516000,830516000,0.097284965,-0.17175734,0.16821311
830524000,830524000,-0.08115294,0.2630635,-0.32034132
830536000,830536000,0.32539758,-0.16367853,0.17674719
830544000,830544000,0.44627357,-0.13268478,0.08629628
830556000,830556000,-0.7819323,0.3050863,0.16322291
830564000,830564000,0.04125124,0.06420063,-0.24233432
830576000,830576000,0.001652395,0.03091113,0.17112997
830584000,830584000,0.20152177,-0.14194965,-0.15337218
830596000,830596000,0.28639153,0.3417734,0.38758498
830604000,830604000,0.52598876,0.2471008,-0.09425825
830616000,830616000,-0.8180399,-0.3555767,0.23487562
830624000,830624000,-0.34076056,-0.2028565,-0.4017087
830636000,830636000,0.11344903,0.3770654,-0.013509465
830644000,830644000,0.13171613,-0.09134471,0.044446353
830656000,830656000,0.9975207,-0.3168893,0.014706077
830664000,830664000,-0.3682281,-0.09543408,0.091645725
830676000,830676000,-0.3696418,0.07081332,0.060797907
830684000,830684000,0.49953246,0.19892842,0.1230431
830696000,830696000,0.30503732,0.36184475,-0.2363348
830704000,830704000,0.2026679,-0.38698965,0.070751436
830716000,830716000,0.3090659,-0.009331225,0.09262653
830724000,830724000,0.4986417,0.34212533,-0.074104555
830736000,830736000,-1.1252917,-0.16666941,-0.09361647
830744000,830744000,-0.1713067,-0.26615435,-0.094943374
830756000,830756000,0.59860563,-0.28349993,0.4674025
830764000,830764000,-0.34129307,-0.036298517,0.11428486
830776000,830776000,-0.16036958,0.39596698,-0.19338204
830780000,830780000,0.51503605,0.10831145,-0.0862063
830796000,830796000,-0.4084263,-0.1778868,-0.14787185
830804000,830804000,-1.332603,-0.08223769,0.23226376
830816000,830816000,0.77705234,0.28811517,-0.19848935
830824000,830824000,0.04738289,0.22568157,0.159568
830836000,830836000,0.018426027,-0.33563074,-0.07646361
830844000,830844000,0.41761047,-0.03962862,0.40417415
830856000,830856000,-0.62985134,0.13757099,-0.012385201
830864000,830864000,-0.5027579,0.0031394619,-0.080444634
830872000,830872000,0.6800674,-0.11826695,-0.14730796
830884000,830884000,-0.3485019,0.010398276,-0.47295395
830896000,830896000,-0.09407856,0.12132378,0.08565843
830904000,830904000,0.44808033,0.062280376,0.07552957
830916000,830916000,-0.3484043,0.26928535,0.01511411
830924000,830924000,-1.0542934,-0.098461725,-0.56551754
830936000,830936000,0.061862364,0.0401047,0.21202207
830944000,830944000,0.0731098,-0.06810919,-0.039873373
830956000,830956000,0.37930107,0.23268098,0.40754527
830964000,830964000,-0.76288974,-0.22722082,-0.44899064
830976000,830976000,0.5820007,-0.039130665,0.25634274
830984000,830984000,-0.17677434,-0.2988259,0.22977759
830996000,830996000,0.077657595,0.09492868,-0.14321208
831004000,831004000,0.42651993,-0.037800226,0.34572598
831012000,831012000,-0.21414123,0.15436588,-0.46566194
831024000,831024000,0.47877708,-0.019562228,0.050373692
831036000,831036000,-0.29658583,-0.061612476,0.122769885
831040000,831040000,-0.6983888,0.40465233,0.21784861
831056000,831056000,-0.12165677,-0.21337678,-0.466725
831064000,831064000,-0.06532616,0.16178969,-0.4928841
831076000,831076000,0.15425445,0.08128199,0.79212767
831084000,831084000,0.6490245,-0.4390329,-0.4455715
831096000,831096000,-0.5814955,0.5229929,0.060406305
831104000,831104000,-0.8071033,-0.33856443,0.0178548
831116000,831116000,0.7046739,0.12392229,0.083371446
831124000,831124000,0.06351247,0.2583702,0.1687978
831132000,831132000,-0.4764686,-0.29953247,0.0042835707
831140000,831140000,0.99460125,-0.3201516,-0.22858173
831156000,831156000,-0.87416095,0.39570072,-0.055690084
831164000,831164000,-0.18263246,0.8370026,0.21407731
831176000,831176000,0.40820944,-0.34494382,0.0062354323
831184000,831184000,-0.018837688,-0.4270812,0.17185569
831196000,831196000,0.024048148,0.47225887,-0.68352014
831204000,831204000,0.9179941,-0.096177034,0.11843897
831216000,831216000,-1.2677037,0.072256826,-0.03782499
831224000,831224000,-0.48068103,0.13012145,0.52411103
831236000,831236000,0.26128,0.019795194,0.060618613
831244000,831244000,-0.30565122,-0.22887728,-0.37816173
831256000,831256000,1.2166076,-0.3795433,0.37802285
831264000,831264000,-0.052251257,-0.36861506,0.031468198
831276000,831276000,-0.49709332,0.4164309,-0.07675977
831284000,831284000,0.04443545,0.1409291,0.081568316
831296000,831296000,-0.2798764,0.0795789,0.09202794
831304000,831304000,0.20999905,0.1277903,-0.05508904
831316000,831316000,0.61395454,0.24268408,0.108584374
831324000,831324000,0.55818146,-0.25958493,0.01856515
831336000,831336000,-0.77261376,-0.056993466,-0.018237492
831344000,831344000,0.30072775,-0.45827994,-0.32006043
831356000,831356000,0.20600311,0.58620465,0.35453415
831364000,831364000,-0.48738775,-0.2658362,-0.18427315
831376000,831376000,0.1303017,-0.048477143,0.3914994
831384000,831384000,-0.61416215,-0.24978164,-0.015371311
831392000,831392000,0.03646134,0.1682377,0.06407786
831404000,831404000,-0.066175535,0.3130801,-0.29668257
831416000,831416000,-0.037414744,-0.39639616,0.35410967
831424000,831424000,0.4963075,0.1566324,0.18888372
831436000,831436000,0.653537,-0.11887708,-0.12103815
831444000,831444000,-1.1123388,-0.104814775,-0.173338
831452000,831452000,-0.85449487,-0.114526674,0.07126274
831464000,831464000,0.98533833,-0.18816194,-0.27413934
831476000,831476000,-0.0925816,0.5323216,-0.101983316
831484000,831484000,-0.1571122,0.12018071,0.41747734
831496000,831496000,-0.04608423,-0.3423938,-0.26582366
831500000,831500000,-0.90201664,-0.2165181,-0.4991377
831516000,831516000,0.8667836,-0.12842421,0.48614296
831524000,831524000,-0.007592335,-0.2704611,-0.4821518
831536000,831536000,-0.05137938,-0.06475493,-0.22458169
831544000,831544000,0.09033577,0.45426005,0.29757863
831556000,831556000,0.77715415,-0.02747033,0.30969593
831564000,831564000,-0.9247565,-0.09547063,0.025172755
831576000,831576000,-0.16039692,0.33009982,-0.32068095
831584000,831584000,0.34467977,-0.46793407,-0.057752997
831596000,831596000,0.78816944,0.35292736,0.0063995966
831604000,831604000,0.5182709,-0.06782047,-0.10118153
831616000,831616000,-0.6958913,0.17173691,0.107456595
831624000,831624000,0.08606367,0.08578931,0.043310467
831636000,831636000,-0.8488943,-0.17998387,-0.2557434
831644000,831644000,0.37716946,-0.07320215,0.049348693
831656000,831656000,0.8101769,0.22680472,0.006738602
831664000,831664000,0.17884007,-0.34864825,0.13514084
831676000,831676000,-0.37780276,0.16472305,0.046010725
831684000,831684000,-0.07556792,0.08471188,-0.101989314
831696000,831696000,0.17116717,0.31844842,-0.037722018
831704000,831704000,-0.31402534,-0.036706068,-0.2537538
831716000,831716000,0.19932397,-0.059607584,0.23690481
831724000,831724000,-0.5995129,-0.00035470302,0.40446252
831736000,831736000,0.1358734,-0.30702704,0.1328852
831744000,831744000,0.10405325,0.09858334,-0.39702684
831756000,831756000,-0.021174053,0.24085356,0.28555402
831764000,831764000,-0.29547328,-0.30247644,-0.22344124
831776000,831776000,0.676466,0.027170701,0.22739708
831784000,831784000,-0.20205627,-0.3481099,0.73540497
831796000,831796000,0.19233602,0.011670265,-0.31220984
831804000,831804000,0.26512495,0.19085766,0.12341391
831816000,831816000,0.11894595,0.26044697,0.15849975
831824000,831824000,0.44192982,0.21978487,0.16428581
831836000,831836000,-0.25632307,-0.0514856,-0.16927221
831844000,831844000,-0.8612043,-0.27139014,-0.25495684
831856000,831856000,-0.018883042,0.052076124,0.25524384
831864000,831864000,-0.01617229,-0.0390999,-0.11096664
831876000,831876000,-0.030483114,-0.26088434,-0.24426281
831884000,831884000,0.12489163,0.3701356,-0.21217822
831896000,831896000,0.3446428,-0.14967723,0.47828856
831904000,831904000,-0.91282654,0.020633224,0.059124514
831916000,831916000,0.28923172,-0.031483173,0.07340241
831924000,831924000,0.114712566,0.20349209,0.025127577
831936000,831936000,-0.100118265,-0.52767223,-0.050931342
831944000,831944000,0.6170521,0.10661777,-0.26517335
831956000,831956000,-0.40782917,0.09250485,0.062095832
831964000,831964000,-0.7445591,-0.44461092,0.012673514
831972000,831972000,0.059837975,-0.48042783,-0.17383651
831984000,831984000,0.06670895,0.26897177,0.35180306
831996000,831996000,0.39623865,0.33276814,-0.3424732
832004000,832004000,-0.018692367,0.030330492,-0.04775614
832016000,832016000,-0.5586331,-0.23279937,0.12035353
832024000,832024000,0.06606618,0.16703892,0.10111593
832036000,832036000,-0.33849254,0.25445333,0.25136906
832044000,832044000,0.094682954,0.2368271,-0.35726508
832056000,832056000,0.757409,-0.500796,-0.032655496
832064000,832064000,0.20360819,-0.094865106,-0.022383895
832076000,832076000,-1.1951593,-0.29113197,-0.086013325
832084000,832084000,-0.27471706,-0.4190065,-0.23701584
832096000,832096000,0.40244633,0.35572028,0.531542
832104000,832104000,0.24828541,-0.24614634,0.17200781
832116000,832116000,-0.07734074,0.36532933,-0.056444068
832124000,832124000,0.8764094,-0.1178059,0.395715
832136000,832136000,-1.4075977,0.04087194,-0.43327335
832144000,832144000,0.25492617,0.28840876,-0.3125529
832156000,832156000,0.016045282,-0.18187404,0.19392763
832164000,832164000,-0.16137698,0.13524982,0.14247635
832172000,832172000,0.23368065,-0.19062552,-0.07777494
832184000,832184000,-0.09244048,0.7605361,0.045944255
832196000,832196000,-0.3830503,-0.43793496,0.10636247
832200000,832200000,0.014273702,0.052554056,0.2710008
832216000,832216000,-0.050773747,-0.09103049,-0.5440838
832224000,832224000,-0.35198137,0.028643627,-0.25691304
832236000,832236000,0.48483598,-0.086072505,-0.0036137449
832244000,832244000,0.6231844,0.15653159,0.21221429
832256000,832256000,-0.64151645,-0.28391773,-0.052966297
832264000,832264000,0.25102174,-0.11964477,0.16622977
832272000,832272000,0.031106746,0.43149737,0.27723834
832280000,832280000,0.1582062,0.29281154,0.11383623
832296000,832296000,-0.46063897,-0.063330404,0.1595433
832304000,832304000,-0.5806396,0.051177546,-0.06506645
832316000,832316000,0.29346907,-0.056571357,0.08494971
832324000,832324000,-0.29129505,0.013083661,-0.073017135
832336000,832336000,0.0352134,0.017333278,-0.38418996
832344000,832344000,-0.3651798,0.60876805,-0.3327946
832356000,832356000,1.1011192,-0.79251236,-0.01926475
832364000,832364000,-0.060550135,0.058332384,0.06137572
832376000,832376000,-0.5270006,0.038728643,0.07277336
832384000,832384000,0.6490179,-0.08399692,0.30767554
832396000,832396000,-0.12377658,0.007680532,-0.5917207
832404000,832404000,0.16780274,0.21124306,0.046660375
832416000,832416000,0.4809626,-0.203575,-0.038198788
832424000,832424000,0.5292419,-0.25000268,-0.19416483
832432000,832432000,-1.4244365,0.062208254,0.05772096
832440000,832440000,-0.03851064,0.09984398,0.055054203
832452000,832452000,0.6403784,-0.38533804,-0.05014623
832464000,832464000,-0.17396216,0.39632306,0.1952332
832472000,832472000,0.23772389,-0.08067476,0.25174952
832484000,832484000,-0.22820857,0.010546557,-0.29810748
832496000,832496000,-0.6288946,0.2845399,0.32233453
832504000,832504000,0.59977883,-0.08343933,0.21887337
832512000,832512000,0.35422245,-0.04072287,-0.062885605
832524000,832524000,-0.25236988,0.20142211,0.055817723
832536000,832536000,0.8653857,-0.0313733,0.15778229
832544000,832544000,-0.6853432,-0.27065685,-0.7370985
832552000,832552000,-0.7995692,-0.07897405,-0.2649689
832564000,832564000,0.4684323,-0.04288553,-0.046089534
832572000,832572000,0.1301917,0.3368586,-0.086368695
832584000,832584000,0.16125557,-0.27728122,0.40687543
832596000,832596000,0.2064664,0.16012883,-0.250596
832604000,832604000,-1.112023,0.18694068,0.12356323
832616000,832616000,0.25180107,-0.16185622,0.15094474
832624000,832624000,0.11727892,-0.14056477,0.35476327
832636000,832636000,0.2274109,-0.055661704,-0.353799
832644000,832644000,0.163674,-0.18273851,0.042297952
832656000,832656000,0.110216625,-0.04310109,-0.1062415
832664000,832664000,-0.72685415,-0.18291835,0.19565
832672000,832672000,0.3089648,0.65772206,-0.22143236
832680000,832680000,0.20927632,0.005977518,-0.1186005
832692000,832692000,-0.33008114,-0.12725031,0.16855149
832700000,832700000,0.93909436,0.16237023,-0.21395758
832716000,832716000,-0.48193803,0.11079745,0.20053504
832724000,832724000,-0.39443418,-0.23821011,0.055498503
832736000,832736000,0.0010861362,0.11490435,0.28600496
832744000,832744000,-0.3651408,0.10704944,-0.03386116
832756000,832756000,-0.052274514,0.119518116,-0.07460078
832764000,832764000,0.6832466,-0.06908389,-0.31865004
832776000,832776000,-0.35870367,0.051025454,-0.113618486
832784000,832784000,-0.83952606,-0.010844474,0.7600189
832796000,832796000,-0.051544543,-0.092704415,-0.04525155
832804000,832804000,0.59996456,0.49993423,-0.010567154
832816000,832816000,0.03700857,-0.3646059,0.5196938
832824000,832824000,0.02934471,-0.083513275,-0.4069816
832836000,832836000,-0.9920862,0.22114038,-0.00816168
832844000,832844000,0.4993371,-0.22300711,0.045989435
832856000,832856000,-0.24740186,-0.12155822,0.13201353
832864000,832864000,0.28343603,0.4624319,0.22265257
832876000,832876000,-0.27656478,-0.07271517,-0.5359942
832884000,832884000,0.71387583,0.3593086,0.31513488
832892000,832892000,-0.77163017,-0.2761038,0.0042480035
832904000,832904000,0.39129192,-0.14568278,-0.039926033
832912000,832912000,0.21767959,0.030746654,0.517278
832924000,832924000,0.33994758,-0.07302084,-0.35048914
832932000,832932000,0.26946115,-0.03303546,-0.037099976
832944000,832944000,-1.1284513,0.46806547,0.28684023
832956000,832956000,0.1005902,-0.39897624,-0.21520942
832964000,832964000,0.16537885,-0.42790198,-0.018733952
832976000,832976000,-0.22897628,0.32894558,0.15086934
832980000,832980000,-0.52829003,-0.51444453,-0.09524224
832996000,832996000,0.5870003,0.24219936,0.23814206
833004000,833004000,-0.95467967,0.34149423,0.36027187
833016000,833016000,0.12802073,-0.28307262,-0.14320388
833024000,833024000,0.39328077,-0.3315568,0.07287777
833036000,833036000,-0.04776259,0.37716645,-0.2453749
833044000,833044000,0.7639225,0.20372915,-0.1045373
833056000,833056000,-0.83515584,-0.46596995,0.27035862
833064000,833064000,-0.34173942,0.52889675,0.09697225
833076000,833076000,0.17213935,0.05951871,0.056101806
833084000,833084000,-0.09367135,-0.20218047,0.022233026
833096000,833096000,-0.12164276,0.0025349895,-0.040544197
833104000,833104000,0.6165393,0.3799516,-0.24597777
833116000,833116000,-0.3533491,-0.040957358,0.30376467
833124000,833124000,-0.26173458,-0.23204139,0.19516763
833132000,833132000,0.30465457,-0.29661214,-0.4400327
833144000,833144000,-0.40014628,-0.08081701,0.1017145
833156000,833156000,0.75277555,-0.11819302,-0.024251897
833164000,833164000,0.5159294,0.32040173,0.01734014
833172000,833172000,-1.1627606,0.53241104,-0.048371285
833184000,833184000,0.2755988,-0.17732675,-0.31440943
833196000,833196000,0.3475571,-0.26811308,0.022790873
833204000,833204000,-0.055749353,-0.34086344,0.61887974
833212000,833212000,0.057548076,-0.25255984,-0.17613924
833220000,833220000,0.22380912,0.62074065,-0.14982328
833236000,833236000,-1.1183047,-0.14910845,-0.0153094595
833240000,833240000,-0.6639456,-0.15721245,-0.11445706
833252000,833252000,0.31363073,-0.097401544,-0.015982483
833260000,833260000,0.14185937,-0.20487398,0.20912342
833276000,833276000,0.8649402,0.49112982,-0.20548156
833280000,833280000,0.37512055,0.14115031,-0.4958603
833296000,833296000,-0.78077644,-0.029567419,0.20188251
833304000,833304000,0.21339045,0.0742907,0.24722084
833316000,833316000,0.065141864,-0.16530912,-0.42630717
833324000,833324000,-0.36158103,-0.3722227,0.16061309
833336000,833336000,0.6226408,0.4661903,0.20723806
833340000,833340000,0.97516406,0.053463478,-0.028275352
833356000,833356000,-0.54878986,0.062380895,0.49027437
833364000,833364000,-0.4733461,-0.17739667,0.36024177
833376000,833376000,0.5411964,0.03191459,-0.13248271
833384000,833384000,-0.084003404,0.109741114,-0.21449558
833392000,833392000,0.36603162,0.0019108724,-0.3299521
833404000,833404000,-0.7743147,-0.17079146,0.010271163
833416000,833416000,0.19744703,-0.13075987,0.15329035
833424000,833424000,0.3595633,0.0279683,0.07941252
833436000,833436000,0.4024289,0.3634246,-0.035217337
833444000,833444000,-0.20187718,0.051838458,-0.022786433
833456000,833456000,0.3301338,0.14912952,-0.12629329
833464000,833464000,-0.8116087,-0.19700405,0.093764015
833476000,833476000,0.38681114,-0.10205412,0.60478777
833484000,833484000,0.0025125595,-0.3685303,-0.02964686
833496000,833496000,0.42501754,0.3906625,-0.04033878
833504000,833504000,0.6467164,-0.04152956,-0.22638799
833516000,833516000,0.12895577,-0.10625887,-0.2662495
833524000,833524000,-0.9194205,0.24217714,0.16262051
833536000,833536000,0.24541463,-0.25848508,0.12567775
833544000,833544000,0.12863472,-0.12467034,-0.15639508
833556000,833556000,-0.007769755,0.06192025,-0.6151431
833564000,833564000,0.18698928,-0.08595168,0.34648252
833572000,833572000,0.4683476,0.17027578,0.05843961
833580000,833580000,-1.0486498,-0.41802406,0.061539054
833596000,833596000,0.18260615,0.25516465,0.037086718
833604000,833604000,0.23319164,0.14960262,-0.1182668
833616000,833616000,0.032128252,0.2786759,0.08252506
833624000,833624000,1.0983572,0.35483816,0.15830702
833636000,833636000,-0.98727006,-0.33038583,0.13542993
833640000,833640000,-1.5206255,-0.22304127,-0.12689005
833656000,833656000,0.40851286,0.24635834,-0.080869496
833664000,833664000,0.547366,0.14372425,0.3103889
833676000,833676000,-0.16954951,0.1156437,-0.076844625
833684000,833684000,0.5168908,-0.04018288,0.15167826
833696000,833696000,-0.969809,-0.22711298,0.15331554
833704000,833704000,-0.39743304,0.12057697,0.21422882
833716000,833716000,0.0633474,-0.17720214,-0.111493185
833724000,833724000,-0.079218015,-0.25104725,-0.020810492
833736000,833736000,0.72764415,0.18929124,-0.02196456
833744000,833744000,0.07174718,0.4377434,0.008331228
833756000,833756000,-1.0157648,0.17736088,0.47113606
833764000,833764000,0.10325892,-0.28173715,0.19061795
833776000,833776000,0.28628778,0.0069842017,-0.15402775
833784000,833784000,0.26284832,0.13494033,0.12760733
833796000,833796000,0.0088399425,-0.28467074,-0.13321039
833800000,833800000,0.5419041,0.012856189,-0.3597266
833816000,833816000,-1.3939185,0.14741945,-0.060833972
833820000,833820000,-0.801854,0.15973014,-0.16827196
833836000,833836000,-0.2723403,0.060705278,0.4142487
833844000,833844000,0.007141475,-0.15529546,0.123701714
833856000,833856000,0.85375416,0.15702172,-0.232801
833864000,833864000,0.26026252,0.0368787,-0.4150591
833876000,833876000,-0.90835124,0.01507652,0.17189504
833884000,833884000,0.56169343,0.12301533,0.14783968
833896000,833896000,0.009782566,0.19297735,-0.10557155
833904000,833904000,-0.010080103,-0.19829725,-0.13014163
833916000,833916000,0.4633505,0.13284391,-0.06080875
833924000,833924000,0.25920787,0.23005061,-0.41856673
833936000,833936000,-0.3772213,-0.38328958,0.45195776
833944000,833944000,0.15280522,-0.08880131,0.021204472
833956000,833956000,-0.1503218,-0.18931286,-0.37707588
833960000,833960000,-0.4984006,0.15558514,-0.31343043
833976000,833976000,0.12716231,-0.072974086,-0.085445434
833984000,833984000,-0.642069,-0.039330635,-0.054996204
833996000,833996000,0.15047441,0.051295042,0.095454685
834004000,834004000,0.013919107,-0.099293806,0.0009365958
834016000,834016000,-0.16132002,0.16723299,0.25302464
834024000,834024000,-0.0549358,-0.16342345,-0.27096516
834036000,834036000,0.52304,-0.19420862,0.15746355
834040000,834040000,-0.15522093,0.09941516,0.37550354
834056000,834056000,0.38596365,-0.03596367,0.14560516
834064000,834064000,0.24239582,-0.10742931,-0.16202487
834072000,834072000,0.11882699,-0.029045794,0.30148926
834084000,834084000,0.43828526,-0.54190785,-0.25336337
834096000,834096000,-0.08600444,0.26150382,-0.29394123
834104000,834104000,-1.1297096,0.5367013,0.032476522
834116000,834116000,0.8657047,-0.43875438,-0.2689542
834124000,834124000,0.22322778,-0.54623055,0.31558004
834136000,834136000,0.17493336,0.47955582,0.109815545
834144000,834144000,-0.13018614,-0.2104357,-0.22057323
834156000,834156000,0.26493058,-0.2953226,-0.25003782
834164000,834164000,-1.3395894,0.44644058,0.19005984
834176000,834176000,0.34375116,0.2208619,-0.10748941
834184000,834184000,-0.18301904,-0.11688182,-0.20342456
834196000,834196000,0.18188426,-0.08291564,0.45242167
834204000,834204000,0.4955935,-0.043376945,0.4916046
834216000,834216000,-0.5464385,0.045991197,-0.017068159
834224000,834224000,-0.7971255,0.29871958,-0.34304896
834236000,834236000,0.3577521,-0.013602559,-0.07230587
834244000,834244000,0.102420606,-0.11800159,3.290892e-05
834256000,834256000,-0.015364695,0.15154007,-0.122682124
834260000,834260000,0.07610235,0.351564,-0.1984384
834276000,834276000,-0.4297187,-0.04553523,0.08118451
834284000,834284000,-0.6080735,-0.16103633,-0.22580859
834292000,834292000,-0.00527767,0.23068027,0.12015622
834304000,834304000,0.1924944,-0.14482006,-0.22664265
834316000,834316000,0.29070494,0.12801047,0.09585461
834324000,834324000,0.362735,-0.020395868,0.25522664
834336000,834336000,-0.9220711,-0.15503712,-0.088135526
834344000,834344000,-0.1319668,-0.1459481,-0.12290658
834356000,834356000,-0.2129097,0.3512721,-0.033788987
834364000,834364000,-0.030522693,-0.08195919,-0.021005744
834376000,834376000,0.10107792,-0.09296521,0.19526137
834384000,834384000,0.3729979,-0.38455072,0.34252885
834396000,834396000,-0.8160547,0.0757079,0.18765245
834404000,834404000,0.25260302,0.36045185,-0.22817644
834412000,834412000,0.2836724,0.026670301,-0.14367275
834424000,834424000,0.27454147,0.21350265,0.25442204
834436000,834436000,0.33049563,0.3281371,-0.2122647
834444000,834444000,0.036699485,-0.53470933,0.22347456
834452000,834452000,-0.6972402,-0.22533095,0.17413686
834464000,834464000,0.11866764,0.4182302,-0.15607765
834476000,834476000,-0.35115632,-0.24245791,0.2855253
834484000,834484000,0.1414662,0.20330185,-0.308429
834496000,834496000,0.56017584,0.18101765,-0.46558043
834504000,834504000,0.41201347,0.040722974,0.09535269
834516000,834516000,-0.8429419,0.07268407,0.20400284
834524000,834524000,-0.17926359,-0.26365075,0.24648523
834536000,834536000,0.18306126,-0.23490964,-0.20739304
834544000,834544000,0.30590093,0.04961261,0.13693722
834556000,834556000,0.30005604,-0.04429186,0.32587996
834564000,834564000,-0.06850754,-0.020477224,-0.017195359
834576000,834576000,-0.35099202,0.48453334,-0.11250546
834584000,834584000,0.0596765,0.13504301,-0.16668874
834596000,834596000,-0.07139164,-0.20492889,0.38228244
834604000,834604000,0.020466542,0.20717645,-0.2512256
834616000,834616000,0.8649195,-0.48065597,0.46751577
834624000,834624000,-0.0045064325,-0.41403398,0.1841139
834636000,834636000,0.1713349,0.09016817,-0.1764162
834640000,834640000,-0.041886028,-0.024245845,-0.43352863
834656000,834656000,0.5165244,0.31002313,-0.02254938
834664000,834664000,0.658012,-0.25433177,0.32623622
834676000,834676000,0.37204492,-0.10501639,0.1560949
834680000,834680000,-0.45644137,0.1258234,0.15919727
834696000,834696000,-0.20052686,0.20560971,-0.59199554
834704000,834704000,-0.56740046,-0.13819519,0.22732617
834712000,834712000,0.46883306,-0.24680273,0.09275779
834724000,834724000,0.102600224,0.3451923,0.19942532
834736000,834736000,0.13055597,-0.3682028,-0.24101283
834740000,834740000,-0.63120097,-0.2839474,-0.26487246
834756000,834756000,0.5851961,0.15508914,0.21780959
834760000,834760000,0.88604796,0.25389674,0.14378867
834772000,834772000,-0.39679322,0.07320422,-0.21525179
834780000,834780000,-0.06935745,-0.14430492,-0.01506536
834796000,834796000,-0.5991566,0.014957937,0.28478912
834804000,834804000,-0.12559724,-0.14073947,0.451421
834816000,834816000,-0.13176994,0.4321195,-0.08279978
834824000,834824000,0.18331477,0.013082187,-0.20682359
834836000,834836000,0.23778485,0.13436225,-0.012689836
834844000,834844000,0.5867583,0.37485397,-0.005728319
834852000,834852000,0.16851957,-0.012218231,0.19885062
834864000,834864000,-0.23200412,-0.1721309,-0.19856787
834876000,834876000,0.1803895,0.16562842,0.5050329
834884000,834884000,-0.2912376,-0.4366893,-0.03426149
834896000,834896000,0.6190911,0.41337267,-0.35706994
834904000,834904000,-0.00061387697,-0.028270932,0.44824094
834916000,834916000,-0.79171216,0.018726451,-0.3223647
834924000,834924000,0.16160613,-0.31988516,-0.22407715
834936000,834936000,0.8726816,-0.11431997,-0.27369907
834944000,834944000,-0.32630503,0.4732873,-0.048228912
834952000,834952000,0.4143237,0.1910704,0.10218841
834964000,834964000,-0.84367555,-0.07642147,0.2268663
834976000,834976000,0.1250846,0.01520239,-0.07040939
834984000,834984000,0.34048918,-0.037814617,-0.10788105
834992000,834992000,0.32800782,-0.27525073,-0.30279014
835004000,835004000,0.13040955,0.07657589,0.4185854
835016000,835016000,0.051503982,-0.16805121,0.27287167
835024000,835024000,-0.80316204,-0.45514154,0.37274036
835036000,835036000,-0.08448804,0.51855916,-0.47356534
835044000,835044000,-0.12074363,0.24025218,-0.124047704
835052000,835052000,0.57866585,0.19089195,-0.051055614
835064000,835064000,-0.15769663,-0.20501053,0.027480507
835072000,835072000,0.5331268,-0.25354737,0.07353877
835084000,835084000,-1.2918617,0.404368,-0.7730953
835096000,835096000,0.27287844,-0.3565224,0.12846042
835104000,835104000,0.81599253,0.026669092,0.50236607
835116000,835116000,-0.2757294,0.07111638,0.10122284
835124000,835124000,0.20031454,-0.18100218,0.3386549
835136000,835136000,-0.5276268,-0.30644006,-0.1494627
835140000,835140000,-1.1364477,0.24995317,-0.2170923
835156000,835156000,0.21215142,-0.1169941,-0.15509802
835164000,835164000,-0.0019269019,-0.08267712,0.22411317
835172000,835172000,0.027517632,-0.08046581,-0.026092509
835180000,835180000,0.11013765,-0.09835007,-0.10313116
835196000,835196000,-0.6807535,0.06872138,0.4147545
835204000,835204000,-0.2197627,0.3670696,-0.25884506
835216000,835216000,0.6202547,-0.13859105,-0.15061136
835224000,835224000,-0.06444286,-0.3271148,-0.042069584
835236000,835236000,-0.0741929,0.27430546,-0.1475584
835240000,835240000,0.09213259,0.19443156,-0.37925565
835256000,835256000,-0.8404914,-0.06837215,0.3065292
835264000,835264000,-0.08542204,0.10565141,0.3156469
835272000,835272000,0.088948175,-0.09008485,0.33398432
835280000,835280000,0.17960905,-0.08878845,-0.18439832
835296000,835296000,-0.2754368,0.043266807,-0.2199859
835304000,835304000,0.62659365,-0.61720735,0.13854352
835316000,835316000,-0.9580577,-0.37029245,-0.3021614
835324000,835324000,-0.103523456,0.21147415,0.02065152
835336000,835336000,-0.07572254,0.6241537,0.17207138
835344000,835344000,-0.16894458,0.17511521,-0.30984738
835356000,835356000,0.68425095,-0.13671947,0.08213484
835364000,835364000,-0.03534032,-0.48103604,0.0034297209
835376000,835376000,-0.25624883,0.28852677,0.2808646
835384000,835384000,-0.010186529,0.10402478,-0.4164644
835396000,835396000,0.10243866,0.17145862,0.11815634
835404000,835404000,-0.07713597,0.09106707,0.50773644
835416000,835416000,0.5879261,-0.06160371,-0.35351348
835424000,835424000,-0.05614635,-0.12997103,-0.39893207
835436000,835436000,-0.14952877,-0.16578536,-0.06975494
835444000,835444000,0.24959105,0.16395321,0.21724291
835456000,835456000,0.31521487,-0.37354603,0.1252765
835464000,835464000,0.07198982,0.17056397,-0.11575657
835476000,835476000,-0.8766004,0.50903267,0.11706576
835484000,835484000,-0.18315612,-0.02740907,-0.12609698
835496000,835496000,-0.24788854,0.12696548,0.0037356936
835504000,835504000,0.5776686,-0.3538186,-0.003710926
835516000,835516000,-0.40347034,-0.11227016,-0.38738096
835524000,835524000,0.6817834,0.21577267,0.1940994
835536000,835536000,-0.9567139,-0.1553933,-0.07229342
835544000,835544000,0.20669186,-0.21852058,0.33061764
835556000,835556000,-1.5153921,-0.19266407,-0.19428602
835564000,835564000,-0.5666556,0.5221223,0.08939452
835576000,835576000,0.745637,0.42104468,-0.003952465
835584000,835584000,0.60760474,-0.38591075,-0.010146947
835596000,835596000,-1.1788241,0.1362588,0.12958093
835604000,835604000,1.644756,0.18046263,-0.50193626
835616000,835616000,-2.7537107,-0.48439804,0.5856674
835624000,835624000,1.6056213,0.19136888,-0.25869957
835636000,835636000,-0.21012683,-0.2215272,0.5696768
835644000,835644000,-0.52698743,0.1655455,-0.050069958
835656000,835656000,0.7642513,0.27695537,0.21334985
835664000,835664000,0.025073688,-0.53372717,-0.022101201
835676000,835676000,0.37212998,-0.097552314,-0.32028845
835684000,835684000,0.19721574,0.18328393,-0.22061557
835692000,835692000,-0.9513009,-0.09031083,0.28799886
835700000,835700000,0.78838646,0.37616333,-0.1212797
835716000,835716000,-0.025970275,-0.34666327,-0.06283405
835724000,835724000,-0.388239,-0.38507494,-0.015327975
835736000,835736000,0.5869461,-0.17892842,0.09353973
835744000,835744000,-0.32236654,0.5352463,-0.14192456
835756000,835756000,-0.11405306,0.11799165,0.13326381
835764000,835764000,-0.25747058,-0.1308979,-0.028582381
835776000,835776000,1.0348529,-0.14241172,0.009074183
835784000,835784000,-1.2862554,-0.42585552,-0.35644948
835796000,835796000,1.9587084,-0.0914108,0.28023174
835804000,835804000,0.33542356,0.30997765,-0.17023204
835816000,835816000,-1.7608987,-0.12347129,0.10830265
835824000,835824000,0.51374644,-0.16564795,0.09378119
835836000,835836000,-0.57645893,0.07288169,0.2854586
835844000,835844000,0.6572382,0.001166153,-0.59865725
835856000,835856000,-0.44073492,-0.052634522,0.2436445
835864000,835864000,0.59516215,0.08047435,0.16349052
835876000,835876000,0.80553454,-0.11760772,0.020276504
835884000,835884000,-1.1345645,0.3161331,-0.02684076
835896000,835896000,1.939164,-0.27244928,-0.03044725
835904000,835904000,-0.71275187,-0.13314718,0.8395575
835916000,835916000,0.51969343,0.4311716,-0.5888127
835924000,835924000,0.84142953,-0.06362567,-0.42535242
835932000,835932000,-1.1842365,-0.020038202,-0.030021792
835944000,835944000,1.0474404,-0.21681431,0.19742714
835956000,835956000,-0.34430426,0.2783542,-0.029267263
835960000,835960000,0.66927254,0.30775064,-0.3358773
835976000,835976000,1.6611924,-0.1693875,0.12303606
835984000,835984000,-1.1476368,0.41768402,-0.25238955
835996000,835996000,-0.34656265,-0.14633065,0.46360645
836000000,836000000,-0.40099606,0.24860254,0.13345352
836012000,836012000,-0.19994646,-0.24416666,0.19992144
836024000,836024000,-0.49974313,0.08756466,-0.4696652
836036000,836036000,-0.13397574,0.06891727,0.3929915
836040000,836040000,0.6488001,-0.03972574,0.30332145
836056000,836056000,-0.15073851,0.30025303,0.024799738
836064000,836064000,0.38310274,0.48636323,0.3763138
836076000,836076000,0.36623552,-0.013476285,-0.5432699
836084000,836084000,-0.68156046,-0.024178026,-0.22973402
836096000,836096000,0.19954453,0.070449986,-0.1270081
836104000,836104000,-0.92135483,0.16013928,0.8663165
836116000,836116000,-0.73475355,-0.22007544,-0.6406368
836120000,836120000,-0.6511171,-0.26638556,-0.42629284
836132000,836132000,-0.073697,-0.12239509,0.037865516
836140000,836140000,-0.38793203,0.076331556,-0.076160915
836156000,836156000,-0.20646602,0.07856973,0.57147056
836164000,836164000,-0.44120154,0.5844056,-0.041462597
836176000,836176000,-0.16708025,-0.23624781,-0.074295245
836180000,836180000,-0.38061193,-0.1399188,-0.18664062
836196000,836196000,-0.17004357,-0.5094053,0.18016508
836204000,836204000,-0.9327281,-0.1860674,0.22844996
836216000,836216000,-0.03788322,-0.032569043,-0.4595582
836224000,836224000,0.7241522,0.00523864,0.451621
836236000,836236000,0.91829205,0.3724739,0.067504145
836240000,836240000,1.1827376,0.40502334,-0.012234585
836256000,836256000,1.5656981,-0.83033794,-0.17773165
836264000,836264000,0.22474584,-0.2087992,-0.02882403
836276000,836276000,-2.010239,0.289119,0.47232738
836284000,836284000,3.23228,0.031179858,-0.22925095
836296000,836296000,-1.1696203,-0.1907135,-0.08300194
836304000,836304000,0.9183646,-0.17646746,-0.11147799
836316000,836316000,1.8914524,0.35391432,0.5468525
836324000,836324000,-3.3779683,0.18119517,-0.021172607
836336000,836336000,2.5303872,0.09794888,-0.41496453
836344000,836344000,-3.250422,-0.2803793,0.10908323
836356000,836356000,2.0987883,-0.16472879,-0.14900504
836364000,836364000,-2.13766,-0.20174389,0.6629215
836376000,836376000,3.1754262,0.06345213,-0.41921467
836384000,836384000,-2.263711,0.20046465,-0.35289058
836396000,836396000,2.5813577,-0.019315174,0.011025131
836404000,836404000,-0.75701565,0.31694326,-0.16383986
836416000,836416000,1.4520285,-0.23500966,0.61493826
836424000,836424000,-2.7229998,-0.31348616,0.46661845
836436000,836436000,2.9297154,0.39727366,-0.4464989
836444000,836444000,-3.686025,-0.48087415,0.37379575
836456000,836456000,0.6087087,0.26867205,-0.42965367
836464000,836464000,-2.3512468,-0.1993932,-0.7257153
836476000,836476000,3.6154714,-0.09440673,-0.075867355
836484000,836484000,-0.105539784,0.28833497,-0.99751484
836492000,836492000,-2.7966516,0.3806478,0.5294103
836500000,836500000,3.0588021,-0.23603535,1.0573817
836516000,836516000,-2.1847425,0.401436,0.11146733
836524000,836524000,5.487386,0.2860987,0.33172923
836536000,836536000,-5.576965,-0.12750943,-0.5720617
836544000,836544000,0.83986425,0.2087815,-0.4498717
836556000,836556000,-1.5256153,-0.43763724,2.4538214
836564000,836564000,-1.2095487,0.029470697,-0.29691172
836576000,836576000,2.559394,-0.116380624,-1.0231159
836584000,836584000,-2.2718797,-0.0034019572,2.268559
836596000,836596000,1.0001119,-0.20165294,-2.6418736
836604000,836604000,0.44705486,-0.18188496,-0.73292845
836616000,836616000,-2.9729204,0.2291843,3.3889127
836624000,836624000,-0.1754724,-0.29572693,-1.2490938
836636000,836636000,1.0878674,0.01722729,-1.1206807
836644000,836644000,3.8739817,0.29092956,0.54559237
836656000,836656000,-4.9316816,-0.46825716,0.8493733
836664000,836664000,1.788066,0.15351205,-1.0422142
836676000,836676000,0.17287228,0.08963475,0.09123614
836684000,836684000,-0.47129074,-0.029472727,1.2997947
836696000,836696000,0.50824887,0.09708939,-0.88553613
836704000,836704000,-1.512733,0.20938879,-0.26214537
836716000,836716000,4.5193477,0.68860877,0.8976052
836724000,836724000,-1.5259564,-0.095573105,-1.8387495
836736000,836736000,-2.1252816,-0.4598697,0.22736648
836744000,836744000,-2.3360884,-0.7483177,0.4517876
836756000,836756000,2.3554864,0.012615307,-0.2752579
836764000,836764000,0.5656218,-0.13575302,0.16040462
836772000,836772000,-0.44086713,0.6158731,-0.3502024
836784000,836784000,-1.9408994,-0.16934857,0.61062074
836796000,836796000,2.0425024,-0.77215064,-0.6844518
836804000,836804000,2.657601,0.67950004,-0.6556926
836816000,836816000,-0.25068456,0.052446276,0.40827304
836824000,836824000,-0.36188564,-0.21778896,0.18165441
836836000,836836000,0.060882784,-0.12421074,-0.074752204
836844000,836844000,2.0278018,0.3454055,0.46798587
836856000,836856000,-2.8789048,0.3409271,0.3659326
836860000,836860000,-4.286649,-0.021967754,-0.42892343
836872000,836872000,0.20029302,-0.35747054,-0.85759413
836884000,836884000,0.5628878,-0.14185902,0.08018952
836892000,836892000,0.13322316,0.44279927,0.0847993
836904000,836904000,0.14789715,-0.17697403,0.0047183586
836916000,836916000,-0.07558245,0.1758143,0.29972765
836924000,836924000,-0.32980835,0.0022077328,-0.30310133
836936000,836936000,0.53999305,-0.005447463,0.28530875
836944000,836944000,-0.15391067,-0.07433403,0.031857844
836956000,836956000,0.0035167634,-0.0042973063,-0.21316531
836964000,836964000,0.17703815,-0.04474538,-0.2544033
836976000,836976000,0.10945213,0.38459507,0.52273923
836984000,836984000,0.17957291,0.19506045,0.006695199
836996000,836996000,-8.698268,0.12251131,2.4633937
837004000,837004000,-5.7016377,0.014528645,2.5008838
837016000,837016000,0.9784873,-0.19391043,-0.7893806
837024000,837024000,1.3292334,-0.13721505,-0.8412392
837036000,837036000,-0.4526015,-0.10662713,-0.5292744
837040000,837040000,-0.4957776,-0.07680166,-0.37355
837056000,837056000,-1.4644681,-0.088556506,-0.37369367
837060000,837060000,-1.6695254,-0.42167395,-0.70081526
837072000,837072000,-3.1959944,0.23548262,0.6764213
837084000,837084000,35.77851,2.5060132,0.37763366
837092000,837092000,16.603188,3.1240025,0.451184
837100000,837100000,0.7509656,1.7218589,-0.14711204
837116000,837116000,-7.324739,-0.21698007,-0.056578528
837124000,837124000,-11.531304,-1.1068959,-0.19000702
837136000,837136000,-11.910759,-1.1202241,-0.020984981
837144000,837144000,-9.949415,-1.5269542,0.25305706
837156000,837156000,-6.681478,-1.1600335,-0.2718762
837164000,837164000,-3.783243,-1.1326593,-0.5111057
837176000,837176000,1.4142076,-0.10988555,-0.834961
837184000,837184000,3.103089,-0.29220822,-0.17596526
837196000,837196000,4.9724402,0.2779491,-0.3569367
837204000,837204000,5.8881006,0.4714739,-0.5210205
837216000,837216000,4.7777104,0.2138449,-0.55778354
837224000,837224000,3.6214905,-0.04678515,-0.27059254
837236000,837236000,1.6311367,-0.26132035,0.20162313
837244000,837244000,0.21660446,-0.12147298,0.43828806
837256000,837256000,1.3021916,0.25287545,-0.37700763
837264000,837264000,12.255309,0.02120872,-1.0034857
837276000,837276000,-7.778311,-0.7463348,0.76674116
837284000,837284000,-1.5860795,-0.3288599,0.2069538
837296000,837296000,-1.9775712,-0.01208385,0.27097988
837304000,837304000,-0.006133219,-0.32054314,0.31086192
837316000,837316000,1.2037768,-0.23920503,0.10041061
837324000,837324000,1.1239941,0.5647669,0.087341115
837336000,837336000,2.3309786,-0.024402035,-0.23559302
837344000,837344000,2.000891,-0.06807542,0.12764384
837356000,837356000,1.438396,-0.08136483,-0.44670206
837364000,837364000,2.0116837,-0.28704563,0.13671693
837376000,837376000,0.5860065,0.56739455,-0.023679782
837384000,837384000,0.15097663,-0.18395406,-0.12043878
837396000,837396000,-0.52957535,-0.22435424,-0.36905402
837400000,837400000,-0.52707714,0.033992544,-0.2388165
837416000,837416000,-0.6185468,0.24030139,0.24479444
837424000,837424000,-7.059061,0.16820739,0.64698166
837436000,837436000,22.006311,0.28333324,-1.620873
837440000,837440000,14.224869,0.3465011,-1.0811434
837456000,837456000,-2.2327998,-0.66968936,-0.023169277
837464000,837464000,0.23537248,-0.43609655,-0.28587544
837476000,837476000,-0.9366955,0.10829811,0.26925552
837484000,837484000,0.035487898,0.37083125,0.052838497
837496000,837496000,0.46677348,-0.17974241,0.08644076
837504000,837504000,0.8832247,-0.08393915,0.10349615
837516000,837516000,0.8188444,-0.2351805,-0.46565315
837524000,837524000,0.58153117,0.38224903,0.17757641
837536000,837536000,0.7527646,-0.17846721,0.12211425
837540000,837540000,0.54648453,-0.22828771,-0.060363166
837556000,837556000,-0.025692645,-0.13614005,0.06671399
837564000,837564000,-0.27965972,0.03488229,-0.3286055
837576000,837576000,-0.28371233,0.18091433,0.4163221
837584000,837584000,-0.51543486,-0.057279047,-0.07057915
837596000,837596000,0.062835775,-0.024763905,0.00146857
837604000,837604000,-13.358718,0.30118114,0.683263
837616000,837616000,13.394382,-0.39913356,-1.2019726
837624000,837624000,-8.187607,-0.3881529,0.66374916
837636000,837636000,-0.47543788,0.5045574,0.10015707
837644000,837644000,-0.9958632,-0.409146,0.55969507
837652000,837652000,-0.050348092,-0.095938064,0.43719774
837660000,837660000,0.44478157,0.31336012,-0.3927316
837676000,837676000,-0.0030049137,0.6293087,0.12298436
837684000,837684000,0.40854833,0.6048381,0.3427688
837696000,837696000,0.20761283,-0.59680915,0.07881053
837704000,837704000,0.050225526,-0.24548139,0.26267597
837716000,837716000,0.14073771,-0.4943249,-0.41381598
837724000,837724000,-0.15620738,-0.010076071,-0.2526683
837736000,837736000,-0.4794868,-0.25168887,-0.2097078
837744000,837744000,-0.5966685,0.30721566,0.16699037
837756000,837756000,-0.0035459083,0.076296456,-0.28996372
837764000,837764000,0.13560462,0.075853474,-0.08590179
837776000,837776000,-6.240819,0.4928378,-0.107720785
837784000,837784000,3.7103314,0.4673102,0.031257022
837796000,837796000,-2.947406,-0.17056513,0.46483067
837804000,837804000,-6.495051,-0.43808994,0.10633109
837816000,837816000,0.046177346,0.35375792,0.32325968
837824000,837824000,-1.4164997,0.40399265,-0.17042296
837836000,837836000,-0.1785575,-0.27373022,-0.028653372
837844000,837844000,0.2058206,0.005369044,0.021854434
837856000,837856000,-0.2073135,-0.15988307,0.34566697
837864000,837864000,0.03246066,-0.03617975,0.35335243
837876000,837876000,0.05772142,-0.13040835,-0.24578495
837884000,837884000,0.50390863,-0.36648577,-0.11188186
837896000,837896000,0.05898339,-0.22225949,-0.19830118
837904000,837904000,0.01514655,0.017574249,-0.4498751
837912000,837912000,0.2626077,-0.07141694,-0.00764946
837920000,837920000,-0.3771142,-0.53116506,0.00995927
837932000,837932000,0.03889621,0.16344754,0.2602395
837944000,837944000,0.76248777,-0.275076,0.19948092
837956000,837956000,-12.552101,-0.3189943,0.7896971
837964000,837964000,21.55143,0.65405846,-1.6121874
837976000,837976000,-8.5929785,-0.27367058,0.5547323
837980000,837980000,-6.8469596,0.15872233,0.298572
837996000,837996000,-0.34163055,-0.0812438,0.33793926
838004000,838004000,-0.8639462,0.42936203,0.45181972
838016000,838016000,0.19974977,0.017459605,-0.35262638
838024000,838024000,-0.49495268,-0.03689258,-0.25389692
838036000,838036000,0.49477676,0.27435455,0.09846838
838044000,838044000,-0.14346147,0.24335076,-0.013344945
838056000,838056000,0.42118728,0.11162663,-0.10415114
838064000,838064000,0.28840467,0.8605545,-0.26786476
838076000,838076000,0.7150487,0.5177863,0.12701076
838084000,838084000,0.49920183,0.44620675,-0.039241634
838096000,838096000,0.7268434,-0.030515341,-0.07461532
838104000,838104000,-0.010328341,0.026069188,-0.049979318
838116000,838116000,0.97014916,0.030894058,-0.19749166
838124000,838124000,0.47949547,-0.10054116,0.18162736
838132000,838132000,-11.917031,-0.17795542,1.2438593
838144000,838144000,14.372402,-0.33272263,-1.3058375
838152000,838152000,-8.999166,-0.2894166,0.6824174
838164000,838164000,-0.40348473,-0.14995262,0.0031480358
838176000,838176000,-0.83396703,-0.338957,-0.026993085
838184000,838184000,-0.78749746,0.025076816,0.18404973
838196000,838196000,-0.35047713,0.4631048,0.38802096
838204000,838204000,-0.54317576,0.7334451,-0.07824505
838216000,838216000,0.40066063,0.19374894,0.1840089
838224000,838224000,0.15362236,0.1137005,0.3095864
838236000,838236000,0.18997084,0.64005077,-0.22747694
838244000,838244000,0.44500652,-0.39482382,-0.35272634
838256000,838256000,0.19631758,-0.10946283,-0.052772086
838264000,838264000,0.17639337,-0.121425755,0.19430833
838276000,838276000,0.42424408,-0.3422199,0.029542053
838284000,838284000,0.2154399,-0.28392318,0.19906227
838296000,838296000,-0.7760879,-0.48615792,-0.10352372
838304000,838304000,-6.5450325,-0.17977455,0.7484511
838316000,838316000,21.7388,-0.30557406,-1.4860303
838324000,838324000,-2.9651718,-0.6670372,0.32973045
838336000,838336000,-2.5086615,-0.07143243,-0.18185726
838344000,838344000,-0.39352417,0.09964998,0.27818456
838356000,838356000,-0.9795157,0.4382963,0.14965305
838364000,838364000,-0.39128494,-0.34384373,-0.24847144
838376000,838376000,-0.20537907,0.6497465,-0.45640326
838384000,838384000,-0.38392267,0.08750693,-0.39974502
838396000,838396000,0.2063831,0.49067923,0.091482416
838404000,838404000,-0.029072372,0.026444416,0.17670316
838416000,838416000,0.19239655,-0.15406348,-0.14460649
838424000,838424000,0.18768953,0.053044397,0.12688406
838436000,838436000,-0.18309093,-0.4090102,0.124313965
838444000,838444000,0.1547172,0.019923607,-0.12848851
838456000,838456000,0.034755036,-0.2549473,-0.1303364
838464000,838464000,-0.22497593,-0.32059836,-0.30313325
838476000,838476000,0.050502166,-0.3396172,0.095922716
838484000,838484000,-12.007971,0.18952923,1.4500536
838496000,838496000,13.551796,0.03685754,-1.2211344
838504000,838504000,-9.110334,-0.65988725,0.6983725
838516000,838516000,0.23872161,0.32207555,-0.23420703
838524000,838524000,-0.19382446,0.2726772,0.2716859
838536000,838536000,0.040938925,0.4422156,-0.018669233
838544000,838544000,-0.05312138,-0.020162458,-0.08421872
838556000,838556000,0.37312526,0.28174296,0.31182298
838564000,838564000,0.4272083,0.08499405,0.2732234
838576000,838576000,-0.08651196,0.19899586,-0.2164773
838584000,838584000,0.5992624,-0.016164223,-0.28105888
838596000,838596000,0.5180465,0.4536408,0.2079914
838604000,838604000,0.70718193,-0.26877052,-0.066300854
838616000,838616000,-0.034765907,-0.39942,0.1717246
838624000,838624000,-0.030738547,0.1736565,-0.64875555
838636000,838636000,0.4003161,-0.20178999,-1.0247217
838640000,838640000,0.19468245,-0.3236707,-0.5221823
838656000,838656000,-6.4684806,-0.3343707,-0.38418344
838664000,838664000,2.2556725,-0.40224433,-0.31001842
838676000,838676000,-3.3504348,-0.43944207,0.1046588
838684000,838684000,-6.634182,-0.011594793,0.72146815
838696000,838696000,0.13733995,-0.1129554,0.75722003
838704000,838704000,-0.6412287,0.7851155,0.33899167
838716000,838716000,-0.30163196,0.07041619,0.38666517
838724000,838724000,-0.46130538,0.16635835,1.1928178
838732000,838732000,0.0197856,0.014993181,0.49488556
838744000,838744000,0.54248047,0.025767691,-0.00974657
838752000,838752000,-0.057120577,0.08549529,-0.10803681
838764000,838764000,0.5441722,0.5022003,0.5330678
838776000,838776000,-0.31650954,-0.27242357,0.35947067
838784000,838784000,0.1548142,-0.71347106,-0.34077442
838792000,838792000,0.3629005,-0.2567807,0.0046171914
838804000,838804000,0.14446771,0.07432675,-0.23424569
838816000,838816000,0.14113836,0.3765663,-0.22121105
838824000,838824000,0.4871151,0.1884215,0.380862
838836000,838836000,-12.457696,0.022805924,0.6383537
838844000,838844000,20.97977,0.62622094,-1.4744917
838856000,838856000,-9.1624,0.36793983,0.39346394
838864000,838864000,-1.8204806,-0.32597274,0.035793744
838876000,838876000,-0.69068533,0.6156859,0.019220607
838884000,838884000,-1.4261065,-0.1732102,0.43139046
838896000,838896000,0.19571798,0.58727324,-0.18185326
838904000,838904000,0.089910686,-0.04076403,-0.043781538
838916000,838916000,0.6693101,-0.56146526,-0.18857065
838924000,838924000,0.18999305,-0.52380353,-0.17843235
838932000,838932000,0.06185749,-0.4048875,-0.2225645
838944000,838944000,0.08417094,-0.42433235,0.015153589
838956000,838956000,0.10264116,-0.28503647,0.05697785
838964000,838964000,-0.19131982,-0.27613285,-0.1790806
838972000,838972000,-0.024668394,-0.4251795,-0.14277434
838980000,838980000,-0.030724313,-0.071026936,-0.52843386
838996000,838996000,0.16569556,-0.12214614,0.32921183
839004000,839004000,-0.0590217,0.22379303,0.031891145
839016000,839016000,2.6408656,0.35743773,-0.14501067
839020000,839020000,21.082008,0.41757658,-1.5929077
839036000,839036000,-5.786953,0.09612645,0.7955856
839044000,839044000,0.11877593,-0.10378147,-0.49116606
839056000,839056000,-1.4173932,0.1589639,0.15966675
839064000,839064000,0.23880878,0.14459048,0.12958291
839072000,839072000,-0.3503833,-0.12061455,0.008764915
839084000,839084000,0.4185928,0.15148836,-0.3747803
839096000,839096000,0.353023,0.4088485,0.44623524
839104000,839104000,0.25391045,0.14184995,0.04561874
839116000,839116000,0.18056616,0.028606344,-0.17640436
839124000,839124000,-0.13514015,-0.010582935,-0.28999513
839136000,839136000,0.09138433,0.51135886,0.16931657
839144000,839144000,-0.45577893,0.1946358,-0.24056159
839156000,839156000,0.34680527,0.077761196,-0.12907435
839164000,839164000,-0.7594361,-0.25509727,0.57878584
839176000,839176000,0.49760458,-0.3695262,-0.060010925
839184000,839184000,-5.596986,-0.116957836,0.53145957
839196000,839196000,21.623224,0.52749115,-1.1927981
839204000,839204000,-2.943368,-0.18104316,-0.035327815
839216000,839216000,-1.5263741,0.046912655,0.5754058
839224000,839224000,0.38186184,0.07123739,-0.07689364
839232000,839232000,-0.75087774,-0.57062864,-0.0839655
839244000,839244000,-0.21068496,0.37054944,-0.13630447
839256000,839256000,0.27061805,0.4330859,-0.18373136
839264000,839264000,-0.07138663,-0.10471525,0.72613955
839276000,839276000,0.48969573,-0.26449615,-0.19272938
839284000,839284000,0.07511198,-0.031460203,-0.46935242
839296000,839296000,-0.076688536,0.11974726,0.3542528
839304000,839304000,0.531878,-0.37038153,0.08985288
839316000,839316000,0.656771,-0.23016272,0.29654476
839324000,839324000,0.29774556,0.17959565,-0.03537419
839332000,839332000,0.107860684,-0.17880757,-0.5082555
839344000,839344000,0.029385993,0.087403335,-0.2495044
839356000,839356000,-0.59445214,0.29748484,-0.117200024
839364000,839364000,-12.825486,-0.25388992,0.7704297
839376000,839376000,14.00175,-0.42127657,-0.5654855
839384000,839384000,-9.502024,0.0063391803,0.47108266
839396000,839396000,-0.23084381,0.04438162,-0.13533963
839404000,839404000,-0.71661407,0.14288475,-0.24189292
839416000,839416000,-1.097903,0.050408874,0.70022416
839420000,839420000,-0.44384092,0.04418649,0.36159706
839432000,839432000,-0.25041172,0.36585498,0.054711055
839444000,839444000,0.528586,-0.16867712,-0.12186897
839456000,839456000,0.70488644,-0.118587166,-0.4146583
839464000,839464000,0.2529328,-0.04336849,-0.3396008
839476000,839476000,0.86564374,-0.1504039,-0.15794897
839484000,839484000,0.95980525,0.15048979,0.182664
839496000,839496000,-0.3062138,-0.030539671,0.07136998
839504000,839504000,0.05620308,-0.25761893,-0.09301202
839516000,839516000,-0.19354856,-0.2716321,0.1254763
839524000,839524000,-0.56044906,-0.3289231,0.36239392
839536000,839536000,-5.582434,-0.16775265,0.16097036
839544000,839544000,3.2147439,0.00089056377,0.4599124
839556000,839556000,-2.7985792,-0.41414323,-0.4134924
839564000,839564000,-6.0239525,0.08614473,0.5845223
839576000,839576000,0.85562235,0.15248752,-0.14022693
839584000,839584000,-0.96374637,-0.061599046,0.11085012
839596000,839596000,-0.33345568,0.43173596,-0.32586107
839604000,839604000,0.20713769,-0.31353778,0.12349583
839616000,839616000,0.34552982,0.2518622,0.109272674
839624000,839624000,0.11875574,0.074405596,-0.15241675
839636000,839636000,0.4301598,0.30866644,0.22141193
839644000,839644000,-0.0534908,0.40077418,-0.121363334
839656000,839656000,-0.12615205,0.11517305,-0.0555884
839664000,839664000,0.035326295,0.16570735,0.009220226
839676000,839676000,-0.5176926,-0.42115676,-0.02224159
839684000,839684000,-0.28107327,0.52089936,-0.4112186
839696000,839696000,-0.36925864,0.3244568,0.34732026
839704000,839704000,-0.34858087,-0.5341721,-0.09142264
839716000,839716000,-12.104634,0.2508586,0.76397634
839724000,839724000,21.916653,-0.12024347,-0.8418134
839736000,839736000,-8.200253,0.24350134,0.5208976
839744000,839744000,-1.915115,0.08116941,0.25327328
839756000,839756000,-0.71485627,0.33877015,-0.18097448
839764000,839764000,-0.41797373,-0.14924225,0.16381817
839776000,839776000,0.032120332,-0.5630008,-0.22432177
839784000,839784000,0.0691608,0.26967368,-0.089218296
839792000,839792000,0.1601111,0.03295365,-0.055706475
839804000,839804000,0.67433393,-0.5714217,-0.4011165
839812000,839812000,0.43475777,0.0076477895,0.31743696
839824000,839824000,0.36681417,-0.18359116,0.085510515
839836000,839836000,0.012138188,0.12289471,0.2168818
839844000,839844000,-0.3759404,0.10114233,-0.1832997
839856000,839856000,-0.40014443,0.37647286,0.50537884
839860000,839860000,-0.8591046,0.34307373,0.53287554
839872000,839872000,-0.24618211,0.3874466,-0.23535278
839884000,839884000,-0.05490228,-0.43593425,0.16525836
839896000,839896000,3.1282508,0.27840805,-0.3232553
839904000,839904000,14.179242,-0.08604092,-1.1179641
839916000,839916000,-6.580108,-0.3519532,0.512015
839924000,839924000,-0.033861272,0.37302867,-0.20811786
839936000,839936000,-1.2927574,0.49468684,0.38876778
839944000,839944000,-0.98395234,0.18700466,-0.043271437
839956000,839956000,0.22291625,0.14031455,-0.27319047
839964000,839964000,0.3420016,0.42795506,0.46650562
839976000,839976000,0.19698386,-0.45631662,-0.17845237
839984000,839984000,-0.20357302,-0.35013697,0.15823579
839996000,839996000,1.3721672,-0.10304049,-0.39277983
840004000,840004000,0.39215383,0.11601849,-0.06452047
840016000,840016000,0.046522968,-0.2829519,0.23408201
840024000,840024000,-0.25811377,0.29763278,-0.36478147
840032000,840032000,-0.019900389,-0.4274624,-0.3203435
840044000,840044000,-0.21952021,-0.19909799,0.3708403
840052000,840052000,-0.4133774,-0.29468283,0.4067225
840060000,840060000,-0.44980764,-0.3302345,0.058536556
840076000,840076000,22.229866,0.18237996,-1.1218753
840084000,840084000,-2.9278233,-0.24243358,0.09361471
840096000,840096000,-2.509875,0.22383259,-0.10504164
840104000,840104000,0.34215793,-0.16316059,0.3619344
840116000,840116000,-1.1674739,0.3192872,-0.08194564
840124000,840124000,-0.24882144,0.45309007,-0.2674655
840136000,840136000,-0.13983501,-0.33451056,0.43343806
840144000,840144000,-0.16718686,-0.01283731,-0.041992065
840156000,840156000,0.107465275,0.6552762,-0.4780029
840164000,840164000,0.14506048,0.18810043,0.06989492
840176000,840176000,0.55228347,0.33354384,0.3302658
840184000,840184000,0.20217426,0.42208466,-0.18979788
840192000,840192000,-0.17897615,-0.020391814,-0.11408884
840204000,840204000,0.40829107,0.64030355,-0.3836917
840216000,840216000,-0.14446773,-0.42336962,-0.2085646
840224000,840224000,-0.29708296,0.101852454,0.41806898
840236000,840236000,-0.25335073,-0.018429428,-0.23572789
840244000,840244000,-12.830538,-0.5599507,0.59442854
840252000,840252000,20.30075,-0.8501505,-1.0044465
840260000,840260000,-4.3941865,-0.9558457,-0.17339
840276000,840276000,-1.8407019,-1.3890884,0.023392754
840284000,840284000,-1.5302954,-0.73531187,-0.17090409
840296000,840296000,-1.1593496,-0.09558269,0.13225439
840304000,840304000,-0.5619284,-0.6273536,-0.099703275
840312000,840312000,0.062336475,0.16934055,0.28777415
840324000,840324000,1.1527239,0.41042364,0.21974097
840336000,840336000,0.69188803,0.5838997,-0.1833153
840344000,840344000,1.4951016,1.3476555,0.030618027
