timestamp,timestamp_sample,gps_hvel[0],gps_hvel[1],gps_vvel,gps_hpos[0],gps_hpos[1],gps_vpos,ev_hvel[0],ev_hvel[1],ev_vvel,ev_hpos[0],ev_hpos[1],ev_vpos,rng_vpos,baro_vpos,aux_hvel[0],aux_hvel[1],aux_vvel,flow[0],flow[1],heading,mag_field[0],mag_field[1],mag_field[2],drag[0],drag[1],airspeed,beta,hagl,hagl_rate
829596000,829516000,2.1596802e-06,0.0,4.11503e-06,2.4117653e-06,0.0,0.0,0.0,0.0,0.0,0.0,0.0,0.0,0.0,1.8805871e-06,0.0,0.0,nan,0.0,0.0,0.00039863572,0.0,0.0,0.0,0.0,0.0,0.0,0.0,0.0,0.0
830092000,830012000,5.4681408e-05,0.0,8.2601105e-07,2.2852305e-06,0.0,0.0,0.0,0.0,0.0,0.0,0.0,0.0,0.0,5.706073e-06,0.0,0.0,nan,0.0,0.0,5.2467483e-05,0.0,0.0,0.0,0.0,0.0,0.0,0.0,0.0,0.0
830596000,830516000,0.00022224602,0.0,2.2080527e-05,2.3330233e-06,0.0,0.0,0.0,0.0,0.0,0.0,0.0,0.0,0.0,7.958908e-06,0.0,0.0,nan,0.0,0.0,0.00012234366,0.0,0.0,0.0,0.0,0.0,0.0,0.0,0.0,0.0
831092000,831012000,9.1640527e-07,0.0,1.8073859e-05,2.0147972e-06,0.0,0.0,0.0,0.0,0.0,0.0,0.0,0.0,0.0,2.2250342e-06,0.0,0.0,nan,0.0,0.0,3.4555134e-05,0.0,0.0,0.0,0.0,0.0,0.0,0.0,0.0,0.0
831596000,831516000,1.5871207e-06,0.0,1.8092927e-05,1.9539914e-06,0.0,0.0,0.0,0.0,0.0,0.0,0.0,0.0,0.0,3.7242008e-11,0.0,0.0,nan,0.0,0.0,7.859043e-06,0.0,0.0,0.0,0.0,0.0,0.0,0.0,0.0,0.0
832092000,832012000,1.1032047e-06,0.0,0.00016820927,2.6798864e-06,0.0,0.0,0.0,0.0,0.0,0.0,0.0,0.0,0.0,9.948883e-06,0.0,0.0,nan,0.0,0.0,0.00024949812,0.0,0.0,0.0,0.0,0.0,0.0,0.0,0.0,0.0
832588000,832508000,4.947267e-05,0.0,2.6606243e-05,1.9468168e-06,0.0,0.0,0.0,0.0,0.0,0.0,0.0,0.0,0.0,6.377175e-07,0.0,0.0,nan,0.0,0.0,7.175142e-05,0.0,0.0,0.0,0.0,0.0,0.0,0.0,0.0,0.0
833092000,833012000,5.1605908e-05,0.0,1.911629e-05,2.7841293e-06,0.0,0.0,0.0,0.0,0.0,0.0,0.0,0.0,0.0,7.3606625e-06,0.0,0.0,nan,0.0,0.0,0.00022741243,0.0,0.0,0.0,0.0,0.0,0.0,0.0,0.0,0.0
833588000,833508000,1.1475396e-06,0.0,8.466109e-05,2.8557627e-06,0.0,0.0,0.0,0.0,0.0,0.0,0.0,0.0,0.0,1.9367637e-05,0.0,0.0,nan,0.0,0.0,0.00019482529,0.0,0.0,0.0,0.0,0.0,0.0,0.0,0.0,0.0
834092000,834012000,7.462396e-05,0.0,0.000112127826,1.9295157e-06,0.0,0.0,0.0,0.0,0.0,0.0,0.0,0.0,0.0,5.235937e-07,0.0,0.0,nan,0.0,0.0,5.9601323e-05,0.0,0.0,0.0,0.0,0.0,0.0,0.0,0.0,0.0
834596000,834516000,7.1171274e-07,0.0,0.00010061065,3.10019e-06,0.0,0.0,0.0,0.0,0.0,0.0,0.0,0.0,0.0,1.3994439e-05,0.0,0.0,nan,0.0,0.0,7.0513655e-05,0.0,0.0,0.0,0.0,0.0,0.0,0.0,0.0,0.0
835092000,835012000,0.0001732729,0.0,6.938212e-05,2.741801e-07,0.0,0.0,0.0,0.0,0.0,0.0,0.0,0.0,0.0,2.5957272e-05,0.0,0.0,nan,0.0,0.0,0.0010972662,0.0,0.0,0.0,0.0,0.0,0.0,0.0,0.0,0.0
835596000,835516000,0.00021661332,0.0,3.5784467e-06,3.051558e-06,0.0,0.0,0.0,0.0,0.0,0.0,0.0,0.0,0.0,1.3792982e-07,0.0,0.0,nan,0.0,0.0,0.00052380003,0.0,0.0,0.0,0.0,0.0,0.0,0.0,0.0,0.0
836092000,836012000,5.845902e-06,0.0,8.7374385e-05,2.0841526e-06,0.0,0.0,0.0,0.0,0.0,0.0,0.0,0.0,0.0,6.741499e-05,0.0,0.0,nan,0.0,0.0,0.00033838418,0.0,0.0,0.0,0.0,0.0,0.0,0.0,0.0,0.0
836588000,836508000,0.00017698375,0.0,0.00029077125,2.8537158e-07,0.0,0.0,0.0,0.0,0.0,0.0,0.0,0.0,0.0,0.0,0.0,0.0,nan,0.0,0.0,0.0005366776,0.0,0.0,0.0,0.0,0.0,0.0,0.0,0.0,0.0
837092000,837012000,1.1808338e-05,0.0,1.0744757e-06,8.285403e-07,0.0,0.0,0.0,0.0,0.0,0.0,0.0,0.0,0.0,2.134871e-06,0.0,0.0,nan,0.0,0.0,1.81256e-05,0.0,0.0,0.0,0.0,0.0,0.0,0.0,0.0,0.0
837588000,837508000,0.00070302206,0.0,0.00061278226,5.526945e-06,0.0,0.0,0.0,0.0,0.0,0.0,0.0,0.0,0.0,3.0671624e-06,0.0,0.0,nan,0.0,0.0,6.3078896e-06,0.0,0.0,0.0,0.0,0.0,0.0,0.0,0.0,0.0
838092000,838012000,0.0007356042,0.0,2.0770234e-05,4.0523915e-05,0.0,0.0,0.0,0.0,0.0,0.0,0.0,0.0,0.0,1.6526446e-05,0.0,0.0,nan,0.0,0.0,3.8118218e-05,0.0,0.0,0.0,0.0,0.0,0.0,0.0,0.0,0.0
838588000,838508000,0.00046664357,0.0,0.0011456235,5.3951946e-05,0.0,0.0,0.0,0.0,0.0,0.0,0.0,0.0,0.0,7.927723e-06,0.0,0.0,nan,0.0,0.0,0.001410837,0.0,0.0,0.0,0.0,0.0,0.0,0.0,0.0,0.0
839092000,839012000,0.0007621042,0.0,0.00043757856,9.407017e-05,0.0,0.0,0.0,0.0,0.0,0.0,0.0,0.0,0.0,9.552122e-06,0.0,0.0,nan,0.0,0.0,0.00046817813,0.0,0.0,0.0,0.0,0.0,0.0,0.0,0.0,0.0
839588000,839508000,0.00059294625,0.0,0.00015906975,0.00019928464,0.0,0.0,0.0,0.0,0.0,0.0,0.0,0.0,0.0,1.9181347e-05,0.0,0.0,nan,0.0,0.0,1.3664832e-05,0.0,0.0,0.0,0.0,0.0,0.0,0.0,0.0,0.0
840092000,840012000,0.0001936873,0.0,3.976187e-06,0.00022179239,0.0,0.0,0.0,0.0,0.0,0.0,0.0,0.0,0.0,8.096411e-06,0.0,0.0,nan,0.0,0.0,0.00014731228,0.0,0.0,0.0,0.0,0.0,0.0,0.0,0.0,0.0
840596000,840516000,0.00025734224,0.0,0.0008851909,0.0002679729,0.0,0.0,0.0,0.0,0.0,0.0,0.0,0.0,0.0,2.6646961e-05,0.0,0.0,nan,0.0,0.0,1.6355714e-05,0.0,0.0,0.0,0.0,0.0,0.0,0.0,0.0,0.0
841092000,841012000,0.00026831083,0.0,5.089836e-08,0.00020959665,0.0,0.0,0.0,0.0,0.0,0.0,0.0,0.0,0.0,5.36086e-06,0.0,0.0,nan,0.0,0.0,5.124148e-05,0.0,0.0,0.0,0.0,0.0,0.0,0.0,0.0,0.0
841596000,841516000,0.00041595576,0.0,0.00024620912,0.00015682446,0.0,0.0,0.0,0.0,0.0,0.0,0.0,0.0,0.0,1.2498874e-05,0.0,0.0,nan,0.0,0.0,0.00016419825,0.0,0.0,0.0,0.0,0.0,0.0,0.0,0.0,0.0
842092000,842012000,0.0033879103,0.0,0.000950327,0.0001210031,0.0,0.0,0.0,0.0,0.0,0.0,0.0,0.0,0.0,3.5473572e-06,0.0,0.0,nan,0.0,0.0,1.6599256e-06,0.0,0.0,0.0,0.0,0.0,0.0,0.0,0.0,0.0
842596000,842516000,0.006482239,0.0,0.00080533285,0.00011106452,0.0,0.0,0.0,0.0,0.0,0.0,0.0,0.0,0.0,1.4980371e-06,0.0,0.0,nan,0.0,0.0,0.0,9.2134076e-05,0.0,0.0,0.0,0.0,0.0,0.0,0.0,0.0
843092000,843012000,0.010006474,0.0,0.0016189556,2.330986e-05,0.0,0.0,0.0,0.0,0.0,0.0,0.0,0.0,0.0,8.43711e-06,0.0,0.0,nan,0.0,0.0,0.0,0.0014000629,0.0,0.0,0.0,0.0,0.0,0.0,0.0,0.0
843588000,843508000,0.007732676,0.0,0.0019472052,2.9445282e-05,0.0,0.0,0.0,0.0,0.0,0.0,0.0,0.0,0.0,1.1543451e-07,0.0,0.0,nan,0.0,0.0,0.0,4.6321235e-05,0.0,0.0,0.0,0.0,0.0,0.0,0.0,0.0
844092000,844012000,0.0033614796,0.0,0.0012983764,1.5344933e-05,0.0,0.0,0.0,0.0,0.0,0.0,0.0,0.0,0.0,1.2260494e-06,0.0,0.0,nan,0.0,0.0,0.0,0.0003755401,0.0,0.0,0.0,0.0,0.0,0.0,0.0,0.0
844596000,844516000,0.0022278007,0.0,0.0014404852,5.024917e-05,0.0,0.0,0.0,0.0,0.0,0.0,0.0,0.0,0.0,2.4828194e-05,0.0,0.0,nan,0.0,0.0,0.0,0.0003153919,0.0,0.0,0.0,0.0,0.0,0.0,0.0,0.0
845092000,845012000,0.0012433092,0.0,0.005034059,3.2326665e-05,0.0,0.0,0.0,0.0,0.0,0.0,0.0,0.0,0.0,4.0722458e-05,0.0,0.0,nan,0.0,0.0,0.0,0.0004294073,0.0,0.0,0.0,0.0,0.0,0.0,0.0,0.0
845588000,845508000,5.0125564e-05,0.0,0.004258583,4.047321e-05,0.0,0.0,0.0,0.0,0.0,0.0,0.0,0.0,0.0,3.7939604e-05,0.0,0.0,nan,0.0,0.0,0.0,6.5747634e-05,0.0,0.0,0.0,0.0,0.0,0.0,0.0,0.0
846092000,846012000,0.00047351694,0.0,0.0077679674,4.236478e-05,0.0,0.0,0.0,0.0,0.0,0.0,0.0,0.0,0.0,4.8065787e-05,0.0,0.0,nan,0.0,0.0,6.320326e-05,0.0,0.0,0.0,0.0,0.0,0.0,0.0,0.0,0.0
846596000,846516000,0.00020551315,0.0,0.0060722465,3.7173657e-05,0.0,0.0,0.0,0.0,0.0,0.0,0.0,0.0,0.0,7.923218e-05,0.0,0.0,nan,0.0,0.0,0.0002185876,0.0,0.0,0.0,0.0,0.0,0.0,0.0,0.0,0.0
847092000,847012000,0.0012261842,0.0,0.00448344,2.4923467e-05,0.0,0.0,0.0,0.0,0.0,0.0,0.0,0.0,0.0,0.000102235215,0.0,0.0,nan,0.0,0.0,4.213227e-05,0.0,0.0,0.0,0.0,0.0,0.0,0.0,0.0,0.0
847596000,847516000,0.00041615986,0.0,0.00971767,3.1611253e-05,0.0,0.0,0.0,0.0,0.0,0.0,0.0,0.0,0.0,5.7830126e-05,0.0,0.0,nan,0.0,0.0,3.7424663e-05,0.0,0.0,0.0,0.0,0.0,0.0,0.0,0.0,0.0
848092000,848012000,0.0004720001,0.0,0.005432947,8.827568e-05,0.0,0.0,0.0,0.0,0.0,0.0,0.0,0.0,0.0,0.000113466944,0.0,0.0,nan,0.0,0.0,2.4538058e-06,0.0,0.0,0.0,0.0,0.0,0.0,0.0,0.0,0.0
848596000,848516000,0.0011511585,0.0,0.0043179146,7.213682e-05,0.0,0.0,0.0,0.0,0.0,0.0,0.0,0.0,0.0,9.594138e-05,0.0,0.0,nan,0.0,0.0,0.00013469068,0.0,0.0,0.0,0.0,0.0,0.0,0.0,0.0,0.0
849092000,849012000,0.00037460605,0.0,0.0046143252,7.546313e-05,0.0,0.0,0.0,0.0,0.0,0.0,0.0,0.0,0.0,3.301057e-05,0.0,0.0,nan,0.0,0.0,2.9060997e-05,0.0,0.0,0.0,0.0,0.0,0.0,0.0,0.0,0.0
849588000,849508000,0.0002843908,0.0,0.0022162013,4.045147e-05,0.0,0.0,0.0,0.0,0.0,0.0,0.0,0.0,0.0,5.6514396e-05,0.0,0.0,nan,0.0,0.0,5.620839e-05,0.0,0.0,0.0,0.0,0.0,0.0,0.0,0.0,0.0
850092000,850012000,0.00030123454,0.0,0.002285424,2.8819928e-05,0.0,0.0,0.0,0.0,0.0,0.0,0.0,0.0,0.0,6.366821e-05,0.0,0.0,nan,0.0,0.0,1.8974908e-05,0.0,0.0,0.0,0.0,0.0,0.0,0.0,0.0,0.0
850588000,850508000,0.00011507119,0.0,0.0019980725,6.4006076e-06,0.0,0.0,0.0,0.0,0.0,0.0,0.0,0.0,0.0,0.00011531752,0.0,0.0,nan,0.0,0.0,5.622339e-07,0.0,0.0,0.0,0.0,0.0,0.0,0.0,0.0,0.0
851092000,851012000,0.0022915553,0.0,0.0014267953,5.406301e-05,0.0,0.0,0.0,0.0,0.0,0.0,0.0,0.0,0.0,4.083911e-05,0.0,0.0,nan,0.0,0.0,0.00012257496,0.0,0.0,0.0,0.0,0.0,0.0,0.0,0.0,0.0
851596000,851516000,0.009647908,0.0,0.0005591814,5.6075634e-05,0.0,0.0,0.0,0.0,0.0,0.0,0.0,0.0,0.0,0.0,0.0,0.0,nan,0.0,0.0,0.0,0.00023501119,0.0,0.0,0.0,0.0,0.0,0.0,0.0,0.0
852092000,852012000,0.022469848,0.0,0.0010827238,0.000109023924,0.0,0.0,0.0,0.0,0.0,0.0,0.0,0.0,0.0,0.0,0.0,0.0,nan,0.0,0.0,0.0,0.00011676038,0.0,0.0,0.0,0.0,0.0,0.0,0.0,0.0
852588000,852508000,0.024455527,0.0,4.1515227e-06,0.0002506646,0.0,0.0,0.0,0.0,0.0,0.0,0.0,0.0,0.0,0.0,0.0,0.0,nan,0.0,0.0,0.0,0.0002396353,0.0,0.0,0.0,0.0,0.0,0.0,0.0,0.0
853092000,853012000,0.011907555,0.0,4.7203315e-08,0.00012302292,0.0,0.0,0.0,0.0,0.0,0.0,0.0,0.0,0.0,0.0,0.0,0.0,nan,0.0,0.0,0.0,0.0006124766,0.0,0.0,0.0,0.0,0.0,0.0,0.0,0.0
853596000,853516000,0.003265511,0.0,0.0028055965,0.00018594078,0.0,0.0,0.0,0.0,0.0,0.0,0.0,0.0,0.0,0.0,0.0,0.0,nan,0.0,0.0,0.0,8.214815e-05,0.0,0.0,0.0,0.0,0.0,0.0,0.0,0.0
854092000,854012000,0.0024587337,0.0,0.0023579367,8.1633196e-05,0.0,0.0,0.0,0.0,0.0,0.0,0.0,0.0,0.0,0.0,0.0,0.0,nan,0.0,0.0,0.0,0.0003801286,0.0,0.0,0.0,0.0,0.0,0.0,0.0,0.0
854588000,854508000,0.0026781394,0.0,0.0019966282,4.437363e-05,0.0,0.0,0.0,0.0,0.0,0.0,0.0,0.0,0.0,0.0,0.0,0.0,nan,0.0,0.0,0.0,6.6484674e-05,0.0,0.0,0.0,0.0,0.0,0.0,0.0,0.0
855092000,855012000,0.0016824283,0.0,0.004449901,6.169157e-05,0.0,0.0,0.0,0.0,0.0,0.0,0.0,0.0,0.0,0.0,0.0,0.0,nan,0.0,0.0,0.0,0.0005192105,0.0,0.0,0.0,0.0,0.0,0.0,0.0,0.0
855596000,855516000,0.0025526062,0.0,0.0050370656,5.6384713e-05,0.0,0.0,0.0,0.0,0.0,0.0,0.0,0.0,0.0,0.0,0.0,0.0,nan,0.0,0.0,3.1983968e-06,0.0,0.0,0.0,0.0,0.0,0.0,0.0,0.0,0.0
856092000,856012000,0.11280831,0.0,0.012668342,0.00023203054,0.0,0.0,0.0,0.0,0.0,0.0,0.0,0.0,0.0,0.0,0.0,0.0,nan,0.0,0.0,0.0,0.0027347011,0.0,0.0,0.0,0.0,0.0,0.0,0.0,0.0
856588000,856508000,0.05983808,0.0,0.0042745345,6.0964416e-05,0.0,0.0,0.0,0.0,0.0,0.0,0.0,0.0,0.0,3.578396e-05,0.0,0.0,nan,0.0,0.0,0.0,0.00013701855,0.0,0.0,0.0,0.0,0.0,0.0,0.0,0.0
857092000,857012000,0.04238253,0.0,0.003587714,0.00038394445,0.0,0.0,0.0,0.0,0.0,0.0,0.0,0.0,0.0,7.513341e-05,0.0,0.0,nan,0.0,0.0,0.0,0.00015048058,0.0,0.0,0.0,0.0,0.0,0.0,0.0,0.0
857596000,857516000,0.026398672,0.0,0.012093948,0.0006989136,0.0,0.0,0.0,0.0,0.0,0.0,0.0,0.0,0.0,0.00010301606,0.0,0.0,nan,0.0,0.0,0.0,0.0011693556,0.0,0.0,0.0,0.0,0.0,0.0,0.0,0.0
858092000,858012000,0.0203541,0.0,0.0039312295,0.00024630546,0.0,0.0,0.0,0.0,0.0,0.0,0.0,0.0,0.0,5.922637e-05,0.0,0.0,nan,0.0,0.0,0.0,0.00015005344,0.0,0.0,0.0,0.0,0.0,0.0,0.0,0.0
858588000,858508000,0.011471599,0.0,0.0027465748,0.00052541855,0.0,0.0,0.0,0.0,0.0,0.0,0.0,0.0,0.0,5.646651e-05,0.0,0.0,nan,0.0,0.0,0.0,0.00058664836,0.0,0.0,0.0,0.0,0.0,0.0,0.0,0.0
859092000,859012000,0.012321197,0.0,0.0016273971,0.00032591927,0.0,0.0,0.0,0.0,0.0,0.0,0.0,0.0,0.0,1.3009288e-05,0.0,0.0,nan,0.0,0.0,0.0,0.0050912644,0.0,0.0,0.0,0.0,0.0,0.0,0.0,0.0
859588000,859508000,0.010611623,0.0,0.003679234,0.00017880129,0.0,0.0,0.0,0.0,0.0,0.0,0.0,0.0,0.0,7.449592e-05,0.0,0.0,nan,0.0,0.0,0.0,0.0011563168,0.0,0.0,0.0,0.0,0.0,0.0,0.0,0.0
860092000,860012000,0.017793765,0.0,0.0027314501,0.00017369112,0.0,0.0,0.0,0.0,0.0,0.0,0.0,0.0,0.0,3.5685654e-05,0.0,0.0,nan,0.0,0.0,0.0,0.00071401545,0.0,0.0,0.0,0.0,0.0,0.0,0.0,0.0
860588000,860508000,0.0077198213,0.0,0.0025804103,0.000101192134,0.0,0.0,0.0,0.0,0.0,0.0,0.0,0.0,0.0,8.041098e-05,0.0,0.0,nan,0.0,0.0,0.0,0.0017175128,0.0,0.0,0.0,0.0,0.0,0.0,0.0,0.0
861092000,861012000,0.0051574595,0.0,0.009820641,4.503483e-05,0.0,0.0,0.0,0.0,0.0,0.0,0.0,0.0,0.0,0.00012434587,0.0,0.0,nan,0.0,0.0,0.0,0.00046509635,0.0,0.0,0.0,0.0,0.0,0.0,0.0,0.0
861588000,861508000,0.0013992338,0.0,0.0044923997,4.506413e-05,0.0,0.0,0.0,0.0,0.0,0.0,0.0,0.0,0.0,0.00020395512,0.0,0.0,nan,0.0,0.0,0.0,0.00017861117,0.0,0.0,0.0,0.0,0.0,0.0,0.0,0.0
862092000,862012000,0.0007628683,0.0,0.0038525793,1.7911323e-05,0.0,0.0,0.0,0.0,0.0,0.0,0.0,0.0,0.0,0.00012873743,0.0,0.0,nan,0.0,0.0,0.0,0.00012623731,0.0,0.0,0.0,0.0,0.0,0.0,0.0,0.0
862588000,862508000,0.00094002136,0.0,0.004023094,1.0440572e-05,0.0,0.0,0.0,0.0,0.0,0.0,0.0,0.0,0.0,0.00011145442,0.0,0.0,nan,0.0,0.0,0.0,0.0007192038,0.0,0.0,0.0,0.0,0.0,0.0,0.0,0.0
863092000,863012000,0.00020577022,0.0,0.0036715423,1.0119625e-05,0.0,0.0,0.0,0.0,0.0,0.0,0.0,0.0,0.0,0.00022378901,0.0,0.0,nan,0.0,0.0,4.1687064e-05,0.0,0.0,0.0,0.0,0.0,0.0,0.0,0.0,0.0
863596000,863516000,9.912767e-06,0.0,0.0059525804,1.24573535e-05,0.0,0.0,0.0,0.0,0.0,0.0,0.0,0.0,0.0,0.00019136403,0.0,0.0,nan,0.0,0.0,5.0275474e-07,0.0,0.0,0.0,0.0,0.0,0.0,0.0,0.0,0.0
864092000,864012000,3.7310292e-05,0.0,0.0049380898,6.3837283e-06,0.0,0.0,0.0,0.0,0.0,0.0,0.0,0.0,0.0,0.00017811196,0.0,0.0,nan,0.0,0.0,3.1330353e-06,0.0,0.0,0.0,0.0,0.0,0.0,0.0,0.0,0.0
864596000,864516000,0.00015135472,0.0,0.004647952,6.574946e-06,0.0,0.0,0.0,0.0,0.0,0.0,0.0,0.0,0.0,0.00019701192,0.0,0.0,nan,0.0,0.0,0.0004906244,0.0,0.0,0.0,0.0,0.0,0.0,0.0,0.0,0.0
865092000,865012000,3.8586186e-06,0.0,0.005502124,1.19232245e-05,0.0,0.0,0.0,0.0,0.0,0.0,0.0,0.0,0.0,0.00031796054,0.0,0.0,nan,0.0,0.0,8.813414e-05,0.0,0.0,0.0,0.0,0.0,0.0,0.0,0.0,0.0
865588000,865508000,5.796351e-05,0.0,0.0056778183,1.3980431e-05,0.0,0.0,0.0,0.0,0.0,0.0,0.0,0.0,0.0,0.00022064298,0.0,0.0,nan,0.0,0.0,0.00020325326,0.0,0.0,0.0,0.0,0.0,0.0,0.0,0.0,0.0
866092000,866012000,0.00033795967,0.0,0.0035775674,1.5357147e-05,0.0,0.0,0.0,0.0,0.0,0.0,0.0,0.0,0.0,0.00026296618,0.0,0.0,nan,0.0,0.0,0.00017996627,0.0,0.0,0.0,0.0,0.0,0.0,0.0,0.0,0.0
866596000,866516000,5.7402332e-05,0.0,0.0035848278,2.3361772e-05,0.0,0.0,0.0,0.0,0.0,0.0,0.0,0.0,0.0,0.00028744497,0.0,0.0,nan,0.0,0.0,1.3809293e-08,0.0,0.0,0.0,0.0,0.0,0.0,0.0,0.0,0.0
867092000,867012000,0.00061773346,0.0,0.004783708,3.7545036e-05,0.0,0.0,0.0,0.0,0.0,0.0,0.0,0.0,0.0,6.436956e-05,0.0,0.0,nan,0.0,0.0,0.00016655578,0.0,0.0,0.0,0.0,0.0,0.0,0.0,0.0,0.0
867596000,867516000,0.00016026007,0.0,0.0027631556,2.6607308e-05,0.0,0.0,0.0,0.0,0.0,0.0,0.0,0.0,0.0,0.00011346866,0.0,0.0,nan,0.0,0.0,6.320614e-05,0.0,0.0,0.0,0.0,0.0,0.0,0.0,0.0,0.0
868092000,868012000,9.175197e-05,0.0,0.0010168658,5.0005357e-05,0.0,0.0,0.0,0.0,0.0,0.0,0.0,0.0,0.0,7.373997e-05,0.0,0.0,nan,0.0,0.0,0.0001392649,0.0,0.0,0.0,0.0,0.0,0.0,0.0,0.0,0.0
868596000,868516000,0.00014743535,0.0,0.00063325587,3.0006393e-05,0.0,0.0,0.0,0.0,0.0,0.0,0.0,0.0,0.0,9.728521e-05,0.0,0.0,nan,0.0,0.0,0.00023904906,0.0,0.0,0.0,0.0,0.0,0.0,0.0,0.0,0.0
869092000,869012000,0.00010695336,0.0,0.00016884961,8.23962e-06,0.0,0.0,0.0,0.0,0.0,0.0,0.0,0.0,0.0,0.00016278683,0.0,0.0,nan,0.0,0.0,0.0013277917,0.0,0.0,0.0,0.0,0.0,0.0,0.0,0.0,0.0
869596000,869516000,0.00033261493,0.0,0.0004871241,6.262127e-06,0.0,0.0,0.0,0.0,0.0,0.0,0.0,0.0,0.0,9.099853e-05,0.0,0.0,nan,0.0,0.0,1.8282119e-06,0.0,0.0,0.0,0.0,0.0,0.0,0.0,0.0,0.0
870092000,870012000,0.00017864078,0.0,1.4089993e-07,1.0675727e-06,0.0,0.0,0.0,0.0,0.0,0.0,0.0,0.0,0.0,0.000102889426,0.0,0.0,nan,0.0,0.0,0.00021816937,0.0,0.0,0.0,0.0,0.0,0.0,0.0,0.0,0.0
870596000,870516000,0.00032447782,0.0,1.1623648e-05,1.6738783e-06,0.0,0.0,0.0,0.0,0.0,0.0,0.0,0.0,0.0,7.8234356e-05,0.0,0.0,nan,0.0,0.0,0.00014610644,0.0,0.0,0.0,0.0,0.0,0.0,0.0,0.0,0.0
871092000,871012000,0.00042537798,0.0,0.00030182122,8.5386176e-07,0.0,0.0,0.0,0.0,0.0,0.0,0.0,0.0,0.0,9.053585e-06,0.0,0.0,nan,0.0,0.0,3.939328e-06,0.0,0.0,0.0,0.0,0.0,0.0,0.0,0.0,0.0
871588000,871508000,0.0006484938,0.0,0.000601871,1.10400615e-05,0.0,0.0,0.0,0.0,0.0,0.0,0.0,0.0,0.0,1.8438695e-05,0.0,0.0,nan,0.0,0.0,4.503938e-06,0.0,0.0,0.0,0.0,0.0,0.0,0.0,0.0,0.0
872092000,872012000,0.0012257962,0.0,2.2393773e-05,1.5003136e-05,0.0,0.0,0.0,0.0,0.0,0.0,0.0,0.0,0.0,7.6740446e-07,0.0,0.0,nan,0.0,0.0,0.0005014133,0.0,0.0,0.0,0.0,0.0,0.0,0.0,0.0,0.0
872588000,872508000,0.0007168159,0.0,0.00028923163,1.1142666e-05,0.0,0.0,0.0,0.0,0.0,0.0,0.0,0.0,0.0,6.3927364e-05,0.0,0.0,nan,0.0,0.0,0.0002210742,0.0,0.0,0.0,0.0,0.0,0.0,0.0,0.0,0.0
873092000,873012000,0.0006108565,0.0,1.4416862e-06,4.915003e-05,0.0,0.0,0.0,0.0,0.0,0.0,0.0,0.0,0.0,2.3755623e-05,0.0,0.0,nan,0.0,0.0,0.00010358553,0.0,0.0,0.0,0.0,0.0,0.0,0.0,0.0,0.0
873596000,873516000,0.00046142592,0.0,0.00011338682,2.392175e-05,0.0,0.0,0.0,0.0,0.0,0.0,0.0,0.0,0.0,4.677341e-06,0.0,0.0,nan,0.0,0.0,7.476069e-05,0.0,0.0,0.0,0.0,0.0,0.0,0.0,0.0,0.0
874092000,874012000,0.0010653752,0.0,0.0004779269,4.632765e-05,0.0,0.0,0.0,0.0,0.0,0.0,0.0,0.0,0.0,2.906607e-08,0.0,0.0,nan,0.0,0.0,0.00016692336,0.0,0.0,0.0,0.0,0.0,0.0,0.0,0.0,0.0
874596000,874516000,0.0011688406,0.0,1.6354701e-05,4.1749856e-05,0.0,0.0,0.0,0.0,0.0,0.0,0.0,0.0,0.0,1.8603342e-06,0.0,0.0,nan,0.0,0.0,7.040004e-05,0.0,0.0,0.0,0.0,0.0,0.0,0.0,0.0,0.0
875092000,875012000,0.00013927941,0.0,7.0427486e-05,8.4920444e-05,0.0,0.0,0.0,0.0,0.0,0.0,0.0,0.0,0.0,2.8792513e-07,0.0,0.0,nan,0.0,0.0,8.539759e-05,0.0,0.0,0.0,0.0,0.0,0.0,0.0,0.0,0.0
875596000,875516000,0.0026435468,0.0,0.000465698,0.00012052429,0.0,0.0,0.0,0.0,0.0,0.0,0.0,0.0,0.0,5.8991405e-05,0.0,0.0,nan,0.0,0.0,1.722455e-06,0.0,0.0,0.0,0.0,0.0,0.0,0.0,0.0,0.0
876092000,876012000,0.0033605709,0.0,0.0009229157,6.0819093e-05,0.0,0.0,0.0,0.0,0.0,0.0,0.0,0.0,0.0,1.791984e-05,0.0,0.0,nan,0.0,0.0,0.00022135192,0.0,0.0,0.0,0.0,0.0,0.0,0.0,0.0,0.0
876596000,876516000,0.0007293429,0.0,0.00044987703,7.836488e-05,0.0,0.0,0.0,0.0,0.0,0.0,0.0,0.0,0.0,1.8251165e-05,0.0,0.0,nan,0.0,0.0,0.0,0.00046991927,0.0,0.0,0.0,0.0,0.0,0.0,0.0,0.0
877092000,877012000,0.00041227564,0.0,0.00046972977,4.2682048e-05,0.0,0.0,0.0,0.0,0.0,0.0,0.0,0.0,0.0,2.7042477e-10,0.0,0.0,nan,0.0,0.0,0.0,0.00032226354,0.0,0.0,0.0,0.0,0.0,0.0,0.0,0.0
877596000,877516000,7.836901e-05,0.0,3.4320605e-05,1.543878e-05,0.0,0.0,0.0,0.0,0.0,0.0,0.0,0.0,0.0,2.2579019e-07,0.0,0.0,nan,0.0,0.0,0.0,6.2802115e-05,0.0,0.0,0.0,0.0,0.0,0.0,0.0,0.0
878092000,878012000,6.2700296e-05,0.0,0.0007582388,1.083238e-05,0.0,0.0,0.0,0.0,0.0,0.0,0.0,0.0,0.0,6.966449e-08,0.0,0.0,nan,0.0,0.0,0.0,0.00043197357,0.0,0.0,0.0,0.0,0.0,0.0,0.0,0.0
878596000,878516000,0.0005347575,0.0,0.0001863524,9.242115e-08,0.0,0.0,0.0,0.0,0.0,0.0,0.0,0.0,0.0,3.8185103e-06,0.0,0.0,nan,0.0,0.0,0.0,0.00044549073,0.0,0.0,0.0,0.0,0.0,0.0,0.0,0.0
879092000,879012000,0.0014205032,0.0,1.9587653e-05,1.0118281e-05,0.0,0.0,0.0,0.0,0.0,0.0,0.0,0.0,0.0,3.733033e-07,0.0,0.0,nan,0.0,0.0,0.0,0.0036321713,0.0,0.0,0.0,0.0,0.0,0.0,0.0,0.0
879596000,879516000,0.0027537039,0.0,0.00041473453,3.5571196e-05,0.0,0.0,0.0,0.0,0.0,0.0,0.0,0.0,0.0,1.2837498e-05,0.0,0.0,nan,0.0,0.0,0.0,0.0033424133,0.0,0.0,0.0,0.0,0.0,0.0,0.0,0.0
880092000,880012000,0.0008993808,0.0,8.5181874e-08,3.6587742e-05,0.0,0.0,0.0,0.0,0.0,0.0,0.0,0.0,0.0,0.0,0.0,0.0,nan,0.0,0.0,0.00037030573,0.0,0.0,0.0,0.0,0.0,0.0,0.0,0.0,0.0
880596000,880516000,0.0017218139,0.0,9.838322e-06,8.273106e-05,0.0,0.0,0.0,0.0,0.0,0.0,0.0,0.0,0.0,0.0,0.0,0.0,nan,0.0,0.0,0.0,0.0002202971,0.0,0.0,0.0,0.0,0.0,0.0,0.0,0.0
881092000,881012000,0.002424236,0.0,0.00027732286,9.875386e-05,0.0,0.0,0.0,0.0,0.0,0.0,0.0,0.0,0.0,0.0,0.0,0.0,nan,0.0,0.0,0.0,0.00016014346,0.0,0.0,0.0,0.0,0.0,0.0,0.0,0.0
881588000,881508000,0.0006378651,0.0,7.195199e-05,9.646936e-05,0.0,0.0,0.0,0.0,0.0,0.0,0.0,0.0,0.0,0.0,0.0,0.0,nan,0.0,0.0,0.0,0.0005143966,0.0,0.0,0.0,0.0,0.0,0.0,0.0,0.0
882092000,882012000,0.0015372589,0.0,0.00014996044,9.838561e-05,0.0,0.0,0.0,0.0,0.0,0.0,0.0,0.0,0.0,0.0,0.0,0.0,nan,0.0,0.0,0.0,0.00011053032,0.0,0.0,0.0,0.0,0.0,0.0,0.0,0.0
882588000,882508000,0.00031026755,0.0,7.099892e-06,4.139574e-05,0.0,0.0,0.0,0.0,0.0,0.0,0.0,0.0,0.0,0.0,0.0,0.0,nan,0.0,0.0,0.0,0.00094263535,0.0,0.0,0.0,0.0,0.0,0.0,0.0,0.0
883092000,883012000,5.4007323e-05,0.0,0.0003338448,4.7399888e-05,0.0,0.0,0.0,0.0,0.0,0.0,0.0,0.0,0.0,0.0,0.0,0.0,nan,0.0,0.0,0.0,0.0005601691,0.0,0.0,0.0,0.0,0.0,0.0,0.0,0.0
883596000,883516000,5.1037834e-05,0.0,7.073175e-07,4.7372276e-05,0.0,0.0,0.0,0.0,0.0,0.0,0.0,0.0,0.0,0.0,0.0,0.0,nan,0.0,0.0,0.0,6.779014e-05,0.0,0.0,0.0,0.0,0.0,0.0,0.0,0.0
884092000,884012000,0.00053295394,0.0,1.8738019e-06,3.1198364e-05,0.0,0.0,0.0,0.0,0.0,0.0,0.0,0.0,0.0,0.0,0.0,0.0,nan,0.0,0.0,1.0084693e-06,0.0,0.0,0.0,0.0,0.0,0.0,0.0,0.0,0.0
884588000,884508000,0.00053355494,0.0,0.00013152043,2.3402095e-05,0.0,0.0,0.0,0.0,0.0,0.0,0.0,0.0,0.0,0.0,0.0,0.0,nan,0.0,0.0,6.345467e-05,0.0,0.0,0.0,0.0,0.0,0.0,0.0,0.0,0.0
885092000,885012000,0.0014250034,0.0,0.00036053322,9.405224e-06,0.0,0.0,0.0,0.0,0.0,0.0,0.0,0.0,0.0,0.0,0.0,0.0,nan,0.0,0.0,8.248533e-05,0.0,0.0,0.0,0.0,0.0,0.0,0.0,0.0,0.0
885588000,885508000,1.3184696e-05,0.0,2.1135798e-05,6.8457825e-06,0.0,0.0,0.0,0.0,0.0,0.0,0.0,0.0,0.0,0.0,0.0,0.0,nan,0.0,0.0,9.332744e-07,0.0,0.0,0.0,0.0,0.0,0.0,0.0,0.0,0.0
886092000,886012000,0.00039759846,0.0,0.00012302889,1.1660136e-05,0.0,0.0,0.0,0.0,0.0,0.0,0.0,0.0,0.0,0.0,0.0,0.0,nan,0.0,0.0,7.2676755e-08,0.0,0.0,0.0,0.0,0.0,0.0,0.0,0.0,0.0
886596000,886516000,0.00018907223,0.0,2.7160988e-05,8.2442e-06,0.0,0.0,0.0,0.0,0.0,0.0,0.0,0.0,0.0,0.0,0.0,0.0,nan,0.0,0.0,0.0004624572,0.0,0.0,0.0,0.0,0.0,0.0,0.0,0.0,0.0
887092000,887012000,0.0003157801,0.0,1.2639664e-05,1.0734883e-05,0.0,0.0,0.0,0.0,0.0,0.0,0.0,0.0,0.0,0.0,0.0,0.0,nan,0.0,0.0,6.170779e-05,0.0,0.0,0.0,0.0,0.0,0.0,0.0,0.0,0.0
887596000,887516000,0.00011046253,0.0,0.0004875289,9.673311e-06,0.0,0.0,0.0,0.0,0.0,0.0,0.0,0.0,0.0,0.0,0.0,0.0,nan,0.0,0.0,0.0017573236,0.0,0.0,0.0,0.0,0.0,0.0,0.0,0.0,0.0
888092000,888012000,3.3436954e-05,0.0,7.4663716e-05,5.290544e-06,0.0,0.0,0.0,0.0,0.0,0.0,0.0,0.0,0.0,0.0,0.0,0.0,nan,0.0,0.0,3.1950546e-07,0.0,0.0,0.0,0.0,0.0,0.0,0.0,0.0,0.0
888596000,888516000,2.2511236e-05,0.0,1.2979719e-05,3.681827e-06,0.0,0.0,0.0,0.0,0.0,0.0,0.0,0.0,0.0,0.0,0.0,0.0,nan,0.0,0.0,0.0001899145,0.0,0.0,0.0,0.0,0.0,0.0,0.0,0.0,0.0
889092000,889012000,0.000111741494,0.0,1.2987343e-05,7.5734406e-06,0.0,0.0,0.0,0.0,0.0,0.0,0.0,0.0,0.0,0.0,0.0,0.0,nan,0.0,0.0,3.2134583e-05,0.0,0.0,0.0,0.0,0.0,0.0,0.0,0.0,0.0
889588000,889508000,0.00011986257,0.0,0.00042901956,1.14145205e-05,0.0,0.0,0.0,0.0,0.0,0.0,0.0,0.0,0.0,0.0,0.0,0.0,nan,0.0,0.0,3.521778e-05,0.0,0.0,0.0,0.0,0.0,0.0,0.0,0.0,0.0
890092000,890012000,9.168469e-06,0.0,4.262703e-05,1.7568687e-05,0.0,0.0,0.0,0.0,0.0,0.0,0.0,0.0,0.0,0.0,0.0,0.0,nan,0.0,0.0,5.9815087e-05,0.0,0.0,0.0,0.0,0.0,0.0,0.0,0.0,0.0
890596000,890516000,0.00017064485,0.0,0.00022357139,2.19208e-05,0.0,0.0,0.0,0.0,0.0,0.0,0.0,0.0,0.0,0.0,0.0,0.0,nan,0.0,0.0,0.00089789357,0.0,0.0,0.0,0.0,0.0,0.0,0.0,0.0,0.0
891092000,891012000,0.00036260433,0.0,0.00016924099,2.1398379e-05,0.0,0.0,0.0,0.0,0.0,0.0,0.0,0.0,0.0,0.0,0.0,0.0,nan,0.0,0.0,0.00011844707,0.0,0.0,0.0,0.0,0.0,0.0,0.0,0.0,0.0
891596000,891516000,0.0005959852,0.0,5.632852e-07,3.6880374e-05,0.0,0.0,0.0,0.0,0.0,0.0,0.0,0.0,0.0,0.0,0.0,0.0,nan,0.0,0.0,3.913067e-05,0.0,0.0,0.0,0.0,0.0,0.0,0.0,0.0,0.0
892092000,892012000,0.00055972673,0.0,2.186205e-05,2.2549639e-05,0.0,0.0,0.0,0.0,0.0,0.0,0.0,0.0,0.0,0.0,0.0,0.0,nan,0.0,0.0,1.2848339e-05,0.0,0.0,0.0,0.0,0.0,0.0,0.0,0.0,0.0
892596000,892516000,0.0011532401,0.0,4.0098603e-05,3.7897786e-05,0.0,0.0,0.0,0.0,0.0,0.0,0.0,0.0,0.0,0.0,0.0,0.0,nan,0.0,0.0,6.8443705e-07,0.0,0.0,0.0,0.0,0.0,0.0,0.0,0.0,0.0
893092000,893012000,0.0004970169,0.0,4.6507193e-05,2.3451068e-05,0.0,0.0,0.0,0.0,0.0,0.0,0.0,0.0,0.0,0.0,0.0,0.0,nan,0.0,0.0,0.00039033373,0.0,0.0,0.0,0.0,0.0,0.0,0.0,0.0,0.0
893588000,893508000,0.0017210632,0.0,0.0006168742,3.8497576e-05,0.0,0.0,0.0,0.0,0.0,0.0,0.0,0.0,0.0,0.0,0.0,0.0,nan,0.0,0.0,1.0529811e-05,0.0,0.0,0.0,0.0,0.0,0.0,0.0,0.0,0.0
894092000,894012000,0.00031414969,0.0,6.547584e-05,2.4351219e-05,0.0,0.0,0.0,0.0,0.0,0.0,0.0,0.0,0.0,0.0,0.0,0.0,nan,0.0,0.0,4.6213427e-05,0.0,0.0,0.0,0.0,0.0,0.0,0.0,0.0,0.0
894588000,894508000,0.0009535099,0.0,0.00013573209,3.7111906e-05,0.0,0.0,0.0,0.0,0.0,0.0,0.0,0.0,0.0,0.0,0.0,0.0,nan,0.0,0.0,6.2896026e-05,0.0,0.0,0.0,0.0,0.0,0.0,0.0,0.0,0.0
895092000,895012000,0.00115746,0.0,1.43497555e-05,4.0604977e-05,0.0,0.0,0.0,0.0,0.0,0.0,0.0,0.0,0.0,0.0,0.0,0.0,nan,0.0,0.0,7.674683e-08,0.0,0.0,0.0,0.0,0.0,0.0,0.0,0.0,0.0
895588000,895508000,0.00087629806,0.0,0.0012319605,2.821224e-05,0.0,0.0,0.0,0.0,0.0,0.0,0.0,0.0,0.0,0.0,0.0,0.0,nan,0.0,0.0,0.00022395974,0.0,0.0,0.0,0.0,0.0,0.0,0.0,0.0,0.0
896092000,896012000,0.002934218,0.0,0.00030534648,2.7579395e-05,0.0,0.0,0.0,0.0,0.0,0.0,0.0,0.0,0.0,0.0,0.0,0.0,nan,0.0,0.0,0.0010622635,0.0,0.0,0.0,0.0,0.0,0.0,0.0,0.0,0.0
896588000,896508000,0.00052009453,0.0,0.000107084765,3.586065e-05,0.0,0.0,0.0,0.0,0.0,0.0,0.0,0.0,0.0,5.6679097e-09,0.0,0.0,nan,0.0,0.0,0.0007914105,0.0,0.0,0.0,0.0,0.0,0.0,0.0,0.0,0.0
897092000,897012000,0.00024973924,0.0,0.00023375113,2.3780925e-05,0.0,0.0,0.0,0.0,0.0,0.0,0.0,0.0,0.0,0.0,0.0,0.0,nan,0.0,0.0,7.947499e-07,0.0,0.0,0.0,0.0,0.0,0.0,0.0,0.0,0.0
897596000,897516000,0.0002627896,0.0,0.00021815822,2.8000684e-05,0.0,0.0,0.0,0.0,0.0,0.0,0.0,0.0,0.0,1.2400982e-05,0.0,0.0,nan,0.0,0.0,0.0012122025,0.0,0.0,0.0,0.0,0.0,0.0,0.0,0.0,0.0
898092000,898012000,0.00019552016,0.0,0.0008092679,9.087335e-06,0.0,0.0,0.0,0.0,0.0,0.0,0.0,0.0,0.0,1.02032054e-07,0.0,0.0,nan,0.0,0.0,4.5168243e-05,0.0,0.0,0.0,0.0,0.0,0.0,0.0,0.0,0.0
898588000,898508000,0.00035730092,0.0,0.0006287826,7.924407e-06,0.0,0.0,0.0,0.0,0.0,0.0,0.0,0.0,0.0,7.219337e-05,0.0,0.0,nan,0.0,0.0,0.0004902495,0.0,0.0,0.0,0.0,0.0,0.0,0.0,0.0,0.0
899092000,899012000,1.3905195e-07,0.0,0.00037377668,4.367891e-06,0.0,0.0,0.0,0.0,0.0,0.0,0.0,0.0,0.0,0.000245044,0.0,0.0,nan,0.0,0.0,0.00024550318,0.0,0.0,0.0,0.0,0.0,0.0,0.0,0.0,0.0
899596000,899516000,0.00040718727,0.0,1.0806037e-06,4.5453376e-06,0.0,0.0,0.0,0.0,0.0,0.0,0.0,0.0,0.0,2.427864e-05,0.0,0.0,nan,0.0,0.0,0.00046074766,0.0,0.0,0.0,0.0,0.0,0.0,0.0,0.0,0.0
900092000,900012000,5.2904048e-05,0.0,3.7025532e-07,3.9888196e-06,0.0,0.0,0.0,0.0,0.0,0.0,0.0,0.0,0.0,0.0001019895,0.0,0.0,nan,0.0,0.0,0.00031148418,0.0,0.0,0.0,0.0,0.0,0.0,0.0,0.0,0.0
