timestamp,timestamp_sample,control[0],control[1],control[2],control[3],control[4],control[5],control[6],control[7]
829264000,829264000,-0.011654332,-0.010769345,0.0011646937,0.001,0.0,0.0,0.0,-1.0
829268000,829268000,-0.011410091,-0.010656576,0.001021978,0.001,0.0,0.0,0.0,-1.0
829316000,829316000,-0.010276095,-0.011123426,-9.648266e-05,0.001,0.0,0.0,0.0,-1.0
829364000,829364000,-0.010635875,-0.0110955285,-0.0010576176,0.001,0.0,0.0,0.0,-1.0
829416000,829416000,-0.01154995,-0.011275667,0.00014862626,0.001,0.0,0.0,0.0,-1.0
829464000,829464000,-0.010580932,-0.010970511,8.156834e-05,0.001,0.0,0.0,0.0,-1.0
829516000,829516000,-0.009088351,-0.011268587,0.00024404959,0.001,0.0,0.0,0.0,-1.0
829564000,829564000,-0.012988003,-0.010972834,-0.00026798068,0.001,0.0,0.0,0.0,-1.0
829612000,829612000,-0.011244243,-0.010556596,0.000732965,0.001,0.0,0.0,0.0,-1.0
829664000,829664000,-0.011969362,-0.01165162,0.00040286552,0.001,0.0,0.0,0.0,-1.0
829712000,829712000,-0.012289902,-0.010239404,8.9405316e-05,0.001,0.0,0.0,0.0,-1.0
829760000,829760000,-0.0091001345,-0.010858112,-0.00021899262,0.001,0.0,0.0,0.0,-1.0
829816000,829816000,-0.011015124,-0.010486763,-0.00020913263,0.001,0.0,0.0,0.0,-1.0
829864000,829864000,-0.012186149,-0.009664348,0.00067536783,0.001,0.0,0.0,0.0,-1.0
829916000,829916000,-0.012140032,-0.011283261,-0.00024695936,0.001,0.0,0.0,0.0,-1.0
829964000,829964000,-0.010409354,-0.010556032,0.0010784244,0.001,0.0,0.0,0.0,-1.0
830016000,830016000,-0.010613006,-0.010905057,-4.5056223e-07,0.001,0.0,0.0,0.0,-1.0
830064000,830064000,-0.011579762,-0.0104202805,-0.0002069586,0.001,0.0,0.0,0.0,-1.0
830116000,830116000,-0.011466947,-0.010938293,8.2446524e-05,0.001,0.0,0.0,0.0,-1.0
830164000,830164000,-0.011049463,-0.010936009,0.0003119739,0.001,0.0,0.0,0.0,-1.0
830212000,830212000,-0.011984149,-0.01034912,0.0010388846,0.001,0.0,0.0,0.0,-1.0
830264000,830264000,-0.011530861,-0.011244399,-0.00035474377,0.001,0.0,0.0,0.0,-1.0
830316000,830316000,-0.0095569845,-0.011267905,-0.0007032725,0.001,0.0,0.0,0.0,-1.0
830360000,830360000,-0.012196115,-0.010672765,0.0003370236,0.001,0.0,0.0,0.0,-1.0
830416000,830416000,-0.012089209,-0.011417945,5.106524e-05,0.001,0.0,0.0,0.0,-1.0
830464000,830464000,-0.011740675,-0.011465148,0.00046424332,0.001,0.0,0.0,0.0,-1.0
830516000,830516000,-0.011018573,-0.010698083,-0.0004651922,0.001,0.0,0.0,0.0,-1.0
830564000,830564000,-0.011044609,-0.011247667,0.00049702,0.001,0.0,0.0,0.0,-1.0
830616000,830616000,-0.010137739,-0.010556092,-0.0006341954,0.001,0.0,0.0,0.0,-1.0
830664000,830664000,-0.011037113,-0.010626915,0.00037861636,0.001,0.0,0.0,0.0,-1.0
830716000,830716000,-0.011671865,-0.011102035,-0.00021444411,0.001,0.0,0.0,0.0,-1.0
830764000,830764000,-0.010888491,-0.010663384,-0.0009382575,0.001,0.0,0.0,0.0,-1.0
830816000,830816000,-0.012176307,-0.011233775,0.0003148577,0.001,0.0,0.0,0.0,-1.0
830864000,830864000,-0.010037988,-0.011020842,-0.00032096307,0.001,0.0,0.0,0.0,-1.0
830916000,830916000,-0.011184681,-0.011515271,-0.00029054596,0.001,0.0,0.0,0.0,-1.0
830964000,830964000,-0.010045608,-0.010807,0.00061847985,0.001,0.0,0.0,0.0,-1.0
831012000,831012000,-0.010862417,-0.011176244,0.0005743364,0.001,0.0,0.0,0.0,-1.0
831064000,831064000,-0.01083423,-0.011350366,0.0018155774,0.001,0.0,0.0,0.0,-1.0
831116000,831116000,-0.0119179655,-0.011136098,-8.678594e-06,0.001,0.0,0.0,0.0,-1.0
831164000,831164000,-0.010588183,-0.012482514,-0.00013298693,0.001,0.0,0.0,0.0,-1.0
831216000,831216000,-0.009238833,-0.011352117,0.0012628109,0.001,0.0,0.0,0.0,-1.0
831264000,831264000,-0.0115022985,-0.010253172,-0.00015334622,0.001,0.0,0.0,0.0,-1.0
831316000,831316000,-0.0118946,-0.011776864,-0.00047060786,0.001,0.0,0.0,0.0,-1.0
831364000,831364000,-0.010174661,-0.010966512,-1.5187368e-05,0.001,0.0,0.0,0.0,-1.0
831412000,831412000,-0.010720551,-0.011487376,-0.00029738937,0.001,0.0,0.0,0.0,-1.0
831464000,831464000,-0.012266992,-0.010681385,0.00011646424,0.001,0.0,0.0,0.0,-1.0
831516000,831516000,-0.011773536,-0.011431023,-0.0013177817,0.001,0.0,0.0,0.0,-1.0
831564000,831564000,-0.009605785,-0.011258229,-0.00062483264,0.001,0.0,0.0,0.0,-1.0
831616000,831616000,-0.009818474,-0.011796494,3.1336076e-05,0.001,0.0,0.0,0.0,-1.0
831664000,831664000,-0.011415696,-0.010898282,-0.00033664843,0.001,0.0,0.0,0.0,-1.0
831716000,831716000,-0.01114788,-0.01162302,0.00025288668,0.001,0.0,0.0,0.0,-1.0
831764000,831764000,-0.009885742,-0.011309796,0.00050787994,0.001,0.0,0.0,0.0,-1.0
831816000,831816000,-0.010910853,-0.012035368,-0.0006949878,0.001,0.0,0.0,0.0,-1.0
831864000,831864000,-0.010412899,-0.0117452005,-0.00017936829,0.001,0.0,0.0,0.0,-1.0
831916000,831916000,-0.010823737,-0.011694325,-0.00015787488,0.001,0.0,0.0,0.0,-1.0
831964000,831964000,-0.009239965,-0.011152381,0.00028611664,0.001,0.0,0.0,0.0,-1.0
832016000,832016000,-0.009574475,-0.01127098,0.00020581033,0.001,0.0,0.0,0.0,-1.0
832064000,832064000,-0.011247319,-0.011569455,0.0004737228,0.001,0.0,0.0,0.0,-1.0
832116000,832116000,-0.010499419,-0.012092998,-3.862789e-05,0.001,0.0,0.0,0.0,-1.0
832164000,832164000,-0.0104659945,-0.011746302,-0.000109661094,0.001,0.0,0.0,0.0,-1.0
832216000,832216000,-0.01058788,-0.011530476,0.00038553934,0.001,0.0,0.0,0.0,-1.0
832264000,832264000,-0.01081353,-0.011245294,-0.00031966998,0.001,0.0,0.0,0.0,-1.0
832316000,832316000,-0.010994531,-0.011543085,-0.0006665961,0.001,0.0,0.0,0.0,-1.0
832364000,832364000,-0.010777196,-0.011589329,0.00043875314,0.001,0.0,0.0,0.0,-1.0
832416000,832416000,-0.011421715,-0.011528469,7.868877e-05,0.001,0.0,0.0,0.0,-1.0
832464000,832464000,-0.010652336,-0.012165383,-0.0001563821,0.001,0.0,0.0,0.0,-1.0
832512000,832512000,-0.011195185,-0.01156082,-0.00019706521,0.001,0.0,0.0,0.0,-1.0
832564000,832564000,-0.0112117175,-0.011586305,0.00087420875,0.001,0.0,0.0,0.0,-1.0
832616000,832616000,-0.01040257,-0.0115313,0.00015333893,0.001,0.0,0.0,0.0,-1.0
832660000,832660000,-0.0102407085,-0.011156109,0.0001940645,0.001,0.0,0.0,0.0,-1.0
832716000,832716000,-0.010360709,-0.01195754,0.00011945556,0.001,0.0,0.0,0.0,-1.0
832764000,832764000,-0.011649812,-0.011734556,0.0007780798,0.001,0.0,0.0,0.0,-1.0
832816000,832816000,-0.01093374,-0.011351362,-0.0016364411,0.001,0.0,0.0,0.0,-1.0
832864000,832864000,-0.011050923,-0.012371298,-0.00088858337,0.001,0.0,0.0,0.0,-1.0
832912000,832912000,-0.011065164,-0.011845968,-0.0011355211,0.001,0.0,0.0,0.0,-1.0
832964000,832964000,-0.01081154,-0.011161273,5.8652195e-06,0.001,0.0,0.0,0.0,-1.0
833016000,833016000,-0.01055619,-0.011553954,0.00033092694,0.001,0.0,0.0,0.0,-1.0
833064000,833064000,-0.0098637855,-0.012840503,1.00823645e-05,0.001,0.0,0.0,0.0,-1.0
833116000,833116000,-0.010529909,-0.012452799,-0.0005997098,0.001,0.0,0.0,0.0,-1.0
833164000,833164000,-0.011979335,-0.012358095,-8.828345e-05,0.001,0.0,0.0,0.0,-1.0
833212000,833212000,-0.010876087,-0.011345525,4.0161598e-05,0.001,0.0,0.0,0.0,-1.0
833260000,833260000,-0.010629053,-0.011543797,0.00018284864,0.001,0.0,0.0,0.0,-1.0
833316000,833316000,-0.0108917635,-0.0117884595,0.0011363089,0.001,0.0,0.0,0.0,-1.0
833364000,833364000,-0.009769444,-0.011914028,-0.0010881157,0.001,0.0,0.0,0.0,-1.0
833416000,833416000,-0.010637903,-0.012002175,0.00028173253,0.001,0.0,0.0,0.0,-1.0
833464000,833464000,-0.0095725,-0.012291158,0.0006602375,0.001,0.0,0.0,0.0,-1.0
833516000,833516000,-0.01157316,-0.01213704,0.00064508314,0.001,0.0,0.0,0.0,-1.0
833564000,833564000,-0.011278755,-0.011956388,0.00031572327,0.001,0.0,0.0,0.0,-1.0
833616000,833616000,-0.010648341,-0.012431694,0.00028719715,0.001,0.0,0.0,0.0,-1.0
833664000,833664000,-0.011436653,-0.012302003,9.9560784e-05,0.001,0.0,0.0,0.0,-1.0
833716000,833716000,-0.010430095,-0.011693342,0.00013374751,0.001,0.0,0.0,0.0,-1.0
833764000,833764000,-0.010255727,-0.011629849,-0.00087664387,0.001,0.0,0.0,0.0,-1.0
833816000,833816000,-0.0086261295,-0.012052191,0.00034888848,0.001,0.0,0.0,0.0,-1.0
833864000,833864000,-0.011666122,-0.012132789,0.00077959197,0.001,0.0,0.0,0.0,-1.0
833916000,833916000,-0.011511397,-0.012141099,-0.0001074392,0.001,0.0,0.0,0.0,-1.0
833960000,833960000,-0.009922019,-0.011912762,0.0008764824,0.001,0.0,0.0,0.0,-1.0
834016000,834016000,-0.01019576,-0.012168732,-0.00046754294,0.001,0.0,0.0,0.0,-1.0
834064000,834064000,-0.010742867,-0.011949079,-0.0005208454,0.001,0.0,0.0,0.0,-1.0
834116000,834116000,-0.01170456,-0.011408418,0.001249075,0.001,0.0,0.0,0.0,-1.0
834164000,834164000,-0.008938973,-0.012428793,0.0004354435,0.001,0.0,0.0,0.0,-1.0
834216000,834216000,-0.0100701125,-0.011846747,-0.00035224424,0.001,0.0,0.0,0.0,-1.0
834260000,834260000,-0.010659482,-0.012274181,0.00041203448,0.001,0.0,0.0,0.0,-1.0
834316000,834316000,-0.011285599,-0.011980322,0.00038679995,0.001,0.0,0.0,0.0,-1.0
834364000,834364000,-0.010470549,-0.011840152,0.00035493233,0.001,0.0,0.0,0.0,-1.0
834412000,834412000,-0.011052129,-0.011806243,0.00019746076,0.001,0.0,0.0,0.0,-1.0
834464000,834464000,-0.011011126,-0.01255277,-0.00022052042,0.001,0.0,0.0,0.0,-1.0
834516000,834516000,-0.009326585,-0.012183648,0.00050382724,0.001,0.0,0.0,0.0,-1.0
834564000,834564000,-0.011183812,-0.011631907,-0.00035181732,0.001,0.0,0.0,0.0,-1.0
834616000,834616000,-0.011949372,-0.011717883,-0.00034115496,0.001,0.0,0.0,0.0,-1.0
834664000,834664000,-0.011744018,-0.012098885,0.00029619253,0.001,0.0,0.0,0.0,-1.0
834712000,834712000,-0.010892479,-0.011831794,2.6616164e-05,0.001,0.0,0.0,0.0,-1.0
834760000,834760000,-0.0120224105,-0.012668315,-0.0005425715,0.001,0.0,0.0,0.0,-1.0
834816000,834816000,-0.010160636,-0.01268257,-0.00032339382,0.001,0.0,0.0,0.0,-1.0
834864000,834864000,-0.010383363,-0.011704459,0.00027422444,0.001,0.0,0.0,0.0,-1.0
834916000,834916000,-0.009126014,-0.012422244,-0.00022175907,0.001,0.0,0.0,0.0,-1.0
834964000,834964000,-0.009769783,-0.012273113,-0.00042107035,0.001,0.0,0.0,0.0,-1.0
835016000,835016000,-0.011236099,-0.011852372,-0.00063363527,0.001,0.0,0.0,0.0,-1.0
835064000,835064000,-0.010674398,-0.011867298,0.00038639325,0.001,0.0,0.0,0.0,-1.0
835116000,835116000,-0.010639865,-0.0123352455,0.00033618038,0.001,0.0,0.0,0.0,-1.0
835164000,835164000,-0.010503082,-0.011937835,9.6849755e-05,0.001,0.0,0.0,0.0,-1.0
835216000,835216000,-0.012001669,-0.012053546,7.284036e-05,0.001,0.0,0.0,0.0,-1.0
835264000,835264000,-0.010712189,-0.012323607,-0.0006589956,0.001,0.0,0.0,0.0,-1.0
835316000,835316000,-0.009720937,-0.011169665,0.00044093863,0.001,0.0,0.0,0.0,-1.0
835364000,835364000,-0.011139992,-0.011269672,0.00040875375,0.001,0.0,0.0,0.0,-1.0
835416000,835416000,-0.014587623,-0.010007631,-0.00035725473,0.008588288,0.0,0.0,0.0,-1.0
835464000,835464000,-0.013528845,-0.01033597,0.00010386423,0.01490205,0.0,0.0,0.0,-1.0
835516000,835516000,-0.011610541,-0.009992852,0.0012550084,0.023161085,0.0,0.0,0.0,-1.0
835564000,835564000,-0.010445076,-0.011129993,0.00016505136,0.03007913,0.0,0.0,0.0,-1.0
835616000,835616000,-0.0071882973,-0.0095965825,-0.0009842511,0.037800103,0.0,0.0,0.0,-1.0
835664000,835664000,-0.012565723,-0.010200811,-0.0005822641,0.04672186,0.0,0.0,0.0,-1.0
835716000,835716000,-0.012522261,-0.010446925,0.000425333,0.05630015,0.0,0.0,0.0,-1.0
835764000,835764000,-0.011635965,-0.010913981,0.00067507476,0.06555967,0.0,0.0,0.0,-1.0
835816000,835816000,-0.009407675,-0.010653862,0.00043467144,0.07448927,0.0,0.0,0.0,-1.0
835864000,835864000,-0.012559974,-0.011038486,0.0002845245,0.084347986,0.0,0.0,0.0,-1.0
835916000,835916000,-0.011866314,-0.011585786,0.00018181221,0.096777014,0.0,0.0,0.0,-1.0
835960000,835960000,-0.012339768,-0.011620729,0.00084043865,0.10716638,0.0,0.0,0.0,-1.0
836012000,836012000,-0.011706781,-0.011487962,-0.000512663,0.1186096,0.0,0.0,0.0,-1.0
836064000,836064000,-0.0130491,-0.012407447,-0.0009205807,0.13023673,0.0,0.0,0.0,-1.0
836116000,836116000,-0.010706827,-0.010912525,9.348609e-05,0.1446185,0.0,0.0,0.0,-1.0
836164000,836164000,-0.011224003,-0.0120345205,-0.00091473374,0.15721837,0.0,0.0,0.0,-1.0
836216000,836216000,-0.012359913,-0.011732335,0.0012504389,0.16978511,0.0,0.0,0.0,-1.0
836264000,836264000,-0.013606894,-0.0117974,0.0001947814,0.18317159,0.0,0.0,0.0,-1.0
836316000,836316000,-0.015684199,-0.0130753415,-0.0015527771,0.2001704,0.0,0.0,0.0,-1.0
836364000,836364000,-0.009480208,-0.012154291,-0.001687202,0.2146567,0.0,0.0,0.0,-1.0
836416000,836416000,-0.015421836,-0.012187597,-0.0011419225,0.22942954,0.0,0.0,0.0,-1.0
836464000,836464000,-0.009668579,-0.0122289285,0.00074903143,0.24427448,0.0,0.0,0.0,-1.0
836516000,836516000,-0.009230752,-0.014070494,-0.00010762453,0.26260197,0.0,0.0,0.0,-1.0
836564000,836564000,-0.01197303,-0.013306298,-0.003279055,0.2773883,0.0,0.0,0.0,-1.0
836616000,836616000,-0.0110208765,-0.013211246,-0.006351419,0.2958873,0.0,0.0,0.0,-1.0
836664000,836664000,-0.016858883,-0.012953691,0.0011444364,0.31160566,0.0,0.0,0.0,-1.0
836716000,836716000,-0.023305142,-0.014763591,-0.003734094,0.33124802,0.0,0.0,0.0,-1.0
836764000,836764000,-0.01714206,-0.011967376,0.0007430102,0.35116372,0.0,0.0,0.0,-1.0
836816000,836816000,-0.016217746,-0.012369373,0.00045581898,0.3694494,0.0,0.0,0.0,-1.0
836860000,836860000,-0.010428259,-0.013192124,-0.0014483971,0.38703552,0.0,0.0,0.0,-1.0
836916000,836916000,-0.016703656,-0.013708237,-3.2366992e-05,0.4105944,0.0,0.0,0.0,-1.0
836964000,836964000,-0.017795192,-0.012551312,0.0010877182,0.43032598,0.0,0.0,0.0,-1.0
837012000,837012000,-0.0055463347,-0.013182579,-0.0075566405,0.44750592,0.0,0.0,0.0,-1.0
837060000,837060000,0.003777801,-0.010028478,-0.0018241544,0.46787935,0.0,0.0,0.0,-1.0
837116000,837116000,-0.020701403,-0.015964454,-0.005308344,0.48147872,0.0,0.0,0.0,-1.0
837164000,837164000,0.019388925,-0.010331559,-0.0036894686,0.48979884,0.0,0.0,0.0,-1.0
837216000,837216000,-0.006837502,-0.013763472,0.0021557051,0.49521905,0.0,0.0,0.0,-1.0
837264000,837264000,-0.025715804,-0.014062252,0.00412425,0.497592,0.0,0.0,0.0,-1.0
837316000,837316000,0.0039766505,-0.012050386,-0.0006768904,0.5008126,0.0,0.0,0.0,-1.0
837360000,837360000,-0.0036230574,-0.012716815,0.00018836217,0.50183195,0.0,0.0,0.0,-1.0
837416000,837416000,-0.0012194358,-0.013227317,-0.00034147687,0.5037851,0.0,0.0,0.0,-1.0
837464000,837464000,-0.0008404961,-0.012369158,9.416494e-05,0.5057704,0.0,0.0,0.0,-1.0
837516000,837516000,-0.0018158469,-0.012444779,0.00041328694,0.50608987,0.0,0.0,0.0,-1.0
837564000,837564000,-0.0027898815,-0.012673537,0.0010038083,0.5073404,0.0,0.0,0.0,-1.0
837616000,837616000,-0.026451577,-0.012355422,0.0026606924,0.5077113,0.0,0.0,0.0,-1.0
837660000,837660000,-0.0015575782,-0.013538632,-0.0005573814,0.50982934,0.0,0.0,0.0,-1.0
837716000,837716000,-0.0026666364,-0.011828634,-0.0005181789,0.5105383,0.0,0.0,0.0,-1.0
837764000,837764000,-0.0012571417,-0.012400832,0.00046586868,0.51179165,0.0,0.0,0.0,-1.0
837816000,837816000,-0.0019940261,-0.013614483,-0.00087888254,0.505141,0.0,0.0,0.0,-1.0
837864000,837864000,-0.00048748738,-0.012993391,-0.0013214974,0.4761883,0.0,0.0,0.0,-1.0
837912000,837912000,-0.001883624,-0.012190281,0.00068698137,0.45469236,0.0,0.0,0.0,-1.0
837964000,837964000,-0.033377964,-0.011711911,0.0018389169,0.43690264,0.0,0.0,0.0,-1.0
838016000,838016000,-0.00044694773,-0.00983634,-0.00051583047,0.42997426,0.0,0.0,0.0,-1.0
838064000,838064000,0.0003944466,-0.011574757,0.000252732,0.42567807,0.0,0.0,0.0,-1.0
838116000,838116000,-0.0024305042,-0.01128783,0.0009326541,0.42399043,0.0,0.0,0.0,-1.0
838164000,838164000,-0.0020141175,-0.009716329,-0.00013710928,0.42377758,0.0,0.0,0.0,-1.0
838212000,838212000,-0.00033549682,-0.012183313,-0.00017204651,0.42331678,0.0,0.0,0.0,-1.0
838264000,838264000,-0.0020207693,-0.012054121,-3.350745e-05,0.4237889,0.0,0.0,0.0,-1.0
838316000,838316000,-0.034464337,-0.010849893,0.0014955703,0.4242141,0.0,0.0,0.0,-1.0
838364000,838364000,0.00018887442,-0.00993259,-0.00066367566,0.42609176,0.0,0.0,0.0,-1.0
838416000,838416000,-0.001155954,-0.011659614,0.00056196365,0.42673054,0.0,0.0,0.0,-1.0
838464000,838464000,-0.0006988984,-0.011077674,0.00061264087,0.42745662,0.0,0.0,0.0,-1.0
838516000,838516000,9.224826e-06,-0.010507527,0.00020473557,0.42892304,0.0,0.0,0.0,-1.0
838564000,838564000,4.751862e-06,-0.011002075,-0.0013384463,0.42948905,0.0,0.0,0.0,-1.0
838616000,838616000,-0.0011643334,-0.011539792,-0.020220812,0.43052498,0.0,0.0,0.0,-1.0
838664000,838664000,0.0015202274,-0.010084715,0.0067495676,0.430346,0.0,0.0,0.0,-1.0
838716000,838716000,0.00046275507,-0.011353614,0.0032032628,0.43014845,0.0,0.0,0.0,-1.0
838764000,838764000,-0.00054178253,-0.011624252,-0.0010426916,0.430792,0.0,0.0,0.0,-1.0
838816000,838816000,-0.0008303335,-0.01005814,0.00012747668,0.43221095,0.0,0.0,0.0,-1.0
838864000,838864000,0.0020267281,-0.01010893,-0.00015536034,0.433836,0.0,0.0,0.0,-1.0
838916000,838916000,-0.0007966831,-0.01151466,-0.0005608323,0.43414202,0.0,0.0,0.0,-1.0
838964000,838964000,-6.531963e-05,-0.010401745,6.916006e-05,0.43462592,0.0,0.0,0.0,-1.0
839016000,839016000,0.0016233595,-0.01063734,-0.0008538675,0.4357004,0.0,0.0,0.0,-1.0
839064000,839064000,0.00017728664,-0.010372247,-0.00037755523,0.4360447,0.0,0.0,0.0,-1.0
839116000,839116000,-0.0007509857,-0.010094706,-0.0006197257,0.43638656,0.0,0.0,0.0,-1.0
839164000,839164000,0.0018692522,-0.010824097,-0.00038924877,0.437206,0.0,0.0,0.0,-1.0
839216000,839216000,0.0019473233,-0.01023728,-0.00079693453,0.43813282,0.0,0.0,0.0,-1.0
839264000,839264000,0.0014127883,-0.011169757,-0.0010437105,0.43797913,0.0,0.0,0.0,-1.0
839316000,839316000,-0.0018944627,-0.01026078,-0.00107935,0.43889675,0.0,0.0,0.0,-1.0
839364000,839364000,0.023015324,-0.010503696,-0.00075914705,0.4394651,0.0,0.0,0.0,-1.0
839416000,839416000,0.0027666474,-0.010411579,-0.0016454741,0.44013247,0.0,0.0,0.0,-1.0
839464000,839464000,0.00051775284,-0.011249809,0.00050047215,0.4398509,0.0,0.0,0.0,-1.0
839516000,839516000,0.0012539914,-0.010811022,0.0005606106,0.44029436,0.0,0.0,0.0,-1.0
839564000,839564000,0.008339032,-0.010199462,-0.00011931992,0.44142705,0.0,0.0,0.0,-1.0
839616000,839616000,-0.0010552598,-0.009914244,0.00010905878,0.44074887,0.0,0.0,0.0,-1.0
839664000,839664000,-0.00113517,-0.010336844,0.00015583893,0.44087383,0.0,0.0,0.0,-1.0
839716000,839716000,0.024920477,-0.0111160735,-0.0011587822,0.44093072,0.0,0.0,0.0,-1.0
839764000,839764000,0.0014816902,-0.011109371,-0.00034480134,0.44099614,0.0,0.0,0.0,-1.0
839812000,839812000,-0.00093128416,-0.010358679,0.00043511257,0.44073695,0.0,0.0,0.0,-1.0
839860000,839860000,0.00119566,-0.01017281,-0.0013501113,0.44126278,0.0,0.0,0.0,-1.0
839916000,839916000,0.008967854,-0.008909264,-0.000829987,0.44214195,0.0,0.0,0.0,-1.0
839964000,839964000,0.001162528,-0.0116088465,-0.0006969759,0.44197363,0.0,0.0,0.0,-1.0
840016000,840016000,-0.0006218048,-0.010596527,0.00019063601,0.44215253,0.0,0.0,0.0,-1.0
840060000,840060000,0.00069388555,-0.00954244,-0.00027209183,0.44262382,0.0,0.0,0.0,-1.0
840116000,840116000,0.0021351825,-0.00990351,-0.0001794135,0.44258443,0.0,0.0,0.0,-1.0
840164000,840164000,0.00054752594,-0.009920745,0.0004471821,0.441892,0.0,0.0,0.0,-1.0
840216000,840216000,-0.0065550427,-0.013311724,0.0010739102,0.3844116,0.0,0.0,0.0,-1.0
840260000,840260000,-0.0036090566,-0.010926546,0.0013306026,0.3887877,0.0,0.0,0.0,-1.0
840312000,840312000,0.004071024,-0.0055382233,-0.00026610837,0.40470645,0.0,0.0,0.0,-1.0
840364000,840364000,0.0017535451,-0.008609879,-0.0007310982,0.42124295,0.0,0.0,0.0,-1.0
840416000,840416000,0.0027789176,-0.0118043665,0.0004653023,0.4320207,0.0,0.0,0.0,-1.0
840464000,840464000,0.00044909163,-0.010997475,0.00035762397,0.4395293,0.0,0.0,0.0,-1.0
840516000,840516000,0.0016283959,-0.011247117,0.00017435986,0.4448214,0.0,0.0,0.0,-1.0
840564000,840564000,-0.00024252059,-0.009158749,0.0014858396,0.44833755,0.0,0.0,0.0,-1.0
840616000,840616000,-0.0019470631,-0.00938675,0.0021450638,0.45147264,0.0,0.0,0.0,-1.0
840664000,840664000,0.0019084264,-0.008746296,0.0013959145,0.45379946,0.0,0.0,0.0,-1.0
840716000,840716000,-0.0011123428,-0.010110987,0.0022213256,0.45511904,0.0,0.0,0.0,-1.0
840764000,840764000,-0.0003280817,-0.008578266,0.0037936221,0.45967567,0.0,0.0,0.0,-1.0
840816000,840816000,0.0012402419,-0.0061457604,0.004079026,0.46101874,0.0,0.0,0.0,-1.0
840860000,840860000,0.0016736205,-0.008133726,0.0042486796,0.46099135,0.0,0.0,0.0,-1.0
840916000,840916000,-0.00011713144,-0.01043997,0.0031061207,0.46068397,0.0,0.0,0.0,-1.0
840964000,840964000,-0.023593754,-0.0055685635,0.0049268347,0.4649245,0.0,0.0,0.0,-1.0
841016000,841016000,0.0033607057,-0.005828594,0.00520535,0.4648029,0.0,0.0,0.0,-1.0
841064000,841064000,-6.8084155e-05,-0.010290543,0.0041401307,0.46333057,0.0,0.0,0.0,-1.0
841112000,841112000,0.0031082002,-0.0076358938,0.0031463443,0.46299928,0.0,0.0,0.0,-1.0
841164000,841164000,0.006701623,0.0016672926,0.004222771,0.46769622,0.0,0.0,0.0,-1.0
841212000,841212000,0.007392044,0.00042649428,0.0012948955,0.4658343,0.0,0.0,0.0,-1.0
841260000,841260000,0.004370048,-0.0015258808,0.002388722,0.4644668,0.0,0.0,0.0,-1.0
841316000,841316000,0.012337653,-0.0068088784,0.0028792834,0.46206176,0.0,0.0,0.0,-1.0
841364000,841364000,0.0109883435,0.0054766517,0.0015910306,0.4676163,0.0,0.0,0.0,-1.0
841416000,841416000,0.0027765648,-0.00159391,0.0007312011,0.46593004,0.0,0.0,0.0,-1.0
841464000,841464000,0.029976754,-0.0023820917,-0.0015901505,0.46468022,0.0,0.0,0.0,-1.0
841516000,841516000,0.00840038,-0.0013438471,0.0009462659,0.46199042,0.0,0.0,0.0,-1.0
841564000,841564000,0.011795647,0.009894145,-0.005342585,0.468475,0.0,0.0,0.0,-1.0
841612000,841612000,0.012134598,0.007588449,-0.0022704152,0.46697864,0.0,0.0,0.0,-1.0
841664000,841664000,0.009660697,0.007060998,-0.0012987531,0.4659189,0.0,0.0,0.0,-1.0
841716000,841716000,0.009321739,0.0036599662,-0.0008807026,0.461268,0.0,0.0,0.0,-1.0
841764000,841764000,0.007685469,0.0012993384,-0.00010953075,0.45856148,0.0,0.0,0.0,-1.0
841816000,841816000,-0.008612111,0.02001433,0.00045741553,0.4656057,0.0,0.0,0.0,-1.0
841864000,841864000,0.015640909,0.013914184,-0.00030957937,0.46485713,0.0,0.0,0.0,-1.0
841916000,841916000,0.013801127,0.016403137,0.00025565035,0.4614016,0.0,0.0,0.0,-1.0
841964000,841964000,0.012651238,0.012023866,0.0013349456,0.45905554,0.0,0.0,0.0,-1.0
842016000,842016000,0.01804489,0.020113518,0.0004809864,0.46361616,0.0,0.0,0.0,-1.0
842064000,842064000,0.019797908,0.023989888,0.00050408125,0.46295255,0.0,0.0,0.0,-1.0
842116000,842116000,0.017679494,0.022417473,6.500377e-05,0.45900318,0.0,0.0,0.0,-1.0
842164000,842164000,-0.00971426,0.020547071,0.004841189,0.45586687,0.0,0.0,0.0,-1.0
842216000,842216000,0.026094846,0.03405557,0.0010488173,0.46374118,0.0,0.0,0.0,-1.0
842260000,842260000,0.02281819,0.03370262,0.00212964,0.46023247,0.0,0.0,0.0,-1.0
842316000,842316000,0.021064052,0.02978074,0.0030490642,0.4553312,0.0,0.0,0.0,-1.0
842364000,842364000,0.020021517,0.02865937,0.0032903324,0.45238525,0.0,0.0,0.0,-1.0
842416000,842416000,0.030490482,0.04081541,0.0011839835,0.4587307,0.0,0.0,0.0,-1.0
842460000,842460000,0.024058659,0.039661493,0.0025960829,0.4555915,0.0,0.0,0.0,-1.0
842516000,842516000,-0.010292014,0.038402602,0.004762324,0.45074257,0.0,0.0,0.0,-1.0
842564000,842564000,0.026571918,0.035106763,0.005210658,0.4488142,0.0,0.0,0.0,-1.0
842616000,842616000,0.0320786,0.048401434,0.003709256,0.45633012,0.0,0.0,0.0,-1.0
842664000,842664000,0.026967665,0.044594035,0.0020431539,0.45327607,0.0,0.0,0.0,-1.0
842716000,842716000,0.036186755,0.044300035,0.00096935034,0.4488052,0.0,0.0,0.0,-1.0
842764000,842764000,0.026994415,0.04109138,0.003033235,0.44456267,0.0,0.0,0.0,-1.0
842816000,842816000,0.029369192,0.052259073,0.0028586937,0.4514238,0.0,0.0,0.0,-1.0
842864000,842864000,0.026717126,0.054439195,0.002788006,0.44907007,0.0,0.0,0.0,-1.0
842916000,842916000,0.029414687,0.050307244,0.004924239,0.44511947,0.0,0.0,0.0,-1.0
842960000,842960000,0.026780248,0.048782326,0.004315369,0.44459844,0.0,0.0,0.0,-1.0
843016000,843016000,0.03025307,0.059560377,0.0040143724,0.44842368,0.0,0.0,0.0,-1.0
843064000,843064000,0.0039819623,0.059923396,0.007248141,0.44786236,0.0,0.0,0.0,-1.0
843116000,843116000,0.028489977,0.05288786,0.006808422,0.44430566,0.0,0.0,0.0,-1.0
843164000,843164000,0.025315816,0.04808199,0.005124357,0.44146296,0.0,0.0,0.0,-1.0
843216000,843216000,0.027562473,0.04968094,0.006265179,0.4394704,0.0,0.0,0.0,-1.0
843264000,843264000,0.035585668,0.06840525,0.0030381116,0.4498471,0.0,0.0,0.0,-1.0
843316000,843316000,0.03062001,0.058336362,0.0065810555,0.44510734,0.0,0.0,0.0,-1.0
843364000,843364000,0.028150672,0.05467804,0.0052219396,0.4433026,0.0,0.0,0.0,-1.0
843416000,843416000,0.03793135,0.053693283,0.004303835,0.44144368,0.0,0.0,0.0,-1.0
843464000,843464000,0.034395922,0.068377085,0.0036678044,0.4503818,0.0,0.0,0.0,-1.0
843516000,843516000,0.030008096,0.06083956,0.0041412855,0.44614497,0.0,0.0,0.0,-1.0
843564000,843564000,0.028507985,0.058601372,0.0037749994,0.44455895,0.0,0.0,0.0,-1.0
843616000,843616000,-0.002099767,0.055977717,0.006356236,0.44156918,0.0,0.0,0.0,-1.0
843664000,843664000,0.033053335,0.06852878,0.0022938717,0.44963697,0.0,0.0,0.0,-1.0
843716000,843716000,0.027199067,0.061119325,0.0049789445,0.44465318,0.0,0.0,0.0,-1.0
843764000,843764000,0.026145002,0.06061834,0.0028223924,0.44244495,0.0,0.0,0.0,-1.0
843816000,843816000,0.028268056,0.05931613,0.003063741,0.44100118,0.0,0.0,0.0,-1.0
843864000,843864000,0.032351088,0.07062128,0.0015397039,0.44737637,0.0,0.0,0.0,-1.0
843916000,843916000,0.028028572,0.063701004,0.0035153658,0.4428758,0.0,0.0,0.0,-1.0
843964000,843964000,0.026821634,0.063430265,0.0041374075,0.44066942,0.0,0.0,0.0,-1.0
844016000,844016000,0.025762737,0.058493815,0.0035809453,0.43873087,0.0,0.0,0.0,-1.0
844064000,844064000,0.027763017,0.07122938,0.0031882916,0.44579786,0.0,0.0,0.0,-1.0
844116000,844116000,0.026256694,0.0659823,0.00423364,0.44256434,0.0,0.0,0.0,-1.0
844164000,844164000,-0.002170713,0.062351268,0.0037171787,0.43983772,0.0,0.0,0.0,-1.0
844216000,844216000,0.023610085,0.06014352,0.003150862,0.4383899,0.0,0.0,0.0,-1.0
844264000,844264000,0.028536055,0.07207616,0.0033094047,0.4456373,0.0,0.0,0.0,-1.0
844312000,844312000,0.026484292,0.06818864,0.00435816,0.4433109,0.0,0.0,0.0,-1.0
844364000,844364000,0.025712375,0.06776457,0.0037808516,0.44029135,0.0,0.0,0.0,-1.0
844416000,844416000,0.02244919,0.061019115,0.0039300057,0.43799686,0.0,0.0,0.0,-1.0
844464000,844464000,0.026127392,0.0718807,0.000923193,0.44577435,0.0,0.0,0.0,-1.0
844516000,844516000,0.02593105,0.06647174,0.0031546964,0.44188878,0.0,0.0,0.0,-1.0
844564000,844564000,0.025331723,0.06399994,0.0029056105,0.44048065,0.0,0.0,0.0,-1.0
844616000,844616000,0.022993682,0.062839255,0.0035003847,0.43897393,0.0,0.0,0.0,-1.0
844664000,844664000,0.02028701,0.057940412,0.0031799406,0.43795434,0.0,0.0,0.0,-1.0
844716000,844716000,0.033461653,0.072451636,0.0010367258,0.4459891,0.0,0.0,0.0,-1.0
844760000,844760000,0.02599709,0.06804522,0.0035005528,0.44363537,0.0,0.0,0.0,-1.0
844816000,844816000,0.025785342,0.063038215,0.0017417904,0.4420741,0.0,0.0,0.0,-1.0
844864000,844864000,0.028812816,0.07802613,-0.0013293966,0.45069373,0.0,0.0,0.0,-1.0
844916000,844916000,0.024388256,0.06587191,0.00090568466,0.4476949,0.0,0.0,0.0,-1.0
844964000,844964000,0.025599694,0.066618346,0.0025503843,0.4457697,0.0,0.0,0.0,-1.0
845016000,845016000,0.023587344,0.065296225,0.0020276166,0.4442308,0.0,0.0,0.0,-1.0
845064000,845064000,0.019585548,0.05844515,0.0010048952,0.44277632,0.0,0.0,0.0,-1.0
845116000,845116000,0.026904993,0.069527395,0.0033315015,0.44898692,0.0,0.0,0.0,-1.0
845164000,845164000,0.02404577,0.06610259,0.0024197458,0.4466637,0.0,0.0,0.0,-1.0
845216000,845216000,0.022802511,0.066426866,0.0010036695,0.44607008,0.0,0.0,0.0,-1.0
845264000,845264000,0.03438748,0.07122656,0.0034019803,0.45203912,0.0,0.0,0.0,-1.0
845316000,845316000,0.022148509,0.06355281,0.004691543,0.44611445,0.0,0.0,0.0,-1.0
845364000,845364000,0.021214638,0.063150406,0.0024253612,0.44336593,0.0,0.0,0.0,-1.0
845416000,845416000,0.029778922,0.058250915,0.003833778,0.44109267,0.0,0.0,0.0,-1.0
845464000,845464000,0.026913522,0.072003685,0.0035512724,0.44885308,0.0,0.0,0.0,-1.0
845516000,845516000,0.024226416,0.066126294,0.004073215,0.44397694,0.0,0.0,0.0,-1.0
845564000,845564000,0.020734252,0.06483055,0.0039362544,0.4422217,0.0,0.0,0.0,-1.0
845616000,845616000,0.017210042,0.059659842,0.0039894613,0.43941593,0.0,0.0,0.0,-1.0
845664000,845664000,0.028049942,0.074542075,0.0023116379,0.4482828,0.0,0.0,0.0,-1.0
845716000,845716000,0.020291649,0.06787798,0.0017288208,0.44493455,0.0,0.0,0.0,-1.0
845764000,845764000,0.021330358,0.06475974,0.0026793792,0.44390455,0.0,0.0,0.0,-1.0
845816000,845816000,0.021260677,0.05972629,0.0032917443,0.44201177,0.0,0.0,0.0,-1.0
845860000,845860000,0.028057922,0.07547964,-0.00065947336,0.44947708,0.0,0.0,0.0,-1.0
845916000,845916000,0.02248846,0.064598896,0.0006579142,0.44569018,0.0,0.0,0.0,-1.0
845964000,845964000,0.025317438,0.06320057,0.00017602244,0.4435,0.0,0.0,0.0,-1.0
846016000,846016000,0.020577032,0.060060587,0.001376514,0.4416255,0.0,0.0,0.0,-1.0
846064000,846064000,0.025325643,0.07156013,0.00084184366,0.4493784,0.0,0.0,0.0,-1.0
846116000,846116000,0.02285391,0.065766506,0.0011973587,0.44688445,0.0,0.0,0.0,-1.0
846164000,846164000,0.030922646,0.065198235,0.0016382373,0.445753,0.0,0.0,0.0,-1.0
846212000,846212000,0.019790398,0.058374412,0.0031689804,0.44254643,0.0,0.0,0.0,-1.0
846264000,846264000,0.01875626,0.058812212,0.002211108,0.44137692,0.0,0.0,0.0,-1.0
846316000,846316000,0.035085313,0.07224339,0.0024001237,0.44808707,0.0,0.0,0.0,-1.0
846364000,846364000,0.024686666,0.0679481,0.0029052645,0.4467123,0.0,0.0,0.0,-1.0
846412000,846412000,0.021295052,0.065220155,0.0031387263,0.4453115,0.0,0.0,0.0,-1.0
846460000,846460000,0.019560413,0.058293965,0.004405855,0.44297346,0.0,0.0,0.0,-1.0
846516000,846516000,0.021172697,0.0665578,0.0048149317,0.44729424,0.0,0.0,0.0,-1.0
846564000,846564000,0.025165793,0.06505092,0.0040822714,0.44519576,0.0,0.0,0.0,-1.0
846612000,846612000,0.022040797,0.063835,0.0032201237,0.44289154,0.0,0.0,0.0,-1.0
846664000,846664000,0.019849809,0.05746302,0.0038304853,0.44226405,0.0,0.0,0.0,-1.0
846716000,846716000,0.023124503,0.068757005,0.0024408037,0.4483833,0.0,0.0,0.0,-1.0
846764000,846764000,0.02424041,0.06658105,0.0022169587,0.446276,0.0,0.0,0.0,-1.0
846816000,846816000,0.018378602,0.06434393,0.0030975265,0.4444171,0.0,0.0,0.0,-1.0
846864000,846864000,0.028300729,0.06978468,0.00085364253,0.44876844,0.0,0.0,0.0,-1.0
846916000,846916000,0.026672991,0.066424124,0.0006038408,0.44706047,0.0,0.0,0.0,-1.0
846964000,846964000,0.023359774,0.063551575,0.0003855437,0.44451383,0.0,0.0,0.0,-1.0
847016000,847016000,0.020773089,0.061690945,0.0009705972,0.44283926,0.0,0.0,0.0,-1.0
847064000,847064000,0.028471796,0.05823996,0.0012265182,0.4426232,0.0,0.0,0.0,-1.0
847116000,847116000,0.025617898,0.067026384,-0.00015889177,0.44835025,0.0,0.0,0.0,-1.0
847164000,847164000,0.022276808,0.06394152,5.3195203e-05,0.44626695,0.0,0.0,0.0,-1.0
847212000,847212000,0.02332519,0.06751574,0.0006880986,0.4448213,0.0,0.0,0.0,-1.0
847260000,847260000,0.020156924,0.06400147,0.001762416,0.4445178,0.0,0.0,0.0,-1.0
847316000,847316000,0.026719749,0.07313707,0.0005253489,0.45064285,0.0,0.0,0.0,-1.0
847360000,847360000,0.02359037,0.06800694,0.0007155298,0.4492529,0.0,0.0,0.0,-1.0
847412000,847412000,-0.006844831,0.062030666,0.0033050869,0.44616896,0.0,0.0,0.0,-1.0
847464000,847464000,0.023116251,0.062440734,0.003397916,0.44573367,0.0,0.0,0.0,-1.0
847512000,847512000,0.01886944,0.057596643,0.0029783435,0.44502312,0.0,0.0,0.0,-1.0
847564000,847564000,0.023292601,0.06688372,0.0015590817,0.45068294,0.0,0.0,0.0,-1.0
847616000,847616000,0.022779483,0.062724225,0.0019248623,0.44737956,0.0,0.0,0.0,-1.0
847664000,847664000,0.020453613,0.057820234,0.006606992,0.44564006,0.0,0.0,0.0,-1.0
847716000,847716000,0.022346936,0.06940358,0.0022886225,0.45286554,0.0,0.0,0.0,-1.0
847764000,847764000,0.025524745,0.065138675,0.0036748755,0.44989726,0.0,0.0,0.0,-1.0
847812000,847812000,0.020300996,0.06500876,0.0027529001,0.4478849,0.0,0.0,0.0,-1.0
847860000,847860000,0.021078944,0.059829164,0.003915395,0.4448237,0.0,0.0,0.0,-1.0
847916000,847916000,0.022175798,0.0639445,0.004722141,0.44903225,0.0,0.0,0.0,-1.0
847964000,847964000,0.033744756,0.067003384,0.0022371493,0.44717553,0.0,0.0,0.0,-1.0
848016000,848016000,0.023754926,0.061004616,0.0027091878,0.44396755,0.0,0.0,0.0,-1.0
848064000,848064000,0.022317717,0.058664978,0.0014059101,0.44308573,0.0,0.0,0.0,-1.0
848116000,848116000,0.026779426,0.071233295,0.0014846452,0.44924474,0.0,0.0,0.0,-1.0
848164000,848164000,0.023680279,0.06976666,-8.7614346e-05,0.44778568,0.0,0.0,0.0,-1.0
848216000,848216000,0.025131835,0.068665184,0.0021225468,0.4456542,0.0,0.0,0.0,-1.0
848264000,848264000,0.024095623,0.06299481,0.0016470128,0.44605875,0.0,0.0,0.0,-1.0
848316000,848316000,-0.008507157,0.068909444,0.001686279,0.45092854,0.0,0.0,0.0,-1.0
848364000,848364000,0.027753098,0.069148794,-0.00020050954,0.4500684,0.0,0.0,0.0,-1.0
848416000,848416000,0.021018844,0.059649814,0.0008592,0.4466884,0.0,0.0,0.0,-1.0
848464000,848464000,0.02028326,0.06173969,0.0013186646,0.44542927,0.0,0.0,0.0,-1.0
848516000,848516000,0.028425144,0.072462186,-0.0006882114,0.4519297,0.0,0.0,0.0,-1.0
848564000,848564000,0.023815108,0.06721177,0.001150437,0.44883808,0.0,0.0,0.0,-1.0
848616000,848616000,0.022225628,0.06363,0.0021138138,0.44634283,0.0,0.0,0.0,-1.0
848664000,848664000,0.031069808,0.06170904,0.0021048859,0.44522372,0.0,0.0,0.0,-1.0
848712000,848712000,0.028025078,0.07700161,0.0015680915,0.453082,0.0,0.0,0.0,-1.0
848764000,848764000,0.021024983,0.06274314,0.003356308,0.44839492,0.0,0.0,0.0,-1.0
848816000,848816000,0.019422662,0.06174242,0.0023747957,0.4458868,0.0,0.0,0.0,-1.0
848864000,848864000,0.01820842,0.05857185,0.0050552394,0.44393235,0.0,0.0,0.0,-1.0
848916000,848916000,0.020690965,0.06741882,0.0017493832,0.4497865,0.0,0.0,0.0,-1.0
848964000,848964000,0.022304889,0.06303387,0.003337826,0.44777587,0.0,0.0,0.0,-1.0
849016000,849016000,0.022115774,0.064284235,0.0032906139,0.445715,0.0,0.0,0.0,-1.0
849060000,849060000,0.021924723,0.06311801,0.0030748532,0.4442353,0.0,0.0,0.0,-1.0
849116000,849116000,0.026762538,0.0713826,0.0008190494,0.44855627,0.0,0.0,0.0,-1.0
849164000,849164000,0.0224385,0.068403125,0.00066583866,0.44645107,0.0,0.0,0.0,-1.0
849216000,849216000,-0.00936509,0.06467549,0.003596117,0.44443023,0.0,0.0,0.0,-1.0
849264000,849264000,0.024354316,0.06393788,0.0020745096,0.44421914,0.0,0.0,0.0,-1.0
849316000,849316000,0.023587072,0.06972823,-0.0008634083,0.44847396,0.0,0.0,0.0,-1.0
849364000,849364000,0.022363473,0.06721128,0.00027415532,0.4466017,0.0,0.0,0.0,-1.0
849416000,849416000,0.02545034,0.06805008,5.7871377e-05,0.4457967,0.0,0.0,0.0,-1.0
849464000,849464000,0.02059631,0.06360181,0.0013861726,0.44309887,0.0,0.0,0.0,-1.0
849516000,849516000,0.016654199,0.052774236,0.0020006169,0.43915585,0.0,0.0,0.0,-1.0
849564000,849564000,0.035474923,0.073530816,-0.0016278815,0.4465304,0.0,0.0,0.0,-1.0
849612000,849612000,0.023288663,0.066753626,0.0013022188,0.44468206,0.0,0.0,0.0,-1.0
849664000,849664000,0.022254735,0.06607051,0.0029339558,0.4434143,0.0,0.0,0.0,-1.0
849716000,849716000,0.015881034,0.055712786,0.0016148224,0.44085273,0.0,0.0,0.0,-1.0
849760000,849760000,-0.0048133205,0.0692917,0.004285959,0.44803572,0.0,0.0,0.0,-1.0
849816000,849816000,0.024098227,0.06790299,0.0024853777,0.44709432,0.0,0.0,0.0,-1.0
849860000,849860000,0.020139065,0.06469545,0.0015510232,0.44563234,0.0,0.0,0.0,-1.0
849916000,849916000,0.016563527,0.058133762,0.0030531704,0.4431787,0.0,0.0,0.0,-1.0
849964000,849964000,0.020822896,0.07164676,0.00076931115,0.45096025,0.0,0.0,0.0,-1.0
850016000,850016000,0.019125832,0.06794589,0.0014441615,0.44848946,0.0,0.0,0.0,-1.0
850064000,850064000,0.022395693,0.064834625,0.003270417,0.44728902,0.0,0.0,0.0,-1.0
850116000,850116000,-0.0140752,0.056912933,0.0057139182,0.4433393,0.0,0.0,0.0,-1.0
850164000,850164000,0.024279995,0.07128171,0.0002507671,0.45160165,0.0,0.0,0.0,-1.0
850216000,850216000,0.021694304,0.067758776,0.0014847142,0.44907218,0.0,0.0,0.0,-1.0
850264000,850264000,0.020059781,0.06586941,0.000477693,0.44801712,0.0,0.0,0.0,-1.0
850316000,850316000,0.021966323,0.055144507,-0.015624036,0.43739766,0.0,0.0,0.0,-1.0
850364000,850364000,0.016610302,0.050483294,-0.017049292,0.42575726,0.0,0.0,0.0,-1.0
850416000,850416000,0.013994353,0.060996242,-0.0084596,0.41499564,0.0,0.0,0.0,-1.0
850464000,850464000,0.042025167,0.06366502,0.0020168803,0.40778562,0.0,0.0,0.0,-1.0
850516000,850516000,0.018984834,0.06274623,0.015272007,0.39814144,0.0,0.0,0.0,-1.0
850564000,850564000,0.017590433,0.06328678,0.012807564,0.39380988,0.0,0.0,0.0,-1.0
850612000,850612000,0.017054461,0.062946536,0.010944868,0.39123526,0.0,0.0,0.0,-1.0
850664000,850664000,-0.007900619,0.06319657,0.011263134,0.39611405,0.0,0.0,0.0,-1.0
850716000,850716000,0.018622098,0.058345385,0.0109524,0.40077323,0.0,0.0,0.0,-1.0
850764000,850764000,0.015564369,0.057827603,0.008658974,0.40512186,0.0,0.0,0.0,-1.0
850816000,850816000,0.013778617,0.051957294,0.005904351,0.40686855,0.0,0.0,0.0,-1.0
850864000,850864000,0.017942639,0.051318534,0.005740105,0.4114869,0.0,0.0,0.0,-1.0
850916000,850916000,0.010466606,0.0430325,0.0066945367,0.41252652,0.0,0.0,0.0,-1.0
850964000,850964000,0.011038501,0.04452013,0.005147685,0.41647726,0.0,0.0,0.0,-1.0
851016000,851016000,0.010037045,0.040167253,0.0030360306,0.41830617,0.0,0.0,0.0,-1.0
851064000,851064000,0.015455105,0.04598437,0.0009836125,0.42346528,0.0,0.0,0.0,-1.0
851116000,851116000,0.010640911,0.041805245,0.0019734506,0.42490175,0.0,0.0,0.0,-1.0
851164000,851164000,0.0066254465,0.033719245,0.0008165621,0.4292492,0.0,0.0,0.0,-1.0
851216000,851216000,0.0030159878,0.026656106,8.657626e-05,0.4305417,0.0,0.0,0.0,-1.0
851264000,851264000,0.0038322029,0.021769084,-0.00070678385,0.43536016,0.0,0.0,0.0,-1.0
851316000,851316000,-0.0011174049,0.014290305,-0.0019946569,0.4361803,0.0,0.0,0.0,-1.0
851364000,851364000,-0.003849557,0.010268998,-0.0015730523,0.43969953,0.0,0.0,0.0,-1.0
851416000,851416000,0.006571048,0.0011310636,-0.0036457675,0.44015992,0.0,0.0,0.0,-1.0
851460000,851460000,-0.0038987342,-0.0012554536,-0.005163238,0.44407892,0.0,0.0,0.0,-1.0
851516000,851516000,-0.0038039293,0.0027636432,-0.0041020983,0.44183472,0.0,0.0,0.0,-1.0
851564000,851564000,-0.0059916917,0.005303489,-0.001797808,0.44389006,0.0,0.0,0.0,-1.0
851616000,851616000,-0.0414225,-0.010189425,-0.00075177854,0.4417016,0.0,0.0,0.0,-1.0
851664000,851664000,-0.010870646,-0.014468566,-0.002680588,0.44297087,0.0,0.0,0.0,-1.0
851716000,851716000,-0.013222009,-0.021299805,-0.0035728933,0.4397056,0.0,0.0,0.0,-1.0
851764000,851764000,-0.01508218,-0.02396576,-0.0019217553,0.44404802,0.0,0.0,0.0,-1.0
851816000,851816000,-0.008067047,-0.029540174,-0.00331166,0.45016715,0.0,0.0,0.0,-1.0
851860000,851860000,-0.009706848,-0.034514096,-0.002610916,0.45611125,0.0,0.0,0.0,-1.0
851916000,851916000,-0.018061077,-0.034139693,-0.0005602912,0.4598139,0.0,0.0,0.0,-1.0
851964000,851964000,-0.017070167,-0.03656124,-0.00030618082,0.46257523,0.0,0.0,0.0,-1.0
852016000,852016000,-0.019673862,-0.040724844,-0.0025860902,0.46379986,0.0,0.0,0.0,-1.0
852064000,852064000,-0.01907465,-0.04192652,-0.001163742,0.4640296,0.0,0.0,0.0,-1.0
852112000,852112000,-0.019934086,-0.043376237,-0.0016036609,0.463635,0.0,0.0,0.0,-1.0
852164000,852164000,-0.019405924,-0.04478069,-0.0024793402,0.4635818,0.0,0.0,0.0,-1.0
852216000,852216000,-0.018403562,-0.047860567,-0.0015962152,0.45727363,0.0,0.0,0.0,-1.0
852264000,852264000,-0.013125134,-0.050064187,-0.0016470179,0.45149702,0.0,0.0,0.0,-1.0
852316000,852316000,-0.019239675,-0.05081884,0.0020368649,0.4451766,0.0,0.0,0.0,-1.0
852360000,852360000,-0.022991924,-0.04970066,0.004076026,0.4417507,0.0,0.0,0.0,-1.0
852416000,852416000,-0.01877364,-0.051367253,0.00037710991,0.43949783,0.0,0.0,0.0,-1.0
852460000,852460000,-0.014890534,-0.053419534,0.0012423291,0.4392858,0.0,0.0,0.0,-1.0
852516000,852516000,-0.00905368,-0.05215054,0.001534872,0.43730894,0.0,0.0,0.0,-1.0
852564000,852564000,-0.0197319,-0.052245524,0.0018655155,0.43781734,0.0,0.0,0.0,-1.0
852616000,852616000,-0.017165244,-0.05288469,-0.0008484929,0.4363773,0.0,0.0,0.0,-1.0
852664000,852664000,-0.015968572,-0.0552752,0.00071471237,0.4378471,0.0,0.0,0.0,-1.0
852716000,852716000,-0.0075769736,-0.051076394,0.001075451,0.4377875,0.0,0.0,0.0,-1.0
852760000,852760000,-0.014441669,-0.05206848,0.00053885556,0.43885905,0.0,0.0,0.0,-1.0
852816000,852816000,-0.016641924,-0.05157159,0.0009236621,0.43875244,0.0,0.0,0.0,-1.0
852864000,852864000,-0.010405983,-0.05370477,-1.4285641e-05,0.44136274,0.0,0.0,0.0,-1.0
852916000,852916000,-0.012084474,-0.04799491,0.00032656957,0.44191548,0.0,0.0,0.0,-1.0
852964000,852964000,-0.013261688,-0.056378465,-0.0004806606,0.44464865,0.0,0.0,0.0,-1.0
853016000,853016000,-0.014815137,-0.06414861,0.00043867916,0.4465335,0.0,0.0,0.0,-1.0
853064000,853064000,-0.012367901,-0.05463262,-0.0017786985,0.44983336,0.0,0.0,0.0,-1.0
853116000,853116000,-0.007419872,-0.049488332,-0.0023728106,0.44982854,0.0,0.0,0.0,-1.0
853164000,853164000,-0.007750593,-0.04756651,-0.0017673933,0.4520832,0.0,0.0,0.0,-1.0
853216000,853216000,-0.005305499,-0.044534586,-0.00021843975,0.45151117,0.0,0.0,0.0,-1.0
853260000,853260000,-0.00025020237,-0.043005254,-0.0012177643,0.45215446,0.0,0.0,0.0,-1.0
853316000,853316000,-0.0034815634,-0.043260608,-2.6733507e-05,0.45039004,0.0,0.0,0.0,-1.0
853364000,853364000,-0.0033190136,-0.042134304,0.0006597,0.45143166,0.0,0.0,0.0,-1.0
853412000,853412000,-0.0028704135,-0.042556744,0.00043151597,0.4504685,0.0,0.0,0.0,-1.0
853464000,853464000,0.0018157602,-0.04142916,-2.4210798e-05,0.4496144,0.0,0.0,0.0,-1.0
853512000,853512000,-0.0008076261,-0.0411072,0.00027414315,0.44984987,0.0,0.0,0.0,-1.0
853564000,853564000,0.007817727,-0.041488245,0.00035504936,0.4493313,0.0,0.0,0.0,-1.0
853616000,853616000,0.0010869732,-0.041512955,0.0007817191,0.44758138,0.0,0.0,0.0,-1.0
853664000,853664000,0.002681615,-0.037974954,-0.0007930338,0.44695324,0.0,0.0,0.0,-1.0
853716000,853716000,0.010459056,-0.038466997,-0.0016447237,0.44058588,0.0,0.0,0.0,-1.0
853764000,853764000,0.0026835713,-0.037461057,0.00079013896,0.4425203,0.0,0.0,0.0,-1.0
853816000,853816000,0.002848075,-0.039973915,-0.00036454966,0.4428797,0.0,0.0,0.0,-1.0
853864000,853864000,0.0036906237,-0.035485897,-0.0005026581,0.44492278,0.0,0.0,0.0,-1.0
853916000,853916000,0.012995343,-0.03842214,0.0007087392,0.44471493,0.0,0.0,0.0,-1.0
853960000,853960000,0.003955555,-0.03719525,-0.00025022935,0.44483912,0.0,0.0,0.0,-1.0
854016000,854016000,0.0026927416,-0.036079384,-0.00077872945,0.4457576,0.0,0.0,0.0,-1.0
854064000,854064000,0.015821546,-0.033482738,3.4457218e-05,0.44763187,0.0,0.0,0.0,-1.0
854116000,854116000,0.00712041,-0.033092458,-0.00085117645,0.44729364,0.0,0.0,0.0,-1.0
854164000,854164000,0.005554732,-0.031715687,0.0008504987,0.448812,0.0,0.0,0.0,-1.0
854216000,854216000,0.0061313957,-0.032147016,0.0004325493,0.44869944,0.0,0.0,0.0,-1.0
854264000,854264000,0.014715203,-0.029766798,0.0010683563,0.4503473,0.0,0.0,0.0,-1.0
854316000,854316000,0.0053825974,-0.029880112,-0.00039426042,0.45057213,0.0,0.0,0.0,-1.0
854364000,854364000,0.0074113873,-0.028086614,0.00023760252,0.45255765,0.0,0.0,0.0,-1.0
854416000,854416000,0.01691554,-0.027044432,-0.0009140973,0.4524285,0.0,0.0,0.0,-1.0
854464000,854464000,0.00735418,-0.023987088,-0.0006801947,0.45376822,0.0,0.0,0.0,-1.0
854516000,854516000,0.0071166554,-0.026101222,-5.8805348e-05,0.45215085,0.0,0.0,0.0,-1.0
854560000,854560000,0.0059414427,-0.025821628,0.0010986119,0.45247114,0.0,0.0,0.0,-1.0
854616000,854616000,0.016244521,-0.022004269,0.00037509642,0.4525605,0.0,0.0,0.0,-1.0
854664000,854664000,0.008719143,-0.022906223,0.00079459226,0.4543582,0.0,0.0,0.0,-1.0
854716000,854716000,0.006154506,-0.023502534,0.0019753592,0.4536757,0.0,0.0,0.0,-1.0
854764000,854764000,0.004827601,-0.02154467,0.00038903108,0.45492953,0.0,0.0,0.0,-1.0
854816000,854816000,0.008213115,-0.020227868,0.00037927358,0.45426846,0.0,0.0,0.0,-1.0
854860000,854860000,0.006745664,-0.019051263,0.0012656888,0.45358548,0.0,0.0,0.0,-1.0
854916000,854916000,0.0063366597,-0.018838292,0.0006399906,0.45153204,0.0,0.0,0.0,-1.0
854964000,854964000,-0.019599944,-0.0183351,0.0028694929,0.45173332,0.0,0.0,0.0,-1.0
855016000,855016000,0.0067595276,-0.018143704,-0.00063958316,0.45138362,0.0,0.0,0.0,-1.0
855064000,855064000,0.0046492573,-0.016861176,0.0008626247,0.45050555,0.0,0.0,0.0,-1.0
855116000,855116000,0.0054319366,-0.016157316,0.00032685397,0.4498777,0.0,0.0,0.0,-1.0
855160000,855160000,0.007929533,-0.015916815,0.0008064489,0.4507841,0.0,0.0,0.0,-1.0
855216000,855216000,0.0053505837,-0.015775627,0.0016170528,0.45030612,0.0,0.0,0.0,-1.0
855264000,855264000,0.004570992,-0.013524397,0.00074661145,0.45134786,0.0,0.0,0.0,-1.0
855316000,855316000,-0.020995451,-0.015308041,0.0018688844,0.4497968,0.0,0.0,0.0,-1.0
855364000,855364000,0.0064452644,-0.013682165,0.00045288738,0.45158786,0.0,0.0,0.0,-1.0
855416000,855416000,0.006159598,-0.011790214,0.0006645401,0.45113313,0.0,0.0,0.0,-1.0
855464000,855464000,0.0042599617,-0.01289325,0.0018804237,0.45212066,0.0,0.0,0.0,-1.0
855516000,855516000,0.0031279156,-0.011877666,1.6876182e-05,0.44886944,0.0,0.0,0.0,-1.0
855564000,855564000,0.005012599,-0.013207273,3.2241795e-05,0.45191,0.0,0.0,0.0,-1.0
855616000,855616000,0.0038154717,-0.010882237,0.0011159077,0.45146865,0.0,0.0,0.0,-1.0
855664000,855664000,-0.027314702,-0.0097264685,0.002643464,0.4528683,0.0,0.0,0.0,-1.0
855716000,855716000,0.006132101,-0.024733039,-0.010782748,1.0,0.0,0.0,0.0,-1.0
855764000,855764000,0.012898175,-0.046465255,-0.010892363,1.0,0.0,0.0,0.0,-1.0
855816000,855816000,0.047013573,0.14428501,-0.03576472,1.0,0.0,0.0,0.0,-1.0
855860000,855860000,-0.03716946,-0.100985914,-0.010304941,0.8557174,0.0,0.0,0.0,-1.0
855916000,855916000,-0.012090035,-0.08955936,-0.005303423,0.6457292,0.0,0.0,0.0,-1.0
855964000,855964000,-0.012067014,-0.061069805,-0.014497655,0.5586576,0.0,0.0,0.0,-1.0
856016000,856016000,-0.02636181,-0.051618576,-0.012846734,0.5457046,0.0,0.0,0.0,-1.0
856064000,856064000,-0.010098265,-0.028675197,-0.010945728,0.5596503,0.0,0.0,0.0,-1.0
856116000,856116000,0.0006856592,-0.0078079314,-0.011033274,0.57739884,0.0,0.0,0.0,-1.0
856164000,856164000,0.007964548,0.00960625,-0.00825581,0.58606666,0.0,0.0,0.0,-1.0
856216000,856216000,0.016690256,0.029244712,-0.0052064187,0.58630145,0.0,0.0,0.0,-1.0
856264000,856264000,0.020437846,0.04924356,-0.0022101635,0.57843727,0.0,0.0,0.0,-1.0
856316000,856316000,0.02891568,0.0667625,-0.0016993781,0.56561595,0.0,0.0,0.0,-1.0
856364000,856364000,0.0026423838,0.0807391,0.0030576575,0.5518541,0.0,0.0,0.0,-1.0
856412000,856412000,0.039744843,0.089625545,0.0017153275,0.5397,0.0,0.0,0.0,-1.0
856460000,856460000,0.037391357,0.10027403,0.0012387077,0.5274321,0.0,0.0,0.0,-1.0
856516000,856516000,0.038400106,0.111438565,0.003382448,0.5151648,0.0,0.0,0.0,-1.0
856564000,856564000,0.052816655,0.11666258,0.0061153267,0.5066851,0.0,0.0,0.0,-1.0
856616000,856616000,0.046733446,0.120960265,0.0056189476,0.49963042,0.0,0.0,0.0,-1.0
856664000,856664000,0.043328017,0.12677409,0.0046802545,0.49390128,0.0,0.0,0.0,-1.0
856716000,856716000,0.04384118,0.13039397,0.0054423376,0.48846114,0.0,0.0,0.0,-1.0
856764000,856764000,0.051718794,0.13211983,0.00791586,0.4853814,0.0,0.0,0.0,-1.0
856816000,856816000,0.05482453,0.13473895,0.009219991,0.4816252,0.0,0.0,0.0,-1.0
856860000,856860000,0.054294508,0.13680984,0.0043232846,0.4791779,0.0,0.0,0.0,-1.0
856916000,856916000,0.048399705,0.11272818,0.006183253,0.4591642,0.0,0.0,0.0,-1.0
856964000,856964000,0.054452185,0.11463102,0.006525452,0.44765592,0.0,0.0,0.0,-1.0
857012000,857012000,0.04723119,0.13203703,0.0052467985,0.43886292,0.0,0.0,0.0,-1.0
857064000,857064000,0.040894315,0.1546169,0.0072478927,0.40177655,0.0,0.0,0.0,-1.0
857112000,857112000,0.04294868,0.17149954,0.012707303,0.35973862,0.0,0.0,0.0,-1.0
857164000,857164000,0.04992935,0.18585955,0.02324671,0.33597058,0.0,0.0,0.0,-1.0
857216000,857216000,0.05562817,0.19860992,0.027720349,0.32065678,0.0,0.0,0.0,-1.0
857264000,857264000,0.058550082,0.20140384,0.029179445,0.3119847,0.0,0.0,0.0,-1.0
857316000,857316000,0.056600805,0.2005932,0.027097082,0.30775693,0.0,0.0,0.0,-1.0
857360000,857360000,0.055499583,0.19785902,0.024837157,0.3088509,0.0,0.0,0.0,-1.0
857416000,857416000,0.052008435,0.19211578,0.02189711,0.31211045,0.0,0.0,0.0,-1.0
857464000,857464000,0.042547222,0.18303567,0.021741958,0.31629473,0.0,0.0,0.0,-1.0
857516000,857516000,0.04355678,0.175683,0.024721194,0.32391506,0.0,0.0,0.0,-1.0
857564000,857564000,0.041308634,0.17228922,0.03032586,0.33275,0.0,0.0,0.0,-1.0
857616000,857616000,0.040218912,0.16501294,0.02885194,0.3410815,0.0,0.0,0.0,-1.0
857664000,857664000,0.03698011,0.1556018,0.025113013,0.34873685,0.0,0.0,0.0,-1.0
857716000,857716000,0.0076534334,0.14658067,0.025263177,0.3572834,0.0,0.0,0.0,-1.0
857764000,857764000,0.034827784,0.14086378,0.019860625,0.36660364,0.0,0.0,0.0,-1.0
857816000,857816000,0.03255988,0.13576984,0.015167391,0.37458497,0.0,0.0,0.0,-1.0
857860000,857860000,0.02818465,0.12804441,0.013332496,0.3815217,0.0,0.0,0.0,-1.0
857916000,857916000,0.03536425,0.121586874,0.012658443,0.38857666,0.0,0.0,0.0,-1.0
857964000,857964000,0.025924148,0.11459282,-0.004774987,0.3941365,0.0,0.0,0.0,-1.0
858016000,858016000,0.023212805,0.1090948,-0.0034008774,0.39954406,0.0,0.0,0.0,-1.0
858064000,858064000,0.020562025,0.10239915,-0.0012386589,0.40435344,0.0,0.0,0.0,-1.0
858116000,858116000,0.021514598,0.0959298,0.00071399845,0.4093983,0.0,0.0,0.0,-1.0
858164000,858164000,0.01774805,0.093119316,0.0021593762,0.4124697,0.0,0.0,0.0,-1.0
858216000,858216000,0.015325439,0.090019435,0.0012454762,0.41617754,0.0,0.0,0.0,-1.0
858264000,858264000,0.013701608,0.084651254,-5.723136e-05,0.41976643,0.0,0.0,0.0,-1.0
858316000,858316000,0.0097730905,0.08029069,-0.000518041,0.4236715,0.0,0.0,0.0,-1.0
858360000,858360000,0.010136172,0.0769956,0.0009485927,0.42589912,0.0,0.0,0.0,-1.0
858412000,858412000,0.007889356,0.07005546,0.0013414001,0.42856562,0.0,0.0,0.0,-1.0
858464000,858464000,0.008501701,0.065450355,0.0009966454,0.4300941,0.0,0.0,0.0,-1.0
858516000,858516000,0.006715478,0.06409807,-0.00023430912,0.43228674,0.0,0.0,0.0,-1.0
858564000,858564000,0.0053307326,0.06077191,0.005881028,0.43342486,0.0,0.0,0.0,-1.0
858616000,858616000,0.002614698,0.05692541,0.0038327028,0.4344926,0.0,0.0,0.0,-1.0
858664000,858664000,0.004555512,0.052816007,0.0028171372,0.43593153,0.0,0.0,0.0,-1.0
858716000,858716000,0.002016845,0.052476123,0.0020695124,0.43743455,0.0,0.0,0.0,-1.0
858760000,858760000,1.0789173e-05,0.048970036,0.0005045056,0.43832272,0.0,0.0,0.0,-1.0
858816000,858816000,-0.0007332407,0.04679368,-0.00076610426,0.4395126,0.0,0.0,0.0,-1.0
858864000,858864000,-0.0017006864,0.040815078,0.0022506097,0.43985307,0.0,0.0,0.0,-1.0
858916000,858916000,-0.026609872,-0.12003091,-0.008906658,0.39670995,0.0,0.0,0.0,-1.0
858964000,858964000,0.015004317,0.16809992,0.0015101454,0.39885363,0.0,0.0,0.0,-1.0
859016000,859016000,0.027929975,0.10884231,-0.0029028838,0.41870686,0.0,0.0,0.0,-1.0
859064000,859064000,0.0040766182,0.046514794,-0.003314297,0.43015665,0.0,0.0,0.0,-1.0
859116000,859116000,-0.0014555219,0.043379214,0.00075316464,0.43865213,0.0,0.0,0.0,-1.0
859164000,859164000,-0.0070546228,0.02132003,0.00272216,0.44701564,0.0,0.0,0.0,-1.0
859216000,859216000,-0.010648461,0.00035443067,0.0015992065,0.45219097,0.0,0.0,0.0,-1.0
859260000,859260000,-0.0051663597,-0.008672613,-0.00065959967,0.45691106,0.0,0.0,0.0,-1.0
859316000,859316000,-0.0105214985,-0.013321603,0.0006647008,0.45909223,0.0,0.0,0.0,-1.0
859364000,859364000,-0.009500335,-0.015462023,0.0005395813,0.45966446,0.0,0.0,0.0,-1.0
859416000,859416000,-0.011247173,-0.018924724,0.0012205843,0.4594229,0.0,0.0,0.0,-1.0
859464000,859464000,-0.008250956,-0.019504342,0.00073062733,0.45714715,0.0,0.0,0.0,-1.0
859516000,859516000,-0.011580707,-0.021678291,-0.0003005159,0.45563632,0.0,0.0,0.0,-1.0
859564000,859564000,0.013674112,-0.022718223,-0.0027103936,0.45424995,0.0,0.0,0.0,-1.0
859616000,859616000,-0.0059993193,-0.02414697,-0.0015129182,0.45270482,0.0,0.0,0.0,-1.0
859664000,859664000,-0.0055992114,-0.026809022,-0.0005554556,0.45073098,0.0,0.0,0.0,-1.0
859716000,859716000,-0.008646345,-0.028076805,-0.00087763113,0.44989023,0.0,0.0,0.0,-1.0
859764000,859764000,-0.0016434388,-0.027887058,-0.0008013444,0.45028275,0.0,0.0,0.0,-1.0
859816000,859816000,-0.008149634,-0.028802821,-0.0035950034,0.44894728,0.0,0.0,0.0,-1.0
859860000,859860000,-0.010921734,-0.029059548,-0.0025887697,0.4485533,0.0,0.0,0.0,-1.0
859916000,859916000,-0.007406111,-0.028779985,-0.005980378,0.44813552,0.0,0.0,0.0,-1.0
859964000,859964000,-0.006938306,-0.029172681,-0.0065044463,0.4486629,0.0,0.0,0.0,-1.0
860016000,860016000,-0.007665204,-0.030411966,-0.005277252,0.44853288,0.0,0.0,0.0,-1.0
860064000,860064000,-0.0034955873,-0.030841593,-0.0037548488,0.44806805,0.0,0.0,0.0,-1.0
860116000,860116000,-0.0027764388,-0.031178515,-0.001534274,0.44813532,0.0,0.0,0.0,-1.0
860164000,860164000,-0.00660038,-0.03046352,-0.002237357,0.4473958,0.0,0.0,0.0,-1.0
860216000,860216000,-0.006825699,-0.029511113,-0.0037859338,0.44760266,0.0,0.0,0.0,-1.0
860264000,860264000,-0.0021518804,-0.030099982,-0.0040497,0.44747874,0.0,0.0,0.0,-1.0
860316000,860316000,-0.0016946008,-0.029264417,-0.0025710484,0.44726953,0.0,0.0,0.0,-1.0
860364000,860364000,-0.007216818,-0.029352974,-0.0016602981,0.44720957,0.0,0.0,0.0,-1.0
860416000,860416000,-0.004592462,-0.026984615,-0.002434752,0.44773406,0.0,0.0,0.0,-1.0
860464000,860464000,-0.004328269,-0.026145192,-0.0024704707,0.4483432,0.0,0.0,0.0,-1.0
860512000,860512000,-0.0005646756,-0.026399555,-0.0035678688,0.44733655,0.0,0.0,0.0,-1.0
860564000,860564000,-0.0037291502,-0.026085097,0.005674334,0.4477198,0.0,0.0,0.0,-1.0
860616000,860616000,-0.0049331794,-0.025126861,0.0041886563,0.44716313,0.0,0.0,0.0,-1.0
860664000,860664000,0.0024801444,-0.025959954,-0.00044931803,0.44757283,0.0,0.0,0.0,-1.0
860716000,860716000,-0.0008041686,-0.023354478,0.0006603298,0.4475798,0.0,0.0,0.0,-1.0
860764000,860764000,-0.000693523,-0.022636164,8.3502455e-05,0.44797105,0.0,0.0,0.0,-1.0
860816000,860816000,0.0016153991,-0.023281887,0.00017139725,0.44844714,0.0,0.0,0.0,-1.0
860864000,860864000,0.00016654906,-0.022195758,-0.0007807086,0.4479422,0.0,0.0,0.0,-1.0
860916000,860916000,0.0009816994,-0.020107375,-0.0008730634,0.44851562,0.0,0.0,0.0,-1.0
860964000,860964000,0.0114538055,-0.020685658,-0.0011701132,0.44889846,0.0,0.0,0.0,-1.0
861016000,861016000,0.0032505319,-0.01904237,-0.0020174638,0.448114,0.0,0.0,0.0,-1.0
861060000,861060000,0.0049010348,-0.01957745,0.0002562,0.44691205,0.0,0.0,0.0,-1.0
861116000,861116000,0.013573739,-0.018143117,-0.0019955153,0.4463247,0.0,0.0,0.0,-1.0
861164000,861164000,0.004121574,-0.017754382,5.259004e-05,0.4466079,0.0,0.0,0.0,-1.0
861216000,861216000,0.00559771,-0.018676298,-0.0011577589,0.44613224,0.0,0.0,0.0,-1.0
861260000,861260000,0.00505817,-0.01607112,-0.0012748794,0.44574866,0.0,0.0,0.0,-1.0
861312000,861312000,0.0027052516,-0.017633392,0.0006234292,0.44539392,0.0,0.0,0.0,-1.0
861364000,861364000,0.0050331545,-0.015762845,0.00020611961,0.4458726,0.0,0.0,0.0,-1.0
861416000,861416000,0.0039893715,-0.015811648,0.0031256366,0.44590956,0.0,0.0,0.0,-1.0
861464000,861464000,0.0029436904,-0.014464942,0.0024264136,0.4456252,0.0,0.0,0.0,-1.0
861516000,861516000,0.004427074,-0.015233879,0.0021225985,0.44556132,0.0,0.0,0.0,-1.0
861564000,861564000,0.0031692996,-0.014151696,0.0019289039,0.44542578,0.0,0.0,0.0,-1.0
861616000,861616000,0.0062491214,-0.014159659,0.0023789357,0.44561812,0.0,0.0,0.0,-1.0
861664000,861664000,0.0033996447,-0.014282042,0.0018603903,0.44495586,0.0,0.0,0.0,-1.0
861716000,861716000,0.005852363,-0.012615033,0.00088855927,0.4451998,0.0,0.0,0.0,-1.0
861764000,861764000,0.0042779446,-0.011852001,-0.0006007245,0.44496563,0.0,0.0,0.0,-1.0
861812000,861812000,0.0057993648,-0.012098753,-8.0372716e-05,0.44572097,0.0,0.0,0.0,-1.0
861864000,861864000,0.0052447515,-0.012470279,0.00024339746,0.44591442,0.0,0.0,0.0,-1.0
861916000,861916000,0.0051597753,-0.011245667,-0.0011070555,0.4451017,0.0,0.0,0.0,-1.0
861964000,861964000,0.0037984324,-0.010136025,-0.00094879634,0.4453741,0.0,0.0,0.0,-1.0
862016000,862016000,0.0036435423,-0.010304955,0.0010844247,0.44517922,0.0,0.0,0.0,-1.0
862064000,862064000,0.00634608,-0.011259717,-0.00014478857,0.445808,0.0,0.0,0.0,-1.0
862112000,862112000,0.004804199,-0.011606208,0.00015430531,0.44603658,0.0,0.0,0.0,-1.0
862164000,862164000,0.003603608,-0.009519373,0.00015549878,0.44669646,0.0,0.0,0.0,-1.0
862216000,862216000,0.0053994525,-0.011239222,0.0008219096,0.44732004,0.0,0.0,0.0,-1.0
862264000,862264000,0.005994107,-0.010365772,-0.00050461123,0.44626755,0.0,0.0,0.0,-1.0
862312000,862312000,0.003243524,-0.010157346,-0.0004227018,0.4459244,0.0,0.0,0.0,-1.0
862360000,862360000,-0.027062744,-0.010471566,0.001155146,0.4455714,0.0,0.0,0.0,-1.0
862416000,862416000,0.0056861974,-0.009537762,-0.00010325333,0.4461935,0.0,0.0,0.0,-1.0
862464000,862464000,0.0053064483,-0.008658246,-0.00030968565,0.4463615,0.0,0.0,0.0,-1.0
862516000,862516000,0.003505805,-0.010536476,-0.0008332013,0.44714206,0.0,0.0,0.0,-1.0
862564000,862564000,0.0028921736,-0.00954207,0.0013454956,0.44800434,0.0,0.0,0.0,-1.0
862616000,862616000,0.0041436907,-0.009394724,0.0021982521,0.44720954,0.0,0.0,0.0,-1.0
862660000,862660000,0.0029860996,-0.009687732,0.0019987489,0.44631752,0.0,0.0,0.0,-1.0
862716000,862716000,-0.023565989,-0.009146384,0.0022245445,0.44564235,0.0,0.0,0.0,-1.0
862764000,862764000,0.005051401,-0.00975259,-0.00012382751,0.44608,0.0,0.0,0.0,-1.0
862812000,862812000,0.00337743,-0.009497024,5.5292112e-05,0.44572687,0.0,0.0,0.0,-1.0
862864000,862864000,0.0032630577,-0.009351002,-0.00030793747,0.44445407,0.0,0.0,0.0,-1.0
862912000,862912000,0.0028861267,-0.008838436,-0.00059827743,0.44444194,0.0,0.0,0.0,-1.0
862964000,862964000,0.0038213476,-0.009955371,-0.00012743619,0.44387272,0.0,0.0,0.0,-1.0
863016000,863016000,0.0014440527,-0.008898122,0.00014260352,0.44433135,0.0,0.0,0.0,-1.0
863064000,863064000,-0.029361118,-0.008539758,0.00092744647,0.44395453,0.0,0.0,0.0,-1.0
863116000,863116000,0.004399045,-0.010209368,-0.0003146772,0.44406703,0.0,0.0,0.0,-1.0
863164000,863164000,0.0022178888,-0.009180248,0.0002978101,0.44390804,0.0,0.0,0.0,-1.0
863216000,863216000,0.0020200862,-0.009430166,-0.00034312872,0.4446208,0.0,0.0,0.0,-1.0
863260000,863260000,0.0040810676,-0.0096870335,0.0008401492,0.44524226,0.0,0.0,0.0,-1.0
863316000,863316000,0.0039025254,-0.010654126,0.0005158447,0.44430506,0.0,0.0,0.0,-1.0
863364000,863364000,0.0010869585,-0.008533043,0.0014029754,0.4442751,0.0,0.0,0.0,-1.0
863416000,863416000,-0.02931298,-0.010303962,0.0021519053,0.4441783,0.0,0.0,0.0,-1.0
863464000,863464000,0.0016082347,-0.011191488,-0.0010444452,0.44518685,0.0,0.0,0.0,-1.0
863516000,863516000,0.002146625,-0.00985209,0.00016721775,0.4454815,0.0,0.0,0.0,-1.0
863560000,863560000,0.0027534054,-0.009176964,0.00031225837,0.4461487,0.0,0.0,0.0,-1.0
863612000,863612000,0.004291476,-0.011176517,0.0014876367,0.44680145,0.0,0.0,0.0,-1.0
863664000,863664000,0.0020333591,-0.009839338,0.001249526,0.44538882,0.0,0.0,0.0,-1.0
863712000,863712000,0.0004955188,-0.008926681,0.0004558118,0.44521257,0.0,0.0,0.0,-1.0
863764000,863764000,0.0025849866,-0.010403215,-0.00019888101,0.44506678,0.0,0.0,0.0,-1.0
863816000,863816000,-0.0026028054,-0.009474649,-0.00018729335,0.44529158,0.0,0.0,0.0,-1.0
863864000,863864000,0.00040316896,-0.009317973,-0.0003378839,0.44423357,0.0,0.0,0.0,-1.0
863916000,863916000,0.0037885695,-0.011155817,-0.0007957263,0.44417632,0.0,0.0,0.0,-1.0
863964000,863964000,0.0043286765,-0.009006017,-0.00087071816,0.44459113,0.0,0.0,0.0,-1.0
864016000,864016000,0.0018046197,-0.009745118,0.0002026752,0.44395602,0.0,0.0,0.0,-1.0
864064000,864064000,0.0017064397,-0.009178189,-0.00025627099,0.4432627,0.0,0.0,0.0,-1.0
864116000,864116000,0.0018976913,-0.01030123,-0.0006630384,0.44316965,0.0,0.0,0.0,-1.0
864164000,864164000,0.0035208713,-0.008711197,-0.00022636974,0.4437699,0.0,0.0,0.0,-1.0
864216000,864216000,-0.0008834979,-0.011386708,-0.00032227597,0.44390213,0.0,0.0,0.0,-1.0
864264000,864264000,0.0002521387,-0.010855747,0.00022253719,0.44333974,0.0,0.0,0.0,-1.0
864316000,864316000,0.0044614836,-0.010678285,-0.0009070352,0.4436416,0.0,0.0,0.0,-1.0
