timestamp,timestamp_sample,states[0],states[1],states[2],states[3],states[4],states[5],states[6],states[7],states[8],states[9],states[10],states[11],states[12],states[13],states[14],states[15],states[16],states[17],states[18],states[19],states[20],states[21],states[22],states[23],covariances[0],covariances[1],covariances[2],covariances[3],covariances[4],covariances[5],covariances[6],covariances[7],covariances[8],covariances[9],covariances[10],covariances[11],covariances[12],covariances[13],covariances[14],covariances[15],covariances[16],covariances[17],covariances[18],covariances[19],covariances[20],covariances[21],covariances[22],covariances[23],n_states
830052000,829972000,0.8488966,0.01038087,0.0022698054,-0.5284522,0.0019140743,-6.587114e-05,0.00046388851,-0.44760746,-1.1148987,0.1266906,2.488896e-06,-1.886824e-05,1.0033528e-05,0.00017024507,9.324544e-05,-0.0010726226,0.19019593,-0.016660925,0.48885003,0.004181504,-0.0006599896,0.00058460154,0.0,0.0,2.2666296e-05,6.056664e-06,6.072413e-06,5.754394e-05,0.00021650744,0.00021651362,0.00022833048,0.0015703404,0.0015703469,0.0036062067,8.926425e-12,8.926446e-12,2.2964325e-11,1.157415e-07,1.1569784e-07,5.0000224e-08,0.0,0.0,0.0,0.0,0.0,0.0,0.0,0.0,24
831052000,830972000,0.84891945,0.010214609,0.0026046885,-0.5284172,0.0012073865,-0.0028628032,-0.00024401447,-0.4479034,-1.1154696,0.12652408,2.609027e-06,-1.8899751e-05,9.986233e-06,0.00017027247,9.319065e-05,-0.0010501127,0.19019593,-0.016660925,0.48885003,0.004181504,-0.0006599896,0.00058460154,0.0,0.0,2.2670909e-05,6.0321545e-06,6.0475563e-06,5.7552217e-05,0.00017027181,0.00017027187,0.00017791353,0.0015631015,0.0015631076,0.0035917768,8.906001e-12,8.905802e-12,2.2965988e-11,1.15745614e-07,1.1570182e-07,5.0000224e-08,0.0,0.0,0.0,0.0,0.0,0.0,0.0,0.0,24
832052000,831972000,0.8490362,0.010270115,0.003218117,-0.5282252,0.0014764974,0.0013869741,0.002326637,-0.44769132,-1.1154318,0.12634632,2.6887985e-06,-1.9214982e-05,9.927674e-06,0.00017020272,9.310103e-05,-0.0010631718,0.19019593,-0.016660925,0.48885003,0.004181504,-0.0006599896,0.00058460154,0.0,0.0,2.2664968e-05,6.004652e-06,6.020142e-06,5.7570538e-05,0.00012551539,0.00012551762,0.00012993508,0.001556473,0.0015564791,0.0035770095,8.885409e-12,8.884746e-12,2.2967205e-11,1.1574902e-07,1.15705625e-07,5.0000075e-08,0.0,0.0,0.0,0.0,0.0,0.0,0.0,0.0,24
833052000,832972000,0.84918284,0.010370475,0.0032523947,-0.52798724,-5.423522e-05,0.001971597,0.0010858173,-0.44755104,-1.115714,0.12621757,2.6775838e-06,-1.922496e-05,9.84818e-06,0.00017022209,9.3096816e-05,-0.0010969056,0.19019593,-0.016660925,0.48885003,0.004181504,-0.0006599896,0.00058460154,0.0,0.0,2.2657956e-05,5.9769573e-06,5.9928725e-06,5.7591165e-05,8.2510756e-05,8.251066e-05,8.4489504e-05,0.0015503142,0.0015503204,0.003562799,8.864631e-12,8.864058e-12,2.2968738e-11,1.1575252e-07,1.15709156e-07,5.000015e-08,0.0,0.0,0.0,0.0,0.0,0.0,0.0,0.0,24
834052000,833972000,0.8492235,0.01030274,0.0033058315,-0.5279228,-0.0005715616,-0.0015394884,0.0029064785,-0.44707948,-1.1157051,0.12669483,2.9031112e-06,-1.8938626e-05,9.7616285e-06,0.00017031166,9.3188464e-05,-0.0011160566,0.19019593,-0.016660925,0.48885003,0.004181504,-0.0006599896,0.00058460154,0.0,0.0,2.2666369e-05,5.9520466e-06,5.967535e-06,5.759533e-05,4.0989205e-05,4.0988703e-05,4.1503085e-05,0.0015468673,0.0015468734,0.0035489888,8.843859e-12,8.843443e-12,2.2970948e-11,1.157566e-07,1.1571326e-07,5.0000185e-08,0.0,0.0,0.0,0.0,0.0,0.0,0.0,0.0,24
835052000,834972000,0.8492821,0.010457162,0.0034944194,-0.5278243,2.18052e-06,-1.065314e-06,-9.906455e-06,-0.4474305,-1.1153575,0.12697828,3.0620406e-06,-1.9013256e-05,9.725253e-06,0.00017038938,9.317759e-05,-0.0011261563,0.19019593,-0.016660925,0.48885003,0.004181504,-0.0006599896,0.00058460154,0.0,0.0,2.2664142e-05,5.9288413e-06,5.9446247e-06,5.7616537e-05,1e-06,1e-06,1e-06,0.0015411937,0.0015411997,0.0035354355,8.82382e-12,8.823131e-12,2.297336e-11,1.1576081e-07,1.1571759e-07,5e-08,0.0,0.0,0.0,0.0,0.0,0.0,0.0,0.0,24
836052000,835972000,0.8492129,0.010463439,0.0034842237,-0.5279356,-0.0008468796,-0.00085799926,0.00019041362,-0.4474609,-1.1153327,0.12774909,3.3279214e-06,-1.9133837e-05,9.674432e-06,0.00017046933,9.320159e-05,-0.0011161494,0.19019593,-0.016660925,0.48885003,0.004181504,-0.0006599896,0.00058460154,0.0,0.0,2.2681976e-05,6.0312864e-06,6.0470024e-06,5.76139e-05,0.00017955746,0.00017956283,0.00018788652,0.0015363819,0.0015363877,0.003522908,8.910338e-12,8.909239e-12,2.297541e-11,1.15765e-07,1.157219e-07,5.0000775e-08,0.0,0.0,0.0,0.0,0.0,0.0,0.0,0.0,24
837052000,836972000,0.84954226,0.010801124,0.0034381892,-0.5273988,0.0072129243,-0.005358563,-0.002140001,-0.44404057,-1.1180339,0.12527454,3.3471538e-06,-1.9126739e-05,9.563462e-06,0.00017049331,9.318589e-05,-0.0011153971,0.19019593,-0.016660925,0.48885003,0.004181504,-0.0006599896,0.00058460154,0.0,0.0,2.2656344e-05,6.5165323e-06,6.532865e-06,5.7657828e-05,0.0014156526,0.0014157977,0.0016377117,0.0019074492,0.0019074865,0.0039476743,9.302677e-12,9.301641e-12,2.2977769e-11,1.1576961e-07,1.1572651e-07,5.0000146e-08,0.0,0.0,0.0,0.0,0.0,0.0,0.0,0.0,24
838052000,837972000,0.8502332,0.010525024,0.00545655,-0.5262727,-0.009309128,-0.006587773,-1.5565927,-0.45960417,-1.1369252,-0.63100415,3.4105312e-06,-1.9130222e-05,9.535489e-06,0.00017081731,9.11301e-05,-0.0011249551,0.19019593,-0.016660925,0.48885003,0.004181504,-0.0006599896,0.00058460154,0.0,0.0,2.2563121e-05,7.006668e-06,7.0213196e-06,5.776772e-05,0.0042547253,0.0042553064,0.004579549,0.005557226,0.005557624,0.008369679,9.697221e-12,9.696271e-12,2.2979561e-11,1.15670964e-07,1.15627834e-07,5.0000185e-08,0.0,0.0,0.0,0.0,0.0,0.0,0.0,0.0,24
839052000,838972000,0.85667217,0.013021289,0.007905976,-0.51563627,0.015202756,-0.0034123533,-0.59346485,-0.46356034,-1.1461852,-1.6659105,3.4948544e-06,-1.9191795e-05,9.499514e-06,0.00017060724,9.058197e-05,-0.001114305,0.19387943,-0.016710136,0.48849198,0.004181504,-0.0006599896,0.00058460154,0.0,0.0,0.0003734139,7.496385e-06,7.656615e-06,0.0010578076,0.0064520477,0.006452995,0.008369235,0.016441736,0.016443348,0.022890141,1.003038e-11,1.00293975e-11,2.323664e-11,1.1555891e-07,1.15516016e-07,5.000011e-08,0.0,0.0,0.0,0.0,0.0,0.0,0.0,0.0,24
840052000,839972000,0.85440105,0.013675034,0.0071132123,-0.5193856,0.013398836,0.0029291024,-0.2342497,-0.4716892,-1.1414967,-2.0432885,3.5999828e-06,-1.9266703e-05,9.507855e-06,0.00018171719,0.00010339441,-0.0011167693,0.19387943,-0.016710136,0.48849198,0.004181504,-0.0006599896,0.00058460154,0.0,0.0,0.0001911755,7.3643137e-06,7.471067e-06,0.0005415288,0.011080604,0.011080457,0.011403201,0.030571837,0.030574163,0.048905525,1.0325132e-11,1.0324119e-11,2.3747693e-11,1.1021967e-07,1.101822e-07,5.0000185e-08,0.0,0.0,0.0,0.0,0.0,0.0,0.0,0.0,24
841052000,840972000,0.8548444,0.026247552,0.015270321,-0.51799536,-0.017574323,0.043049052,-0.040629864,-0.49893978,-1.1202883,-2.0715866,3.654827e-06,-1.9344141e-05,9.514504e-06,0.00020500305,0.00011192584,-0.0011112379,0.19387943,-0.016710136,0.48849198,0.004181504,-0.0006599896,0.00058460154,0.0,0.0,0.00013020493,6.376091e-06,6.606737e-06,0.00037320625,0.012491047,0.012488181,0.01239136,0.040708162,0.040709604,0.077366024,1.0685645e-11,1.0684646e-11,2.4257317e-11,9.588372e-08,9.5858105e-08,5.000011e-08,0.0,0.0,0.0,0.0,0.0,0.0,0.0,0.0,24
842052000,841972000,0.8474142,0.12719159,0.07827615,-0.5094943,0.031900562,1.0808915,-0.6073886,-0.45765832,-0.69911677,-2.3951948,3.6380202e-06,-1.9304918e-05,9.521096e-06,0.00017651942,9.435626e-05,-0.001131242,0.19387943,-0.016710136,0.48849198,0.004181504,-0.0006599896,0.00058460154,0.0,0.0,9.420559e-05,7.871259e-06,1.1205179e-05,0.00027615167,0.015535199,0.014626522,0.0136552015,0.05657771,0.05657949,0.11226926,1.11418435e-11,1.1140696e-11,2.476483e-11,8.840993e-08,8.840633e-08,5.0000036e-08,0.0,0.0,0.0,0.0,0.0,0.0,0.0,0.0,24
843052000,842972000,0.8392237,0.13921,0.10252865,-0.5155696,-0.022355082,2.2169347,-0.7478641,-0.33164126,1.0260981,-3.0553808,3.550967e-06,-1.9253685e-05,9.522361e-06,0.00014913324,4.7473266e-05,-0.0011550726,0.19379777,-0.016709758,0.4888625,0.004876655,-0.0012585818,0.0013072813,0.0,0.0,8.17247e-05,8.190845e-06,1.00757115e-05,0.00023328807,0.014354687,0.013012472,0.013409345,0.063229434,0.0632246,0.13631807,1.1603731e-11,1.1600796e-11,2.5273965e-11,8.324341e-08,8.352384e-08,5e-08,0.0013147282,2.4473828e-05,0.0013236654,0.00069323333,0.0010628215,0.0012090603,0.0,0.0,24
844052000,843972000,0.8390284,0.12511519,0.108478494,-0.518276,-0.14723927,2.498519,-0.7611016,-0.31030217,3.4505637,-3.731178,3.4366092e-06,-1.922342e-05,9.482958e-06,0.00014634582,1.0370255e-05,-0.001186358,0.19327727,-0.01667214,0.48920408,0.0055849357,-0.002379302,0.0017752041,0.0,0.0,7.890094e-05,8.164613e-06,8.554948e-06,0.00022519649,0.012126334,0.011949777,0.01320932,0.06778505,0.067753896,0.15362178,1.2067912e-11,1.2059964e-11,2.5779863e-11,8.0624076e-08,8.130372e-08,5.0000075e-08,0.0012676457,2.3812438e-05,0.001275432,0.0005678321,0.0009874927,0.0011538877,0.0,0.0,24
845052000,844972000,0.8357068,0.12313607,0.103858024,-0.5250194,-0.130409,2.5153074,-0.7357148,-0.40543157,5.9864087,-4.3607,3.328231e-06,-1.9186988e-05,9.410754e-06,0.00015685256,-1.0059085e-05,-0.0012323734,0.19290262,-0.016640672,0.48933285,0.005633335,-0.0028074565,0.001780949,0.0,0.0,8.045207e-05,7.9057645e-06,8.590199e-06,0.0002224034,0.010478306,0.010521844,0.012919807,0.06847751,0.06843121,0.16390342,1.2485472e-11,1.2468138e-11,2.6255307e-11,7.881461e-08,7.989822e-08,5.000004e-08,0.0012558288,2.3427838e-05,0.0012628934,0.0005324196,0.0009723335,0.0011426952,0.0,0.0,24
846052000,845972000,0.8320582,0.12343666,0.100738645,-0.53131384,-0.09963513,2.523887,-0.8016096,-0.5370047,8.520522,-5.0142694,3.346938e-06,-1.91864e-05,9.420004e-06,0.00017695296,-1.6379712e-05,-0.0012849785,0.19280778,-0.016633617,0.48934728,0.005808525,-0.0028374514,0.0017286884,0.0,0.0,8.1958184e-05,8.017049e-06,9.057796e-06,0.00021944777,0.010048855,0.009891493,0.012841702,0.06875192,0.06872219,0.16995701,1.2833528e-11,1.2805776e-11,2.6684033e-11,7.7529805e-08,7.911097e-08,5e-08,0.00124763,2.3081828e-05,0.0012565812,0.0005107408,0.0009676362,0.0011377374,0.0,0.0,24
847052000,846972000,0.8276158,0.12370644,0.09831821,-0.5385928,-0.031695977,2.4904146,-0.8458642,-0.6193504,11.015468,-5.722444,3.455098e-06,-1.914516e-05,9.4788975e-06,0.00019363874,-1.963249e-05,-0.001333231,0.19280778,-0.016633617,0.48934728,0.005808525,-0.0028374514,0.0017286884,0.0,0.0,7.02243e-05,8.05888e-06,9.183267e-06,0.0001810817,0.011368851,0.0109931845,0.013711702,0.076914996,0.07690764,0.17891411,1.3144739e-11,1.3101957e-11,2.7053386e-11,7.667137e-08,7.860559e-08,5.000004e-08,0.0,0.0,0.0,0.0,0.0,0.0,0.0,0.0,24
848052000,847972000,0.8221413,0.12540548,0.0983456,-0.5465212,0.021918759,2.5050175,-0.88059163,-0.6477515,13.500568,-6.4068246,3.576995e-06,-1.909692e-05,9.5510595e-06,0.00021859948,-2.6054711e-05,-0.0014001185,0.19280778,-0.016633617,0.48934728,0.005808525,-0.0028374514,0.0017286884,0.0,0.0,6.155161e-05,8.18507e-06,9.3603185e-06,0.0001521878,0.010949881,0.010615375,0.0136491945,0.07518934,0.07517224,0.17972483,1.327962e-11,1.3201568e-11,2.7352133e-11,7.5652444e-08,7.82411e-08,5.000004e-08,0.0,0.0,0.0,0.0,0.0,0.0,0.0,0.0,24
849052000,848972000,0.816682,0.12525034,0.09947451,-0.5544796,0.03424933,2.5167146,-0.89044434,-0.649744,15.996358,-7.1531286,3.7481068e-06,-1.9040279e-05,9.664682e-06,0.00023794216,-3.1198062e-05,-0.0014546874,0.19280778,-0.016633617,0.48934728,0.005808525,-0.0028374514,0.0017286884,0.0,0.0,5.5265144e-05,8.3984405e-06,9.489144e-06,0.000131212,0.011040609,0.010773232,0.013705946,0.07471667,0.074674964,0.1798722,1.3338636e-11,1.3211249e-11,2.7635831e-11,7.478666e-08,7.802276e-08,5.0000075e-08,0.0,0.0,0.0,0.0,0.0,0.0,0.0,0.0,24
850052000,849972000,0.81295633,0.12008782,0.09849408,-0.5612308,0.013198058,2.485958,-0.8267602,-0.6444981,18.49426,-7.902433,3.897449e-06,-1.9000943e-05,9.7349575e-06,0.00025071806,-3.630942e-05,-0.0014960138,0.19280778,-0.016633617,0.48934728,0.005808525,-0.0028374514,0.0017286884,0.0,0.0,5.041678e-05,8.392224e-06,9.298109e-06,0.00011562007,0.010524875,0.010330604,0.013592955,0.072603256,0.072560474,0.18158449,1.32116115e-11,1.30091935e-11,2.786023e-11,7.399168e-08,7.7836035e-08,5.000011e-08,0.0,0.0,0.0,0.0,0.0,0.0,0.0,0.0,24
851052000,850972000,0.82046664,0.0028729069,0.019372268,-0.5713591,0.007997975,1.7990606,-0.03704949,-0.65370405,20.854221,-8.415782,3.959827e-06,-1.917323e-05,9.800839e-06,0.00025869356,-3.7551996e-05,-0.0015240279,0.19280778,-0.016633617,0.48934728,0.005808525,-0.0028374514,0.0017286884,0.0,0.0,4.701894e-05,7.083228e-06,7.04437e-06,0.00010582331,0.010512828,0.009882796,0.013345858,0.07128318,0.07124321,0.17790686,1.31021695e-11,1.2808853e-11,2.807493e-11,7.3347856e-08,7.767613e-08,5e-08,0.0,0.0,0.0,0.0,0.0,0.0,0.0,0.0,24
852052000,851972000,0.81436896,-0.106703445,-0.06866594,-0.56630605,-0.006521265,-0.556923,0.6759665,-0.7589591,21.482325,-7.969552,4.2901493e-06,-1.9643865e-05,1.0224549e-05,0.00026064707,-3.090882e-05,-0.0015378542,0.19331351,-0.016699927,0.48805827,0.0064414274,-0.0030344264,0.00046980154,0.0,0.0,4.1797528e-05,7.711977e-06,7.996174e-06,9.4634604e-05,0.015360808,0.011431063,0.014011504,0.080255225,0.079597406,0.18243107,1.32435955e-11,1.2815861e-11,2.8314052e-11,7.28584e-08,7.737164e-08,5.0000075e-08,0.0005837391,1.749661e-05,0.0006464356,0.00023956232,0.00051324564,0.0006183236,0.0,0.0,24
853052000,852972000,0.82465416,-0.0037707554,-0.03984296,-0.56421983,0.092177935,-1.0522268,0.68652976,-0.9709924,20.43082,-7.3682384,5.202872e-06,-1.9715073e-05,1.1048613e-05,0.00026228954,-2.8149505e-05,-0.001537291,0.19465365,-0.016861577,0.48767695,0.008031956,-0.0033207808,-0.0008227352,0.0,0.0,3.5744815e-05,7.1715376e-06,7.59293e-06,8.539667e-05,0.01231669,0.011391105,0.013962301,0.078007504,0.07736947,0.18364877,1.3305162e-11,1.2517704e-11,2.8505597e-11,7.2684266e-08,7.7229046e-08,5.0000185e-08,0.0005366643,1.6793443e-05,0.0006011924,0.00018313981,0.00046587214,0.00058084546,0.0,0.0,24
854052000,853972000,0.8272922,0.011695554,-0.02254419,-0.5611974,0.24760059,-0.5586519,0.75026375,-0.85228384,19.570198,-6.7584157,5.7423567e-06,-1.9248035e-05,1.1249235e-05,0.00027475887,-3.705623e-05,-0.0014818244,0.19479555,-0.016880566,0.48771337,0.008043293,-0.0030679714,-0.00057260634,0.0,0.0,3.46865e-05,6.8429645e-06,7.695956e-06,8.467323e-05,0.009683655,0.009846056,0.013173449,0.068443656,0.068084635,0.17499419,1.30530985e-11,1.2018821e-11,2.8902773e-11,7.22721e-08,7.709202e-08,5.000011e-08,0.0005197552,1.639531e-05,0.0005617995,0.00016083432,0.0004434566,0.00055161194,0.0,0.0,24
855052000,854972000,0.82628596,0.020326665,0.005047976,-0.56286126,0.13421689,-0.10285861,0.7869829,-0.6209615,19.210005,-6.0297847,5.6420167e-06,-1.8847984e-05,1.125051e-05,0.00029032034,-3.90427e-05,-0.0014384552,0.19468564,-0.016879449,0.48785138,0.0078839045,-0.0030855786,-0.00023243178,0.0,0.0,3.461533e-05,7.1218437e-06,7.847213e-06,8.4310435e-05,0.011224611,0.010885964,0.014142863,0.07474812,0.07460275,0.17913333,1.2805728e-11,1.18434325e-11,2.939301e-11,7.1794695e-08,7.696796e-08,5.000007e-08,0.0005121075,1.6068574e-05,0.00052814547,0.00014875647,0.00043371448,0.0005226924,0.0,0.0,24
856052000,855972000,0.7593078,0.29100233,0.21033405,-0.54270524,-0.060536645,2.3438702,-3.428405,-0.49141228,19.311518,-5.918543,5.313835e-06,-1.753794e-05,1.1365052e-05,0.00030043727,-3.8952592e-05,-0.001409747,0.19437477,-0.01685986,0.48823172,0.007839715,-0.0033549876,0.0003417867,0.0,0.0,2.844748e-05,1.2160675e-05,1.7313989e-05,6.2834835e-05,0.018351583,0.013317888,0.013542643,0.07307001,0.0730141,0.18087259,1.2087803e-11,1.1440855e-11,2.9810963e-11,7.147192e-08,7.6878315e-08,5.000015e-08,0.0004336958,1.5396367e-05,0.00044251414,0.00013928826,0.00037702054,0.00043784484,0.0,0.0,24
857052000,856972000,0.75760484,0.21680743,0.20220387,-0.58150077,-0.059082832,6.403174,-3.4884312,-0.19077662,24.40102,-9.471485,3.4423838e-06,-1.5970027e-05,1.2390264e-05,0.00028079707,-7.962071e-05,-0.0014055804,0.19329888,-0.016891956,0.49031895,0.00829255,-0.005041263,0.00502992,0.0,0.0,2.2824057e-05,7.322555e-06,7.455886e-06,4.5740904e-05,0.019470697,0.01335772,0.011730997,0.07300282,0.07288382,0.17889616,1.1385139e-11,1.10374045e-11,3.0053068e-11,7.095344e-08,7.63027e-08,5.000018e-08,0.00026299618,1.3588926e-05,0.00024756519,0.00010373786,0.00024910737,0.00021826764,0.0,0.0,24
858052000,857972000,0.8032922,0.026691712,0.06254784,-0.5916901,-0.24228485,3.617753,-0.82175875,-0.23827197,29.890543,-11.787425,2.51148e-06,-1.6710586e-05,1.2454102e-05,0.00032176301,-0.0001371476,-0.0013460956,0.19284645,-0.017034056,0.48941618,0.009433628,-0.006686555,0.005673378,0.0,0.0,2.1882379e-05,4.631835e-06,4.718934e-06,4.781078e-05,0.01205404,0.011619163,0.010375865,0.07152653,0.07110218,0.17588896,1.13858385e-11,1.09902695e-11,3.051089e-11,6.78724e-08,7.277921e-08,5.0000075e-08,0.00024195659,1.2975233e-05,0.00021678928,8.386177e-05,0.0002260874,0.00019822894,0.0,0.0,24
859052000,858972000,0.80625254,-0.049362708,-0.03293335,-0.5885879,-0.2642175,1.2206558,-0.07607845,-0.60620934,32.353333,-12.210857,2.6423863e-06,-1.7331873e-05,1.2753323e-05,0.00037878595,-0.00010660428,-0.0013119201,0.19354261,-0.01727037,0.4888449,0.0104456525,-0.0074540516,0.004933037,0.0,0.0,2.0592492e-05,4.814682e-06,4.815561e-06,4.5879868e-05,0.0133944,0.0115225585,0.01065674,0.07020448,0.06992837,0.17258686,1.157928e-11,1.1149828e-11,3.076382e-11,6.357756e-08,6.765883e-08,5.0000036e-08,0.0002309998,1.2496816e-05,0.00019599307,7.131622e-05,0.0002130443,0.00018566783,0.0,0.0,24
860052000,859972000,0.80934405,-0.019197665,-0.0289235,-0.5863082,0.08811809,-0.5538279,0.11573101,-0.77131444,32.425926,-12.124839,3.0220504e-06,-1.7588589e-05,1.322974e-05,0.00038677905,-8.750841e-05,-0.0013085642,0.19483486,-0.01761642,0.48865926,0.011066545,-0.008512087,0.003489442,0.0,0.0,1.9017958e-05,4.63318e-06,4.5417455e-06,4.328093e-05,0.015119101,0.012632077,0.009871364,0.0778039,0.07758114,0.17276415,1.1870335e-11,1.138641e-11,3.094776e-11,6.304185e-08,6.700005e-08,5.0000057e-08,0.00022263433,1.199131e-05,0.00016343153,6.0756483e-05,0.00020450268,0.00015945932,0.0,0.0,24
861052000,860972000,0.80592346,0.02419184,-0.0073570525,-0.5914796,0.20590332,-0.22467491,0.057147972,-0.76066345,31.980234,-12.1365595,3.5146027e-06,-1.7655333e-05,1.3618148e-05,0.00039126104,-4.243566e-05,-0.001286993,0.19559132,-0.017757451,0.4883313,0.011470783,-0.0088251075,0.0030723345,0.0,0.0,1.8847406e-05,4.2716874e-06,4.450405e-06,4.1772437e-05,0.013141154,0.01264091,0.009965774,0.075855896,0.07563289,0.1719695,1.2063527e-11,1.14929845e-11,3.1240736e-11,6.0553106e-08,6.444005e-08,5.000015e-08,0.00021783802,1.1703227e-05,0.00015697489,5.636844e-05,0.00019990266,0.0001542382,0.0,0.0,24
862052000,861972000,0.8043119,0.020788644,0.0015486265,-0.5938417,0.1873009,0.050670303,0.070892826,-0.6121774,31.905745,-12.18582,3.769312e-06,-1.7674767e-05,1.36883455e-05,0.0003918798,-1.5194747e-05,-0.0012567214,0.1958163,-0.017791765,0.48822165,0.011541328,-0.008847247,0.0029153088,0.0,0.0,1.9573732e-05,4.266828e-06,4.4291787e-06,4.2568365e-05,0.013050555,0.012877761,0.01091434,0.075335175,0.07515947,0.16961794,1.2237634e-11,1.1626379e-11,3.167984e-11,5.7258976e-08,6.098651e-08,5.000011e-08,0.00021488799,1.1481617e-05,0.00015396635,5.3628017e-05,0.00019702711,0.00015174945,0.0,0.0,24
863052000,862972000,0.8031612,0.01180759,0.0037398275,-0.5956331,0.07789684,0.07614795,0.06583798,-0.50992805,31.974174,-12.248993,3.922511e-06,-1.7694956e-05,1.3675497e-05,0.00039273745,1.0014007e-06,-0.0012055682,0.19589074,-0.017804105,0.48816448,0.011538525,-0.00884582,0.0027897563,0.0,0.0,2.0335978e-05,4.305977e-06,4.392855e-06,4.349706e-05,0.012071103,0.011907914,0.011950262,0.07314598,0.07303201,0.16846824,1.2320964e-11,1.1716496e-11,3.211053e-11,5.3803593e-08,5.7218564e-08,5.000015e-08,0.0,0.0,0.0,0.0,0.0,0.0,0.0,0.0,24
864052000,863972000,0.8026455,0.009359595,0.0019102743,-0.59638,0.03230383,0.036778208,0.10141816,-0.4764505,32.034916,-12.308706,3.9846027e-06,-1.7732718e-05,1.3649812e-05,0.0003945193,7.683414e-06,-0.0011437059,0.19589074,-0.017804105,0.48816448,0.011538525,-0.00884582,0.0027897563,0.0,0.0,2.0496502e-05,4.526347e-06,4.5881775e-06,4.3291824e-05,0.011374764,0.011213773,0.01279323,0.07176486,0.071693674,0.16620208,1.2432153e-11,1.1854387e-11,3.242938e-11,5.1490517e-08,5.465479e-08,5e-08,0.0,0.0,0.0,0.0,0.0,0.0,0.0,0.0,24
865052000,864972000,0.8023323,0.009899897,0.001054237,-0.5967946,0.0125824455,0.0026896866,0.14771505,-0.46375352,32.053364,-12.314265,4.004429e-06,-1.7744935e-05,1.3619648e-05,0.00039445845,1.01506785e-05,-0.001092809,0.19589074,-0.017804105,0.48816448,0.011538525,-0.00884582,0.0027897563,0.0,0.0,2.0682903e-05,5.0059652e-06,5.062319e-06,4.320266e-05,0.01285896,0.012653827,0.014440123,0.08068953,0.080613986,0.17174749,1.2641166e-11,1.2090528e-11,3.2718498e-11,5.03966e-08,5.3432572e-08,5.0000036e-08,0.0,0.0,0.0,0.0,0.0,0.0,0.0,0.0,24
866052000,865972000,0.8020811,0.009064265,0.0015387998,-0.5971444,0.0031569956,-0.008013462,0.15156181,-0.44887698,32.067196,-12.343565,3.950275e-06,-1.7790968e-05,1.3617035e-05,0.00039590595,9.387956e-06,-0.0010256524,0.19589074,-0.017804105,0.48816448,0.011538525,-0.00884582,0.0027897563,0.0,0.0,2.0866966e-05,5.281452e-06,5.316683e-06,4.3150474e-05,0.011843642,0.011673316,0.014646774,0.0781663,0.078110605,0.17325184,1.2650065e-11,1.2145412e-11,3.2968666e-11,5.00009e-08,5.24236e-08,5e-08,0.0,0.0,0.0,0.0,0.0,0.0,0.0,0.0,24
867052000,866972000,0.80199957,0.0077932654,0.002601829,-0.59726804,-0.009970495,-0.0065288004,0.14736302,-0.4440281,32.086987,-12.351201,3.8933335e-06,-1.789974e-05,1.3620267e-05,0.00039786613,8.903778e-06,-0.0009572026,0.19589074,-0.017804105,0.48816448,0.011538525,-0.00884582,0.0027897563,0.0,0.0,2.106685e-05,5.429249e-06,5.4420793e-06,4.318406e-05,0.009891412,0.009783208,0.013718306,0.06849409,0.06846623,0.16996981,1.2516276e-11,1.2067821e-11,3.3182058e-11,5.000011e-08,5.1945992e-08,5e-08,0.0,0.0,0.0,0.0,0.0,0.0,0.0,0.0,24
868052000,867972000,0.80194867,0.008009171,0.0006422763,-0.597339,-0.007348634,-0.023382206,0.12867928,-0.45190507,32.08634,-12.310075,3.845541e-06,-1.79506e-05,1.36201825e-05,0.00039817274,8.769193e-06,-0.00091986207,0.19589074,-0.017804105,0.48816448,0.011538525,-0.00884582,0.0027897563,0.0,0.0,2.134983e-05,5.798319e-06,5.805406e-06,4.3381886e-05,0.010860746,0.010763941,0.014553581,0.07496663,0.07492463,0.1759097,1.2527245e-11,1.2119551e-11,3.3372707e-11,5.0000143e-08,5.1863204e-08,5.000007e-08,0.0,0.0,0.0,0.0,0.0,0.0,0.0,0.0,24
869052000,868972000,0.80211437,0.0059373,0.00046239133,-0.5971407,-0.005817901,-0.024975112,0.108125746,-0.46176526,32.089565,-12.270955,3.8554313e-06,-1.8078812e-05,1.3543115e-05,0.00039835766,9.174516e-06,-0.0008920552,0.19589074,-0.017804105,0.48816448,0.011538525,-0.00884582,0.0027897563,0.0,0.0,2.1657395e-05,5.95679e-06,5.9493195e-06,4.36602e-05,0.010521375,0.010452207,0.014353318,0.07332141,0.073285334,0.17686535,1.2375175e-11,1.2016701e-11,3.352939e-11,5.0000217e-08,5.183089e-08,5.0000146e-08,0.0,0.0,0.0,0.0,0.0,0.0,0.0,0.0,24
870052000,869972000,0.80224645,0.006103905,-0.0016761112,-0.5969595,0.0041836565,-0.022321362,0.082025684,-0.474416,32.07279,-12.231126,3.9283927e-06,-1.8133665e-05,1.3485367e-05,0.00039803184,8.964368e-06,-0.0008788771,0.19589074,-0.017804105,0.48816448,0.011538525,-0.00884582,0.0027897563,0.0,0.0,2.2005834e-05,6.096469e-06,6.083067e-06,4.4022476e-05,0.010575508,0.010518885,0.01426015,0.07281615,0.072782435,0.17747222,1.2222532e-11,1.1909735e-11,3.365624e-11,5.0000217e-08,5.17885e-08,5.000007e-08,0.0,0.0,0.0,0.0,0.0,0.0,0.0,0.0,24
871052000,870972000,0.8022342,0.0066327057,0.00087836344,-0.596972,0.010409059,-0.009866339,0.03759378,-0.47756338,32.032925,-12.1974945,4.0509913e-06,-1.8037277e-05,1.3419572e-05,0.0003990418,7.820914e-06,-0.00087868155,0.19589074,-0.017804105,0.48816448,0.011538525,-0.00884582,0.0027897563,0.0,0.0,2.2396196e-05,6.057036e-06,6.040675e-06,4.4431028e-05,0.010139203,0.010091935,0.013949955,0.07089874,0.070872925,0.17701925,1.1959836e-11,1.1696109e-11,3.374929e-11,5.0000107e-08,5.1672714e-08,5.0000036e-08,0.0,0.0,0.0,0.0,0.0,0.0,0.0,0.0,24
872052000,871972000,0.80212295,0.0071996623,0.003684962,-0.5971042,0.010516611,0.008621203,0.00956177,-0.50079894,32.01668,-12.176733,4.325113e-06,-1.8005707e-05,1.334119e-05,0.0003995183,3.8327144e-06,-0.0008818781,0.19589074,-0.017804105,0.48816448,0.011538525,-0.00884582,0.0027897563,0.0,0.0,2.275643e-05,6.0253715e-06,6.008707e-06,4.4749006e-05,0.009980338,0.009939107,0.013758441,0.06975513,0.06973319,0.1764404,1.1736854e-11,1.15161145e-11,3.378008e-11,5.0000132e-08,5.1498404e-08,5e-08,0.0,0.0,0.0,0.0,0.0,0.0,0.0,0.0,24
873052000,872972000,0.8021878,0.007900346,0.003120572,-0.5970115,0.034607816,0.026227815,-0.006429181,-0.5070229,32.020668,-12.169385,4.5346737e-06,-1.796482e-05,1.3262237e-05,0.00040024397,5.236164e-07,-0.00088888535,0.19589074,-0.017804105,0.48816448,0.011538525,-0.00884582,0.0027897563,0.0,0.0,2.319003e-05,6.191812e-06,6.1763403e-06,4.526501e-05,0.011301089,0.011257692,0.014683506,0.07720046,0.07716754,0.18372037,1.1676905e-11,1.1486387e-11,3.3814854e-11,5.0000175e-08,5.132895e-08,5.0000185e-08,0.0,0.0,0.0,0.0,0.0,0.0,0.0,0.0,24
874052000,873972000,0.80247915,0.005237829,0.0048169536,-0.5966378,0.03367453,0.024149511,-0.004752085,-0.5206322,32.03561,-12.157884,4.809355e-06,-1.8006825e-05,1.3229592e-05,0.00039966585,-4.3606897e-06,-0.00090025546,0.19589074,-0.017804105,0.48816448,0.011538525,-0.00884582,0.0027897563,0.0,0.0,2.3605116e-05,6.0582142e-06,6.0417747e-06,4.5841163e-05,0.010882466,0.010851737,0.014422959,0.075302854,0.07527681,0.18228996,1.14419845e-11,1.128645e-11,3.381795e-11,5.0000246e-08,5.1083045e-08,5.0000075e-08,0.0,0.0,0.0,0.0,0.0,0.0,0.0,0.0,24
875052000,874972000,0.8019951,0.022901766,-0.0019995046,-0.59688807,0.0463034,0.03036431,-0.038107194,-0.5429985,32.041126,-12.14305,5.008592e-06,-1.8034569e-05,1.3198037e-05,0.00039936372,-7.867942e-06,-0.00091225794,0.19589074,-0.017804105,0.48816448,0.011538525,-0.00884582,0.0027897563,0.0,0.0,2.4080482e-05,6.0068023e-06,6.022512e-06,4.636982e-05,0.010937512,0.010915215,0.014345278,0.07479042,0.07476697,0.18108435,1.1291389e-11,1.1163211e-11,3.3796584e-11,5.000101e-08,5.0855622e-08,5e-08,0.0,0.0,0.0,0.0,0.0,0.0,0.0,0.0,24
876052000,875972000,0.791608,0.11008727,-0.113132685,-0.5902869,1.1158794,0.15628514,-0.15699567,-0.20113677,32.139133,-12.2096195,5.520092e-06,-1.8162413e-05,1.3129833e-05,0.00039748888,-1.7420643e-05,-0.0009265876,0.19589074,-0.017804105,0.48816448,0.011538525,-0.00884582,0.0027897563,0.0,0.0,2.4041205e-05,6.522481e-06,6.3954744e-06,4.5810746e-05,0.010450997,0.010629234,0.014097191,0.072703436,0.072686836,0.18205196,1.1067442e-11,1.0962267e-11,3.3692934e-11,5.000015e-08,5.059614e-08,5.000015e-08,0.0,0.0,0.0,0.0,0.0,0.0,0.0,0.0,24
877052000,876972000,0.7897072,0.12028134,-0.123517714,-0.58876,2.2466223,0.17979263,-0.117748685,1.5439997,32.295765,-12.320394,5.690269e-06,-1.8103712e-05,1.3195134e-05,0.00039873077,-2.0275793e-05,-0.00094439863,0.19680136,-0.017857855,0.48797837,0.011573618,-0.008144996,0.0023958818,0.0,0.0,2.3845127e-05,6.2621516e-06,6.146583e-06,4.520365e-05,0.010195881,0.010500379,0.013775415,0.071350336,0.07133712,0.18047656,1.0895405e-11,1.0806374e-11,3.328372e-11,5.0000185e-08,5.011712e-08,5.000015e-08,0.00014167963,1.0535544e-05,0.00011066775,4.4186458e-05,0.00013424923,0.000109973495,0.0,0.0,24
878052000,877972000,0.7868485,0.11804694,-0.11491827,-0.5947506,2.5023828,0.2078768,-0.049911804,3.963248,32.478718,-12.391919,5.6766876e-06,-1.8023362e-05,1.3207338e-05,0.00040033163,-2.078677e-05,-0.0009508204,0.19707388,-0.017892113,0.48817655,0.0116734505,-0.007933474,0.0025393884,0.0,0.0,2.4826932e-05,6.200147e-06,6.1825363e-06,4.551201e-05,0.011821865,0.01173095,0.01464251,0.0799635,0.07995294,0.18456195,1.09495035e-11,1.0869974e-11,3.3182086e-11,5.000022e-08,5.000018e-08,5.000011e-08,0.000119683886,1.0011438e-05,9.59291e-05,3.8418562e-05,0.00011454942,9.566407e-05,0.0,0.0,24
879052000,878972000,0.78861386,0.04719212,-0.032682966,-0.6122034,2.1360087,0.1822229,0.08452775,6.462845,32.682217,-12.3902025,5.484589e-06,-1.7936378e-05,1.3202185e-05,0.00040188566,-1.7717855e-05,-0.00095050037,0.19715403,-0.01790615,0.4881085,0.011718517,-0.007918975,0.002523213,0.0,0.0,2.6895712e-05,5.628116e-06,5.602621e-06,4.6500627e-05,0.011184583,0.011001901,0.014409453,0.07763038,0.077569075,0.18288241,1.0811994e-11,1.0763278e-11,3.3242808e-11,5e-08,5e-08,5.000007e-08,0.00011052144,9.666726e-06,8.9476314e-05,3.4887747e-05,0.000106216954,8.929534e-05,0.0,0.0,24
880052000,879972000,0.7848718,0.0064931237,0.0078238165,-0.6195748,0.89238906,0.07451419,0.6446404,7.9179206,32.843132,-12.1664,5.065094e-06,-1.7991202e-05,1.3349666e-05,0.00040268362,-1.33503645e-05,-0.0009505296,0.1970174,-0.01792277,0.4879304,0.011848395,-0.007868098,0.0025023625,0.0,0.0,2.7965298e-05,5.460081e-06,5.400856e-06,4.6601053e-05,0.00931422,0.009789719,0.013390658,0.0682218,0.06818504,0.17657243,1.0615145e-11,1.0619292e-11,3.290421e-11,5.0000036e-08,5.0000036e-08,5.000011e-08,0.0,0.0,0.0,0.0,0.0,0.0,0.0,0.0,24
881052000,880972000,0.79100376,-0.018859487,0.034056727,-0.61057156,-0.3417456,-0.021182269,0.8786109,8.123386,32.917034,-11.239182,4.835057e-06,-1.8177972e-05,1.3647057e-05,0.00040449316,-1.2910914e-05,-0.0009624302,0.19704133,-0.017968412,0.48746422,0.012008291,-0.007935771,0.002045021,0.0,0.0,2.6213429e-05,5.557659e-06,5.5090363e-06,4.559559e-05,0.010347866,0.0113654155,0.01409208,0.07451481,0.07442755,0.18050504,1.0638817e-11,1.07310185e-11,3.181804e-11,5.0000068e-08,5.0000036e-08,5.0000036e-08,8.034034e-05,9.010034e-06,6.7851106e-05,2.920084e-05,7.81798e-05,6.768409e-05,0.0,0.0,24
882052000,881972000,0.7915677,-0.017870951,0.017913168,-0.6105575,-0.4187488,-0.078079924,0.8416451,7.757637,32.92665,-10.414581,4.6815335e-06,-1.837974e-05,1.3841837e-05,0.00040662335,-1.2130355e-05,-0.00095709733,0.19691052,-0.018042544,0.48727468,0.012272991,-0.008317873,0.0018536303,0.0,0.0,2.6141779e-05,5.431036e-06,5.4039506e-06,4.5413486e-05,0.010232604,0.010480424,0.01393903,0.07293518,0.07288119,0.1792172,1.0555959e-11,1.0774708e-11,3.124089e-11,5.0000065e-08,5e-08,5e-08,6.864268e-05,8.623183e-06,5.8714562e-05,2.6195281e-05,6.7161316e-05,5.8590667e-05,0.0,0.0,24
883052000,882972000,0.79046655,-0.00037636238,0.0005034274,-0.61250496,-0.22877043,-0.09791176,0.89928526,7.4374905,32.847675,-9.533518,4.6037876e-06,-1.8408131e-05,1.38285095e-05,0.0004080833,-1.1024193e-05,-0.0009587644,0.19710599,-0.018093744,0.48725334,0.012431329,-0.008281855,0.0018112742,0.0,0.0,2.7141876e-05,5.510775e-06,5.4564894e-06,4.65494e-05,0.010337898,0.010241651,0.01405516,0.072518125,0.072459124,0.18091278,1.0518243e-11,1.0827626e-11,3.1260165e-11,5.000007e-08,5.000007e-08,5.0000136e-08,6.328254e-05,8.348506e-06,5.4408138e-05,2.4201507e-05,6.203643e-05,5.4307635e-05,0.0,0.0,24
884052000,883972000,0.7895073,0.00784501,-0.0028475344,-0.6136844,-0.04110706,-0.041175265,0.88259417,7.3354764,32.777363,-8.641598,4.4974445e-06,-1.833132e-05,1.3774023e-05,0.00040986625,-1.041772e-05,-0.0009575635,0.19721454,-0.018134262,0.4872226,0.012562278,-0.008310712,0.0017665724,0.0,0.0,2.8281285e-05,5.4498664e-06,5.4288216e-06,4.801789e-05,0.009919248,0.009842705,0.013862919,0.07065257,0.070590064,0.17963196,1.0426604e-11,1.0765326e-11,3.14165e-11,5.000007e-08,5.000007e-08,5.000007e-08,0.0,0.0,0.0,0.0,0.0,0.0,0.0,0.0,24
885052000,884972000,0.7889274,0.0065446272,0.00020020168,-0.6144517,0.007837093,-0.0030152078,0.8583069,7.3575788,32.757088,-7.7528014,4.349373e-06,-1.8239823e-05,1.3797164e-05,0.000410599,-9.336896e-06,-0.00096517237,0.19721454,-0.018134262,0.4872226,0.012562278,-0.008310712,0.0017665724,0.0,0.0,2.8702121e-05,5.4090265e-06,5.4069033e-06,4.8354348e-05,0.009785396,0.009777056,0.013757644,0.06958626,0.069522105,0.17869747,1.0390333e-11,1.0706763e-11,3.124836e-11,5.000007e-08,5.000007e-08,5.0000143e-08,0.0,0.0,0.0,0.0,0.0,0.0,0.0,0.0,24
886052000,885972000,0.7890283,0.0041907434,0.0021579606,-0.6143388,-0.019027377,0.007915384,0.80602324,7.3705864,32.754375,-6.923425,4.2719817e-06,-1.8162324e-05,1.3765456e-05,0.00041100392,-8.768092e-06,-0.0009668164,0.19721454,-0.018134262,0.4872226,0.012562278,-0.008310712,0.0017665724,0.0,0.0,2.9032668e-05,5.5634227e-06,5.56408e-06,4.8728412e-05,0.011083462,0.011114452,0.014648134,0.07703852,0.0769492,0.18322669,1.0474338e-11,1.0760647e-11,3.106201e-11,5.000015e-08,5.000015e-08,5.000018e-08,0.0,0.0,0.0,0.0,0.0,0.0,0.0,0.0,24
887052000,886972000,0.7891002,0.0046437755,0.0038605665,-0.6142348,-0.025595183,0.012831021,0.75381255,7.371852,32.75225,-6.142137,4.1789453e-06,-1.8077879e-05,1.3721063e-05,0.00041141378,-8.094732e-06,-0.00096780143,0.19721454,-0.018134262,0.4872226,0.012562278,-0.008310712,0.0017665724,0.0,0.0,2.9313911e-05,5.479763e-06,5.4930097e-06,4.9030376e-05,0.010700813,0.010754279,0.0144378515,0.07519103,0.07513074,0.18211618,1.04191595e-11,1.0664329e-11,3.0853764e-11,5.0000185e-08,5.0000185e-08,5.000022e-08,0.0,0.0,0.0,0.0,0.0,0.0,0.0,0.0,24
888052000,887972000,0.78924775,0.0046808044,0.005406825,-0.6140333,-0.030517668,0.0071255434,0.72257066,7.3561964,32.755764,-5.403583,4.144426e-06,-1.8034256e-05,1.3647665e-05,0.00041146378,-7.619712e-06,-0.0009688323,0.19721454,-0.018134262,0.4872226,0.012562278,-0.008310712,0.0017665724,0.0,0.0,2.9590425e-05,5.4766992e-06,5.497119e-06,4.9339764e-05,0.010739976,0.010802854,0.014396211,0.07469469,0.07465803,0.18141389,1.0416793e-11,1.0624721e-11,3.0638676e-11,5.0000295e-08,5.0000242e-08,5.0000185e-08,0.0,0.0,0.0,0.0,0.0,0.0,0.0,0.0,24
889052000,888972000,0.78916675,0.0057052094,0.004783217,-0.61413395,-0.015725117,0.004813996,0.6891656,7.3290772,32.764984,-4.703641,4.1536036e-06,-1.8039442e-05,1.3603211e-05,0.00041131247,-7.3944943e-06,-0.0009707691,0.19721454,-0.018134262,0.4872226,0.012562278,-0.008310712,0.0017665724,0.0,0.0,2.9875642e-05,5.3690924e-06,5.3912727e-06,4.9603594e-05,0.010209411,0.0102681015,0.014137733,0.072605126,0.072586305,0.18025672,1.034347e-11,1.0513635e-11,3.0413738e-11,5.000011e-08,5.000011e-08,5.000011e-08,0.0,0.0,0.0,0.0,0.0,0.0,0.0,0.0,24
890052000,889972000,0.7891312,0.0051148618,0.0027736593,-0.6141971,-0.0075397133,-0.007540639,0.70399296,7.320575,32.780254,-4.0265365,4.1199783e-06,-1.8094517e-05,1.3550143e-05,0.00041063956,-7.669202e-06,-0.0009623425,0.19721454,-0.018134262,0.4872226,0.012562278,-0.008310712,0.0017665724,0.0,0.0,3.0060124e-05,5.3335084e-06,5.3487693e-06,4.9705537e-05,0.009970062,0.010018154,0.013906218,0.071283884,0.07127783,0.17701435,1.031519e-11,1.0454849e-11,3.0137e-11,5e-08,5e-08,5e-08,0.0,0.0,0.0,0.0,0.0,0.0,0.0,0.0,24
891052000,890972000,0.789199,0.0065339357,0.0017656954,-0.6141002,-0.005971453,-0.02462368,0.70977,7.313336,32.78639,-3.3358204,4.0968284e-06,-1.8193505e-05,1.3461672e-05,0.00040958825,-7.913291e-06,-0.00095360505,0.19721454,-0.018134262,0.4872226,0.012562278,-0.008310712,0.0017665724,0.0,0.0,3.0348841e-05,5.555819e-06,5.5743367e-06,5.002467e-05,0.011559651,0.011608234,0.014979483,0.07987019,0.079885624,0.18468101,1.0445508e-11,1.0566421e-11,2.991746e-11,5.000011e-08,5.000011e-08,5.0000185e-08,0.0,0.0,0.0,0.0,0.0,0.0,0.0,0.0,24
892052000,891972000,0.78919595,0.0064828508,0.0020324246,-0.61410385,-0.0006893494,-0.0312898,0.7024121,7.3183346,32.794613,-2.627132,4.0047275e-06,-1.8344617e-05,1.3348674e-05,0.00040819473,-7.3003735e-06,-0.00095311645,0.19721454,-0.018134262,0.4872226,0.012562278,-0.008310712,0.0017665724,0.0,0.0,3.0637275e-05,5.465692e-06,5.485608e-06,5.031045e-05,0.011067091,0.011100444,0.014697507,0.07755852,0.07757451,0.18327963,1.0386077e-11,1.0484647e-11,2.9691548e-11,5.0000107e-08,5.0000075e-08,5.0000075e-08,0.0,0.0,0.0,0.0,0.0,0.0,0.0,0.0,24
893052000,892972000,0.7891577,0.003937116,0.0012619294,-0.6141768,-0.0029264782,-0.032157578,0.6960477,7.331617,32.815105,-1.9598991,3.8649205e-06,-1.8576222e-05,1.3257503e-05,0.00040623304,-7.1878726e-06,-0.0009378578,0.19721454,-0.018134262,0.4872226,0.012562278,-0.008310712,0.0017665724,0.0,0.0,3.092398e-05,5.243537e-06,5.256659e-06,5.0588e-05,0.00951092,0.009528577,0.013577106,0.06818417,0.06819252,0.17685594,1.0246272e-11,1.0324697e-11,2.9465673e-11,5.000011e-08,5.000011e-08,5.000011e-08,0.0,0.0,0.0,0.0,0.0,0.0,0.0,0.0,24
894052000,893972000,0.78918535,0.0046914285,0.0010779115,-0.6141362,-0.011471403,-0.04611128,0.7093876,7.3344116,32.804863,-1.2727518,3.768538e-06,-1.872127e-05,1.3198051e-05,0.0004050733,-7.035138e-06,-0.00092789845,0.19721454,-0.018134262,0.4872226,0.012562278,-0.008310712,0.0017665724,0.0,0.0,3.1185453e-05,5.368602e-06,5.3842714e-06,5.088647e-05,0.010541521,0.010556476,0.014348741,0.07466074,0.07467413,0.18095113,1.0316768e-11,1.038418e-11,2.9244877e-11,5.000018e-08,5.0000075e-08,5.0000075e-08,0.0,0.0,0.0,0.0,0.0,0.0,0.0,0.0,24
895052000,894972000,0.7891595,0.0063516013,0.001749635,-0.61415315,-0.01772418,-0.0426772,0.71016574,7.3512287,32.795494,-0.58684295,3.5710464e-06,-1.885335e-05,1.3085684e-05,0.00040379522,-6.2929385e-06,-0.000915681,0.19721454,-0.018134262,0.4872226,0.012562278,-0.008310712,0.0017665724,0.0,0.0,3.1332143e-05,5.3195945e-06,5.3400818e-06,5.0964514e-05,0.0102590555,0.010269446,0.01423374,0.07308514,0.07309587,0.1823368,1.0283707e-11,1.0340022e-11,2.8971301e-11,5e-08,5.000002e-08,5.000022e-08,0.0,0.0,0.0,0.0,0.0,0.0,0.0,0.0,24
896052000,895972000,0.7892029,0.0038706157,0.0019541888,-0.6141173,0.046860516,-0.021910783,0.5937471,7.3737755,32.79399,0.08741928,3.295327e-06,-1.8968034e-05,1.2993117e-05,0.00040264573,-5.2436085e-06,-0.0008983945,0.19721454,-0.018134262,0.4872226,0.012562278,-0.008310712,0.0017665724,0.0,0.0,3.1572406e-05,5.3287586e-06,5.344551e-06,5.122117e-05,0.010373234,0.010385084,0.014186971,0.07264627,0.072655365,0.18136975,1.02871765e-11,1.0335234e-11,2.8750738e-11,5e-08,5e-08,5.0000185e-08,0.0,0.0,0.0,0.0,0.0,0.0,0.0,0.0,24
897052000,896972000,0.79304624,0.0031640397,0.0013075939,-0.60915184,-0.021869421,-0.021983024,0.04433805,7.381208,32.79728,0.09529798,3.1221518e-06,-1.906093e-05,1.28861475e-05,0.00040329172,-6.514619e-06,-0.0008975754,0.19721454,-0.018134262,0.4872226,0.012562278,-0.008310712,0.0017665724,0.0,0.0,3.129564e-05,4.8946868e-06,4.9064715e-06,5.1951523e-05,0.010660718,0.01067451,0.010870334,0.070778795,0.07078508,0.17951779,1.0189414e-11,1.0227137e-11,2.8529273e-11,5.0000075e-08,5.0000075e-08,5.0000075e-08,0.0,0.0,0.0,0.0,0.0,0.0,0.0,0.0,24
898052000,897972000,0.79306006,0.0033795207,0.0008731277,-0.60913354,-0.01777369,-0.019986939,0.05963657,7.3833423,32.801815,0.12423265,2.9677444e-06,-1.9168874e-05,1.2727557e-05,0.00040789833,-1.3665373e-05,-0.00089027337,0.19721454,-0.018134262,0.4872226,0.012562278,-0.008310712,0.0017665724,0.0,0.0,3.150509e-05,4.384378e-06,4.3938926e-06,5.213769e-05,0.01139304,0.011404489,0.009870893,0.06970661,0.06971307,0.17623997,1.0187361e-11,1.02158716e-11,2.8308121e-11,5.0000146e-08,5.0000146e-08,5.000007e-08,0.0,0.0,0.0,0.0,0.0,0.0,0.0,0.0,24
899052000,898972000,0.7934758,0.004304882,0.0007513586,-0.60858613,5.5960598e-05,-0.0003280228,0.0016706177,7.397932,32.818275,-0.011149346,2.660562e-06,-1.9442505e-05,1.2533477e-05,0.00043574735,-4.4221277e-05,-0.00077092386,0.19721454,-0.018134262,0.4872226,0.012562278,-0.008310712,0.0017665724,0.0,0.0,3.1644508e-05,2.392039e-06,2.3975113e-06,5.23308e-05,4.986301e-05,4.986323e-05,4.9904917e-05,0.042175855,0.042172365,0.092105806,9.695219e-12,9.707531e-12,2.8087324e-11,5.000017e-08,5.000018e-08,5e-08,0.0,0.0,0.0,0.0,0.0,0.0,0.0,0.0,24
900052000,899972000,0.79350674,0.0038742654,0.00054861465,-0.608549,6.442035e-05,0.000120715515,-0.0017603491,7.398198,32.817997,-0.0001396729,2.6692705e-06,-1.9454254e-05,1.2357865e-05,6.653972e-05,-7.475081e-05,0.00013616229,0.19721454,-0.018134262,0.4872226,0.012562278,-0.008310712,0.0017665724,0.0,0.0,3.1822634e-05,2.9196817e-06,2.9248238e-06,5.248025e-05,8.936036e-06,8.936031e-06,8.931649e-06,0.03585291,0.03585034,0.08194759,1.0128704e-11,1.0140046e-11,2.7870246e-11,1.3404522e-07,1.3397666e-07,7.30139e-08,0.0,0.0,0.0,0.0,0.0,0.0,0.0,0.0,24
