timestamp,timestamp_sample,gps_hvel[0],gps_hvel[1],gps_vvel,gps_hpos[0],gps_hpos[1],gps_vpos,ev_hvel[0],ev_hvel[1],ev_vvel,ev_hpos[0],ev_hpos[1],ev_vpos,rng_vpos,baro_vpos,aux_hvel[0],aux_hvel[1],aux_vvel,flow[0],flow[1],heading,mag_field[0],mag_field[1],mag_field[2],drag[0],drag[1],airspeed,beta,hagl,hagl_rate
829580000,829500000,0.0902262,0.09022621,0.2027389,1.0015757,1.0015758,0.0,0.0,0.0,0.0,0.0,0.0,0.0,0.0,12.2536125,0.0,0.0,nan,0.0,0.0,0.090324186,0.0025356514,0.002541391,0.0025458497,0.0,0.0,0.0,0.0,0.0,0.0
830076000,829996000,0.090161316,0.09016132,0.2026682,1.0015713,1.0015713,0.0,0.0,0.0,0.0,0.0,0.0,0.0,0.0,12.253607,0.0,0.0,nan,0.0,0.0,0.09032432,0.0025356514,0.002541391,0.0025458497,0.0,0.0,0.0,0.0,0.0,0.0
830580000,830500000,0.09016136,0.09016136,0.2026682,1.001568,1.001568,0.0,0.0,0.0,0.0,0.0,0.0,0.0,0.0,12.253598,0.0,0.0,nan,0.0,0.0,0.090324186,0.0025356514,0.002541391,0.0025458497,0.0,0.0,0.0,0.0,0.0,0.0
831076000,830996000,0.09011693,0.09011693,0.20262071,1.0015646,1.0015646,0.0,0.0,0.0,0.0,0.0,0.0,0.0,0.0,12.2535925,0.0,0.0,nan,0.0,0.0,0.090324186,0.0025356514,0.002541391,0.0025458497,0.0,0.0,0.0,0.0,0.0,0.0
831580000,831500000,0.09010823,0.09010824,0.20261152,1.0015637,1.0015637,0.0,0.0,0.0,0.0,0.0,0.0,0.0,0.0,12.253584,0.0,0.0,nan,0.0,0.0,0.09032456,0.0025356514,0.002541391,0.0025458497,0.0,0.0,0.0,0.0,0.0,0.0
832076000,831996000,0.09010823,0.09010823,0.20261152,1.0015587,1.0015587,0.0,0.0,0.0,0.0,0.0,0.0,0.0,0.0,12.253578,0.0,0.0,nan,0.0,0.0,0.09032455,0.0025356514,0.002541391,0.0025458497,0.0,0.0,0.0,0.0,0.0,0.0
832572000,832492000,0.09004919,0.0900492,0.20254992,1.0015575,1.0015575,0.0,0.0,0.0,0.0,0.0,0.0,0.0,0.0,12.253572,0.0,0.0,nan,0.0,0.0,0.09032429,0.0025356514,0.002541391,0.0025458497,0.0,0.0,0.0,0.0,0.0,0.0
833076000,832996000,0.090049185,0.090049185,0.20254992,1.0015526,1.0015526,0.0,0.0,0.0,0.0,0.0,0.0,0.0,0.0,12.253564,0.0,0.0,nan,0.0,0.0,0.090324156,0.0025356514,0.002541391,0.0025458497,0.0,0.0,0.0,0.0,0.0,0.0
833572000,833492000,0.090049185,0.090049185,0.20254992,1.001551,1.001551,0.0,0.0,0.0,0.0,0.0,0.0,0.0,0.0,12.253557,0.0,0.0,nan,0.0,0.0,0.09032416,0.0025356514,0.002541391,0.0025458497,0.0,0.0,0.0,0.0,0.0,0.0
834076000,833996000,0.09022636,0.090226375,0.2027389,1.0015515,1.0015515,0.0,0.0,0.0,0.0,0.0,0.0,0.0,0.0,12.25355,0.0,0.0,nan,0.0,0.0,0.09032428,0.0025356514,0.002541391,0.0025458497,0.0,0.0,0.0,0.0,0.0,0.0
834580000,834500000,0.09022633,0.09022634,0.2027389,1.0015482,1.0015483,0.0,0.0,0.0,0.0,0.0,0.0,0.0,0.0,12.253543,0.0,0.0,nan,0.0,0.0,0.09032428,0.0025356514,0.002541391,0.0025458497,0.0,0.0,0.0,0.0,0.0,0.0
835076000,834996000,0.09016136,0.09016136,0.2026682,1.0015439,1.0015439,0.0,0.0,0.0,0.0,0.0,0.0,0.0,0.0,12.253538,0.0,0.0,nan,0.0,0.0,0.09032442,0.0025356514,0.002541391,0.0025458497,0.0,0.0,0.0,0.0,0.0,0.0
835572000,835492000,0.09016128,0.09016128,0.2026682,1.0015408,1.0015408,0.0,0.0,0.0,0.0,0.0,0.0,0.0,0.0,12.25353,0.0,0.0,nan,0.0,0.0,0.090324655,0.0025356514,0.002541391,0.0025458497,0.0,0.0,0.0,0.0,0.0,0.0
836076000,835996000,0.09016132,0.09016133,0.2026682,1.0015376,1.0015376,0.0,0.0,0.0,0.0,0.0,0.0,0.0,0.0,12.253524,0.0,0.0,nan,0.0,0.0,0.090324774,0.0025356514,0.002541391,0.0025458497,0.0,0.0,0.0,0.0,0.0,0.0
836580000,836500000,0.09011694,0.09011695,0.20262071,1.001536,1.001536,0.0,0.0,0.0,0.0,0.0,0.0,0.0,0.0,12.25355,0.0,0.0,nan,0.0,0.0,0.09032477,0.0025356514,0.002541391,0.0025458497,0.0,0.0,0.0,0.0,0.0,0.0
837076000,836996000,0.09136997,0.09137011,0.20407195,1.0018704,1.0018704,0.0,0.0,0.0,0.0,0.0,0.0,0.0,0.0,12.253961,0.0,0.0,nan,0.0,0.0,0.09032489,0.0025356514,0.002541391,0.0025458497,0.0,0.0,0.0,0.0,0.0,0.0
837572000,837492000,0.09182753,0.09182754,0.20459436,1.0021856,1.0021856,0.0,0.0,0.0,0.0,0.0,0.0,0.0,0.0,12.25528,0.0,0.0,nan,0.0,0.0,0.090324886,0.0025356514,0.002541391,0.0025458497,0.0,0.0,0.0,0.0,0.0,0.0
838076000,837996000,0.09432099,0.09432159,0.20702732,1.0052903,1.0052906,0.0,0.0,0.0,0.0,0.0,0.0,0.0,0.0,12.2585125,0.0,0.0,nan,0.0,0.0,0.09032488,0.0025356514,0.002541391,0.0025458497,0.0,0.0,0.0,0.0,0.0,0.0
838572000,838492000,0.095342286,0.09534296,0.20847163,1.0084753,1.0084759,0.0,0.0,0.0,0.0,0.0,0.0,0.0,0.0,12.263813,0.0,0.0,nan,0.0,0.0,0.10032469,0.0025356514,0.002541391,0.0025458497,0.0,0.0,0.0,0.0,0.0,0.0
839076000,838996000,0.09596383,0.095964715,0.20996687,1.0127313,1.0127324,0.0,0.0,0.0,0.0,0.0,0.0,0.0,0.0,12.273474,0.0,0.0,nan,0.0,0.0,0.09572682,0.0025356514,0.002541391,0.0025458497,0.0,0.0,0.0,0.0,0.0,0.0
839580000,839500000,0.09810394,0.09810481,0.21229729,1.0209405,1.0209423,0.0,0.0,0.0,0.0,0.0,0.0,0.0,0.0,12.284486,0.0,0.0,nan,0.0,0.0,0.09396267,0.0025356514,0.002541391,0.0025458497,0.0,0.0,0.0,0.0,0.0,0.0
840076000,839996000,0.09993057,0.099930495,0.21336295,1.0259182,1.0259203,0.0,0.0,0.0,0.0,0.0,0.0,0.0,0.0,12.299943,0.0,0.0,nan,0.0,0.0,0.09302996,0.0025356514,0.002541391,0.0025458497,0.0,0.0,0.0,0.0,0.0,0.0
840580000,840500000,0.103312306,0.103311874,0.21495098,1.0348943,1.0348963,0.0,0.0,0.0,0.0,0.0,0.0,0.0,0.0,12.315165,0.0,0.0,nan,0.0,0.0,0.092453115,0.0025356514,0.002541391,0.0025458497,0.0,0.0,0.0,0.0,0.0,0.0
841076000,840996000,0.104456276,0.10445321,0.21555163,1.0416628,1.0416644,0.0,0.0,0.0,0.0,0.0,0.0,0.0,0.0,12.330098,0.0,0.0,nan,0.0,0.0,0.09206127,0.0025356514,0.002541391,0.0025458497,0.0,0.0,0.0,0.0,0.0,0.0
841572000,841492000,0.106855035,0.106764115,0.21641418,1.049095,1.0490963,0.0,0.0,0.0,0.0,0.0,0.0,0.0,0.0,12.34899,0.0,0.0,nan,0.0,0.0,0.09181237,0.0025356514,0.002541391,0.0025458497,0.0,0.0,0.0,0.0,0.0,0.0
842076000,841996000,0.1085902,0.10743962,0.2170071,1.0582196,1.0582192,0.0,0.0,0.0,0.0,0.0,0.0,0.0,0.0,12.362738,0.0,0.0,nan,0.0,0.0,0.09156495,0.0025356514,0.002541391,0.0025458497,0.0,0.0,0.0,0.0,0.0,0.0
842572000,842492000,0.10724394,0.10549113,0.21662192,1.059217,1.0592034,0.0,0.0,0.0,0.0,0.0,0.0,0.0,0.0,12.377461,0.0,0.0,nan,0.0,0.0,0.09137813,0.005987837,0.00669201,0.007119476,0.0,0.0,0.0,0.0,0.0,0.0
843076000,842996000,0.10705069,0.10520681,0.21670125,1.0654045,1.0654036,0.0,0.0,0.0,0.0,0.0,0.0,0.0,0.0,12.387852,0.0,0.0,nan,0.0,0.0,0.09137813,0.0028321259,0.002834418,0.0028329254,0.0,0.0,0.0,0.0,0.0,0.0
843580000,843500000,0.10466565,0.10362609,0.21626297,1.0649308,1.0649288,0.0,0.0,0.0,0.0,0.0,0.0,0.0,0.0,12.397571,0.0,0.0,nan,0.0,0.0,0.09137813,0.0026770416,0.0026752704,0.0026737582,0.0,0.0,0.0,0.0,0.0,0.0
844076000,843996000,0.10410508,0.103823,0.21647279,1.0706419,1.0706154,0.0,0.0,0.0,0.0,0.0,0.0,0.0,0.0,12.404354,0.0,0.0,nan,0.0,0.0,0.09137813,0.0026188686,0.0026182565,0.0026171957,0.0,0.0,0.0,0.0,0.0,0.0
844580000,844500000,0.1046094,0.104598716,0.21693012,1.0776017,1.0775394,0.0,0.0,0.0,0.0,0.0,0.0,0.0,0.0,12.419231,0.0,0.0,nan,0.0,0.0,0.09137813,0.0025893198,0.002589156,0.0025881794,0.0,0.0,0.0,0.0,0.0,0.0
845076000,844996000,0.10214365,0.10220035,0.21632744,1.0728749,1.072821,0.0,0.0,0.0,0.0,0.0,0.0,0.0,0.0,12.415534,0.0,0.0,nan,0.0,0.0,0.09137813,0.0025716985,0.0025719895,0.0025709125,0.0,0.0,0.0,0.0,0.0,0.0
845580000,845500000,0.10274393,0.10273787,0.21657929,1.0772177,1.0771692,0.0,0.0,0.0,0.0,0.0,0.0,0.0,0.0,12.426739,0.0,0.0,nan,0.0,0.0,0.09137813,0.0025601138,0.0025603436,0.002559117,0.0,0.0,0.0,0.0,0.0,0.0
846076000,845996000,0.10141105,0.10123538,0.21613531,1.0726383,1.0725992,0.0,0.0,0.0,0.0,0.0,0.0,0.0,0.0,12.422348,0.0,0.0,nan,0.0,0.0,0.09137813,0.00255288,0.0025530849,0.0025519552,0.0,0.0,0.0,0.0,0.0,0.0
846580000,846500000,0.10115672,0.10093123,0.21606772,1.0714685,1.0714352,0.0,0.0,0.0,0.0,0.0,0.0,0.0,0.0,12.431475,0.0,0.0,nan,0.0,0.0,0.09114696,0.00255288,0.0025530849,0.0025519552,0.0,0.0,0.0,0.0,0.0,0.0
847076000,846996000,0.10314374,0.10267338,0.21707807,1.0815896,1.081583,0.0,0.0,0.0,0.0,0.0,0.0,0.0,0.0,12.430979,0.0,0.0,nan,0.0,0.0,0.09104586,0.00255288,0.0025530849,0.0025519552,0.0,0.0,0.0,0.0,0.0,0.0
847580000,847500000,0.10203582,0.10161157,0.2166833,1.077191,1.0771867,0.0,0.0,0.0,0.0,0.0,0.0,0.0,0.0,12.431639,0.0,0.0,nan,0.0,0.0,0.09096058,0.00255288,0.0025530849,0.0025519552,0.0,0.0,0.0,0.0,0.0,0.0
848076000,847996000,0.10241216,0.10199842,0.21690485,1.0790405,1.0790286,0.0,0.0,0.0,0.0,0.0,0.0,0.0,0.0,12.431833,0.0,0.0,nan,0.0,0.0,0.09088827,0.00255288,0.0025530849,0.0025519552,0.0,0.0,0.0,0.0,0.0,0.0
848580000,848500000,0.1016037,0.101253435,0.21654913,1.0752783,1.0752687,0.0,0.0,0.0,0.0,0.0,0.0,0.0,0.0,12.432452,0.0,0.0,nan,0.0,0.0,0.09082687,0.00255288,0.0025530849,0.0025519552,0.0,0.0,0.0,0.0,0.0,0.0
849076000,848996000,0.10111186,0.100819185,0.21627583,1.0723853,1.0723748,0.0,0.0,0.0,0.0,0.0,0.0,0.0,0.0,12.431445,0.0,0.0,nan,0.0,0.0,0.09077437,0.00255288,0.0025530849,0.0025519552,0.0,0.0,0.0,0.0,0.0,0.0
849572000,849492000,0.102060184,0.10176676,0.21682754,1.0765657,1.0765343,0.0,0.0,0.0,0.0,0.0,0.0,0.0,0.0,12.43708,0.0,0.0,nan,0.0,0.0,0.09073094,0.00255288,0.0025530849,0.0025519552,0.0,0.0,0.0,0.0,0.0,0.0
850076000,849996000,0.10208846,0.10184008,0.21692912,1.0773757,1.0773314,0.0,0.0,0.0,0.0,0.0,0.0,0.0,0.0,12.432118,0.0,0.0,nan,0.0,0.0,0.09069034,0.00255288,0.0025530849,0.0025519552,0.0,0.0,0.0,0.0,0.0,0.0
850580000,850500000,0.101730466,0.1015157,0.21677907,1.075572,1.075532,0.0,0.0,0.0,0.0,0.0,0.0,0.0,0.0,12.4362335,0.0,0.0,nan,0.0,0.0,0.090655185,0.00255288,0.0025530849,0.0025519552,0.0,0.0,0.0,0.0,0.0,0.0
851076000,850996000,0.10183889,0.101157196,0.21665722,1.0752964,1.0752641,0.0,0.0,0.0,0.0,0.0,0.0,0.0,0.0,12.430529,0.0,0.0,nan,0.0,0.0,0.090619385,0.00255288,0.0025530849,0.0025519552,0.0,0.0,0.0,0.0,0.0,0.0
851572000,851492000,0.102455966,0.10055467,0.2162701,1.0723697,1.0723468,0.0,0.0,0.0,0.0,0.0,0.0,0.0,0.0,12.430195,0.0,0.0,nan,0.0,0.0,0.09059839,0.002971027,0.0032503516,0.0033081132,0.0,0.0,0.0,0.0,0.0,0.0
852076000,851996000,0.10506438,0.1014101,0.21667832,1.0765567,1.0764118,0.0,0.0,0.0,0.0,0.0,0.0,0.0,0.0,12.434082,0.0,0.0,nan,0.0,0.0,0.09059839,0.002702295,0.0027414383,0.0027463394,0.0,0.0,0.0,0.0,0.0,0.0
852580000,852500000,0.10596355,0.10225159,0.2168352,1.0795746,1.0791829,0.0,0.0,0.0,0.0,0.0,0.0,0.0,0.0,12.434857,0.0,0.0,nan,0.0,0.0,0.09059839,0.002626875,0.0026444006,0.0026477503,0.0,0.0,0.0,0.0,0.0,0.0
853076000,852996000,0.10332529,0.101521656,0.21643972,1.0754377,1.0750941,0.0,0.0,0.0,0.0,0.0,0.0,0.0,0.0,12.434185,0.0,0.0,nan,0.0,0.0,0.09059839,0.0025997527,0.0026078029,0.0026078862,0.0,0.0,0.0,0.0,0.0,0.0
853580000,853500000,0.10215173,0.102021664,0.21678765,1.0773921,1.076856,0.0,0.0,0.0,0.0,0.0,0.0,0.0,0.0,12.432909,0.0,0.0,nan,0.0,0.0,0.09059839,0.0025787547,0.002582923,0.0025828253,0.0,0.0,0.0,0.0,0.0,0.0
854076000,853996000,0.10096894,0.101172976,0.21653214,1.0726565,1.0722399,0.0,0.0,0.0,0.0,0.0,0.0,0.0,0.0,12.426027,0.0,0.0,nan,0.0,0.0,0.09059839,0.002568636,0.0025678854,0.0025673038,0.0,0.0,0.0,0.0,0.0,0.0
854580000,854500000,0.102005854,0.10207784,0.2170962,1.076764,1.0764177,0.0,0.0,0.0,0.0,0.0,0.0,0.0,0.0,12.432348,0.0,0.0,nan,0.0,0.0,0.09059839,0.0025619613,0.0025570346,0.002556812,0.0,0.0,0.0,0.0,0.0,0.0
855076000,854996000,0.10291676,0.102527924,0.21760172,1.0795304,1.0793356,0.0,0.0,0.0,0.0,0.0,0.0,0.0,0.0,12.430723,0.0,0.0,nan,0.0,0.0,0.09059839,0.0025547505,0.0025490152,0.0025493107,0.0,0.0,0.0,0.0,0.0,0.0
855572000,855492000,0.10224277,0.10168048,0.21721461,1.0756478,1.0755113,0.0,0.0,0.0,0.0,0.0,0.0,0.0,0.0,12.430353,0.0,0.0,nan,0.0,0.0,0.090465985,0.0025528916,0.0025471507,0.0025475505,0.0,0.0,0.0,0.0,0.0,0.0
856076000,855996000,0.11023605,0.10527712,0.21681103,1.0769854,1.0768411,0.0,0.0,0.0,0.0,0.0,0.0,0.0,0.0,12.431387,0.0,0.0,nan,0.0,0.0,0.09045187,0.002870189,0.0031591184,0.003095359,0.0,0.0,0.0,0.0,0.0,0.0
856580000,856500000,0.116875365,0.10420287,0.21582559,1.0737883,1.0736282,0.0,0.0,0.0,0.0,0.0,0.0,0.0,0.0,12.430641,0.0,0.0,nan,0.0,0.0,0.09045187,0.0026604277,0.0027311414,0.002727311,0.0,0.0,0.0,0.0,0.0,0.0
857076000,856996000,0.11469522,0.1055557,0.2148965,1.0767641,1.0766988,0.0,0.0,0.0,0.0,0.0,0.0,0.0,0.0,12.430317,0.0,0.0,nan,0.0,0.0,0.09045187,0.0026057735,0.0026400208,0.0026415996,0.0,0.0,0.0,0.0,0.0,0.0
857580000,857500000,0.11100039,0.10653891,0.21452747,1.0828424,1.0823469,0.0,0.0,0.0,0.0,0.0,0.0,0.0,0.0,12.432802,0.0,0.0,nan,0.0,0.0,0.09045187,0.0025800786,0.0026014717,0.002616363,0.0,0.0,0.0,0.0,0.0,0.0
858076000,857996000,0.10410479,0.10355291,0.21338305,1.0764409,1.0759526,0.0,0.0,0.0,0.0,0.0,0.0,0.0,0.0,12.431015,0.0,0.0,nan,0.0,0.0,0.09045187,0.0025711383,0.0025799084,0.0025895867,0.0,0.0,0.0,0.0,0.0,0.0
858572000,858492000,0.10587353,0.10454865,0.21364284,1.0799923,1.0795164,0.0,0.0,0.0,0.0,0.0,0.0,0.0,0.0,12.429358,0.0,0.0,nan,0.0,0.0,0.09045187,0.0025632763,0.0025671623,0.002574049,0.0,0.0,0.0,0.0,0.0,0.0
859076000,858996000,0.10562706,0.1033038,0.2137206,1.0743784,1.0740322,0.0,0.0,0.0,0.0,0.0,0.0,0.0,0.0,12.424203,0.0,0.0,nan,0.0,0.0,0.09045187,0.002563167,0.002556618,0.0025627473,0.0,0.0,0.0,0.0,0.0,0.0
859572000,859492000,0.10517573,0.10250345,0.21318297,1.0729564,1.072651,0.0,0.0,0.0,0.0,0.0,0.0,0.0,0.0,12.426762,0.0,0.0,nan,0.0,0.0,0.09045187,0.0025694817,0.0025490571,0.0025555668,0.0,0.0,0.0,0.0,0.0,0.0
860076000,859996000,0.10812695,0.10465142,0.21281773,1.0822345,1.0820209,0.0,0.0,0.0,0.0,0.0,0.0,0.0,0.0,12.425236,0.0,0.0,nan,0.0,0.0,0.09045187,0.002548702,0.0025429411,0.0025469905,0.0,0.0,0.0,0.0,0.0,0.0
860572000,860492000,0.10539411,0.103654854,0.21250325,1.0779076,1.0777385,0.0,0.0,0.0,0.0,0.0,0.0,0.0,0.0,12.42375,0.0,0.0,nan,0.0,0.0,0.09045187,0.0025392943,0.0025385877,0.0025413206,0.0,0.0,0.0,0.0,0.0,0.0
861076000,860996000,0.10521733,0.10450196,0.21282876,1.0797402,1.0795157,0.0,0.0,0.0,0.0,0.0,0.0,0.0,0.0,12.423188,0.0,0.0,nan,0.0,0.0,0.09045187,0.002534537,0.002535132,0.002536954,0.0,0.0,0.0,0.0,0.0,0.0
861572000,861492000,0.10391597,0.10359979,0.21295126,1.0758135,1.075629,0.0,0.0,0.0,0.0,0.0,0.0,0.0,0.0,12.420776,0.0,0.0,nan,0.0,0.0,0.09045187,0.002531337,0.002532275,0.002533286,0.0,0.0,0.0,0.0,0.0,0.0
862076000,861996000,0.10317506,0.102987066,0.21320844,1.0728204,1.0726641,0.0,0.0,0.0,0.0,0.0,0.0,0.0,0.0,12.420433,0.0,0.0,nan,0.0,0.0,0.09045187,0.0025291266,0.0025298758,0.0025303909,0.0,0.0,0.0,0.0,0.0,0.0
862580000,862500000,0.1043971,0.10419423,0.21393245,1.07711,1.0769416,0.0,0.0,0.0,0.0,0.0,0.0,0.0,0.0,12.422929,0.0,0.0,nan,0.0,0.0,0.09045187,0.0025273087,0.0025279329,0.0025279731,0.0,0.0,0.0,0.0,0.0,0.0
863076000,862996000,0.10402325,0.10381301,0.21502274,1.0776585,1.0775285,0.0,0.0,0.0,0.0,0.0,0.0,0.0,0.0,12.419311,0.0,0.0,nan,0.0,0.0,0.09025602,0.0025263578,0.0025268877,0.002526788,0.0,0.0,0.0,0.0,0.0,0.0
863580000,863500000,0.103518724,0.103315964,0.21520579,1.0760995,1.0759857,0.0,0.0,0.0,0.0,0.0,0.0,0.0,0.0,12.423109,0.0,0.0,nan,0.0,0.0,0.09025594,0.0025263578,0.0025268877,0.002526788,0.0,0.0,0.0,0.0,0.0,0.0
864076000,863996000,0.10303118,0.10282879,0.21598758,1.0758001,1.0757192,0.0,0.0,0.0,0.0,0.0,0.0,0.0,0.0,12.418488,0.0,0.0,nan,0.0,0.0,0.09025566,0.0025263578,0.0025268877,0.002526788,0.0,0.0,0.0,0.0,0.0,0.0
864572000,864492000,0.10218926,0.102004945,0.21607052,1.0728059,1.0727438,0.0,0.0,0.0,0.0,0.0,0.0,0.0,0.0,12.419098,0.0,0.0,nan,0.0,0.0,0.09025571,0.0025263578,0.0025268877,0.002526788,0.0,0.0,0.0,0.0,0.0,0.0
865076000,864996000,0.10308797,0.102877095,0.21686777,1.07709,1.0770293,0.0,0.0,0.0,0.0,0.0,0.0,0.0,0.0,12.423687,0.0,0.0,nan,0.0,0.0,0.09025616,0.0025263578,0.0025268877,0.002526788,0.0,0.0,0.0,0.0,0.0,0.0
865580000,865500000,0.10330246,0.103087,0.21752255,1.0800148,1.0799582,0.0,0.0,0.0,0.0,0.0,0.0,0.0,0.0,12.424895,0.0,0.0,nan,0.0,0.0,0.09025652,0.0025263578,0.0025268877,0.002526788,0.0,0.0,0.0,0.0,0.0,0.0
866076000,865996000,0.10219213,0.10200852,0.21726091,1.0760076,1.0759647,0.0,0.0,0.0,0.0,0.0,0.0,0.0,0.0,12.425737,0.0,0.0,nan,0.0,0.0,0.0902568,0.0025263578,0.0025268877,0.002526788,0.0,0.0,0.0,0.0,0.0,0.0
866580000,866500000,0.10229879,0.10212423,0.21766467,1.0774939,1.0774521,0.0,0.0,0.0,0.0,0.0,0.0,0.0,0.0,12.426483,0.0,0.0,nan,0.0,0.0,0.090257555,0.0025263578,0.0025268877,0.002526788,0.0,0.0,0.0,0.0,0.0,0.0
867076000,866996000,0.10123715,0.10110084,0.21715447,1.0726986,1.0726682,0.0,0.0,0.0,0.0,0.0,0.0,0.0,0.0,12.422361,0.0,0.0,nan,0.0,0.0,0.09025783,0.0025263578,0.0025268877,0.002526788,0.0,0.0,0.0,0.0,0.0,0.0
867572000,867492000,0.10211781,0.10197777,0.21767184,1.0768974,1.0768578,0.0,0.0,0.0,0.0,0.0,0.0,0.0,0.0,12.427605,0.0,0.0,nan,0.0,0.0,0.09025883,0.0025263578,0.0025268877,0.002526788,0.0,0.0,0.0,0.0,0.0,0.0
868076000,867996000,0.10249964,0.10237427,0.21807545,1.0797534,1.0797081,0.0,0.0,0.0,0.0,0.0,0.0,0.0,0.0,12.427401,0.0,0.0,nan,0.0,0.0,0.09025976,0.0025263578,0.0025268877,0.002526788,0.0,0.0,0.0,0.0,0.0,0.0
868580000,868500000,0.10157119,0.10147238,0.21746212,1.0755396,1.075505,0.0,0.0,0.0,0.0,0.0,0.0,0.0,0.0,12.4269705,0.0,0.0,nan,0.0,0.0,0.09026091,0.0025263578,0.0025268877,0.002526788,0.0,0.0,0.0,0.0,0.0,0.0
869076000,868996000,0.10190192,0.101814486,0.217745,1.077284,1.0772463,0.0,0.0,0.0,0.0,0.0,0.0,0.0,0.0,12.428449,0.0,0.0,nan,0.0,0.0,0.090262376,0.0025263578,0.0025268877,0.002526788,0.0,0.0,0.0,0.0,0.0,0.0
869580000,869500000,0.101259686,0.101188175,0.21731646,1.0739224,1.073892,0.0,0.0,0.0,0.0,0.0,0.0,0.0,0.0,12.428793,0.0,0.0,nan,0.0,0.0,0.09026398,0.0025263578,0.0025268877,0.002526788,0.0,0.0,0.0,0.0,0.0,0.0
870076000,869996000,0.10196776,0.101895876,0.21763974,1.0767,1.0766646,0.0,0.0,0.0,0.0,0.0,0.0,0.0,0.0,12.429005,0.0,0.0,nan,0.0,0.0,0.090265706,0.0025263578,0.0025268877,0.002526788,0.0,0.0,0.0,0.0,0.0,0.0
870572000,870492000,0.102959216,0.10288242,0.21816947,1.0816915,1.0816472,0.0,0.0,0.0,0.0,0.0,0.0,0.0,0.0,12.434484,0.0,0.0,nan,0.0,0.0,0.09026748,0.0025263578,0.0025268877,0.002526788,0.0,0.0,0.0,0.0,0.0,0.0
871076000,870996000,0.10157527,0.101515174,0.217433,1.0754331,1.0754045,0.0,0.0,0.0,0.0,0.0,0.0,0.0,0.0,12.429083,0.0,0.0,nan,0.0,0.0,0.09026905,0.0025263578,0.0025268877,0.002526788,0.0,0.0,0.0,0.0,0.0,0.0
871572000,871492000,0.10237898,0.10231318,0.21789424,1.0792408,1.0792062,0.0,0.0,0.0,0.0,0.0,0.0,0.0,0.0,12.43436,0.0,0.0,nan,0.0,0.0,0.09027056,0.0025263578,0.0025268877,0.002526788,0.0,0.0,0.0,0.0,0.0,0.0
872076000,871996000,0.10129962,0.1012476,0.2171633,1.0738518,1.073828,0.0,0.0,0.0,0.0,0.0,0.0,0.0,0.0,12.429019,0.0,0.0,nan,0.0,0.0,0.0902726,0.0025263578,0.0025268877,0.002526788,0.0,0.0,0.0,0.0,0.0,0.0
872572000,872492000,0.10106872,0.101019494,0.217037,1.0724769,1.0724552,0.0,0.0,0.0,0.0,0.0,0.0,0.0,0.0,12.434362,0.0,0.0,nan,0.0,0.0,0.09027458,0.0025263578,0.0025268877,0.002526788,0.0,0.0,0.0,0.0,0.0,0.0
873076000,872996000,0.103033766,0.102977,0.21818157,1.0819614,1.0819257,0.0,0.0,0.0,0.0,0.0,0.0,0.0,0.0,12.435379,0.0,0.0,nan,0.0,0.0,0.09027636,0.0025263578,0.0025268877,0.002526788,0.0,0.0,0.0,0.0,0.0,0.0
873572000,873492000,0.10197694,0.101933256,0.21764074,1.0774716,1.0774455,0.0,0.0,0.0,0.0,0.0,0.0,0.0,0.0,12.434651,0.0,0.0,nan,0.0,0.0,0.09027844,0.0025263578,0.0025268877,0.002526788,0.0,0.0,0.0,0.0,0.0,0.0
874076000,873996000,0.102327526,0.10228819,0.21778026,1.0791849,1.0791577,0.0,0.0,0.0,0.0,0.0,0.0,0.0,0.0,12.433937,0.0,0.0,nan,0.0,0.0,0.09028073,0.0025263578,0.0025268877,0.002526788,0.0,0.0,0.0,0.0,0.0,0.0
874580000,874500000,0.10150856,0.101478934,0.21731372,1.0753711,1.07535,0.0,0.0,0.0,0.0,0.0,0.0,0.0,0.0,12.434307,0.0,0.0,nan,0.0,0.0,0.09028277,0.0025263578,0.0025268877,0.002526788,0.0,0.0,0.0,0.0,0.0,0.0
875076000,874996000,0.10101117,0.10098682,0.21695192,1.0724452,1.0724281,0.0,0.0,0.0,0.0,0.0,0.0,0.0,0.0,12.433802,0.0,0.0,nan,0.0,0.0,0.090284675,0.0025263578,0.0025268877,0.002526788,0.0,0.0,0.0,0.0,0.0,0.0
875580000,875500000,0.101943545,0.10192001,0.21750613,1.076629,1.076608,0.0,0.0,0.0,0.0,0.0,0.0,0.0,0.0,12.438935,0.0,0.0,nan,0.0,0.0,0.09028666,0.0025263578,0.0025268877,0.002526788,0.0,0.0,0.0,0.0,0.0,0.0
876076000,875996000,0.101937935,0.102140486,0.21745923,1.0771812,1.0771638,0.0,0.0,0.0,0.0,0.0,0.0,0.0,0.0,12.432582,0.0,0.0,nan,0.0,0.0,0.09028721,0.0025263578,0.0025268877,0.002526788,0.0,0.0,0.0,0.0,0.0,0.0
876572000,876492000,0.101637416,0.101955324,0.2173028,1.0756673,1.0756522,0.0,0.0,0.0,0.0,0.0,0.0,0.0,0.0,12.437577,0.0,0.0,nan,0.0,0.0,0.09028687,0.0025894274,0.0027609703,0.002728524,0.0,0.0,0.0,0.0,0.0,0.0
877076000,876996000,0.10152793,0.1019215,0.21714236,1.0753621,1.0753442,0.0,0.0,0.0,0.0,0.0,0.0,0.0,0.0,12.431056,0.0,0.0,nan,0.0,0.0,0.09028687,0.0025706403,0.0026500185,0.0026392518,0.0,0.0,0.0,0.0,0.0,0.0
877580000,877500000,0.10101553,0.10120207,0.21674936,1.0724361,1.0724227,0.0,0.0,0.0,0.0,0.0,0.0,0.0,0.0,12.431964,0.0,0.0,nan,0.0,0.0,0.09028687,0.0025589073,0.0026057684,0.0026001653,0.0,0.0,0.0,0.0,0.0,0.0
878076000,877996000,0.10198047,0.10199199,0.2172175,1.0768862,1.0768822,0.0,0.0,0.0,0.0,0.0,0.0,0.0,0.0,12.436219,0.0,0.0,nan,0.0,0.0,0.09028687,0.0025518443,0.0025845158,0.0025808285,0.0,0.0,0.0,0.0,0.0,0.0
878580000,878500000,0.10235372,0.10214923,0.21751006,1.0794672,1.0794699,0.0,0.0,0.0,0.0,0.0,0.0,0.0,0.0,12.435235,0.0,0.0,nan,0.0,0.0,0.09028687,0.0025454275,0.0025686193,0.002566028,0.0,0.0,0.0,0.0,0.0,0.0
879076000,878996000,0.10147628,0.101237476,0.21706969,1.0755851,1.0755942,0.0,0.0,0.0,0.0,0.0,0.0,0.0,0.0,12.433999,0.0,0.0,nan,0.0,0.0,0.09028687,0.0025406636,0.002560819,0.002558312,0.0,0.0,0.0,0.0,0.0,0.0
879580000,879500000,0.10165594,0.10180207,0.21725164,1.0770718,1.0770621,0.0,0.0,0.0,0.0,0.0,0.0,0.0,0.0,12.434274,0.0,0.0,nan,0.0,0.0,0.09028687,0.0025368328,0.0025554744,0.0025539426,0.0,0.0,0.0,0.0,0.0,0.0
880076000,879996000,0.100529045,0.10109461,0.21669759,1.0724013,1.0723729,0.0,0.0,0.0,0.0,0.0,0.0,0.0,0.0,12.4322405,0.0,0.0,nan,0.0,0.0,0.09030147,0.0025337902,0.0025483044,0.0025465614,0.0,0.0,0.0,0.0,0.0,0.0
880572000,880492000,0.10127143,0.10239889,0.21722706,1.0765086,1.0764174,0.0,0.0,0.0,0.0,0.0,0.0,0.0,0.0,12.433462,0.0,0.0,nan,0.0,0.0,0.09030268,0.002563999,0.0026751528,0.002651948,0.0,0.0,0.0,0.0,0.0,0.0
881076000,880996000,0.10183133,0.10316562,0.2175528,1.0792582,1.0791601,0.0,0.0,0.0,0.0,0.0,0.0,0.0,0.0,12.432663,0.0,0.0,nan,0.0,0.0,0.09030268,0.0025534169,0.002617152,0.0026066413,0.0,0.0,0.0,0.0,0.0,0.0
881580000,881500000,0.10117482,0.10193237,0.21711567,1.0753987,1.0753192,0.0,0.0,0.0,0.0,0.0,0.0,0.0,0.0,12.433077,0.0,0.0,nan,0.0,0.0,0.09030268,0.002546135,0.002588204,0.0025821438,0.0,0.0,0.0,0.0,0.0,0.0
882076000,881996000,0.10153825,0.10188817,0.21727502,1.0768638,1.0768045,0.0,0.0,0.0,0.0,0.0,0.0,0.0,0.0,12.431878,0.0,0.0,nan,0.0,0.0,0.09030268,0.0025413558,0.002572926,0.0025686899,0.0,0.0,0.0,0.0,0.0,0.0
882572000,882492000,0.10096731,0.101048164,0.21691766,1.0735843,1.0735352,0.0,0.0,0.0,0.0,0.0,0.0,0.0,0.0,12.431401,0.0,0.0,nan,0.0,0.0,0.09030268,0.0025371136,0.0025607988,0.002557744,0.0,0.0,0.0,0.0,0.0,0.0
883076000,882996000,0.101668276,0.10156046,0.21730408,1.0763724,1.0763167,0.0,0.0,0.0,0.0,0.0,0.0,0.0,0.0,12.431438,0.0,0.0,nan,0.0,0.0,0.09030268,0.0025338011,0.0025522541,0.0025498448,0.0,0.0,0.0,0.0,0.0,0.0
883572000,883492000,0.10268684,0.102523744,0.21802473,1.081638,1.0815504,0.0,0.0,0.0,0.0,0.0,0.0,0.0,0.0,12.435266,0.0,0.0,nan,0.0,0.0,0.09030268,0.002531202,0.0025458802,0.0025438534,0.0,0.0,0.0,0.0,0.0,0.0
884076000,883996000,0.10136337,0.10126336,0.21728317,1.0754427,1.0753769,0.0,0.0,0.0,0.0,0.0,0.0,0.0,0.0,12.430671,0.0,0.0,nan,0.0,0.0,0.090308085,0.0025298165,0.0025428827,0.0025410186,0.0,0.0,0.0,0.0,0.0,0.0
884580000,884500000,0.10207948,0.10200398,0.2177233,1.0789603,1.0788693,0.0,0.0,0.0,0.0,0.0,0.0,0.0,0.0,12.434559,0.0,0.0,nan,0.0,0.0,0.09030963,0.0025298165,0.0025428827,0.0025410186,0.0,0.0,0.0,0.0,0.0,0.0
885076000,884996000,0.10105802,0.10104327,0.21706529,1.073662,1.0735962,0.0,0.0,0.0,0.0,0.0,0.0,0.0,0.0,12.429211,0.0,0.0,nan,0.0,0.0,0.090310745,0.0025298165,0.0025428827,0.0025410186,0.0,0.0,0.0,0.0,0.0,0.0
885572000,885492000,0.100842714,0.1008419,0.21695465,1.0723081,1.0722466,0.0,0.0,0.0,0.0,0.0,0.0,0.0,0.0,12.43439,0.0,0.0,nan,0.0,0.0,0.09031211,0.0025298165,0.0025428827,0.0025410186,0.0,0.0,0.0,0.0,0.0,0.0
886076000,885996000,0.10275889,0.102794446,0.21813862,1.0817807,1.0816836,0.0,0.0,0.0,0.0,0.0,0.0,0.0,0.0,12.434321,0.0,0.0,nan,0.0,0.0,0.09031318,0.0025298165,0.0025428827,0.0025410186,0.0,0.0,0.0,0.0,0.0,0.0
886580000,886500000,0.101748616,0.10179678,0.21762097,1.0773373,1.0772654,0.0,0.0,0.0,0.0,0.0,0.0,0.0,0.0,12.433146,0.0,0.0,nan,0.0,0.0,0.09031437,0.0025298165,0.0025428827,0.0025410186,0.0,0.0,0.0,0.0,0.0,0.0
887076000,886996000,0.1020986,0.10216254,0.21779332,1.0790641,1.0789984,0.0,0.0,0.0,0.0,0.0,0.0,0.0,0.0,12.433196,0.0,0.0,nan,0.0,0.0,0.090315536,0.0025298165,0.0025428827,0.0025410186,0.0,0.0,0.0,0.0,0.0,0.0
887572000,887492000,0.101320356,0.10138449,0.21734495,1.0752782,1.0752283,0.0,0.0,0.0,0.0,0.0,0.0,0.0,0.0,12.432734,0.0,0.0,nan,0.0,0.0,0.09031642,0.0025298165,0.0025428827,0.0025410186,0.0,0.0,0.0,0.0,0.0,0.0
888076000,887996000,0.10081938,0.10088265,0.21699476,1.0723724,1.0723336,0.0,0.0,0.0,0.0,0.0,0.0,0.0,0.0,12.433028,0.0,0.0,nan,0.0,0.0,0.09031746,0.0025298165,0.0025428827,0.0025410186,0.0,0.0,0.0,0.0,0.0,0.0
888580000,888500000,0.10171538,0.10178786,0.21746662,1.076543,1.0765067,0.0,0.0,0.0,0.0,0.0,0.0,0.0,0.0,12.438423,0.0,0.0,nan,0.0,0.0,0.09031907,0.0025298165,0.0025428827,0.0025410186,0.0,0.0,0.0,0.0,0.0,0.0
889076000,888996000,0.1016995,0.10177387,0.21754874,1.0773766,1.0773544,0.0,0.0,0.0,0.0,0.0,0.0,0.0,0.0,12.4313135,0.0,0.0,nan,0.0,0.0,0.09031963,0.0025298165,0.0025428827,0.0025410186,0.0,0.0,0.0,0.0,0.0,0.0
889572000,889492000,0.10128777,0.101357,0.21733801,1.0753106,1.0752915,0.0,0.0,0.0,0.0,0.0,0.0,0.0,0.0,12.435618,0.0,0.0,nan,0.0,0.0,0.09032093,0.0025298165,0.0025428827,0.0025410186,0.0,0.0,0.0,0.0,0.0,0.0
890076000,889996000,0.101259336,0.10131959,0.2172868,1.0753171,1.0753089,0.0,0.0,0.0,0.0,0.0,0.0,0.0,0.0,12.429618,0.0,0.0,nan,0.0,0.0,0.0903219,0.0025298165,0.0025428827,0.0025410186,0.0,0.0,0.0,0.0,0.0,0.0
890572000,890492000,0.1007671,0.10081822,0.21694264,1.0724002,1.0723952,0.0,0.0,0.0,0.0,0.0,0.0,0.0,0.0,12.429487,0.0,0.0,nan,0.0,0.0,0.09032292,0.0025298165,0.0025428827,0.0025410186,0.0,0.0,0.0,0.0,0.0,0.0
891076000,890996000,0.10164897,0.101702265,0.2175071,1.0765586,1.076561,0.0,0.0,0.0,0.0,0.0,0.0,0.0,0.0,12.436373,0.0,0.0,nan,0.0,0.0,0.09032402,0.0025298165,0.0025428827,0.0025410186,0.0,0.0,0.0,0.0,0.0,0.0
891580000,891500000,0.10208089,0.10212782,0.21787249,1.0794238,1.0794333,0.0,0.0,0.0,0.0,0.0,0.0,0.0,0.0,12.435558,0.0,0.0,nan,0.0,0.0,0.090325154,0.0025298165,0.0025428827,0.0025410186,0.0,0.0,0.0,0.0,0.0,0.0
892076000,891996000,0.10129284,0.10132998,0.21739872,1.0755485,1.075556,0.0,0.0,0.0,0.0,0.0,0.0,0.0,0.0,12.434948,0.0,0.0,nan,0.0,0.0,0.09032634,0.0025298165,0.0025428827,0.0025410186,0.0,0.0,0.0,0.0,0.0,0.0
892580000,892500000,0.10158296,0.101614885,0.2175243,1.0770296,1.0770409,0.0,0.0,0.0,0.0,0.0,0.0,0.0,0.0,12.434759,0.0,0.0,nan,0.0,0.0,0.09032734,0.0025298165,0.0025428827,0.0025410186,0.0,0.0,0.0,0.0,0.0,0.0
893076000,892996000,0.10075899,0.10078138,0.2170011,1.0723612,1.0723703,0.0,0.0,0.0,0.0,0.0,0.0,0.0,0.0,12.427904,0.0,0.0,nan,0.0,0.0,0.09032833,0.0025298165,0.0025428827,0.0025410186,0.0,0.0,0.0,0.0,0.0,0.0
893572000,893492000,0.101641186,0.10166314,0.21747006,1.0765162,1.0765291,0.0,0.0,0.0,0.0,0.0,0.0,0.0,0.0,12.434429,0.0,0.0,nan,0.0,0.0,0.090329334,0.0025298165,0.0025428827,0.0025410186,0.0,0.0,0.0,0.0,0.0,0.0
894076000,893996000,0.10202329,0.10204277,0.21779424,1.079103,1.0791174,0.0,0.0,0.0,0.0,0.0,0.0,0.0,0.0,12.432575,0.0,0.0,nan,0.0,0.0,0.09033057,0.0025298165,0.0025428827,0.0025410186,0.0,0.0,0.0,0.0,0.0,0.0
894572000,894492000,0.10129687,0.101311885,0.217379,1.0755433,1.0755546,0.0,0.0,0.0,0.0,0.0,0.0,0.0,0.0,12.432009,0.0,0.0,nan,0.0,0.0,0.09033164,0.0025298165,0.0025428827,0.0025410186,0.0,0.0,0.0,0.0,0.0,0.0
895076000,894996000,0.10157661,0.1015897,0.21750937,1.0770259,1.0770373,0.0,0.0,0.0,0.0,0.0,0.0,0.0,0.0,12.432875,0.0,0.0,nan,0.0,0.0,0.09033266,0.0025298165,0.0025428827,0.0025410186,0.0,0.0,0.0,0.0,0.0,0.0
895572000,895492000,0.10097282,0.100983545,0.2171071,1.0737203,1.0737294,0.0,0.0,0.0,0.0,0.0,0.0,0.0,0.0,12.431313,0.0,0.0,nan,0.0,0.0,0.090333834,0.0025298165,0.0025428827,0.0025410186,0.0,0.0,0.0,0.0,0.0,0.0
896076000,895996000,0.10164231,0.10165239,0.2175535,1.0765146,1.0765244,0.0,0.0,0.0,0.0,0.0,0.0,0.0,0.0,12.432434,0.0,0.0,nan,0.0,0.0,0.090334825,0.0025298165,0.0025428827,0.0025410186,0.0,0.0,0.0,0.0,0.0,0.0
896580000,896500000,0.103253946,0.103272006,0.2164791,1.0818406,1.0818523,0.0,0.0,0.0,0.0,0.0,0.0,0.0,0.0,12.437002,0.0,0.0,nan,0.0,0.0,0.09033571,0.0025298165,0.0025428827,0.0025410186,0.0,0.0,0.0,0.0,0.0,0.0
897076000,896996000,0.10228149,0.10229933,0.2139576,1.0755848,1.0755917,0.0,0.0,0.0,0.0,0.0,0.0,0.0,0.0,12.435407,0.0,0.0,nan,0.0,0.0,0.09033655,0.0025298165,0.0025428827,0.0025410186,0.0,0.0,0.0,0.0,0.0,0.0
897580000,897500000,0.10359276,0.103612944,0.21357787,1.0791347,1.0791441,0.0,0.0,0.0,0.0,0.0,0.0,0.0,0.0,12.434246,0.0,0.0,nan,0.0,0.0,0.09033721,0.0025298165,0.0025428827,0.0025410186,0.0,0.0,0.0,0.0,0.0,0.0
898076000,897996000,0.10302511,0.1030399,0.21284197,1.0737888,1.0737953,0.0,0.0,0.0,0.0,0.0,0.0,0.0,0.0,12.427922,0.0,0.0,nan,0.0,0.0,0.09033795,0.0025298165,0.0025428827,0.0025410186,0.0,0.0,0.0,0.0,0.0,0.0
898580000,898500000,0.102918044,0.102931336,0.2127172,1.0724262,1.0724323,0.0,0.0,0.0,0.0,0.0,0.0,0.0,0.0,12.351636,0.0,0.0,nan,0.0,0.0,0.090338424,0.0025298165,0.0025428827,0.0025410186,0.0,0.0,0.0,0.0,0.0,0.0
899076000,898996000,0.09000891,0.09000891,0.20250891,1.0440367,1.0440328,0.0,0.0,0.0,0.0,0.0,0.0,0.0,0.0,12.342804,0.0,0.0,nan,0.0,0.0,0.09033909,0.0025298165,0.0025428827,0.0025410186,0.0,0.0,0.0,0.0,0.0,0.0
899580000,899500000,0.090009175,0.09000918,0.2025092,1.0401719,1.0401685,0.0,0.0,0.0,0.0,0.0,0.0,0.0,0.0,12.336588,0.0,0.0,nan,0.0,0.0,0.09033974,0.0025298165,0.0025428827,0.0025410186,0.0,0.0,0.0,0.0,0.0,0.0
900076000,899996000,0.09019811,0.09019811,0.20269684,1.0371875,1.0371846,0.0,0.0,0.0,0.0,0.0,0.0,0.0,0.0,12.331948,0.0,0.0,nan,0.0,0.0,0.09034026,0.0025298165,0.0025428827,0.0025410186,0.0,0.0,0.0,0.0,0.0,0.0
