timestamp,timestamp_sample,gps_hvel[0],gps_hvel[1],gps_vvel,gps_hpos[0],gps_hpos[1],gps_vpos,ev_hvel[0],ev_hvel[1],ev_vvel,ev_hpos[0],ev_hpos[1],ev_vpos,rng_vpos,baro_vpos,aux_hvel[0],aux_hvel[1],aux_vvel,flow[0],flow[1],heading,mag_field[0],mag_field[1],mag_field[2],drag[0],drag[1],airspeed,beta,hagl,hagl_rate
829592000,829512000,1.6556725e-06,0.0,3.6505671e-06,9.82977e-07,0.0,0.0,0.0,0.0,0.0,0.0,0.0,0.0,0.0,3.0553767e-06,0.0,0.0,nan,0.0,0.0,0.000116495685,0.0,0.0,0.0,0.0,0.0,0.0,0.0,0.0,0.0
830088000,830008000,5.8051166e-05,0.0,6.751103e-09,1.9114523e-06,0.0,0.0,0.0,0.0,0.0,0.0,0.0,0.0,0.0,4.073223e-06,0.0,0.0,nan,0.0,0.0,5.3788463e-05,0.0,0.0,0.0,0.0,0.0,0.0,0.0,0.0,0.0
830592000,830512000,0.00023029113,0.0,3.091042e-05,1.9787042e-06,0.0,0.0,0.0,0.0,0.0,0.0,0.0,0.0,0.0,6.121549e-06,0.0,0.0,nan,0.0,0.0,0.00012153177,0.0,0.0,0.0,0.0,0.0,0.0,0.0,0.0,0.0
831096000,831016000,2.2552251e-06,0.0,1.9372912e-05,1.5981507e-06,0.0,0.0,0.0,0.0,0.0,0.0,0.0,0.0,0.0,1.300326e-06,0.0,0.0,nan,0.0,0.0,3.430447e-05,0.0,0.0,0.0,0.0,0.0,0.0,0.0,0.0,0.0
831592000,831512000,1.1336111e-06,0.0,1.8695471e-05,1.5404961e-06,0.0,0.0,0.0,0.0,0.0,0.0,0.0,0.0,0.0,1.3343356e-07,0.0,0.0,nan,0.0,0.0,7.439685e-06,0.0,0.0,0.0,0.0,0.0,0.0,0.0,0.0,0.0
832096000,832016000,1.0804919e-06,0.0,0.00017441087,1.5208738e-06,0.0,0.0,0.0,0.0,0.0,0.0,0.0,0.0,0.0,7.753666e-06,0.0,0.0,nan,0.0,0.0,0.00024870856,0.0,0.0,0.0,0.0,0.0,0.0,0.0,0.0,0.0
832592000,832512000,5.355245e-05,0.0,2.6614554e-05,1.4928601e-06,0.0,0.0,0.0,0.0,0.0,0.0,0.0,0.0,0.0,1.8323162e-07,0.0,0.0,nan,0.0,0.0,7.929542e-05,0.0,0.0,0.0,0.0,0.0,0.0,0.0,0.0,0.0
833096000,833016000,5.4565964e-05,0.0,2.2263854e-05,1.3577496e-06,0.0,0.0,0.0,0.0,0.0,0.0,0.0,0.0,0.0,5.6520767e-06,0.0,0.0,nan,0.0,0.0,0.00022507171,0.0,0.0,0.0,0.0,0.0,0.0,0.0,0.0,0.0
833592000,833512000,1.190263e-06,0.0,8.43851e-05,1.4341938e-06,0.0,0.0,0.0,0.0,0.0,0.0,0.0,0.0,0.0,2.2451071e-05,0.0,0.0,nan,0.0,0.0,0.00019389788,0.0,0.0,0.0,0.0,0.0,0.0,0.0,0.0,0.0
834088000,834008000,7.3454445e-05,0.0,0.00011240063,1.5181242e-06,0.0,0.0,0.0,0.0,0.0,0.0,0.0,0.0,0.0,1.6082515e-07,0.0,0.0,nan,0.0,0.0,6.07278e-05,0.0,0.0,0.0,0.0,0.0,0.0,0.0,0.0,0.0
834592000,834512000,5.234766e-07,0.0,0.000100862155,1.4433276e-06,0.0,0.0,0.0,0.0,0.0,0.0,0.0,0.0,0.0,1.165531e-05,0.0,0.0,nan,0.0,0.0,7.403853e-05,0.0,0.0,0.0,0.0,0.0,0.0,0.0,0.0,0.0
835096000,835016000,0.00017818967,0.0,6.916918e-05,1.1530882e-06,0.0,0.0,0.0,0.0,0.0,0.0,0.0,0.0,0.0,2.294119e-05,0.0,0.0,nan,0.0,0.0,0.0010988647,0.0,0.0,0.0,0.0,0.0,0.0,0.0,0.0,0.0
835592000,835512000,0.00021303534,0.0,4.1184935e-06,1.4356496e-06,0.0,0.0,0.0,0.0,0.0,0.0,0.0,0.0,0.0,4.6122614e-07,0.0,0.0,nan,0.0,0.0,0.00052591786,0.0,0.0,0.0,0.0,0.0,0.0,0.0,0.0,0.0
836088000,836008000,8.6707405e-06,0.0,8.443955e-05,1.7160626e-06,0.0,0.0,0.0,0.0,0.0,0.0,0.0,0.0,0.0,6.2966974e-05,0.0,0.0,nan,0.0,0.0,0.00034484145,0.0,0.0,0.0,0.0,0.0,0.0,0.0,0.0,0.0
836592000,836512000,0.00018006687,0.0,0.0003211765,1.0577985e-06,0.0,0.0,0.0,0.0,0.0,0.0,0.0,0.0,0.0,1.1148982e-05,0.0,0.0,nan,0.0,0.0,0.0005454287,0.0,0.0,0.0,0.0,0.0,0.0,0.0,0.0,0.0
837088000,837008000,1.1513021e-05,0.0,8.305607e-07,6.2763775e-07,0.0,0.0,0.0,0.0,0.0,0.0,0.0,0.0,0.0,3.0736003e-06,0.0,0.0,nan,0.0,0.0,1.8177612e-05,0.0,0.0,0.0,0.0,0.0,0.0,0.0,0.0,0.0
837592000,837512000,0.00070826523,0.0,0.0007291858,3.4630914e-06,0.0,0.0,0.0,0.0,0.0,0.0,0.0,0.0,0.0,3.581751e-06,0.0,0.0,nan,0.0,0.0,6.7689043e-06,0.0,0.0,0.0,0.0,0.0,0.0,0.0,0.0,0.0
838096000,838016000,0.0007403087,0.0,1.6244594e-05,3.472791e-05,0.0,0.0,0.0,0.0,0.0,0.0,0.0,0.0,0.0,1.6597296e-05,0.0,0.0,nan,0.0,0.0,4.119775e-05,0.0,0.0,0.0,0.0,0.0,0.0,0.0,0.0,0.0
838592000,838512000,0.00047448388,0.0,0.0012984372,4.752737e-05,0.0,0.0,0.0,0.0,0.0,0.0,0.0,0.0,0.0,7.316681e-06,0.0,0.0,nan,0.0,0.0,0.0014608366,0.0,0.0,0.0,0.0,0.0,0.0,0.0,0.0,0.0
839096000,839016000,0.00077187567,0.0,0.0005121338,8.57151e-05,0.0,0.0,0.0,0.0,0.0,0.0,0.0,0.0,0.0,1.0905212e-05,0.0,0.0,nan,0.0,0.0,0.00047304537,0.0,0.0,0.0,0.0,0.0,0.0,0.0,0.0,0.0
839592000,839512000,0.0005890592,0.0,0.00017011892,0.00018675847,0.0,0.0,0.0,0.0,0.0,0.0,0.0,0.0,0.0,1.544099e-05,0.0,0.0,nan,0.0,0.0,1.2698361e-05,0.0,0.0,0.0,0.0,0.0,0.0,0.0,0.0,0.0
840088000,840008000,0.0001931543,0.0,1.8741528e-06,0.0002100396,0.0,0.0,0.0,0.0,0.0,0.0,0.0,0.0,0.0,1.0750311e-05,0.0,0.0,nan,0.0,0.0,0.00015421874,0.0,0.0,0.0,0.0,0.0,0.0,0.0,0.0,0.0
840592000,840512000,0.00025584755,0.0,0.0010771125,0.0002559858,0.0,0.0,0.0,0.0,0.0,0.0,0.0,0.0,0.0,2.3563676e-05,0.0,0.0,nan,0.0,0.0,1.7343491e-05,0.0,0.0,0.0,0.0,0.0,0.0,0.0,0.0,0.0
841096000,841016000,0.00025278638,0.0,6.1579095e-07,0.00019951964,0.0,0.0,0.0,0.0,0.0,0.0,0.0,0.0,0.0,3.8139665e-06,0.0,0.0,nan,0.0,0.0,7.538982e-05,0.0,0.0,0.0,0.0,0.0,0.0,0.0,0.0,0.0
841592000,841512000,0.00040584637,0.0,0.00028411447,0.00014879416,0.0,0.0,0.0,0.0,0.0,0.0,0.0,0.0,0.0,9.504554e-06,0.0,0.0,nan,0.0,0.0,0.00025266825,0.0,0.0,0.0,0.0,0.0,0.0,0.0,0.0,0.0
842088000,842008000,0.0033598056,0.0,0.0009844163,0.00011515315,0.0,0.0,0.0,0.0,0.0,0.0,0.0,0.0,0.0,1.967322e-06,0.0,0.0,nan,0.0,0.0,2.877075e-07,0.0,0.0,0.0,0.0,0.0,0.0,0.0,0.0,0.0
842592000,842512000,0.006371696,0.0,0.000840498,0.00010542399,0.0,0.0,0.0,0.0,0.0,0.0,0.0,0.0,0.0,2.7680508e-06,0.0,0.0,nan,0.0,0.0,0.0,0.000100930214,0.0,0.0,0.0,0.0,0.0,0.0,0.0,0.0
843088000,843008000,0.010033024,0.0,0.0016362254,1.9213876e-05,0.0,0.0,0.0,0.0,0.0,0.0,0.0,0.0,0.0,6.1023666e-06,0.0,0.0,nan,0.0,0.0,0.0,0.0013994812,0.0,0.0,0.0,0.0,0.0,0.0,0.0,0.0
843592000,843512000,0.0077078887,0.0,0.0019682867,2.7364036e-05,0.0,0.0,0.0,0.0,0.0,0.0,0.0,0.0,0.0,7.2656285e-08,0.0,0.0,nan,0.0,0.0,0.0,4.106596e-05,0.0,0.0,0.0,0.0,0.0,0.0,0.0,0.0
844088000,844008000,0.0033467251,0.0,0.0013237039,9.321776e-06,0.0,0.0,0.0,0.0,0.0,0.0,0.0,0.0,0.0,5.7236043e-06,0.0,0.0,nan,0.0,0.0,0.0,0.0003339827,0.0,0.0,0.0,0.0,0.0,0.0,0.0,0.0
844592000,844512000,0.0021799416,0.0,0.0015014966,0.00010447995,0.0,0.0,0.0,0.0,0.0,0.0,0.0,0.0,0.0,2.460372e-05,0.0,0.0,nan,0.0,0.0,0.0,0.00031665654,0.0,0.0,0.0,0.0,0.0,0.0,0.0,0.0
845096000,845016000,0.0012221116,0.0,0.005065163,7.1116396e-05,0.0,0.0,0.0,0.0,0.0,0.0,0.0,0.0,0.0,3.653689e-05,0.0,0.0,nan,0.0,0.0,0.0,0.00042630502,0.0,0.0,0.0,0.0,0.0,0.0,0.0,0.0
845592000,845512000,5.6929766e-05,0.0,0.0043455465,2.5562475e-05,0.0,0.0,0.0,0.0,0.0,0.0,0.0,0.0,0.0,3.4097164e-05,0.0,0.0,nan,0.0,0.0,0.0,6.111747e-05,0.0,0.0,0.0,0.0,0.0,0.0,0.0,0.0
846096000,846016000,0.00047284487,0.0,0.00780347,8.768883e-05,0.0,0.0,0.0,0.0,0.0,0.0,0.0,0.0,0.0,4.3945132e-05,0.0,0.0,nan,0.0,0.0,6.123022e-05,0.0,0.0,0.0,0.0,0.0,0.0,0.0,0.0,0.0
846592000,846512000,0.00015891645,0.0,0.0058267387,2.3675238e-05,0.0,0.0,0.0,0.0,0.0,0.0,0.0,0.0,0.0,7.515844e-05,0.0,0.0,nan,0.0,0.0,0.00022649011,0.0,0.0,0.0,0.0,0.0,0.0,0.0,0.0,0.0
847096000,847016000,0.0012080336,0.0,0.0045486675,5.562545e-05,0.0,0.0,0.0,0.0,0.0,0.0,0.0,0.0,0.0,0.00010583475,0.0,0.0,nan,0.0,0.0,3.890428e-05,0.0,0.0,0.0,0.0,0.0,0.0,0.0,0.0,0.0
847592000,847512000,0.000422169,0.0,0.009813338,5.9435606e-05,0.0,0.0,0.0,0.0,0.0,0.0,0.0,0.0,0.0,5.493312e-05,0.0,0.0,nan,0.0,0.0,3.875694e-05,0.0,0.0,0.0,0.0,0.0,0.0,0.0,0.0,0.0
848088000,848008000,0.00048040145,0.0,0.005523909,5.308699e-05,0.0,0.0,0.0,0.0,0.0,0.0,0.0,0.0,0.0,0.00010948535,0.0,0.0,nan,0.0,0.0,3.5713194e-06,0.0,0.0,0.0,0.0,0.0,0.0,0.0,0.0,0.0
848592000,848512000,0.0011302466,0.0,0.004425465,4.5269026e-05,0.0,0.0,0.0,0.0,0.0,0.0,0.0,0.0,0.0,9.241608e-05,0.0,0.0,nan,0.0,0.0,0.00013546892,0.0,0.0,0.0,0.0,0.0,0.0,0.0,0.0,0.0
849088000,849008000,0.0003879448,0.0,0.004716246,4.7332604e-05,0.0,0.0,0.0,0.0,0.0,0.0,0.0,0.0,0.0,3.571883e-05,0.0,0.0,nan,0.0,0.0,2.3577243e-06,0.0,0.0,0.0,0.0,0.0,0.0,0.0,0.0,0.0
849592000,849512000,0.00027760968,0.0,0.0022463014,2.1964739e-05,0.0,0.0,0.0,0.0,0.0,0.0,0.0,0.0,0.0,5.4287528e-05,0.0,0.0,nan,0.0,0.0,5.0701463e-05,0.0,0.0,0.0,0.0,0.0,0.0,0.0,0.0,0.0
850096000,850016000,0.0002969278,0.0,0.0023004443,5.4192726e-05,0.0,0.0,0.0,0.0,0.0,0.0,0.0,0.0,0.0,6.132958e-05,0.0,0.0,nan,0.0,0.0,2.0706619e-05,0.0,0.0,0.0,0.0,0.0,0.0,0.0,0.0,0.0
850592000,850512000,0.00011688231,0.0,0.0020094847,1.8985067e-05,0.0,0.0,0.0,0.0,0.0,0.0,0.0,0.0,0.0,0.00011308241,0.0,0.0,nan,0.0,0.0,2.5802108e-05,0.0,0.0,0.0,0.0,0.0,0.0,0.0,0.0,0.0
851088000,851008000,0.0027161527,0.0,0.0013344485,3.1639043e-05,0.0,0.0,0.0,0.0,0.0,0.0,0.0,0.0,0.0,4.347942e-05,0.0,0.0,nan,0.0,0.0,0.0003579213,0.0,0.0,0.0,0.0,0.0,0.0,0.0,0.0,0.0
851592000,851512000,0.009557909,0.0,0.00053701334,3.6775768e-05,0.0,0.0,0.0,0.0,0.0,0.0,0.0,0.0,0.0,0.0,0.0,0.0,nan,0.0,0.0,0.0,0.00032157087,0.0,0.0,0.0,0.0,0.0,0.0,0.0,0.0
852088000,852008000,0.022325687,0.0,0.001076739,0.00010722156,0.0,0.0,0.0,0.0,0.0,0.0,0.0,0.0,0.0,0.0,0.0,0.0,nan,0.0,0.0,0.0,0.000111617795,0.0,0.0,0.0,0.0,0.0,0.0,0.0,0.0
852592000,852512000,0.024312759,0.0,5.899055e-07,0.00024882238,0.0,0.0,0.0,0.0,0.0,0.0,0.0,0.0,0.0,0.0,0.0,0.0,nan,0.0,0.0,0.0,0.00032902308,0.0,0.0,0.0,0.0,0.0,0.0,0.0,0.0
853096000,853016000,0.012022191,0.0,3.9661356e-07,0.00012393591,0.0,0.0,0.0,0.0,0.0,0.0,0.0,0.0,0.0,0.0,0.0,0.0,nan,0.0,0.0,0.0,0.0006521511,0.0,0.0,0.0,0.0,0.0,0.0,0.0,0.0
853592000,853512000,0.0033813163,0.0,0.0027260452,0.00018613625,0.0,0.0,0.0,0.0,0.0,0.0,0.0,0.0,0.0,0.0,0.0,0.0,nan,0.0,0.0,0.0,9.664553e-05,0.0,0.0,0.0,0.0,0.0,0.0,0.0,0.0
854088000,854008000,0.0026044787,0.0,0.0023285975,8.2036626e-05,0.0,0.0,0.0,0.0,0.0,0.0,0.0,0.0,0.0,0.0,0.0,0.0,nan,0.0,0.0,0.0,0.00038759282,0.0,0.0,0.0,0.0,0.0,0.0,0.0,0.0
854592000,854512000,0.0025360237,0.0,0.0019251229,5.232996e-05,0.0,0.0,0.0,0.0,0.0,0.0,0.0,0.0,0.0,0.0,0.0,0.0,nan,0.0,0.0,0.0,6.2929634e-05,0.0,0.0,0.0,0.0,0.0,0.0,0.0,0.0
855088000,855008000,0.0016315517,0.0,0.004375265,6.9488546e-05,0.0,0.0,0.0,0.0,0.0,0.0,0.0,0.0,0.0,0.0,0.0,0.0,nan,0.0,0.0,0.0,0.00052551436,0.0,0.0,0.0,0.0,0.0,0.0,0.0,0.0
855592000,855512000,0.002494123,0.0,0.004966801,6.169902e-05,0.0,0.0,0.0,0.0,0.0,0.0,0.0,0.0,0.0,0.0,0.0,0.0,nan,0.0,0.0,8.0777744e-07,0.0,0.0,0.0,0.0,0.0,0.0,0.0,0.0,0.0
856088000,856008000,0.09296467,0.0,0.00917039,0.00018115566,0.0,0.0,0.0,0.0,0.0,0.0,0.0,0.0,0.0,0.0,0.0,0.0,nan,0.0,0.0,0.0,0.00203882,0.0,0.0,0.0,0.0,0.0,0.0,0.0,0.0
856592000,856512000,0.05883117,0.0,0.0041749342,6.32308e-05,0.0,0.0,0.0,0.0,0.0,0.0,0.0,0.0,0.0,4.4122393e-05,0.0,0.0,nan,0.0,0.0,0.0,0.00030814324,0.0,0.0,0.0,0.0,0.0,0.0,0.0,0.0
857096000,857016000,0.042289604,0.0,0.0037212074,0.00038331057,0.0,0.0,0.0,0.0,0.0,0.0,0.0,0.0,0.0,6.037712e-05,0.0,0.0,nan,0.0,0.0,0.0,0.00014739437,0.0,0.0,0.0,0.0,0.0,0.0,0.0,0.0
857592000,857512000,0.02484092,0.0,0.010747428,0.0006726817,0.0,0.0,0.0,0.0,0.0,0.0,0.0,0.0,0.0,0.00011447688,0.0,0.0,nan,0.0,0.0,0.0,0.0010843299,0.0,0.0,0.0,0.0,0.0,0.0,0.0,0.0
858088000,858008000,0.023676835,0.0,0.004406128,0.00022183733,0.0,0.0,0.0,0.0,0.0,0.0,0.0,0.0,0.0,5.6655717e-05,0.0,0.0,nan,0.0,0.0,0.0,0.00018286624,0.0,0.0,0.0,0.0,0.0,0.0,0.0,0.0
858592000,858512000,0.01315453,0.0,0.0029247669,0.000505265,0.0,0.0,0.0,0.0,0.0,0.0,0.0,0.0,0.0,5.7815574e-05,0.0,0.0,nan,0.0,0.0,0.0,0.0005516364,0.0,0.0,0.0,0.0,0.0,0.0,0.0,0.0
859088000,859008000,0.010063953,0.0,0.0014436033,0.00038465776,0.0,0.0,0.0,0.0,0.0,0.0,0.0,0.0,0.0,0.0,0.0,0.0,nan,0.0,0.0,0.0,0.001729476,0.0,0.0,0.0,0.0,0.0,0.0,0.0,0.0
859592000,859512000,0.010769497,0.0,0.0039560827,0.00019314917,0.0,0.0,0.0,0.0,0.0,0.0,0.0,0.0,0.0,7.596651e-05,0.0,0.0,nan,0.0,0.0,0.0,0.0011836343,0.0,0.0,0.0,0.0,0.0,0.0,0.0,0.0
860088000,860008000,0.017685873,0.0,0.0027335691,0.00017622237,0.0,0.0,0.0,0.0,0.0,0.0,0.0,0.0,0.0,3.642332e-05,0.0,0.0,nan,0.0,0.0,0.0,0.00064716,0.0,0.0,0.0,0.0,0.0,0.0,0.0,0.0
860592000,860512000,0.007538038,0.0,0.0026068802,0.00010379741,0.0,0.0,0.0,0.0,0.0,0.0,0.0,0.0,0.0,8.177934e-06,0.0,0.0,nan,0.0,0.0,0.0,0.00059846626,0.0,0.0,0.0,0.0,0.0,0.0,0.0,0.0
861088000,861008000,0.0051551056,0.0,0.009853945,5.384951e-05,0.0,0.0,0.0,0.0,0.0,0.0,0.0,0.0,0.0,0.00012510254,0.0,0.0,nan,0.0,0.0,0.0,0.00045459328,0.0,0.0,0.0,0.0,0.0,0.0,0.0,0.0
861592000,861512000,0.0013620985,0.0,0.0044954116,5.306047e-05,0.0,0.0,0.0,0.0,0.0,0.0,0.0,0.0,0.0,0.00020558802,0.0,0.0,nan,0.0,0.0,0.0,0.00015704156,0.0,0.0,0.0,0.0,0.0,0.0,0.0,0.0
862088000,862008000,0.0007416936,0.0,0.0038812107,1.8648878e-05,0.0,0.0,0.0,0.0,0.0,0.0,0.0,0.0,0.0,0.00012934984,0.0,0.0,nan,0.0,0.0,0.0,0.000116885414,0.0,0.0,0.0,0.0,0.0,0.0,0.0,0.0
862592000,862512000,0.0009142385,0.0,0.0040667923,1.084524e-05,0.0,0.0,0.0,0.0,0.0,0.0,0.0,0.0,0.0,0.00011198755,0.0,0.0,nan,0.0,0.0,0.0,0.0007592484,0.0,0.0,0.0,0.0,0.0,0.0,0.0,0.0
863088000,863008000,0.00020106665,0.0,0.0037017101,1.0137689e-05,0.0,0.0,0.0,0.0,0.0,0.0,0.0,0.0,0.0,0.0002240527,0.0,0.0,nan,0.0,0.0,3.0068397e-05,0.0,0.0,0.0,0.0,0.0,0.0,0.0,0.0,0.0
863592000,863512000,8.364192e-06,0.0,0.005928193,1.4811986e-05,0.0,0.0,0.0,0.0,0.0,0.0,0.0,0.0,0.0,0.00019141602,0.0,0.0,nan,0.0,0.0,2.131361e-06,0.0,0.0,0.0,0.0,0.0,0.0,0.0,0.0,0.0
864088000,864008000,3.6347392e-05,0.0,0.005017287,6.308533e-06,0.0,0.0,0.0,0.0,0.0,0.0,0.0,0.0,0.0,0.0001778383,0.0,0.0,nan,0.0,0.0,5.3999617e-07,0.0,0.0,0.0,0.0,0.0,0.0,0.0,0.0,0.0
864592000,864512000,0.00015031063,0.0,0.004677264,8.0505815e-06,0.0,0.0,0.0,0.0,0.0,0.0,0.0,0.0,0.0,0.00019812857,0.0,0.0,nan,0.0,0.0,0.00053638645,0.0,0.0,0.0,0.0,0.0,0.0,0.0,0.0,0.0
865088000,865008000,4.3597893e-06,0.0,0.0054957294,1.3809122e-05,0.0,0.0,0.0,0.0,0.0,0.0,0.0,0.0,0.0,0.0003193462,0.0,0.0,nan,0.0,0.0,6.990925e-05,0.0,0.0,0.0,0.0,0.0,0.0,0.0,0.0,0.0
865592000,865512000,5.7128007e-05,0.0,0.0059777694,1.5871343e-05,0.0,0.0,0.0,0.0,0.0,0.0,0.0,0.0,0.0,0.0002204076,0.0,0.0,nan,0.0,0.0,0.00022531321,0.0,0.0,0.0,0.0,0.0,0.0,0.0,0.0,0.0
866096000,866016000,0.00033243786,0.0,0.0035405008,1.7137643e-05,0.0,0.0,0.0,0.0,0.0,0.0,0.0,0.0,0.0,0.00026307345,0.0,0.0,nan,0.0,0.0,0.0001632803,0.0,0.0,0.0,0.0,0.0,0.0,0.0,0.0,0.0
866592000,866512000,6.0887072e-05,0.0,0.0035276723,2.533882e-05,0.0,0.0,0.0,0.0,0.0,0.0,0.0,0.0,0.0,0.00028502019,0.0,0.0,nan,0.0,0.0,2.0794597e-07,0.0,0.0,0.0,0.0,0.0,0.0,0.0,0.0,0.0
867088000,867008000,0.0006184597,0.0,0.0047420445,3.9563496e-05,0.0,0.0,0.0,0.0,0.0,0.0,0.0,0.0,0.0,6.331937e-05,0.0,0.0,nan,0.0,0.0,0.00018590836,0.0,0.0,0.0,0.0,0.0,0.0,0.0,0.0,0.0
867592000,867512000,0.00015695246,0.0,0.002731927,2.8354725e-05,0.0,0.0,0.0,0.0,0.0,0.0,0.0,0.0,0.0,0.00011346659,0.0,0.0,nan,0.0,0.0,3.6848945e-05,0.0,0.0,0.0,0.0,0.0,0.0,0.0,0.0,0.0
868088000,868008000,9.033096e-05,0.0,0.0010020296,5.1636838e-05,0.0,0.0,0.0,0.0,0.0,0.0,0.0,0.0,0.0,0.00012036189,0.0,0.0,nan,0.0,0.0,0.00015984937,0.0,0.0,0.0,0.0,0.0,0.0,0.0,0.0,0.0
868592000,868512000,0.00015437274,0.0,0.0006152788,3.1661228e-05,0.0,0.0,0.0,0.0,0.0,0.0,0.0,0.0,0.0,0.0001702499,0.0,0.0,nan,0.0,0.0,0.0002591764,0.0,0.0,0.0,0.0,0.0,0.0,0.0,0.0,0.0
869096000,869016000,0.00010745515,0.0,0.00016342147,8.9234045e-06,0.0,0.0,0.0,0.0,0.0,0.0,0.0,0.0,0.0,0.00016307103,0.0,0.0,nan,0.0,0.0,0.0013765096,0.0,0.0,0.0,0.0,0.0,0.0,0.0,0.0,0.0
869592000,869512000,0.00033347216,0.0,0.0004931308,6.8072954e-06,0.0,0.0,0.0,0.0,0.0,0.0,0.0,0.0,0.0,9.102988e-05,0.0,0.0,nan,0.0,0.0,4.1048115e-06,0.0,0.0,0.0,0.0,0.0,0.0,0.0,0.0,0.0
870088000,870008000,0.00016997637,0.0,3.2241022e-08,1.0217751e-06,0.0,0.0,0.0,0.0,0.0,0.0,0.0,0.0,0.0,0.00010309834,0.0,0.0,nan,0.0,0.0,0.0002443267,0.0,0.0,0.0,0.0,0.0,0.0,0.0,0.0,0.0
870592000,870512000,0.00031989333,0.0,1.24702465e-05,2.0158568e-06,0.0,0.0,0.0,0.0,0.0,0.0,0.0,0.0,0.0,7.786944e-05,0.0,0.0,nan,0.0,0.0,0.00015757515,0.0,0.0,0.0,0.0,0.0,0.0,0.0,0.0,0.0
871088000,871008000,0.00041475537,0.0,0.00030175518,7.808452e-07,0.0,0.0,0.0,0.0,0.0,0.0,0.0,0.0,0.0,9.074262e-06,0.0,0.0,nan,0.0,0.0,2.140868e-06,0.0,0.0,0.0,0.0,0.0,0.0,0.0,0.0,0.0
871592000,871512000,0.0006580278,0.0,0.00059953885,1.173886e-05,0.0,0.0,0.0,0.0,0.0,0.0,0.0,0.0,0.0,1.8335264e-05,0.0,0.0,nan,0.0,0.0,4.8847437e-06,0.0,0.0,0.0,0.0,0.0,0.0,0.0,0.0,0.0
872096000,872016000,0.0012197756,0.0,2.2888089e-05,1.4682242e-05,0.0,0.0,0.0,0.0,0.0,0.0,0.0,0.0,0.0,7.780427e-07,0.0,0.0,nan,0.0,0.0,0.0005206687,0.0,0.0,0.0,0.0,0.0,0.0,0.0,0.0,0.0
872592000,872512000,0.00073905976,0.0,0.00028354872,1.1107344e-05,0.0,0.0,0.0,0.0,0.0,0.0,0.0,0.0,0.0,6.3898406e-05,0.0,0.0,nan,0.0,0.0,0.00024026007,0.0,0.0,0.0,0.0,0.0,0.0,0.0,0.0,0.0
873088000,873008000,0.000595884,0.0,1.108256e-06,4.9487146e-05,0.0,0.0,0.0,0.0,0.0,0.0,0.0,0.0,0.0,2.381528e-05,0.0,0.0,nan,0.0,0.0,9.07001e-05,0.0,0.0,0.0,0.0,0.0,0.0,0.0,0.0,0.0
873592000,873512000,0.00046779017,0.0,0.00011266626,2.4340688e-05,0.0,0.0,0.0,0.0,0.0,0.0,0.0,0.0,0.0,4.6999385e-06,0.0,0.0,nan,0.0,0.0,8.481783e-05,0.0,0.0,0.0,0.0,0.0,0.0,0.0,0.0,0.0
874096000,874016000,0.0010547964,0.0,0.0004740863,4.7899775e-05,0.0,0.0,0.0,0.0,0.0,0.0,0.0,0.0,0.0,3.1167716e-08,0.0,0.0,nan,0.0,0.0,0.00012008052,0.0,0.0,0.0,0.0,0.0,0.0,0.0,0.0,0.0
874592000,874512000,0.0011823507,0.0,1.4792697e-05,4.296786e-05,0.0,0.0,0.0,0.0,0.0,0.0,0.0,0.0,0.0,1.8485107e-06,0.0,0.0,nan,0.0,0.0,7.266625e-05,0.0,0.0,0.0,0.0,0.0,0.0,0.0,0.0,0.0
875088000,875008000,0.00013183578,0.0,6.617815e-05,8.590963e-05,0.0,0.0,0.0,0.0,0.0,0.0,0.0,0.0,0.0,3.001198e-07,0.0,0.0,nan,0.0,0.0,6.676696e-05,0.0,0.0,0.0,0.0,0.0,0.0,0.0,0.0,0.0
875592000,875512000,0.0027837593,0.0,0.00046908399,0.00012411876,0.0,0.0,0.0,0.0,0.0,0.0,0.0,0.0,0.0,5.9299e-05,0.0,0.0,nan,0.0,0.0,6.0008933e-06,0.0,0.0,0.0,0.0,0.0,0.0,0.0,0.0,0.0
876088000,876008000,0.003876475,0.0,0.0009220387,7.3500465e-05,0.0,0.0,0.0,0.0,0.0,0.0,0.0,0.0,0.0,1.8088418e-05,0.0,0.0,nan,0.0,0.0,0.0002495673,0.0,0.0,0.0,0.0,0.0,0.0,0.0,0.0,0.0
876592000,876512000,0.0005851018,0.0,0.00045540338,5.3856278e-05,0.0,0.0,0.0,0.0,0.0,0.0,0.0,0.0,0.0,1.8480696e-05,0.0,0.0,nan,0.0,0.0,0.0,0.00045545152,0.0,0.0,0.0,0.0,0.0,0.0,0.0,0.0
877096000,877016000,0.00041076032,0.0,0.00046557267,6.6453606e-05,0.0,0.0,0.0,0.0,0.0,0.0,0.0,0.0,0.0,4.1021604e-09,0.0,0.0,nan,0.0,0.0,0.0,0.00031816194,0.0,0.0,0.0,0.0,0.0,0.0,0.0,0.0
877592000,877512000,6.961407e-05,0.0,3.193964e-05,3.2260643e-05,0.0,0.0,0.0,0.0,0.0,0.0,0.0,0.0,0.0,1.6831657e-07,0.0,0.0,nan,0.0,0.0,0.0,5.8076886e-05,0.0,0.0,0.0,0.0,0.0,0.0,0.0,0.0
878088000,878008000,5.742028e-05,0.0,0.00075333513,1.1676859e-06,0.0,0.0,0.0,0.0,0.0,0.0,0.0,0.0,0.0,8.6060155e-08,0.0,0.0,nan,0.0,0.0,0.0,0.00043296322,0.0,0.0,0.0,0.0,0.0,0.0,0.0,0.0
878592000,878512000,0.00053068215,0.0,0.00018128043,2.521376e-06,0.0,0.0,0.0,0.0,0.0,0.0,0.0,0.0,0.0,3.7678653e-06,0.0,0.0,nan,0.0,0.0,0.0,0.0004511855,0.0,0.0,0.0,0.0,0.0,0.0,0.0,0.0
879096000,879016000,0.0012489953,0.0,1.4091741e-05,2.2750764e-05,0.0,0.0,0.0,0.0,0.0,0.0,0.0,0.0,0.0,3.0676284e-07,0.0,0.0,nan,0.0,0.0,0.0,0.0041545667,0.0,0.0,0.0,0.0,0.0,0.0,0.0,0.0
879592000,879512000,0.0031928702,0.0,0.00042296888,1.8908351e-05,0.0,0.0,0.0,0.0,0.0,0.0,0.0,0.0,0.0,1.2806793e-05,0.0,0.0,nan,0.0,0.0,0.0,0.0030817362,0.0,0.0,0.0,0.0,0.0,0.0,0.0,0.0
880096000,880016000,0.00071890175,0.0,2.331474e-06,3.943483e-05,0.0,0.0,0.0,0.0,0.0,0.0,0.0,0.0,0.0,0.0,0.0,0.0,nan,0.0,0.0,0.0003334486,0.0,0.0,0.0,0.0,0.0,0.0,0.0,0.0,0.0
880592000,880512000,0.0021196904,0.0,2.2791288e-05,8.342973e-05,0.0,0.0,0.0,0.0,0.0,0.0,0.0,0.0,0.0,0.0,0.0,0.0,nan,0.0,0.0,0.0,0.00019846672,0.0,0.0,0.0,0.0,0.0,0.0,0.0,0.0
881096000,881016000,0.002415367,0.0,0.00025807926,9.924724e-05,0.0,0.0,0.0,0.0,0.0,0.0,0.0,0.0,0.0,0.0,0.0,0.0,nan,0.0,0.0,0.0,0.00022114554,0.0,0.0,0.0,0.0,0.0,0.0,0.0,0.0
881592000,881512000,0.0006349808,0.0,7.849493e-05,8.627483e-05,0.0,0.0,0.0,0.0,0.0,0.0,0.0,0.0,0.0,7.1938886e-09,0.0,0.0,nan,0.0,0.0,0.0,0.0005076905,0.0,0.0,0.0,0.0,0.0,0.0,0.0,0.0
882096000,882016000,0.00158096,0.0,0.00015501826,0.000101543024,0.0,0.0,0.0,0.0,0.0,0.0,0.0,0.0,0.0,0.0,0.0,0.0,nan,0.0,0.0,0.0,0.0001112562,0.0,0.0,0.0,0.0,0.0,0.0,0.0,0.0
882592000,882512000,0.00031475577,0.0,4.0560412e-06,4.3100696e-05,0.0,0.0,0.0,0.0,0.0,0.0,0.0,0.0,0.0,0.0,0.0,0.0,nan,0.0,0.0,0.0,0.0009566559,0.0,0.0,0.0,0.0,0.0,0.0,0.0,0.0
883088000,883008000,5.3153813e-05,0.0,0.00033941885,4.9006252e-05,0.0,0.0,0.0,0.0,0.0,0.0,0.0,0.0,0.0,0.0,0.0,0.0,nan,0.0,0.0,0.0,0.00059098355,0.0,0.0,0.0,0.0,0.0,0.0,0.0,0.0
883592000,883512000,4.583837e-05,0.0,7.920413e-07,4.887176e-05,0.0,0.0,0.0,0.0,0.0,0.0,0.0,0.0,0.0,0.0,0.0,0.0,nan,0.0,0.0,0.0,6.578814e-05,0.0,0.0,0.0,0.0,0.0,0.0,0.0,0.0
884096000,884016000,0.00056475244,0.0,1.8007357e-06,3.1367003e-05,0.0,0.0,0.0,0.0,0.0,0.0,0.0,0.0,0.0,0.0,0.0,0.0,nan,0.0,0.0,1.2374317e-06,0.0,0.0,0.0,0.0,0.0,0.0,0.0,0.0,0.0
884592000,884512000,0.0005327058,0.0,0.00013233603,2.4064475e-05,0.0,0.0,0.0,0.0,0.0,0.0,0.0,0.0,0.0,0.0,0.0,0.0,nan,0.0,0.0,6.537949e-05,0.0,0.0,0.0,0.0,0.0,0.0,0.0,0.0,0.0
885088000,885008000,0.0014299668,0.0,0.00035631028,9.716256e-06,0.0,0.0,0.0,0.0,0.0,0.0,0.0,0.0,0.0,0.0,0.0,0.0,nan,0.0,0.0,8.1179605e-05,0.0,0.0,0.0,0.0,0.0,0.0,0.0,0.0,0.0
885592000,885512000,1.6517057e-05,0.0,1.9491972e-05,6.7678548e-06,0.0,0.0,0.0,0.0,0.0,0.0,0.0,0.0,0.0,0.0,0.0,0.0,nan,0.0,0.0,9.197628e-07,0.0,0.0,0.0,0.0,0.0,0.0,0.0,0.0,0.0
886096000,886016000,0.00039403338,0.0,0.00012498401,1.1479794e-05,0.0,0.0,0.0,0.0,0.0,0.0,0.0,0.0,0.0,0.0,0.0,0.0,nan,0.0,0.0,1.17420015e-07,0.0,0.0,0.0,0.0,0.0,0.0,0.0,0.0,0.0
886592000,886512000,0.00019466523,0.0,2.6222815e-05,8.089381e-06,0.0,0.0,0.0,0.0,0.0,0.0,0.0,0.0,0.0,0.0,0.0,0.0,nan,0.0,0.0,0.0004650661,0.0,0.0,0.0,0.0,0.0,0.0,0.0,0.0,0.0
887088000,887008000,0.00032376786,0.0,1.1305327e-05,1.073756e-05,0.0,0.0,0.0,0.0,0.0,0.0,0.0,0.0,0.0,0.0,0.0,0.0,nan,0.0,0.0,5.9600057e-05,0.0,0.0,0.0,0.0,0.0,0.0,0.0,0.0,0.0
887592000,887512000,0.00010954511,0.0,0.00048908737,9.515941e-06,0.0,0.0,0.0,0.0,0.0,0.0,0.0,0.0,0.0,0.0,0.0,0.0,nan,0.0,0.0,0.0017628261,0.0,0.0,0.0,0.0,0.0,0.0,0.0,0.0,0.0
888088000,888008000,3.4455607e-05,0.0,7.664056e-05,5.1670286e-06,0.0,0.0,0.0,0.0,0.0,0.0,0.0,0.0,0.0,0.0,0.0,0.0,nan,0.0,0.0,2.2541417e-07,0.0,0.0,0.0,0.0,0.0,0.0,0.0,0.0,0.0
888592000,888512000,2.4022347e-05,0.0,1.1298157e-05,3.393472e-06,0.0,0.0,0.0,0.0,0.0,0.0,0.0,0.0,0.0,0.0,0.0,0.0,nan,0.0,0.0,0.00017292931,0.0,0.0,0.0,0.0,0.0,0.0,0.0,0.0,0.0
889096000,889016000,0.00011129081,0.0,1.206941e-05,7.4656077e-06,0.0,0.0,0.0,0.0,0.0,0.0,0.0,0.0,0.0,0.0,0.0,0.0,nan,0.0,0.0,3.0919968e-05,0.0,0.0,0.0,0.0,0.0,0.0,0.0,0.0,0.0
889592000,889512000,0.000120989265,0.0,0.00043403212,1.1244696e-05,0.0,0.0,0.0,0.0,0.0,0.0,0.0,0.0,0.0,0.0,0.0,0.0,nan,0.0,0.0,3.3060896e-05,0.0,0.0,0.0,0.0,0.0,0.0,0.0,0.0,0.0
890088000,890008000,9.561077e-06,0.0,4.6229383e-05,1.7111723e-05,0.0,0.0,0.0,0.0,0.0,0.0,0.0,0.0,0.0,0.0,0.0,0.0,nan,0.0,0.0,6.0041883e-05,0.0,0.0,0.0,0.0,0.0,0.0,0.0,0.0,0.0
890592000,890512000,0.00017418797,0.0,0.00022997496,2.1554706e-05,0.0,0.0,0.0,0.0,0.0,0.0,0.0,0.0,0.0,0.0,0.0,0.0,nan,0.0,0.0,0.0008866549,0.0,0.0,0.0,0.0,0.0,0.0,0.0,0.0,0.0
891088000,891008000,0.00036224685,0.0,0.00017104665,2.092295e-05,0.0,0.0,0.0,0.0,0.0,0.0,0.0,0.0,0.0,0.0,0.0,0.0,nan,0.0,0.0,0.00011859996,0.0,0.0,0.0,0.0,0.0,0.0,0.0,0.0,0.0
891592000,891512000,0.0005954262,0.0,6.720508e-07,3.589399e-05,0.0,0.0,0.0,0.0,0.0,0.0,0.0,0.0,0.0,0.0,0.0,0.0,nan,0.0,0.0,4.7633257e-05,0.0,0.0,0.0,0.0,0.0,0.0,0.0,0.0,0.0
892088000,892008000,0.00055576797,0.0,2.2463964e-05,2.1962358e-05,0.0,0.0,0.0,0.0,0.0,0.0,0.0,0.0,0.0,0.0,0.0,0.0,nan,0.0,0.0,1.313538e-05,0.0,0.0,0.0,0.0,0.0,0.0,0.0,0.0,0.0
892592000,892512000,0.0011648595,0.0,4.161226e-05,3.7703216e-05,0.0,0.0,0.0,0.0,0.0,0.0,0.0,0.0,0.0,0.0,0.0,0.0,nan,0.0,0.0,5.16074e-07,0.0,0.0,0.0,0.0,0.0,0.0,0.0,0.0,0.0
893088000,893008000,0.00049884396,0.0,4.821608e-05,2.3071943e-05,0.0,0.0,0.0,0.0,0.0,0.0,0.0,0.0,0.0,0.0,0.0,0.0,nan,0.0,0.0,0.00038244674,0.0,0.0,0.0,0.0,0.0,0.0,0.0,0.0,0.0
893592000,893512000,0.0017208745,0.0,0.00062430784,3.797521e-05,0.0,0.0,0.0,0.0,0.0,0.0,0.0,0.0,0.0,0.0,0.0,0.0,nan,0.0,0.0,1.04843075e-05,0.0,0.0,0.0,0.0,0.0,0.0,0.0,0.0,0.0
894088000,894008000,0.0003248994,0.0,0.00011057739,2.393704e-05,0.0,0.0,0.0,0.0,0.0,0.0,0.0,0.0,0.0,0.0,0.0,0.0,nan,0.0,0.0,4.4687196e-05,0.0,0.0,0.0,0.0,0.0,0.0,0.0,0.0,0.0
894592000,894512000,0.0009501693,0.0,0.00013148777,3.5696386e-05,0.0,0.0,0.0,0.0,0.0,0.0,0.0,0.0,0.0,0.0,0.0,0.0,nan,0.0,0.0,6.3718915e-05,0.0,0.0,0.0,0.0,0.0,0.0,0.0,0.0,0.0
895096000,895016000,0.0011524122,0.0,1.2389311e-05,3.9736737e-05,0.0,0.0,0.0,0.0,0.0,0.0,0.0,0.0,0.0,0.0,0.0,0.0,nan,0.0,0.0,1.5510807e-06,0.0,0.0,0.0,0.0,0.0,0.0,0.0,0.0,0.0
895592000,895512000,0.0008763167,0.0,0.0013991805,2.7919888e-05,0.0,0.0,0.0,0.0,0.0,0.0,0.0,0.0,0.0,0.0,0.0,0.0,nan,0.0,0.0,0.00022130136,0.0,0.0,0.0,0.0,0.0,0.0,0.0,0.0,0.0
896096000,896016000,0.0029467617,0.0,0.00029502247,2.7144455e-05,0.0,0.0,0.0,0.0,0.0,0.0,0.0,0.0,0.0,0.0,0.0,0.0,nan,0.0,0.0,0.0010205401,0.0,0.0,0.0,0.0,0.0,0.0,0.0,0.0,0.0
896592000,896512000,0.0005248847,0.0,0.00015822977,3.465548e-05,0.0,0.0,0.0,0.0,0.0,0.0,0.0,0.0,0.0,0.0,0.0,0.0,nan,0.0,0.0,0.0008066239,0.0,0.0,0.0,0.0,0.0,0.0,0.0,0.0,0.0
897088000,897008000,0.00024944637,0.0,0.00018817316,2.3085895e-05,0.0,0.0,0.0,0.0,0.0,0.0,0.0,0.0,0.0,0.0,0.0,0.0,nan,0.0,0.0,3.0596092e-07,0.0,0.0,0.0,0.0,0.0,0.0,0.0,0.0,0.0
897592000,897512000,0.00027012397,0.0,0.00021391321,2.762491e-05,0.0,0.0,0.0,0.0,0.0,0.0,0.0,0.0,0.0,1.2849671e-05,0.0,0.0,nan,0.0,0.0,0.0011932851,0.0,0.0,0.0,0.0,0.0,0.0,0.0,0.0,0.0
898096000,898016000,0.0001885173,0.0,0.00071473734,8.546586e-06,0.0,0.0,0.0,0.0,0.0,0.0,0.0,0.0,0.0,1.2169865e-07,0.0,0.0,nan,0.0,0.0,4.362532e-05,0.0,0.0,0.0,0.0,0.0,0.0,0.0,0.0,0.0
898592000,898512000,0.00035641194,0.0,0.00065010175,7.4574828e-06,0.0,0.0,0.0,0.0,0.0,0.0,0.0,0.0,0.0,6.744505e-05,0.0,0.0,nan,0.0,0.0,0.0004820022,0.0,0.0,0.0,0.0,0.0,0.0,0.0,0.0,0.0
899088000,899008000,4.7937106e-06,0.0,0.00030838078,9.0855765e-06,0.0,0.0,0.0,0.0,0.0,0.0,0.0,0.0,0.0,0.000242187,0.0,0.0,nan,0.0,0.0,0.00023870995,0.0,0.0,0.0,0.0,0.0,0.0,0.0,0.0,0.0
899592000,899512000,0.00032315808,0.0,2.6185485e-06,3.9472257e-06,0.0,0.0,0.0,0.0,0.0,0.0,0.0,0.0,0.0,2.069614e-05,0.0,0.0,nan,0.0,0.0,0.0004539357,0.0,0.0,0.0,0.0,0.0,0.0,0.0,0.0,0.0
900096000,900016000,5.555868e-05,0.0,6.749857e-07,3.7180785e-06,0.0,0.0,0.0,0.0,0.0,0.0,0.0,0.0,0.0,9.5646436e-05,0.0,0.0,nan,0.0,0.0,0.00030800988,0.0,0.0,0.0,0.0,0.0,0.0,0.0,0.0,0.0
