timestamp,timestamp_sample,gyro_device_id,gyro_bias[0],gyro_bias[1],gyro_bias[2],gyro_bias_limit,gyro_bias_variance[0],gyro_bias_variance[1],gyro_bias_variance[2],accel_device_id,accel_bias[0],accel_bias[1],accel_bias[2],accel_bias_limit,accel_bias_variance[0],accel_bias_variance[1],accel_bias_variance[2],mag_device_id,mag_bias[0],mag_bias[1],mag_bias[2],mag_bias_limit,mag_bias_variance[0],mag_bias_variance[1],mag_bias_variance[2],gyro_bias_valid,gyro_bias_stable,accel_bias_valid,accel_bias_stable,mag_bias_valid,mag_bias_stable
828812000,828732000,1310988,0.00032517052,-0.0021942158,0.0011660565,0.34906584,1.3787461e-07,1.3787742e-07,3.5959079e-07,1310988,0.016018495,0.010698376,-0.1357154,0.4,0.0018082436,0.0018076324,0.00078123936,197644,0.0032542006,-0.0009013086,-0.0007686833,0.5,3.640288e-05,6.2440755e-05,0.000119986435,1,1,1,0,1,0
829436000,829356000,1310988,0.00033687512,-0.0021842585,0.0011636704,0.34906584,1.378776e-07,1.3787974e-07,3.599718e-07,1310988,0.016020168,0.010705169,-0.13266572,0.4,0.0018082841,0.0018076707,0.00078123936,197644,0.0032542006,-0.0009013086,-0.0007686833,0.5,3.640288e-05,6.2440755e-05,0.000119986435,1,1,1,0,1,0
829644000,829564000,1310988,0.0003293029,-0.002179393,0.001161441,0.34906584,1.3787138e-07,1.3787533e-07,3.59906e-07,1310988,0.016022546,0.010707788,-0.13438596,0.4,0.0018082969,0.0018076816,0.00078123936,197644,0.0032542006,-0.0009013086,-0.0007686833,0.5,3.640288e-05,6.2440755e-05,0.000119986435,1,1,1,0,1,0
829852000,829772000,1310988,0.0003292934,-0.002180578,0.0011608066,0.34906584,1.3787671e-07,1.3788024e-07,3.5984303e-07,1310988,0.016020847,0.010709955,-0.13179566,0.4,0.0018083104,0.0018076951,0.00078123936,197644,0.0032542006,-0.0009013086,-0.0007686833,0.5,3.640288e-05,6.2440755e-05,0.000119986435,1,1,1,0,1,0
830268000,830188000,1310988,0.00033309672,-0.0021882611,0.0011604541,0.34906584,1.3788163e-07,1.3788298e-07,3.5971348e-07,1310988,0.016018426,0.010710377,-0.12890555,0.4,0.0018083387,0.001807724,0.00078123936,197644,0.0032542006,-0.0009013086,-0.0007686833,0.5,3.640288e-05,6.2440755e-05,0.000119986435,1,1,1,0,1,0
830476000,830396000,1310988,0.00033910453,-0.0021764748,0.0011594777,0.34906584,1.3787361e-07,1.3787579e-07,3.5965206e-07,1310988,0.016024902,0.010708213,-0.13075842,0.4,0.0018083488,0.001807736,0.00078123936,197644,0.0032542006,-0.0009013086,-0.0007686833,0.5,3.640288e-05,6.2440755e-05,0.000119986435,1,1,1,0,1,0
830684000,830604000,1310988,0.00033037743,-0.0021823521,0.001157229,0.34906584,1.3787893e-07,1.3788151e-07,3.5958135e-07,1310988,0.016020352,0.010710679,-0.12840736,0.4,0.0018083618,0.0018077482,0.00078123936,197644,0.0032542006,-0.0009013086,-0.0007686833,0.5,3.640288e-05,6.2440755e-05,0.000119986435,1,1,1,0,1,0
831308000,831228000,1310988,0.00034754458,-0.0021998903,0.0011532191,0.34906584,1.378761e-07,1.3787293e-07,3.599611e-07,1310988,0.016017001,0.010701485,-0.1294372,0.4,0.0018084001,0.0018077868,0.00078123936,197644,0.0032542006,-0.0009013086,-0.0007686833,0.5,3.640288e-05,6.2440755e-05,0.000119986435,1,1,1,0,1,0
831516000,831436000,1310988,0.00034963962,-0.0022117395,0.0011519062,0.34906584,1.3788217e-07,1.378768e-07,3.5989038e-07,1310988,0.016014494,0.010699407,-0.1274307,0.4,0.001808411,0.001807801,0.00078123936,197644,0.0032542006,-0.0009013086,-0.0007686833,0.5,3.640288e-05,6.2440755e-05,0.000119986435,1,1,1,0,1,0
831932000,831852000,1310988,0.00034819255,-0.0022219194,0.0011501197,0.34906584,1.3787516e-07,1.378689e-07,3.5975597e-07,1310988,0.01601211,0.010699093,-0.13031913,0.4,0.0018084336,0.001807825,0.00078123936,197644,0.0032542006,-0.0009013086,-0.0007686833,0.5,3.640288e-05,6.2440755e-05,0.000119986435,1,1,1,0,1,0
832140000,832060000,1310988,0.00035230943,-0.0022199638,0.0011477696,0.34906584,1.378821e-07,1.3787593e-07,3.5969236e-07,1310988,0.016012738,0.010696015,-0.12714133,0.4,0.0018084453,0.0018078365,0.00078123936,197644,0.0032542006,-0.0009013086,-0.0007686833,0.5,3.640288e-05,6.2440755e-05,0.000119986435,1,1,1,0,1,0
832348000,832268000,1310988,0.00034665441,-0.002212929,0.0011459517,0.34906584,1.3787302e-07,1.3786953e-07,3.5962645e-07,1310988,0.016014256,0.010702252,-0.13028961,0.4,0.0018084544,0.0018078465,0.00078123936,197644,0.0032542006,-0.0009013086,-0.0007686833,0.5,3.640288e-05,6.2440755e-05,0.000119986435,1,1,1,0,1,0
832556000,832476000,1310988,0.00034678943,-0.0022219718,0.0011453894,0.34906584,1.3786867e-07,1.3786365e-07,3.5956012e-07,1310988,0.016013542,0.0107012065,-0.1333387,0.4,0.0018084636,0.0018078575,0.00078123936,197644,0.0032542006,-0.0009013086,-0.0007686833,0.5,3.640288e-05,6.2440755e-05,0.000119986435,1,1,1,0,1,0
832972000,832892000,1310988,0.0003415556,-0.0022238716,0.0011422872,0.34906584,1.378699e-07,1.3786581e-07,3.6000813e-07,1310988,0.016013224,0.010700622,-0.13442393,0.4,0.0018084922,0.0018078862,0.00078123936,197644,0.0032542006,-0.0009013086,-0.0007686833,0.5,3.640288e-05,6.2440755e-05,0.000119986435,1,1,1,0,1,0
833972000,833892000,1310988,0.0003560401,-0.0021913094,0.0011307092,0.34906584,1.392135e-07,1.3921306e-07,3.5995228e-07,1310988,0.016016377,0.010709481,-0.13443418,0.4,0.0018085577,0.0018079546,0.0007812514,197644,0.0032542006,-0.0009013086,-0.0007686833,0.5,3.640288e-05,6.2440755e-05,0.000119986435,1,1,1,0,1,0
834012000,833932000,1310988,0.0003637697,-0.0021907187,0.0011313106,0.34906584,1.3786489e-07,1.3786314e-07,3.596963e-07,1310988,0.016022723,0.010709351,-0.13703018,0.4,0.0018085581,0.0018079543,0.00078123936,197644,0.0032542006,-0.0009013086,-0.0007686833,0.5,3.640288e-05,6.2440755e-05,0.000119986435,1,1,1,0,1,0
834428000,834348000,1310988,0.0003659747,-0.0021951667,0.001129459,0.34906584,1.3786503e-07,1.3786206e-07,3.5956916e-07,1310988,0.01602661,0.010706395,-0.13899963,0.4,0.0018085855,0.0018079834,0.00078123936,197644,0.0032542006,-0.0009013086,-0.0007686833,0.5,3.640288e-05,6.2440755e-05,0.000119986435,1,1,1,0,1,0
834636000,834556000,1310988,0.00037260813,-0.0021956991,0.0011278401,0.34906584,1.3787042e-07,1.3786622e-07,3.6008242e-07,1310988,0.016027614,0.0107088145,-0.13761966,0.4,0.001808599,0.0018079968,0.00078123936,197644,0.0032542006,-0.0009013086,-0.0007686833,0.5,3.640288e-05,6.2440755e-05,0.000119986435,1,1,1,0,1,0
835260000,835180000,1310988,0.00039101168,-0.0021964717,0.0011233403,0.34906584,1.3787123e-07,1.378643e-07,3.598875e-07,1310988,0.016034478,0.010709178,-0.13873826,0.4,0.0018086414,0.0018080383,0.00078123936,197644,0.0032542006,-0.0009013086,-0.0007686833,0.5,3.640288e-05,6.2440755e-05,0.000119986435,1,1,1,0,1,0
835468000,835388000,1310988,0.0003971807,-0.0022078387,0.0011230669,0.34906584,1.3787903e-07,1.3786918e-07,3.598155e-07,1310988,0.01603683,0.010712081,-0.13660695,0.4,0.0018086511,0.0018080513,0.00078123936,197644,0.0032542006,-0.0009013086,-0.0007686833,0.5,3.640288e-05,6.2440755e-05,0.000119986435,1,1,1,0,1,0
836468000,836388000,1310988,0.0004091299,-0.0022137559,0.001117478,0.34906584,1.4088596e-07,1.4087432e-07,3.603099e-07,1310988,0.01604086,0.010708865,-0.13698205,0.4,0.001808722,0.0018081221,0.00078125816,197644,0.0032542006,-0.0009013086,-0.0007686833,0.5,3.640288e-05,6.2440755e-05,0.000119986435,1,0,1,0,1,0
837468000,837388000,1310988,0.00040840803,-0.0022159433,0.0011075189,0.34906584,1.4849591e-07,1.48485e-07,3.602303e-07,1310988,0.016034408,0.010707345,-0.13741675,0.4,0.0018087872,0.0018081872,0.0007812428,197644,0.0032542006,-0.0009013086,-0.0007686833,0.5,3.640288e-05,6.2440755e-05,0.000119986435,1,0,1,0,1,0
838468000,838388000,1310988,0.000422349,-0.0022194728,0.0010988183,0.34906584,1.5307491e-07,1.5306489e-07,3.6014475e-07,1310988,0.015983412,0.010319405,-0.13750067,0.4,0.0018063977,0.0018057979,0.00078124227,197644,0.0032542006,-0.0009013086,-0.0007686833,0.5,3.640288e-05,6.2440755e-05,0.000119986435,1,0,1,0,1,0
839420000,839340000,1310988,0.00043103303,-0.0022280389,0.0010985406,0.34906584,1.5776973e-07,1.5775912e-07,3.6717847e-07,1310988,0.016863836,0.010859126,-0.13730112,0.4,0.001777406,0.0017768373,0.00078123936,197644,0.0032542006,-0.0009013086,-0.0007686833,0.5,0.0025000002,0.0025000002,0.0025000002,1,0,1,0,1,0
840196000,840116000,1310988,0.00043835986,-0.0022330326,0.0010992547,0.34906584,1.618282e-07,1.6181768e-07,3.733727e-07,1310988,0.01786252,0.012016908,-0.13745466,0.4,0.0016760881,0.0016756027,0.00078123936,197644,0.0032542006,-0.0009013086,-0.0007686833,0.5,0.0025000002,0.0025000002,0.0025000002,1,0,1,0,1,0
840404000,840324000,1310988,0.00043919508,-0.0022353278,0.0010993601,0.34906584,1.6294943e-07,1.6293902e-07,3.7503054e-07,1310988,0.01852904,0.012000218,-0.136679,0.4,0.0016293561,0.0016289055,0.00078123936,197644,0.0032542006,-0.0009013086,-0.0007686833,0.5,0.0025000002,0.0025000002,0.0025000002,1,0,1,0,1,0
840820000,840740000,1310988,0.00044121488,-0.002239168,0.001099735,0.34906584,1.6543557e-07,1.6542516e-07,3.783427e-07,1310988,0.019760188,0.012314342,-0.13651444,0.4,0.0015389329,0.0015385537,0.00078123936,197644,0.0032542006,-0.0009013086,-0.0007686833,0.5,0.0025000002,0.0025000002,0.0025000002,1,0,1,0,1,0
841812000,841732000,1310988,0.00044035565,-0.0022383204,0.0011002446,0.34906584,1.7241966e-07,1.7240876e-07,3.8621806e-07,1310988,0.018396337,0.01089574,-0.1380531,0.4,0.001413672,0.0014133705,0.00078123936,197644,0.0032542006,-0.0009013086,-0.0007686833,0.5,0.0025000002,0.0025000002,0.0025000002,1,0,1,0,1,0
842020000,841940000,1310988,0.00043902194,-0.0022363078,0.0011000709,0.34906584,1.738302e-07,1.7381761e-07,3.8786965e-07,1310988,0.017029423,0.009854527,-0.13894424,0.4,0.0013810857,0.0013810872,0.00078123936,197644,0.0032542006,-0.0009013086,-0.0007686833,0.5,0.0025000002,0.0025000002,0.0025000002,1,0,1,0,1,0
842228000,842148000,1310988,0.00043715874,-0.0022345772,0.0011003491,0.34906584,1.7527684e-07,1.7526114e-07,3.895134e-07,1310988,0.015868524,0.008524228,-0.13927367,0.4,0.0013551979,0.0013557777,0.00078123936,197644,0.0032542006,-0.0009013086,-0.0007686833,0.5,0.0025000002,0.0025000002,0.0025000002,1,0,1,0,1,0
842436000,842356000,1310988,0.00043492863,-0.0022332412,0.0011005779,0.34906584,1.7674975e-07,1.7672946e-07,3.9115525e-07,1310988,0.015017683,0.0070947986,-0.1400691,0.4,0.0013343323,0.0013357332,0.00078123936,197644,0.0032542006,-0.0009013086,-0.0007686833,0.5,0.0025000002,0.0025000002,0.0025000002,1,0,1,0,1,0
842676000,842596000,1310988,0.0004349199,-0.002233222,0.0011004402,0.34906584,1.7866958e-07,1.7864916e-07,3.9305127e-07,1310988,0.015011183,0.0070827976,-0.14002392,0.4,0.0013343097,0.0013355681,0.0007812428,197644,0.0023849742,-0.001853862,-8.6370506e-05,0.5,0.0014179713,0.0015598834,0.0016217348,1,0,1,0,1,0
842748000,842668000,1310988,0.00043492252,-0.0022332182,0.0011004402,0.34906584,1.7924557e-07,1.7922515e-07,3.9362726e-07,1310988,0.015009638,0.007083345,-0.13998197,0.4,0.001334309,0.0013355726,0.00078123936,197644,0.0035192375,-0.001504347,0.00016613452,0.5,0.00110072,0.0013285221,0.001427602,1,0,1,0,1,0
842796000,842716000,1310988,0.00043109263,-0.0022317946,0.0011003192,0.34906584,1.7943223e-07,1.7940296e-07,3.9401107e-07,1310988,0.014357819,0.005324458,-0.14083345,0.4,0.0013155104,0.0013181107,0.00078123936,197644,0.0036309543,-0.0016322326,0.00023305858,0.5,0.0011006406,0.0013284422,0.0014275791,1,0,1,0,1,0
843004000,842924000,1310988,0.00042691242,-0.0022311036,0.0010999278,0.34906584,1.8091903e-07,1.8087887e-07,3.956742e-07,1310988,0.014112208,0.003555966,-0.14181346,0.4,0.0013004213,0.0013045659,0.00078123936,197644,0.0035030067,-0.0010612817,0.0002257155,0.5,0.0007959448,0.0011222024,0.0012602853,1,0,1,0,1,0
843212000,843132000,1310988,0.00042275785,-0.0022307357,0.0010992261,0.34906584,1.8241757e-07,1.8236452e-07,3.9733544e-07,1310988,0.0141525045,0.001970672,-0.143197,0.4,0.0012880086,0.0012937557,0.00078123936,197644,0.003014203,-0.0013099001,0.00028539877,0.5,0.0006953528,0.001058939,0.0012102468,1,0,1,0,1,0
843420000,843340000,1310988,0.00041914807,-0.0022297867,0.0010981709,0.34906584,1.8392073e-07,1.8385266e-07,3.989927e-07,1310988,0.014027079,0.0007377644,-0.14433296,0.4,0.0012775527,0.0012848973,0.00078123936,197644,0.0032752245,-0.0016624983,0.00043033954,0.5,0.0006447362,0.0010277407,0.0011869172,1,0,1,0,1,0
843628000,843548000,1310988,0.00041527426,-0.0022294135,0.0010968013,0.34906584,1.8541749e-07,1.8533099e-07,4.0063853e-07,1310988,0.014030313,-0.00039962164,-0.14482428,0.4,0.001268533,0.0012773358,0.00078123936,197644,0.0033160518,-0.0019165514,0.00036212456,0.5,0.0006138512,0.001008629,0.0011740021,1,0,1,0,1,0
844004000,843924000,1310988,0.00041157508,-0.0022297744,0.0010951436,0.34906584,1.8817698e-07,1.8806055e-07,4.0358404e-07,1310988,0.014342034,-0.0012847398,-0.14557076,0.4,0.0012596002,0.0012697018,0.00078123936,197644,0.0035887223,-0.0022555175,0.0002927442,0.5,0.00058331207,0.0009894933,0.0011611679,1,0,1,0,1,0
844412000,844332000,1310988,0.00040805497,-0.0022300694,0.0010933946,0.34906584,1.910828e-07,1.9092725e-07,4.067299e-07,1310988,0.014658825,-0.0019860014,-0.14654134,0.4,0.0012508834,0.0012624603,0.00078123936,197644,0.003627861,-0.0024859796,0.00043563923,0.5,0.0005611106,0.0009774924,0.0011529084,1,0,1,0,1,0
844620000,844540000,1310988,0.00040428995,-0.002229095,0.001090859,0.34906584,1.9240241e-07,1.9221048e-07,4.0827436e-07,1310988,0.015023016,-0.0026515357,-0.14788283,0.4,0.0012435508,0.0012566886,0.00078123936,197644,0.003838663,-0.002533025,0.00049791415,0.5,0.00055538205,0.0009749767,0.0011510181,1,0,1,0,1,0
844828000,844748000,1310988,0.00040115966,-0.0022292591,0.0010891834,0.34906584,1.9369713e-07,1.9347002e-07,4.09789e-07,1310988,0.015549917,-0.003222067,-0.14948364,0.4,0.0012371098,0.0012517859,0.00078123936,197644,0.0037243112,-0.0025705162,0.0005495701,0.5,0.0005479198,0.0009720574,0.0011486945,1,0,1,0,1,0
845036000,844956000,1310988,0.0003988075,-0.0022298517,0.0010876516,0.34906584,1.949594e-07,1.94698e-07,4.1127345e-07,1310988,0.016176749,-0.003766383,-0.15110253,0.4,0.0012313747,0.0012476128,0.00078123936,197644,0.0037695644,-0.002785014,0.0006418565,0.5,0.0005412075,0.0009697038,0.0011468987,1,0,1,0,1,0
845396000,845316000,1310988,0.0003987301,-0.0022310577,0.0010872607,0.34906584,1.972527e-07,1.9695075e-07,4.1386724e-07,1310988,0.016932094,-0.0040409216,-0.15273708,0.4,0.0012256494,0.0012436914,0.00078123936,197644,0.004157912,-0.0028837193,0.0006584306,0.5,0.00053164025,0.0009669641,0.0011443953,1,0,1,0,1,0
845604000,845524000,1310988,0.00039971154,-0.0022322831,0.0010885773,0.34906584,1.9831035e-07,1.9796785e-07,4.15231e-07,1310988,0.01757648,-0.0041419854,-0.15429431,0.4,0.0012205323,0.0012404656,0.00078123936,197644,0.003979814,-0.00283135,0.0007154456,0.5,0.0005267723,0.0009658265,0.0011430576,1,0,1,0,1,0
845820000,845740000,1310988,0.00039927085,-0.0022342363,0.0010890425,0.34906584,1.9937849e-07,1.9899471e-07,4.1662122e-07,1310988,0.018136801,-0.0042440556,-0.15547292,0.4,0.0012157726,0.0012377076,0.00078123936,197644,0.003952843,-0.0027513253,0.0006823824,0.5,0.0005221442,0.0009649221,0.0011420442,1,0,1,0,1,0
846020000,845940000,1310988,0.000403006,-0.0022360664,0.0010918569,0.34906584,2.0027251e-07,1.9984617e-07,4.1784983e-07,1310988,0.019030103,-0.0043383245,-0.1574827,0.4,0.0012113634,0.0012353603,0.00078123936,197644,0.004077811,-0.0028001952,0.0006237928,0.5,0.0005177263,0.00096415705,0.0011412023,1,0,1,0,1,0
846228000,846148000,1310988,0.00040524648,-0.0022359514,0.0010931318,0.34906584,2.0120682e-07,2.0072832e-07,4.1899304e-07,1310988,0.019750223,-0.0045015565,-0.1593585,0.4,0.0012071445,0.0012328164,0.00078123936,197644,0.0040779375,-0.002800258,0.0006238315,0.5,0.0005177263,0.00096415705,0.0011412023,1,0,1,0,1,0
846612000,846532000,1310988,0.00041054157,-0.002236921,0.0010964173,0.34906584,2.0325035e-07,2.0269505e-07,4.2130702e-07,1310988,0.020549713,-0.0046048844,-0.1614312,0.4,0.0012026847,0.0012301523,0.00078123936,197644,0.0040779375,-0.002800258,0.0006238315,0.5,0.0005177263,0.00096415705,0.0011412023,1,0,1,0,1,0
847004000,846924000,1310988,0.00041985585,-0.0022371567,0.0011025235,0.34906584,2.0502618e-07,2.0436208e-07,4.235439e-07,1310988,0.021252885,-0.0046094335,-0.1633419,0.4,0.0011980598,0.0012278078,0.00078123936,197644,0.0040779375,-0.002800258,0.0006238315,0.5,0.0005177263,0.00096415705,0.0011412023,1,0,1,0,1,0
847220000,847140000,1310988,0.00042498572,-0.002239008,0.0011069695,0.34906584,2.0539102e-07,2.0460874e-07,4.2447965e-07,1310988,0.022166464,-0.0047318335,-0.16556774,0.4,0.0011938304,0.0012261173,0.00078123936,197644,0.0040779375,-0.002800258,0.0006238315,0.5,0.0005177263,0.00096415705,0.0011412023,1,0,1,0,1,0
847428000,847348000,1310988,0.00042994096,-0.002238287,0.0011095448,0.34906584,2.0568159e-07,2.0477185e-07,4.2535964e-07,1310988,0.023099862,-0.004975986,-0.16802126,0.4,0.0011898811,0.0012246968,0.00078123936,197644,0.0040779375,-0.002800258,0.0006238315,0.5,0.0005177263,0.00096415705,0.0011412023,1,0,1,0,1,0
847636000,847556000,1310988,0.00043470025,-0.0022388126,0.001112622,0.34906584,2.0594138e-07,2.0489342e-07,4.2624134e-07,1310988,0.023718188,-0.005103771,-0.16964847,0.4,0.0011861165,0.0012234875,0.00078123936,197644,0.0040779375,-0.002800258,0.0006238315,0.5,0.0005177263,0.00096415705,0.0011412023,1,0,1,0,1,0
847996000,847916000,1310988,0.0004415923,-0.002239983,0.0011178305,0.34906584,2.0706533e-07,2.0584037e-07,4.2812812e-07,1310988,0.024451626,-0.005233997,-0.17160897,0.4,0.0011822013,0.0012222242,0.00078123936,197644,0.0040779375,-0.002800258,0.0006238315,0.5,0.0005177263,0.00096415705,0.0011412023,1,0,1,0,1,0
848204000,848124000,1310988,0.00045069758,-0.0022395393,0.0011238485,0.34906584,2.0698855e-07,2.0557684e-07,4.2890528e-07,1310988,0.025173405,-0.005394976,-0.17363049,0.4,0.0011786321,0.0012213036,0.00078123936,197644,0.0040779375,-0.002800258,0.0006238315,0.5,0.0005177263,0.00096415705,0.0011412023,1,0,1,0,1,0
848412000,848332000,1310988,0.00045966136,-0.0022418518,0.0011303183,0.34906584,2.0690604e-07,2.0530001e-07,4.2969236e-07,1310988,0.025762727,-0.0055097085,-0.17529829,0.4,0.0011752045,0.0012204774,0.00078123936,197644,0.0040779375,-0.002800258,0.0006238315,0.5,0.0005177263,0.00096415705,0.0011412023,1,0,1,0,1,0
848620000,848540000,1310988,0.00046532426,-0.0022422818,0.0011334593,0.34906584,2.0679788e-07,2.049898e-07,4.304834e-07,1310988,0.026249478,-0.0056661586,-0.1766959,0.4,0.0011719884,0.0012197333,0.00078123936,197644,0.0040779375,-0.002800258,0.0006238315,0.5,0.0005177263,0.00096415705,0.0011412023,1,0,1,0,1,0
848828000,848748000,1310988,0.0004706879,-0.0022418355,0.0011368593,0.34906584,2.0665651e-07,2.046385e-07,4.3127582e-07,1310988,0.026816005,-0.005839083,-0.17831735,0.4,0.0011688875,0.0012190415,0.00078123936,197644,0.0040779375,-0.002800258,0.0006238315,0.5,0.0005177263,0.00096415705,0.0011412023,1,0,1,0,1,0
849204000,849124000,1310988,0.0004770173,-0.0022432338,0.0011416768,0.34906584,2.0741543e-07,2.0514773e-07,4.331812e-07,1310988,0.027222166,-0.0059443493,-0.17958076,0.4,0.0011656061,0.0012182151,0.00078123936,197644,0.0040779375,-0.002800258,0.0006238315,0.5,0.0005177263,0.00096415705,0.0011412023,1,0,1,0,1,0
849612000,849532000,1310988,0.0004835396,-0.0022464914,0.001146369,0.34906584,2.0793854e-07,2.0537115e-07,4.35124e-07,1310988,0.027667535,-0.006080491,-0.18105693,0.4,0.0011621594,0.0012173143,0.00078123936,197644,0.0040779375,-0.002800258,0.0006238315,0.5,0.0005177263,0.00096415705,0.0011412023,1,0,1,0,1,0
849820000,849740000,1310988,0.0004907592,-0.0022465144,0.0011504295,0.34906584,2.0704015e-07,2.0416304e-07,4.3565697e-07,1310988,0.028003475,-0.006225288,-0.18224378,0.4,0.0011591137,0.001216644,0.00078123936,197644,0.0040779375,-0.002800258,0.0006238315,0.5,0.0005177263,0.00096415705,0.0011412023,1,0,1,0,1,0
850028000,849948000,1310988,0.00049806765,-0.002247109,0.0011551492,0.34906584,2.0624466e-07,2.0306729e-07,4.362387e-07,1310988,0.028371796,-0.0063663675,-0.18354213,0.4,0.0011563181,0.0012160041,0.00078123936,197644,0.0040779375,-0.002800258,0.0006238315,0.5,0.0005177263,0.00096415705,0.0011412023,1,0,1,0,1,0
850236000,850156000,1310988,0.0005029706,-0.0022482625,0.0011590987,0.34906584,2.0551185e-07,2.0204158e-07,4.368572e-07,1310988,0.02870565,-0.00646461,-0.18469825,0.4,0.0011536382,0.0012153763,0.00078123936,197644,0.0040779375,-0.002800258,0.0006238315,0.5,0.0005177263,0.00096415705,0.0011412023,1,0,1,0,1,0
850804000,850724000,1310988,0.00051119726,-0.0022598605,0.0011657121,0.34906584,2.0491238e-07,2.0074818e-07,4.3898046e-07,1310988,0.029074956,-0.0065532634,-0.18620592,0.4,0.0011485155,0.0012140995,0.00078123936,197644,0.0040779375,-0.002800258,0.0006238315,0.5,0.0005177263,0.00096415705,0.0011412023,1,0,1,0,1,0
851220000,851140000,1310988,0.0005280637,-0.002294528,0.0011850363,0.34906584,2.0412449e-07,1.9896305e-07,4.398646e-07,1310988,0.029304652,-0.006322922,-0.18750483,0.4,0.0011445942,0.0012131248,0.00078123936,197644,0.0040779375,-0.002800258,0.0006238315,0.5,0.0005177263,0.00096415705,0.0011412023,1,0,1,0,1,0
851460000,851380000,1310988,0.00054202054,-0.0023180149,0.0012026934,0.34906584,2.0410764e-07,1.9837194e-07,4.4039393e-07,1310988,0.029443856,-0.0060582766,-0.18807097,0.4,0.001141498,0.001210672,0.00078123936,197644,0.0047269072,-0.0031486491,-0.00031868764,0.5,0.0003832089,0.0006682819,0.0007792393,1,0,1,0,1,0
852212000,852132000,1310988,0.0006035517,-0.0023547118,0.0012748648,0.34906584,2.0628035e-07,1.9808792e-07,4.4305014e-07,1310988,0.02958781,-0.005217372,-0.189395,0.4,0.0011380888,0.0012082567,0.00078123936,197644,0.0057699173,-0.0032118899,-0.0013611756,0.5,0.000229268,0.0004997395,0.0006091214,1,0,1,0,1,0
852628000,852548000,1310988,0.00066541735,-0.0023667791,0.0013322192,0.34906584,2.0617976e-07,1.9510009e-07,4.439119e-07,1310988,0.02958203,-0.0050215153,-0.18913567,0.4,0.001136855,0.0012072023,0.00078123936,197644,0.006638381,-0.0035445218,-0.0017783629,0.5,0.00020265458,0.00047871264,0.00059330196,1,0,1,0,1,0
853196000,853116000,1310988,0.0007204138,-0.0023496056,0.0013636788,0.34906584,2.0686555e-07,1.9326896e-07,4.469857e-07,1310988,0.029835848,-0.005400488,-0.18780974,0.4,0.0011351103,0.001206239,0.00078123936,197644,0.006822672,-0.003511314,-0.0017225215,0.5,0.00018057738,0.00045885477,0.0005755228,1,0,1,0,1,0
853404000,853324000,1310988,0.00074012973,-0.0023428395,0.0013714066,0.34906584,2.062491e-07,1.9166502e-07,4.4820507e-07,1310988,0.03005933,-0.0056514754,-0.18634447,0.4,0.0011339828,0.0012058032,0.00078123936,197644,0.0068782037,-0.0034706995,-0.0016476567,0.5,0.0001748293,0.00045315336,0.00056831655,1,0,1,0,1,0
853612000,853532000,1310988,0.00075376756,-0.002335988,0.0013758618,0.34906584,2.0553951e-07,1.9018555e-07,4.4954342e-07,1310988,0.030329604,-0.005871086,-0.18488891,0.4,0.001132698,0.0012053811,0.00078123936,197644,0.0069290497,-0.003430769,-0.0016143185,0.5,0.00017022446,0.00044860787,0.0005630526,1,0,1,0,1,0
853820000,853740000,1310988,0.0007618143,-0.0023260429,0.001377758,0.34906584,2.047442e-07,1.888241e-07,4.509789e-07,1310988,0.030665437,-0.0060584517,-0.18355566,0.4,0.0011312289,0.0012049761,0.00078123936,197644,0.0069686444,-0.00343177,-0.0015110587,0.5,0.00016753637,0.0004460009,0.0005597565,1,0,1,0,1,0
854028000,853948000,1310988,0.00076704944,-0.0023161834,0.0013794196,0.34906584,2.0381472e-07,1.8755983e-07,4.524703e-07,1310988,0.031008696,-0.00620905,-0.18223958,0.4,0.0011295738,0.0012045484,0.00078123936,197644,0.0068483213,-0.0032741104,-0.0016073607,0.5,0.00016395004,0.00044264103,0.00055449555,1,0,1,0,1,0
854404000,854324000,1310988,0.000766831,-0.002302668,0.0013796942,0.34906584,2.0340106e-07,1.8719055e-07,4.553401e-07,1310988,0.031447396,-0.00631219,-0.18094812,0.4,0.0011273712,0.0012039959,0.00078123936,197644,0.006752322,-0.003253067,-0.001595712,0.5,0.00015875658,0.00043822196,0.0005439883,1,0,1,0,1,0
854812000,854732000,1310988,0.0007618144,-0.0022896512,0.0013794163,0.34906584,2.0232368e-07,1.8659577e-07,4.5847796e-07,1310988,0.03215841,-0.0064059347,-0.17882048,0.4,0.0011246806,0.0012032882,0.00078123936,197644,0.006757162,-0.0033214893,-0.0014058289,0.5,0.00015357736,0.00043431186,0.0005311549,1,0,1,0,1,0
855020000,854940000,1310988,0.00075746665,-0.0022775328,0.0013797495,0.34906584,1.9992402e-07,1.8476968e-07,4.6006608e-07,1310988,0.03278131,-0.0064711524,-0.17699991,0.4,0.0011221124,0.0012026194,0.00078123936,197644,0.0067157047,-0.0033299457,-0.0013435245,0.5,0.00015129092,0.00043264776,0.00052528,1,0,1,0,1,0
855220000,855140000,1310988,0.00075194275,-0.0022680454,0.0013797238,0.34906584,1.9768056e-07,1.8317203e-07,4.61588e-07,1310988,0.033351377,-0.0065068817,-0.17533502,0.4,0.0011196067,0.0012019665,0.00078123936,197644,0.0067473548,-0.0034408339,-0.0012286702,0.5,0.00014921883,0.00043113725,0.0005199379,1,0,1,0,1,0
855436000,855356000,1310988,0.0007412819,-0.0022628543,0.0013797638,0.34906584,1.9561104e-07,1.8189594e-07,4.630608e-07,1310988,0.033918545,-0.0064909393,-0.17353791,0.4,0.0011171544,0.001201302,0.00078123936,197644,0.0067473548,-0.0034408339,-0.0012286702,0.5,0.00014921883,0.00043113725,0.0005199379,1,0,1,0,1,0
856116000,856036000,1310988,0.0007193457,-0.0021366032,0.0013917853,0.34906584,1.8933966e-07,1.7921467e-07,4.6721922e-07,1310988,0.03392266,-0.006487171,-0.17353776,0.4,0.0011170704,0.0012012376,0.00078124163,197644,0.0066428436,-0.0036670524,0.00029499133,0.5,0.00013106618,0.00032263066,0.00035452354,1,0,1,0,1,0
856260000,856180000,1310988,0.00067151693,-0.002056551,0.001419432,0.34906584,1.8404086e-07,1.7619884e-07,4.6729855e-07,1310988,0.033564255,-0.006701437,-0.17362073,0.4,0.0011169986,0.0012011341,0.0007812428,197644,0.0066855033,-0.0038654697,0.0015888214,0.5,0.00012438024,0.0002963685,0.00030584194,1,0,1,0,1,0
856420000,856340000,1310988,0.0006025182,-0.0019962024,0.0014607938,0.34906584,1.8010199e-07,1.7382115e-07,4.673032e-07,1310988,0.032760397,-0.007673416,-0.17373252,0.4,0.0011162489,0.0012001873,0.00078123936,197644,0.0067419535,-0.0044918456,0.0023455392,0.5,0.00011934018,0.0002803995,0.00027563274,1,0,1,0,1,0
856628000,856548000,1310988,0.0005332994,-0.0019648543,0.0014983573,0.34906584,1.7783105e-07,1.722985e-07,4.6793528e-07,1310988,0.03205571,-0.009294943,-0.17353106,0.4,0.0011143434,0.0011980481,0.00078123936,197644,0.0069254464,-0.004955437,0.0029279953,0.5,0.00011513366,0.00026946547,0.00025580707,1,0,1,0,1,0
857004000,856924000,1310988,0.00047458982,-0.001954517,0.0015227008,0.34906584,1.774435e-07,1.7209553e-07,4.7020265e-07,1310988,0.031675644,-0.01170242,-0.17291361,0.4,0.0011089601,0.0011922341,0.00078123936,197644,0.007316603,-0.005715951,0.0038802945,0.5,0.000106007064,0.00025036582,0.00022355221,1,0,1,0,1,0
857404000,857324000,1310988,0.0004255052,-0.0019735834,0.001531054,0.34906584,1.7784623e-07,1.7234845e-07,4.731409e-07,1310988,0.032472495,-0.014450351,-0.17112598,0.4,0.0010987374,0.0011810925,0.00078123936,197644,0.007968117,-0.006478965,0.004619738,0.5,9.945509e-05,0.00024051974,0.00021213137,1,0,1,0,1,0
857620000,857540000,1310988,0.0003942489,-0.0020010897,0.0015325902,0.34906584,1.7748353e-07,1.7177396e-07,4.7476138e-07,1310988,0.03381242,-0.01638232,-0.16894831,0.4,0.0010871759,0.0011682963,0.00078123936,197644,0.008307566,-0.0069871712,0.0047626006,0.5,9.447714e-05,0.00023519697,0.00020831126,1,0,1,0,1,0
857828000,857748000,1310988,0.00037155478,-0.002025507,0.0015322153,0.34906584,1.7745278e-07,1.715554e-07,4.76267e-07,1310988,0.035211872,-0.017947208,-0.1671101,0.4,0.0010744832,0.0011536245,0.00078123936,197644,0.008312884,-0.0070939464,0.0049533374,0.5,8.9759764e-05,0.00023053004,0.00020469082,1,0,1,0,1,0
858036000,857956000,1310988,0.00036103014,-0.0020505919,0.0015322445,0.34906584,1.7765964e-07,1.7161366e-07,4.7760665e-07,1310988,0.03710448,-0.018565455,-0.16558431,0.4,0.0010607893,0.0011371735,0.00078123936,197644,0.008666966,-0.0074414457,0.004888794,0.5,8.5684485e-05,0.00022634226,0.00020132764,1,0,1,0,1,0
858396000,858316000,1310988,0.00036387306,-0.0020749273,0.0015405177,0.34906584,1.7904023e-07,1.7285487e-07,4.796206e-07,1310988,0.039120022,-0.017680002,-0.16425186,0.4,0.0010432965,0.001115412,0.00078123936,197644,0.0088961115,-0.0076082847,0.0047658184,0.5,8.024713e-05,0.00022039197,0.00019645436,1,0,1,0,1,0
858604000,858524000,1310988,0.00036624775,-0.0020941056,0.001547579,0.34906584,1.794097e-07,1.7309968e-07,4.8031853e-07,1310988,0.040951006,-0.016987296,-0.16331969,0.4,0.0010262214,0.0010946158,0.00078123936,197644,0.00915184,-0.007814635,0.0045310394,0.5,7.747372e-05,0.00021751426,0.00019381153,1,0,1,0,1,0
858812000,858732000,1310988,0.00037734627,-0.0021085483,0.0015628545,0.34906584,1.7993261e-07,1.7348569e-07,4.809125e-07,1310988,0.0421615,-0.015125068,-0.16248809,0.4,0.0010096518,0.001075162,0.00078123936,197644,0.009240327,-0.0078159245,0.004488595,0.5,7.497155e-05,0.00021506062,0.00019128199,1,0,1,0,1,0
859020000,858940000,1310988,0.00038530378,-0.0021297957,0.0015766978,0.34906584,1.8058373e-07,1.7397802e-07,4.813984e-07,1310988,0.044442203,-0.01364927,-0.16141294,0.4,0.000993681,0.0010572186,0.00078123936,197644,0.009778826,-0.008185096,0.004065905,0.5,7.259476e-05,0.00021287006,0.00018844819,1,0,1,0,1,0
859220000,859140000,1310988,0.00038613335,-0.0021275864,0.0015727638,0.34906584,1.82154e-07,1.755337e-07,4.828694e-07,1310988,0.044432428,-0.013689347,-0.16141379,0.4,0.0009935959,0.0010568654,0.0007812398,197644,0.009974384,-0.008600518,0.0031563775,0.5,6.908258e-05,0.00021048209,0.00017826917,1,0,1,0,1,0
859604000,859524000,1310988,0.0004141672,-0.002156219,0.001616203,0.34906584,1.8320151e-07,1.761014e-07,4.827239e-07,1310988,0.045099314,-0.012724196,-0.16135305,0.4,0.0009913301,0.0010538048,0.00078123936,197644,0.010319612,-0.009023906,0.0028015452,0.5,6.4793385e-05,0.0002071818,0.00016747575,1,0,1,0,1,0
860012000,859932000,1310988,0.0004386272,-0.0021623282,0.0016430771,0.34906584,1.851009e-07,1.776087e-07,4.8419497e-07,1310988,0.04549894,-0.010983571,-0.16100506,0.4,0.0009852216,0.001046911,0.00078123936,197644,0.010572285,-0.009331554,0.0024483562,0.5,6.213842e-05,0.00020463325,0.0001624646,1,0,1,0,1,0
860220000,860140000,1310988,0.0004589298,-0.00216816,0.0016645656,0.34906584,1.8554073e-07,1.7765898e-07,4.8457787e-07,1310988,0.045896024,-0.009313174,-0.16060896,0.4,0.0009778145,0.0010391612,0.00078123936,197644,0.0107382545,-0.009422936,0.0023274487,0.5,6.0876173e-05,0.0002033554,0.00016060023,1,0,1,0,1,0
860428000,860348000,1310988,0.00047521817,-0.0021683224,0.0016784922,0.34906584,1.8604116e-07,1.7779293e-07,4.853083e-07,1310988,0.0458679,-0.007859187,-0.16008192,0.4,0.000969166,0.0010303253,0.00078123936,197644,0.010792503,-0.009453586,0.002319783,0.5,5.9789305e-05,0.00020227286,0.00015923579,1,0,1,0,1,0
860628000,860548000,1310988,0.0004891404,-0.0021715628,0.0016891864,0.34906584,1.8651684e-07,1.7793924e-07,4.862281e-07,1310988,0.046118684,-0.00649721,-0.15972042,0.4,0.0009595661,0.0010206016,0.00078123936,197644,0.010928479,-0.009464103,0.0022259636,0.5,5.8818925e-05,0.00020130422,0.00015814728,1,0,1,0,1,0
860996000,860916000,1310988,0.00050293485,-0.0021735183,0.0016960395,0.34906584,1.8803607e-07,1.7916155e-07,4.8862825e-07,1310988,0.04624084,-0.0050763567,-0.15836594,0.4,0.0009463774,0.0010069502,0.00078123936,197644,0.010930777,-0.009540201,0.002127163,0.5,5.7457677e-05,0.0001998478,0.00015674505,1,0,1,0,1,0
861204000,861124000,1310988,0.000514326,-0.0021732582,0.001700795,0.34906584,1.8836363e-07,1.7924384e-07,4.89942e-07,1310988,0.04617002,-0.0038733266,-0.15767805,0.4,0.00093321735,0.0009933548,0.00078123936,197644,0.010936723,-0.009553271,0.0020628087,0.5,5.6739038e-05,0.0001990714,0.00015606477,1,0,1,0,1,0
861412000,861332000,1310988,0.00052128563,-0.002173903,0.001702513,0.34906584,1.8872298e-07,1.7941551e-07,4.913357e-07,1310988,0.04620946,-0.0031169697,-0.15662824,0.4,0.0009201753,0.0009797601,0.00078123936,197644,0.0109875295,-0.0095660025,0.0020039172,0.5,5.6082048e-05,0.00019838868,0.00015546904,1,0,1,0,1,0
861620000,861540000,1310988,0.0005298405,-0.0021777304,0.0017043921,0.34906584,1.890993e-07,1.7965455e-07,4.9277804e-07,1310988,0.04651072,-0.0022106934,-0.15578109,0.4,0.00090736535,0.00096627435,0.00078123936,197644,0.0109906215,-0.009563359,0.002001998,0.5,5.5473723e-05,0.00019777678,0.00015493392,1,0,1,0,1,0
861828000,861748000,1310988,0.0005347318,-0.0021788985,0.0017049066,0.34906584,1.8948333e-07,1.7994724e-07,4.942481e-07,1310988,0.046602562,-0.0016696538,-0.15469965,0.4,0.00089489605,0.0009530171,0.00078123936,197644,0.01101507,-0.009558617,0.0019707417,0.5,5.491263e-05,0.00019721547,0.0001544443,1,0,1,0,1,0
862204000,862124000,1310988,0.00053965865,-0.0021810844,0.0017066154,0.34906584,1.9087909e-07,1.8132157e-07,4.9697184e-07,1310988,0.046718013,-0.0010518406,-0.153383,0.4,0.0008807613,0.0009377288,0.00078123936,197644,0.010968553,-0.009451541,0.0019890713,0.5,5.4068074e-05,0.00019639009,0.00015369718,1,0,1,0,1,0
862604000,862524000,1310988,0.0005439924,-0.0021825288,0.0017069482,0.34906584,1.9217444e-07,1.8265523e-07,4.9987096e-07,1310988,0.046818275,-0.0005242932,-0.15167794,0.4,0.0008655986,0.00092118036,0.00078123936,197644,0.010932256,-0.00942717,0.0019115917,0.5,5.3300282e-05,0.00019568621,0.0001530127,1,0,1,0,1,0
862812000,862732000,1310988,0.00054958335,-0.002183225,0.001706436,0.34906584,1.921411e-07,1.8266967e-07,5.0133735e-07,1310988,0.046835307,3.9543072e-05,-0.14975709,0.4,0.0008524516,0.00090681814,0.00078123936,197644,0.010929111,-0.009425449,0.0018931361,0.5,5.2863496e-05,0.00019529738,0.00015262034,1,0,1,0,1,0
863020000,862940000,1310988,0.00055181544,-0.0021859086,0.0017054868,0.34906584,1.9225813e-07,1.828478e-07,5.0254107e-07,1310988,0.047038227,0.0003111837,-0.14831474,0.4,0.0008409375,0.00089417264,0.00078123936,197644,0.010914842,-0.00941393,0.0018773926,0.5,5.2731597e-05,0.00019518365,0.0001524976,1,0,1,0,1,0
863236000,863156000,1310988,0.0005547494,-0.0021866963,0.00170689,0.34906584,1.9252059e-07,1.8318488e-07,5.0366043e-07,1310988,0.047081698,0.00062803924,-0.14680937,0.4,0.00083071564,0.0008828922,0.00078123936,197644,0.010914842,-0.00941393,0.0018773926,0.5,5.2731597e-05,0.00019518365,0.0001524976,1,0,1,0,1,0
863596000,863516000,1310988,0.0005544433,-0.0021881878,0.0017063878,0.34906584,1.9370123e-07,1.84487e-07,5.054859e-07,1310988,0.047167357,0.0006573113,-0.14474863,0.4,0.0008206778,0.00087173167,0.00078123936,197644,0.010914842,-0.00941393,0.0018773926,0.5,5.2731597e-05,0.00019518365,0.0001524976,1,0,1,0,1,0
863804000,863724000,1310988,0.00055887224,-0.0021920283,0.0017049978,0.34906584,1.9377639e-07,1.846761e-07,5.0647606e-07,1310988,0.04741524,0.0010621232,-0.14256333,0.4,0.00081209955,0.0008622128,0.00078123936,197644,0.010914842,-0.00941393,0.0018773926,0.5,5.2731597e-05,0.00019518365,0.0001524976,1,0,1,0,1,0
864012000,863932000,1310988,0.0005596947,-0.0021915135,0.0017040048,0.34906584,1.9391454e-07,1.8493286e-07,5.074424e-07,1310988,0.047345567,0.0011696798,-0.14066926,0.4,0.00080472144,0.0008540142,0.00078123936,197644,0.010914842,-0.00941393,0.0018773926,0.5,5.2731597e-05,0.00019518365,0.0001524976,1,0,1,0,1,0
864220000,864140000,1310988,0.0005593512,-0.0021916975,0.0017045125,0.34906584,1.9409356e-07,1.8523536e-07,5.083852e-07,1310988,0.047336254,0.0012008974,-0.13865322,0.4,0.00079833873,0.0008469141,0.00078123936,197644,0.010914842,-0.00941393,0.0018773926,0.5,5.2731597e-05,0.00019518365,0.0001524976,1,0,1,0,1,0
864428000,864348000,1310988,0.00056209374,-0.0021916393,0.0017035655,0.34906584,1.94294e-07,1.8556253e-07,5.0930356e-07,1310988,0.047299232,0.0014261102,-0.13679467,0.4,0.0007928124,0.0008407582,0.00078123936,197644,0.010914842,-0.00941393,0.0018773926,0.5,5.2731597e-05,0.00019518365,0.0001524976,1,0,1,0,1,0
864804000,864724000,1310988,0.0005624649,-0.0021920945,0.0017018567,0.34906584,1.9552022e-07,1.8695887e-07,5.1103234e-07,1310988,0.047292534,0.0014995977,-0.13457054,0.4,0.00078759226,0.0008349007,0.00078123936,197644,0.010914842,-0.00941393,0.0018773926,0.5,5.2731597e-05,0.00019518365,0.0001524976,1,0,1,0,1,0
865204000,865124000,1310988,0.0005618003,-0.0021932158,0.0017055905,0.34906584,1.9659356e-07,1.8823627e-07,5.128764e-07,1310988,0.047337513,0.0015185435,-0.13234396,0.4,0.0007828493,0.0008295674,0.00078123936,197644,0.010914842,-0.00941393,0.0018773926,0.5,5.2731597e-05,0.00019518365,0.0001524976,1,0,1,0,1,0
865420000,865340000,1310988,0.0005627191,-0.0021946533,0.0017036747,0.34906584,1.9632343e-07,1.881512e-07,5.1373263e-07,1310988,0.047372334,0.0016097744,-0.1300787,0.4,0.00078123936,0.0008253023,0.00078123936,197644,0.010914842,-0.00941393,0.0018773926,0.5,5.2731597e-05,0.00019518365,0.0001524976,1,0,1,0,1,0
865628000,865548000,1310988,0.00056023337,-0.0021950065,0.0017031248,0.34906584,1.960843e-07,1.8808846e-07,5.145035e-07,1310988,0.04736879,0.0015495395,-0.12802327,0.4,0.00078123936,0.0008218684,0.00078123936,197644,0.010914842,-0.00941393,0.0018773926,0.5,5.2731597e-05,0.00019518365,0.0001524976,1,0,1,0,1,0
865836000,865756000,1310988,0.0005562673,-0.0021946977,0.0017024331,0.34906584,1.9590466e-07,1.8807921e-07,5.152525e-07,1310988,0.047343053,0.0014359396,-0.1262399,0.4,0.00078123936,0.0008190939,0.00078123936,197644,0.010914842,-0.00941393,0.0018773926,0.5,5.2731597e-05,0.00019518365,0.0001524976,1,0,1,0,1,0
866196000,866116000,1310988,0.0005532997,-0.00219464,0.0017039392,0.34906584,1.9663601e-07,1.8901284e-07,5.1659634e-07,1310988,0.04733174,0.0013758666,-0.12431773,0.4,0.00078123936,0.0008167352,0.00078123936,197644,0.010914842,-0.00941393,0.0018773926,0.5,5.2731597e-05,0.00019518365,0.0001524976,1,1,1,0,1,0
866404000,866324000,1310988,0.00055295654,-0.0021953876,0.0017043719,0.34906584,1.9624707e-07,1.8880831e-07,5.172764e-07,1310988,0.04733804,0.0013991421,-0.1225057,0.4,0.00078123936,0.00081491185,0.00078123936,197644,0.010914842,-0.00941393,0.0018773926,0.5,5.2731597e-05,0.00019518365,0.0001524976,1,1,1,0,1,0
866612000,866532000,1310988,0.00055092375,-0.0021968964,0.0017013164,0.34906584,1.9591204e-07,1.8865056e-07,5.179362e-07,1310988,0.04736004,0.0013829807,-0.1209126,0.4,0.00078123936,0.0008135008,0.00078123936,197644,0.010914842,-0.00941393,0.0018773926,0.5,5.2731597e-05,0.00019518365,0.0001524976,1,1,1,0,1,0
866820000,866740000,1310988,0.0005498378,-0.0021987618,0.0017015832,0.34906584,1.9560807e-07,1.885179e-07,5.185778e-07,1310988,0.04738899,0.0013828932,-0.11933452,0.4,0.00078123936,0.0008124159,0.00078123936,197644,0.010914842,-0.00941393,0.0018773926,0.5,5.2731597e-05,0.00019518365,0.0001524976,1,1,1,0,1,0
867028000,866948000,1310988,0.0005499289,-0.00220332,0.001700837,0.34906584,1.953206e-07,1.8839543e-07,5.195229e-07,1310988,0.047458302,0.0014129976,-0.11745386,0.4,0.00078123936,0.0008115966,0.00078123936,197644,0.010914842,-0.00941393,0.0018773926,0.5,5.2731597e-05,0.00019518365,0.0001524976,1,1,1,0,1,0
867404000,867324000,1310988,0.0005465925,-0.002203667,0.0016987433,0.34906584,1.9596332e-07,1.8924317e-07,5.204568e-07,1310988,0.047445893,0.0013975778,-0.11567361,0.4,0.00078123936,0.0008109779,0.00078123936,197644,0.010914842,-0.00941393,0.0018773926,0.5,5.2731597e-05,0.00019518365,0.0001524976,1,1,1,0,1,0
867812000,867732000,1310988,0.00054681324,-0.0022047283,0.0016967747,0.34906584,1.9639921e-07,1.8991022e-07,5.2189796e-07,1310988,0.047440164,0.001428202,-0.1138372,0.4,0.00078123936,0.0008105689,0.00078123936,197644,0.010914842,-0.00941393,0.0018773926,0.5,5.2731597e-05,0.00019518365,0.0001524976,1,1,1,0,1,0
868020000,867940000,1310988,0.00054485386,-0.0022052187,0.0016957725,0.34906584,1.9542112e-07,1.8913818e-07,5.2240784e-07,1310988,0.04743905,0.0014274688,-0.11280828,0.4,0.00078123936,0.0008102952,0.00078123936,197644,0.010914842,-0.00941393,0.0018773926,0.5,5.2731597e-05,0.00019518365,0.0001524976,1,1,1,0,1,0
868260000,868180000,1310988,0.0005425899,-0.002210129,0.0016933844,0.34906584,1.9482108e-07,1.8873251e-07,5.2278864e-07,1310988,0.047461897,0.0014348277,-0.11179103,0.4,0.0007812413,0.00081010646,0.00078123936,197644,0.010914842,-0.00941393,0.0018773926,0.5,5.2731597e-05,0.00019518365,0.0001524976,1,1,1,0,1,0
868716000,868636000,1310988,0.0005444412,-0.0022123505,0.0016901802,0.34906584,1.9605154e-07,1.901494e-07,5.240966e-07,1310988,0.047461443,0.0014602111,-0.110790536,0.4,0.00078125804,0.00080997555,0.00078123936,197644,0.010914842,-0.00941393,0.0018773926,0.5,5.2731597e-05,0.00019518365,0.0001524976,1,1,1,0,1,0
868796000,868716000,1310988,0.0005447826,-0.0022132667,0.0016888963,0.34906584,1.9390684e-07,1.8820415e-07,5.2426714e-07,1310988,0.047450844,0.0014733089,-0.10977519,0.4,0.00078123936,0.00080988096,0.00078123936,197644,0.010914842,-0.00941393,0.0018773926,0.5,5.2731597e-05,0.00019518365,0.0001524976,1,1,1,0,1,0
869420000,869340000,1310988,0.0005516392,-0.002217588,0.0016836281,0.34906584,1.9118868e-07,1.860268e-07,5.25851e-07,1310988,0.047421843,0.0014695914,-0.10826463,0.4,0.00078123936,0.00080955174,0.00078123936,197644,0.010914842,-0.00941393,0.0018773926,0.5,5.2731597e-05,0.00019518365,0.0001524976,1,1,1,0,1,0
870420000,870340000,1310988,0.00055884896,-0.0022093083,0.0016759714,0.34906584,1.9052301e-07,1.8593809e-07,5.2760316e-07,1310988,0.04748367,0.0014392114,-0.10743923,0.4,0.0007812401,0.00080873515,0.0007812405,197644,0.010914842,-0.00941393,0.0018773926,0.5,5.2731597e-05,0.00019518365,0.0001524976,1,1,1,0,1,0
871420000,871340000,1310988,0.00057651167,-0.0021960146,0.0016667931,0.34906584,1.8662979e-07,1.8277632e-07,5.2923497e-07,1310988,0.04763025,0.0012498107,-0.10801493,0.4,0.00078124105,0.00080667634,0.0007812405,197644,0.010914842,-0.00941393,0.0018773926,0.5,5.2731597e-05,0.00019518365,0.0001524976,1,1,1,0,1,0
872420000,872340000,1310988,0.00061021745,-0.0021848036,0.0016557717,0.34906584,1.8370221e-07,1.8046609e-07,5.299311e-07,1310988,0.047793027,0.0007473395,-0.108339444,0.4,0.00078125246,0.0008038922,0.00078124,197644,0.010914842,-0.00941393,0.0018773926,0.5,5.2731597e-05,0.00019518365,0.0001524976,1,1,1,0,1,0
873220000,873140000,1310988,0.00063886755,-0.002177032,0.0016516129,0.34906584,1.806562e-07,1.7789279e-07,5.30237e-07,1310988,0.047931045,0.00025864146,-0.109204,0.4,0.00078123936,0.0008009873,0.00078123936,197644,0.010914842,-0.00941393,0.0018773926,0.5,5.2731597e-05,0.00019518365,0.0001524976,1,1,1,0,1,0
873996000,873916000,1310988,0.000662247,-0.00217967,0.0016489342,0.34906584,1.782836e-07,1.7590932e-07,5.30087e-07,1310988,0.047895674,-0.00015889805,-0.11018773,0.4,0.00078123936,0.0007981278,0.00078123936,197644,0.010914842,-0.00941393,0.0018773926,0.5,5.2731597e-05,0.00019518365,0.0001524976,1,1,1,0,1,0
874620000,874540000,1310988,0.00068418734,-0.0021788785,0.0016452216,0.34906584,1.753574e-07,1.7330842e-07,5.3026764e-07,1310988,0.047927216,-0.000546273,-0.1114657,0.4,0.00078123936,0.00079542375,0.00078123936,197644,0.010914842,-0.00941393,0.0018773926,0.5,5.2731597e-05,0.00019518365,0.0001524976,1,1,1,0,1,0
875604000,875524000,1310988,0.0007154771,-0.0021899608,0.001644165,0.34906584,1.7488321e-07,1.7312463e-07,5.293265e-07,1310988,0.047759596,-0.0011252618,-0.11252178,0.4,0.00078123936,0.0007925442,0.00078123936,197644,0.010914842,-0.00941393,0.0018773926,0.5,5.2731597e-05,0.00019518365,0.0001524976,1,1,1,0,1,0
876020000,875940000,1310988,0.00074788043,-0.0021954025,0.0016393206,0.34906584,1.726399e-07,1.7103419e-07,5.2805194e-07,1310988,0.047681686,-0.0017398731,-0.11343492,0.4,0.00078123936,0.000790524,0.00078123936,197644,0.010914842,-0.00941393,0.0018773926,0.5,5.2731597e-05,0.00019518365,0.0001524976,1,1,1,0,1,0
876596000,876516000,1310988,0.00076478097,-0.0021920044,0.0016434658,0.34906584,1.716761e-07,1.7022269e-07,5.2457676e-07,1310988,0.047779463,-0.0019466706,-0.11445444,0.4,0.00078123936,0.0007863068,0.00078123936,197644,0.010945988,-0.008837858,0.0014138521,0.5,4.8893504e-05,0.00015725812,0.00012776264,1,1,1,0,1,0
877012000,876932000,1310988,0.00076537323,-0.0021858567,0.0016476695,0.34906584,1.6989162e-07,1.6852707e-07,5.2141604e-07,1310988,0.04787189,-0.0020245193,-0.11564975,0.4,0.00078123936,0.0007830353,0.00078123936,197644,0.010947155,-0.008756716,0.0014367164,0.5,4.4732715e-05,0.00013412416,0.00011130793,1,1,1,0,1,0
878012000,877932000,1310988,0.00076054153,-0.0021755158,0.0016519561,0.34906584,1.7075162e-07,1.6955082e-07,5.202313e-07,1310988,0.04803263,-0.0020356847,-0.11649038,0.4,0.00078124454,0.0007812441,0.00078124227,197644,0.01098456,-0.008503003,0.0015784258,0.5,3.9163497e-05,0.000115285075,9.743375e-05,1,1,1,0,1,0
879012000,878932000,1310988,0.0007337173,-0.0021650877,0.0016466958,0.34906584,1.686003e-07,1.6787055e-07,5.210167e-07,1310988,0.04829077,-0.0016600047,-0.11660478,0.4,0.00078123936,0.00078123936,0.00078124215,197644,0.011138017,-0.008605953,0.001665182,0.5,3.5458463e-05,0.0001066006,9.077247e-05,1,1,1,0,1,0
880012000,879932000,1310988,0.0006864147,-0.0021748515,0.0016650611,0.34906584,1.6743843e-07,1.67328e-07,5.1833115e-07,1310988,0.048327353,-0.001159251,-0.11693848,0.4,0.00078124227,0.00078124227,0.00078124227,197644,0.011264815,-0.008371841,0.0017364254,0.5,3.3132143e-05,0.000100904865,8.607455e-05,1,1,1,0,1,0
880812000,880732000,1310988,0.0006538903,-0.0021980368,0.0017016503,0.34906584,1.6681597e-07,1.6780108e-07,5.03901e-07,1310988,0.04847568,-0.001095807,-0.11808022,0.4,0.00078123936,0.00078123936,0.00078123936,197644,0.011395919,-0.008525681,0.0015114428,0.5,3.0800376e-05,8.4423285e-05,7.351112e-05,1,1,1,0,1,0
881812000,881732000,1310988,0.0006305602,-0.0022328822,0.001748219,0.34906584,1.6530532e-07,1.6832891e-07,4.906709e-07,1310988,0.04870232,-0.00086605526,-0.11823868,0.4,0.0007812404,0.00078123936,0.00078123936,197644,0.011626639,-0.008508796,0.0010772679,0.5,2.726417e-05,6.950399e-05,6.120412e-05,1,1,1,0,1,0
882812000,882732000,1310988,0.00061689917,-0.0022467244,0.0017523889,0.34906584,1.6473227e-07,1.6939043e-07,4.8903047e-07,1310988,0.04899598,-0.0007541658,-0.11769907,0.4,0.00078123994,0.00078123994,0.00078124047,197644,0.011913697,-0.008703024,0.0009443086,0.5,2.4998568e-05,6.333021e-05,5.5990284e-05,1,1,1,0,1,0
883812000,883732000,1310988,0.00060554844,-0.0022479952,0.0017487243,0.34906584,1.6529576e-07,1.706229e-07,4.926397e-07,1310988,0.049142763,-0.0006515649,-0.11842984,0.4,0.0007812434,0.0007812428,0.0007812428,197644,0.012033454,-0.008776505,0.0008987445,0.5,2.3526482e-05,6.0071965e-05,5.325062e-05,1,1,1,0,1,0
884812000,884732000,1310988,0.0005740737,-0.0022394885,0.0017486522,0.34906584,1.6240855e-07,1.6759175e-07,4.90455e-07,1310988,0.049232982,-0.0004935162,-0.118501745,0.4,0.00078123936,0.00078123936,0.00078123936,197644,0.012044626,-0.008803469,0.0008987738,0.5,2.3419883e-05,5.9854807e-05,5.3084084e-05,1,1,1,0,1,0
885812000,885732000,1310988,0.0005526525,-0.0022330615,0.0017470439,0.34906584,1.6428366e-07,1.6905115e-07,4.87546e-07,1310988,0.049278874,-0.0003566049,-0.11887204,0.4,0.0007812434,0.0007812434,0.00078124227,197644,0.012044626,-0.008803469,0.0008987738,0.5,2.3419883e-05,5.9854807e-05,5.3084084e-05,1,1,1,0,1,0
886812000,886732000,1310988,0.00053514005,-0.002223069,0.0017427565,0.34906584,1.6317226e-07,1.6727954e-07,4.842349e-07,1310988,0.04933502,-0.00022052364,-0.119305216,0.4,0.0007812428,0.0007812428,0.0007812428,197644,0.012044626,-0.008803469,0.0008987738,0.5,2.3419883e-05,5.9854807e-05,5.3084084e-05,1,1,1,0,1,0
887812000,887732000,1310988,0.00052303215,-0.0022190495,0.0017288518,0.34906584,1.627293e-07,1.6619911e-07,4.799742e-07,1310988,0.049311124,-0.0001330236,-0.11904589,0.4,0.00078123936,0.00078123936,0.0007812422,197644,0.012044626,-0.008803469,0.0008987738,0.5,2.3419883e-05,5.9854807e-05,5.3084084e-05,1,1,1,0,1,0
888812000,888732000,1310988,0.0005177637,-0.0022167545,0.0017221206,0.34906584,1.6415656e-07,1.671594e-07,4.772863e-07,1310988,0.049307827,-4.8278176e-05,-0.11948532,0.4,0.0007812434,0.00078124163,0.00078124163,197644,0.012044626,-0.008803469,0.0008987738,0.5,2.3419883e-05,5.9854807e-05,5.3084084e-05,1,1,1,0,1,0
889604000,889524000,1310988,0.00051570666,-0.0022255713,0.0017193233,0.34906584,1.617175e-07,1.6418478e-07,4.743449e-07,1310988,0.049223356,-0.00011136365,-0.118354745,0.4,0.00078123936,0.00078123936,0.00078123936,197644,0.012044626,-0.008803469,0.0008987738,0.5,2.3419883e-05,5.9854807e-05,5.3084084e-05,1,1,1,0,1,0
890604000,890524000,1310988,0.0005117188,-0.0022336484,0.0017091385,0.34906584,1.6178417e-07,1.6382808e-07,4.7070185e-07,1310988,0.049124427,-0.00012337243,-0.11745548,0.4,0.00078124396,0.0007812419,0.00078124,197644,0.012044626,-0.008803469,0.0008987738,0.5,2.3419883e-05,5.9854807e-05,5.3084084e-05,1,1,1,0,1,0
891604000,891524000,1310988,0.0005043761,-0.002246272,0.0016978851,0.34906584,1.6285388e-07,1.6458974e-07,4.6711818e-07,1310988,0.04899612,-9.7119155e-05,-0.116890796,0.4,0.0007812439,0.0007812428,0.0007812428,197644,0.012044626,-0.008803469,0.0008987738,0.5,2.3419883e-05,5.9854807e-05,5.3084084e-05,1,1,1,1,1,0
892604000,892524000,1310988,0.0004965522,-0.0022650454,0.0016850203,0.34906584,1.6232792e-07,1.6375375e-07,4.626694e-07,1310988,0.04882906,-6.047701e-05,-0.1164151,0.4,0.00078123936,0.00078123936,0.00078124227,197644,0.012044626,-0.008803469,0.0008987738,0.5,2.3419883e-05,5.9854807e-05,5.3084084e-05,1,1,1,1,1,0
892820000,892740000,1310988,0.0004889495,-0.0022755184,0.0016809205,0.34906584,1.601119e-07,1.614192e-07,4.6186796e-07,1310988,0.04873466,-6.9838585e-05,-0.11515308,0.4,0.00078123936,0.00078123936,0.00078123936,197644,0.012044626,-0.008803469,0.0008987738,0.5,2.3419883e-05,5.9854807e-05,5.3084084e-05,1,1,1,1,1,0
893812000,893732000,1310988,0.00047931855,-0.0022913176,0.0016698131,0.34906584,1.615373e-07,1.6266826e-07,4.590594e-07,1310988,0.048593406,-5.1829513e-05,-0.11390927,0.4,0.00078123936,0.00078123936,0.00078123936,197644,0.012044626,-0.008803469,0.0008987738,0.5,2.3419883e-05,5.9854807e-05,5.3084084e-05,1,1,1,1,1,0
894436000,894356000,1310988,0.00047024598,-0.002300552,0.001660691,0.34906584,1.6011114e-07,1.6109757e-07,4.565859e-07,1310988,0.048501812,-2.8046314e-05,-0.112714946,0.4,0.00078123936,0.00078123936,0.00078123936,197644,0.012044626,-0.008803469,0.0008987738,0.5,2.3419883e-05,5.9854807e-05,5.3084084e-05,1,1,1,1,1,0
895420000,895340000,1310988,0.0004453632,-0.0023129962,0.0016455417,0.34906584,1.5969266e-07,1.6052502e-07,4.528609e-07,1310988,0.048367545,8.000138e-05,-0.11130202,0.4,0.00078123936,0.00078123936,0.00078123936,197644,0.012044626,-0.008803469,0.0008987738,0.5,2.3419883e-05,5.9854807e-05,5.3084084e-05,1,1,1,1,1,0
896004000,895924000,1310988,0.00042689525,-0.0023177802,0.0016358888,0.34906584,1.6034716e-07,1.6111657e-07,4.5090215e-07,1310988,0.04829706,0.00015700836,-0.10991469,0.4,0.00078123936,0.00078123936,0.00078123936,197644,0.012044626,-0.008803469,0.0008987738,0.5,2.3419883e-05,5.9854807e-05,5.3084084e-05,1,1,1,1,1,0
897004000,896924000,1310988,0.00041436809,-0.0023235795,0.0016158016,0.34906584,1.6094732e-07,1.6158951e-07,4.472842e-07,1310988,0.048311807,0.0001023437,-0.10985515,0.4,0.00078125205,0.00078125205,0.000781252,197644,0.012044626,-0.008803469,0.0008987738,0.5,2.3419883e-05,5.9854807e-05,5.3084084e-05,1,1,1,0,1,0
898004000,897924000,1310988,0.00039945875,-0.0023335158,0.0015907162,0.34906584,1.6054315e-07,1.6103442e-07,4.4367837e-07,1310988,0.048672773,-0.0005096347,-0.109160274,0.4,0.0007812532,0.0007812532,0.0007812417,197644,0.012044626,-0.008803469,0.0008987738,0.5,2.3419883e-05,5.9854807e-05,5.3084084e-05,1,1,1,0,1,0
898388000,898308000,1310988,0.00037789345,-0.002347447,0.0015816686,0.34906584,1.4911318e-07,1.4936765e-07,4.4257777e-07,1310988,0.04955718,-0.0019138118,-0.100585364,0.4,0.00078123936,0.00078123936,0.00078123936,197644,0.012044626,-0.008803469,0.0008987738,0.5,2.3419883e-05,5.9854807e-05,5.3084084e-05,1,1,1,0,1,0
898804000,898724000,1310988,0.0003652102,-0.0023516326,0.0015709086,0.34906584,1.5043845e-07,1.5066348e-07,4.4094978e-07,1310988,0.05021909,-0.0040586023,-0.09677779,0.4,0.00078123936,0.00078123936,0.00078123936,197644,0.012044626,-0.008803469,0.0008987738,0.5,2.3419883e-05,5.9854807e-05,5.3084084e-05,1,1,1,0,1,0
899188000,899108000,1310988,0.0003629106,-0.0023575367,0.0015627105,0.34906584,1.525997e-07,1.5281084e-07,4.398955e-07,1310988,0.0,0.0,0.0,0.4,0.040000003,0.040000003,0.040000003,197644,0.012044626,-0.008803469,0.0008987738,0.5,2.3419883e-05,5.9854807e-05,5.3084084e-05,1,1,1,0,1,0
899220000,899140000,1310988,0.0003632498,-0.0023575355,0.001559997,0.34906584,1.51907e-07,1.5210645e-07,4.3932195e-07,1310988,-0.00027499683,0.00097017427,0.019091079,0.4,0.03145208,0.03145166,0.031236071,197644,0.012044626,-0.008803469,0.0008987738,0.5,2.3419883e-05,5.9854807e-05,5.3084084e-05,1,1,1,0,1,0
899420000,899340000,1310988,0.00036332826,-0.00235753,0.0015570186,0.34906584,1.5349966e-07,1.5369874e-07,4.3927437e-07,1310988,-0.0021469921,0.001427671,0.018869663,0.4,0.031032069,0.03103164,0.031043584,197644,0.012044626,-0.008803469,0.0008987738,0.5,2.3419883e-05,5.9854807e-05,5.3084084e-05,1,1,1,0,1,0
899428000,899348000,1310988,0.0003630045,-0.0023577951,0.0015570133,0.34906584,1.5351701e-07,1.5371563e-07,4.3933824e-07,1310988,0.00420781,-0.006381062,0.003403212,0.4,0.0049805823,0.0049797096,0.004122893,197644,0.012044626,-0.008803469,0.0008987738,0.5,2.3419883e-05,5.9854807e-05,5.3084084e-05,1,1,1,0,1,0
899636000,899556000,1310988,0.00036226236,-0.0023571628,0.001552319,0.34906584,1.551502e-07,1.5534859e-07,4.3852907e-07,1310988,-0.002035934,-0.013612913,0.012077458,0.4,0.003109423,0.0031085245,0.0021989162,197644,0.012044626,-0.008803469,0.0008987738,0.5,2.3419883e-05,5.9854807e-05,5.3084084e-05,1,1,1,0,1,0
899844000,899764000,1310988,0.00036247313,-0.0023581418,0.0015467987,0.34906584,1.5676748e-07,1.5696475e-07,4.3772047e-07,1310988,0.0012253191,-0.013173613,0.013183791,0.4,0.0024429732,0.002441973,0.0014992823,197644,0.012044626,-0.008803469,0.0008987738,0.5,2.3419883e-05,5.9854807e-05,5.3084084e-05,1,1,1,0,1,0
900052000,899972000,1310988,0.0003633039,-0.002359593,0.0015414495,0.34906584,1.5834743e-07,1.5854323e-07,4.3691364e-07,1310988,0.003929635,-0.011653375,0.015890488,0.4,0.0021070396,0.0021059471,0.0011374116,197644,0.012044626,-0.008803469,0.0008987738,0.5,2.3419883e-05,5.9854807e-05,5.3084084e-05,1,1,1,0,1,0
