timestamp,timestamp_sample,gps_hvel[0],gps_hvel[1],gps_vvel,gps_hpos[0],gps_hpos[1],gps_vpos,ev_hvel[0],ev_hvel[1],ev_vvel,ev_hpos[0],ev_hpos[1],ev_vpos,rng_vpos,baro_vpos,aux_hvel[0],aux_hvel[1],aux_vvel,flow[0],flow[1],heading,mag_field[0],mag_field[1],mag_field[2],drag[0],drag[1],airspeed,beta,hagl,hagl_rate
829560000,829480000,-0.0019325181,-0.0011339928,0.004301488,0.004961163,-0.0015552044,0.0,0.0,0.0,0.0,0.0,0.0,0.0,0.0,-0.114746094,0.0,0.0,nan,0.0,0.0,-0.008433938,-0.0025853962,0.001972556,0.0017074943,0.0,0.0,0.0,0.0,0.0,0.0
830056000,829976000,0.00094083487,-0.011439513,0.0001849527,-0.0056791306,0.006918192,0.0,0.0,0.0,0.0,0.0,0.0,0.0,0.0,-0.035324097,0.0,0.0,nan,0.0,0.0,0.0057308674,-0.0025853962,0.001972556,0.0017074943,0.0,0.0,0.0,0.0,0.0,0.0
830560000,830480000,-0.00032651267,0.022784567,-0.012514854,-0.00581792,0.0070388317,0.0,0.0,0.0,0.0,0.0,0.0,0.0,0.0,-0.0011138916,0.0,0.0,nan,0.0,0.0,-0.008614302,-0.0025853962,0.001972556,0.0017074943,0.0,0.0,0.0,0.0,0.0,0.0
831056000,830976000,0.00043481623,-0.0022541834,0.009906479,-0.0059602857,0.006325841,0.0,0.0,0.0,0.0,0.0,0.0,0.0,0.0,0.07518005,0.0,0.0,nan,0.0,0.0,-0.004576683,-0.0025853962,0.001972556,0.0017074943,0.0,0.0,0.0,0.0,0.0,0.0
831560000,831480000,0.0015980278,-0.0014986475,-0.009731287,-0.005974233,0.006210685,0.0,0.0,0.0,0.0,0.0,0.0,0.0,0.0,0.0063934326,0.0,0.0,nan,0.0,0.0,-0.002131343,-0.0025853962,0.001972556,0.0017074943,0.0,0.0,0.0,0.0,0.0,0.0
832056000,831976000,0.001560138,0.0011172997,-0.02972274,0.0053041875,0.006170988,0.0,0.0,0.0,0.0,0.0,0.0,0.0,0.0,0.04360962,0.0,0.0,nan,0.0,0.0,-0.0050094128,-0.0025853962,0.001972556,0.0017074943,0.0,0.0,0.0,0.0,0.0,0.0
832560000,832480000,-0.010980434,-5.7420344e-05,-0.011609266,-0.005870819,0.006113887,0.0,0.0,0.0,0.0,0.0,0.0,0.0,0.0,-0.0074920654,0.0,0.0,nan,0.0,0.0,-0.006958246,-0.0025853962,0.001972556,0.0017074943,0.0,0.0,0.0,0.0,0.0,0.0
833056000,832976000,0.00020942112,0.0110838525,-0.010618064,0.005391091,0.0058306456,0.0,0.0,0.0,0.0,0.0,0.0,0.0,0.0,-0.0521698,0.0,0.0,nan,0.0,0.0,-0.011722922,-0.0025853962,0.001972556,0.0017074943,0.0,0.0,0.0,0.0,0.0,0.0
833552000,833472000,0.0016370097,0.0014873404,0.020671789,0.0055346787,0.005992532,0.0,0.0,0.0,0.0,0.0,0.0,0.0,0.0,0.0062408447,0.0,0.0,nan,0.0,0.0,-0.001760006,-0.0025853962,0.001972556,0.0017074943,0.0,0.0,0.0,0.0,0.0,0.0
834056000,833976000,0.012871992,0.0018629888,-0.023868378,-0.0048576593,0.0061653852,0.0,0.0,0.0,0.0,0.0,0.0,0.0,0.0,0.014083862,0.0,0.0,nan,0.0,0.0,0.0049277544,-0.0025853962,0.001972556,0.0017074943,0.0,0.0,0.0,0.0,0.0,0.0
834560000,834480000,0.001086639,0.00021285319,-0.02261011,0.0060115755,-0.0023553371,0.0,0.0,0.0,0.0,0.0,0.0,0.0,0.0,0.035308838,0.0,0.0,nan,0.0,0.0,-0.015998125,-0.0025853962,0.001972556,0.0017074943,0.0,0.0,0.0,0.0,0.0,0.0
835056000,834976000,-0.0100174,-0.020042107,0.018721025,-0.0053732395,-0.002071619,0.0,0.0,0.0,0.0,0.0,0.0,0.0,0.0,-0.08383179,0.0,0.0,nan,0.0,0.0,-0.0030821562,-0.0025853962,0.001972556,0.0017074943,0.0,0.0,0.0,0.0,0.0,0.0
835560000,835480000,0.021913202,0.008420812,0.0045680623,0.005995542,-0.0020676851,0.0,0.0,0.0,0.0,0.0,0.0,0.0,0.0,0.06210327,0.0,0.0,nan,0.0,0.0,-0.017919898,-0.0025853962,0.001972556,0.0017074943,0.0,0.0,0.0,0.0,0.0,0.0
836056000,835976000,0.0044210977,0.00021975665,0.020684559,-0.0048218966,0.006554961,0.0,0.0,0.0,0.0,0.0,0.0,0.0,0.0,-0.1388855,0.0,0.0,nan,0.0,0.0,-0.014510632,-0.0025853962,0.001972556,0.0017074943,0.0,0.0,0.0,0.0,0.0,0.0
836560000,836480000,0.011839453,0.020142399,0.040336087,-0.005146414,-0.0019032955,0.0,0.0,0.0,0.0,0.0,0.0,0.0,0.0,0.0,0.0,0.0,nan,0.0,0.0,-0.018249273,-0.0025853962,0.001972556,0.0017074943,0.0,0.0,0.0,0.0,0.0,0.0
837056000,836976000,-0.003946259,-0.005128686,-0.002058581,-0.0018817484,0.003964901,0.0,0.0,0.0,0.0,0.0,0.0,0.0,0.0,0.0,0.0,0.0,nan,0.0,0.0,-0.003331542,-0.0025853962,0.001972556,0.0017074943,0.0,0.0,0.0,0.0,0.0,0.0
837552000,837472000,0.0045015784,-0.04032741,-0.061074354,0.0093149245,0.0010854006,0.0,0.0,0.0,0.0,0.0,0.0,0.0,0.0,0.03312683,0.0,0.0,nan,0.0,0.0,-0.006077647,-0.0025853962,0.001972556,0.0017074943,0.0,0.0,0.0,0.0,0.0,0.0
838056000,837976000,0.041786768,0.0038021528,-0.009169936,0.029543787,-0.006240487,0.0,0.0,0.0,0.0,0.0,0.0,0.0,0.0,-0.00061035156,0.0,0.0,nan,0.0,0.0,-0.0008562803,-0.0025853962,0.001972556,0.0017074943,0.0,0.0,0.0,0.0,0.0,0.0
838560000,838480000,0.03363376,-0.016100591,0.082268715,0.034617066,0.0054980516,0.0,0.0,0.0,0.0,0.0,0.0,0.0,0.0,-0.04736328,0.0,0.0,nan,0.0,0.0,-0.011448503,-0.0025853962,0.001972556,0.0017074943,0.0,0.0,0.0,0.0,0.0,0.0
839056000,838976000,0.043037266,-0.007074333,0.051852405,0.0465872,0.010385752,0.0,0.0,0.0,0.0,0.0,0.0,0.0,0.0,0.07044983,0.0,0.0,nan,0.0,0.0,0.026015162,-0.0025853962,0.001972556,0.0017074943,0.0,0.0,0.0,0.0,0.0,0.0
839560000,839480000,0.038002007,-0.03041393,-0.030047387,0.069040745,0.00038194656,0.0,0.0,0.0,0.0,0.0,0.0,0.0,0.0,-0.068862915,0.0,0.0,nan,0.0,0.0,0.020157456,-0.0025853962,0.001972556,0.0017074943,0.0,0.0,0.0,0.0,0.0,0.0
840056000,839976000,0.021970732,-0.006287257,-0.0031620264,0.07340199,0.004418969,0.0,0.0,0.0,0.0,0.0,0.0,0.0,0.0,0.07357788,0.0,0.0,nan,0.0,0.0,0.016028285,-0.0025853962,0.001972556,0.0017074943,0.0,0.0,0.0,0.0,0.0,0.0
840560000,840480000,0.015656766,-0.025708696,0.07608493,0.0813877,-0.008768201,0.0,0.0,0.0,0.0,0.0,0.0,0.0,0.0,-0.08517456,0.0,0.0,nan,0.0,0.0,0.011101723,-0.0025853962,0.001972556,0.0017074943,0.0,0.0,0.0,0.0,0.0,0.0
841056000,840976000,0.013716649,-0.02569592,-0.0018217359,0.07208705,-0.02071786,0.0,0.0,0.0,0.0,0.0,0.0,0.0,0.0,0.023513794,0.0,0.0,nan,0.0,0.0,0.006773472,-0.0025853962,0.001972556,0.0017074943,0.0,0.0,0.0,0.0,0.0,0.0
841552000,841472000,-0.03293076,0.00916855,-0.0392085,0.06247425,-0.011884809,0.0,0.0,0.0,0.0,0.0,0.0,0.0,0.0,-0.0365448,0.0,0.0,nan,0.0,0.0,0.0040210485,-0.0025853962,0.001972556,0.0017074943,0.0,0.0,0.0,0.0,0.0,0.0
842056000,841976000,-0.09552736,0.050878823,-0.073082924,0.05519861,-0.012216032,0.0,0.0,0.0,0.0,0.0,0.0,0.0,0.0,-0.024658203,0.0,0.0,nan,0.0,0.0,0.00042200089,-0.0025853962,0.001972556,0.0017074943,0.0,0.0,0.0,0.0,0.0,0.0
842560000,842480000,-0.1307363,0.021316886,-0.0674696,0.052840024,-0.014089346,0.0,0.0,0.0,0.0,0.0,0.0,0.0,0.0,-0.025512695,0.0,0.0,nan,0.0,0.0,-0.012504578,-0.0011400953,0.00012493134,-0.0025629103,0.0,0.0,0.0,0.0,0.0,0.0
843056000,842976000,-0.1638807,-0.016284943,-0.09415376,0.022623539,-0.018488586,0.0,0.0,0.0,0.0,0.0,0.0,0.0,0.0,-0.04347229,0.0,0.0,nan,0.0,0.0,-0.012504578,0.005972553,0.003429845,0.0006901026,0.0,0.0,0.0,0.0,0.0,0.0
843560000,843480000,-0.14202242,-0.005891323,-0.10316169,0.02699235,-0.0144507885,0.0,0.0,0.0,0.0,0.0,0.0,0.0,0.0,-0.03440857,0.0,0.0,nan,0.0,0.0,-0.012504578,-0.00017957017,-0.00016351044,-0.0009940863,0.0,0.0,0.0,0.0,0.0,0.0
844056000,843976000,-0.0933305,-0.033778906,-0.0846405,0.009634614,-0.015796185,0.0,0.0,0.0,0.0,0.0,0.0,0.0,0.0,-0.042129517,0.0,0.0,nan,0.0,0.0,-0.012504578,0.0011096373,-0.0020736754,-0.0028048158,0.0,0.0,0.0,0.0,0.0,0.0
844552000,844472000,-0.07548547,-0.016783237,-0.09023148,-0.0022982657,-0.05304575,0.0,0.0,0.0,0.0,0.0,0.0,0.0,0.0,-0.04270935,0.0,0.0,nan,0.0,0.0,-0.012504578,-0.0034621432,-0.002224207,-0.000767529,0.0,0.0,0.0,0.0,0.0,0.0
845056000,844976000,-0.05585541,-0.017724514,-0.16549832,0.020306498,-0.0436697,0.0,0.0,0.0,0.0,0.0,0.0,0.0,0.0,-0.10649109,0.0,0.0,nan,0.0,0.0,-0.012504578,-0.0010070987,0.0019765645,-0.0016775429,0.0,0.0,0.0,0.0,0.0,0.0
845552000,845472000,-0.010146983,-0.012094021,-0.15339792,0.01596117,-0.026238441,0.0,0.0,0.0,0.0,0.0,0.0,0.0,0.0,-0.15022278,0.0,0.0,nan,0.0,0.0,-0.012504578,0.006405119,-0.003938824,-0.0059158504,0.0,0.0,0.0,0.0,0.0,0.0
846056000,845976000,0.03461753,0.00786829,-0.20532793,0.018881202,-0.04848671,0.0,0.0,0.0,0.0,0.0,0.0,0.0,0.0,-0.11682129,0.0,0.0,nan,0.0,0.0,-0.012504578,-0.0003205128,0.0008109957,0.00017100573,0.0,0.0,0.0,0.0,0.0,0.0
846552000,846472000,0.007309638,0.020026684,-0.17741716,0.013214648,-0.025183678,0.0,0.0,0.0,0.0,0.0,0.0,0.0,0.0,-0.1543274,0.0,0.0,nan,0.0,0.0,-0.0044902563,-0.0003205128,0.0008109957,0.00017100573,0.0,0.0,0.0,0.0,0.0,0.0
847056000,846976000,0.055804845,0.04635644,-0.15710646,0.0185709,-0.03877926,0.0,0.0,0.0,0.0,0.0,0.0,0.0,0.0,-0.23397827,0.0,0.0,nan,0.0,0.0,0.004893303,-0.0003205128,0.0008109957,0.00017100573,0.0,0.0,0.0,0.0,0.0,0.0
847560000,847480000,0.017671086,0.03274536,-0.2305522,0.011175096,-0.04000473,0.0,0.0,0.0,0.0,0.0,0.0,0.0,0.0,-0.13066101,0.0,0.0,nan,0.0,0.0,-0.0048817396,-0.0003205128,0.0008109957,0.00017100573,0.0,0.0,0.0,0.0,0.0,0.0
848056000,847976000,0.035078973,0.02767086,-0.17308313,0.015917063,-0.03784561,0.0,0.0,0.0,0.0,0.0,0.0,0.0,0.0,-0.1844635,0.0,0.0,nan,0.0,0.0,0.0014812946,-0.0003205128,0.0008109957,0.00017100573,0.0,0.0,0.0,0.0,0.0,0.0
848560000,848480000,0.05358907,0.02528143,-0.15479273,0.007814467,-0.03488636,0.0,0.0,0.0,0.0,0.0,0.0,0.0,0.0,-0.138031,0.0,0.0,nan,0.0,0.0,-0.021753907,-0.0003205128,0.0008109957,0.00017100573,0.0,0.0,0.0,0.0,0.0,0.0
849056000,848976000,0.019616323,0.03127408,-0.15969592,-0.00892359,-0.035624504,0.0,0.0,0.0,0.0,0.0,0.0,0.0,0.0,-0.10536194,0.0,0.0,nan,0.0,0.0,0.0012028217,-0.0003205128,0.0008109957,0.00017100573,0.0,0.0,0.0,0.0,0.0,0.0
849552000,849472000,0.026617525,0.021487474,-0.1103524,0.0013944507,-0.02431488,0.0,0.0,0.0,0.0,0.0,0.0,0.0,0.0,-0.16021729,0.0,0.0,nan,0.0,0.0,-0.0055764914,-0.0003205128,0.0008109957,0.00017100573,0.0,0.0,0.0,0.0,0.0,0.0
850056000,849976000,0.026218953,0.027491808,-0.111689925,0.005928278,-0.038202286,0.0,0.0,0.0,0.0,0.0,0.0,0.0,0.0,-0.13806152,0.0,0.0,nan,0.0,0.0,-0.004425764,-0.0003205128,0.0008109957,0.00017100573,0.0,0.0,0.0,0.0,0.0,0.0
850560000,850480000,0.016195938,0.01722145,-0.104352415,0.0036901236,-0.022592545,0.0,0.0,0.0,0.0,0.0,0.0,0.0,0.0,-0.1987915,0.0,0.0,nan,0.0,0.0,0.0039764643,-0.0003205128,0.0008109957,0.00017100573,0.0,0.0,0.0,0.0,0.0,0.0
851056000,850976000,0.05771233,-0.082888484,-0.08502158,0.013928056,-0.029165268,0.0,0.0,0.0,0.0,0.0,0.0,0.0,0.0,-0.116241455,0.0,0.0,nan,0.0,0.0,-0.0148073435,-0.0003205128,0.0008109957,0.00017100573,0.0,0.0,0.0,0.0,0.0,0.0
851560000,851480000,0.1564906,-0.10802138,-0.053886235,0.016976714,-0.03140068,0.0,0.0,0.0,0.0,0.0,0.0,0.0,0.0,0.0,0.0,0.0,nan,0.0,0.0,-0.0064331293,-0.0022275746,-0.0029843599,0.0008920133,0.0,0.0,0.0,0.0,0.0,0.0
852056000,851976000,0.2422019,-0.06050811,-0.07637447,0.053721726,-0.029146194,0.0,0.0,0.0,0.0,0.0,0.0,0.0,0.0,0.0,0.0,0.0,nan,0.0,0.0,-0.0064331293,-0.0016432256,0.0012313947,-0.00010201335,0.0,0.0,0.0,0.0,0.0,0.0
852560000,852480000,0.25373688,0.033836007,-0.0017881393,0.08194178,-0.021783829,0.0,0.0,0.0,0.0,0.0,0.0,0.0,0.0,0.0,0.0,0.0,nan,0.0,0.0,-0.0064331293,0.001204431,-0.0027942061,-0.0020155013,0.0,0.0,0.0,0.0,0.0,0.0
853056000,852976000,0.17625047,0.11285102,-0.0014650226,0.05772835,-0.0022392273,0.0,0.0,0.0,0.0,0.0,0.0,0.0,0.0,0.0,0.0,0.0,nan,0.0,0.0,-0.0064331293,0.00012467802,0.00034548342,-0.0039092004,0.0,0.0,0.0,0.0,0.0,0.0
853560000,853480000,0.09193066,0.09287721,0.12155527,0.07081026,0.015068054,0.0,0.0,0.0,0.0,0.0,0.0,0.0,0.0,0.0,0.0,0.0,nan,0.0,0.0,-0.0064331293,0.00026285648,0.0001000613,-0.001498133,0.0,0.0,0.0,0.0,0.0,0.0
854056000,853976000,-0.0029625595,0.08117163,0.11227852,0.046905577,0.018180847,0.0,0.0,0.0,0.0,0.0,0.0,0.0,0.0,0.0,0.0,0.0,nan,0.0,0.0,-0.0064331293,-0.0021479428,0.0029920489,-0.001264602,0.0,0.0,0.0,0.0,0.0,0.0
854552000,854472000,-0.042647794,0.080432445,0.10221076,0.032776415,0.03752327,0.0,0.0,0.0,0.0,0.0,0.0,0.0,0.0,0.0,0.0,0.0,nan,0.0,0.0,-0.0064331293,0.0026217923,-0.000268206,-0.0042273104,0.0,0.0,0.0,0.0,0.0,0.0
855056000,854976000,-0.05796437,0.06466023,0.15426934,0.020259857,0.04329872,0.0,0.0,0.0,0.0,0.0,0.0,0.0,0.0,0.0,0.0,0.0,nan,0.0,0.0,-0.0064331293,-0.00169608,0.003471598,-0.0012100935,0.0,0.0,0.0,0.0,0.0,0.0
855560000,855480000,-0.07983431,0.01662954,0.16422135,0.0060661435,0.040727615,0.0,0.0,0.0,0.0,0.0,0.0,0.0,0.0,0.0,0.0,0.0,nan,0.0,0.0,0.000702858,-0.00012723356,0.001846686,0.00024139881,0.0,0.0,0.0,0.0,0.0,0.0
856056000,855976000,-0.23038323,0.49446738,-0.22298002,-0.023513317,0.06982994,0.0,0.0,0.0,0.0,0.0,0.0,0.0,0.0,0.0,0.0,0.0,nan,0.0,0.0,0.033497334,0.0026646554,-0.0030385852,-0.0075470805,0.0,0.0,0.0,0.0,0.0,0.0
856560000,856480000,-0.41493687,0.20201778,0.15005827,-0.04120192,0.029855728,0.0,0.0,0.0,0.0,0.0,0.0,0.0,0.0,0.11709595,0.0,0.0,nan,0.0,0.0,0.033497334,-0.0012910813,-8.302927e-05,-0.002750188,0.0,0.0,0.0,0.0,0.0,0.0
857056000,856976000,-0.34825376,-0.08098078,0.14138985,-0.10158466,-0.054244995,0.0,0.0,0.0,0.0,0.0,0.0,0.0,0.0,0.05731201,0.0,0.0,nan,0.0,0.0,0.033497334,0.0009778887,0.001871407,-0.0013449788,0.0,0.0,0.0,0.0,0.0,0.0
857560000,857480000,-0.24517627,-0.25714254,0.24006867,-0.13493112,-0.13484764,0.0,0.0,0.0,0.0,0.0,0.0,0.0,0.0,0.18862915,0.0,0.0,nan,0.0,0.0,0.033497334,-0.0013793781,0.0050668716,-0.0004505813,0.0,0.0,0.0,0.0,0.0,0.0
858056000,857976000,-0.012977973,-0.24760747,0.15331233,-0.065701276,-0.077251434,0.0,0.0,0.0,0.0,0.0,0.0,0.0,0.0,0.048461914,0.0,0.0,nan,0.0,0.0,0.033497334,0.00019897334,0.00029182434,0.0025103092,0.0,0.0,0.0,0.0,0.0,0.0
858560000,858480000,0.08794138,-0.18544436,0.124985784,-0.04430738,-0.11677933,0.0,0.0,0.0,0.0,0.0,0.0,0.0,0.0,0.1340332,0.0,0.0,nan,0.0,0.0,0.033497334,-0.0063053146,0.0014682412,0.010152936,0.0,0.0,0.0,0.0,0.0,0.0
859056000,858976000,0.15131891,-0.16117156,0.08781852,-0.026653528,-0.10161972,0.0,0.0,0.0,0.0,0.0,0.0,0.0,0.0,0.0,0.0,0.0,nan,0.0,0.0,0.033497334,-0.020204686,0.0021942705,0.008161902,0.0,0.0,0.0,0.0,0.0,0.0
859560000,859480000,0.16830312,-0.1306799,0.14519843,-0.024578273,-0.07197189,0.0,0.0,0.0,0.0,0.0,0.0,0.0,0.0,0.15829468,0.0,0.0,nan,0.0,0.0,0.033497334,-0.003769368,0.0013720095,0.002264589,0.0,0.0,0.0,0.0,0.0,0.0
860056000,859976000,0.2186896,0.025853455,0.12059682,0.06905323,-0.06900787,0.0,0.0,0.0,0.0,0.0,0.0,0.0,0.0,0.10636902,0.0,0.0,nan,0.0,0.0,0.033497334,0.0006529093,-0.00047166646,0.0035274327,0.0,0.0,0.0,0.0,0.0,0.0
860552000,860472000,0.14090845,0.060669214,0.11767772,0.03722298,-0.052879333,0.0,0.0,0.0,0.0,0.0,0.0,0.0,0.0,0.15904236,0.0,0.0,nan,0.0,0.0,0.033497334,-0.0062978566,-0.0022448897,-0.0025287569,0.0,0.0,0.0,0.0,0.0,0.0
861056000,860976000,0.116467506,0.047171846,0.228982,0.03475207,-0.038124084,0.0,0.0,0.0,0.0,0.0,0.0,0.0,0.0,0.18328857,0.0,0.0,nan,0.0,0.0,0.033497334,-0.00060129166,0.0013831854,0.0032217205,0.0,0.0,0.0,0.0,0.0,0.0
861560000,861480000,0.059491664,0.029677838,0.15470634,0.02004838,-0.03777504,0.0,0.0,0.0,0.0,0.0,0.0,0.0,0.0,0.18034363,0.0,0.0,nan,0.0,0.0,0.033497334,0.0018549338,0.0016396046,-0.001892209,0.0,0.0,0.0,0.0,0.0,0.0
862056000,861976000,0.043741003,0.018283192,0.14383689,0.022365272,-0.02114296,0.0,0.0,0.0,0.0,0.0,0.0,0.0,0.0,0.2554779,0.0,0.0,nan,0.0,0.0,0.033497334,0.00061594695,0.0005906224,0.0016315281,0.0,0.0,0.0,0.0,0.0,0.0
862552000,862472000,0.04884869,0.018062502,0.14748597,0.017089665,-0.014196396,0.0,0.0,0.0,0.0,0.0,0.0,0.0,0.0,0.18649292,0.0,0.0,nan,0.0,0.0,0.033497334,-0.004155673,-0.00044180453,0.0016101003,0.0,0.0,0.0,0.0,0.0,0.0
863056000,862976000,0.022867959,-0.0049601644,0.14106926,0.016527057,-0.008213043,0.0,0.0,0.0,0.0,0.0,0.0,0.0,0.0,0.1399231,0.0,0.0,nan,0.0,0.0,-0.008864522,0.0005206913,-0.0022837669,0.004298389,0.0,0.0,0.0,0.0,0.0,0.0
863552000,863472000,0.026948534,0.0098824985,0.14481747,0.0036477149,-0.007865906,0.0,0.0,0.0,0.0,0.0,0.0,0.0,0.0,0.24382019,0.0,0.0,nan,0.0,0.0,0.007811308,0.0005206913,-0.0022837669,0.004298389,0.0,0.0,0.0,0.0,0.0,0.0
864056000,863976000,0.0019746516,0.0096672345,0.16460405,0.0130262375,-0.010139465,0.0,0.0,0.0,0.0,0.0,0.0,0.0,0.0,0.2349701,0.0,0.0,nan,0.0,0.0,0.00057399273,0.0005206913,-0.0022837669,0.004298389,0.0,0.0,0.0,0.0,0.0,0.0
864560000,864480000,0.019596955,0.008673752,0.15895814,0.011780292,-0.014694214,0.0,0.0,0.0,0.0,0.0,0.0,0.0,0.0,0.1811676,0.0,0.0,nan,0.0,0.0,-0.014705539,0.0005206913,-0.0022837669,0.004298389,0.0,0.0,0.0,0.0,0.0,0.0
865056000,864976000,0.0012747617,-0.0033487142,0.17262276,0.0010021031,-0.019283295,0.0,0.0,0.0,0.0,0.0,0.0,0.0,0.0,0.3149414,0.0,0.0,nan,0.0,0.0,-0.0041412115,0.0005206913,-0.0022837669,0.004298389,0.0,0.0,0.0,0.0,0.0,0.0
865560000,865480000,0.008760458,-0.012131122,0.18028685,-0.003892541,-0.020698547,0.0,0.0,0.0,0.0,0.0,0.0,0.0,0.0,0.31010437,0.0,0.0,nan,0.0,0.0,-0.01172483,0.0005206913,-0.0022837669,0.004298389,0.0,0.0,0.0,0.0,0.0,0.0
866056000,865976000,-0.029139267,-0.011987027,0.1386661,-0.01132831,-0.021469116,0.0,0.0,0.0,0.0,0.0,0.0,0.0,0.0,0.2858734,0.0,0.0,nan,0.0,0.0,0.009981155,0.0005206913,-0.0022837669,0.004298389,0.0,0.0,0.0,0.0,0.0,0.0
866560000,866480000,0.00080722687,-0.012469705,0.13852961,0.0010381639,-0.026126862,0.0,0.0,0.0,0.0,0.0,0.0,0.0,0.0,0.38812256,0.0,0.0,nan,0.0,0.0,-0.00035619736,0.0005206913,-0.0022837669,0.004298389,0.0,0.0,0.0,0.0,0.0,0.0
867056000,866976000,0.012535205,-0.039539766,0.16045563,-0.008599073,-0.0325737,0.0,0.0,0.0,0.0,0.0,0.0,0.0,0.0,0.14022827,0.0,0.0,nan,0.0,0.0,-0.010650396,0.0005206913,-0.0022837669,0.004298389,0.0,0.0,0.0,0.0,0.0,0.0
867552000,867472000,-0.020018432,-0.017461801,0.121933214,-0.016185582,-0.027629852,0.0,0.0,0.0,0.0,0.0,0.0,0.0,0.0,0.23931885,0.0,0.0,nan,0.0,0.0,0.0047416687,0.0005206913,-0.0022837669,0.004298389,0.0,0.0,0.0,0.0,0.0,0.0
868056000,867976000,-0.009203112,-0.015202254,0.07390675,-0.009464413,-0.037330627,0.0,0.0,0.0,0.0,0.0,0.0,0.0,0.0,0.19337463,0.0,0.0,nan,0.0,0.0,-0.009875894,0.0005206913,-0.0022837669,0.004298389,0.0,0.0,0.0,0.0,0.0,0.0
868560000,868480000,0.016556181,-0.019792281,0.057838835,-0.007380575,-0.02917862,0.0,0.0,0.0,0.0,0.0,0.0,0.0,0.0,0.22998047,0.0,0.0,nan,0.0,0.0,-0.012575388,0.0005206913,-0.0022837669,0.004298389,0.0,0.0,0.0,0.0,0.0,0.0
869056000,868976000,0.014317998,-0.016539974,0.029827528,-0.00300923,-0.01550293,0.0,0.0,0.0,0.0,0.0,0.0,0.0,0.0,0.13554382,0.0,0.0,nan,0.0,0.0,-0.005118966,0.0005206913,-0.0022837669,0.004298389,0.0,0.0,0.0,0.0,0.0,0.0
869552000,869472000,0.027382737,-0.029046513,0.051762253,-0.010064781,-0.013519287,0.0,0.0,0.0,0.0,0.0,0.0,0.0,0.0,0.2558136,0.0,0.0,nan,0.0,0.0,-0.0015826225,0.0005206913,-0.0022837669,0.004298389,0.0,0.0,0.0,0.0,0.0,0.0
870056000,869976000,0.012167691,0.020804122,-0.0004188046,-0.0052438974,0.0013313293,0.0,0.0,0.0,0.0,0.0,0.0,0.0,0.0,0.1789856,0.0,0.0,nan,0.0,0.0,-0.012210131,0.0005206913,-0.0022837669,0.004298389,0.0,0.0,0.0,0.0,0.0,0.0
870552000,870472000,0.013971753,0.028686922,-0.00824748,0.0073836446,0.005012512,0.0,0.0,0.0,0.0,0.0,0.0,0.0,0.0,0.15463257,0.0,0.0,nan,0.0,0.0,-0.00035643578,0.0005206913,-0.0022837669,0.004298389,0.0,0.0,0.0,0.0,0.0,0.0
871056000,870976000,0.0016829697,0.03243839,-0.0404978,0.0008749366,0.0045814514,0.0,0.0,0.0,0.0,0.0,0.0,0.0,0.0,0.053100586,0.0,0.0,nan,0.0,0.0,-0.0131495,0.0005206913,-0.0022837669,0.004298389,0.0,0.0,0.0,0.0,0.0,0.0
871560000,871480000,0.041044384,0.0020382102,-0.057150662,0.017797738,0.013355255,0.0,0.0,0.0,0.0,0.0,0.0,0.0,0.0,0.072250366,0.0,0.0,nan,0.0,0.0,-0.0074579716,0.0005206913,-0.0022837669,0.004298389,0.0,0.0,0.0,0.0,0.0,0.0
872056000,871976000,0.055568762,0.021037433,-0.011146507,0.010138124,0.019851685,0.0,0.0,0.0,0.0,0.0,0.0,0.0,0.0,0.015548706,0.0,0.0,nan,0.0,0.0,-0.003283143,0.0005206913,-0.0022837669,0.004298389,0.0,0.0,0.0,0.0,0.0,0.0
872552000,872472000,0.043217566,0.016834825,-0.039225485,0.013043225,0.01725769,0.0,0.0,0.0,0.0,0.0,0.0,0.0,0.0,0.022338867,0.0,0.0,nan,0.0,0.0,-0.012108684,0.0005206913,-0.0022837669,0.004298389,0.0,0.0,0.0,0.0,0.0,0.0
873056000,872976000,0.039171685,0.029120037,-0.0024585132,0.036583543,0.026065826,0.0,0.0,0.0,0.0,0.0,0.0,0.0,0.0,0.055130005,0.0,0.0,nan,0.0,0.0,0.0074398518,0.0005206913,-0.0022837669,0.004298389,0.0,0.0,0.0,0.0,0.0,0.0
873560000,873480000,0.03452897,0.023229701,-0.024757776,0.02560395,0.0154800415,0.0,0.0,0.0,0.0,0.0,0.0,0.0,0.0,-0.038223267,0.0,0.0,nan,0.0,0.0,-0.0071946383,0.0005206913,-0.0022837669,0.004298389,0.0,0.0,0.0,0.0,0.0,0.0
874056000,873976000,0.051954918,-0.01672724,-0.050808102,0.035951316,0.013771057,0.0,0.0,0.0,0.0,0.0,0.0,0.0,0.0,-0.08616638,0.0,0.0,nan,0.0,0.0,0.0085606575,0.0005206913,-0.0022837669,0.004298389,0.0,0.0,0.0,0.0,0.0,0.0
874560000,874480000,0.05478268,0.00466539,0.008965166,0.03398943,0.0020599365,0.0,0.0,0.0,0.0,0.0,0.0,0.0,0.0,-0.01322937,0.0,0.0,nan,0.0,0.0,-0.0066595078,0.0005206913,-0.0022837669,0.004298389,0.0,0.0,0.0,0.0,0.0,0.0
875056000,874976000,0.018242814,-0.011015273,-0.01894445,0.047989488,0.00024414062,0.0,0.0,0.0,0.0,0.0,0.0,0.0,0.0,-0.0096588135,0.0,0.0,nan,0.0,0.0,0.0063835382,0.0005206913,-0.0022837669,0.004298389,0.0,0.0,0.0,0.0,0.0,0.0
875552000,875472000,0.08423883,0.012150701,-0.050506942,0.0578022,-0.0037879944,0.0,0.0,0.0,0.0,0.0,0.0,0.0,0.0,-0.058425903,0.0,0.0,nan,0.0,0.0,0.0011734962,0.0005206913,-0.0022837669,0.004298389,0.0,0.0,0.0,0.0,0.0,0.0
876056000,875976000,0.099402845,0.01728572,-0.07080304,0.044491902,-0.0053596497,0.0,0.0,0.0,0.0,0.0,0.0,0.0,0.0,0.05632019,0.0,0.0,nan,0.0,0.0,0.006941557,0.0005206913,-0.0022837669,0.004298389,0.0,0.0,0.0,0.0,0.0,0.0
876560000,876480000,0.07082844,0.026377007,-0.012648344,0.0356455,-0.016422272,0.0,0.0,0.0,0.0,0.0,0.0,0.0,0.0,-0.075805664,0.0,0.0,nan,0.0,0.0,0.008340597,-0.0019419491,-0.0031127334,0.0016225576,0.0,0.0,0.0,0.0,0.0,0.0
877056000,876976000,0.0046913624,0.032355398,-0.050275385,0.042269707,0.0028648376,0.0,0.0,0.0,0.0,0.0,0.0,0.0,0.0,-0.06460571,0.0,0.0,nan,0.0,0.0,0.008340597,-0.001008667,-0.0016688704,-0.0020606518,0.0,0.0,0.0,0.0,0.0,0.0
877560000,877480000,-0.013260603,0.0120970905,-0.013156287,0.029411316,0.00020217896,0.0,0.0,0.0,0.0,0.0,0.0,0.0,0.0,-0.007232666,0.0,0.0,nan,0.0,0.0,0.008340597,0.0023420379,-0.002455175,0.00021469593,0.0,0.0,0.0,0.0,0.0,0.0
878056000,877976000,-0.0102956295,0.012098059,-0.063956656,0.005606413,-0.002773285,0.0,0.0,0.0,0.0,0.0,0.0,0.0,0.0,-0.05670166,0.0,0.0,nan,0.0,0.0,0.008340597,-0.0020364523,0.0018395782,0.0011444986,0.0,0.0,0.0,0.0,0.0,0.0
878552000,878472000,-0.03684616,0.02571699,-0.03139521,-0.008248329,-0.0010490417,0.0,0.0,0.0,0.0,0.0,0.0,0.0,0.0,-0.07241821,0.0,0.0,nan,0.0,0.0,0.008340597,-0.001770325,6.759167e-05,-0.003227979,0.0,0.0,0.0,0.0,0.0,0.0
879056000,878976000,-0.05628705,0.0016744137,0.0087444745,-0.02473259,-0.010486603,0.0,0.0,0.0,0.0,0.0,0.0,0.0,0.0,0.03817749,0.0,0.0,nan,0.0,0.0,0.008340597,-0.0005649328,-0.0011079162,-0.00024992228,0.0,0.0,0.0,0.0,0.0,0.0
879552000,879472000,-0.0900954,-0.04289028,-0.0479327,-0.022565842,-0.012851715,0.0,0.0,0.0,0.0,0.0,0.0,0.0,0.0,-0.037338257,0.0,0.0,nan,0.0,0.0,0.008340597,-0.0010726899,0.0049811453,0.007328272,0.0,0.0,0.0,0.0,0.0,0.0
880056000,879976000,-0.042501867,-0.038447633,-0.003554523,-0.03251362,-0.025253296,0.0,0.0,0.0,0.0,0.0,0.0,0.0,0.0,0.0,0.0,0.0,nan,0.0,0.0,-0.014267087,0.0025713965,-0.003172323,-0.0010270178,0.0,0.0,0.0,0.0,0.0,0.0
880552000,880472000,-0.07326788,-0.054321744,0.011125922,-0.04049015,-0.04738617,0.0,0.0,0.0,0.0,0.0,0.0,0.0,0.0,0.0,0.0,0.0,nan,0.0,0.0,-0.005230665,-0.0015668534,-0.00048143417,0.004900098,0.0,0.0,0.0,0.0,0.0,0.0
881056000,880976000,0.0013973415,-0.07891744,-0.037463546,-0.03831482,-0.051742554,0.0,0.0,0.0,0.0,0.0,0.0,0.0,0.0,0.0,0.0,0.0,nan,0.0,0.0,-0.005230665,-0.00036483258,0.0022823215,0.001761198,0.0,0.0,0.0,0.0,0.0,0.0
881560000,881480000,-0.034900337,-0.04022303,0.020640492,-0.048159122,-0.04405594,0.0,0.0,0.0,0.0,0.0,0.0,0.0,0.0,0.0,0.0,0.0,nan,0.0,0.0,-0.005230665,-0.0017850772,0.00036029518,0.0017634034,0.0,0.0,0.0,0.0,0.0,0.0
882056000,881976000,-0.009951234,-0.06347197,0.029019952,-0.032903194,-0.052288055,0.0,0.0,0.0,0.0,0.0,0.0,0.0,0.0,0.0,0.0,0.0,nan,0.0,0.0,-0.005230665,-0.0021673217,0.0029924065,-0.00023308396,0.0,0.0,0.0,0.0,0.0,0.0
882552000,882472000,-0.009423912,-0.028201729,-0.00469023,-0.034014225,-0.033542633,0.0,0.0,0.0,0.0,0.0,0.0,0.0,0.0,0.0,0.0,0.0,nan,0.0,0.0,-0.005230665,-0.0025917068,0.0007020533,-0.0013057292,0.0,0.0,0.0,0.0,0.0,0.0
883056000,882976000,-0.0105728805,-0.0116187185,-0.042943418,-0.02777052,-0.036315918,0.0,0.0,0.0,0.0,0.0,0.0,0.0,0.0,0.0,0.0,0.0,nan,0.0,0.0,-0.005230665,-0.0012830645,-0.0036844313,0.00211972,0.0,0.0,0.0,0.0,0.0,0.0
883552000,883472000,-0.010849133,-0.00156378,-0.0020778775,-0.02481699,-0.036354065,0.0,0.0,0.0,0.0,0.0,0.0,0.0,0.0,0.0,0.0,0.0,nan,0.0,0.0,-0.005230665,-0.0012242123,0.00011843443,-0.0002296567,0.0,0.0,0.0,0.0,0.0,0.0
884056000,883976000,-0.03782431,0.01882938,0.003127396,-0.021895409,-0.029037476,0.0,0.0,0.0,0.0,0.0,0.0,0.0,0.0,0.0,0.0,0.0,nan,0.0,0.0,-0.00086915493,-0.0020233765,0.00019225478,0.00091555715,0.0,0.0,0.0,0.0,0.0,0.0
884552000,884472000,-0.036875606,0.020148799,-0.02684009,-0.023250103,-0.025478363,0.0,0.0,0.0,0.0,0.0,0.0,0.0,0.0,0.0,0.0,0.0,nan,0.0,0.0,-0.0063177347,-0.0020233765,0.00019225478,0.00091555715,0.0,0.0,0.0,0.0,0.0,0.0
885056000,884976000,-0.060094852,0.017064085,-0.043969512,-0.015442371,-0.016147614,0.0,0.0,0.0,0.0,0.0,0.0,0.0,0.0,0.0,0.0,0.0,nan,0.0,0.0,-0.0070399046,-0.0020233765,0.00019225478,0.00091555715,0.0,0.0,0.0,0.0,0.0,0.0
885560000,885480000,-0.0064519634,-0.0015359179,-0.010281503,-0.013468742,-0.010280609,0.0,0.0,0.0,0.0,0.0,0.0,0.0,0.0,0.0,0.0,0.0,nan,0.0,0.0,0.0007493496,-0.0020233765,0.00019225478,0.00091555715,0.0,0.0,0.0,0.0,0.0,0.0
886056000,885976000,-0.020716704,0.031816225,-0.026105762,-0.017618656,-0.006587982,0.0,0.0,0.0,0.0,0.0,0.0,0.0,0.0,0.0,0.0,0.0,nan,0.0,0.0,-0.00026774406,-0.0020233765,0.00019225478,0.00091555715,0.0,0.0,0.0,0.0,0.0,0.0
886552000,886472000,-0.022249138,0.003800841,-0.011943579,-0.014759541,-0.0075416565,0.0,0.0,0.0,0.0,0.0,0.0,0.0,0.0,0.0,0.0,0.0,nan,0.0,0.0,-0.016850352,-0.0020233765,0.00019225478,0.00091555715,0.0,0.0,0.0,0.0,0.0,0.0
887056000,886976000,-0.028752029,0.013064999,0.007846177,-0.017020702,0.004512787,0.0,0.0,0.0,0.0,0.0,0.0,0.0,0.0,0.0,0.0,0.0,nan,0.0,0.0,-0.0060322285,-0.0020233765,0.00019225478,0.00091555715,0.0,0.0,0.0,0.0,0.0,0.0
887560000,887480000,-0.016660202,0.0038482603,0.051553905,-0.015995026,0.0040245056,0.0,0.0,0.0,0.0,0.0,0.0,0.0,0.0,0.0,0.0,0.0,nan,0.0,0.0,-0.032806635,-0.0020233765,0.00019225478,0.00091555715,0.0,0.0,0.0,0.0,0.0,0.0
888056000,887976000,-0.009319987,0.008476566,-0.020391226,-0.011770248,-0.002609253,0.0,0.0,0.0,0.0,0.0,0.0,0.0,0.0,0.0,0.0,0.0,nan,0.0,0.0,0.0003709793,-0.0020233765,0.00019225478,0.00091555715,0.0,0.0,0.0,0.0,0.0,0.0
888552000,888472000,0.0069026574,0.007817185,0.007836878,-0.009524345,-0.009555817,0.0,0.0,0.0,0.0,0.0,0.0,0.0,0.0,0.0,0.0,0.0,nan,0.0,0.0,0.010275364,-0.0020233765,0.00019225478,0.00091555715,0.0,0.0,0.0,0.0,0.0,0.0
889056000,888976000,0.015842512,-0.016825182,0.008101523,-0.006591797,-0.01417923,0.0,0.0,0.0,0.0,0.0,0.0,0.0,0.0,0.0,0.0,0.0,nan,0.0,0.0,-0.00434494,-0.0020233765,0.00019225478,0.00091555715,0.0,0.0,0.0,0.0,0.0,0.0
889552000,889472000,-0.0021207826,-0.017511923,0.04856485,-0.0011749268,-0.01738739,0.0,0.0,0.0,0.0,0.0,0.0,0.0,0.0,0.0,0.0,0.0,nan,0.0,0.0,0.004492879,-0.0020233765,0.00019225478,0.00091555715,0.0,0.0,0.0,0.0,0.0,0.0
890056000,889976000,0.003819874,-0.0049203243,0.015845954,0.0053925514,-0.021446228,0.0,0.0,0.0,0.0,0.0,0.0,0.0,0.0,0.0,0.0,0.0,nan,0.0,0.0,-0.006054759,-0.0020233765,0.00019225478,0.00091555715,0.0,0.0,0.0,0.0,0.0,0.0
890552000,890472000,-0.004512455,-0.02095491,0.035318375,0.013109207,-0.024040222,0.0,0.0,0.0,0.0,0.0,0.0,0.0,0.0,0.0,0.0,0.0,nan,0.0,0.0,-0.023267508,-0.0020233765,0.00019225478,0.00091555715,0.0,0.0,0.0,0.0,0.0,0.0
891056000,890976000,0.005787654,-0.030350784,0.030498683,0.011547565,-0.023731232,0.0,0.0,0.0,0.0,0.0,0.0,0.0,0.0,0.0,0.0,0.0,nan,0.0,0.0,-0.008509755,-0.0020233765,0.00019225478,0.00091555715,0.0,0.0,0.0,0.0,0.0,0.0
891552000,891472000,-0.02577864,-0.038983874,0.0019131303,0.00880003,-0.0311203,0.0,0.0,0.0,0.0,0.0,0.0,0.0,0.0,0.0,0.0,0.0,nan,0.0,0.0,-0.0053930283,-0.0020233765,0.00019225478,0.00091555715,0.0,0.0,0.0,0.0,0.0,0.0
892056000,891976000,0.0003109581,-0.03751817,0.011048913,0.0140013695,-0.024299622,0.0,0.0,0.0,0.0,0.0,0.0,0.0,0.0,0.0,0.0,0.0,nan,0.0,0.0,0.002832055,-0.0020233765,0.00019225478,0.00091555715,0.0,0.0,0.0,0.0,0.0,0.0
892552000,892472000,-0.014684163,-0.05440605,0.015043795,-0.009960175,-0.031864166,0.0,0.0,0.0,0.0,0.0,0.0,0.0,0.0,0.0,0.0,0.0,nan,0.0,0.0,-0.00056135654,-0.0020233765,0.00019225478,0.00091555715,0.0,0.0,0.0,0.0,0.0,0.0
893056000,892976000,-0.013648502,-0.035456292,0.016174018,0.0016326904,-0.024871826,0.0,0.0,0.0,0.0,0.0,0.0,0.0,0.0,0.0,0.0,0.0,nan,0.0,0.0,-0.015281677,-0.0020233765,0.00019225478,0.00091555715,0.0,0.0,0.0,0.0,0.0,0.0
893560000,893480000,-0.0121125225,-0.06614095,0.058262467,-0.010106564,-0.031970978,0.0,0.0,0.0,0.0,0.0,0.0,0.0,0.0,0.0,0.0,0.0,nan,0.0,0.0,0.0025302172,-0.0020233765,0.00019225478,0.00091555715,0.0,0.0,0.0,0.0,0.0,0.0
894056000,893976000,-0.012390497,-0.028792527,0.024538457,-0.018807411,-0.025413513,0.0,0.0,0.0,0.0,0.0,0.0,0.0,0.0,0.0,0.0,0.0,nan,0.0,0.0,-0.005223751,-0.0020233765,0.00019225478,0.00091555715,0.0,0.0,0.0,0.0,0.0,0.0
894560000,894480000,-0.0143176215,-0.04905067,0.026729882,-0.011879444,-0.030979156,0.0,0.0,0.0,0.0,0.0,0.0,0.0,0.0,0.0,0.0,0.0,nan,0.0,0.0,-0.0062377453,-0.0020233765,0.00019225478,0.00091555715,0.0,0.0,0.0,0.0,0.0,0.0
895056000,894976000,-0.054089535,-0.04740905,0.008209348,-0.03270769,-0.029663086,0.0,0.0,0.0,0.0,0.0,0.0,0.0,0.0,0.0,0.0,0.0,nan,0.0,0.0,0.00097322464,-0.0020233765,0.00019225478,0.00091555715,0.0,0.0,0.0,0.0,0.0,0.0
895552000,895472000,-0.041796785,-0.047042392,0.087150216,-0.01894188,-0.027378082,0.0,0.0,0.0,0.0,0.0,0.0,0.0,0.0,0.0105896,0.0,0.0,nan,0.0,0.0,-0.009514332,-0.0020233765,0.00019225478,0.00091555715,0.0,0.0,0.0,0.0,0.0,0.0
896056000,895976000,-0.08654278,-0.031205596,0.04005921,-0.027029991,-0.019569397,0.0,0.0,0.0,0.0,0.0,0.0,0.0,0.0,0.0,0.0,0.0,nan,0.0,0.0,0.0024424791,-0.0020233765,0.00019225478,0.00091555715,0.0,0.0,0.0,0.0,0.0,0.0
896560000,896480000,-0.036800798,-0.029669795,0.029263938,-0.02589655,-0.030612946,0.0,0.0,0.0,0.0,0.0,0.0,0.0,0.0,0.0,0.0,0.0,nan,0.0,0.0,-0.0064451694,-0.0020233765,0.00019225478,0.00091555715,0.0,0.0,0.0,0.0,0.0,0.0
897056000,896976000,-0.024844564,-0.025259623,0.031730533,-0.01847744,-0.024913788,0.0,0.0,0.0,0.0,0.0,0.0,0.0,0.0,0.0,0.0,0.0,nan,0.0,0.0,-0.004413128,-0.0020233765,0.00019225478,0.00091555715,0.0,0.0,0.0,0.0,0.0,0.0
897560000,897480000,-0.026463678,-0.025923729,0.033805296,-0.021913528,-0.027301788,0.0,0.0,0.0,0.0,0.0,0.0,0.0,0.0,0.03163147,0.0,0.0,nan,0.0,0.0,-0.013289213,-0.0020233765,0.00019225478,0.00091555715,0.0,0.0,0.0,0.0,0.0,0.0
898056000,897976000,-0.021219466,-0.022044577,0.061690778,-0.015147686,-0.010093689,0.0,0.0,0.0,0.0,0.0,0.0,0.0,0.0,-0.055770874,0.0,0.0,nan,0.0,0.0,-0.01702571,-0.0020233765,0.00019225478,0.00091555715,0.0,0.0,0.0,0.0,0.0,0.0
898552000,898472000,-0.030290687,-0.022475876,0.05881878,-0.014140606,-0.009868622,0.0,0.0,0.0,0.0,0.0,0.0,0.0,0.0,-0.1430664,0.0,0.0,nan,0.0,0.0,-0.0065039396,-0.0020233765,0.00019225478,0.00091555715,0.0,0.0,0.0,0.0,0.0,0.0
899056000,898976000,-0.00030083294,-0.0032885785,-0.039535042,0.002111435,0.015403748,0.0,0.0,0.0,0.0,0.0,0.0,0.0,0.0,-0.27337646,0.0,0.0,nan,0.0,0.0,-0.013594389,-0.0020233765,0.00019225478,0.00091555715,0.0,0.0,0.0,0.0,0.0,0.0
899560000,899480000,-0.0013655878,0.02721496,-0.0036559706,0.0025191307,0.010131836,0.0,0.0,0.0,0.0,0.0,0.0,0.0,0.0,-0.14437866,0.0,0.0,nan,0.0,0.0,-0.024685264,-0.0020233765,0.00019225478,0.00091555715,0.0,0.0,0.0,0.0,0.0,0.0
900056000,899976000,0.011192952,-0.00216255,0.0018494423,0.0027170181,0.009819031,0.0,0.0,0.0,0.0,0.0,0.0,0.0,0.0,-0.1085968,0.0,0.0,nan,0.0,0.0,-0.0066399574,-0.0020233765,0.00019225478,0.00091555715,0.0,0.0,0.0,0.0,0.0,0.0
