timestamp,timestamp_sample,states[0],states[1],states[2],states[3],states[4],states[5],states[6],states[7],states[8],states[9],states[10],states[11],states[12],states[13],states[14],states[15],states[16],states[17],states[18],states[19],states[20],states[21],states[22],states[23],covariances[0],covariances[1],covariances[2],covariances[3],covariances[4],covariances[5],covariances[6],covariances[7],covariances[8],covariances[9],covariances[10],covariances[11],covariances[12],covariances[13],covariances[14],covariances[15],covariances[16],covariances[17],covariances[18],covariances[19],covariances[20],covariances[21],covariances[22],covariances[23],n_states
830052000,829972000,0.8487744,0.010403754,0.0023004683,-0.52864796,0.0019140156,-6.6797256e-05,0.00046400022,-0.44760016,-1.1149017,0.12664609,2.4889723e-06,-1.8868353e-05,1.0032276e-05,0.00016545826,9.346654e-05,-0.0010668335,0.19038235,-0.01668034,0.48866543,0.004196182,-0.0008666845,0.00076545164,0.0,0.0,2.2686068e-05,6.0484326e-06,6.064261e-06,5.7529163e-05,0.00021650748,0.00021651358,0.00022833025,0.0015703476,0.0015703535,0.0036062042,8.926465e-12,8.926454e-12,2.2964452e-11,1.1554106e-07,1.1549402e-07,5.0000224e-08,0.0,0.0,0.0,0.0,0.0,0.0,0.0,0.0,24
831052000,830972000,0.84879714,0.010237577,0.0026353924,-0.52861303,0.0012060357,-0.0028633417,-0.00024415602,-0.44789648,-1.1154722,0.12647936,2.609103e-06,-1.889986e-05,9.985032e-06,0.00016548506,9.341226e-05,-0.0010443217,0.19038235,-0.01668034,0.48866543,0.004196182,-0.0008666845,0.00076545164,0.0,0.0,2.2690665e-05,6.0239136e-06,6.0394023e-06,5.7537487e-05,0.00017027181,0.00017027184,0.00017791342,0.0015631086,0.001563114,0.0035917745,8.906047e-12,8.905811e-12,2.2966108e-11,1.1554518e-07,1.15498004e-07,5.0000224e-08,0.0,0.0,0.0,0.0,0.0,0.0,0.0,0.0,24
832052000,831972000,0.84891397,0.010293236,0.0032488047,-0.5284209,0.00147723,0.0013861342,0.002326555,-0.4476844,-1.1154345,0.12630136,2.6888752e-06,-1.921508e-05,9.926521e-06,0.00016541469,9.332353e-05,-0.0010573838,0.19038235,-0.01668034,0.48866543,0.004196182,-0.0008666845,0.00076545164,0.0,0.0,2.2684724e-05,5.9964145e-06,6.011986e-06,5.7555822e-05,0.00012551538,0.00012551756,0.00012993504,0.0015564795,0.0015564851,0.0035770065,8.885457e-12,8.884756e-12,2.2967305e-11,1.1554858e-07,1.1550181e-07,5.0000075e-08,0.0,0.0,0.0,0.0,0.0,0.0,0.0,0.0,24
833044000,832964000,0.84905344,0.010375147,0.0032536774,-0.5281951,0.0002593781,0.0011394722,0.00021491149,-0.44754493,-1.1157291,0.12616718,2.6776693e-06,-1.922505e-05,9.847107e-06,0.0001654333,9.331996e-05,-0.0010911202,0.19038235,-0.01668034,0.48866543,0.004196182,-0.0008666845,0.00076545164,0.0,0.0,2.266971e-05,5.963934e-06,5.9799163e-06,5.7552264e-05,7.40827e-05,7.4083204e-05,7.568997e-05,0.0015502777,0.0015502835,0.00356275,8.860582e-12,8.859967e-12,2.2964729e-11,1.1555205e-07,1.15505316e-07,5.000011e-08,0.0,0.0,0.0,0.0,0.0,0.0,0.0,0.0,24
834044000,833964000,0.8491018,0.010304121,0.003353829,-0.52811813,-0.00048274704,-0.0009826801,0.0011197473,-0.4470681,-1.1156976,0.12663342,2.9032067e-06,-1.8938714e-05,9.760649e-06,0.00016552201,9.341212e-05,-0.0011102719,0.19038235,-0.01668034,0.48866543,0.004196182,-0.0008666845,0.00076545164,0.0,0.0,2.2676966e-05,5.93908e-06,5.9545964e-06,5.7557125e-05,3.2873908e-05,3.28738e-05,3.320275e-05,0.0015468642,0.00154687,0.0035489756,8.839805e-12,8.839348e-12,2.2966936e-11,1.15556126e-07,1.1550942e-07,5.0000146e-08,0.0,0.0,0.0,0.0,0.0,0.0,0.0,0.0,24
835052000,834972000,0.84916013,0.010480343,0.0035250764,-0.5280198,2.179794e-06,-1.0657077e-06,-9.909949e-06,-0.44742313,-1.1153603,0.12693276,3.06214e-06,-1.9013345e-05,9.724321e-06,0.00016559928,9.340171e-05,-0.0011203733,0.19038235,-0.01668034,0.48866543,0.004196182,-0.0008666845,0.00076545164,0.0,0.0,2.2683864e-05,5.920616e-06,5.936489e-06,5.7601363e-05,1e-06,1e-06,1e-06,0.0015412,0.0015412054,0.0035354327,8.823865e-12,8.823128e-12,2.2973439e-11,1.1556038e-07,1.15513785e-07,5e-08,0.0,0.0,0.0,0.0,0.0,0.0,0.0,0.0,24
836044000,835964000,0.84909004,0.010467437,0.0035568562,-0.5281326,-0.0010568657,-0.0012529077,-0.0019798432,-0.44744596,-1.1153275,0.12766919,3.328024e-06,-1.9133928e-05,9.673569e-06,0.00016567859,9.342608e-05,-0.0011103665,0.19038235,-0.01668034,0.48866543,0.004196182,-0.0008666845,0.00076545164,0.0,0.0,2.2692862e-05,6.0182592e-06,6.0339917e-06,5.757543e-05,0.00017044865,0.00017045341,0.00017798849,0.0015361717,0.0015361768,0.003523688,8.906287e-12,8.9051405e-12,2.2971392e-11,1.1556453e-07,1.1551806e-07,5.000074e-08,0.0,0.0,0.0,0.0,0.0,0.0,0.0,0.0,24
837052000,836972000,0.84942013,0.010824301,0.0034687838,-0.52759486,0.007210529,-0.0053615514,-0.0021412526,-0.44403452,-1.1180393,0.12522818,3.3472622e-06,-1.9126832e-05,9.562714e-06,0.00016570173,9.341132e-05,-0.0011096154,0.19038235,-0.01668034,0.48866543,0.004196182,-0.0008666845,0.00076545164,0.0,0.0,2.2676213e-05,6.5083154e-06,6.5247273e-06,5.7642752e-05,0.0014156554,0.0014158014,0.0016377075,0.001907456,0.0019074932,0.003947671,9.302712e-12,9.301638e-12,2.297784e-11,1.1556918e-07,1.155227e-07,5.0000146e-08,0.0,0.0,0.0,0.0,0.0,0.0,0.0,0.0,24
838044000,837964000,0.8501076,0.010625065,0.0055103046,-0.52647305,-0.0087296665,-0.005904192,-1.5654278,-0.4595482,-1.1368207,-0.6183957,3.4105292e-06,-1.9130248e-05,9.53477e-06,0.00016602731,9.135938e-05,-0.0011195488,0.19038235,-0.01668034,0.48866543,0.004196182,-0.0008666845,0.00076545164,0.0,0.0,2.2574308e-05,6.9925222e-06,7.007374e-06,5.7728947e-05,0.0042266645,0.004227239,0.0045482977,0.005495991,0.005496382,0.0082988525,9.6929825e-12,9.691992e-12,2.297553e-11,1.1547083e-07,1.1542433e-07,5.000015e-08,0.0,0.0,0.0,0.0,0.0,0.0,0.0,0.0,24
839052000,838972000,0.8566404,0.013043646,0.007938196,-0.5156879,0.015201981,-0.0033939758,-0.59329796,-0.4635909,-1.1460842,-1.6656548,3.49489e-06,-1.9191586e-05,9.498902e-06,0.00016582083,9.081241e-05,-0.0011088618,0.19389938,-0.016711844,0.488484,0.004196182,-0.0008666845,0.00076545164,0.0,0.0,0.00037332307,7.488876e-06,7.649168e-06,0.0010579024,0.006450162,0.0064511346,0.008368562,0.016438812,0.016440427,0.022888148,1.0030303e-11,1.0029279e-11,2.32367e-11,1.15359235e-07,1.1531297e-07,5.000011e-08,0.0,0.0,0.0,0.0,0.0,0.0,0.0,0.0,24
840044000,839964000,0.8545223,0.013676236,0.007125255,-0.5191857,0.01317193,0.0026231084,-0.2357242,-0.4717822,-1.1414263,-2.0411525,3.599975e-06,-1.9266308e-05,9.506611e-06,0.00017690472,0.00010359184,-0.0011111803,0.19389938,-0.016711844,0.488484,0.004196182,-0.0008666845,0.00076545164,0.0,0.0,0.00019755712,7.351238e-06,7.461181e-06,0.0005598123,0.010973588,0.010973574,0.011355048,0.030346075,0.030348426,0.048553158,1.0320855e-11,1.0319794e-11,2.3743747e-11,1.1000843e-07,1.099679e-07,5.000015e-08,0.0,0.0,0.0,0.0,0.0,0.0,0.0,0.0,24
841052000,840972000,0.8547511,0.026272388,0.015298368,-0.5181471,-0.017517183,0.043015596,-0.040550306,-0.49890125,-1.1202368,-2.0713253,3.6549227e-06,-1.9343835e-05,9.51407e-06,0.00020019448,0.00011213428,-0.0011055858,0.19389938,-0.016711844,0.488484,0.004196182,-0.0008666845,0.00076545164,0.0,0.0,0.00013017647,6.3710086e-06,6.601731e-06,0.00037324123,0.012479227,0.012476469,0.0123889465,0.040693536,0.040695045,0.07735316,1.0685525e-11,1.0684478e-11,2.4257377e-11,9.5733434e-08,9.570542e-08,5.000011e-08,0.0,0.0,0.0,0.0,0.0,0.0,0.0,0.0,24
842052000,841972000,0.8473009,0.12721175,0.07827009,-0.50967854,0.032332562,1.0787013,-0.6071919,-0.45755312,-0.702412,-2.3943553,3.6398765e-06,-1.9301262e-05,9.520903e-06,0.0001702222,9.544122e-05,-0.0011259906,0.19389938,-0.016711844,0.488484,0.004196182,-0.0008666845,0.00076545164,0.0,0.0,9.416161e-05,7.865077e-06,1.11952895e-05,0.0002761039,0.015503314,0.014600329,0.013650074,0.0565305,0.05653234,0.112241335,1.1141591e-11,1.11403916e-11,2.4764892e-11,8.826834e-08,8.8262894e-08,5.0000036e-08,0.0,0.0,0.0,0.0,0.0,0.0,0.0,0.0,24
843052000,842972000,0.83910745,0.13923448,0.1025239,-0.5157532,-0.021976206,2.2143238,-0.74779266,-0.33181897,1.0206449,-3.0542765,3.5528585e-06,-1.9251052e-05,9.522332e-06,0.0001430825,4.884456e-05,-0.001149889,0.19389266,-0.01671749,0.48878983,0.0048942915,-0.0013727982,0.0014071967,0.0,0.0,8.1696555e-05,8.186631e-06,1.0069046e-05,0.00023327445,0.014327781,0.012992832,0.013403104,0.06317267,0.06316822,0.13628078,1.1603468e-11,1.1600473e-11,2.5274026e-11,8.311754e-08,8.339674e-08,5e-08,0.0013147276,2.4476674e-05,0.0013236665,0.0006928774,0.0010632211,0.0012090317,0.0,0.0,24
844052000,843972000,0.8389115,0.12515055,0.10848514,-0.5184554,-0.14713022,2.4971046,-0.76126575,-0.31055358,3.446227,-3.7304168,3.436908e-06,-1.9224246e-05,9.483035e-06,0.00014103987,1.1507107e-05,-0.0011809104,0.19337508,-0.016680147,0.4891265,0.005610219,-0.0024927936,0.0018735537,0.0,0.0,7.888642e-05,8.162569e-06,8.551909e-06,0.00022522103,0.01211668,0.011942427,0.0132051855,0.067746595,0.06771598,0.15359148,1.2067653e-11,1.2059647e-11,2.5779916e-11,8.05062e-08,8.118349e-08,5.0000075e-08,0.0012676433,2.3815443e-05,0.0012754354,0.000567467,0.0009879312,0.0011538441,0.0,0.0,24
845052000,844972000,0.83558625,0.12317666,0.10386864,-0.5251994,-0.13048312,2.5146363,-0.73606414,-0.40562803,5.9831095,-4.3602185,3.327021e-06,-1.9190416e-05,9.410736e-06,0.00015186412,-9.066015e-06,-0.0012268404,0.19300108,-0.016648777,0.48925415,0.005665269,-0.002923317,0.001880386,0.0,0.0,8.043719e-05,7.903972e-06,8.588519e-06,0.00022242744,0.010476344,0.010519641,0.012917207,0.068453886,0.06840818,0.16388051,1.2485133e-11,1.2467753e-11,2.625533e-11,7.870073e-08,7.9780335e-08,5.000004e-08,0.0012558257,2.3430992e-05,0.0012629014,0.0005320582,0.00097278046,0.0011426469,0.0,0.0,24
846044000,845964000,0.8320411,0.123158604,0.10095026,-0.5313649,-0.099313654,2.5258899,-0.80680996,-0.5364119,8.496462,-5.0092297,3.3450572e-06,-1.9190718e-05,9.419806e-06,0.00017200274,-1.5411333e-05,-0.0012792767,0.19290602,-0.016641725,0.4892682,0.0058432207,-0.0029535685,0.0018283303,0.0,0.0,8.189383e-05,8.018066e-06,9.029325e-06,0.00021949301,0.009993295,0.009840656,0.012895023,0.0684549,0.06842432,0.17175895,1.28285915e-11,1.2800778e-11,2.6679723e-11,7.741871e-08,7.899367e-08,5.000011e-08,0.0012476266,2.3085058e-05,0.0012565927,0.00051038305,0.0009680835,0.0011376862,0.0,0.0,24
847052000,846972000,0.82749665,0.12375236,0.09833176,-0.538763,-0.031923912,2.4905908,-0.8464811,-0.6194609,11.013812,-5.7225914,3.4505142e-06,-1.91514e-05,9.477391e-06,0.00018884927,-1.8791661e-05,-0.0013277648,0.19290602,-0.016641727,0.4892682,0.0058433493,-0.0029536304,0.0018283691,0.0,0.0,7.02097e-05,8.057317e-06,9.183099e-06,0.00018109218,0.01137627,0.010998589,0.013711439,0.076914854,0.0769073,0.17890131,1.3144994e-11,1.3102221e-11,2.7053738e-11,7.656281e-08,7.848985e-08,5.000004e-08,0.0,0.0,0.0,0.0,0.0,0.0,0.0,0.0,24
848044000,847964000,0.82199734,0.12565032,0.09824573,-0.5466993,0.021622235,2.5045574,-0.8797874,-0.6480342,13.479323,-6.400077,3.571872e-06,-1.9102086e-05,9.548893e-06,0.00021386832,-2.5267223e-05,-0.0013948872,0.19290602,-0.016641727,0.4892682,0.0058433493,-0.0029536304,0.0018283691,0.0,0.0,6.153626e-05,8.1707285e-06,9.361869e-06,0.00015217239,0.010902258,0.010568801,0.013606443,0.074909076,0.07489266,0.17916559,1.3275354e-11,1.3197243e-11,2.7348257e-11,7.554625e-08,7.8126e-08,5e-08,0.0,0.0,0.0,0.0,0.0,0.0,0.0,0.0,24
849044000,848964000,0.8166058,0.12533025,0.099384286,-0.55459,0.03385423,2.5167332,-0.89071906,-0.6501432,15.975364,-7.1464167,3.742486e-06,-1.9044022e-05,9.661845e-06,0.00023327117,-3.0452786e-05,-0.0014496784,0.19290602,-0.016641727,0.4892682,0.0058433493,-0.0029536304,0.0018283691,0.0,0.0,5.5238204e-05,8.384285e-06,9.481996e-06,0.0001312154,0.010990255,0.010724134,0.013663516,0.07443963,0.074399166,0.17932813,1.333423e-11,1.3206705e-11,2.763194e-11,7.4682575e-08,7.790817e-08,5.000004e-08,0.0,0.0,0.0,0.0,0.0,0.0,0.0,0.0,24
850052000,849972000,0.81284153,0.12013238,0.09850507,-0.5613856,0.012987573,2.4862034,-0.82727265,-0.64461,18.493649,-7.9029236,3.891226e-06,-1.900299e-05,9.73137e-06,0.0002461154,-3.5597324e-05,-0.0014912203,0.19290602,-0.016641727,0.4892682,0.0058433493,-0.0029536304,0.0018283691,0.0,0.0,5.0406576e-05,8.389385e-06,9.29705e-06,0.00011561971,0.010525399,0.010331105,0.013592893,0.07260561,0.072562516,0.18158111,1.3211344e-11,1.3008696e-11,2.7860466e-11,7.388953e-08,7.7721936e-08,5.000011e-08,0.0,0.0,0.0,0.0,0.0,0.0,0.0,0.0,24
851052000,850972000,0.8203587,0.0029025893,0.019404132,-0.5715127,0.007617832,1.7992121,-0.037490163,-0.65379804,20.853796,-8.416315,3.9528545e-06,-1.9173825e-05,9.796305e-06,0.00025414673,-3.687125e-05,-0.0015194173,0.19290602,-0.016641727,0.4892682,0.0058433493,-0.0029536304,0.0018283691,0.0,0.0,4.7012276e-05,7.0788137e-06,7.040411e-06,0.00010582665,0.010512743,0.009882865,0.013345714,0.07128506,0.07124486,0.17790487,1.3102031e-11,1.2808399e-11,2.8075195e-11,7.3247314e-08,7.7562454e-08,5e-08,0.0,0.0,0.0,0.0,0.0,0.0,0.0,0.0,24
852044000,851964000,0.8142671,-0.106699646,-0.068748236,-0.56644315,-0.007443405,-0.5414811,0.68277687,-0.7592406,21.486427,-7.975669,4.2818783e-06,-1.9642775e-05,1.021801e-05,0.00025614336,-3.0291909e-05,-0.0015333267,0.19341804,-0.016709322,0.48796302,0.0064989226,-0.0031656788,0.0005410391,0.0,0.0,4.1789855e-05,7.701033e-06,7.982852e-06,9.462998e-05,0.015260677,0.011371701,0.01397157,0.07992804,0.07929546,0.18189174,1.32394954e-11,1.2811361e-11,2.831021e-11,7.2758986e-08,7.725895e-08,5.000004e-08,0.0005838271,1.7500055e-05,0.00064642786,0.00023942569,0.0005134683,0.00061832526,0.0,0.0,24
853044000,852964000,0.8244591,-0.005173943,-0.04051083,-0.5644462,0.0891537,-1.0602051,0.68399024,-0.9724524,20.434996,-7.3767548,5.201184e-06,-1.9693447e-05,1.1041367e-05,0.00025787155,-2.778392e-05,-0.0015316702,0.19475341,-0.016870188,0.48758298,0.008074443,-0.00344121,-0.00074538577,0.0,0.0,3.5769874e-05,7.161654e-06,7.5624494e-06,8.5417145e-05,0.012286819,0.0113418605,0.013921211,0.07772891,0.077099636,0.18312141,1.3301116e-11,1.251359e-11,2.8501968e-11,7.2584626e-08,7.711698e-08,5.000015e-08,0.000536752,1.6796836e-05,0.00060118467,0.00018302925,0.0004660816,0.0005808458,0.0,0.0,24
854044000,853964000,0.8272022,0.011441866,-0.022941655,-0.5613192,0.24715282,-0.5639454,0.74807656,-0.8547931,19.571726,-6.7674923,5.7339353e-06,-1.923723e-05,1.1240225e-05,0.00027019947,-3.6575566e-05,-0.0014766159,0.19489291,-0.016889177,0.487628,0.008088119,-0.0031884385,-0.0004979246,0.0,0.0,3.4692977e-05,6.829289e-06,7.678998e-06,8.4693485e-05,0.009638722,0.009800534,0.013132358,0.068218574,0.06785666,0.17451064,1.3048993e-11,1.2014393e-11,2.889873e-11,7.2173194e-08,7.698015e-08,5.0000075e-08,0.0005198337,1.6398706e-05,0.000561797,0.00016073178,0.00044365381,0.0005516136,0.0,0.0,24
855052000,854972000,0.82620585,0.020354295,0.005065671,-0.5629778,0.13439487,-0.10352082,0.7867797,-0.6214026,19.20738,-6.033015,5.6320528e-06,-1.8842215e-05,1.1241161e-05,0.00028567464,-3.8534607e-05,-0.0014333815,0.19478264,-0.016888164,0.4877721,0.007928842,-0.0032060712,-0.0001605776,0.0,0.0,3.462112e-05,7.117965e-06,7.843365e-06,8.433344e-05,0.011225821,0.010886392,0.014143312,0.07475814,0.07461163,0.17913908,1.2805759e-11,1.1843126e-11,2.9393012e-11,7.169694e-08,7.685631e-08,5.000007e-08,0.0005121842,1.6072103e-05,0.00052814063,0.0001486595,0.00043390633,0.00052268995,0.0,0.0,24
856044000,855964000,0.7612511,0.2867885,0.20760117,-0.5432781,-0.05961714,2.2631295,-3.4161768,-0.4912813,19.291067,-5.8942757,5.3047615e-06,-1.7536195e-05,1.1355275e-05,0.00029574908,-3.8439688e-05,-0.0014047227,0.19447109,-0.016868424,0.48816365,0.007882139,-0.0034734174,0.000418766,0.0,0.0,2.8484594e-05,1.2027769e-05,1.7043742e-05,6.3180385e-05,0.018024314,0.013236834,0.0135141285,0.07280528,0.07273811,0.18036488,1.20838565e-11,1.1436576e-11,2.9806914e-11,7.1374984e-08,7.6766824e-08,5.000015e-08,0.0004337554,1.5399783e-05,0.0004425089,0.00013920171,0.00037716894,0.00043784117,0.0,0.0,24
857052000,856972000,0.75753564,0.2168498,0.20221557,-0.58157086,-0.058291573,6.403416,-3.4883373,-0.19094202,24.399534,-9.474049,3.4400832e-06,-1.5971835e-05,1.2377466e-05,0.00027615338,-7.890901e-05,-0.0014005594,0.19339648,-0.016899586,0.49027976,0.008320398,-0.00514265,0.00509973,0.0,0.0,2.282585e-05,7.3214305e-06,7.454292e-06,4.574153e-05,0.019469578,0.013356349,0.011730024,0.07300562,0.07288689,0.17889994,1.1385495e-11,1.103727e-11,3.005315e-11,7.085791e-08,7.61929e-08,5.000018e-08,0.00026305587,1.3592346e-05,0.00024753882,0.00010368965,0.00024920248,0.00021824657,0.0,0.0,24
858052000,857972000,0.8032262,0.026749939,0.062599264,-0.5917716,-0.2421359,3.6206107,-0.8229533,-0.23791333,29.892185,-11.79263,2.5011336e-06,-1.6733327e-05,1.2441338e-05,0.0003181217,-0.00013671994,-0.0013394578,0.19294919,-0.01704405,0.489364,0.009475107,-0.0067983693,0.005753573,0.0,0.0,2.1892667e-05,4.629049e-06,4.715622e-06,4.782943e-05,0.012042453,0.011609431,0.010373794,0.07151082,0.07108399,0.17589082,1.138572e-11,1.0989654e-11,3.0511153e-11,6.777833e-08,7.267069e-08,5.0000075e-08,0.00024201653,1.2978604e-05,0.00021677403,8.383109e-05,0.00022617799,0.00019821136,0.0,0.0,24
859044000,858964000,0.8067628,-0.039674543,-0.022878129,-0.5890979,-0.26690653,1.2396646,-0.09345978,-0.6037331,32.34494,-12.215204,2.6354703e-06,-1.734464e-05,1.2739155e-05,0.0003742117,-0.00010602643,-0.0013058237,0.19364262,-0.01728022,0.48879334,0.010481907,-0.0075635007,0.0049990937,0.0,0.0,2.0638616e-05,4.7122085e-06,4.730413e-06,4.6010155e-05,0.0133223655,0.011478042,0.010646814,0.06994611,0.06966287,0.17217226,1.15750794e-11,1.1145181e-11,3.0760523e-11,6.3498305e-08,6.756954e-08,5.0000036e-08,0.00023105898,1.2500091e-05,0.00019598847,7.129391e-05,0.00021313173,0.00018565744,0.0,0.0,24
860044000,859964000,0.80929923,-0.01962725,-0.029420126,-0.58633107,0.08549119,-0.5520145,0.1158928,-0.77242565,32.4325,-12.128804,3.0184865e-06,-1.75973e-05,1.3216462e-05,0.00038210533,-8.671856e-05,-0.0013025185,0.19493972,-0.017627673,0.48860934,0.0111029055,-0.008624988,0.0035438263,0.0,0.0,1.9022293e-05,4.6252644e-06,4.531594e-06,4.329064e-05,0.015029431,0.012548553,0.00990573,0.077449344,0.07723557,0.17481346,1.1865159e-11,1.1380687e-11,3.0944282e-11,6.29567e-08,6.6904676e-08,5.0000146e-08,0.0002226869,1.1994375e-05,0.00016343335,6.073977e-05,0.00020457998,0.00015945503,0.0,0.0,24
861044000,860964000,0.8058625,0.024214152,-0.007481891,-0.5915601,0.20334256,-0.22808382,0.057318654,-0.76300454,31.983309,-12.140886,3.5127002e-06,-1.7655944e-05,1.3604675e-05,0.00038596184,-4.1585798e-05,-0.0012810209,0.19569334,-0.01776807,0.48828036,0.011502776,-0.008935282,0.0031260492,0.0,0.0,1.8857489e-05,4.2614615e-06,4.440356e-06,4.178432e-05,0.013053345,0.012551588,0.0099349525,0.07550726,0.07528991,0.17155944,1.2058253e-11,1.14871454e-11,3.1237478e-11,6.0472644e-08,6.435024e-08,5.000011e-08,0.00021789242,1.1706312e-05,0.0001569777,5.6353227e-05,0.00019998131,0.00015423527,0.0,0.0,24
862044000,861964000,0.80427694,0.020878948,0.001584399,-0.59388584,0.18730259,0.05021143,0.0695976,-0.614181,31.906326,-12.189646,3.7659036e-06,-1.767321e-05,1.3674491e-05,0.0003864087,-1.4548021e-05,-0.0012508892,0.19591661,-0.017802136,0.4881708,0.011572194,-0.008957407,0.0029693188,0.0,0.0,1.9581106e-05,4.2581437e-06,4.420986e-06,4.2581327e-05,0.012971895,0.012801032,0.010876785,0.07500468,0.07483118,0.16920337,1.2232842e-11,1.1621083e-11,3.1676526e-11,5.71925e-08,6.091189e-08,5.000007e-08,0.00021494333,1.1484732e-05,0.00015396927,5.36137e-05,0.00019710671,0.00015174689,0.0,0.0,24
863044000,862964000,0.8031151,0.011872151,0.0037679798,-0.59569377,0.07846645,0.07608753,0.06437688,-0.5111025,31.974262,-12.252238,3.9193606e-06,-1.7692792e-05,1.3661643e-05,0.00038722222,1.6544067e-06,-0.0011998944,0.19599102,-0.017814456,0.48811325,0.011569005,-0.008955657,0.0028436761,0.0,0.0,2.034449e-05,4.2987213e-06,4.385884e-06,4.3507294e-05,0.012017086,0.01185546,0.011911793,0.07287385,0.072760634,0.16804324,1.2316892e-11,1.1711901e-11,3.210715e-11,5.3750437e-08,5.715871e-08,5.0000114e-08,0.0,0.0,0.0,0.0,0.0,0.0,0.0,0.0,24
864052000,863972000,0.80258656,0.00938556,0.0019358192,-0.5964587,0.03224866,0.036559977,0.10136162,-0.47688174,32.03541,-12.310899,3.98075e-06,-1.7730916e-05,1.36359695e-05,0.00038903256,8.270048e-06,-0.0011381115,0.19599102,-0.017814456,0.48811325,0.011569005,-0.008955657,0.0028436761,0.0,0.0,2.0513577e-05,4.5251863e-06,4.587158e-06,4.3311848e-05,0.011377297,0.011216333,0.01279443,0.07176766,0.07169663,0.16619751,1.2431476e-11,1.1853262e-11,3.2430017e-11,5.1439415e-08,5.4597194e-08,5e-08,0.0,0.0,0.0,0.0,0.0,0.0,0.0,0.0,24
865044000,864964000,0.80228645,0.009898863,0.0010728706,-0.5968563,0.012304688,0.0028340705,0.14720671,-0.46419895,32.053677,-12.317202,4.000307e-06,-1.774368e-05,1.3605758e-05,0.00038900378,1.0715488e-05,-0.0010872615,0.19599102,-0.017814456,0.48811325,0.011569005,-0.008955657,0.0028436761,0.0,0.0,2.0690293e-05,4.996601e-06,5.0529507e-06,4.3207765e-05,0.0128015755,0.012598002,0.014395559,0.08037169,0.08029736,0.17125638,1.2636096e-11,1.20850665e-11,3.2714942e-11,5.034681e-08,5.3376485e-08,5e-08,0.0,0.0,0.0,0.0,0.0,0.0,0.0,0.0,24
866044000,865964000,0.8020179,0.009199074,0.0014482317,-0.5972276,0.0032338938,-0.008152519,0.15070902,-0.4489414,32.067345,-12.342088,3.9454426e-06,-1.7789971e-05,1.36031995e-05,0.0003904629,9.906789e-06,-0.0010207318,0.19599102,-0.017814456,0.48811325,0.011569005,-0.008955657,0.0028436761,0.0,0.0,2.0875787e-05,5.273065e-06,5.309051e-06,4.315132e-05,0.011806052,0.011636759,0.014691465,0.07792125,0.0778663,0.1752395,1.264614e-11,1.2141036e-11,3.2965065e-11,5.0000864e-08,5.236972e-08,5.0000224e-08,0.0,0.0,0.0,0.0,0.0,0.0,0.0,0.0,24
867044000,866964000,0.8019193,0.007860166,0.0026431722,-0.597375,-0.009124858,-0.0061769225,0.1487873,-0.44398367,32.087128,-12.3515215,3.889065e-06,-1.790076e-05,1.3606095e-05,0.0003924703,9.445303e-06,-0.00095191266,0.19599102,-0.017814456,0.48811325,0.011569005,-0.008955657,0.0028436761,0.0,0.0,2.1076728e-05,5.419336e-06,5.4323677e-06,4.3180644e-05,0.009849078,0.009742004,0.013755435,0.06827957,0.06825217,0.17188491,1.2511176e-11,1.2062407e-11,3.317836e-11,5.0000075e-08,5.189197e-08,5.0000075e-08,0.0,0.0,0.0,0.0,0.0,0.0,0.0,0.0,24
868052000,867972000,0.80189264,0.008038685,0.0006709334,-0.5974138,-0.007187504,-0.023572857,0.12884793,-0.45188224,32.08636,-12.310891,3.8417224e-06,-1.79527e-05,1.3605731e-05,0.00039278722,9.321476e-06,-0.0009142874,0.19599102,-0.017814456,0.48811325,0.011569005,-0.008955657,0.0028436761,0.0,0.0,2.1366477e-05,5.7958423e-06,5.803133e-06,4.3395205e-05,0.010863009,0.010767224,0.014556553,0.07499048,0.07494851,0.17592365,1.2526031e-11,1.2118103e-11,3.3373023e-11,5.0000143e-08,5.1809202e-08,5.000007e-08,0.0,0.0,0.0,0.0,0.0,0.0,0.0,0.0,24
869044000,868964000,0.8020571,0.0060005835,0.00046671875,-0.5972171,-0.0058881873,-0.025048919,0.10825925,-0.46168697,32.089787,-12.272439,3.8522007e-06,-1.8081937e-05,1.3528354e-05,0.000392981,9.729122e-06,-0.0008864361,0.19599102,-0.017814456,0.48811325,0.011569005,-0.008955657,0.0028436761,0.0,0.0,2.1664153e-05,5.9459353e-06,5.938773e-06,4.365431e-05,0.010472773,0.010405058,0.014311004,0.07306836,0.07303308,0.1763538,1.23698725e-11,1.2011324e-11,3.352553e-11,5.000018e-08,5.1776855e-08,5.000011e-08,0.0,0.0,0.0,0.0,0.0,0.0,0.0,0.0,24
870052000,869972000,0.8021927,0.0061339834,-0.0016448745,-0.5970315,0.004290549,-0.02240338,0.08219111,-0.47437435,32.072792,-12.231577,3.925656e-06,-1.8137473e-05,1.3470314e-05,0.0003926542,9.5179175e-06,-0.0008732128,0.19599102,-0.017814456,0.48811325,0.011569005,-0.008955657,0.0028436761,0.0,0.0,2.2022356e-05,6.093843e-06,6.0808165e-06,4.403292e-05,0.010575487,0.010519687,0.014260761,0.07282506,0.07279155,0.17748171,1.2221446e-11,1.190878e-11,3.365641e-11,5.0000217e-08,5.173457e-08,5.000007e-08,0.0,0.0,0.0,0.0,0.0,0.0,0.0,0.0,24
871052000,870972000,0.8021816,0.006662367,0.0009105578,-0.59704244,0.010446288,-0.009946829,0.03781261,-0.47760695,32.0329,-12.197661,4.049328e-06,-1.8041232e-05,1.3404178e-05,0.00039365888,8.363039e-06,-0.00087304914,0.19599102,-0.017814456,0.48811325,0.011569005,-0.008955657,0.0028436761,0.0,0.0,2.2412656e-05,6.0523003e-06,6.036433e-06,4.4439996e-05,0.010126914,0.01008024,0.013944075,0.070863284,0.07083773,0.17701143,1.1957231e-11,1.1693988e-11,3.3749357e-11,5.0000107e-08,5.1618663e-08,5.0000036e-08,0.0,0.0,0.0,0.0,0.0,0.0,0.0,0.0,24
872044000,871964000,0.80207515,0.007155982,0.0037204647,-0.59716874,0.009924822,0.008728621,0.009622305,-0.5008675,32.016594,-12.176681,4.3230957e-06,-1.8009883e-05,1.3332204e-05,0.00039413315,4.3575646e-06,-0.00087620236,0.19599102,-0.017814456,0.48811325,0.011569005,-0.008955657,0.0028436761,0.0,0.0,2.2828448e-05,6.014505e-06,5.9983695e-06,4.4873123e-05,0.009927571,0.00988682,0.013796149,0.06948212,0.06946074,0.1784925,1.1731568e-11,1.15114125e-11,3.3807988e-11,5.000011e-08,5.144521e-08,5.000011e-08,0.0,0.0,0.0,0.0,0.0,0.0,0.0,0.0,24
873052000,872972000,0.8021367,0.007930992,0.003153431,-0.59707946,0.03465532,0.026227474,-0.0062786792,-0.50698537,32.020657,-12.169408,4.5330594e-06,-1.7969245e-05,1.3246468e-05,0.000394851,1.0714937e-06,-0.00088313234,0.19599102,-0.017814456,0.48811325,0.011569005,-0.008955657,0.0028436761,0.0,0.0,2.320653e-05,6.189519e-06,6.1747687e-06,4.5271572e-05,0.0112980725,0.01125476,0.014680449,0.07717739,0.07714473,0.18370926,1.1676111e-11,1.14863405e-11,3.3814864e-11,5.0000175e-08,5.1275816e-08,5.0000185e-08,0.0,0.0,0.0,0.0,0.0,0.0,0.0,0.0,24
874044000,873964000,0.80245245,0.0051443065,0.005213941,-0.5966713,0.03227538,0.023476897,-0.006581046,-0.52089006,32.03538,-12.157773,4.8082497e-06,-1.8011147e-05,1.3213587e-05,0.00039427582,-3.8178077e-06,-0.0008944853,0.19599102,-0.017814456,0.48811325,0.011569005,-0.008955657,0.0028436761,0.0,0.0,2.3607214e-05,6.047561e-06,6.0318303e-06,4.5828867e-05,0.010826633,0.010796104,0.01437424,0.074986234,0.074960835,0.18173426,1.143669e-11,1.1282031e-11,3.381382e-11,5.0000207e-08,5.103009e-08,5.0000036e-08,0.0,0.0,0.0,0.0,0.0,0.0,0.0,0.0,24
875052000,874972000,0.8019451,0.022931784,-0.0019674182,-0.59695417,0.0463165,0.03039413,-0.038014628,-0.54297227,32.041107,-12.142987,5.0074923e-06,-1.8038772e-05,1.3181876e-05,0.0003939762,-7.3223055e-06,-0.00090643944,0.19599102,-0.017814456,0.48811325,0.011569005,-0.008955657,0.0028436761,0.0,0.0,2.4096922e-05,6.0047873e-06,6.0214843e-06,4.6374138e-05,0.010934692,0.010912326,0.014342547,0.0747664,0.07474301,0.1810691,1.129077e-11,1.11634825e-11,3.3796552e-11,5.000101e-08,5.0803216e-08,5e-08,0.0,0.0,0.0,0.0,0.0,0.0,0.0,0.0,24
876052000,875972000,0.79156065,0.11009436,-0.113092236,-0.59035677,1.1142697,0.15603189,-0.1568131,-0.20415698,32.138798,-12.209203,5.5352875e-06,-1.8169927e-05,1.3111745e-05,0.00039205162,-1.7176626e-05,-0.0009209764,0.19599102,-0.017814456,0.48811325,0.011569005,-0.008955657,0.0028436761,0.0,0.0,2.4056984e-05,6.518603e-06,6.3932152e-06,4.581228e-05,0.010441945,0.010619547,0.014092519,0.07266462,0.072648115,0.18203172,1.1065985e-11,1.09616665e-11,3.36924e-11,5.000015e-08,5.054373e-08,5.000015e-08,0.0,0.0,0.0,0.0,0.0,0.0,0.0,0.0,24
877052000,876972000,0.7896596,0.1202952,-0.12348481,-0.5888279,2.2455928,0.17954199,-0.11764107,1.5416083,32.295498,-12.320092,5.696919e-06,-1.8110371e-05,1.3176968e-05,0.0003933103,-1.985998e-05,-0.0009386145,0.19691004,-0.017868822,0.48793408,0.011605132,-0.0082452865,0.0024544608,0.0,0.0,2.3860217e-05,6.2598624e-06,6.1459195e-06,4.52038e-05,0.010191812,0.010496037,0.013772506,0.071324944,0.07131159,0.18045972,1.0894867e-11,1.0806538e-11,3.3283046e-11,5.0000185e-08,5.0065974e-08,5.000015e-08,0.00014171233,1.0538592e-05,0.000110670444,4.4176715e-05,0.00013429414,0.00010997304,0.0,0.0,24
878044000,877964000,0.78679657,0.11811254,-0.114965595,-0.59479713,2.5007787,0.2076055,-0.049819417,3.9410162,32.4768,-12.391296,5.6793247e-06,-1.8029694e-05,1.3188894e-05,0.00039492061,-2.0294763e-05,-0.00094492687,0.1971831,-0.017903235,0.48813534,0.011705598,-0.008032731,0.0026008561,0.0,0.0,2.4827159e-05,6.1922638e-06,6.17586e-06,4.5489385e-05,0.011765558,0.0116780065,0.01459662,0.07963061,0.07962033,0.18399899,1.0945174e-11,1.0866205e-11,3.3176864e-11,5.0000185e-08,5.0000146e-08,5.0000075e-08,0.00011971484,1.0014347e-05,9.593222e-05,3.841163e-05,0.00011458971,9.566458e-05,0.0,0.0,24
879044000,878964000,0.7885611,0.048156176,-0.033740822,-0.61213887,2.149261,0.18279338,0.083375365,6.4439735,32.680588,-12.390747,5.4848265e-06,-1.7943497e-05,1.3186887e-05,0.00039639763,-1.7254964e-05,-0.0009444902,0.19719921,-0.017911369,0.48806432,0.011741415,-0.008046439,0.0025445116,0.0,0.0,2.692915e-05,5.6217323e-06,5.59807e-06,4.655246e-05,0.011135516,0.010952152,0.014364218,0.07732401,0.07726659,0.18233371,1.0808786e-11,1.0761217e-11,3.3264086e-11,5.000026e-08,5.000013e-08,5.0000075e-08,0.000111069865,9.689358e-06,8.9875146e-05,3.5067562e-05,0.00010672848,8.969536e-05,0.0,0.0,24
880052000,879972000,0.784828,0.0065249437,0.007857516,-0.61962944,0.89222974,0.07464615,0.6446266,7.9167547,32.843018,-12.166316,5.062131e-06,-1.7995797e-05,1.3330217e-05,0.00039730233,-1.2810063e-05,-0.0009444914,0.19712126,-0.017933713,0.48788878,0.011881268,-0.0079684565,0.0025626412,0.0,0.0,2.7978396e-05,5.4593006e-06,5.4003895e-06,4.65965e-05,0.009315091,0.009789716,0.013390354,0.068215765,0.06817889,0.17656474,1.0615284e-11,1.061964e-11,3.290292e-11,5.0000036e-08,5.0000036e-08,5.000011e-08,0.0,0.0,0.0,0.0,0.0,0.0,0.0,0.0,24
881044000,880964000,0.7909228,-0.019424142,0.03467128,-0.6106241,-0.33898494,-0.019476423,0.8755194,8.125145,32.917183,-11.246127,4.831708e-06,-1.8181638e-05,1.3626235e-05,0.00039911276,-1.2386319e-05,-0.0009563987,0.19714062,-0.01797918,0.4874158,0.01204105,-0.008039433,0.0020981391,0.0,0.0,2.6212885e-05,5.552234e-06,5.503234e-06,4.556401e-05,0.010302293,0.0113153355,0.014049328,0.07423872,0.074150965,0.17997375,1.0634947e-11,1.0727266e-11,3.1812625e-11,5.0000033e-08,5e-08,5e-08,8.036041e-05,9.012783e-06,6.785342e-05,2.9197769e-05,7.820442e-05,6.768528e-05,0.0,0.0,24
882044000,881964000,0.791536,-0.017965946,0.018175762,-0.61058813,-0.41885224,-0.07735057,0.84069836,7.7601066,32.927216,-10.4216795,4.6783257e-06,-1.8381976e-05,1.3819378e-05,0.00040124267,-1.1602539e-05,-0.0009509497,0.19700815,-0.018053098,0.4872236,0.0123050725,-0.008422488,0.0019042515,0.0,0.0,2.6137997e-05,5.424085e-06,5.3975714e-06,4.5386307e-05,0.010191138,0.010439959,0.013986383,0.07268961,0.072634645,0.18135555,1.05527765e-11,1.0771361e-11,3.1235223e-11,5.0000036e-08,5.0000036e-08,5.0000036e-08,6.86604e-05,8.625841e-06,5.8716843e-05,2.619314e-05,6.718225e-05,5.8592253e-05,0.0,0.0,24
883052000,882972000,0.79042995,-0.0003453828,0.0005343457,-0.61255205,-0.22869657,-0.09785602,0.89911014,7.436846,32.847664,-9.533951,4.6005944e-06,-1.841006e-05,1.3805888e-05,0.00040270103,-1.0499481e-05,-0.00095267943,0.19720325,-0.018104212,0.48720157,0.012463089,-0.008386668,0.0018611909,0.0,0.0,2.7151515e-05,5.5106484e-06,5.456887e-06,4.6540237e-05,0.010340812,0.010244218,0.014057124,0.0725317,0.07247224,0.18091741,1.0518957e-11,1.0828013e-11,3.1258225e-11,5.000007e-08,5.000007e-08,5.0000136e-08,6.329975e-05,8.351171e-06,5.4410517e-05,2.4199995e-05,6.205621e-05,5.430949e-05,0.0,0.0,24
884052000,883972000,0.7894714,0.007875623,-0.0028169476,-0.6137305,-0.040995605,-0.04115092,0.88244283,7.3350105,32.777363,-8.642095,4.494577e-06,-1.8333183e-05,1.3751421e-05,0.0004044833,-9.895322e-06,-0.00095153594,0.19731182,-0.018144691,0.4871708,0.0125938505,-0.008415361,0.0018164119,0.0,0.0,2.8290602e-05,5.449727e-06,5.4292027e-06,4.800748e-05,0.009920262,0.009843755,0.013864071,0.07066142,0.07059856,0.17963658,1.0427379e-11,1.0765542e-11,3.1414427e-11,5.000007e-08,5.000007e-08,5.000007e-08,0.0,0.0,0.0,0.0,0.0,0.0,0.0,0.0,24
885052000,884972000,0.7888921,0.006575179,0.00023121516,-0.61449665,0.007954741,-0.0029979192,0.8581761,7.3572474,32.757095,-7.753347,4.346962e-06,-1.8241726e-05,1.3774623e-05,0.00040521688,-8.8175675e-06,-0.0009591941,0.19731182,-0.018144691,0.4871708,0.0125938505,-0.008415361,0.0018164119,0.0,0.0,2.8711582e-05,5.4090706e-06,5.407301e-06,4.8343714e-05,0.009785629,0.009777458,0.013758215,0.06959196,0.06952755,0.17870165,1.0391219e-11,1.0706918e-11,3.124658e-11,5.000007e-08,5.000007e-08,5.0000143e-08,0.0,0.0,0.0,0.0,0.0,0.0,0.0,0.0,24
886044000,885964000,0.7890026,0.004202418,0.0022092746,-0.61437154,-0.018747997,0.0078811,0.80593044,7.3705115,32.754322,-6.930481,4.2699407e-06,-1.8164237e-05,1.3743057e-05,0.00040562305,-8.24986e-06,-0.0009608715,0.19731182,-0.018144691,0.4871708,0.0125938505,-0.008415361,0.0018164119,0.0,0.0,2.9027e-05,5.5565442e-06,5.5574033e-06,4.869635e-05,0.01103309,0.011063869,0.014603601,0.07675125,0.07666271,0.18268676,1.0471192e-11,1.0756687e-11,3.1056414e-11,5.000011e-08,5.000011e-08,5.0000143e-08,0.0,0.0,0.0,0.0,0.0,0.0,0.0,0.0,24
887052000,886972000,0.7890663,0.0046741157,0.003892294,-0.61427784,-0.025501529,0.01285258,0.7537112,7.3716993,32.752277,-6.1427855,4.177354e-06,-1.8079783e-05,1.3698843e-05,0.0004060345,-7.5769876e-06,-0.0009618966,0.19731182,-0.018144691,0.4871708,0.0125938505,-0.008415361,0.0018164119,0.0,0.0,2.9323679e-05,5.480114e-06,5.4935076e-06,4.9019556e-05,0.010700719,0.0107543785,0.014437884,0.075193405,0.075133085,0.18211916,1.04201404e-11,1.0664452e-11,3.0852543e-11,5.0000185e-08,5.0000185e-08,5.000022e-08,0.0,0.0,0.0,0.0,0.0,0.0,0.0,0.0,24
888044000,887964000,0.7892314,0.0046417518,0.0054736123,-0.614054,-0.030052343,0.0077155423,0.7245519,7.3563366,32.75572,-5.4100523,4.143192e-06,-1.8036137e-05,1.3625683e-05,0.00040608615,-7.10229e-06,-0.00096296036,0.19731182,-0.018144691,0.4871708,0.0125938505,-0.008415361,0.0018164119,0.0,0.0,2.9584156e-05,5.470142e-06,5.4904417e-06,4.930837e-05,0.010689751,0.010752273,0.014351908,0.07441685,0.07438021,0.18088226,1.0413656e-11,1.0620741e-11,3.06336e-11,5.0000256e-08,5.0000203e-08,5.0000146e-08,0.0,0.0,0.0,0.0,0.0,0.0,0.0,0.0,24
889044000,888964000,0.78913885,0.005686892,0.0048477785,-0.61416936,-0.015632376,0.0054788985,0.68853015,7.3291893,32.765022,-4.709767,4.15237e-06,-1.8041408e-05,1.3581431e-05,0.00040593543,-6.8730674e-06,-0.00096496573,0.19731182,-0.018144691,0.4871708,0.0125938505,-0.008415361,0.0018164119,0.0,0.0,2.9870786e-05,5.361564e-06,5.3836548e-06,4.957052e-05,0.010156245,0.010214464,0.01409108,0.07232012,0.07230107,0.17972521,1.0339552e-11,1.0508903e-11,3.0408877e-11,5.000007e-08,5.000007e-08,5.000007e-08,0.0,0.0,0.0,0.0,0.0,0.0,0.0,0.0,24
890052000,889972000,0.78909856,0.005143893,0.002806616,-0.6142387,-0.0075748116,-0.007541378,0.7037373,7.3204145,32.78027,-4.027756,4.1199164e-06,-1.8096318e-05,1.3528689e-05,0.00040526257,-7.172763e-06,-0.0009562907,0.19731182,-0.018144691,0.4871708,0.0125938505,-0.008415361,0.0018164119,0.0,0.0,3.0070481e-05,5.3347767e-06,5.3500135e-06,4.9694903e-05,0.009973594,0.01002168,0.013907036,0.071290396,0.07128436,0.1770156,1.03164985e-11,1.0455473e-11,3.0136487e-11,5e-08,5e-08,5e-08,0.0,0.0,0.0,0.0,0.0,0.0,0.0,0.0,24
891044000,890964000,0.7891666,0.0065819826,0.0017856394,-0.61414135,-0.005997909,-0.024561787,0.7105566,7.313245,32.78661,-3.3428447,4.0966206e-06,-1.8195282e-05,1.3440511e-05,0.0004042121,-7.4122327e-06,-0.0009476163,0.19731182,-0.018144691,0.4871708,0.0125938505,-0.008415361,0.0018164119,0.0,0.0,3.0344792e-05,5.549871e-06,5.568354e-06,4.9991097e-05,0.011509727,0.0115579385,0.01493469,0.0795685,0.079583384,0.18412665,1.0442399e-11,1.0562678e-11,2.991304e-11,5.0000075e-08,5.0000075e-08,5.000015e-08,0.0,0.0,0.0,0.0,0.0,0.0,0.0,0.0,24
892044000,891964000,0.7891724,0.0065235277,0.0020754917,-0.6141337,-0.00079482794,-0.03087726,0.70213336,7.318256,32.794804,-2.6340878,4.0043715e-06,-1.8345772e-05,1.332792e-05,0.00040282344,-6.791766e-06,-0.00094723405,0.19731182,-0.018144691,0.4871708,0.0125938505,-0.008415361,0.0018164119,0.0,0.0,3.06323e-05,5.461049e-06,5.4809525e-06,5.0278206e-05,0.011027299,0.011060396,0.01465695,0.077299625,0.07731534,0.18274428,1.0383719e-11,1.0481774e-11,2.968731e-11,5.000007e-08,5.000004e-08,5.000004e-08,0.0,0.0,0.0,0.0,0.0,0.0,0.0,0.0,24
893044000,892964000,0.7891185,0.0040025897,0.0013043439,-0.6142266,-0.0024653298,-0.031255603,0.6953765,7.3315897,32.81535,-1.966803,3.8643702e-06,-1.8577672e-05,1.3237011e-05,0.00040086007,-6.673371e-06,-0.00093203847,0.19731182,-0.018144691,0.4871708,0.0125938505,-0.008415361,0.0018164119,0.0,0.0,3.0920914e-05,5.237727e-06,5.2508844e-06,5.0553906e-05,0.009470074,0.009487601,0.013537631,0.06796249,0.067970656,0.17636058,1.0242974e-11,1.0320953e-11,2.946157e-11,5.0000075e-08,5.0000075e-08,5.0000075e-08,0.0,0.0,0.0,0.0,0.0,0.0,0.0,0.0,24
894052000,893972000,0.78915375,0.0047210963,0.0011103451,-0.6141765,-0.011477673,-0.04611166,0.70929855,7.334377,32.804867,-1.2741114,3.7679329e-06,-1.8722767e-05,1.3177825e-05,0.00039970054,-6.517977e-06,-0.00092211086,0.19731182,-0.018144691,0.4871708,0.0125938505,-0.008415361,0.0018164119,0.0,0.0,3.1196236e-05,5.369104e-06,5.3847534e-06,5.0876584e-05,0.010543484,0.01055834,0.01435063,0.07467583,0.074689254,0.18095963,1.0317322e-11,1.0384335e-11,2.924499e-11,5.000018e-08,5.0000075e-08,5.0000075e-08,0.0,0.0,0.0,0.0,0.0,0.0,0.0,0.0,24
895052000,894972000,0.7891282,0.0063814227,0.0017819878,-0.614193,-0.017728193,-0.042669494,0.71010625,7.3512087,32.7955,-0.5882111,3.5704077e-06,-1.8854822e-05,1.3065778e-05,0.00039842297,-5.772119e-06,-0.0009099209,0.19731182,-0.018144691,0.4871708,0.0125938505,-0.008415361,0.0018164119,0.0,0.0,3.134293e-05,5.3199165e-06,5.340422e-06,5.0954914e-05,0.010259713,0.010270022,0.01423477,0.073094584,0.07310534,0.18234392,1.0284128e-11,1.03401055e-11,2.897154e-11,5e-08,5.000002e-08,5.000022e-08,0.0,0.0,0.0,0.0,0.0,0.0,0.0,0.0,24
896052000,895972000,0.78917193,0.0039005203,0.0019866563,-0.61415684,0.046856537,-0.02189464,0.59371537,7.3737645,32.794003,0.086071014,3.2946834e-06,-1.8969455e-05,1.2973501e-05,0.00039727427,-4.7184244e-06,-0.0008926545,0.19731182,-0.018144691,0.4871708,0.0125938505,-0.008415361,0.0018164119,0.0,0.0,3.158324e-05,5.3290264e-06,5.344845e-06,5.121181e-05,0.010373438,0.010385204,0.014187442,0.07265211,0.07266126,0.18137547,1.0287543e-11,1.0335313e-11,2.8751085e-11,5e-08,5e-08,5.0000185e-08,0.0,0.0,0.0,0.0,0.0,0.0,0.0,0.0,24
897044000,896964000,0.793028,0.00326967,0.00132367,-0.60917515,-0.022220261,-0.021544367,0.045541678,7.381377,32.797493,0.09367089,3.121554e-06,-1.9062036e-05,1.2866931e-05,0.000397918,-5.988869e-06,-0.0008918355,0.19731182,-0.018144691,0.4871708,0.0125938505,-0.008415361,0.0018164119,0.0,0.0,3.1290456e-05,4.888485e-06,4.9004093e-06,5.192045e-05,0.010599762,0.010613172,0.010857321,0.07052811,0.07053422,0.17904629,1.0185564e-11,1.0223102e-11,2.852562e-11,5.000004e-08,5.000004e-08,5.000004e-08,0.0,0.0,0.0,0.0,0.0,0.0,0.0,0.0,24
898052000,897972000,0.7930296,0.0034091445,0.0009050692,-0.6091729,-0.01776785,-0.01996301,0.059681103,7.383338,32.80185,0.12320455,2.967208e-06,-1.9169816e-05,1.2708678e-05,0.0004025176,-1.3136218e-05,-0.0008845308,0.19731182,-0.018144691,0.4871708,0.0125938505,-0.008415361,0.0018164119,0.0,0.0,3.151606e-05,4.3845253e-06,4.3941077e-06,5.2128635e-05,0.011393318,0.011404546,0.00987096,0.069708556,0.06971497,0.17624305,1.0187466e-11,1.0215899e-11,2.8308652e-11,5.0000146e-08,5.0000146e-08,5.000007e-08,0.0,0.0,0.0,0.0,0.0,0.0,0.0,0.0,24
899052000,898972000,0.7934452,0.0043343045,0.00078334555,-0.6086258,5.6140554e-05,-0.0003283723,0.0016707461,7.3979244,32.818264,-0.012157027,2.6601567e-06,-1.9443412e-05,1.2514932e-05,0.00043036306,-4.3676297e-05,-0.00076509727,0.19731182,-0.018144691,0.4871708,0.0125938505,-0.008415361,0.0018164119,0.0,0.0,3.1655498e-05,2.392065e-06,2.3975936e-06,5.23219e-05,4.9862996e-05,4.9863225e-05,4.9904917e-05,0.04217746,0.042173967,0.092105925,9.695029e-12,9.707468e-12,2.8087923e-11,5.000017e-08,5.000018e-08,5e-08,0.0,0.0,0.0,0.0,0.0,0.0,0.0,0.0,24
900052000,899972000,0.7934765,0.0039035797,0.0005802924,-0.6085881,6.428174e-05,0.0001205112,-0.0017607962,7.3981895,32.818,-0.001021706,2.6687696e-06,-1.9454945e-05,1.2339713e-05,6.556971e-05,-7.617906e-05,0.00013632824,0.19731182,-0.018144691,0.4871708,0.0125938505,-0.008415361,0.0018164119,0.0,0.0,3.1833773e-05,2.9197154e-06,2.9249145e-06,5.2471714e-05,8.936035e-06,8.936029e-06,8.931649e-06,0.03585407,0.035851497,0.08194766,1.0128498e-11,1.0139977e-11,2.7870917e-11,1.3404662e-07,1.3397913e-07,7.301396e-08,0.0,0.0,0.0,0.0,0.0,0.0,0.0,0.0,24
