timestamp,timestamp_sample,yaw_composite,yaw_variance,yaw[0],yaw[1],yaw[2],yaw[3],yaw[4],innov_vn[0],innov_vn[1],innov_vn[2],innov_vn[3],innov_vn[4],innov_ve[0],innov_ve[1],innov_ve[2],innov_ve[3],innov_ve[4],weight[0],weight[1],weight[2],weight[3],weight[4]
836212000,836132000,3.0079389,3.7977512,-2.5132742,-1.2566371,0.0,1.2566371,2.5132742,0.0,0.0,0.0,0.0,0.0,0.0,0.0,0.0,0.0,0.0,0.2,0.2,0.2,0.2,0.2
836220000,836140000,2.9140046,3.7136397,-2.5132701,-1.2566329,4.1776657e-06,1.2566413,2.5132785,0.0,0.0,0.0,0.0,0.0,0.0,0.0,0.0,0.0,0.0,0.2,0.2,0.2,0.2,0.2
836228000,836148000,2.5295343,3.5533237,-2.513277,-1.25664,-2.8692416e-06,1.2566342,2.5132713,0.0,0.0,0.0,0.0,0.0,0.0,0.0,0.0,0.0,0.0,0.2,0.2,0.2,0.2,0.2
836236000,836156000,-1.7645533,3.8110888,-2.5132241,-1.2565871,4.992895e-05,1.256687,2.5133243,0.0,0.0,0.0,0.0,0.0,0.0,0.0,0.0,0.0,0.0,0.2,0.2,0.2,0.2,0.2
836244000,836164000,1.6929985,3.7434,-2.5131924,-1.2565552,8.185808e-05,1.2567189,2.513356,0.0,0.0,0.0,0.0,0.0,0.0,0.0,0.0,0.0,0.0,0.2,0.2,0.2,0.2,0.2
836252000,836172000,2.430546,3.559922,-2.513171,-1.2565339,0.000103213744,1.2567403,2.5133774,0.0,0.0,0.0,0.0,0.0,0.0,0.0,0.0,0.0,0.0,0.2,0.2,0.2,0.2,0.2
836260000,836180000,3.0918677,3.8876984,-2.5131586,-1.2565215,0.000115623596,1.2567527,2.5133898,0.0,0.0,0.0,0.0,0.0,0.0,0.0,0.0,0.0,0.0,0.2,0.2,0.2,0.2,0.2
836268000,836188000,2.4640577,3.5554936,-2.513184,-1.256547,9.0126734e-05,1.2567272,2.5133643,0.0,0.0,0.0,0.0,0.0,0.0,0.0,0.0,0.0,0.0,0.2,0.2,0.2,0.2,0.2
836276000,836196000,2.4794345,3.5542142,-2.513182,-1.2565448,9.2261376e-05,1.2567294,2.5133665,0.0,0.0,0.0,0.0,0.0,0.0,0.0,0.0,0.0,0.0,0.2,0.2,0.2,0.2,0.2
836284000,836204000,-3.0204115,3.8103697,-2.5131576,-1.2565204,0.00011667191,1.2567538,2.513391,0.0,0.0,0.0,0.0,0.0,0.0,0.0,0.0,0.0,0.0,0.2,0.2,0.2,0.2,0.2
836292000,836212000,-2.912916,3.712835,-2.5132022,-1.2565652,7.1940834e-05,1.2567091,2.5133462,0.0,0.0,0.0,0.0,0.0,0.0,0.0,0.0,0.0,0.0,0.2,0.2,0.2,0.2,0.2
836300000,836220000,-2.6553984,3.5732775,-2.5132263,-1.256589,4.8031674e-05,1.2566851,2.5133224,0.0,0.0,0.0,0.0,0.0,0.0,0.0,0.0,0.0,0.0,0.2,0.2,0.2,0.2,0.2
836308000,836228000,-2.25969,3.6173322,-2.5131998,-1.2565627,7.442393e-05,1.2567115,2.5133488,0.0,0.0,0.0,0.0,0.0,0.0,0.0,0.0,0.0,0.0,0.2,0.2,0.2,0.2,0.2
836316000,836236000,-1.5149014,3.6198142,-2.5131817,-1.2565446,9.244775e-05,1.2567295,2.5133667,0.0,0.0,0.0,0.0,0.0,0.0,0.0,0.0,0.0,0.0,0.2,0.2,0.2,0.2,0.2
836324000,836244000,2.9507992,3.7443988,-2.5131645,-1.2565274,0.000109676876,1.2567468,2.5133839,0.0,0.0,0.0,0.0,0.0,0.0,0.0,0.0,0.0,0.0,0.2,0.2,0.2,0.2,0.2
836332000,836252000,2.988845,3.7791376,-2.513172,-1.2565347,0.000102389175,1.2567395,2.5133767,0.0,0.0,0.0,0.0,0.0,0.0,0.0,0.0,0.0,0.0,0.2,0.2,0.2,0.2,0.2
836340000,836260000,2.7740169,3.6210039,-2.5131774,-1.2565401,9.695701e-05,1.2567341,2.5133712,0.0,0.0,0.0,0.0,0.0,0.0,0.0,0.0,0.0,0.0,0.2,0.2,0.2,0.2,0.2
836348000,836268000,-3.0116704,3.8015678,-2.513173,-1.256536,0.00010103404,1.2567382,2.5133753,0.0,0.0,0.0,0.0,0.0,0.0,0.0,0.0,0.0,0.0,0.2,0.2,0.2,0.2,0.2
836356000,836276000,3.0838308,3.8784232,-2.513116,-1.2564785,0.00015846988,1.2567956,2.5134327,0.0,0.0,0.0,0.0,0.0,0.0,0.0,0.0,0.0,0.0,0.2,0.2,0.2,0.2,0.2
836364000,836284000,-2.284448,3.6053548,-2.513108,-1.2564709,0.00016619284,1.2568033,2.5134406,0.0,0.0,0.0,0.0,0.0,0.0,0.0,0.0,0.0,0.0,0.2,0.2,0.2,0.2,0.2
836372000,836292000,-2.6775503,3.580119,-2.5130856,-1.2564484,0.00018870675,1.2568258,2.513463,0.0,0.0,0.0,0.0,0.0,0.0,0.0,0.0,0.0,0.0,0.2,0.2,0.2,0.2,0.2
836380000,836300000,-2.677613,3.5801444,-2.5130723,-1.2564352,0.0002019949,1.256839,2.5134764,0.0,0.0,0.0,0.0,0.0,0.0,0.0,0.0,0.0,0.0,0.2,0.2,0.2,0.2,0.2
836388000,836308000,2.9313154,3.7276542,-2.513064,-1.2564267,0.00021036217,1.2568475,2.5134847,0.0,0.0,0.0,0.0,0.0,0.0,0.0,0.0,0.0,0.0,0.2,0.2,0.2,0.2,0.2
836396000,836316000,2.661466,3.574954,-2.5130076,-1.2563705,0.00026656222,1.2569036,2.5135407,0.0,0.0,0.0,0.0,0.0,0.0,0.0,0.0,0.0,0.0,0.2,0.2,0.2,0.2,0.2
836404000,836324000,-2.96769,3.7598577,-2.5129538,-1.2563167,0.00032049726,1.2569577,2.5135949,0.0,0.0,0.0,0.0,0.0,0.0,0.0,0.0,0.0,0.0,0.2,0.2,0.2,0.2,0.2
836412000,836332000,-2.897872,3.701229,-2.5129623,-1.2563251,0.00031195013,1.2569491,2.5135863,0.0,0.0,0.0,0.0,0.0,0.0,0.0,0.0,0.0,0.0,0.2,0.2,0.2,0.2,0.2
836420000,836340000,-2.8643913,3.6765704,-2.5129707,-1.2563336,0.00030355432,1.2569407,2.513578,0.0,0.0,0.0,0.0,0.0,0.0,0.0,0.0,0.0,0.0,0.2,0.2,0.2,0.2,0.2
836428000,836348000,-2.4803822,3.5541348,-2.512943,-1.2563059,0.00033116975,1.2569683,2.5136056,0.0,0.0,0.0,0.0,0.0,0.0,0.0,0.0,0.0,0.0,0.2,0.2,0.2,0.2,0.2
836436000,836356000,3.0310614,3.8208337,-2.512941,-1.2563035,0.00033350254,1.2569706,2.5136077,0.0,0.0,0.0,0.0,0.0,0.0,0.0,0.0,0.0,0.0,0.2,0.2,0.2,0.2,0.2
836444000,836364000,2.6362133,3.5680919,-2.5128753,-1.2562381,0.00039900484,1.2570361,2.5136733,0.0,0.0,0.0,0.0,0.0,0.0,0.0,0.0,0.0,0.0,0.2,0.2,0.2,0.2,0.2
836452000,836372000,2.7041469,3.5893464,-2.5128474,-1.2562103,0.0004267464,1.2570639,2.513701,0.0,0.0,0.0,0.0,0.0,0.0,0.0,0.0,0.0,0.0,0.2,0.2,0.2,0.2,0.2
836460000,836380000,-2.5097008,3.5530872,-2.512846,-1.2562089,0.00042816004,1.2570653,2.5137024,0.0,0.0,0.0,0.0,0.0,0.0,0.0,0.0,0.0,0.0,0.2,0.2,0.2,0.2,0.2
836468000,836388000,-3.0194898,3.8097756,-2.512836,-1.2561986,0.00043843754,1.2570755,2.513713,0.0,0.0,0.0,0.0,0.0,0.0,0.0,0.0,0.0,0.0,0.2,0.2,0.2,0.2,0.2
836476000,836396000,2.4357815,3.5591533,-2.5128245,-1.2561872,0.00044979496,1.257087,2.513724,0.0,0.0,0.0,0.0,0.0,0.0,0.0,0.0,0.0,0.0,0.2,0.2,0.2,0.2,0.2
836484000,836404000,-3.0769136,3.8712711,-2.5128286,-1.2561914,0.00044569848,1.2570828,2.51372,0.0,0.0,0.0,0.0,0.0,0.0,0.0,0.0,0.0,0.0,0.2,0.2,0.2,0.2,0.2
836492000,836412000,2.9656863,3.757358,-2.512834,-1.2561969,0.00044025792,1.2570775,2.5137146,0.0,0.0,0.0,0.0,0.0,0.0,0.0,0.0,0.0,0.0,0.2,0.2,0.2,0.2,0.2
836500000,836420000,-3.0018141,3.7922935,-2.5127196,-1.2560824,0.0005546742,1.2571918,2.513829,0.0,0.0,0.0,0.0,0.0,0.0,0.0,0.0,0.0,0.0,0.2,0.2,0.2,0.2,0.2
836508000,836428000,3.0333486,3.8229764,-2.5127141,-1.2560769,0.00056016166,1.2571973,2.5138345,0.0,0.0,0.0,0.0,0.0,0.0,0.0,0.0,0.0,0.0,0.2,0.2,0.2,0.2,0.2
836516000,836436000,3.0085735,3.7978597,-2.512725,-1.2560879,0.0005491456,1.2571863,2.5138235,0.0,0.0,0.0,0.0,0.0,0.0,0.0,0.0,0.0,0.0,0.2,0.2,0.2,0.2,0.2
836524000,836444000,-3.0211935,3.811653,-2.5126953,-1.2560582,0.00057886617,1.257216,2.513853,0.0,0.0,0.0,0.0,0.0,0.0,0.0,0.0,0.0,0.0,0.2,0.2,0.2,0.2,0.2
836532000,836452000,1.4330288,3.583958,-2.5125957,-1.2559584,0.000678585,1.2573156,2.5139527,0.0,0.0,0.0,0.0,0.0,0.0,0.0,0.0,0.0,0.0,0.2,0.2,0.2,0.2,0.2
836540000,836460000,2.7587893,3.613042,-2.5126238,-1.2559865,0.0006506327,1.2572877,2.5139248,0.0,0.0,0.0,0.0,0.0,0.0,0.0,0.0,0.0,0.0,0.2,0.2,0.2,0.2,0.2
836548000,836468000,2.6692955,3.5772176,-2.5126033,-1.255966,0.0006711332,1.2573082,2.5139453,0.0,0.0,0.0,0.0,0.0,0.0,0.0,0.0,0.0,0.0,0.2,0.2,0.2,0.2,0.2
836556000,836476000,1.5418729,3.634052,-2.5125866,-1.2559494,0.00068761443,1.2573247,2.5139618,0.0,0.0,0.0,0.0,0.0,0.0,0.0,0.0,0.0,0.0,0.2,0.2,0.2,0.2,0.2
836564000,836484000,1.6436669,3.7024114,-2.5126715,-1.2560343,0.0006027516,1.2572398,2.513877,0.0,0.0,0.0,0.0,0.0,0.0,0.0,0.0,0.0,0.0,0.2,0.2,0.2,0.2,0.2
836572000,836492000,2.284986,3.6054702,-2.5126858,-1.2560486,0.00058845367,1.2572255,2.5138626,0.0,0.0,0.0,0.0,0.0,0.0,0.0,0.0,0.0,0.0,0.2,0.2,0.2,0.2,0.2
836580000,836500000,2.1094685,3.7166862,-2.5126057,-1.2559682,0.0006687661,1.2573059,2.513943,0.0,0.0,0.0,0.0,0.0,0.0,0.0,0.0,0.0,0.0,0.2,0.2,0.2,0.2,0.2
836588000,836508000,-2.8451362,3.6636407,-2.5126405,-1.2560031,0.0006338002,1.2572709,2.5139081,0.0,0.0,0.0,0.0,0.0,0.0,0.0,0.0,0.0,0.0,0.2,0.2,0.2,0.2,0.2
836596000,836516000,3.0117202,3.800887,-2.5126228,-1.2559856,0.0006514197,1.2572886,2.5139258,0.0,0.0,0.0,0.0,0.0,0.0,0.0,0.0,0.0,0.0,0.2,0.2,0.2,0.2,0.2
836604000,836524000,2.652051,3.5721633,-2.5126088,-1.2559714,0.0006656595,1.2573028,2.5139399,0.0,0.0,0.0,0.0,0.0,0.0,0.0,0.0,0.0,0.0,0.2,0.2,0.2,0.2,0.2
836612000,836532000,2.6100645,3.562326,-2.512594,-1.2559566,0.00068037515,1.2573175,2.5139546,0.0,0.0,0.0,0.0,0.0,0.0,0.0,0.0,0.0,0.0,0.2,0.2,0.2,0.2,0.2
836620000,836540000,-0.264419,3.6232302,-2.5126264,-1.2559881,0.0006316805,1.257257,2.5139043,-0.009430103,-0.0044364105,-0.0071314154,-0.013790681,-0.015211378,-0.015664726,-0.011208491,-0.005082152,-0.005752085,-0.01229251,0.19999504,0.20000431,0.200008,0.20000036,0.19999233
836628000,836548000,-0.26057652,3.6211956,-2.512652,-1.2560134,0.00060629717,1.2572317,2.5138788,-0.009430103,-0.0044364105,-0.0071314154,-0.013790681,-0.015211378,-0.015664726,-0.011208491,-0.005082152,-0.005752085,-0.01229251,0.19999504,0.20000431,0.200008,0.20000036,0.19999233
836636000,836556000,-0.26187417,3.6219702,-2.5124717,-1.2558333,0.0007864803,1.2574118,2.514059,-0.009430103,-0.0044364105,-0.0071314154,-0.013790681,-0.015211378,-0.015664726,-0.011208491,-0.005082152,-0.005752085,-0.01229251,0.19999504,0.20000431,0.200008,0.20000036,0.19999233
836644000,836564000,-0.26016763,3.621138,-2.5123553,-1.2557168,0.0009029145,1.2575283,2.5141754,-0.009430103,-0.0044364105,-0.0071314154,-0.013790681,-0.015211378,-0.015664726,-0.011208491,-0.005082152,-0.005752085,-0.01229251,0.19999504,0.20000431,0.200008,0.20000036,0.19999233
836652000,836572000,-0.26089254,3.6215112,-2.512368,-1.2557294,0.00089029735,1.2575157,2.5141628,-0.009430103,-0.0044364105,-0.0071314154,-0.013790681,-0.015211378,-0.015664726,-0.011208491,-0.005082152,-0.005752085,-0.01229251,0.19999504,0.20000431,0.200008,0.20000036,0.19999233
836660000,836580000,-0.26365656,3.6229892,-2.512325,-1.2556868,0.00093302235,1.2575583,2.5142057,-0.009430103,-0.0044364105,-0.0071314154,-0.013790681,-0.015211378,-0.015664726,-0.011208491,-0.005082152,-0.005752085,-0.01229251,0.19999504,0.20000431,0.200008,0.20000036,0.19999233
836668000,836588000,-0.26137215,3.621884,-2.5121388,-1.2555002,0.0011194556,1.2577448,2.5143921,-0.009430103,-0.0044364105,-0.0071314154,-0.013790681,-0.015211378,-0.015664726,-0.011208491,-0.005082152,-0.005752085,-0.01229251,0.19999504,0.20000431,0.200008,0.20000036,0.19999233
836676000,836596000,-0.2634596,3.6229205,-2.51226,-1.2556217,0.0009980821,1.2576234,2.5142708,-0.009430103,-0.0044364105,-0.0071314154,-0.013790681,-0.015211378,-0.015664726,-0.011208491,-0.005082152,-0.005752085,-0.01229251,0.19999504,0.20000431,0.200008,0.20000036,0.19999233
836684000,836604000,-0.26143792,3.6218035,-2.5123606,-1.255722,0.00089763943,1.2575231,2.5141702,-0.009430103,-0.0044364105,-0.0071314154,-0.013790681,-0.015211378,-0.015664726,-0.011208491,-0.005082152,-0.005752085,-0.01229251,0.19999504,0.20000431,0.200008,0.20000036,0.19999233
836692000,836612000,-0.26203808,3.6221514,-2.5122993,-1.2556609,0.0009588448,1.2575842,2.5142314,-0.009430103,-0.0044364105,-0.0071314154,-0.013790681,-0.015211378,-0.015664726,-0.011208491,-0.005082152,-0.005752085,-0.01229251,0.19999504,0.20000431,0.200008,0.20000036,0.19999233
836700000,836620000,-0.2617745,3.6221368,-2.5120647,-1.2554263,0.0011934658,1.2578188,2.514466,-0.009430103,-0.0044364105,-0.0071314154,-0.013790681,-0.015211378,-0.015664726,-0.011208491,-0.005082152,-0.005752085,-0.01229251,0.19999504,0.20000431,0.200008,0.20000036,0.19999233
836708000,836628000,-0.26072878,3.6215491,-2.5121398,-1.2555013,0.0011183737,1.2577437,2.514391,-0.009430103,-0.0044364105,-0.0071314154,-0.013790681,-0.015211378,-0.015664726,-0.011208491,-0.005082152,-0.005752085,-0.01229251,0.19999504,0.20000431,0.200008,0.20000036,0.19999233
836716000,836636000,-0.26261204,3.6224933,-2.5122275,-1.2555891,0.0010305791,1.257656,2.5143032,-0.009430103,-0.0044364105,-0.0071314154,-0.013790681,-0.015211378,-0.015664726,-0.011208491,-0.005082152,-0.005752085,-0.01229251,0.19999504,0.20000431,0.200008,0.20000036,0.19999233
836724000,836644000,-0.26355094,3.6229694,-2.512266,-1.2556275,0.0009921499,1.2576175,2.5142648,-0.009430103,-0.0044364105,-0.0071314154,-0.013790681,-0.015211378,-0.015664726,-0.011208491,-0.005082152,-0.005752085,-0.01229251,0.19999504,0.20000431,0.200008,0.20000036,0.19999233
836732000,836652000,-0.26175937,3.6220531,-2.5122135,-1.255575,0.0010446658,1.2576699,2.5143173,-0.009430103,-0.0044364105,-0.0071314154,-0.013790681,-0.015211378,-0.015664726,-0.011208491,-0.005082152,-0.005752085,-0.01229251,0.19999504,0.20000431,0.200008,0.20000036,0.19999233
836740000,836660000,-0.26200715,3.6221952,-2.512192,-1.2555536,0.001066109,1.2576914,2.5143387,-0.009430103,-0.0044364105,-0.0071314154,-0.013790681,-0.015211378,-0.015664726,-0.011208491,-0.005082152,-0.005752085,-0.01229251,0.19999504,0.20000431,0.200008,0.20000036,0.19999233
836748000,836668000,-0.26187783,3.6220896,-2.5122643,-1.255626,0.000993711,1.257619,2.5142663,-0.009430103,-0.0044364105,-0.0071314154,-0.013790681,-0.015211378,-0.015664726,-0.011208491,-0.005082152,-0.005752085,-0.01229251,0.19999504,0.20000431,0.200008,0.20000036,0.19999233
836756000,836676000,-0.26135984,3.6217942,-2.5123098,-1.2556714,0.00094828726,1.2575736,2.5142207,-0.009430103,-0.0044364105,-0.0071314154,-0.013790681,-0.015211378,-0.015664726,-0.011208491,-0.005082152,-0.005752085,-0.01229251,0.19999504,0.20000431,0.200008,0.20000036,0.19999233
836764000,836684000,-0.26338077,3.6228936,-2.512245,-1.2556065,0.0010131473,1.2576385,2.5142858,-0.009430103,-0.0044364105,-0.0071314154,-0.013790681,-0.015211378,-0.015664726,-0.011208491,-0.005082152,-0.005752085,-0.01229251,0.19999504,0.20000431,0.200008,0.20000036,0.19999233
836772000,836692000,-0.26113698,3.6217253,-2.5122213,-1.2555828,0.0010368616,1.2576622,2.5143094,-0.009430103,-0.0044364105,-0.0071314154,-0.013790681,-0.015211378,-0.015664726,-0.011208491,-0.005082152,-0.005752085,-0.01229251,0.19999504,0.20000431,0.200008,0.20000036,0.19999233
836780000,836700000,-0.2615629,3.6219234,-2.5122702,-1.2556319,0.0009877379,1.2576131,2.5142603,-0.009430103,-0.0044364105,-0.0071314154,-0.013790681,-0.015211378,-0.015664726,-0.011208491,-0.005082152,-0.005752085,-0.01229251,0.19999504,0.20000431,0.200008,0.20000036,0.19999233
836788000,836708000,-0.26266372,3.6225338,-2.5122132,-1.2555748,0.0010448707,1.2576702,2.5143175,-0.009430103,-0.0044364105,-0.0071314154,-0.013790681,-0.015211378,-0.015664726,-0.011208491,-0.005082152,-0.005752085,-0.01229251,0.19999504,0.20000431,0.200008,0.20000036,0.19999233
836796000,836716000,-0.26326126,3.6229196,-2.5120811,-1.2554429,0.0011769141,1.2578022,2.5144496,-0.009430103,-0.0044364105,-0.0071314154,-0.013790681,-0.015211378,-0.015664726,-0.011208491,-0.005082152,-0.005752085,-0.01229251,0.19999504,0.20000431,0.200008,0.20000036,0.19999233
836804000,836724000,-0.26184028,3.622137,-2.512145,-1.2555068,0.0011129377,1.2577382,2.5143855,-0.009430103,-0.0044364105,-0.0071314154,-0.013790681,-0.015211378,-0.015664726,-0.011208491,-0.005082152,-0.005752085,-0.01229251,0.19999504,0.20000431,0.200008,0.20000036,0.19999233
836812000,836732000,-0.26223248,3.6223085,-2.5122128,-1.2555743,0.0010453778,1.2576706,2.514318,-0.009430103,-0.0044364105,-0.0071314154,-0.013790681,-0.015211378,-0.015664726,-0.011208491,-0.005082152,-0.005752085,-0.01229251,0.19999504,0.20000431,0.200008,0.20000036,0.19999233
836820000,836740000,-0.2611645,3.6217556,-2.5121977,-1.2555594,0.0010603067,1.2576855,2.5143328,-0.009430103,-0.0044364105,-0.0071314154,-0.013790681,-0.015211378,-0.015664726,-0.011208491,-0.005082152,-0.005752085,-0.01229251,0.19999504,0.20000431,0.200008,0.20000036,0.19999233
836828000,836748000,0.29449782,3.638824,-2.5122335,-1.2555574,0.0010389043,1.2576119,2.5142503,-0.0053191083,0.0013246981,-0.0007271004,-0.008638947,-0.011477145,-0.031697884,-0.027381688,-0.019729331,-0.019315865,-0.026712896,0.19997256,0.20000045,0.20002818,0.2000166,0.19998221
836836000,836756000,0.29468554,3.6389723,-2.5122964,-1.2556201,0.0009762109,1.2575492,2.5141876,-0.0053191083,0.0013246981,-0.0007271004,-0.008638947,-0.011477145,-0.031697884,-0.027381688,-0.019729331,-0.019315865,-0.026712896,0.19997256,0.20000045,0.20002818,0.2000166,0.19998221
836844000,836764000,0.29462817,3.6389575,-2.5123286,-1.2556523,0.00094401947,1.257517,2.5141554,-0.0053191083,0.0013246981,-0.0007271004,-0.008638947,-0.011477145,-0.031697884,-0.027381688,-0.019729331,-0.019315865,-0.026712896,0.19997256,0.20000045,0.20002818,0.2000166,0.19998221
836852000,836772000,0.29407993,3.6386838,-2.5124087,-1.2557325,0.0008637708,1.2574368,2.5140753,-0.0053191083,0.0013246981,-0.0007271004,-0.008638947,-0.011477145,-0.031697884,-0.027381688,-0.019729331,-0.019315865,-0.026712896,0.19997256,0.20000045,0.20002818,0.2000166,0.19998221
836860000,836780000,0.2944494,3.6389086,-2.5124214,-1.2557452,0.000851159,1.2574242,2.5140626,-0.0053191083,0.0013246981,-0.0007271004,-0.008638947,-0.011477145,-0.031697884,-0.027381688,-0.019729331,-0.019315865,-0.026712896,0.19997256,0.20000045,0.20002818,0.2000166,0.19998221
836868000,836788000,0.29433027,3.6388125,-2.5123758,-1.2556996,0.0008967723,1.2574698,2.5141082,-0.0053191083,0.0013246981,-0.0007271004,-0.008638947,-0.011477145,-0.031697884,-0.027381688,-0.019729331,-0.019315865,-0.026712896,0.19997256,0.20000045,0.20002818,0.2000166,0.19998221
836876000,836796000,0.29436207,3.638844,-2.512396,-1.2557199,0.0008764567,1.2574495,2.514088,-0.0053191083,0.0013246981,-0.0007271004,-0.008638947,-0.011477145,-0.031697884,-0.027381688,-0.019729331,-0.019315865,-0.026712896,0.19997256,0.20000045,0.20002818,0.2000166,0.19998221
836884000,836804000,0.29441208,3.6389189,-2.5124729,-1.2557967,0.000799739,1.2573727,2.5140111,-0.0053191083,0.0013246981,-0.0007271004,-0.008638947,-0.011477145,-0.031697884,-0.027381688,-0.019729331,-0.019315865,-0.026712896,0.19997256,0.20000045,0.20002818,0.2000166,0.19998221
836892000,836812000,0.29451257,3.6389978,-2.5125053,-1.2558291,0.00076732464,1.2573403,2.5139787,-0.0053191083,0.0013246981,-0.0007271004,-0.008638947,-0.011477145,-0.031697884,-0.027381688,-0.019729331,-0.019315865,-0.026712896,0.19997256,0.20000045,0.20002818,0.2000166,0.19998221
836900000,836820000,0.29497564,3.63928,-2.5125217,-1.2558453,0.0007510124,1.257324,2.5139623,-0.0053191083,0.0013246981,-0.0007271004,-0.008638947,-0.011477145,-0.031697884,-0.027381688,-0.019729331,-0.019315865,-0.026712896,0.19997256,0.20000045,0.20002818,0.2000166,0.19998221
836908000,836828000,0.29484054,3.6392052,-2.5125282,-1.2558519,0.0007444988,1.2573175,2.5139558,-0.0053191083,0.0013246981,-0.0007271004,-0.008638947,-0.011477145,-0.031697884,-0.027381688,-0.019729331,-0.019315865,-0.026712896,0.19997256,0.20000045,0.20002818,0.2000166,0.19998221
836916000,836836000,0.29479554,3.6391902,-2.512547,-1.2558706,0.0007257415,1.2572987,2.513937,-0.0053191083,0.0013246981,-0.0007271004,-0.008638947,-0.011477145,-0.031697884,-0.027381688,-0.019729331,-0.019315865,-0.026712896,0.19997256,0.20000045,0.20002818,0.2000166,0.19998221
836924000,836844000,0.29464993,3.639095,-2.5125296,-1.2558533,0.0007430272,1.2573161,2.5139544,-0.0053191083,0.0013246981,-0.0007271004,-0.008638947,-0.011477145,-0.031697884,-0.027381688,-0.019729331,-0.019315865,-0.026712896,0.19997256,0.20000045,0.20002818,0.2000166,0.19998221
836932000,836852000,0.29507223,3.6392794,-2.51242,-1.2557435,0.00085278344,1.2574258,2.514064,-0.0053191083,0.0013246981,-0.0007271004,-0.008638947,-0.011477145,-0.031697884,-0.027381688,-0.019729331,-0.019315865,-0.026712896,0.19997256,0.20000045,0.20002818,0.2000166,0.19998221
836940000,836860000,0.2945899,3.6389668,-2.5123696,-1.2556934,0.0009029232,1.2574759,2.5141141,-0.0053191083,0.0013246981,-0.0007271004,-0.008638947,-0.011477145,-0.031697884,-0.027381688,-0.019729331,-0.019315865,-0.026712896,0.19997256,0.20000045,0.20002818,0.2000166,0.19998221
836948000,836868000,0.29428786,3.6387942,-2.5123758,-1.2556996,0.0008967276,1.2574697,2.5141082,-0.0053191083,0.0013246981,-0.0007271004,-0.008638947,-0.011477145,-0.031697884,-0.027381688,-0.019729331,-0.019315865,-0.026712896,0.19997256,0.20000045,0.20002818,0.2000166,0.19998221
836956000,836876000,0.2946395,3.639027,-2.5124204,-1.2557441,0.0008522573,1.2574253,2.5140636,-0.0053191083,0.0013246981,-0.0007271004,-0.008638947,-0.011477145,-0.031697884,-0.027381688,-0.019729331,-0.019315865,-0.026712896,0.19997256,0.20000045,0.20002818,0.2000166,0.19998221
836964000,836884000,0.29465872,3.6390545,-2.5124464,-1.2557701,0.0008262535,1.2573992,2.5140376,-0.0053191083,0.0013246981,-0.0007271004,-0.008638947,-0.011477145,-0.031697884,-0.027381688,-0.019729331,-0.019315865,-0.026712896,0.19997256,0.20000045,0.20002818,0.2000166,0.19998221
836972000,836892000,0.29484326,3.639174,-2.512464,-1.2557876,0.00080869225,1.2573817,2.51402,-0.0053191083,0.0013246981,-0.0007271004,-0.008638947,-0.011477145,-0.031697884,-0.027381688,-0.019729331,-0.019315865,-0.026712896,0.19997256,0.20000045,0.20002818,0.2000166,0.19998221
836980000,836900000,0.29503036,3.6393123,-2.5125105,-1.2558341,0.0007623314,1.2573353,2.5139737,-0.0053191083,0.0013246981,-0.0007271004,-0.008638947,-0.011477145,-0.031697884,-0.027381688,-0.019729331,-0.019315865,-0.026712896,0.19997256,0.20000045,0.20002818,0.2000166,0.19998221
836988000,836908000,0.29503533,3.639326,-2.5125282,-1.2558517,0.0007445877,1.2573175,2.5139558,-0.0053191083,0.0013246981,-0.0007271004,-0.008638947,-0.011477145,-0.031697884,-0.027381688,-0.019729331,-0.019315865,-0.026712896,0.19997256,0.20000045,0.20002818,0.2000166,0.19998221
836996000,836916000,0.29463655,3.6390924,-2.5125287,-1.2558523,0.0007440492,1.2573171,2.5139554,-0.0053191083,0.0013246981,-0.0007271004,-0.008638947,-0.011477145,-0.031697884,-0.027381688,-0.019729331,-0.019315865,-0.026712896,0.19997256,0.20000045,0.20002818,0.2000166,0.19998221
837004000,836924000,0.2945298,3.639046,-2.5125554,-1.2558789,0.00071742735,1.2572904,2.513929,-0.0053191083,0.0013246981,-0.0007271004,-0.008638947,-0.011477145,-0.031697884,-0.027381688,-0.019729331,-0.019315865,-0.026712896,0.19997256,0.20000045,0.20002818,0.2000166,0.19998221
837012000,836932000,0.29457277,3.6390913,-2.512589,-1.2559127,0.0006836874,1.2572566,2.513895,-0.0053191083,0.0013246981,-0.0007271004,-0.008638947,-0.011477145,-0.031697884,-0.027381688,-0.019729331,-0.019315865,-0.026712896,0.19997256,0.20000045,0.20002818,0.2000166,0.19998221
837020000,836940000,0.29461285,3.639118,-2.5125926,-1.2559161,0.0006802506,1.2572533,2.5138917,-0.0053191083,0.0013246981,-0.0007271004,-0.008638947,-0.011477145,-0.031697884,-0.027381688,-0.019729331,-0.019315865,-0.026712896,0.19997256,0.20000045,0.20002818,0.2000166,0.19998221
837028000,836948000,0.0051509296,3.5526109,-2.5125778,-1.2559121,0.00065309746,1.2572175,2.5138817,-0.012207979,-0.007239051,-0.0106322905,-0.017698068,-0.018672423,-0.012546687,-0.007364083,-0.001037127,-0.0023087538,-0.009422048,0.19996884,0.2000116,0.20003879,0.20001197,0.19996873
837036000,836956000,0.0051135165,3.5526116,-2.5125995,-1.2559339,0.0006313315,1.2571958,2.51386,-0.012207979,-0.007239051,-0.0106322905,-0.017698068,-0.018672423,-0.012546687,-0.007364083,-0.001037127,-0.0023087538,-0.009422048,0.19996884,0.2000116,0.20003879,0.20001197,0.19996873
837044000,836964000,0.0052513843,3.5526142,-2.5126388,-1.255973,0.00059219875,1.2571567,2.513821,-0.012207979,-0.007239051,-0.0106322905,-0.017698068,-0.018672423,-0.012546687,-0.007364083,-0.001037127,-0.0023087538,-0.009422048,0.19996884,0.2000116,0.20003879,0.20001197,0.19996873
837052000,836972000,0.0047363057,3.5526104,-2.5126648,-1.2559991,0.00056604954,1.2571305,2.513795,-0.012207979,-0.007239051,-0.0106322905,-0.017698068,-0.018672423,-0.012546687,-0.007364083,-0.001037127,-0.0023087538,-0.009422048,0.19996884,0.2000116,0.20003879,0.20001197,0.19996873
837060000,836980000,0.0049048336,3.5526125,-2.512652,-1.2559862,0.000579012,1.2571435,2.5138078,-0.012207979,-0.007239051,-0.0106322905,-0.017698068,-0.018672423,-0.012546687,-0.007364083,-0.001037127,-0.0023087538,-0.009422048,0.19996884,0.2000116,0.20003879,0.20001197,0.19996873
837068000,836988000,0.004833119,3.5526125,-2.5126786,-1.2560129,0.0005522426,1.2571167,2.513781,-0.012207979,-0.007239051,-0.0106322905,-0.017698068,-0.018672423,-0.012546687,-0.007364083,-0.001037127,-0.0023087538,-0.009422048,0.19996884,0.2000116,0.20003879,0.20001197,0.19996873
837076000,836996000,0.0050108014,3.5526128,-2.5124896,-1.2558239,0.00074125425,1.2573056,2.51397,-0.012207979,-0.007239051,-0.0106322905,-0.017698068,-0.018672423,-0.012546687,-0.007364083,-0.001037127,-0.0023087538,-0.009422048,0.19996884,0.2000116,0.20003879,0.20001197,0.19996873
837084000,837004000,0.0055340454,3.5526142,-2.5121088,-1.2554431,0.0011218642,1.2576861,2.5143504,-0.012207979,-0.007239051,-0.0106322905,-0.017698068,-0.018672423,-0.012546687,-0.007364083,-0.001037127,-0.0023087538,-0.009422048,0.19996884,0.2000116,0.20003879,0.20001197,0.19996873
837092000,837012000,0.0061065853,3.5526173,-2.511815,-1.2551491,0.0014157245,1.2579799,2.5146441,-0.012207979,-0.007239051,-0.0106322905,-0.017698068,-0.018672423,-0.012546687,-0.007364083,-0.001037127,-0.0023087538,-0.009422048,0.19996884,0.2000116,0.20003879,0.20001197,0.19996873
837100000,837020000,0.0061495174,3.5526161,-2.5115843,-1.2549183,0.0016464286,1.2582105,2.514875,-0.012207979,-0.007239051,-0.0106322905,-0.017698068,-0.018672423,-0.012546687,-0.007364083,-0.001037127,-0.0023087538,-0.009422048,0.19996884,0.2000116,0.20003879,0.20001197,0.19996873
837108000,837028000,0.0063670645,3.552617,-2.511414,-1.2547481,0.0018166095,1.2583807,2.515045,-0.012207979,-0.007239051,-0.0106322905,-0.017698068,-0.018672423,-0.012546687,-0.007364083,-0.001037127,-0.0023087538,-0.009422048,0.19996884,0.2000116,0.20003879,0.20001197,0.19996873
837116000,837036000,0.0066376096,3.552619,-2.5112693,-1.2546034,0.0019613132,1.2585254,2.5151896,-0.012207979,-0.007239051,-0.0106322905,-0.017698068,-0.018672423,-0.012546687,-0.007364083,-0.001037127,-0.0023087538,-0.009422048,0.19996884,0.2000116,0.20003879,0.20001197,0.19996873
837124000,837044000,0.006429022,3.5526161,-2.5111368,-1.2544708,0.0020938308,1.2586578,2.5153222,-0.012207979,-0.007239051,-0.0106322905,-0.017698068,-0.018672423,-0.012546687,-0.007364083,-0.001037127,-0.0023087538,-0.009422048,0.19996884,0.2000116,0.20003879,0.20001197,0.19996873
837132000,837052000,0.0065924516,3.5526166,-2.511005,-1.254339,0.0022255366,1.2587893,2.5154538,-0.012207979,-0.007239051,-0.0106322905,-0.017698068,-0.018672423,-0.012546687,-0.007364083,-0.001037127,-0.0023087538,-0.009422048,0.19996884,0.2000116,0.20003879,0.20001197,0.19996873
837140000,837060000,0.0066587096,3.552617,-2.5109293,-1.2542633,0.0023010965,1.2588648,2.5155292,-0.012207979,-0.007239051,-0.0106322905,-0.017698068,-0.018672423,-0.012546687,-0.007364083,-0.001037127,-0.0023087538,-0.009422048,0.19996884,0.2000116,0.20003879,0.20001197,0.19996873
837148000,837068000,0.0069111874,3.552619,-2.5108562,-1.2541901,0.0023741492,1.2589377,2.515602,-0.012207979,-0.007239051,-0.0106322905,-0.017698068,-0.018672423,-0.012546687,-0.007364083,-0.001037127,-0.0023087538,-0.009422048,0.19996884,0.2000116,0.20003879,0.20001197,0.19996873
837156000,837076000,0.0072347056,3.5526204,-2.510651,-1.2539849,0.0025791442,1.2591425,2.5158072,-0.012207979,-0.007239051,-0.0106322905,-0.017698068,-0.018672423,-0.012546687,-0.007364083,-0.001037127,-0.0023087538,-0.009422048,0.19996884,0.2000116,0.20003879,0.20001197,0.19996873
837164000,837084000,0.007697003,3.552623,-2.5105138,-1.2538474,0.0027163306,1.2592793,2.5159438,-0.012207979,-0.007239051,-0.0106322905,-0.017698068,-0.018672423,-0.012546687,-0.007364083,-0.001037127,-0.0023087538,-0.009422048,0.19996884,0.2000116,0.20003879,0.20001197,0.19996873
837172000,837092000,0.009006544,3.5526347,-2.5103393,-1.2536721,0.0028910912,1.259453,2.5161176,-0.012207979,-0.007239051,-0.0106322905,-0.017698068,-0.018672423,-0.012546687,-0.007364083,-0.001037127,-0.0023087538,-0.009422048,0.19996884,0.2000116,0.20003879,0.20001197,0.19996873
837180000,837100000,0.010358793,3.55265,-2.5101957,-1.2535282,0.0030346473,1.2595959,2.5162601,-0.012207979,-0.007239051,-0.0106322905,-0.017698068,-0.018672423,-0.012546687,-0.007364083,-0.001037127,-0.0023087538,-0.009422048,0.19996884,0.2000116,0.20003879,0.20001197,0.19996873
837188000,837108000,0.011349031,3.552663,-2.5100615,-1.2533934,0.0031691696,1.2597296,2.516394,-0.012207979,-0.007239051,-0.0106322905,-0.017698068,-0.018672423,-0.012546687,-0.007364083,-0.001037127,-0.0023087538,-0.009422048,0.19996884,0.2000116,0.20003879,0.20001197,0.19996873
837196000,837116000,0.0124291405,3.5526798,-2.5099144,-1.2532458,0.003316629,1.2598767,2.516541,-0.012207979,-0.007239051,-0.0106322905,-0.017698068,-0.018672423,-0.012546687,-0.007364083,-0.001037127,-0.0023087538,-0.009422048,0.19996884,0.2000116,0.20003879,0.20001197,0.19996873
837204000,837124000,0.012968358,3.5526874,-2.5097666,-1.2530978,0.0034646252,1.2600247,2.5166888,-0.012207979,-0.007239051,-0.0106322905,-0.017698068,-0.018672423,-0.012546687,-0.007364083,-0.001037127,-0.0023087538,-0.009422048,0.19996884,0.2000116,0.20003879,0.20001197,0.19996873
837212000,837132000,0.012763582,3.5526812,-2.5096247,-1.2529562,0.0036063308,1.2601664,2.5168304,-0.012207979,-0.007239051,-0.0106322905,-0.017698068,-0.018672423,-0.012546687,-0.007364083,-0.001037127,-0.0023087538,-0.009422048,0.19996884,0.2000116,0.20003879,0.20001197,0.19996873
837220000,837140000,0.013137096,3.5526853,-2.509439,-1.2527703,0.0037920591,1.2603521,2.5170162,-0.012207979,-0.007239051,-0.0106322905,-0.017698068,-0.018672423,-0.012546687,-0.007364083,-0.001037127,-0.0023087538,-0.009422048,0.19996884,0.2000116,0.20003879,0.20001197,0.19996873
837228000,837148000,0.012679695,3.5526736,-2.5092368,-1.2525682,0.0039938204,1.2605536,2.517218,-0.012207979,-0.007239051,-0.0106322905,-0.017698068,-0.018672423,-0.012546687,-0.007364083,-0.001037127,-0.0023087538,-0.009422048,0.19996884,0.2000116,0.20003879,0.20001197,0.19996873
837236000,837156000,0.013050769,3.552677,-2.5090485,-1.2523795,0.0041821604,1.2607417,2.5174062,-0.012207979,-0.007239051,-0.0106322905,-0.017698068,-0.018672423,-0.012546687,-0.007364083,-0.001037127,-0.0023087538,-0.009422048,0.19996884,0.2000116,0.20003879,0.20001197,0.19996873
837244000,837164000,-2.530446,3.5524852,-2.5089407,-1.2524396,0.004252387,1.2610598,2.5177472,-0.005291065,0.001707714,0.034139797,0.047188304,0.022819944,-0.0037642447,-0.035593815,-0.038773686,-0.008912727,0.012726745,0.20007591,0.20002143,0.19993788,0.19993974,0.20002505
837252000,837172000,-2.5300803,3.552475,-2.50884,-1.2523386,0.0043528955,1.2611599,2.5178475,-0.005291065,0.001707714,0.034139797,0.047188304,0.022819944,-0.0037642447,-0.035593815,-0.038773686,-0.008912727,0.012726745,0.20007591,0.20002143,0.19993788,0.19993974,0.20002505
837260000,837180000,-2.5296729,3.5524616,-2.5087812,-1.2522796,0.0044116303,1.2612183,2.517906,-0.005291065,0.001707714,0.034139797,0.047188304,0.022819944,-0.0037642447,-0.035593815,-0.038773686,-0.008912727,0.012726745,0.20007591,0.20002143,0.19993788,0.19993974,0.20002505
837268000,837188000,-2.529477,3.5524561,-2.5087357,-1.252234,0.0044570286,1.2612636,2.5179513,-0.005291065,0.001707714,0.034139797,0.047188304,0.022819944,-0.0037642447,-0.035593815,-0.038773686,-0.008912727,0.012726745,0.20007591,0.20002143,0.19993788,0.19993974,0.20002505
837276000,837196000,-2.5292504,3.5524478,-2.50873,-1.2522283,0.0044626575,1.2612691,2.517957,-0.005291065,0.001707714,0.034139797,0.047188304,0.022819944,-0.0037642447,-0.035593815,-0.038773686,-0.008912727,0.012726745,0.20007591,0.20002143,0.19993788,0.19993974,0.20002505
837284000,837204000,-2.5289853,3.5524364,-2.508766,-1.2522644,0.0044265017,1.2612329,2.5179207,-0.005291065,0.001707714,0.034139797,0.047188304,0.022819944,-0.0037642447,-0.035593815,-0.038773686,-0.008912727,0.012726745,0.20007591,0.20002143,0.19993788,0.19993974,0.20002505
837292000,837212000,-2.5292287,3.5524437,-2.508844,-1.2523422,0.004348582,1.2611549,2.5178428,-0.005291065,0.001707714,0.034139797,0.047188304,0.022819944,-0.0037642447,-0.035593815,-0.038773686,-0.008912727,0.012726745,0.20007591,0.20002143,0.19993788,0.19993974,0.20002505
837300000,837220000,-2.529293,3.5524426,-2.5089529,-1.2524512,0.004239634,1.2610459,2.517734,-0.005291065,0.001707714,0.034139797,0.047188304,0.022819944,-0.0037642447,-0.035593815,-0.038773686,-0.008912727,0.012726745,0.20007591,0.20002143,0.19993788,0.19993974,0.20002505
837308000,837228000,-2.5292919,3.5524383,-2.509073,-1.2525713,0.0041194498,1.2609258,2.5176136,-0.005291065,0.001707714,0.034139797,0.047188304,0.022819944,-0.0037642447,-0.035593815,-0.038773686,-0.008912727,0.012726745,0.20007591,0.20002143,0.19993788,0.19993974,0.20002505
837316000,837236000,-2.529592,3.552447,-2.5091703,-1.2526687,0.004022137,1.2608285,2.5175164,-0.005291065,0.001707714,0.034139797,0.047188304,0.022819944,-0.0037642447,-0.035593815,-0.038773686,-0.008912727,0.012726745,0.20007591,0.20002143,0.19993788,0.19993974,0.20002505
837324000,837244000,-2.529713,3.5524502,-2.5092378,-1.2527361,0.0039547523,1.2607611,2.517449,-0.005291065,0.001707714,0.034139797,0.047188304,0.022819944,-0.0037642447,-0.035593815,-0.038773686,-0.008912727,0.012726745,0.20007591,0.20002143,0.19993788,0.19993974,0.20002505
837332000,837252000,-2.529409,3.5524387,-2.5092306,-1.2527289,0.003961743,1.260768,2.517456,-0.005291065,0.001707714,0.034139797,0.047188304,0.022819944,-0.0037642447,-0.035593815,-0.038773686,-0.008912727,0.012726745,0.20007591,0.20002143,0.19993788,0.19993974,0.20002505
837340000,837260000,-2.529405,3.5524323,-2.5094109,-1.2529092,0.003781413,1.2605876,2.5172756,-0.005291065,0.001707714,0.034139797,0.047188304,0.022819944,-0.0037642447,-0.035593815,-0.038773686,-0.008912727,0.012726745,0.20007591,0.20002143,0.19993788,0.19993974,0.20002505
837348000,837268000,-2.5294945,3.552432,-2.509523,-1.2530214,0.0036692873,1.2604754,2.5171633,-0.005291065,0.001707714,0.034139797,0.047188304,0.022819944,-0.0037642447,-0.035593815,-0.038773686,-0.008912727,0.012726745,0.20007591,0.20002143,0.19993788,0.19993974,0.20002505
837356000,837276000,-2.5295014,3.5524309,-2.5095668,-1.2530651,0.003625442,1.2604315,2.5171196,-0.005291065,0.001707714,0.034139797,0.047188304,0.022819944,-0.0037642447,-0.035593815,-0.038773686,-0.008912727,0.012726745,0.20007591,0.20002143,0.19993788,0.19993974,0.20002505
837364000,837284000,-2.5295963,3.5524337,-2.5096116,-1.2531099,0.0035806205,1.2603867,2.5170748,-0.005291065,0.001707714,0.034139797,0.047188304,0.022819944,-0.0037642447,-0.035593815,-0.038773686,-0.008912727,0.012726745,0.20007591,0.20002143,0.19993788,0.19993974,0.20002505
837372000,837292000,-2.5296142,3.552435,-2.509616,-1.2531142,0.0035763958,1.2603825,2.5170705,-0.005291065,0.001707714,0.034139797,0.047188304,0.022819944,-0.0037642447,-0.035593815,-0.038773686,-0.008912727,0.012726745,0.20007591,0.20002143,0.19993788,0.19993974,0.20002505
837380000,837300000,-2.5295992,3.552435,-2.5096164,-1.2531147,0.0035758025,1.2603819,2.5170698,-0.005291065,0.001707714,0.034139797,0.047188304,0.022819944,-0.0037642447,-0.035593815,-0.038773686,-0.008912727,0.012726745,0.20007591,0.20002143,0.19993788,0.19993974,0.20002505
837388000,837308000,-2.529486,3.5524323,-2.5095866,-1.2530848,0.0036057425,1.2604117,2.5170999,-0.005291065,0.001707714,0.034139797,0.047188304,0.022819944,-0.0037642447,-0.035593815,-0.038773686,-0.008912727,0.012726745,0.20007591,0.20002143,0.19993788,0.19993974,0.20002505
837396000,837316000,-2.5295656,3.5524373,-2.5095649,-1.2530631,0.0036274546,1.2604334,2.5171216,-0.005291065,0.001707714,0.034139797,0.047188304,0.022819944,-0.0037642447,-0.035593815,-0.038773686,-0.008912727,0.012726745,0.20007591,0.20002143,0.19993788,0.19993974,0.20002505
837404000,837324000,-2.529377,3.5524316,-2.5095289,-1.2530272,0.003663323,1.2604694,2.5171576,-0.005291065,0.001707714,0.034139797,0.047188304,0.022819944,-0.0037642447,-0.035593815,-0.038773686,-0.008912727,0.012726745,0.20007591,0.20002143,0.19993788,0.19993974,0.20002505
837412000,837332000,-2.5294216,3.5524352,-2.5095036,-1.2530018,0.0036886004,1.2604947,2.5171828,-0.005291065,0.001707714,0.034139797,0.047188304,0.022819944,-0.0037642447,-0.035593815,-0.038773686,-0.008912727,0.012726745,0.20007591,0.20002143,0.19993788,0.19993974,0.20002505
837420000,837340000,-2.5294878,3.5524385,-2.5095024,-1.2530005,0.0036899154,1.2604959,2.517184,-0.005291065,0.001707714,0.034139797,0.047188304,0.022819944,-0.0037642447,-0.035593815,-0.038773686,-0.008912727,0.012726745,0.20007591,0.20002143,0.19993788,0.19993974,0.20002505
837428000,837348000,-2.5294502,3.5524378,-2.5094917,-1.2529898,0.0037006466,1.2605066,2.5171947,-0.005291065,0.001707714,0.034139797,0.047188304,0.022819944,-0.0037642447,-0.035593815,-0.038773686,-0.008912727,0.012726745,0.20007591,0.20002143,0.19993788,0.19993974,0.20002505
837436000,837356000,-2.5293267,3.552432,-2.5095317,-1.2530301,0.0036604686,1.2604666,2.5171547,-0.005291065,0.001707714,0.034139797,0.047188304,0.022819944,-0.0037642447,-0.035593815,-0.038773686,-0.008912727,0.012726745,0.20007591,0.20002143,0.19993788,0.19993974,0.20002505
837444000,837364000,-2.5295286,3.5524402,-2.5095458,-1.2530439,0.0036464925,1.2604525,2.5171406,-0.005291065,0.001707714,0.034139797,0.047188304,0.022819944,-0.0037642447,-0.035593815,-0.038773686,-0.008912727,0.012726745,0.20007591,0.20002143,0.19993788,0.19993974,0.20002505
837452000,837372000,-2.529532,3.5524395,-2.5095873,-1.2530855,0.0036050156,1.260411,2.5170991,-0.005291065,0.001707714,0.034139797,0.047188304,0.022819944,-0.0037642447,-0.035593815,-0.038773686,-0.008912727,0.012726745,0.20007591,0.20002143,0.19993788,0.19993974,0.20002505
837460000,837380000,-2.529479,3.5524368,-2.509612,-1.2531102,0.003580212,1.2603861,2.5170743,-0.005291065,0.001707714,0.034139797,0.047188304,0.022819944,-0.0037642447,-0.035593815,-0.038773686,-0.008912727,0.012726745,0.20007591,0.20002143,0.19993788,0.19993974,0.20002505
837468000,837388000,-2.5295627,3.5524385,-2.5096726,-1.2531707,0.0035197174,1.2603257,2.517014,-0.005291065,0.001707714,0.034139797,0.047188304,0.022819944,-0.0037642447,-0.035593815,-0.038773686,-0.008912727,0.012726745,0.20007591,0.20002143,0.19993788,0.19993974,0.20002505
837476000,837396000,-2.5295892,3.5524366,-2.5097501,-1.2532482,0.0034421321,1.2602481,2.5169363,-0.005291065,0.001707714,0.034139797,0.047188304,0.022819944,-0.0037642447,-0.035593815,-0.038773686,-0.008912727,0.012726745,0.20007591,0.20002143,0.19993788,0.19993974,0.20002505
837484000,837404000,-2.529661,3.552438,-2.5098057,-1.2533038,0.003386533,1.2601925,2.5168808,-0.005291065,0.001707714,0.034139797,0.047188304,0.022819944,-0.0037642447,-0.035593815,-0.038773686,-0.008912727,0.012726745,0.20007591,0.20002143,0.19993788,0.19993974,0.20002505
837492000,837412000,-2.529542,3.5524347,-2.5097966,-1.2532948,0.0033955437,1.2602015,2.5168896,-0.005291065,0.001707714,0.034139797,0.047188304,0.022819944,-0.0037642447,-0.035593815,-0.038773686,-0.008912727,0.012726745,0.20007591,0.20002143,0.19993788,0.19993974,0.20002505
837500000,837420000,-2.5296783,3.5524395,-2.5098186,-1.2533165,0.0033738215,1.2601798,2.516868,-0.005291065,0.001707714,0.034139797,0.047188304,0.022819944,-0.0037642447,-0.035593815,-0.038773686,-0.008912727,0.012726745,0.20007591,0.20002143,0.19993788,0.19993974,0.20002505
837508000,837428000,-2.5294085,3.552435,-2.5096836,-1.2531816,0.0035086153,1.2603145,2.5170028,-0.005291065,0.001707714,0.034139797,0.047188304,0.022819944,-0.0037642447,-0.035593815,-0.038773686,-0.008912727,0.012726745,0.20007591,0.20002143,0.19993788,0.19993974,0.20002505
837516000,837436000,-2.5291586,3.5524223,-2.5097907,-1.2532887,0.0034012874,1.2602068,2.5168953,-0.005291065,0.001707714,0.034139797,0.047188304,0.022819944,-0.0037642447,-0.035593815,-0.038773686,-0.008912727,0.012726745,0.20007591,0.20002143,0.19993788,0.19993974,0.20002505
837524000,837444000,-2.5292654,3.5524263,-2.5097995,-1.2532974,0.0033925765,1.2601981,2.5168865,-0.005291065,0.001707714,0.034139797,0.047188304,0.022819944,-0.0037642447,-0.035593815,-0.038773686,-0.008912727,0.012726745,0.20007591,0.20002143,0.19993788,0.19993974,0.20002505
837532000,837452000,-2.529232,3.5524268,-2.5097811,-1.2532791,0.003410958,1.2602165,2.5169048,-0.005291065,0.001707714,0.034139797,0.047188304,0.022819944,-0.0037642447,-0.035593815,-0.038773686,-0.008912727,0.012726745,0.20007591,0.20002143,0.19993788,0.19993974,0.20002505
837540000,837460000,-2.5293353,3.552431,-2.509788,-1.2532859,0.0034041463,1.2602097,2.5168982,-0.005291065,0.001707714,0.034139797,0.047188304,0.022819944,-0.0037642447,-0.035593815,-0.038773686,-0.008912727,0.012726745,0.20007591,0.20002143,0.19993788,0.19993974,0.20002505
837548000,837468000,-2.529193,3.5524254,-2.5098124,-1.2533103,0.0033796972,1.2601852,2.5168736,-0.005291065,0.001707714,0.034139797,0.047188304,0.022819944,-0.0037642447,-0.035593815,-0.038773686,-0.008912727,0.012726745,0.20007591,0.20002143,0.19993788,0.19993974,0.20002505
837556000,837476000,-2.5293713,3.552433,-2.5098045,-1.2533023,0.0033876617,1.2601932,2.5168815,-0.005291065,0.001707714,0.034139797,0.047188304,0.022819944,-0.0037642447,-0.035593815,-0.038773686,-0.008912727,0.012726745,0.20007591,0.20002143,0.19993788,0.19993974,0.20002505
837564000,837484000,-2.529357,3.5524335,-2.5098004,-1.2532983,0.0033917231,1.2601973,2.5168855,-0.005291065,0.001707714,0.034139797,0.047188304,0.022819944,-0.0037642447,-0.035593815,-0.038773686,-0.008912727,0.012726745,0.20007591,0.20002143,0.19993788,0.19993974,0.20002505
837572000,837492000,-2.5293007,3.5524325,-2.5097828,-1.2532806,0.0034093757,1.2602149,2.5169034,-0.005291065,0.001707714,0.034139797,0.047188304,0.022819944,-0.0037642447,-0.035593815,-0.038773686,-0.008912727,0.012726745,0.20007591,0.20002143,0.19993788,0.19993974,0.20002505
837580000,837500000,-2.5291634,3.5524282,-2.5097644,-1.2532624,0.0034276121,1.2602332,2.5169215,-0.005291065,0.001707714,0.034139797,0.047188304,0.022819944,-0.0037642447,-0.035593815,-0.038773686,-0.008912727,0.012726745,0.20007591,0.20002143,0.19993788,0.19993974,0.20002505
837588000,837508000,-2.529176,3.55243,-2.5097544,-1.2532524,0.003437636,1.2602432,2.5169315,-0.005291065,0.001707714,0.034139797,0.047188304,0.022819944,-0.0037642447,-0.035593815,-0.038773686,-0.008912727,0.012726745,0.20007591,0.20002143,0.19993788,0.19993974,0.20002505
837596000,837516000,-2.5293021,3.5524344,-2.5097883,-1.2532861,0.003403827,1.2602093,2.5168977,-0.005291065,0.001707714,0.034139797,0.047188304,0.022819944,-0.0037642447,-0.035593815,-0.038773686,-0.008912727,0.012726745,0.20007591,0.20002143,0.19993788,0.19993974,0.20002505
837604000,837524000,-1.1675079,3.5586364,-2.509543,-1.2531279,0.0032496455,1.2599491,2.5168843,0.028385919,0.022757998,0.03532611,0.048722997,0.044430844,0.059626207,0.04458408,0.03458157,0.04344589,0.058924347,0.2000302,0.20012788,0.20004934,0.1999022,0.19989039
837612000,837532000,-1.1674819,3.5586429,-2.5095487,-1.2531335,0.0032440792,1.2599435,2.5168786,0.028385919,0.022757998,0.03532611,0.048722997,0.044430844,0.059626207,0.04458408,0.03458157,0.04344589,0.058924347,0.2000302,0.20012788,0.20004934,0.1999022,0.19989039
837620000,837540000,-1.1674438,3.5586507,-2.509555,-1.2531401,0.0032374803,1.2599368,2.5168722,0.028385919,0.022757998,0.03532611,0.048722997,0.044430844,0.059626207,0.04458408,0.03458157,0.04344589,0.058924347,0.2000302,0.20012788,0.20004934,0.1999022,0.19989039
837628000,837548000,-1.167511,3.558647,-2.509597,-1.253182,0.0031954881,1.2598948,2.5168302,0.028385919,0.022757998,0.03532611,0.048722997,0.044430844,0.059626207,0.04458408,0.03458157,0.04344589,0.058924347,0.2000302,0.20012788,0.20004934,0.1999022,0.19989039
837636000,837556000,-1.1675435,3.5586455,-2.5096169,-1.2532018,0.0031756442,1.259875,2.5168104,0.028385919,0.022757998,0.03532611,0.048722997,0.044430844,0.059626207,0.04458408,0.03458157,0.04344589,0.058924347,0.2000302,0.20012788,0.20004934,0.1999022,0.19989039
837644000,837564000,-1.1675737,3.558651,-2.5096765,-1.2532614,0.003116023,1.2598153,2.5167508,0.028385919,0.022757998,0.03532611,0.048722997,0.044430844,0.059626207,0.04458408,0.03458157,0.04344589,0.058924347,0.2000302,0.20012788,0.20004934,0.1999022,0.19989039
837652000,837572000,-1.1675385,3.5586584,-2.5096807,-1.2532656,0.0031118435,1.2598112,2.5167465,0.028385919,0.022757998,0.03532611,0.048722997,0.044430844,0.059626207,0.04458408,0.03458157,0.04344589,0.058924347,0.2000302,0.20012788,0.20004934,0.1999022,0.19989039
837660000,837580000,-1.1676486,3.558641,-2.509685,-1.2532698,0.0031077086,1.2598071,2.5167425,0.028385919,0.022757998,0.03532611,0.048722997,0.044430844,0.059626207,0.04458408,0.03458157,0.04344589,0.058924347,0.2000302,0.20012788,0.20004934,0.1999022,0.19989039
837668000,837588000,-1.1676232,3.5586479,-2.509696,-1.2532811,0.0030964264,1.2597958,2.5167313,0.028385919,0.022757998,0.03532611,0.048722997,0.044430844,0.059626207,0.04458408,0.03458157,0.04344589,0.058924347,0.2000302,0.20012788,0.20004934,0.1999022,0.19989039
837676000,837596000,-1.1675364,3.5586653,-2.5097055,-1.2532904,0.003087,1.2597864,2.5167217,0.028385919,0.022757998,0.03532611,0.048722997,0.044430844,0.059626207,0.04458408,0.03458157,0.04344589,0.058924347,0.2000302,0.20012788,0.20004934,0.1999022,0.19989039
837684000,837604000,-1.1673132,3.5586898,-2.5096254,-1.2532103,0.0031669962,1.2598662,2.5168016,0.028385919,0.022757998,0.03532611,0.048722997,0.044430844,0.059626207,0.04458408,0.03458157,0.04344589,0.058924347,0.2000302,0.20012788,0.20004934,0.1999022,0.19989039
837692000,837612000,-1.1673063,3.5587125,-2.5097468,-1.2533314,0.0030456495,1.2597448,2.5166802,0.028385919,0.022757998,0.03532611,0.048722997,0.044430844,0.059626207,0.04458408,0.03458157,0.04344589,0.058924347,0.2000302,0.20012788,0.20004934,0.1999022,0.19989039
837700000,837620000,-1.167373,3.558713,-2.5098107,-1.2533953,0.0029817605,1.2596809,2.5166163,0.028385919,0.022757998,0.03532611,0.048722997,0.044430844,0.059626207,0.04458408,0.03458157,0.04344589,0.058924347,0.2000302,0.20012788,0.20004934,0.1999022,0.19989039
837708000,837628000,-1.167373,3.558716,-2.5098257,-1.2534106,0.002966615,1.2596657,2.516601,0.028385919,0.022757998,0.03532611,0.048722997,0.044430844,0.059626207,0.04458408,0.03458157,0.04344589,0.058924347,0.2000302,0.20012788,0.20004934,0.1999022,0.19989039
837716000,837636000,-1.1674081,3.5587149,-2.5098505,-1.2534354,0.0029417835,1.2596408,2.5165763,0.028385919,0.022757998,0.03532611,0.048722997,0.044430844,0.059626207,0.04458408,0.03458157,0.04344589,0.058924347,0.2000302,0.20012788,0.20004934,0.1999022,0.19989039
837724000,837644000,-1.1673806,3.558715,-2.5098207,-1.2534056,0.0029716264,1.2596707,2.516606,0.028385919,0.022757998,0.03532611,0.048722997,0.044430844,0.059626207,0.04458408,0.03458157,0.04344589,0.058924347,0.2000302,0.20012788,0.20004934,0.1999022,0.19989039
837732000,837652000,-1.1673331,3.5587149,-2.5097694,-1.2533542,0.0030229928,1.259722,2.5166576,0.028385919,0.022757998,0.03532611,0.048722997,0.044430844,0.059626207,0.04458408,0.03458157,0.04344589,0.058924347,0.2000302,0.20012788,0.20004934,0.1999022,0.19989039
837740000,837660000,-1.1673449,3.5587115,-2.509757,-1.2533418,0.0030353274,1.2597344,2.51667,0.028385919,0.022757998,0.03532611,0.048722997,0.044430844,0.059626207,0.04458408,0.03458157,0.04344589,0.058924347,0.2000302,0.20012788,0.20004934,0.1999022,0.19989039
837748000,837668000,-1.167233,3.558736,-2.5097835,-1.2533683,0.0030088278,1.2597079,2.5166433,0.028385919,0.022757998,0.03532611,0.048722997,0.044430844,0.059626207,0.04458408,0.03458157,0.04344589,0.058924347,0.2000302,0.20012788,0.20004934,0.1999022,0.19989039
837756000,837676000,-1.1673384,3.5587194,-2.5097897,-1.2533745,0.0030026925,1.2597017,2.5166373,0.028385919,0.022757998,0.03532611,0.048722997,0.044430844,0.059626207,0.04458408,0.03458157,0.04344589,0.058924347,0.2000302,0.20012788,0.20004934,0.1999022,0.19989039
837764000,837684000,-1.1673218,3.5587192,-2.5097668,-1.2533514,0.0030256824,1.2597247,2.5166602,0.028385919,0.022757998,0.03532611,0.048722997,0.044430844,0.059626207,0.04458408,0.03458157,0.04344589,0.058924347,0.2000302,0.20012788,0.20004934,0.1999022,0.19989039
837772000,837692000,-1.1673577,3.5587127,-2.509764,-1.2533487,0.0030284033,1.2597275,2.516663,0.028385919,0.022757998,0.03532611,0.048722997,0.044430844,0.059626207,0.04458408,0.03458157,0.04344589,0.058924347,0.2000302,0.20012788,0.20004934,0.1999022,0.19989039
837780000,837700000,-1.1672987,3.5587184,-2.5097334,-1.2533181,0.0030590869,1.2597581,2.5166936,0.028385919,0.022757998,0.03532611,0.048722997,0.044430844,0.059626207,0.04458408,0.03458157,0.04344589,0.058924347,0.2000302,0.20012788,0.20004934,0.1999022,0.19989039
837788000,837708000,-1.167259,3.5587187,-2.5096922,-1.253277,0.0031001759,1.2597992,2.5167348,0.028385919,0.022757998,0.03532611,0.048722997,0.044430844,0.059626207,0.04458408,0.03458157,0.04344589,0.058924347,0.2000302,0.20012788,0.20004934,0.1999022,0.19989039
837796000,837716000,-1.1671965,3.5587292,-2.509687,-1.2532716,0.0031054826,1.2598045,2.51674,0.028385919,0.022757998,0.03532611,0.048722997,0.044430844,0.059626207,0.04458408,0.03458157,0.04344589,0.058924347,0.2000302,0.20012788,0.20004934,0.1999022,0.19989039
837804000,837724000,-1.1673678,3.5587027,-2.5096993,-1.253284,0.0030931903,1.2597923,2.516728,0.028385919,0.022757998,0.03532611,0.048722997,0.044430844,0.059626207,0.04458408,0.03458157,0.04344589,0.058924347,0.2000302,0.20012788,0.20004934,0.1999022,0.19989039
837812000,837732000,-0.60010606,3.915264,-2.5097222,-1.2531662,0.0031694376,1.2597021,2.5165763,0.03504057,0.02490421,0.021053681,0.028811192,0.03745763,0.04614443,0.04689746,0.037490938,0.030920124,0.036269553,0.19995847,0.20010145,0.20010473,0.19996284,0.19987251
837820000,837740000,-0.60016537,3.9153056,-2.5097475,-1.2531915,0.0031440926,1.2596768,2.516551,0.03504057,0.02490421,0.021053681,0.028811192,0.03745763,0.04614443,0.04689746,0.037490938,0.030920124,0.036269553,0.19995847,0.20010145,0.20010473,0.19996284,0.19987251
837828000,837748000,-0.6001471,3.915291,-2.5097418,-1.2531859,0.0031497853,1.2596824,2.5165567,0.03504057,0.02490421,0.021053681,0.028811192,0.03745763,0.04614443,0.04689746,0.037490938,0.030920124,0.036269553,0.19995847,0.20010145,0.20010473,0.19996284,0.19987251
837836000,837756000,-0.60019404,3.9153123,-2.509771,-1.2532152,0.0031203837,1.2596531,2.5165272,0.03504057,0.02490421,0.021053681,0.028811192,0.03745763,0.04614443,0.04689746,0.037490938,0.030920124,0.036269553,0.19995847,0.20010145,0.20010473,0.19996284,0.19987251
837844000,837764000,-0.6002806,3.9153857,-2.5097978,-1.2532419,0.0030937684,1.2596264,2.5165007,0.03504057,0.02490421,0.021053681,0.028811192,0.03745763,0.04614443,0.04689746,0.037490938,0.030920124,0.036269553,0.19995847,0.20010145,0.20010473,0.19996284,0.19987251
837852000,837772000,-0.60026026,3.9153008,-2.5098484,-1.2532924,0.0030432155,1.2595758,2.5164502,0.03504057,0.02490421,0.021053681,0.028811192,0.03745763,0.04614443,0.04689746,0.037490938,0.030920124,0.036269553,0.19995847,0.20010145,0.20010473,0.19996284,0.19987251
837860000,837780000,-0.6002872,3.9153404,-2.5098426,-1.2532868,0.0030487385,1.2595813,2.5164557,0.03504057,0.02490421,0.021053681,0.028811192,0.03745763,0.04614443,0.04689746,0.037490938,0.030920124,0.036269553,0.19995847,0.20010145,0.20010473,0.19996284,0.19987251
837868000,837788000,-0.6000613,3.9149573,-2.5099344,-1.2533783,0.0029570423,1.2594894,2.5163636,0.03504057,0.02490421,0.021053681,0.028811192,0.03745763,0.04614443,0.04689746,0.037490938,0.030920124,0.036269553,0.19995847,0.20010145,0.20010473,0.19996284,0.19987251
837876000,837796000,-0.60015327,3.9150589,-2.5099428,-1.2533867,0.0029486164,1.259481,2.5163553,0.03504057,0.02490421,0.021053681,0.028811192,0.03745763,0.04614443,0.04689746,0.037490938,0.030920124,0.036269553,0.19995847,0.20010145,0.20010473,0.19996284,0.19987251
837884000,837804000,-0.6001642,3.9150572,-2.5099554,-1.2533994,0.002935946,1.2594683,2.5163426,0.03504057,0.02490421,0.021053681,0.028811192,0.03745763,0.04614443,0.04689746,0.037490938,0.030920124,0.036269553,0.19995847,0.20010145,0.20010473,0.19996284,0.19987251
837892000,837812000,-0.60022545,3.9151487,-2.5099413,-1.2533853,0.002949979,1.2594824,2.5163567,0.03504057,0.02490421,0.021053681,0.028811192,0.03745763,0.04614443,0.04689746,0.037490938,0.030920124,0.036269553,0.19995847,0.20010145,0.20010473,0.19996284,0.19987251
837900000,837820000,-0.60005975,3.9149764,-2.5099192,-1.253363,0.0029722862,1.2595046,2.5163789,0.03504057,0.02490421,0.021053681,0.028811192,0.03745763,0.04614443,0.04689746,0.037490938,0.030920124,0.036269553,0.19995847,0.20010145,0.20010473,0.19996284,0.19987251
837908000,837828000,-0.6001348,3.9150465,-2.5099368,-1.2533808,0.002954577,1.2594869,2.5163612,0.03504057,0.02490421,0.021053681,0.028811192,0.03745763,0.04614443,0.04689746,0.037490938,0.030920124,0.036269553,0.19995847,0.20010145,0.20010473,0.19996284,0.19987251
837916000,837836000,-0.6000814,3.9149656,-2.5099506,-1.2533945,0.0029407912,1.2594731,2.5163474,0.03504057,0.02490421,0.021053681,0.028811192,0.03745763,0.04614443,0.04689746,0.037490938,0.030920124,0.036269553,0.19995847,0.20010145,0.20010473,0.19996284,0.19987251
837924000,837844000,-0.6001534,3.9150465,-2.5099564,-1.2534003,0.0029350421,1.2594674,2.5163417,0.03504057,0.02490421,0.021053681,0.028811192,0.03745763,0.04614443,0.04689746,0.037490938,0.030920124,0.036269553,0.19995847,0.20010145,0.20010473,0.19996284,0.19987251
837932000,837852000,-0.60016924,3.9150598,-2.5099616,-1.2534056,0.0029298258,1.2594622,2.5163364,0.03504057,0.02490421,0.021053681,0.028811192,0.03745763,0.04614443,0.04689746,0.037490938,0.030920124,0.036269553,0.19995847,0.20010145,0.20010473,0.19996284,0.19987251
837940000,837860000,-0.6001166,3.9150345,-2.5099306,-1.2533743,0.0029609443,1.2594934,2.5163677,0.03504057,0.02490421,0.021053681,0.028811192,0.03745763,0.04614443,0.04689746,0.037490938,0.030920124,0.036269553,0.19995847,0.20010145,0.20010473,0.19996284,0.19987251
837948000,837868000,-0.6000881,3.9150388,-2.5098987,-1.2533426,0.002992715,1.2595251,2.5163994,0.03504057,0.02490421,0.021053681,0.028811192,0.03745763,0.04614443,0.04689746,0.037490938,0.030920124,0.036269553,0.19995847,0.20010145,0.20010473,0.19996284,0.19987251
837956000,837876000,-0.6001761,3.915151,-2.5098944,-1.2533385,0.00299689,1.2595292,2.5164037,0.03504057,0.02490421,0.021053681,0.028811192,0.03745763,0.04614443,0.04689746,0.037490938,0.030920124,0.036269553,0.19995847,0.20010145,0.20010473,0.19996284,0.19987251
837964000,837884000,-0.60009634,3.9150577,-2.5098925,-1.2533364,0.0029989104,1.2595313,2.5164056,0.03504057,0.02490421,0.021053681,0.028811192,0.03745763,0.04614443,0.04689746,0.037490938,0.030920124,0.036269553,0.19995847,0.20010145,0.20010473,0.19996284,0.19987251
837972000,837892000,-0.6001361,3.9151173,-2.5098834,-1.2533274,0.0030079272,1.2595403,2.5164146,0.03504057,0.02490421,0.021053681,0.028811192,0.03745763,0.04614443,0.04689746,0.037490938,0.030920124,0.036269553,0.19995847,0.20010145,0.20010473,0.19996284,0.19987251
837980000,837900000,-0.6001645,3.9151018,-2.5099251,-1.2533691,0.002966209,1.2594986,2.516373,0.03504057,0.02490421,0.021053681,0.028811192,0.03745763,0.04614443,0.04689746,0.037490938,0.030920124,0.036269553,0.19995847,0.20010145,0.20010473,0.19996284,0.19987251
837988000,837908000,-0.60024214,3.915149,-2.509964,-1.253408,0.0029273503,1.2594597,2.516334,0.03504057,0.02490421,0.021053681,0.028811192,0.03745763,0.04614443,0.04689746,0.037490938,0.030920124,0.036269553,0.19995847,0.20010145,0.20010473,0.19996284,0.19987251
837996000,837916000,-0.600224,3.915078,-2.5100055,-1.2534494,0.0028859535,1.2594184,2.5162926,0.03504057,0.02490421,0.021053681,0.028811192,0.03745763,0.04614443,0.04689746,0.037490938,0.030920124,0.036269553,0.19995847,0.20010145,0.20010473,0.19996284,0.19987251
838004000,837924000,-0.6002293,3.9150553,-2.51003,-1.253474,0.0028613387,1.2593937,2.516268,0.03504057,0.02490421,0.021053681,0.028811192,0.03745763,0.04614443,0.04689746,0.037490938,0.030920124,0.036269553,0.19995847,0.20010145,0.20010473,0.19996284,0.19987251
838012000,837932000,-0.6002836,3.9151127,-2.5100372,-1.2534811,0.0028541852,1.2593865,2.5162609,0.03504057,0.02490421,0.021053681,0.028811192,0.03745763,0.04614443,0.04689746,0.037490938,0.030920124,0.036269553,0.19995847,0.20010145,0.20010473,0.19996284,0.19987251
838020000,837940000,-0.05457654,3.5538797,-2.5100312,-1.253283,0.0029932586,1.2592969,2.516089,0.050557062,0.04338113,0.024375921,0.019797467,0.03597941,-0.010568671,0.0070859566,0.0057204333,-0.012777744,-0.022850154,0.19985986,0.20006599,0.20018144,0.20004569,0.19984704
838028000,837948000,-0.054570887,3.5538802,-2.5100262,-1.2532779,0.0029983174,1.2593019,2.516094,0.050557062,0.04338113,0.024375921,0.019797467,0.03597941,-0.010568671,0.0070859566,0.0057204333,-0.012777744,-0.022850154,0.19985986,0.20006599,0.20018144,0.20004569,0.19984704
838036000,837956000,-0.05443541,3.5538766,-2.509927,-1.2531786,0.0030974585,1.259401,2.516193,0.050557062,0.04338113,0.024375921,0.019797467,0.03597941,-0.010568671,0.0070859566,0.0057204333,-0.012777744,-0.022850154,0.19985986,0.20006599,0.20018144,0.20004569,0.19984704
838044000,837964000,-0.054572865,3.5538788,-2.5100434,-1.253295,0.0029809359,1.2592843,2.5160763,0.050557062,0.04338113,0.024375921,0.019797467,0.03597941,-0.010568671,0.0070859566,0.0057204333,-0.012777744,-0.022850154,0.19985986,0.20006599,0.20018144,0.20004569,0.19984704
838052000,837972000,-0.05460705,3.5538802,-2.5100725,-1.253324,0.0029519172,1.2592552,2.5160472,0.050557062,0.04338113,0.024375921,0.019797467,0.03597941,-0.010568671,0.0070859566,0.0057204333,-0.012777744,-0.022850154,0.19985986,0.20006599,0.20018144,0.20004569,0.19984704
838060000,837980000,-0.05461579,3.5538805,-2.5100825,-1.2533342,0.002941783,1.2592452,2.5160372,0.050557062,0.04338113,0.024375921,0.019797467,0.03597941,-0.010568671,0.0070859566,0.0057204333,-0.012777744,-0.022850154,0.19985986,0.20006599,0.20018144,0.20004569,0.19984704
838068000,837988000,-0.05463754,3.5538814,-2.5101025,-1.2533541,0.0029218483,1.2592251,2.5160172,0.050557062,0.04338113,0.024375921,0.019797467,0.03597941,-0.010568671,0.0070859566,0.0057204333,-0.012777744,-0.022850154,0.19985986,0.20006599,0.20018144,0.20004569,0.19984704
838076000,837996000,-0.054636523,3.5538828,-2.5100937,-1.2533453,0.0029305974,1.259234,2.516026,0.050557062,0.04338113,0.024375921,0.019797467,0.03597941,-0.010568671,0.0070859566,0.0057204333,-0.012777744,-0.022850154,0.19985986,0.20006599,0.20018144,0.20004569,0.19984704
838084000,838004000,-0.054539107,3.5538783,-2.5100424,-1.253294,0.0029819563,1.2592853,2.5160773,0.050557062,0.04338113,0.024375921,0.019797467,0.03597941,-0.010568671,0.0070859566,0.0057204333,-0.012777744,-0.022850154,0.19985986,0.20006599,0.20018144,0.20004569,0.19984704
838092000,838012000,-0.054498296,3.553878,-2.5100098,-1.2532613,0.003014548,1.2593179,2.51611,0.050557062,0.04338113,0.024375921,0.019797467,0.03597941,-0.010568671,0.0070859566,0.0057204333,-0.012777744,-0.022850154,0.19985986,0.20006599,0.20018144,0.20004569,0.19984704
838100000,838020000,-0.05456,3.553885,-2.5100172,-1.2532687,0.0030071763,1.2593105,2.5161026,0.050557062,0.04338113,0.024375921,0.019797467,0.03597941,-0.010568671,0.0070859566,0.0057204333,-0.012777744,-0.022850154,0.19985986,0.20006599,0.20018144,0.20004569,0.19984704
838108000,838028000,-0.05458588,3.5538893,-2.5100102,-1.2532618,0.0030140565,1.2593174,2.5161095,0.050557062,0.04338113,0.024375921,0.019797467,0.03597941,-0.010568671,0.0070859566,0.0057204333,-0.012777744,-0.022850154,0.19985986,0.20006599,0.20018144,0.20004569,0.19984704
838116000,838036000,-0.054461025,3.5538776,-2.5099955,-1.2532468,0.0030290873,1.2593324,2.5161245,0.050557062,0.04338113,0.024375921,0.019797467,0.03597941,-0.010568671,0.0070859566,0.0057204333,-0.012777744,-0.022850154,0.19985986,0.20006599,0.20018144,0.20004569,0.19984704
