timestamp,timestamp_sample,gyro_device_id,gyro_bias[0],gyro_bias[1],gyro_bias[2],gyro_bias_limit,gyro_bias_variance[0],gyro_bias_variance[1],gyro_bias_variance[2],accel_device_id,accel_bias[0],accel_bias[1],accel_bias[2],accel_bias_limit,accel_bias_variance[0],accel_bias_variance[1],accel_bias_variance[2],mag_device_id,mag_bias[0],mag_bias[1],mag_bias[2],mag_bias_limit,mag_bias_variance[0],mag_bias_variance[1],mag_bias_variance[2],gyro_bias_valid,gyro_bias_stable,accel_bias_valid,accel_bias_stable,mag_bias_valid,mag_bias_stable
828812000,828732000,1310988,0.0003250287,-0.0021940174,0.001183009,0.34906584,1.3787438e-07,1.3787738e-07,3.5913087e-07,1310988,0.016087523,0.010420083,-0.13570984,0.4,0.0018082374,0.001807621,0.00078123936,197388,0.0035850378,-0.0009240351,-1.49523285e-05,0.5,3.5996978e-05,6.203198e-05,0.00011916255,1,1,1,0,1,0
829436000,829356000,1310988,0.00033675315,-0.002184082,0.0011786976,0.34906584,1.3787738e-07,1.3787968e-07,3.5899848e-07,1310988,0.016089987,0.010427842,-0.13266031,0.4,0.0018082777,0.0018076587,0.00078123936,197388,0.0035850378,-0.0009240351,-1.49523285e-05,0.5,3.5996978e-05,6.203198e-05,0.00011916255,1,1,1,0,1,0
829644000,829564000,1310988,0.00032917075,-0.002179206,0.0011774565,0.34906584,1.3787117e-07,1.3787526e-07,3.5895357e-07,1310988,0.01609189,0.010430676,-0.13438052,0.4,0.0018082903,0.0018076695,0.00078123936,197388,0.0035850378,-0.0009240351,-1.49523285e-05,0.5,3.5996978e-05,6.203198e-05,0.00011916255,1,1,1,0,1,0
829852000,829772000,1310988,0.00032916878,-0.002180399,0.0011761321,0.34906584,1.378765e-07,1.3788016e-07,3.5891102e-07,1310988,0.016090179,0.010432839,-0.13179022,0.4,0.0018083038,0.0018076829,0.00078123936,197388,0.0035850378,-0.0009240351,-1.49523285e-05,0.5,3.5996978e-05,6.203198e-05,0.00011916255,1,1,1,0,1,0
830268000,830188000,1310988,0.00033301354,-0.0021881259,0.0011720711,0.34906584,1.3788143e-07,1.378829e-07,3.588239e-07,1310988,0.016087966,0.010432871,-0.12889998,0.4,0.0018083318,0.0018077116,0.00078123936,197388,0.0035850378,-0.0009240351,-1.49523285e-05,0.5,3.5996978e-05,6.203198e-05,0.00011916255,1,1,1,0,1,0
830476000,830396000,1310988,0.00033901422,-0.0021763325,0.0011717044,0.34906584,1.3787343e-07,1.378757e-07,3.58783e-07,1310988,0.016094966,0.010431663,-0.13075298,0.4,0.001808342,0.0018077234,0.00078123936,197388,0.0035850378,-0.0009240351,-1.49523285e-05,0.5,3.5996978e-05,6.203198e-05,0.00011916255,1,1,1,0,1,0
830684000,830604000,1310988,0.0003302947,-0.0021822185,0.001168862,0.34906584,1.3787874e-07,1.3788143e-07,3.5873245e-07,1310988,0.016089655,0.010433659,-0.12840195,0.4,0.0018083549,0.0018077357,0.00078123936,197388,0.0035850378,-0.0009240351,-1.49523285e-05,0.5,3.5996978e-05,6.203198e-05,0.00011916255,1,1,1,0,1,0
831308000,831228000,1310988,0.00034746795,-0.002199761,0.0011645459,0.34906584,1.3787587e-07,1.3787272e-07,3.585971e-07,1310988,0.016087528,0.01042335,-0.12943172,0.4,0.001808393,0.0018077738,0.00078123936,197388,0.0035850378,-0.0009240351,-1.49523285e-05,0.5,3.5996978e-05,6.203198e-05,0.00011916255,1,1,1,0,1,0
831516000,831436000,1310988,0.00034956873,-0.002211614,0.0011629057,0.34906584,1.3788194e-07,1.3787658e-07,3.5854856e-07,1310988,0.016085269,0.010420455,-0.12742525,0.4,0.0018084039,0.001807788,0.00078123936,197388,0.0035850378,-0.0009240351,-1.49523285e-05,0.5,3.5996978e-05,6.203198e-05,0.00011916255,1,1,1,0,1,0
831932000,831852000,1310988,0.00034814444,-0.002221812,0.0011595621,0.34906584,1.3787509e-07,1.3786878e-07,3.5902758e-07,1310988,0.016083336,0.010419001,-0.1303137,0.4,0.0018084263,0.0018078119,0.00078123936,197388,0.0035850378,-0.0009240351,-1.49523285e-05,0.5,3.5996978e-05,6.203198e-05,0.00011916255,1,1,1,0,1,0
832140000,832060000,1310988,0.0003522495,-0.0022198465,0.001158094,0.34906584,1.3788205e-07,1.3787584e-07,3.589861e-07,1310988,0.016083982,0.0104163345,-0.12713598,0.4,0.0018084381,0.0018078233,0.00078123936,197388,0.0035850378,-0.0009240351,-1.49523285e-05,0.5,3.5996978e-05,6.203198e-05,0.00011916255,1,1,1,0,1,0
832348000,832268000,1310988,0.0003466192,-0.0022128336,0.0011544492,0.34906584,1.3787302e-07,1.3786943e-07,3.589405e-07,1310988,0.016085673,0.010422585,-0.13028432,0.4,0.0018084472,0.0018078332,0.00078123936,197388,0.0035850378,-0.0009240351,-1.49523285e-05,0.5,3.5996978e-05,6.203198e-05,0.00011916255,1,1,1,0,1,0
832556000,832476000,1310988,0.0003467525,-0.0022218751,0.0011540654,0.34906584,1.3786868e-07,1.3786355e-07,3.5889272e-07,1310988,0.016084908,0.010420873,-0.13333338,0.4,0.0018084561,0.0018078443,0.00078123936,197388,0.0035850378,-0.0009240351,-1.49523285e-05,0.5,3.5996978e-05,6.203198e-05,0.00011916255,1,1,1,0,1,0
832972000,832892000,1310988,0.00034152245,-0.002223779,0.0011507344,0.34906584,1.3786983e-07,1.3786563e-07,3.5880112e-07,1310988,0.016084338,0.010420107,-0.13441855,0.4,0.0018084847,0.0018078727,0.00078123936,197388,0.0035850378,-0.0009240351,-1.49523285e-05,0.5,3.5996978e-05,6.203198e-05,0.00011916255,1,1,1,0,1,0
833972000,833892000,1310988,0.00035602256,-0.0021912332,0.0011378612,0.34906584,1.3921351e-07,1.3921283e-07,3.588372e-07,1310988,0.016088663,0.010430188,-0.13442881,0.4,0.0018085501,0.0018079408,0.0007812514,197388,0.0035850378,-0.0009240351,-1.49523285e-05,0.5,3.5996978e-05,6.203198e-05,0.00011916255,1,1,1,0,1,0
834012000,833932000,1310988,0.00036374672,-0.0021906379,0.0011389009,0.34906584,1.378649e-07,1.378629e-07,3.5858787e-07,1310988,0.01609526,0.010430209,-0.13702488,0.4,0.0018085504,0.0018079403,0.00078123936,197388,0.0035850378,-0.0009240351,-1.49523285e-05,0.5,3.5996978e-05,6.203198e-05,0.00011916255,1,1,1,0,1,0
834428000,834348000,1310988,0.00036596265,-0.0021950968,0.0011362482,0.34906584,1.3786511e-07,1.3786192e-07,3.590692e-07,1310988,0.016099546,0.010426772,-0.13899435,0.4,0.0018085777,0.0018079692,0.00078123936,197388,0.0035850378,-0.0009240351,-1.49523285e-05,0.5,3.5996978e-05,6.203198e-05,0.00011916255,1,1,1,0,1,0
834636000,834556000,1310988,0.0003726129,-0.0021956435,0.0011333645,0.34906584,1.3787043e-07,1.3786602e-07,3.5902693e-07,1310988,0.016101383,0.010428821,-0.13761435,0.4,0.001808591,0.0018079826,0.00078123936,197388,0.0035850378,-0.0009240351,-1.49523285e-05,0.5,3.5996978e-05,6.203198e-05,0.00011916255,1,1,1,0,1,0
835260000,835180000,1310988,0.0003909504,-0.0021963632,0.0011338354,0.34906584,1.3787125e-07,1.3786412e-07,3.58903e-07,1310988,0.016107325,0.0104302745,-0.13873301,0.4,0.001808633,0.0018080239,0.00078123936,197388,0.0035850378,-0.0009240351,-1.49523285e-05,0.5,3.5996978e-05,6.203198e-05,0.00011916255,1,1,1,0,1,0
835468000,835388000,1310988,0.00039714295,-0.0022077493,0.0011318105,0.34906584,1.378791e-07,1.3786897e-07,3.5885515e-07,1310988,0.016110197,0.010432784,-0.1366017,0.4,0.0018086428,0.0018080367,0.00078123936,197388,0.0035850378,-0.0009240351,-1.49523285e-05,0.5,3.5996978e-05,6.203198e-05,0.00011916255,1,1,1,0,1,0
836468000,836388000,1310988,0.0004091007,-0.002213673,0.0011256185,0.34906584,1.4088593e-07,1.4087404e-07,3.5889252e-07,1310988,0.016114188,0.010429545,-0.13697681,0.4,0.0018087138,0.0018081075,0.00078125816,197388,0.0035850378,-0.0009240351,-1.49523285e-05,0.5,3.5996978e-05,6.203198e-05,0.00011916255,1,0,1,0,1,0
837468000,837388000,1310988,0.00040838995,-0.0022158662,0.0011149585,0.34906584,1.4849586e-07,1.4848472e-07,3.589236e-07,1310988,0.016108215,0.010427737,-0.1374115,0.4,0.0018087791,0.0018081727,0.0007812428,197388,0.0035850378,-0.0009240351,-1.49523285e-05,0.5,3.5996978e-05,6.203198e-05,0.00011916255,1,0,1,0,1,0
838468000,838388000,1310988,0.0004222845,-0.0022193387,0.0011084859,0.34906584,1.5307486e-07,1.5306462e-07,3.5895437e-07,1310988,0.016058153,0.0100407405,-0.13749552,0.4,0.0018063894,0.0018057834,0.00078124227,197388,0.0035850378,-0.0009240351,-1.49523285e-05,0.5,3.5996978e-05,6.203198e-05,0.00011916255,1,0,1,0,1,0
839420000,839340000,1310988,0.00043097464,-0.002227901,0.0011082285,0.34906584,1.577697e-07,1.5775886e-07,3.6599593e-07,1310988,0.016939351,0.01058101,-0.13729599,0.4,0.0017773976,0.0017768217,0.00078123936,197388,0.0035850378,-0.0009240351,-1.49523285e-05,0.5,0.0025000002,0.0025000002,0.0025000002,1,0,1,0,1,0
840196000,840116000,1310988,0.00043830543,-0.0022328906,0.0011089036,0.34906584,1.6182815e-07,1.6181741e-07,3.7218936e-07,1310988,0.017938832,0.011739422,-0.13744956,0.4,0.0016760804,0.0016755875,0.00078123936,197388,0.0035850378,-0.0009240351,-1.49523285e-05,0.5,0.0025000002,0.0025000002,0.0025000002,1,0,1,0,1,0
840404000,840324000,1310988,0.00043914007,-0.002235191,0.001109113,0.34906584,1.6294939e-07,1.6293875e-07,3.73849e-07,1310988,0.018607339,0.011722977,-0.13667384,0.4,0.001629349,0.001628891,0.00078123936,197388,0.0035850378,-0.0009240351,-1.49523285e-05,0.5,0.0025000002,0.0025000002,0.0025000002,1,0,1,0,1,0
840820000,840740000,1310988,0.00044116686,-0.002239025,0.0011093697,0.34906584,1.6543548e-07,1.6542491e-07,3.771614e-07,1310988,0.019837359,0.012038914,-0.13650937,0.4,0.0015389266,0.0015385407,0.00078123936,197388,0.0035850378,-0.0009240351,-1.49523285e-05,0.5,0.0025000002,0.0025000002,0.0025000002,1,0,1,0,1,0
841812000,841732000,1310988,0.00044037314,-0.002238245,0.0011102592,0.34906584,1.7241958e-07,1.7240848e-07,3.8503848e-07,1310988,0.018502666,0.010662515,-0.13804784,0.4,0.0014136647,0.0014133583,0.00078123936,197388,0.0035850378,-0.0009240351,-1.49523285e-05,0.5,0.0025000002,0.0025000002,0.0025000002,1,0,1,0,1,0
842020000,841940000,1310988,0.00043911117,-0.0022362873,0.0011102206,0.34906584,1.7383009e-07,1.7381728e-07,3.8668426e-07,1310988,0.017162656,0.009664781,-0.13893865,0.4,0.0013810731,0.0013810552,0.00078123936,197388,0.0035850378,-0.0009240351,-1.49523285e-05,0.5,0.0025000002,0.0025000002,0.0025000002,1,0,1,0,1,0
842228000,842148000,1310988,0.00043735674,-0.0022346508,0.0011109111,0.34906584,1.7527667e-07,1.752608e-07,3.8832798e-07,1310988,0.016042098,0.008408635,-0.13926779,0.4,0.0013551784,0.0013557253,0.00078123936,197388,0.0035850378,-0.0009240351,-1.49523285e-05,0.5,0.0025000002,0.0025000002,0.0025000002,1,0,1,0,1,0
842436000,842356000,1310988,0.00043522858,-0.0022333818,0.0011112213,0.34906584,1.7674952e-07,1.7672907e-07,3.8996976e-07,1310988,0.015224403,0.0070372773,-0.14006251,0.4,0.0013343047,0.0013356573,0.00078123936,197388,0.0035850378,-0.0009240351,-1.49523285e-05,0.5,0.0025000002,0.0025000002,0.0025000002,1,0,1,0,1,0
842628000,842548000,1310988,0.00043522613,-0.00223337,0.0011111486,0.34906584,1.782854e-07,1.7826487e-07,3.9148992e-07,1310988,0.015220532,0.0070314556,-0.14001739,0.4,0.0013342901,0.0013355511,0.00078123936,197388,0.0033657842,-0.0016116513,-0.0009853138,0.5,0.0014162579,0.0015616392,0.0016216554,1,0,1,0,1,0
842764000,842684000,1310988,0.00043522875,-0.0022333665,0.0011111486,0.34906584,1.793734e-07,1.7935287e-07,3.925779e-07,1310988,0.015218986,0.0070320033,-0.13997544,0.4,0.0013342942,0.0013355603,0.00078124047,197388,0.0035156624,-0.0014120195,0.0003022658,0.5,0.00094433216,0.00122502,0.0013412541,1,0,1,0,1,0
842796000,842716000,1310988,0.000431533,-0.0022320175,0.0011110455,0.34906584,1.79432e-07,1.7940265e-07,3.9283373e-07,1310988,0.014598093,0.005330954,-0.14082587,0.4,0.001315489,0.0013180956,0.00078123936,197388,0.0036478257,-0.0015597652,0.00038091812,0.5,0.000944214,0.0012249053,0.0013412201,1,0,1,0,1,0
843004000,842924000,1310988,0.00042747223,-0.0022313911,0.0011106811,0.34906584,1.8091878e-07,1.8087854e-07,3.944969e-07,1310988,0.01437692,0.003609931,-0.14180477,0.4,0.0013003941,0.0013045488,0.00078123936,197388,0.00394886,-0.0013761433,0.0006981622,0.5,0.00075022306,0.0010975188,0.0012382778,1,0,1,0,1,0
843212000,843132000,1310988,0.00042342508,-0.0022310796,0.0011100143,0.34906584,1.8241727e-07,1.823642e-07,3.9615824e-07,1310988,0.014435836,0.0020627636,-0.14318727,0.4,0.0012879759,0.001293736,0.00078123936,197388,0.0039392803,-0.0014230722,0.0008736467,0.5,0.0006724625,0.0010496725,0.0012002476,1,0,1,0,1,0
843420000,843340000,1310988,0.00041991068,-0.0022301758,0.0011089995,0.34906584,1.8392039e-07,1.8385228e-07,3.9781565e-07,1310988,0.014323379,0.0008591702,-0.14432232,0.4,0.0012775147,0.0012848745,0.00078123936,197388,0.0041736923,-0.0017464136,0.0011230945,0.5,0.0006301748,0.0010240838,0.0011810327,1,0,1,0,1,0
843628000,843548000,1310988,0.0004159813,-0.0022299243,0.0011077478,0.34906584,1.8541711e-07,1.853307e-07,3.994617e-07,1310988,0.0143293515,-0.0002246872,-0.14481442,0.4,0.0012684936,0.0012773182,0.00078123936,197388,0.004186663,-0.0019865423,0.0011463995,0.5,0.00060321356,0.0010076625,0.0011699422,1,0,1,0,1,0
844004000,843924000,1310988,0.00041261915,-0.002230197,0.0011060697,0.34906584,1.8817626e-07,1.8806023e-07,4.0240727e-07,1310988,0.01465368,-0.0011272525,-0.1455591,0.4,0.0012595634,0.001269699,0.00078123936,197388,0.004589075,-0.0025024873,0.001255203,0.5,0.000575684,0.0009906307,0.001158496,1,0,1,0,1,0
844412000,844332000,1310988,0.00040931717,-0.0022305064,0.001104403,0.34906584,1.9108131e-07,1.9092647e-07,4.0555307e-07,1310988,0.01496841,-0.0018280981,-0.14652969,0.4,0.0012508448,0.0012624548,0.00078123936,197388,0.0046599316,-0.0028116074,0.0012849518,0.5,0.0005551395,0.0009795708,0.0011509149,1,0,1,0,1,0
844620000,844540000,1310988,0.00040560422,-0.002229609,0.0011019829,0.34906584,1.9239494e-07,1.9220403e-07,4.0709244e-07,1310988,0.015326248,-0.0024843637,-0.14787179,0.4,0.0012434917,0.0012566311,0.00078123936,197388,0.0048037358,-0.002851591,0.00133493,0.5,0.000547372,0.00097622734,0.001148401,1,0,1,0,1,0
844828000,844748000,1310988,0.00040234692,-0.0022297374,0.0011002811,0.34906584,1.9368889e-07,1.9346322e-07,4.0860724e-07,1310988,0.015853057,-0.0030418802,-0.14947277,0.4,0.0012370509,0.0012517277,0.00078123936,197388,0.0046842233,-0.0028514646,0.0013404017,0.5,0.00054063066,0.0009737163,0.001146412,1,0,1,0,1,0
845036000,844956000,1310988,0.00039963107,-0.0022302242,0.0010986138,0.34906584,1.9495046e-07,1.94691e-07,4.1009199e-07,1310988,0.016482843,-0.0035630623,-0.15109202,0.4,0.0012313158,0.001247552,0.00078123936,197388,0.004715094,-0.0029493328,0.0013780472,0.5,0.0005345115,0.00097166013,0.0011448129,1,0,1,0,1,0
845396000,845316000,1310988,0.00039936745,-0.0022318983,0.0010986892,0.34906584,1.9724274e-07,1.9694333e-07,4.126862e-07,1310988,0.01721091,-0.0038183148,-0.15273115,0.4,0.0012255916,0.001243627,0.00078123936,197388,0.0048432546,-0.0030275234,0.0013362585,0.5,0.0005256624,0.000969238,0.0011425506,1,0,1,0,1,0
845604000,845524000,1310988,0.00040043844,-0.00223284,0.0010997663,0.34906584,1.9829993e-07,1.9796049e-07,4.140509e-07,1310988,0.017858146,-0.0039335173,-0.15428716,0.4,0.0012204747,0.0012403959,0.00078123936,197388,0.0047736014,-0.0029944773,0.0013906066,0.5,0.0005211134,0.0009682139,0.0011413363,1,0,1,0,1,0
845820000,845740000,1310988,0.00040035238,-0.002234596,0.0011001063,0.34906584,1.9936749e-07,1.9898731e-07,4.1544214e-07,1310988,0.018417474,-0.0040611005,-0.15546373,0.4,0.0012157151,0.0012376332,0.00078123936,197388,0.004847815,-0.0029795724,0.0013580462,0.5,0.0005167513,0.0009673988,0.0011404174,1,0,1,0,1,0
846020000,845940000,1310988,0.0004040786,-0.0022363616,0.0011028628,0.34906584,2.0026117e-07,1.9983896e-07,4.166722e-07,1310988,0.019305492,-0.004162456,-0.15747349,0.4,0.0012113062,0.0012352809,0.00078123936,197388,0.0049672276,-0.0030167375,0.0013577844,0.5,0.0005125634,0.0009666982,0.0011396451,1,0,1,0,1,0
846228000,846148000,1310988,0.0004061895,-0.0022361625,0.0011040998,0.34906584,2.0119589e-07,2.0072173e-07,4.1781885e-07,1310988,0.020023758,-0.0043268674,-0.15934889,0.4,0.0012070892,0.0012327346,0.00078123936,197388,0.0049673542,-0.0030167997,0.0013578229,0.5,0.0005125634,0.0009666982,0.0011396451,1,0,1,0,1,0
846612000,846532000,1310988,0.00041125587,-0.002236996,0.0011076139,0.34906584,2.0323999e-07,2.0268924e-07,4.2013846e-07,1310988,0.020828584,-0.0044120704,-0.16142221,0.4,0.0012026324,0.0012300701,0.00078123936,197388,0.0049673542,-0.0030167997,0.0013578229,0.5,0.0005125634,0.0009666982,0.0011396451,1,0,1,0,1,0
847004000,846924000,1310988,0.0004202556,-0.0022370685,0.0011135053,0.34906584,2.0501622e-07,2.0435708e-07,4.2233748e-07,1310988,0.021528538,-0.004422635,-0.16333196,0.4,0.0011979921,0.0012275896,0.00078123936,197388,0.0049673542,-0.0030167997,0.0013578229,0.5,0.0005125634,0.0009666982,0.0011396451,1,0,1,0,1,0
847220000,847140000,1310988,0.0004250866,-0.002238784,0.0011176723,0.34906584,2.0538161e-07,2.0460463e-07,4.232809e-07,1310988,0.022438575,-0.004554145,-0.16555627,0.4,0.0011937651,0.0012259098,0.00078123936,197388,0.0049673542,-0.0030167997,0.0013578229,0.5,0.0005125634,0.0009666982,0.0011396451,1,0,1,0,1,0
847428000,847348000,1310988,0.00042971034,-0.0022379248,0.001120111,0.34906584,2.0567268e-07,2.0476864e-07,4.2416855e-07,1310988,0.023372408,-0.004798701,-0.16800825,0.4,0.0011898174,0.0012244985,0.00078123936,197388,0.0049673542,-0.0030167997,0.0013578229,0.5,0.0005125634,0.0009666982,0.0011396451,1,0,1,0,1,0
847636000,847556000,1310988,0.000434173,-0.002238333,0.0011228708,0.34906584,2.0593527e-07,2.0489149e-07,4.25098e-07,1310988,0.02398806,-0.004935432,-0.16963325,0.4,0.0011860686,0.0012233994,0.00078123936,197388,0.0049673542,-0.0030167997,0.0013578229,0.5,0.0005125634,0.0009666982,0.0011396451,1,0,1,0,1,0
847996000,847916000,1310988,0.00044068482,-0.0022393547,0.00112784,0.34906584,2.0705738e-07,2.0583894e-07,4.2695262e-07,1310988,0.024721362,-0.0050684293,-0.1715916,0.4,0.0011821407,0.0012220453,0.00078123936,197388,0.0049673542,-0.0030167997,0.0013578229,0.5,0.0005125634,0.0009666982,0.0011396451,1,0,1,0,1,0
848204000,848124000,1310988,0.00044933814,-0.0022387283,0.0011338686,0.34906584,2.069853e-07,2.0557687e-07,4.2777677e-07,1310988,0.02544788,-0.0052199084,-0.17361198,0.4,0.0011785848,0.0012212143,0.00078123936,197388,0.0049673542,-0.0030167997,0.0013578229,0.5,0.0005125634,0.0009666982,0.0011396451,1,0,1,0,1,0
848412000,848332000,1310988,0.00045790002,-0.0022408708,0.0011401996,0.34906584,2.0690428e-07,2.0530095e-07,4.2857036e-07,1310988,0.026039587,-0.0053312494,-0.17527829,0.4,0.0011751569,0.0012203869,0.00078123936,197388,0.0049673542,-0.0030167997,0.0013578229,0.5,0.0005125634,0.0009666982,0.0011396451,1,0,1,0,1,0
848620000,848540000,1310988,0.00046311197,-0.0022411358,0.0011433198,0.34906584,2.0679761e-07,2.0499161e-07,4.2936784e-07,1310988,0.02653153,-0.0054788664,-0.1766742,0.4,0.0011719402,0.0012196419,0.00078123936,197388,0.0049673542,-0.0030167997,0.0013578229,0.5,0.0005125634,0.0009666982,0.0011396451,1,0,1,0,1,0
848828000,848748000,1310988,0.00046809987,-0.0022405554,0.0011465078,0.34906584,2.0665775e-07,2.046411e-07,4.3016684e-07,1310988,0.027099926,-0.0056512672,-0.17829336,0.4,0.0011688389,0.0012189494,0.00078123936,197388,0.0049673542,-0.0030167997,0.0013578229,0.5,0.0005125634,0.0009666982,0.0011396451,1,0,1,0,1,0
849204000,849124000,1310988,0.0004736174,-0.0022416685,0.0011519069,0.34906584,2.0740984e-07,2.0515023e-07,4.320416e-07,1310988,0.0275231,-0.0057207453,-0.17955618,0.4,0.0011655452,0.001218058,0.00078123936,197388,0.0049673542,-0.0030167997,0.0013578229,0.5,0.0005125634,0.0009666982,0.0011396451,1,0,1,0,1,0
849612000,849532000,1310988,0.00047971605,-0.002244759,0.0011561541,0.34906584,2.0794333e-07,2.0537553e-07,4.340339e-07,1310988,0.02796919,-0.0058614314,-0.18102925,0.4,0.0011621098,0.0012172214,0.00078123936,197388,0.0049673542,-0.0030167997,0.0013578229,0.5,0.0005125634,0.0009666982,0.0011396451,1,0,1,0,1,0
849820000,849740000,1310988,0.00048665315,-0.00224466,0.0011595966,0.34906584,2.0704681e-07,2.0416834e-07,4.345746e-07,1310988,0.028302629,-0.006017632,-0.1822129,0.4,0.0011590627,0.0012165492,0.00078123936,197388,0.0049673542,-0.0030167997,0.0013578229,0.5,0.0005125634,0.0009666982,0.0011396451,1,0,1,0,1,0
850028000,849948000,1310988,0.00049420435,-0.0022452974,0.0011628936,0.34906584,2.0625303e-07,2.0307338e-07,4.3516334e-07,1310988,0.02865392,-0.0062010507,-0.18350703,0.4,0.001156266,0.0012159077,0.00078123936,197388,0.0049673542,-0.0030167997,0.0013578229,0.5,0.0005125634,0.0009666982,0.0011396451,1,0,1,0,1,0
850236000,850156000,1310988,0.00049892947,-0.002246365,0.0011663487,0.34906584,2.0552174e-07,2.0204837e-07,4.357886e-07,1310988,0.02898558,-0.0063080303,-0.1846605,0.4,0.001153585,0.0012152791,0.00078123936,197388,0.0049673542,-0.0030167997,0.0013578229,0.5,0.0005125634,0.0009666982,0.0011396451,1,0,1,0,1,0
850804000,850724000,1310988,0.00050621736,-0.0022575755,0.0011726706,0.34906584,2.0492527e-07,2.0075632e-07,4.3792718e-07,1310988,0.029365059,-0.0063859103,-0.18616381,0.4,0.0011484624,0.0012140011,0.00078123936,197388,0.0049673542,-0.0030167997,0.0013578229,0.5,0.0005125634,0.0009666982,0.0011396451,1,0,1,0,1,0
851220000,851140000,1310988,0.0005228872,-0.0022920023,0.0011896776,0.34906584,2.0412166e-07,1.989684e-07,4.387843e-07,1310988,0.029570961,-0.0062049017,-0.1874601,0.4,0.0011445123,0.0012129868,0.00078123936,197388,0.0049673542,-0.0030167997,0.0013578229,0.5,0.0005125634,0.0009666982,0.0011396451,1,0,1,0,1,0
851436000,851356000,1310988,0.0005363486,-0.002314913,0.001206582,0.34906584,2.0393729e-07,1.9819122e-07,4.3916882e-07,1310988,0.029732376,-0.005965645,-0.18801661,0.4,0.0011414915,0.0012105922,0.00078123936,197388,0.005931082,-0.003393504,0.0012302112,0.5,0.0003800216,0.0006697925,0.0007789398,1,0,1,0,1,0
852012000,851932000,1310988,0.00056022947,-0.0023367042,0.0012375978,0.34906584,2.0662593e-07,1.998959e-07,4.4213056e-07,1310988,0.029803235,-0.0055037504,-0.18884996,0.4,0.0011386803,0.0012087974,0.00078123936,197388,0.0058252546,-0.0034279295,0.00022628054,0.5,0.00024037316,0.00051229325,0.00061921787,1,0,1,0,1,0
852300000,852220000,1310988,0.0005954338,-0.002350183,0.0012764105,0.34906584,2.069911e-07,1.9879062e-07,4.4272164e-07,1310988,0.029877065,-0.005139779,-0.18933947,0.4,0.0011377868,0.0012081024,0.00078123936,197388,0.006629827,-0.003525649,-0.00073667703,0.5,0.00021707083,0.00049268943,0.0006014438,1,0,1,0,1,0
853196000,853116000,1310988,0.00070855167,-0.0023436595,0.0013626451,0.34906584,2.0690392e-07,1.9327676e-07,4.4596564e-07,1310988,0.030114409,-0.005323749,-0.18775512,0.4,0.0011350334,0.0012061843,0.00078123936,197388,0.007399992,-0.0035272583,-0.0011258281,0.5,0.00017911383,0.0004604841,0.00057556276,1,0,1,0,1,0
853404000,853324000,1310988,0.00072768365,-0.0023366935,0.0013701144,0.34906584,2.0628494e-07,1.9167163e-07,4.4718402e-07,1310988,0.030342584,-0.005565695,-0.18628936,0.4,0.0011339029,0.0012057481,0.00078123936,197388,0.0075113657,-0.0035435017,-0.001043406,0.5,0.00017334791,0.00045467215,0.0005680717,1,0,1,0,1,0
853612000,853532000,1310988,0.0007411268,-0.0023298196,0.0013743325,0.34906584,2.0557252e-07,1.9019132e-07,4.485214e-07,1310988,0.030619157,-0.005788783,-0.18483219,0.4,0.0011326178,0.0012053271,0.00078123936,197388,0.0075788484,-0.0035227595,-0.00096178066,0.5,0.00016875616,0.00045005739,0.0005627638,1,0,1,0,1,0
853820000,853740000,1310988,0.0007489928,-0.0023199548,0.0013761024,0.34906584,2.0475666e-07,1.8882287e-07,4.4994567e-07,1310988,0.030955931,-0.0059759887,-0.18349981,0.4,0.001131122,0.0012049035,0.00078123936,197388,0.007617177,-0.0035344067,-0.000841282,0.5,0.00016487867,0.00044621757,0.0005578995,1,0,1,0,1,0
854028000,853948000,1310988,0.0007541339,-0.0023103184,0.0013777468,0.34906584,2.0382336e-07,1.8755814e-07,4.5143585e-07,1310988,0.031292897,-0.006125502,-0.18218699,0.4,0.0011294691,0.0012044782,0.00078123936,197388,0.007460017,-0.0033851382,-0.0009616278,0.5,0.00016146345,0.0004429936,0.0005526263,1,0,1,0,1,0
854404000,854324000,1310988,0.000753877,-0.0022970675,0.0013781491,0.34906584,2.03405e-07,1.871884e-07,4.5430494e-07,1310988,0.031727217,-0.0062292237,-0.18089882,0.4,0.0011272705,0.0012039288,0.00078123936,197388,0.0073213703,-0.0033026615,-0.00098847,0.5,0.00015650157,0.00043875084,0.0005422208,1,0,1,0,1,0
854812000,854732000,1310988,0.0007491249,-0.002284372,0.0013779463,0.34906584,2.0232187e-07,1.8659297e-07,4.5744224e-07,1310988,0.03243075,-0.0063241324,-0.17877556,0.4,0.0011245842,0.0012032244,0.00078123936,197388,0.0073163225,-0.0033609297,-0.00082109624,0.5,0.00015152869,0.00043497715,0.0005295735,1,0,1,0,1,0
855020000,854940000,1310988,0.0007452814,-0.0022724527,0.0013781857,0.34906584,1.9991813e-07,1.8476685e-07,4.5903047e-07,1310988,0.033056606,-0.0063978173,-0.17695585,0.4,0.0011220197,0.001202557,0.00078123936,197388,0.0072778,-0.0033704448,-0.00071162474,0.5,0.00014932819,0.00043335996,0.00052381854,1,0,1,0,1,0
855220000,855140000,1310988,0.0007402099,-0.002263214,0.0013781609,0.34906584,1.9767114e-07,1.8316909e-07,4.605524e-07,1310988,0.03362393,-0.0064397715,-0.17529315,0.4,0.0011195171,0.0012019053,0.00078123936,197388,0.007297955,-0.00347012,-0.000589901,0.5,0.00014732781,0.00043188795,0.0005185566,1,0,1,0,1,0
855436000,855356000,1310988,0.0007300228,-0.0022581609,0.0013782851,0.34906584,1.9562542e-07,1.8188878e-07,4.6207916e-07,1310988,0.034193747,-0.006427822,-0.1734977,0.4,0.0011170668,0.0012012485,0.00078123936,197388,0.007318298,-0.00350034,-0.000557158,0.5,0.00014674294,0.00043147313,0.0005168961,1,0,1,0,1,0
856124000,856044000,1310988,0.00070898596,-0.002133106,0.0013923674,0.34906584,1.8940209e-07,1.7927326e-07,4.6629356e-07,1310988,0.03421443,-0.0064090597,-0.17349702,0.4,0.0011169827,0.0012011847,0.0007812422,197388,0.0070463675,-0.003593373,0.000844118,0.5,0.00012928151,0.00032307522,0.0003517747,1,0,1,0,1,0
856268000,856188000,1310988,0.0006644558,-0.0020543297,0.0014186283,0.34906584,1.8409723e-07,1.7625813e-07,4.6636973e-07,1310988,0.03386058,-0.0066090813,-0.1735799,0.4,0.0011169108,0.0012010816,0.0007812434,197388,0.00714878,-0.0038137496,0.0021201668,0.5,0.00012278724,0.00029682805,0.00030354524,1,0,1,0,1,0
856420000,856340000,1310988,0.0005986399,-0.0019956352,0.0014586162,0.34906584,1.8009378e-07,1.7381733e-07,4.6630635e-07,1310988,0.033071514,-0.0075342115,-0.17369084,0.4,0.0011161605,0.001200135,0.00078123936,197388,0.007136081,-0.004394253,0.0027945726,0.5,0.00011787247,0.00028085694,0.00027356166,1,0,1,0,1,0
856628000,856548000,1310988,0.0005322501,-0.0019652352,0.0014943718,0.34906584,1.7781844e-07,1.7228317e-07,4.669116e-07,1310988,0.032387815,-0.009092614,-0.1734868,0.4,0.0011142555,0.0011979974,0.00078123936,197388,0.007419299,-0.004855,0.0036207384,0.5,0.00011199625,0.00026570205,0.0002463844,1,0,1,0,1,0
857004000,856924000,1310988,0.00047537254,-0.0019563066,0.0015183251,0.34906584,1.7744222e-07,1.7209337e-07,4.6920024e-07,1310988,0.03203024,-0.01139667,-0.17286849,0.4,0.0011088738,0.0011921908,0.00078123936,197388,0.0076337755,-0.0053589074,0.0042878785,0.5,0.000104845596,0.0002507988,0.00022162023,1,0,1,0,1,0
857404000,857324000,1310988,0.00042810928,-0.0019756346,0.0015260618,0.34906584,1.7784318e-07,1.7233471e-07,4.7210983e-07,1310988,0.032847166,-0.014057664,-0.1710776,0.4,0.0010986524,0.0011810509,0.00078123936,197388,0.008383144,-0.0063092834,0.0051345835,0.5,9.7117394e-05,0.00023928126,0.0002086695,1,0,1,0,1,0
857620000,857540000,1310988,0.0003974532,-0.0020035326,0.0015276083,0.34906584,1.7748174e-07,1.7176042e-07,4.7372825e-07,1310988,0.034194414,-0.015923223,-0.16889983,0.4,0.0010870921,0.0011682581,0.00078123936,197388,0.008578494,-0.006658614,0.0052038133,0.5,9.227613e-05,0.00023415442,0.00020498279,1,0,1,0,1,0
857828000,857748000,1310988,0.00037561727,-0.00202723,0.001526105,0.34906584,1.7745108e-07,1.7154277e-07,4.7523594e-07,1310988,0.035611592,-0.017489754,-0.16705228,0.4,0.0010743997,0.0011535889,0.00078123936,197388,0.008802485,-0.0070491587,0.005163045,0.5,8.7788096e-05,0.00022967288,0.00020147477,1,0,1,0,1,0
858036000,857956000,1310988,0.0003648955,-0.0020525246,0.0015263945,0.34906584,1.7765723e-07,1.71602e-07,4.7658048e-07,1310988,0.037493456,-0.01809489,-0.16552897,0.4,0.0010607055,0.0011371395,0.00078123936,197388,0.00900944,-0.0072269375,0.0051267645,0.5,8.3937906e-05,0.00022562085,0.00019823307,1,0,1,0,1,0
858396000,858316000,1310988,0.00036766502,-0.002076414,0.0015339714,0.34906584,1.7903594e-07,1.7284404e-07,4.7860345e-07,1310988,0.03949641,-0.017257571,-0.16419469,0.4,0.0010432104,0.0011153786,0.00078123936,197388,0.009258324,-0.0074473727,0.0049040853,0.5,7.8768375e-05,0.0002198722,0.00019351502,1,0,1,0,1,0
858604000,858524000,1310988,0.00036974566,-0.002095533,0.0015409397,0.34906584,1.7940374e-07,1.7308984e-07,4.793109e-07,1310988,0.04129787,-0.01660899,-0.16326678,0.4,0.0010261319,0.0010945825,0.00078123936,197388,0.009516536,-0.0076567195,0.00474424,0.5,7.611952e-05,0.00021708607,0.00019095353,1,0,1,0,1,0
858812000,858732000,1310988,0.00038063846,-0.002109599,0.0015555236,0.34906584,1.7992514e-07,1.734767e-07,4.7991415e-07,1310988,0.042486053,-0.0148080485,-0.16243576,0.4,0.0010095581,0.0010751298,0.00078123936,197388,0.00966748,-0.0077174604,0.004690485,0.5,7.372256e-05,0.00021470396,0.00018849678,1,0,1,0,1,0
859020000,858940000,1310988,0.00038814437,-0.00213081,0.0015690711,0.34906584,1.8057472e-07,1.7396964e-07,4.8040914e-07,1310988,0.04473624,-0.013389574,-0.16136418,0.4,0.0009935823,0.0010571883,0.00078123936,197388,0.0101433,-0.008047989,0.0043255095,0.5,7.143755e-05,0.00021257013,0.00018573347,1,0,1,0,1,0
859372000,859292000,1310988,0.00039874337,-0.0021451667,0.0015825079,0.34906584,1.8243759e-07,1.7563397e-07,4.8177657e-07,1310988,0.044893015,-0.013332934,-0.1613456,0.4,0.0009933276,0.0010564035,0.000781242,197388,0.010337665,-0.00854947,0.0034648126,0.5,6.605151e-05,0.00020881456,0.00017020213,1,0,1,0,1,0
860012000,859932000,1310988,0.0004392711,-0.0021629436,0.001633394,0.34906584,1.8507306e-07,1.775897e-07,4.832009e-07,1310988,0.045759138,-0.010833362,-0.1609533,0.4,0.0009850955,0.0010467665,0.00078123936,197388,0.010783122,-0.009077241,0.002916704,0.5,6.087804e-05,0.00020403924,0.00015952351,1,0,1,0,1,0
860220000,860140000,1310988,0.00045910437,-0.0021686116,0.0016541997,0.34906584,1.8552637e-07,1.776536e-07,4.836171e-07,1310988,0.046138,-0.009199782,-0.16055682,0.4,0.0009777176,0.0010391205,0.00078123936,197388,0.010961696,-0.009167205,0.0028241482,0.5,6.0048926e-05,0.00020320878,0.00015835576,1,0,1,0,1,0
860428000,860348000,1310988,0.00047479157,-0.0021685315,0.0016675955,0.34906584,1.860266e-07,1.7778866e-07,4.8435123e-07,1310988,0.046097152,-0.0078010396,-0.16002774,0.4,0.00096906984,0.0010302834,0.00078123936,197388,0.010999573,-0.009204103,0.00279269,0.5,5.8989284e-05,0.00020213856,0.00015699482,1,0,1,0,1,0
860628000,860548000,1310988,0.00048826376,-0.0021716948,0.0016780528,0.34906584,1.8650198e-07,1.7793586e-07,4.852732e-07,1310988,0.04634146,-0.006481863,-0.159663,0.4,0.000959471,0.0010205585,0.00078123936,197388,0.011104336,-0.009222155,0.0026949083,0.5,5.8043715e-05,0.0002011823,0.00015591549,1,0,1,0,1,0
860996000,860916000,1310988,0.00050156895,-0.0021730517,0.0016842264,0.34906584,1.8802199e-07,1.7915963e-07,4.8767566e-07,1310988,0.04643747,-0.005111242,-0.15831324,0.4,0.0009462834,0.0010069044,0.00078123936,197388,0.011169983,-0.009305418,0.0025521356,0.5,5.671462e-05,0.00019974227,0.00015452142,1,0,1,0,1,0
861204000,861124000,1310988,0.0005126207,-0.0021727742,0.0016889814,0.34906584,1.8835036e-07,1.792432e-07,4.889914e-07,1310988,0.046360098,-0.003940565,-0.15762387,0.4,0.00093312474,0.000993309,0.00078123936,197388,0.011171941,-0.009304912,0.002500906,0.5,5.6012927e-05,0.00019896857,0.00015384403,1,0,1,0,1,0
861412000,861332000,1310988,0.000519424,-0.0021733881,0.0016906094,0.34906584,1.8871106e-07,1.7941633e-07,4.903875e-07,1310988,0.046395015,-0.0032044053,-0.15657341,0.4,0.0009200837,0.0009797142,0.00078123936,197388,0.011221999,-0.009318397,0.0024509237,0.5,5.5372402e-05,0.0001982872,0.0001532505,1,0,1,0,1,0
861620000,861540000,1310988,0.00052769715,-0.0021769954,0.001692317,0.34906584,1.8908842e-07,1.7965647e-07,4.918315e-07,1310988,0.046690717,-0.0023201308,-0.15572713,0.4,0.00090727484,0.0009662286,0.00078123936,197388,0.011237589,-0.009321377,0.0024299345,0.5,5.477867e-05,0.00019767755,0.00015271829,1,0,1,0,1,0
861828000,861748000,1310988,0.0005325714,-0.0021784469,0.0016931057,0.34906584,1.8947287e-07,1.7994965e-07,4.9330237e-07,1310988,0.046785805,-0.0017874616,-0.15464249,0.4,0.00089480676,0.0009529719,0.00078123936,197388,0.011225557,-0.009323706,0.0024069801,0.5,5.423074e-05,0.00019711959,0.00015223253,1,0,1,0,1,0
862204000,862124000,1310988,0.00053829286,-0.0021803249,0.0016937053,0.34906584,1.9086939e-07,1.8132464e-07,4.9602727e-07,1310988,0.046903383,-0.0011570831,-0.15332967,0.4,0.00088067324,0.0009376838,0.00078123936,197388,0.011208708,-0.00929822,0.0023927924,0.5,5.3406304e-05,0.00019629694,0.00015149097,1,0,1,0,1,0
862604000,862524000,1310988,0.00054306746,-0.002181239,0.0016929171,0.34906584,1.9213523e-07,1.8263808e-07,4.9886944e-07,1310988,0.047006402,-0.00062712,-0.1516295,0.4,0.0008655099,0.0009211287,0.00078123936,197388,0.011219529,-0.009329288,0.002277243,0.5,5.2519998e-05,0.00019547148,0.00015068366,1,0,1,0,1,0
862812000,862732000,1310988,0.00054851564,-0.0021821624,0.0016927824,0.34906584,1.9210188e-07,1.8265243e-07,5.0033435e-07,1310988,0.047021944,-7.0437476e-05,-0.14970751,0.4,0.0008523629,0.0009067718,0.00078123936,197388,0.011199594,-0.0093142055,0.0022750718,0.5,5.2100622e-05,0.00019509249,0.000150299,1,0,1,0,1,0
863020000,862940000,1310988,0.0005510468,-0.0021848248,0.0016918198,0.34906584,1.9225169e-07,1.8285263e-07,5.016044e-07,1310988,0.047223672,0.00019860858,-0.14826672,0.4,0.00084085274,0.0008941332,0.00078123936,197388,0.011199601,-0.009314208,0.0022747961,0.5,5.2100622e-05,0.00019509249,0.00015029899,1,0,1,0,1,0
863236000,863156000,1310988,0.00055421685,-0.0021856916,0.0016918352,0.34906584,1.9250737e-07,1.8318897e-07,5.0253186e-07,1310988,0.047266368,0.00052667805,-0.14676197,0.4,0.0008306317,0.00088283594,0.00078123936,197388,0.011199601,-0.009314208,0.0022747961,0.5,5.2100622e-05,0.00019509249,0.00015029899,1,0,1,0,1,0
863596000,863516000,1310988,0.0005537016,-0.0021871368,0.0016923896,0.34906584,1.9368895e-07,1.844909e-07,5.043578e-07,1310988,0.04735393,0.00054495165,-0.14470203,0.4,0.0008205947,0.0008716783,0.00078123936,197388,0.011199601,-0.009314208,0.0022747961,0.5,5.2100622e-05,0.00019509249,0.00015029899,1,0,1,0,1,0
863804000,863724000,1310988,0.0005583132,-0.0021910344,0.0016900048,0.34906584,1.9376476e-07,1.8467979e-07,5.053498e-07,1310988,0.047601327,0.0009590683,-0.14251769,0.4,0.00081201736,0.0008621625,0.00078123936,197388,0.011199601,-0.009314208,0.0022747961,0.5,5.2100622e-05,0.00019509249,0.00015029899,1,0,1,0,1,0
864012000,863932000,1310988,0.0005592163,-0.002190556,0.001688561,0.34906584,1.9390332e-07,1.8493644e-07,5.063176e-07,1310988,0.047532033,0.0010709426,-0.14062455,0.4,0.0008046401,0.00085396745,0.00078123936,197388,0.011199601,-0.009314208,0.0022747961,0.5,5.2100622e-05,0.00019509249,0.00015029899,1,0,1,0,1,0
864220000,864140000,1310988,0.00055907737,-0.0021908116,0.0016879293,0.34906584,1.940893e-07,1.8523933e-07,5.0749105e-07,1310988,0.047522597,0.0011122089,-0.13860953,0.4,0.00079825835,0.0008468841,0.00078123936,197388,0.011199601,-0.009314208,0.0022747961,0.5,5.2100622e-05,0.00019509249,0.00015029899,1,0,1,0,1,0
864428000,864348000,1310988,0.000561955,-0.0021908004,0.0016862315,0.34906584,1.9429014e-07,1.855663e-07,5.0841817e-07,1310988,0.047485307,0.001344223,-0.13675207,0.4,0.00079273264,0.00084072945,0.00078123936,197388,0.011199601,-0.009314208,0.0022747961,0.5,5.2100622e-05,0.00019509249,0.00015029899,1,0,1,0,1,0
864804000,864724000,1310988,0.00056247547,-0.0021913128,0.0016837368,0.34906584,1.9551119e-07,1.8696184e-07,5.099166e-07,1310988,0.04747871,0.0014251395,-0.13452911,0.4,0.0007875127,0.0008348603,0.00078123936,197388,0.011199601,-0.009314208,0.0022747961,0.5,5.2100622e-05,0.00019509249,0.00015029899,1,0,1,0,1,0
865204000,865124000,1310988,0.0005620838,-0.0021925366,0.0016858815,0.34906584,1.9658542e-07,1.88239e-07,5.1176886e-07,1310988,0.047523014,0.001456963,-0.13230397,0.4,0.00078277045,0.00082952913,0.00078123936,197388,0.011199601,-0.009314208,0.0022747961,0.5,5.2100622e-05,0.00019509249,0.00015029899,1,0,1,0,1,0
865420000,865340000,1310988,0.0005629525,-0.0021939708,0.0016845878,0.34906584,1.9631602e-07,1.881537e-07,5.126313e-07,1310988,0.047559552,0.0015459777,-0.13004015,0.4,0.00078123936,0.0008252659,0.00078123936,197388,0.011199601,-0.009314208,0.0022747961,0.5,5.2100622e-05,0.00019509249,0.00015029899,1,0,1,0,1,0
865628000,865548000,1310988,0.000560437,-0.0021943334,0.0016845457,0.34906584,1.9607761e-07,1.8809075e-07,5.1340885e-07,1310988,0.047557667,0.0014844063,-0.1279861,0.4,0.00078123936,0.0008218334,0.00078123936,197388,0.011199601,-0.009314208,0.0022747961,0.5,5.2100622e-05,0.00019509249,0.00015029899,1,0,1,0,1,0
865836000,865756000,1310988,0.0005563344,-0.0021939958,0.0016852812,0.34906584,1.9589864e-07,1.8808127e-07,5.1416475e-07,1310988,0.047534943,0.0013639784,-0.12620403,0.4,0.00078123936,0.00081906014,0.00078123936,197388,0.011199601,-0.009314208,0.0022747961,0.5,5.2100622e-05,0.00019509249,0.00015029899,1,0,1,0,1,0
866196000,866116000,1310988,0.00055371743,-0.0021940786,0.0016843829,0.34906584,1.9663096e-07,1.8901461e-07,5.155197e-07,1310988,0.047521405,0.0013196118,-0.124283396,0.4,0.00078123936,0.0008167018,0.00078123936,197388,0.011199601,-0.009314208,0.0022747961,0.5,5.2100622e-05,0.00019509249,0.00015029899,1,1,1,0,1,0
866404000,866324000,1310988,0.0005532902,-0.0021948111,0.0016859741,0.34906584,1.9624264e-07,1.8880989e-07,5.1620907e-07,1310988,0.047529757,0.0013383914,-0.12247276,0.4,0.00078123936,0.00081487943,0.00078123936,197388,0.011199601,-0.009314208,0.0022747961,0.5,5.2100622e-05,0.00019509249,0.00015029899,1,1,1,0,1,0
866612000,866532000,1310988,0.00055107113,-0.0021962721,0.0016850847,0.34906584,1.9590819e-07,1.8865195e-07,5.168781e-07,1310988,0.047554843,0.0013129927,-0.12088097,0.4,0.00078123936,0.000813469,0.00078123936,197388,0.011199601,-0.009314208,0.0022747961,0.5,5.2100622e-05,0.00019509249,0.00015029899,1,1,1,0,1,0
866820000,866740000,1310988,0.0005500977,-0.002198185,0.001684927,0.34906584,1.9560474e-07,1.8851914e-07,5.175285e-07,1310988,0.047584035,0.00131626,-0.11930423,0.4,0.00078123936,0.0008123848,0.00078123936,197388,0.011199601,-0.009314208,0.0022747961,0.5,5.2100622e-05,0.00019509249,0.00015029899,1,1,1,0,1,0
867028000,866948000,1310988,0.00055034703,-0.0022028028,0.0016833313,0.34906584,1.9531431e-07,1.883961e-07,5.18159e-07,1310988,0.047652993,0.001351457,-0.11742492,0.4,0.00078123936,0.0008115593,0.00078123936,197388,0.011199601,-0.009314208,0.0022747961,0.5,5.2100622e-05,0.00019509249,0.00015029899,1,1,1,0,1,0
867404000,867324000,1310988,0.000546873,-0.0022031104,0.0016833656,0.34906584,1.9596114e-07,1.8924412e-07,5.1943647e-07,1310988,0.04764361,0.0013272855,-0.11564599,0.4,0.00078123936,0.00081094785,0.00078123936,197388,0.011199601,-0.009314208,0.0022747961,0.5,5.2100622e-05,0.00019509249,0.00015029899,1,1,1,0,1,0
867812000,867732000,1310988,0.0005470518,-0.002204159,0.0016828538,0.34906584,1.9639477e-07,1.8991061e-07,5.205469e-07,1310988,0.04764005,0.0013523644,-0.11381102,0.4,0.00078123936,0.0008105328,0.00078123936,197388,0.011199601,-0.009314208,0.0022747961,0.5,5.2100622e-05,0.00019509249,0.00015029899,1,1,1,0,1,0
868020000,867940000,1310988,0.00054513576,-0.0022046752,0.0016823548,0.34906584,1.9541736e-07,1.8913848e-07,5.210619e-07,1310988,0.0476399,0.0013500598,-0.11278345,0.4,0.00078123936,0.0008102595,0.00078123936,197388,0.011199601,-0.009314208,0.0022747961,0.5,5.2100622e-05,0.00019509249,0.00015029899,1,1,1,0,1,0
868260000,868180000,1310988,0.0005428731,-0.0022095921,0.001681048,0.34906584,1.9482054e-07,1.8873314e-07,5.218175e-07,1310988,0.04766424,0.0013533205,-0.11176747,0.4,0.0007812416,0.00081007683,0.00078123936,197388,0.011199601,-0.009314208,0.0022747961,0.5,5.2100622e-05,0.00019509249,0.00015029899,1,1,1,0,1,0
868780000,868700000,1310988,0.0005449968,-0.0022119305,0.0016754067,0.34906584,1.9656116e-07,1.9066164e-07,5.2328835e-07,1310988,0.04766071,0.0013898617,-0.11070047,0.4,0.00078126264,0.0008099445,0.00078123936,197388,0.011199601,-0.009314208,0.0022747961,0.5,5.2100622e-05,0.00019509249,0.00015029899,1,1,1,0,1,0
868900000,868820000,1310988,0.0005455503,-0.0022129442,0.0016723215,0.34906584,1.9473482e-07,1.8903597e-07,5.2339647e-07,1310988,0.04764828,0.0014099586,-0.10968687,0.4,0.0007812463,0.0008098468,0.00078123936,197388,0.011199601,-0.009314208,0.0022747961,0.5,5.2100622e-05,0.00019509249,0.00015029899,1,1,1,0,1,0
869420000,869340000,1310988,0.0005524827,-0.0022173054,0.0016687629,0.34906584,1.9118804e-07,1.8602702e-07,5.245665e-07,1310988,0.047621567,0.0013976843,-0.10824706,0.4,0.00078123936,0.0008095168,0.00078123936,197388,0.011199601,-0.009314208,0.0022747961,0.5,5.2100622e-05,0.00019509249,0.00015029899,1,1,1,0,1,0
870420000,870340000,1310988,0.000560023,-0.0022091693,0.0016594435,0.34906584,1.9049762e-07,1.8591417e-07,5.26419e-07,1310988,0.047681402,0.001371078,-0.10743162,0.4,0.00078124,0.00080869603,0.00078124,197388,0.011199601,-0.009314208,0.0022747961,0.5,5.2100622e-05,0.00019509249,0.00015029899,1,1,1,0,1,0
871420000,871340000,1310988,0.0005777554,-0.0021959664,0.0016516366,0.34906584,1.8662084e-07,1.8276864e-07,5.2722083e-07,1310988,0.047827918,0.0011748084,-0.10800864,0.4,0.0007812408,0.00080662896,0.0007812405,197388,0.011199601,-0.009314208,0.0022747961,0.5,5.2100622e-05,0.00019509249,0.00015029899,1,1,1,0,1,0
872420000,872340000,1310988,0.00061169354,-0.002184896,0.0016376056,0.34906584,1.8370076e-07,1.8046484e-07,5.280145e-07,1310988,0.0479878,0.00068047893,-0.108334586,0.4,0.00078125246,0.0008038463,0.00078124,197388,0.011199601,-0.009314208,0.0022747961,0.5,5.2100622e-05,0.00019509249,0.00015029899,1,1,1,0,1,0
873220000,873140000,1310988,0.000640371,-0.0021771747,0.0016340851,0.34906584,1.8065714e-07,1.778936e-07,5.284205e-07,1310988,0.04812528,0.00018890089,-0.109199874,0.4,0.00078123936,0.0008009422,0.00078123936,197388,0.011199601,-0.009314208,0.0022747961,0.5,5.2100622e-05,0.00019509249,0.00015029899,1,1,1,0,1,0
873996000,873916000,1310988,0.0006638149,-0.0021798774,0.0016305277,0.34906584,1.782853e-07,1.7591081e-07,5.2838936e-07,1310988,0.0480888,-0.00022656785,-0.11018428,0.4,0.00078123936,0.0007980831,0.00078123936,197388,0.011199601,-0.009314208,0.0022747961,0.5,5.2100622e-05,0.00019509249,0.00015029899,1,1,1,0,1,0
874620000,874540000,1310988,0.0006857623,-0.0021791134,0.0016264926,0.34906584,1.7535858e-07,1.7330989e-07,5.2808286e-07,1310988,0.048119973,-0.00061287096,-0.11146279,0.4,0.00078123936,0.0007953744,0.00078123936,197388,0.011199601,-0.009314208,0.0022747961,0.5,5.2100622e-05,0.00019509249,0.00015029899,1,1,1,0,1,0
875604000,875524000,1310988,0.00071711367,-0.0021903233,0.0016229717,0.34906584,1.7488446e-07,1.7312622e-07,5.2728825e-07,1310988,0.04795022,-0.0011844875,-0.11251935,0.4,0.00078123936,0.0007924957,0.00078123936,197388,0.011199601,-0.009314208,0.0022747961,0.5,5.2100622e-05,0.00019509249,0.00015029899,1,1,1,0,1,0
876020000,875940000,1310988,0.0007494012,-0.0021960156,0.0016197197,0.34906584,1.7264134e-07,1.7103596e-07,5.260898e-07,1310988,0.04786842,-0.0018019787,-0.11343243,0.4,0.00078123936,0.0007904765,0.00078123936,197388,0.011199601,-0.009314208,0.0022747961,0.5,5.2100622e-05,0.00019509249,0.00015029899,1,1,1,0,1,0
876596000,876516000,1310988,0.0007659678,-0.002193058,0.001624602,0.34906584,1.7167751e-07,1.7022349e-07,5.22744e-07,1310988,0.047961097,-0.0019917234,-0.11445186,0.4,0.00078123936,0.0007862591,0.00078123936,197388,0.011234787,-0.008653729,0.0018145726,0.5,4.834853e-05,0.00015718171,0.0001261663,1,1,1,0,1,0
877012000,876932000,1310988,0.0007665067,-0.0021872777,0.0016278161,0.34906584,1.6989368e-07,1.6852614e-07,5.196719e-07,1310988,0.048059784,-0.0020697722,-0.11564626,0.4,0.00078123936,0.00078298344,0.00078123936,197388,0.011255964,-0.008561656,0.0018699712,0.5,4.426914e-05,0.00013403801,0.00010999269,1,1,1,0,1,0
878012000,877932000,1310988,0.0007616772,-0.0021770988,0.0016298919,0.34906584,1.7074157e-07,1.6951428e-07,5.1810576e-07,1310988,0.04824964,-0.0020851786,-0.11648493,0.4,0.00078123994,0.00078123994,0.0007812419,197388,0.011339525,-0.008344632,0.0020316122,0.5,3.8484388e-05,0.00011436723,9.568362e-05,1,1,1,0,1,0
879012000,878932000,1310988,0.0007341128,-0.002168695,0.0016309455,0.34906584,1.6861178e-07,1.6787136e-07,5.1948854e-07,1310988,0.048378203,-0.0016894955,-0.1166015,0.4,0.0007812411,0.0007812411,0.00078124215,197388,0.011345706,-0.008394952,0.0020036576,0.5,3.5131925e-05,0.000106512525,8.972065e-05,1,1,1,0,1,0
880012000,879932000,1310988,0.00068761146,-0.0021781044,0.0016490911,0.34906584,1.6744117e-07,1.6731653e-07,5.1663767e-07,1310988,0.04839251,-0.0012257227,-0.11692784,0.4,0.00078124227,0.00078124227,0.00078124227,197388,0.011442486,-0.008303608,0.0020061713,0.5,3.2698314e-05,0.0001005213,8.481352e-05,1,1,1,0,1,0
880812000,880732000,1310988,0.0006549383,-0.002200104,0.0016865563,0.34906584,1.6682105e-07,1.6779568e-07,5.0254204e-07,1310988,0.048564106,-0.0011436602,-0.11807404,0.4,0.00078123936,0.00078123936,0.00078123936,197388,0.011583312,-0.008377323,0.0018313312,0.5,3.0422192e-05,8.414382e-05,7.256441e-05,1,1,1,0,1,0
881812000,881732000,1310988,0.00063344766,-0.002233824,0.0017286418,0.34906584,1.6531247e-07,1.6832202e-07,4.895887e-07,1310988,0.048803177,-0.0010550827,-0.1182058,0.4,0.0007812404,0.00078123936,0.00078123936,197388,0.011824926,-0.008691818,0.0014330758,0.5,2.695856e-05,6.9284615e-05,6.046436e-05,1,1,1,0,1,0
882812000,882732000,1310988,0.0006190394,-0.0022475028,0.0017355917,0.34906584,1.647426e-07,1.6938051e-07,4.8806737e-07,1310988,0.0490317,-0.00090990355,-0.11767667,0.4,0.0007812439,0.00078124227,0.00078124227,197388,0.012051075,-0.008765406,0.0013209525,0.5,2.4730498e-05,6.3126405e-05,5.5308967e-05,1,1,1,0,1,0
883812000,883732000,1310988,0.0006064204,-0.0022477533,0.0017307246,0.34906584,1.6529478e-07,1.706023e-07,4.9146433e-07,1310988,0.04923478,-0.00073889294,-0.118420206,0.4,0.0007812439,0.0007812428,0.0007812428,197388,0.012209657,-0.008707947,0.0012282949,0.5,2.3187837e-05,5.968423e-05,5.2430492e-05,1,1,1,0,1,0
884812000,884732000,1310988,0.00057501456,-0.0022391274,0.0017313071,0.34906584,1.6240345e-07,1.6757235e-07,4.8940285e-07,1310988,0.049325205,-0.00058343774,-0.118496366,0.4,0.00078123936,0.00078123936,0.00078123936,197388,0.012218679,-0.008731786,0.0012294766,0.5,2.3084423e-05,5.9472906e-05,5.2270203e-05,1,1,1,0,1,0
885812000,885732000,1310988,0.00055348995,-0.0022329404,0.0017283923,0.34906584,1.6428281e-07,1.6903107e-07,4.858459e-07,1310988,0.04936422,-0.0004420122,-0.11886671,0.4,0.00078123936,0.00078123936,0.0007812422,197388,0.012218679,-0.008731786,0.0012294766,0.5,2.3084423e-05,5.9472906e-05,5.2270203e-05,1,1,1,0,1,0
886812000,886732000,1310988,0.0005358661,-0.002223251,0.0017226737,0.34906584,1.6317397e-07,1.672696e-07,4.826469e-07,1310988,0.04941255,-0.0003010269,-0.11929989,0.4,0.00078124047,0.00078124047,0.00078124274,197388,0.012218679,-0.008731786,0.0012294766,0.5,2.3084423e-05,5.9472906e-05,5.2270203e-05,1,1,1,0,1,0
887812000,887732000,1310988,0.0005236625,-0.002219045,0.001712714,0.34906584,1.6273157e-07,1.6620145e-07,4.7929376e-07,1310988,0.0494033,-0.00022440546,-0.11903966,0.4,0.0007812422,0.0007812422,0.0007812422,197388,0.012218679,-0.008731786,0.0012294766,0.5,2.3084423e-05,5.9472906e-05,5.2270203e-05,1,1,1,0,1,0
888812000,888732000,1310988,0.0005183617,-0.0022169652,0.0017051522,0.34906584,1.6415875e-07,1.6715954e-07,4.7594042e-07,1310988,0.049395334,-0.000137192,-0.119479135,0.4,0.00078124163,0.00078124163,0.00078124163,197388,0.012218679,-0.008731786,0.0012294766,0.5,2.3084423e-05,5.9472906e-05,5.2270203e-05,1,1,1,0,1,0
889604000,889524000,1310988,0.00051632174,-0.002226326,0.0016968149,0.34906584,1.6171947e-07,1.6418798e-07,4.7309422e-07,1310988,0.04928883,-0.00018566607,-0.11834946,0.4,0.00078123936,0.00078123936,0.00078123936,197388,0.012218679,-0.008731786,0.0012294766,0.5,2.3084423e-05,5.9472906e-05,5.2270203e-05,1,1,1,0,1,0
890604000,890524000,1310988,0.0005123123,-0.0022344796,0.0016870662,0.34906584,1.6178582e-07,1.6383056e-07,4.6878046e-07,1310988,0.049190365,-0.00019870736,-0.117450364,0.4,0.00078123936,0.00078123936,0.00078124,197388,0.012218679,-0.008731786,0.0012294766,0.5,2.3084423e-05,5.9472906e-05,5.2270203e-05,1,1,1,0,1,0
891604000,891524000,1310988,0.00050498464,-0.0022473137,0.0016729598,0.34906584,1.6285536e-07,1.6459336e-07,4.6531522e-07,1310988,0.04905144,-0.0001654696,-0.11688626,0.4,0.00078123936,0.00078123936,0.0007812428,197388,0.012218679,-0.008731786,0.0012294766,0.5,2.3084423e-05,5.9472906e-05,5.2270203e-05,1,1,1,1,1,0
892604000,892524000,1310988,0.0004971705,-0.0022661774,0.0016588935,0.34906584,1.6232921e-07,1.6375955e-07,4.617996e-07,1310988,0.048879985,-0.0001264732,-0.11641106,0.4,0.00078123994,0.00078123994,0.00078124227,197388,0.012218679,-0.008731786,0.0012294766,0.5,2.3084423e-05,5.9472906e-05,5.2270203e-05,1,1,1,1,1,0
892820000,892740000,1310988,0.00048955576,-0.0022766253,0.0016557084,0.34906584,1.6011309e-07,1.614249e-07,4.6102147e-07,1310988,0.048788115,-0.00013795347,-0.115149125,0.4,0.00078123936,0.00078123936,0.00078123936,197388,0.012218679,-0.008731786,0.0012294766,0.5,2.3084423e-05,5.9472906e-05,5.2270203e-05,1,1,1,1,1,0
893812000,893732000,1310988,0.00047994102,-0.0022924936,0.0016428569,0.34906584,1.6153815e-07,1.626725e-07,4.5750747e-07,1310988,0.048640907,-0.000116249976,-0.11390569,0.4,0.00078123936,0.00078123936,0.00078123936,197388,0.012218679,-0.008731786,0.0012294766,0.5,2.3084423e-05,5.9472906e-05,5.2270203e-05,1,1,1,1,1,0
894436000,894356000,1310988,0.0004708661,-0.0023017314,0.0016332318,0.34906584,1.601118e-07,1.6110158e-07,4.5512155e-07,1310988,0.04854762,-9.159363e-05,-0.11271175,0.4,0.00078123936,0.00078123936,0.00078123936,197388,0.012218679,-0.008731786,0.0012294766,0.5,2.3084423e-05,5.9472906e-05,5.2270203e-05,1,1,1,1,1,0
895420000,895340000,1310988,0.00044597572,-0.0023141576,0.0016179087,0.34906584,1.5969307e-07,1.6052857e-07,4.5154354e-07,1310988,0.048412256,1.6710472e-05,-0.11129926,0.4,0.00078123936,0.00078123936,0.00078123936,197388,0.012218679,-0.008731786,0.0012294766,0.5,2.3084423e-05,5.9472906e-05,5.2270203e-05,1,1,1,1,1,0
896004000,895924000,1310988,0.00042747133,-0.0023188614,0.0016104211,0.34906584,1.6034747e-07,1.6111987e-07,4.4968033e-07,1310988,0.04834733,8.960272e-05,-0.109912015,0.4,0.00078123936,0.00078123936,0.00078123936,197388,0.012218679,-0.008731786,0.0012294766,0.5,2.3084423e-05,5.9472906e-05,5.2270203e-05,1,1,1,1,1,0
897004000,896924000,1310988,0.00041488063,-0.0023245176,0.0015939825,0.34906584,1.6094735e-07,1.6159198e-07,4.4622897e-07,1310988,0.04836013,3.6057507e-05,-0.109852545,0.4,0.00078125205,0.00078125205,0.000781252,197388,0.012218679,-0.008731786,0.0012294766,0.5,2.3084423e-05,5.9472906e-05,5.2270203e-05,1,1,1,0,1,0
898004000,897924000,1310988,0.00039991012,-0.00233434,0.0015719638,0.34906584,1.6054274e-07,1.6103552e-07,4.4277394e-07,1310988,0.048719957,-0.0005765798,-0.109157816,0.4,0.0007812532,0.0007812532,0.0007812417,197388,0.012218679,-0.008731786,0.0012294766,0.5,2.3084423e-05,5.9472906e-05,5.2270203e-05,1,1,1,0,1,0
898388000,898308000,1310988,0.00037834735,-0.0023482698,0.0015605872,0.34906584,1.4911187e-07,1.4936592e-07,4.4091692e-07,1310988,0.049599525,-0.001982848,-0.100584514,0.4,0.00078123936,0.00078123936,0.00078123936,197388,0.012218679,-0.008731786,0.0012294766,0.5,2.3084423e-05,5.9472906e-05,5.2270203e-05,1,1,1,0,1,0
898804000,898724000,1310988,0.00036568198,-0.0023524796,0.001548417,0.34906584,1.5043713e-07,1.5066139e-07,4.3935557e-07,1310988,0.050259087,-0.004128635,-0.09677715,0.4,0.00078123936,0.00078123936,0.00078123936,197388,0.012218679,-0.008731786,0.0012294766,0.5,2.3084423e-05,5.9472906e-05,5.2270203e-05,1,1,1,0,1,0
899188000,899108000,1310988,0.00036338234,-0.0023583816,0.0015401344,0.34906584,1.5259837e-07,1.5280871e-07,4.3835692e-07,1310988,0.0,0.0,0.0,0.4,0.040000003,0.040000003,0.040000003,197388,0.012218679,-0.008731786,0.0012294766,0.5,2.3084423e-05,5.9472906e-05,5.2270203e-05,1,1,1,0,1,0
899220000,899140000,1310988,0.00036366808,-0.0023583244,0.0015401308,0.34906584,1.5190592e-07,1.5210453e-07,4.3860746e-07,1310988,-0.00027503885,0.0009475551,0.019092306,0.4,0.031452082,0.031451657,0.031236075,197388,0.012218679,-0.008731786,0.0012294766,0.5,2.3084423e-05,5.9472906e-05,5.2270203e-05,1,1,1,0,1,0
899420000,899340000,1310988,0.00036377372,-0.0023583511,0.0015355417,0.34906584,1.5349838e-07,1.536965e-07,4.3776961e-07,1310988,-0.0021488946,0.0014032362,0.018870927,0.4,0.031032065,0.031031633,0.031043587,197388,0.012218679,-0.008731786,0.0012294766,0.5,2.3084423e-05,5.9472906e-05,5.2270203e-05,1,1,1,0,1,0
899428000,899348000,1310988,0.0003634481,-0.0023586173,0.0015355364,0.34906584,1.5351571e-07,1.5371337e-07,4.3783348e-07,1310988,0.0042324923,-0.0064498032,0.0034036923,0.4,0.00498059,0.0049797166,0.0041228947,197388,0.012218679,-0.008731786,0.0012294766,0.5,2.3084423e-05,5.9472906e-05,5.2270203e-05,1,1,1,0,1,0
899636000,899556000,1310988,0.00036269688,-0.0023579744,0.0015313481,0.34906584,1.5514891e-07,1.5534638e-07,4.3705865e-07,1310988,-0.002009329,-0.013685324,0.0120779425,0.4,0.0031094349,0.0031085291,0.0021989169,197388,0.012218679,-0.008731786,0.0012294766,0.5,2.3084423e-05,5.9472906e-05,5.2270203e-05,1,1,1,0,1,0
899844000,899764000,1310988,0.00036291862,-0.002358967,0.0015251467,0.34906584,1.5676619e-07,1.5696259e-07,4.36285e-07,1310988,0.0012511797,-0.013247349,0.013184299,0.4,0.002442985,0.002441977,0.0014992827,197388,0.012218679,-0.008731786,0.0012294766,0.5,2.3084423e-05,5.9472906e-05,5.2270203e-05,1,1,1,0,1,0
900052000,899972000,1310988,0.0003637493,-0.0023604184,0.0015197747,0.34906584,1.5834614e-07,1.5854106e-07,4.355124e-07,1310988,0.0039551957,-0.011728009,0.015890991,0.4,0.0021070521,0.0021059508,0.0011374118,197388,0.012218679,-0.008731786,0.0012294766,0.5,2.3084423e-05,5.9472906e-05,5.2270203e-05,1,1,1,0,1,0
