timestamp,timestamp_sample,output_tracking_error[0],output_tracking_error[1],output_tracking_error[2],control_mode_flags,filter_fault_flags,pos_horiz_accuracy,pos_vert_accuracy,mag_test_ratio,vel_test_ratio,pos_test_ratio,hgt_test_ratio,tas_test_ratio,hagl_test_ratio,beta_test_ratio,time_slip,accel_device_id,gyro_device_id,baro_device_id,mag_device_id,gps_check_fail_flags,innovation_check_flags,solution_status_flags,reset_count_vel_ne,reset_count_vel_d,reset_count_pos_ne,reset_count_pod_d,reset_count_quat,pre_flt_fail_innov_heading,pre_flt_fail_innov_vel_horiz,pre_flt_fail_innov_vel_vert,pre_flt_fail_innov_height,pre_flt_fail_mag_field_disturbed,health_flags,timeout_flags
829260000,829180000,0.00022560479,0.0031341729,0.0005481555,67109399,0,0.05607774,0.0601225,0.003324592,0.010361886,0.0013541873,0.0027827923,0.0,0.0,0.0,0.0,1310988,1310988,6620172,197388,0,0,895,2,1,2,0,4,0,0,0,0,0,0,0
829268000,829188000,0.00022331395,0.0029553517,0.0005468275,67109399,0,0.05607791,0.060122587,0.003324592,0.010361886,0.0013541873,0.0027827923,0.0,0.0,0.0,0.0,1310988,1310988,6620172,197388,0,0,895,2,1,2,0,4,0,0,0,0,0,0,0
829276000,829196000,0.0002213596,0.0027837083,0.00054524705,67109399,0,0.05607816,0.060122713,0.003324592,0.010361886,0.0013541873,0.0027827923,0.0,0.0,0.0,0.0,1310988,1310988,6620172,197388,0,0,895,2,1,2,0,4,0,0,0,0,0,0,0
829284000,829204000,0.00021972702,0.0026161263,0.0005431937,67109399,0,0.05607851,0.060114022,0.003324592,0.010361886,0.0013541873,0.00097205944,0.0,0.0,0.0,0.0,1310988,1310988,6620172,197388,0,0,895,2,1,2,0,4,0,0,0,0,0,0,0
829292000,829212000,0.00021836447,0.0024550783,0.000541293,67109399,0,0.056078978,0.060114257,0.003324592,0.010361886,0.0013541873,0.00097205944,0.0,0.0,0.0,0.0,1310988,1310988,6620172,197388,0,0,895,2,1,2,0,4,0,0,0,0,0,0,0
829300000,829220000,0.00021725032,0.002299656,0.0005385211,67109399,0,0.056079585,0.06011456,0.003324592,0.010361886,0.0013541873,0.00097205944,0.0,0.0,0.0,0.0,1310988,1310988,6620172,197388,0,0,895,2,1,2,0,4,0,0,0,0,0,0,0
829308000,829228000,0.00022555885,0.0021494473,0.00053464447,67109399,0,0.056080353,0.060114942,0.02024428,0.010361886,0.0013541873,0.00097205944,0.0,0.0,0.0,0.0,1310988,1310988,6620172,197388,0,0,895,2,1,2,0,4,0,0,0,0,0,0,0
829316000,829236000,0.00021485407,0.0020045754,0.00052962534,67109399,0,0.056081295,0.06011541,0.02024428,0.010361886,0.0013541873,0.00097205944,0.0,0.0,0.0,0.0,1310988,1310988,6620172,197388,0,0,895,2,1,2,0,4,0,0,0,0,0,0,0
829324000,829244000,0.00020418475,0.0018643793,0.00052489724,67109399,0,0.05608244,0.060115974,0.02024428,0.010361886,0.0013541873,0.00097205944,0.0,0.0,0.0,0.0,1310988,1310988,6620172,197388,0,0,895,2,1,2,0,4,0,0,0,0,0,0,0
829332000,829252000,0.00019377284,0.0017296656,0.0005194159,67109399,0,0.0560838,0.06011665,0.02024428,0.010361886,0.0013541873,0.00097205944,0.0,0.0,0.0,0.0,1310988,1310988,6620172,197388,0,0,895,2,1,2,0,4,0,0,0,0,0,0,0
829340000,829260000,0.00018360163,0.001599692,0.0005132815,67109399,0,0.056085397,0.060117442,0.02024428,0.010361886,0.0013541873,0.00097205944,0.0,0.0,0.0,0.0,1310988,1310988,6620172,197388,0,0,895,2,1,2,0,4,0,0,0,0,0,0,0
829348000,829268000,0.00017352875,0.001475265,0.0005094352,67109399,0,0.056087255,0.060109492,0.02024428,0.010361886,0.0013541873,0.0011202658,0.0,0.0,0.0,0.0,1310988,1310988,6620172,197388,0,0,895,2,1,2,0,4,0,0,0,0,0,0,0
829356000,829276000,0.00016377772,0.0013561038,0.0005028374,67109399,0,0.056089394,0.060110554,0.02024428,0.010361886,0.0013541873,0.0011202658,0.0,0.0,0.0,0.0,1310988,1310988,6620172,197388,0,0,895,2,1,2,0,4,0,0,0,0,0,0,0
829364000,829284000,0.0001540889,0.0012434586,0.0004959083,67109399,0,0.056091838,0.06011176,0.02024428,0.010361886,0.0013541873,0.0011202658,0.0,0.0,0.0,0.0,1310988,1310988,6620172,197388,0,0,895,2,1,2,0,4,0,0,0,0,0,0,0
829372000,829292000,0.00014471561,0.0011390799,0.0004893685,67109399,0,0.056094598,0.06011313,0.02024428,0.010361886,0.0013541873,0.0011202658,0.0,0.0,0.0,0.0,1310988,1310988,6620172,197388,0,0,895,2,1,2,0,4,0,0,0,0,0,0,0
829380000,829300000,0.0001419345,0.0010390428,0.0004820975,67109399,0,0.056097705,0.06011467,0.0046129627,0.010361886,0.0013541873,0.0011202658,0.0,0.0,0.0,0.0,1310988,1310988,6620172,197388,0,0,895,2,1,2,0,4,0,0,0,0,0,0,0
829388000,829308000,0.00013342155,0.0009517225,0.00047678777,67109399,0,0.056101177,0.060116395,0.0046129627,0.010361886,0.0013541873,0.0011202658,0.0,0.0,0.0,0.0,1310988,1310988,6620172,197388,0,0,895,2,1,2,0,4,0,0,0,0,0,0,0
829396000,829316000,0.0001234332,0.0008718054,0.00047027704,67109399,0,0.05610504,0.060118314,0.0046129627,0.010361886,0.0013541873,0.0011202658,0.0,0.0,0.0,0.0,1310988,1310988,6620172,197388,0,0,895,2,1,2,0,4,0,0,0,0,0,0,0
829404000,829324000,0.00011415853,0.0008044949,0.00048387624,67109399,0,0.056109313,0.06011157,0.0046129627,0.010361886,0.0013541873,0.005644047,0.0,0.0,0.0,0.0,1310988,1310988,6620172,197388,0,0,895,2,1,2,0,4,0,0,0,0,0,0,0
829412000,829332000,0.00010532901,0.0007504237,0.0004793307,67109399,0,0.056114014,0.06011391,0.0046129627,0.010361886,0.0013541873,0.005644047,0.0,0.0,0.0,0.0,1310988,1310988,6620172,197388,0,0,895,2,1,2,0,4,0,0,0,0,0,0,0
829420000,829340000,9.695144e-05,0.00071028795,0.00047545027,67109399,0,0.056119174,0.06011648,0.0046129627,0.010361886,0.0013541873,0.005644047,0.0,0.0,0.0,0.0,1310988,1310988,6620172,197388,0,0,895,2,1,2,0,4,0,0,0,0,0,0,0
829428000,829348000,8.91231e-05,0.0006861633,0.0004721308,67109399,0,0.056124814,0.060119294,0.0046129627,0.010361886,0.0013541873,0.005644047,0.0,0.0,0.0,0.0,1310988,1310988,6620172,197388,0,0,895,2,1,2,0,4,0,0,0,0,0,0,0
829436000,829356000,0.0001205493,0.004305428,0.00019768091,67109399,0,0.056047298,0.060102243,0.0046129627,0.0019636592,0.0012902592,0.005644047,0.0,0.0,0.0,0.0,1310988,1310988,6620172,197388,0,0,895,2,1,2,0,4,0,0,0,0,0,0,0
829444000,829364000,0.000108604254,0.00419883,0.00021363764,67109399,0,0.056047328,0.060102254,0.008444212,0.0019636592,0.0012902592,0.005644047,0.0,0.0,0.0,0.0,1310988,1310988,6620172,197388,0,0,895,2,1,2,0,4,0,0,0,0,0,0,0
829452000,829372000,0.000107782194,0.0040978254,0.00023465093,67109399,0,0.05604736,0.060102273,0.008444212,0.0019636592,0.0012902592,0.005644047,0.0,0.0,0.0,0.0,1310988,1310988,6620172,197388,0,0,895,2,1,2,0,4,0,0,0,0,0,0,0
829460000,829380000,0.00010734081,0.0040025474,0.00025870174,67109399,0,0.056047425,0.060102306,0.008444212,0.0019636592,0.0012902592,0.005644047,0.0,0.0,0.0,0.0,1310988,1310988,6620172,197388,0,0,895,2,1,2,0,4,0,0,0,0,0,0,0
829468000,829388000,0.00010694817,0.0039118826,0.00028650355,67109399,0,0.056047533,0.060093503,0.008444212,0.0019636592,0.0012902592,0.0005300558,0.0,0.0,0.0,0.0,1310988,1310988,6620172,197388,0,0,895,2,1,2,0,4,0,0,0,0,0,0,0
829476000,829396000,0.000106825864,0.0038269274,0.00031496637,67109399,0,0.056047704,0.06009359,0.008444212,0.0019636592,0.0012902592,0.0005300558,0.0,0.0,0.0,0.0,1310988,1310988,6620172,197388,0,0,895,2,1,2,0,4,0,0,0,0,0,0,0
829484000,829404000,0.00010692732,0.0037475962,0.00034397177,67109399,0,0.056047954,0.060093716,0.008444212,0.0019636592,0.0012902592,0.0005300558,0.0,0.0,0.0,0.0,1310988,1310988,6620172,197388,0,0,895,2,1,2,0,4,0,0,0,0,0,0,0
829492000,829412000,0.000107194704,0.0036721993,0.00037394944,67109399,0,0.0560483,0.06009389,0.008444212,0.0019636592,0.0012902592,0.0005300558,0.0,0.0,0.0,0.0,1310988,1310988,6620172,197388,0,0,895,2,1,2,0,4,0,0,0,0,0,0,0
829500000,829420000,0.00010748049,0.003601691,0.00040516863,67109399,0,0.05604877,0.06009413,0.008444212,0.0019636592,0.0012902592,0.0005300558,0.0,0.0,0.0,0.0,1310988,1310988,6620172,197388,0,0,895,2,1,2,0,4,0,0,0,0,0,0,0
829508000,829428000,0.000107859305,0.0035356013,0.00043597334,67109399,0,0.056049377,0.06009443,0.008444212,0.0019636592,0.0012902592,0.0005300558,0.0,0.0,0.0,0.0,1310988,1310988,6620172,197388,0,0,895,2,1,2,0,4,0,0,0,0,0,0,0
829516000,829436000,0.000114630595,0.0034645123,0.0004663318,67109399,0,0.056050144,0.06009481,0.010193925,0.0019636592,0.0012902592,0.0005300558,0.0,0.0,0.0,0.0,1310988,1310988,6620172,197388,0,0,895,2,1,2,0,4,0,0,0,0,0,0,0
829524000,829444000,0.00010923265,0.0033883327,0.00048058102,67109399,0,0.056051087,0.060086425,0.010193925,0.0019636592,0.0012902592,0.0067172362,0.0,0.0,0.0,0.0,1310988,1310988,6620172,197388,0,0,895,2,1,2,0,4,0,0,0,0,0,0,0
829532000,829452000,0.000104229184,0.0033178208,0.00050964137,67109399,0,0.05605223,0.06008699,0.010193925,0.0019636592,0.0012902592,0.0067172362,0.0,0.0,0.0,0.0,1310988,1310988,6620172,197388,0,0,895,2,1,2,0,4,0,0,0,0,0,0,0
829540000,829460000,9.9069395e-05,0.0032532744,0.00053893944,67109399,0,0.056053594,0.060087666,0.010193925,0.0019636592,0.0012902592,0.0067172362,0.0,0.0,0.0,0.0,1310988,1310988,6620172,197388,0,0,895,2,1,2,0,4,0,0,0,0,0,0,0
829548000,829468000,9.397159e-05,0.0031930772,0.00056724495,67109399,0,0.056055192,0.06008846,0.010193925,0.0019636592,0.0012902592,0.0067172362,0.0,0.0,0.0,0.0,1310988,1310988,6620172,197388,0,0,895,2,1,2,0,4,0,0,0,0,0,0,0
829556000,829476000,8.8793844e-05,0.0031374102,0.0005951393,67109399,0,0.056057055,0.06008938,0.010193925,0.0019636592,0.0012902592,0.0067172362,0.0,0.0,0.0,0.0,1310988,1310988,6620172,197388,0,0,895,2,1,2,0,4,0,0,0,0,0,0,0
829564000,829484000,8.353549e-05,0.0030853772,0.0006219225,67109399,0,0.056059193,0.060090438,0.010193925,0.0019636592,0.0012902592,0.0067172362,0.0,0.0,0.0,0.0,1310988,1310988,6620172,197388,0,0,895,2,1,2,0,4,0,0,0,0,0,0,0
829572000,829492000,7.828573e-05,0.003037337,0.0006479001,67109399,0,0.056061633,0.06009165,0.010193925,0.0019636592,0.0012902592,0.0067172362,0.0,0.0,0.0,0.0,1310988,1310988,6620172,197388,0,0,895,2,1,2,0,4,0,0,0,0,0,0,0
829580000,829500000,7.3083844e-05,0.0029935879,0.0006721968,67109399,0,0.0560644,0.060093015,0.010193925,0.0019636592,0.0012902592,0.0067172362,0.0,0.0,0.0,0.0,1310988,1310988,6620172,197388,0,0,895,2,1,2,0,4,0,0,0,0,0,0,0
829588000,829508000,8.893883e-05,0.0029535617,0.00070157216,67109399,0,0.05606751,0.060085703,0.012799806,0.0019636592,0.0012902592,0.0015866802,0.0,0.0,0.0,0.0,1310988,1310988,6620172,197388,0,0,895,2,1,2,0,4,0,0,0,0,0,0,0
829596000,829516000,8.4868305e-05,0.0029188606,0.00072404114,67109399,0,0.056070987,0.060087427,0.012799806,0.0019636592,0.0012902592,0.0015866802,0.0,0.0,0.0,0.0,1310988,1310988,6620172,197388,0,0,895,2,1,2,0,4,0,0,0,0,0,0,0
829604000,829524000,8.021812e-05,0.0028856592,0.0007461969,67109399,0,0.056074847,0.060089346,0.012799806,0.0019636592,0.0012902592,0.0015866802,0.0,0.0,0.0,0.0,1310988,1310988,6620172,197388,0,0,895,2,1,2,0,4,0,0,0,0,0,0,0
829612000,829532000,7.5848315e-05,0.0028566173,0.0007675346,67109399,0,0.056079123,0.060091473,0.012799806,0.0019636592,0.0012902592,0.0015866802,0.0,0.0,0.0,0.0,1310988,1310988,6620172,197388,0,0,895,2,1,2,0,4,0,0,0,0,0,0,0
829620000,829540000,7.179057e-05,0.0028309564,0.0007888117,67109399,0,0.056083832,0.060093816,0.012799806,0.0019636592,0.0012902592,0.0015866802,0.0,0.0,0.0,0.0,1310988,1310988,6620172,197388,0,0,895,2,1,2,0,4,0,0,0,0,0,0,0
829628000,829548000,6.80901e-05,0.0028071902,0.0008089779,67109399,0,0.05608899,0.06009639,0.012799806,0.0019636592,0.0012902592,0.0015866802,0.0,0.0,0.0,0.0,1310988,1310988,6620172,197388,0,0,895,2,1,2,0,4,0,0,0,0,0,0,0
829636000,829556000,6.460658e-05,0.0027858058,0.00082846003,67109399,0,0.05609463,0.060099203,0.012799806,0.0019636592,0.0012902592,0.0015866802,0.0,0.0,0.0,0.0,1310988,1310988,6620172,197388,0,0,895,2,1,2,0,4,0,0,0,0,0,0,0
829644000,829564000,0.00018921639,0.0050427774,0.0008876183,67109399,0,0.056061167,0.060073286,0.012799806,0.0019636592,0.0012902592,0.00097641855,0.0,0.0,0.0,0.0,1310988,1310988,6620172,197388,0,0,895,2,1,2,0,4,0,0,0,0,0,0,0
829652000,829572000,0.00018574994,0.0049589933,0.0009145011,67109399,0,0.056061197,0.0600733,0.012799806,0.0019636592,0.0012902592,0.00097641855,0.0,0.0,0.0,0.0,1310988,1310988,6620172,197388,0,0,895,2,1,2,0,4,0,0,0,0,0,0,0
829660000,829580000,0.00019506481,0.0048774206,0.0009401384,67109399,0,0.056061234,0.06007332,0.011200059,0.0019636592,0.0012902592,0.00097641855,0.0,0.0,0.0,0.0,1310988,1310988,6620172,197388,0,0,895,2,1,2,0,4,0,0,0,0,0,0,0
829668000,829588000,0.00019214992,0.004798664,0.0009667081,67109399,0,0.056061298,0.060073353,0.011200059,0.0019636592,0.0012902592,0.00097641855,0.0,0.0,0.0,0.0,1310988,1310988,6620172,197388,0,0,895,2,1,2,0,4,0,0,0,0,0,0,0
829676000,829596000,0.00018872545,0.0047232155,0.00099201,67109399,0,0.056061402,0.06007341,0.011200059,0.0019636592,0.0012902592,0.00097641855,0.0,0.0,0.0,0.0,1310988,1310988,6620172,197388,0,0,895,2,1,2,0,4,0,0,0,0,0,0,0
829684000,829604000,0.00018546605,0.004650737,0.0010170245,67109399,0,0.056061573,0.060073495,0.011200059,0.0019636592,0.0012902592,0.00097641855,0.0,0.0,0.0,0.0,1310988,1310988,6620172,197388,0,0,895,2,1,2,0,4,0,0,0,0,0,0,0
829692000,829612000,0.0001825105,0.0045813,0.0010416204,67109399,0,0.05606182,0.06007362,0.011200059,0.0019636592,0.0012902592,0.00097641855,0.0,0.0,0.0,0.0,1310988,1310988,6620172,197388,0,0,895,2,1,2,0,4,0,0,0,0,0,0,0
829700000,829620000,0.0001798742,0.0045135105,0.0010658585,67109399,0,0.056062173,0.060073797,0.011200059,0.0019636592,0.0012902592,0.00097641855,0.0,0.0,0.0,0.0,1310988,1310988,6620172,197388,0,0,895,2,1,2,0,4,0,0,0,0,0,0,0
829708000,829628000,0.00017744457,0.0044493717,0.0010926031,67109399,0,0.056062642,0.060065188,0.011200059,0.0019636592,0.0012902592,0.0051959422,0.0,0.0,0.0,0.0,1310988,1310988,6620172,197388,0,0,895,2,1,2,0,4,0,0,0,0,0,0,0
829716000,829636000,0.00017518346,0.0043891007,0.0011162731,67109399,0,0.056063246,0.06006549,0.011200059,0.0019636592,0.0012902592,0.0051959422,0.0,0.0,0.0,0.0,1310988,1310988,6620172,197388,0,0,895,2,1,2,0,4,0,0,0,0,0,0,0
829724000,829644000,0.00017314382,0.004328431,0.001139365,67109399,0,0.056064013,0.060065873,0.011200059,0.0019636592,0.0012902592,0.0051959422,0.0,0.0,0.0,0.0,1310988,1310988,6620172,197388,0,0,895,2,1,2,0,4,0,0,0,0,0,0,0
829732000,829652000,0.00017975434,0.004268084,0.0011615286,67109399,0,0.05606496,0.060066342,0.011462156,0.0019636592,0.0012902592,0.0051959422,0.0,0.0,0.0,0.0,1310988,1310988,6620172,197388,0,0,895,2,1,2,0,4,0,0,0,0,0,0,0
829740000,829660000,0.000171151,0.0042090756,0.0011830921,67109399,0,0.0560661,0.06006691,0.011462156,0.0019636592,0.0012902592,0.0051959422,0.0,0.0,0.0,0.0,1310988,1310988,6620172,197388,0,0,895,2,1,2,0,4,0,0,0,0,0,0,0
829748000,829668000,0.00016187767,0.0041517173,0.0012028625,67109399,0,0.05606746,0.060067583,0.011462156,0.0019636592,0.0012902592,0.0051959422,0.0,0.0,0.0,0.0,1310988,1310988,6620172,197388,0,0,895,2,1,2,0,4,0,0,0,0,0,0,0
829756000,829676000,0.00015259643,0.0040975893,0.0012221619,67109399,0,0.05606906,0.060068373,0.011462156,0.0019636592,0.0012902592,0.0051959422,0.0,0.0,0.0,0.0,1310988,1310988,6620172,197388,0,0,895,2,1,2,0,4,0,0,0,0,0,0,0
829764000,829684000,0.00014378628,0.004044955,0.00123759,67109399,0,0.05607092,0.06006045,0.011462156,0.0019636592,0.0012902592,0.0031114628,0.0,0.0,0.0,0.0,1310988,1310988,6620172,197388,0,0,895,2,1,2,0,4,0,0,0,0,0,0,0
829772000,829692000,0.0001349723,0.003992303,0.0012547378,67109399,0,0.05607306,0.06006151,0.011462156,0.0019636592,0.0012902592,0.0031114628,0.0,0.0,0.0,0.0,1310988,1310988,6620172,197388,0,0,895,2,1,2,0,4,0,0,0,0,0,0,0
829780000,829700000,0.00012648231,0.0039423746,0.0012716005,67109399,0,0.056075502,0.060062718,0.011462156,0.0019636592,0.0012902592,0.0031114628,0.0,0.0,0.0,0.0,1310988,1310988,6620172,197388,0,0,895,2,1,2,0,4,0,0,0,0,0,0,0
829788000,829708000,0.00011798356,0.0038946518,0.0012876317,67109399,0,0.056078266,0.06006409,0.011462156,0.0019636592,0.0012902592,0.0031114628,0.0,0.0,0.0,0.0,1310988,1310988,6620172,197388,0,0,895,2,1,2,0,4,0,0,0,0,0,0,0
829796000,829716000,0.00010960889,0.0038420402,0.0012873142,67109399,0,0.056037303,0.060065627,0.011462156,0.023561385,0.0014007288,0.0031114628,0.0,0.0,0.0,0.0,1310988,1310988,6620172,197388,0,0,895,2,1,2,0,4,0,0,0,0,0,0,0
829804000,829724000,9.9892124e-05,0.0037974487,0.001301764,67109399,0,0.056040768,0.060067352,0.00088652753,0.023561385,0.0014007288,0.0031114628,0.0,0.0,0.0,0.0,1310988,1310988,6620172,197388,0,0,895,2,1,2,0,4,0,0,0,0,0,0,0
829812000,829732000,9.2069815e-05,0.003754654,0.0013153068,67109399,0,0.05604462,0.06006927,0.00088652753,0.023561385,0.0014007288,0.0031114628,0.0,0.0,0.0,0.0,1310988,1310988,6620172,197388,0,0,895,2,1,2,0,4,0,0,0,0,0,0,0
829820000,829740000,8.365431e-05,0.0037123288,0.0013290774,67109399,0,0.05604888,0.060071394,0.00088652753,0.023561385,0.0014007288,0.0031114628,0.0,0.0,0.0,0.0,1310988,1310988,6620172,197388,0,0,895,2,1,2,0,4,0,0,0,0,0,0,0
829828000,829748000,7.569659e-05,0.0036708103,0.0013414182,67109399,0,0.056053575,0.060064886,0.00088652753,0.023561385,0.0014007288,0.0009546236,0.0,0.0,0.0,0.0,1310988,1310988,6620172,197388,0,0,895,2,1,2,0,4,0,0,0,0,0,0,0
829836000,829756000,6.800749e-05,0.0036326183,0.0013539093,67109399,0,0.056058723,0.06006746,0.00088652753,0.023561385,0.0014007288,0.0009546236,0.0,0.0,0.0,0.0,1310988,1310988,6620172,197388,0,0,895,2,1,2,0,4,0,0,0,0,0,0,0
829844000,829764000,6.0957933e-05,0.003596487,0.0013646381,67109399,0,0.056064352,0.060070273,0.00088652753,0.023561385,0.0014007288,0.0009546236,0.0,0.0,0.0,0.0,1310988,1310988,6620172,197388,0,0,895,2,1,2,0,4,0,0,0,0,0,0,0
829852000,829772000,4.708374e-05,0.004302665,0.0013489634,67109399,0,0.056031007,0.060053226,0.00088652753,0.023561385,0.0014007288,0.0009546236,0.0,0.0,0.0,0.0,1310988,1310988,6620172,197388,0,0,895,2,1,2,0,4,0,0,0,0,0,0,0
829860000,829780000,4.1217274e-05,0.0042217597,0.0013581977,67109399,0,0.056031037,0.060053237,0.00088652753,0.023561385,0.0014007288,0.0009546236,0.0,0.0,0.0,0.0,1310988,1310988,6620172,197388,0,0,895,2,1,2,0,4,0,0,0,0,0,0,0
829868000,829788000,3.6171397e-05,0.0041445657,0.0013664847,67109399,0,0.05603107,0.060053255,0.00088652753,0.023561385,0.0014007288,0.0009546236,0.0,0.0,0.0,0.0,1310988,1310988,6620172,197388,0,0,895,2,1,2,0,4,0,0,0,0,0,0,0
829876000,829796000,0.000114684175,0.0040700044,0.001373599,67109399,0,0.056031134,0.06005329,0.030307155,0.023561385,0.0014007288,0.0009546236,0.0,0.0,0.0,0.0,1310988,1310988,6620172,197388,0,0,895,2,1,2,0,4,0,0,0,0,0,0,0
829884000,829804000,0.00011124655,0.0039977455,0.001380843,67109399,0,0.05603124,0.06004451,0.030307155,0.023561385,0.0014007288,0.0041410616,0.0,0.0,0.0,0.0,1310988,1310988,6620172,197388,0,0,895,2,1,2,0,4,0,0,0,0,0,0,0
829892000,829812000,0.00010826999,0.0039279796,0.0013878882,67109399,0,0.05603141,0.060044594,0.030307155,0.023561385,0.0014007288,0.0041410616,0.0,0.0,0.0,0.0,1310988,1310988,6620172,197388,0,0,895,2,1,2,0,4,0,0,0,0,0,0,0
829900000,829820000,0.00010575822,0.0038632588,0.00139426,67109399,0,0.05603166,0.06004472,0.030307155,0.023561385,0.0014007288,0.0041410616,0.0,0.0,0.0,0.0,1310988,1310988,6620172,197388,0,0,895,2,1,2,0,4,0,0,0,0,0,0,0
829908000,829828000,0.00010334427,0.0038004234,0.0013999469,67109399,0,0.05603201,0.060044896,0.030307155,0.023561385,0.0014007288,0.0041410616,0.0,0.0,0.0,0.0,1310988,1310988,6620172,197388,0,0,895,2,1,2,0,4,0,0,0,0,0,0,0
829916000,829836000,0.00010120164,0.003740593,0.0014059097,67109399,0,0.05603248,0.060045134,0.030307155,0.023561385,0.0014007288,0.0041410616,0.0,0.0,0.0,0.0,1310988,1310988,6620172,197388,0,0,895,2,1,2,0,4,0,0,0,0,0,0,0
829924000,829844000,9.942485e-05,0.0036833643,0.0014109462,67109399,0,0.056033086,0.060045436,0.030307155,0.023561385,0.0014007288,0.0041410616,0.0,0.0,0.0,0.0,1310988,1310988,6620172,197388,0,0,895,2,1,2,0,4,0,0,0,0,0,0,0
829932000,829852000,9.7902164e-05,0.0036239068,0.0014162363,67109399,0,0.056033853,0.06004582,0.030307155,0.023561385,0.0014007288,0.0041410616,0.0,0.0,0.0,0.0,1310988,1310988,6620172,197388,0,0,895,2,1,2,0,4,0,0,0,0,0,0,0
829940000,829860000,9.628544e-05,0.0035622485,0.0014204334,67109399,0,0.0560348,0.06004629,0.030307155,0.023561385,0.0014007288,0.0041410616,0.0,0.0,0.0,0.0,1310988,1310988,6620172,197388,0,0,895,2,1,2,0,4,0,0,0,0,0,0,0
829948000,829868000,0.00010132203,0.0035036888,0.0014245514,67109399,0,0.05603594,0.06003802,0.0023428672,0.023561385,0.0014007288,0.002026069,0.0,0.0,0.0,0.0,1310988,1310988,6620172,197388,0,0,895,2,1,2,0,4,0,0,0,0,0,0,0
829956000,829876000,0.00010018149,0.0034483906,0.0014280984,67109399,0,0.056037303,0.060038693,0.0023428672,0.023561385,0.0014007288,0.002026069,0.0,0.0,0.0,0.0,1310988,1310988,6620172,197388,0,0,895,2,1,2,0,4,0,0,0,0,0,0,0
829964000,829884000,9.495624e-05,0.0033963867,0.0014312539,67109399,0,0.0560389,0.060039487,0.0023428672,0.023561385,0.0014007288,0.002026069,0.0,0.0,0.0,0.0,1310988,1310988,6620172,197388,0,0,895,2,1,2,0,4,0,0,0,0,0,0,0
829972000,829892000,8.9675625e-05,0.003346691,0.0014337621,67109399,0,0.05604076,0.060040407,0.0023428672,0.023561385,0.0014007288,0.002026069,0.0,0.0,0.0,0.0,1310988,1310988,6620172,197388,0,0,895,2,1,2,0,4,0,0,0,0,0,0,0
829980000,829900000,8.486848e-05,0.0033006137,0.0014363194,67109399,0,0.056042906,0.06004147,0.0023428672,0.023561385,0.0014007288,0.002026069,0.0,0.0,0.0,0.0,1310988,1310988,6620172,197388,0,0,895,2,1,2,0,4,0,0,0,0,0,0,0
829988000,829908000,8.008189e-05,0.0032568478,0.001438508,67109399,0,0.056045346,0.06004268,0.0023428672,0.023561385,0.0014007288,0.002026069,0.0,0.0,0.0,0.0,1310988,1310988,6620172,197388,0,0,895,2,1,2,0,4,0,0,0,0,0,0,0
829996000,829916000,7.514131e-05,0.0032149265,0.0014402407,67109399,0,0.05604811,0.06004405,0.0023428672,0.023561385,0.0014007288,0.002026069,0.0,0.0,0.0,0.0,1310988,1310988,6620172,197388,0,0,895,2,1,2,0,4,0,0,0,0,0,0,0
830004000,829924000,7.055433e-05,0.003191922,0.0014362413,67109399,0,0.05600722,0.060036752,0.0023428672,0.007452154,0.0013858167,0.0020513511,0.0,0.0,0.0,0.0,1310988,1310988,6620172,197388,0,0,895,2,1,2,0,4,0,0,0,0,0,0,0
830012000,829932000,6.617243e-05,0.0031545414,0.0014378693,67109399,0,0.056010686,0.060038477,0.0023428672,0.007452154,0.0013858167,0.0020513511,0.0,0.0,0.0,0.0,1310988,1310988,6620172,197388,0,0,895,2,1,2,0,4,0,0,0,0,0,0,0
830020000,829940000,0.00016260004,0.003121173,0.001438859,67109399,0,0.05601454,0.060040396,0.036707204,0.007452154,0.0013858167,0.0020513511,0.0,0.0,0.0,0.0,1310988,1310988,6620172,197388,0,0,895,2,1,2,0,4,0,0,0,0,0,0,0
830028000,829948000,0.00015833508,0.003088631,0.0014392383,67109399,0,0.056018807,0.06004252,0.036707204,0.007452154,0.0013858167,0.0020513511,0.0,0.0,0.0,0.0,1310988,1310988,6620172,197388,0,0,895,2,1,2,0,4,0,0,0,0,0,0,0
830036000,829956000,0.00015371633,0.0030578042,0.0014395849,67109399,0,0.05602351,0.060044862,0.036707204,0.007452154,0.0013858167,0.0020513511,0.0,0.0,0.0,0.0,1310988,1310988,6620172,197388,0,0,895,2,1,2,0,4,0,0,0,0,0,0,0
830044000,829964000,0.00014919315,0.003030026,0.0014395135,67109399,0,0.05602866,0.060047437,0.036707204,0.007452154,0.0013858167,0.0020513511,0.0,0.0,0.0,0.0,1310988,1310988,6620172,197388,0,0,895,2,1,2,0,4,0,0,0,0,0,0,0
830052000,829972000,0.00014470403,0.0030033826,0.0014385442,67109399,0,0.056034293,0.060041413,0.036707204,0.007452154,0.0013858167,0.0021768908,0.0,0.0,0.0,0.0,1310988,1310988,6620172,197388,0,0,895,2,1,2,0,4,0,0,0,0,0,0,0
830060000,829980000,0.00017308451,0.0036305648,0.0014312183,67109399,0,0.056000922,0.060024362,0.036707204,0.007452154,0.0013858167,0.0021768908,0.0,0.0,0.0,0.0,1310988,1310988,6620172,197388,0,0,895,2,1,2,0,4,0,0,0,0,0,0,0
830068000,829988000,0.00016960986,0.0035783665,0.0014326655,67109399,0,0.05600095,0.060024373,0.036707204,0.007452154,0.0013858167,0.0021768908,0.0,0.0,0.0,0.0,1310988,1310988,6620172,197388,0,0,895,2,1,2,0,4,0,0,0,0,0,0,0
830076000,829996000,0.0001663632,0.0035280276,0.001434084,67109399,0,0.056000985,0.06002439,0.036707204,0.007452154,0.0013858167,0.0021768908,0.0,0.0,0.0,0.0,1310988,1310988,6620172,197388,0,0,895,2,1,2,0,4,0,0,0,0,0,0,0
830084000,830004000,0.00016333583,0.0034799306,0.0014356065,67109399,0,0.05600105,0.060024425,0.036707204,0.007452154,0.0013858167,0.0021768908,0.0,0.0,0.0,0.0,1310988,1310988,6620172,197388,0,0,895,2,1,2,0,4,0,0,0,0,0,0,0
830092000,830012000,0.00016309418,0.0034342906,0.0014366304,67109399,0,0.056001157,0.06002448,0.0012847093,0.007452154,0.0013858167,0.0021768908,0.0,0.0,0.0,0.0,1310988,1310988,6620172,197388,0,0,895,2,1,2,0,4,0,0,0,0,0,0,0
830100000,830020000,0.00016048491,0.0033914004,0.0014376928,67109399,0,0.056001324,0.06002457,0.0012847093,0.007452154,0.0013858167,0.0021768908,0.0,0.0,0.0,0.0,1310988,1310988,6620172,197388,0,0,895,2,1,2,0,4,0,0,0,0,0,0,0
830108000,830028000,0.00015416906,0.0033504977,0.0014386782,67109399,0,0.056001574,0.060024697,0.0012847093,0.007452154,0.0013858167,0.0021768908,0.0,0.0,0.0,0.0,1310988,1310988,6620172,197388,0,0,895,2,1,2,0,4,0,0,0,0,0,0,0
830116000,830036000,0.00014828828,0.0033117505,0.0014375238,67109399,0,0.056001924,0.060016047,0.0012847093,0.007452154,0.0013858167,0.0042910124,0.0,0.0,0.0,0.0,1310988,1310988,6620172,197388,0,0,895,2,1,2,0,4,0,0,0,0,0,0,0
830124000,830044000,0.00014268087,0.0032745018,0.0014387901,67109399,0,0.056002393,0.060016286,0.0012847093,0.007452154,0.0013858167,0.0042910124,0.0,0.0,0.0,0.0,1310988,1310988,6620172,197388,0,0,895,2,1,2,0,4,0,0,0,0,0,0,0
830132000,830052000,0.00013735126,0.0032384025,0.0014398197,67109399,0,0.056003,0.060016587,0.0012847093,0.007452154,0.0013858167,0.0042910124,0.0,0.0,0.0,0.0,1310988,1310988,6620172,197388,0,0,895,2,1,2,0,4,0,0,0,0,0,0,0
830140000,830060000,0.00013245492,0.0032039087,0.001440672,67109399,0,0.056003768,0.060016967,0.0012847093,0.007452154,0.0013858167,0.0042910124,0.0,0.0,0.0,0.0,1310988,1310988,6620172,197388,0,0,895,2,1,2,0,4,0,0,0,0,0,0,0
830148000,830068000,0.00012406168,0.0031704959,0.0014412386,67109399,0,0.056004714,0.060017437,0.0012847093,0.007452154,0.0013858167,0.0042910124,0.0,0.0,0.0,0.0,1310988,1310988,6620172,197388,0,0,895,2,1,2,0,4,0,0,0,0,0,0,0
830156000,830076000,0.00011374387,0.0031383256,0.001442354,67109399,0,0.056005858,0.060018003,0.0012668605,0.007452154,0.0013858167,0.0042910124,0.0,0.0,0.0,0.0,1310988,1310988,6620172,197388,0,0,895,2,1,2,0,4,0,0,0,0,0,0,0
830164000,830084000,0.00010573386,0.0031082004,0.0014427594,67109399,0,0.056007218,0.06001868,0.0012668605,0.007452154,0.0013858167,0.0042910124,0.0,0.0,0.0,0.0,1310988,1310988,6620172,197388,0,0,895,2,1,2,0,4,0,0,0,0,0,0,0
830172000,830092000,9.800309e-05,0.0030798255,0.0014429959,67109399,0,0.05600882,0.06001065,0.0012668605,0.007452154,0.0013858167,0.00035918268,0.0,0.0,0.0,0.0,1310988,1310988,6620172,197388,0,0,895,2,1,2,0,4,0,0,0,0,0,0,0
830180000,830100000,9.028645e-05,0.003052401,0.0014431606,67109399,0,0.056010682,0.060011573,0.0012668605,0.007452154,0.0013858167,0.00035918268,0.0,0.0,0.0,0.0,1310988,1310988,6620172,197388,0,0,895,2,1,2,0,4,0,0,0,0,0,0,0
830188000,830108000,8.272453e-05,0.003025866,0.0014431066,67109399,0,0.056012824,0.060012635,0.0012668605,0.007452154,0.0013858167,0.00035918268,0.0,0.0,0.0,0.0,1310988,1310988,6620172,197388,0,0,895,2,1,2,0,4,0,0,0,0,0,0,0
830196000,830116000,7.547982e-05,0.0030006594,0.0014425038,67109399,0,0.056015268,0.06001384,0.0012668605,0.007452154,0.0013858167,0.00035918268,0.0,0.0,0.0,0.0,1310988,1310988,6620172,197388,0,0,895,2,1,2,0,4,0,0,0,0,0,0,0
830204000,830124000,6.857256e-05,0.0029762362,0.0014426621,67109399,0,0.056018036,0.060015216,0.0012668605,0.007452154,0.0013858167,0.00035918268,0.0,0.0,0.0,0.0,1310988,1310988,6620172,197388,0,0,895,2,1,2,0,4,0,0,0,0,0,0,0
830212000,830132000,6.179658e-05,0.0029370703,0.0014301481,67109399,0,0.055977218,0.060016755,0.0012668605,0.013110153,0.0013534422,0.00035918268,0.0,0.0,0.0,0.0,1310988,1310988,6620172,197388,0,0,895,2,1,2,0,4,0,0,0,0,0,0,0
830220000,830140000,5.528565e-05,0.002915617,0.0014294672,67109399,0,0.055980686,0.06001848,0.0012668605,0.013110153,0.0013534422,0.00035918268,0.0,0.0,0.0,0.0,1310988,1310988,6620172,197388,0,0,895,2,1,2,0,4,0,0,0,0,0,0,0
830228000,830148000,5.006309e-05,0.0028954719,0.0014289115,67109399,0,0.05598454,0.0600204,0.00065555144,0.013110153,0.0013534422,0.00035918268,0.0,0.0,0.0,0.0,1310988,1310988,6620172,197388,0,0,895,2,1,2,0,4,0,0,0,0,0,0,0
830236000,830156000,4.4235232e-05,0.00287649,0.0014278919,67109399,0,0.05598881,0.0600137,0.00065555144,0.013110153,0.0013534422,0.0032239258,0.0,0.0,0.0,0.0,1310988,1310988,6620172,197388,0,0,895,2,1,2,0,4,0,0,0,0,0,0,0
830244000,830164000,3.884366e-05,0.0028583275,0.0014266598,67109399,0,0.055993512,0.060016043,0.00065555144,0.013110153,0.0013534422,0.0032239258,0.0,0.0,0.0,0.0,1310988,1310988,6620172,197388,0,0,895,2,1,2,0,4,0,0,0,0,0,0,0
830252000,830172000,3.3888486e-05,0.0028405497,0.0014258791,67109399,0,0.055998668,0.060018618,0.00065555144,0.013110153,0.0013534422,0.0032239258,0.0,0.0,0.0,0.0,1310988,1310988,6620172,197388,0,0,895,2,1,2,0,4,0,0,0,0,0,0,0
830260000,830180000,2.9357918e-05,0.0028240676,0.0014247155,67109399,0,0.0560043,0.060021434,0.00065555144,0.013110153,0.0013534422,0.0032239258,0.0,0.0,0.0,0.0,1310988,1310988,6620172,197388,0,0,895,2,1,2,0,4,0,0,0,0,0,0,0
830268000,830188000,7.877939e-05,0.0054736864,0.0016106032,67109399,0,0.05597091,0.060004372,0.00065555144,0.013110153,0.0013534422,0.0032239258,0.0,0.0,0.0,0.0,1310988,1310988,6620172,197388,0,0,895,2,1,2,0,4,0,0,0,0,0,0,0
830276000,830196000,7.6084536e-05,0.0053474163,0.0016177676,67109399,0,0.05597094,0.060004387,0.00065555144,0.013110153,0.0013534422,0.0032239258,0.0,0.0,0.0,0.0,1310988,1310988,6620172,197388,0,0,895,2,1,2,0,4,0,0,0,0,0,0,0
830284000,830204000,7.3731244e-05,0.005225384,0.00162452,67109399,0,0.055970978,0.060004406,0.00065555144,0.013110153,0.0013534422,0.0032239258,0.0,0.0,0.0,0.0,1310988,1310988,6620172,197388,0,0,895,2,1,2,0,4,0,0,0,0,0,0,0
830292000,830212000,7.1674e-05,0.00510792,0.0016308631,67109399,0,0.05597104,0.05999562,0.00065555144,0.013110153,0.0013534422,7.061602e-05,0.0,0.0,0.0,0.0,1310988,1310988,6620172,197388,0,0,895,2,1,2,0,4,0,0,0,0,0,0,0
830300000,830220000,7.8637895e-05,0.004994216,0.0016369628,67109399,0,0.055971146,0.059995677,0.014335325,0.013110153,0.0013534422,7.061602e-05,0.0,0.0,0.0,0.0,1310988,1310988,6620172,197388,0,0,895,2,1,2,0,4,0,0,0,0,0,0,0
830308000,830228000,7.781289e-05,0.0048851166,0.0016428,67109399,0,0.055971313,0.059995767,0.014335325,0.013110153,0.0013534422,7.061602e-05,0.0,0.0,0.0,0.0,1310988,1310988,6620172,197388,0,0,895,2,1,2,0,4,0,0,0,0,0,0,0
830316000,830236000,7.7109165e-05,0.0047791605,0.0016479293,67109399,0,0.055971563,0.059995893,0.014335325,0.013110153,0.0013534422,7.061602e-05,0.0,0.0,0.0,0.0,1310988,1310988,6620172,197388,0,0,895,2,1,2,0,4,0,0,0,0,0,0,0
830324000,830244000,7.657429e-05,0.004676274,0.0016530083,67109399,0,0.055971917,0.05999607,0.014335325,0.013110153,0.0013534422,7.061602e-05,0.0,0.0,0.0,0.0,1310988,1310988,6620172,197388,0,0,895,2,1,2,0,4,0,0,0,0,0,0,0
830332000,830252000,7.609807e-05,0.0045775543,0.0016570075,67109399,0,0.055972386,0.059996307,0.014335325,0.013110153,0.0013534422,7.061602e-05,0.0,0.0,0.0,0.0,1310988,1310988,6620172,197388,0,0,895,2,1,2,0,4,0,0,0,0,0,0,0
830340000,830260000,7.570539e-05,0.0044824183,0.0016611614,67109399,0,0.055972993,0.05999661,0.014335325,0.013110153,0.0013534422,7.061602e-05,0.0,0.0,0.0,0.0,1310988,1310988,6620172,197388,0,0,895,2,1,2,0,4,0,0,0,0,0,0,0
830348000,830268000,7.529418e-05,0.0043853456,0.0016646864,67109399,0,0.05597376,0.05999699,0.014335325,0.013110153,0.0013534422,7.061602e-05,0.0,0.0,0.0,0.0,1310988,1310988,6620172,197388,0,0,895,2,1,2,0,4,0,0,0,0,0,0,0
830356000,830276000,7.1920316e-05,0.004287833,0.001669915,67109399,0,0.055974707,0.059988648,0.014335325,0.013110153,0.0013534422,0.002196071,0.0,0.0,0.0,0.0,1310988,1310988,6620172,197388,0,0,895,2,1,2,0,4,0,0,0,0,0,0,0
830364000,830284000,6.856575e-05,0.004193945,0.0016718616,67109399,0,0.05597585,0.059989214,0.014335325,0.013110153,0.0013534422,0.002196071,0.0,0.0,0.0,0.0,1310988,1310988,6620172,197388,0,0,895,2,1,2,0,4,0,0,0,0,0,0,0
830372000,830292000,5.3629938e-05,0.004103723,0.0016720451,67109399,0,0.055977214,0.05998989,0.009125391,0.013110153,0.0013534422,0.002196071,0.0,0.0,0.0,0.0,1310988,1310988,6620172,197388,0,0,895,2,1,2,0,4,0,0,0,0,0,0,0
830380000,830300000,4.9928633e-05,0.004016137,0.0016711759,67109399,0,0.055978812,0.05999068,0.009125391,0.013110153,0.0013534422,0.002196071,0.0,0.0,0.0,0.0,1310988,1310988,6620172,197388,0,0,895,2,1,2,0,4,0,0,0,0,0,0,0
830388000,830308000,4.5534434e-05,0.0039320244,0.0016705008,67109399,0,0.05598068,0.0599916,0.009125391,0.013110153,0.0013534422,0.002196071,0.0,0.0,0.0,0.0,1310988,1310988,6620172,197388,0,0,895,2,1,2,0,4,0,0,0,0,0,0,0
830396000,830316000,4.1356532e-05,0.0038516962,0.0016681959,67109399,0,0.05598282,0.059992664,0.009125391,0.013110153,0.0013534422,0.002196071,0.0,0.0,0.0,0.0,1310988,1310988,6620172,197388,0,0,895,2,1,2,0,4,0,0,0,0,0,0,0
830404000,830324000,3.7148428e-05,0.0037744306,0.0016657226,67109399,0,0.05598527,0.059993874,0.009125391,0.013110153,0.0013534422,0.002196071,0.0,0.0,0.0,0.0,1310988,1310988,6620172,197388,0,0,895,2,1,2,0,4,0,0,0,0,0,0,0
830412000,830332000,3.3034434e-05,0.0037007804,0.0016638917,67109399,0,0.055988032,0.059986435,0.009125391,0.013110153,0.0013534422,0.0012885245,0.0,0.0,0.0,0.0,1310988,1310988,6620172,197388,0,0,895,2,1,2,0,4,0,0,0,0,0,0,0
830420000,830340000,2.7222659e-05,0.003590081,0.0016452342,67109399,0,0.05594729,0.059987973,0.009125391,0.0149029065,0.0014025429,0.0012885245,0.0,0.0,0.0,0.0,1310988,1310988,6620172,197388,0,0,895,2,1,2,0,4,0,0,0,0,0,0,0
830428000,830348000,2.33946e-05,0.0035230527,0.0016405513,67109399,0,0.05595076,0.059989702,0.009125391,0.0149029065,0.0014025429,0.0012885245,0.0,0.0,0.0,0.0,1310988,1310988,6620172,197388,0,0,895,2,1,2,0,4,0,0,0,0,0,0,0
830436000,830356000,1.9848563e-05,0.0034586175,0.0016351145,67109399,0,0.05595462,0.05999162,0.009125391,0.0149029065,0.0014025429,0.0012885245,0.0,0.0,0.0,0.0,1310988,1310988,6620172,197388,0,0,895,2,1,2,0,4,0,0,0,0,0,0,0
830444000,830364000,3.36882e-05,0.0033969653,0.0016292958,67109399,0,0.055958893,0.059993748,0.009169175,0.0149029065,0.0014025429,0.0012885245,0.0,0.0,0.0,0.0,1310988,1310988,6620172,197388,0,0,895,2,1,2,0,4,0,0,0,0,0,0,0
830452000,830372000,3.4470777e-05,0.0033375826,0.0016227699,67109399,0,0.055963594,0.05999609,0.009169175,0.0149029065,0.0014025429,0.0012885245,0.0,0.0,0.0,0.0,1310988,1310988,6620172,197388,0,0,895,2,1,2,0,4,0,0,0,0,0,0,0
830460000,830380000,3.4532262e-05,0.0032819062,0.0016159858,67109399,0,0.055968754,0.059998665,0.009169175,0.0149029065,0.0014025429,0.0012885245,0.0,0.0,0.0,0.0,1310988,1310988,6620172,197388,0,0,895,2,1,2,0,4,0,0,0,0,0,0,0
830468000,830388000,3.5011475e-05,0.003228891,0.001608223,67109399,0,0.055974394,0.060001485,0.009169175,0.0149029065,0.0014025429,0.0012885245,0.0,0.0,0.0,0.0,1310988,1310988,6620172,197388,0,0,895,2,1,2,0,4,0,0,0,0,0,0,0
830476000,830396000,0.00022619212,0.0026484812,0.0010948819,67109399,0,0.05594099,0.0599756,0.009169175,0.0149029065,0.0014025429,0.0024898686,0.0,0.0,0.0,0.0,1310988,1310988,6620172,197388,0,0,895,2,1,2,0,4,0,0,0,0,0,0,0
830484000,830404000,0.00022877705,0.002575758,0.0010649166,67109399,0,0.05594102,0.059975617,0.009169175,0.0149029065,0.0014025429,0.0024898686,0.0,0.0,0.0,0.0,1310988,1310988,6620172,197388,0,0,895,2,1,2,0,4,0,0,0,0,0,0,0
830492000,830412000,0.0002311458,0.002507738,0.0010354907,67109399,0,0.055941056,0.059975635,0.009169175,0.0149029065,0.0014025429,0.0024898686,0.0,0.0,0.0,0.0,1310988,1310988,6620172,197388,0,0,895,2,1,2,0,4,0,0,0,0,0,0,0
830500000,830420000,0.00023332586,0.0024441846,0.0010069533,67109399,0,0.05594112,0.05997567,0.009169175,0.0149029065,0.0014025429,0.0024898686,0.0,0.0,0.0,0.0,1310988,1310988,6620172,197388,0,0,895,2,1,2,0,4,0,0,0,0,0,0,0
830508000,830428000,0.00023527417,0.0023842196,0.0009793779,67109399,0,0.055941224,0.059975725,0.009169175,0.0149029065,0.0014025429,0.0024898686,0.0,0.0,0.0,0.0,1310988,1310988,6620172,197388,0,0,895,2,1,2,0,4,0,0,0,0,0,0,0
830516000,830436000,0.0002398453,0.0023281118,0.00095280627,67109399,0,0.055941395,0.05997581,0.0052503604,0.0149029065,0.0014025429,0.0024898686,0.0,0.0,0.0,0.0,1310988,1310988,6620172,197388,0,0,895,2,1,2,0,4,0,0,0,0,0,0,0
830524000,830444000,0.00024142524,0.0022756706,0.0009271399,67109399,0,0.055941645,0.059975937,0.0052503604,0.0149029065,0.0014025429,0.0024898686,0.0,0.0,0.0,0.0,1310988,1310988,6620172,197388,0,0,895,2,1,2,0,4,0,0,0,0,0,0,0
830532000,830452000,0.00024250866,0.0022272987,0.00090253743,67109399,0,0.055941995,0.05996731,0.0052503604,0.0149029065,0.0014025429,0.00021184808,0.0,0.0,0.0,0.0,1310988,1310988,6620172,197388,0,0,895,2,1,2,0,4,0,0,0,0,0,0,0
830540000,830460000,0.00024335108,0.0021829628,0.00087924046,67109399,0,0.05594247,0.059967548,0.0052503604,0.0149029065,0.0014025429,0.00021184808,0.0,0.0,0.0,0.0,1310988,1310988,6620172,197388,0,0,895,2,1,2,0,4,0,0,0,0,0,0,0
830548000,830468000,0.00024410815,0.002141956,0.00085705705,67109399,0,0.055943076,0.05996785,0.0052503604,0.0149029065,0.0014025429,0.00021184808,0.0,0.0,0.0,0.0,1310988,1310988,6620172,197388,0,0,895,2,1,2,0,4,0,0,0,0,0,0,0
830556000,830476000,0.00024465006,0.0020975682,0.00083564635,67109399,0,0.055943843,0.059968233,0.0052503604,0.0149029065,0.0014025429,0.00021184808,0.0,0.0,0.0,0.0,1310988,1310988,6620172,197388,0,0,895,2,1,2,0,4,0,0,0,0,0,0,0
830564000,830484000,0.00023388804,0.0020492612,0.0008171545,67109399,0,0.05594479,0.059968702,0.0052503604,0.0149029065,0.0014025429,0.00021184808,0.0,0.0,0.0,0.0,1310988,1310988,6620172,197388,0,0,895,2,1,2,0,4,0,0,0,0,0,0,0
830572000,830492000,0.00022294695,0.002004075,0.0007999681,67109399,0,0.055945933,0.05996927,0.0052503604,0.0149029065,0.0014025429,0.00021184808,0.0,0.0,0.0,0.0,1310988,1310988,6620172,197388,0,0,895,2,1,2,0,4,0,0,0,0,0,0,0
830580000,830500000,0.00021188532,0.001961289,0.0007857935,67109399,0,0.055947296,0.059969947,0.0052503604,0.0149029065,0.0014025429,0.00021184808,0.0,0.0,0.0,0.0,1310988,1310988,6620172,197388,0,0,895,2,1,2,0,4,0,0,0,0,0,0,0
830588000,830508000,0.00022655226,0.0019216145,0.0007732303,67109399,0,0.0559489,0.05997074,0.025110647,0.0149029065,0.0014025429,0.00021184808,0.0,0.0,0.0,0.0,1310988,1310988,6620172,197388,0,0,895,2,1,2,0,4,0,0,0,0,0,0,0
830596000,830516000,0.00021621001,0.0018847483,0.00076706125,67109399,0,0.055950765,0.059962858,0.025110647,0.0149029065,0.0014025429,0.0026215112,0.0,0.0,0.0,0.0,1310988,1310988,6620172,197388,0,0,895,2,1,2,0,4,0,0,0,0,0,0,0
830604000,830524000,0.00020542149,0.0018508522,0.00075754983,67109399,0,0.055952907,0.059963923,0.025110647,0.0149029065,0.0014025429,0.0026215112,0.0,0.0,0.0,0.0,1310988,1310988,6620172,197388,0,0,895,2,1,2,0,4,0,0,0,0,0,0,0
830612000,830532000,0.00019480819,0.0018198005,0.0007500421,67109399,0,0.055955354,0.059965134,0.025110647,0.0149029065,0.0014025429,0.0026215112,0.0,0.0,0.0,0.0,1310988,1310988,6620172,197388,0,0,895,2,1,2,0,4,0,0,0,0,0,0,0
830620000,830540000,0.00018411379,0.0017916365,0.00074334495,67109399,0,0.055958122,0.059966505,0.025110647,0.0149029065,0.0014025429,0.0026215112,0.0,0.0,0.0,0.0,1310988,1310988,6620172,197388,0,0,895,2,1,2,0,4,0,0,0,0,0,0,0
830628000,830548000,0.00017326836,0.0017636927,0.0007441033,67109399,0,0.05591745,0.059968043,0.025110647,0.0020471013,0.00131955,0.0026215112,0.0,0.0,0.0,0.0,1310988,1310988,6620172,197388,0,0,895,2,1,2,0,4,0,0,0,0,0,0,0
830636000,830556000,0.0001627437,0.001741128,0.00073987176,67109399,0,0.05592092,0.05996977,0.025110647,0.0020471013,0.00131955,0.0026215112,0.0,0.0,0.0,0.0,1310988,1310988,6620172,197388,0,0,895,2,1,2,0,4,0,0,0,0,0,0,0
830644000,830564000,0.00015259229,0.0017212806,0.0007365848,67109399,0,0.055924784,0.059971694,0.025110647,0.0020471013,0.00131955,0.0026215112,0.0,0.0,0.0,0.0,1310988,1310988,6620172,197388,0,0,895,2,1,2,0,4,0,0,0,0,0,0,0
830652000,830572000,0.00014298847,0.0017040353,0.00073089445,67109399,0,0.055929054,0.05996502,0.025110647,0.0020471013,0.00131955,0.0011621132,0.0,0.0,0.0,0.0,1310988,1310988,6620172,197388,0,0,895,2,1,2,0,4,0,0,0,0,0,0,0
830660000,830580000,0.00016427011,0.0016893228,0.0007296895,67109399,0,0.05593376,0.059967365,0.014128142,0.0020471013,0.00131955,0.0011621132,0.0,0.0,0.0,0.0,1310988,1310988,6620172,197388,0,0,895,2,1,2,0,4,0,0,0,0,0,0,0
830668000,830588000,0.00015721691,0.0016771099,0.00072879303,67109399,0,0.05593892,0.05996994,0.014128142,0.0020471013,0.00131955,0.0011621132,0.0,0.0,0.0,0.0,1310988,1310988,6620172,197388,0,0,895,2,1,2,0,4,0,0,0,0,0,0,0
830676000,830596000,0.00014786214,0.001667211,0.00072834536,67109399,0,0.05594456,0.05997276,0.014128142,0.0020471013,0.00131955,0.0011621132,0.0,0.0,0.0,0.0,1310988,1310988,6620172,197388,0,0,895,2,1,2,0,4,0,0,0,0,0,0,0
830684000,830604000,0.00017916762,0.0044233166,0.0008833838,67109399,0,0.055911142,0.059955683,0.014128142,0.0020471013,0.00131955,0.0011621132,0.0,0.0,0.0,0.0,1310988,1310988,6620172,197388,0,0,895,2,1,2,0,4,0,0,0,0,0,0,0
830692000,830612000,0.00018020395,0.0043400074,0.0008918554,67109399,0,0.05591117,0.059955694,0.014128142,0.0020471013,0.00131955,0.0011621132,0.0,0.0,0.0,0.0,1310988,1310988,6620172,197388,0,0,895,2,1,2,0,4,0,0,0,0,0,0,0
830700000,830620000,0.00018149591,0.0042608506,0.00090157473,67109399,0,0.055911206,0.059955716,0.014128142,0.0020471013,0.00131955,0.0011621132,0.0,0.0,0.0,0.0,1310988,1310988,6620172,197388,0,0,895,2,1,2,0,4,0,0,0,0,0,0,0
830708000,830628000,0.0001829055,0.0041849064,0.0009105347,67109399,0,0.055911265,0.059955746,0.014128142,0.0020471013,0.00131955,0.0011621132,0.0,0.0,0.0,0.0,1310988,1310988,6620172,197388,0,0,895,2,1,2,0,4,0,0,0,0,0,0,0
830716000,830636000,0.00018450801,0.004111513,0.0009199005,67109399,0,0.055911373,0.05994701,0.014128142,0.0020471013,0.00131955,0.0021986868,0.0,0.0,0.0,0.0,1310988,1310988,6620172,197388,0,0,895,2,1,2,0,4,0,0,0,0,0,0,0
830724000,830644000,0.0001858996,0.004041119,0.00093011576,67109399,0,0.055911537,0.059947096,0.014128142,0.0020471013,0.00131955,0.0021986868,0.0,0.0,0.0,0.0,1310988,1310988,6620172,197388,0,0,895,2,1,2,0,4,0,0,0,0,0,0,0
830732000,830652000,0.00024266343,0.003972923,0.00094144297,67109399,0,0.055911787,0.059947222,0.031053627,0.0020471013,0.00131955,0.0021986868,0.0,0.0,0.0,0.0,1310988,1310988,6620172,197388,0,0,895,2,1,2,0,4,0,0,0,0,0,0,0
830740000,830660000,0.00024209196,0.003907444,0.0009523389,67109399,0,0.05591214,0.059947398,0.031053627,0.0020471013,0.00131955,0.0021986868,0.0,0.0,0.0,0.0,1310988,1310988,6620172,197388,0,0,895,2,1,2,0,4,0,0,0,0,0,0,0
830748000,830668000,0.00024000063,0.0038459755,0.00096390455,67109399,0,0.05591261,0.059947636,0.031053627,0.0020471013,0.00131955,0.0021986868,0.0,0.0,0.0,0.0,1310988,1310988,6620172,197388,0,0,895,2,1,2,0,4,0,0,0,0,0,0,0
830756000,830676000,0.00023807122,0.003786961,0.00097568997,67109399,0,0.055913217,0.059947938,0.031053627,0.0020471013,0.00131955,0.0021986868,0.0,0.0,0.0,0.0,1310988,1310988,6620172,197388,0,0,895,2,1,2,0,4,0,0,0,0,0,0,0
830764000,830684000,0.00023603934,0.003726415,0.0009874834,67109399,0,0.05591399,0.05994832,0.031053627,0.0020471013,0.00131955,0.0021986868,0.0,0.0,0.0,0.0,1310988,1310988,6620172,197388,0,0,895,2,1,2,0,4,0,0,0,0,0,0,0
830772000,830692000,0.00022713696,0.003665456,0.0009986175,67109399,0,0.055914935,0.05994,0.031053627,0.0020471013,0.00131955,0.0049091224,0.0,0.0,0.0,0.0,1310988,1310988,6620172,197388,0,0,895,2,1,2,0,4,0,0,0,0,0,0,0
830780000,830700000,0.000218229,0.0036058018,0.0010095768,67109399,0,0.05591608,0.059940565,0.031053627,0.0020471013,0.00131955,0.0049091224,0.0,0.0,0.0,0.0,1310988,1310988,6620172,197388,0,0,895,2,1,2,0,4,0,0,0,0,0,0,0
830788000,830708000,0.0002092524,0.0035490044,0.0010195661,67109399,0,0.05591744,0.059941243,0.031053627,0.0020471013,0.00131955,0.0049091224,0.0,0.0,0.0,0.0,1310988,1310988,6620172,197388,0,0,895,2,1,2,0,4,0,0,0,0,0,0,0
830796000,830716000,0.00020035812,0.00349363,0.0010284452,67109399,0,0.055919047,0.059942037,0.031053627,0.0020471013,0.00131955,0.0049091224,0.0,0.0,0.0,0.0,1310988,1310988,6620172,197388,0,0,895,2,1,2,0,4,0,0,0,0,0,0,0
830804000,830724000,0.00022868454,0.00343931,0.0010377178,67109399,0,0.05592091,0.05994296,0.01794413,0.0020471013,0.00131955,0.0049091224,0.0,0.0,0.0,0.0,1310988,1310988,6620172,197388,0,0,895,2,1,2,0,4,0,0,0,0,0,0,0
830812000,830732000,0.00022028066,0.0033880943,0.001045566,67109399,0,0.05592306,0.059944022,0.01794413,0.0020471013,0.00131955,0.0049091224,0.0,0.0,0.0,0.0,1310988,1310988,6620172,197388,0,0,895,2,1,2,0,4,0,0,0,0,0,0,0
830820000,830740000,0.0002082353,0.0033391563,0.0010530149,67109399,0,0.055925507,0.059945233,0.01794413,0.0020471013,0.00131955,0.0049091224,0.0,0.0,0.0,0.0,1310988,1310988,6620172,197388,0,0,895,2,1,2,0,4,0,0,0,0,0,0,0
830828000,830748000,0.00019641248,0.0032914572,0.001059423,67109399,0,0.055928275,0.059946608,0.01794413,0.0020471013,0.00131955,0.0049091224,0.0,0.0,0.0,0.0,1310988,1310988,6620172,197388,0,0,895,2,1,2,0,4,0,0,0,0,0,0,0
830836000,830756000,0.00018479548,0.003244721,0.0010655008,67109399,0,0.055931393,0.059939362,0.01794413,0.0020471013,0.00131955,0.0038472663,0.0,0.0,0.0,0.0,1310988,1310988,6620172,197388,0,0,895,2,1,2,0,4,0,0,0,0,0,0,0
830844000,830764000,0.00017338163,0.0032001147,0.00107109,67109399,0,0.05593488,0.05994109,0.01794413,0.0020471013,0.00131955,0.0038472663,0.0,0.0,0.0,0.0,1310988,1310988,6620172,197388,0,0,895,2,1,2,0,4,0,0,0,0,0,0,0
830852000,830772000,0.00016205908,0.0031570245,0.001075869,67109399,0,0.05593875,0.059943013,0.01794413,0.0020471013,0.00131955,0.0038472663,0.0,0.0,0.0,0.0,1310988,1310988,6620172,197388,0,0,895,2,1,2,0,4,0,0,0,0,0,0,0
830860000,830780000,0.00015134268,0.0031142707,0.0010801476,67109399,0,0.05594304,0.059945144,0.01794413,0.0020471013,0.00131955,0.0038472663,0.0,0.0,0.0,0.0,1310988,1310988,6620172,197388,0,0,895,2,1,2,0,4,0,0,0,0,0,0,0
830868000,830788000,0.00014103927,0.0030723251,0.0010835653,67109399,0,0.055947755,0.059947494,0.01794413,0.0020471013,0.00131955,0.0038472663,0.0,0.0,0.0,0.0,1310988,1310988,6620172,197388,0,0,895,2,1,2,0,4,0,0,0,0,0,0,0
830876000,830796000,0.0001853685,0.0030325393,0.0010867618,67109399,0,0.055952933,0.059950072,0.021080155,0.0020471013,0.00131955,0.0038472663,0.0,0.0,0.0,0.0,1310988,1310988,6620172,197388,0,0,895,2,1,2,0,4,0,0,0,0,0,0,0
830884000,830804000,0.00017678138,0.0029956433,0.0010893638,67109399,0,0.055958584,0.059952892,0.021080155,0.0020471013,0.00131955,0.0038472663,0.0,0.0,0.0,0.0,1310988,1310988,6620172,197388,0,0,895,2,1,2,0,4,0,0,0,0,0,0,0
830892000,830812000,0.00023620274,0.0034800817,0.00096199685,67109399,0,0.055925038,0.059926998,0.021080155,0.0020471013,0.00131955,0.003392185,0.0,0.0,0.0,0.0,1310988,1310988,6620172,197388,0,0,895,2,1,2,0,4,0,0,0,0,0,0,0
830900000,830820000,0.0002341851,0.0034067885,0.0009625289,67109399,0,0.055925068,0.059927013,0.021080155,0.0020471013,0.00131955,0.003392185,0.0,0.0,0.0,0.0,1310988,1310988,6620172,197388,0,0,895,2,1,2,0,4,0,0,0,0,0,0,0
830908000,830828000,0.00023262079,0.0033364238,0.00096274115,67109399,0,0.0559251,0.05992703,0.021080155,0.0020471013,0.00131955,0.003392185,0.0,0.0,0.0,0.0,1310988,1310988,6620172,197388,0,0,895,2,1,2,0,4,0,0,0,0,0,0,0
830916000,830836000,0.00023159117,0.003269723,0.0009632834,67109399,0,0.055925164,0.059927065,0.021080155,0.0020471013,0.00131955,0.003392185,0.0,0.0,0.0,0.0,1310988,1310988,6620172,197388,0,0,895,2,1,2,0,4,0,0,0,0,0,0,0
830924000,830844000,0.00023084036,0.0032060845,0.00096392474,67109399,0,0.055925272,0.05992712,0.021080155,0.0020471013,0.00131955,0.003392185,0.0,0.0,0.0,0.0,1310988,1310988,6620172,197388,0,0,895,2,1,2,0,4,0,0,0,0,0,0,0
830932000,830852000,0.00023038391,0.0031452395,0.00096541096,67109399,0,0.05592544,0.05992721,0.021080155,0.0020471013,0.00131955,0.003392185,0.0,0.0,0.0,0.0,1310988,1310988,6620172,197388,0,0,895,2,1,2,0,4,0,0,0,0,0,0,0
830940000,830860000,0.00023006661,0.003085609,0.0009671498,67109399,0,0.05592569,0.059927337,0.021080155,0.0020471013,0.00131955,0.003392185,0.0,0.0,0.0,0.0,1310988,1310988,6620172,197388,0,0,895,2,1,2,0,4,0,0,0,0,0,0,0
830948000,830868000,0.00024025752,0.0030293057,0.00096847815,67109399,0,0.055926044,0.059927512,0.007619617,0.0020471013,0.00131955,0.003392185,0.0,0.0,0.0,0.0,1310988,1310988,6620172,197388,0,0,895,2,1,2,0,4,0,0,0,0,0,0,0
830956000,830876000,0.00023966267,0.0029763207,0.00096733036,67109399,0,0.055926513,0.059918966,0.007619617,0.0020471013,0.00131955,0.0043014763,0.0,0.0,0.0,0.0,1310988,1310988,6620172,197388,0,0,895,2,1,2,0,4,0,0,0,0,0,0,0
830964000,830884000,0.00023786524,0.0029250095,0.0009695882,67109399,0,0.05592712,0.059919268,0.007619617,0.0020471013,0.00131955,0.0043014763,0.0,0.0,0.0,0.0,1310988,1310988,6620172,197388,0,0,895,2,1,2,0,4,0,0,0,0,0,0,0
830972000,830892000,0.00023616159,0.0028759104,0.0009717332,67109399,0,0.05592789,0.05991965,0.007619617,0.0020471013,0.00131955,0.0043014763,0.0,0.0,0.0,0.0,1310988,1310988,6620172,197388,0,0,895,2,1,2,0,4,0,0,0,0,0,0,0
830980000,830900000,0.00022533571,0.0028275526,0.0009741587,67109399,0,0.055928838,0.05992012,0.007619617,0.0020471013,0.00131955,0.0043014763,0.0,0.0,0.0,0.0,1310988,1310988,6620172,197388,0,0,895,2,1,2,0,4,0,0,0,0,0,0,0
830988000,830908000,0.00021439543,0.0027813776,0.000976657,67109399,0,0.05592998,0.05992069,0.007619617,0.0020471013,0.00131955,0.0043014763,0.0,0.0,0.0,0.0,1310988,1310988,6620172,197388,0,0,895,2,1,2,0,4,0,0,0,0,0,0,0
830996000,830916000,0.00020343078,0.0027364579,0.0009788135,67109399,0,0.055931345,0.059921365,0.007619617,0.0020471013,0.00131955,0.0043014763,0.0,0.0,0.0,0.0,1310988,1310988,6620172,197388,0,0,895,2,1,2,0,4,0,0,0,0,0,0,0
831004000,830924000,0.00019244301,0.002691309,0.00096897053,67109399,0,0.055889245,0.05992216,0.007619617,0.004223251,0.001283429,0.0043014763,0.0,0.0,0.0,0.0,1310988,1310988,6620172,197388,0,0,895,2,1,2,0,4,0,0,0,0,0,0,0
831012000,830932000,0.00018137842,0.0026489978,0.00096698944,67109399,0,0.055891104,0.059914302,0.007619617,0.004223251,0.001283429,0.0041462956,0.0,0.0,0.0,0.0,1310988,1310988,6620172,197388,0,0,895,2,1,2,0,4,0,0,0,0,0,0,0
831020000,830940000,0.00015773662,0.0026082047,0.0009696301,67109399,0,0.055893246,0.059915364,0.026637612,0.004223251,0.001283429,0.0041462956,0.0,0.0,0.0,0.0,1310988,1310988,6620172,197388,0,0,895,2,1,2,0,4,0,0,0,0,0,0,0
831028000,830948000,0.00014829458,0.0025693104,0.00097217434,67109399,0,0.055895686,0.059916575,0.026637612,0.004223251,0.001283429,0.0041462956,0.0,0.0,0.0,0.0,1310988,1310988,6620172,197388,0,0,895,2,1,2,0,4,0,0,0,0,0,0,0
831036000,830956000,0.00013909095,0.0025317457,0.00097354327,67109399,0,0.055898454,0.05991795,0.026637612,0.004223251,0.001283429,0.0041462956,0.0,0.0,0.0,0.0,1310988,1310988,6620172,197388,0,0,895,2,1,2,0,4,0,0,0,0,0,0,0
831044000,830964000,0.00013006822,0.0024955804,0.0009758878,67109399,0,0.05590157,0.059919495,0.026637612,0.004223251,0.001283429,0.0041462956,0.0,0.0,0.0,0.0,1310988,1310988,6620172,197388,0,0,895,2,1,2,0,4,0,0,0,0,0,0,0
831052000,830972000,0.00012125405,0.0024607547,0.0009769485,67109399,0,0.055905048,0.059921224,0.026637612,0.004223251,0.001283429,0.0041462956,0.0,0.0,0.0,0.0,1310988,1310988,6620172,197388,0,0,895,2,1,2,0,4,0,0,0,0,0,0,0
831060000,830980000,0.000112641894,0.002427687,0.0009784867,67109399,0,0.055908915,0.05992315,0.026637612,0.004223251,0.001283429,0.0041462956,0.0,0.0,0.0,0.0,1310988,1310988,6620172,197388,0,0,895,2,1,2,0,4,0,0,0,0,0,0,0
831068000,830988000,0.00010488666,0.002396068,0.0009794681,67109399,0,0.055913195,0.059925277,0.026637612,0.004223251,0.001283429,0.0041462956,0.0,0.0,0.0,0.0,1310988,1310988,6620172,197388,0,0,895,2,1,2,0,4,0,0,0,0,0,0,0
831076000,830996000,9.790771e-05,0.0023655377,0.0009821927,67109399,0,0.055917908,0.059918843,0.026637612,0.004223251,0.001283429,0.0012893967,0.0,0.0,0.0,0.0,1310988,1310988,6620172,197388,0,0,895,2,1,2,0,4,0,0,0,0,0,0,0
831084000,831004000,7.8485464e-05,0.0023367389,0.0009826096,67109399,0,0.05592308,0.05992142,0.016958443,0.004223251,0.001283429,0.0012893967,0.0,0.0,0.0,0.0,1310988,1310988,6620172,197388,0,0,895,2,1,2,0,4,0,0,0,0,0,0,0
831092000,831012000,7.006732e-05,0.002308947,0.000982991,67109399,0,0.055928726,0.05992424,0.016958443,0.004223251,0.001283429,0.0012893967,0.0,0.0,0.0,0.0,1310988,1310988,6620172,197388,0,0,895,2,1,2,0,4,0,0,0,0,0,0,0
831100000,831020000,0.00015680185,0.0053896937,0.0012682504,67109399,0,0.05589524,0.059907146,0.016958443,0.004223251,0.001283429,0.0012893967,0.0,0.0,0.0,0.0,1310988,1310988,6620172,197388,0,0,895,2,1,2,0,4,0,0,0,0,0,0,0
831108000,831028000,0.00015437588,0.005267421,0.0012808173,67109399,0,0.055895265,0.05990716,0.016958443,0.004223251,0.001283429,0.0012893967,0.0,0.0,0.0,0.0,1310988,1310988,6620172,197388,0,0,895,2,1,2,0,4,0,0,0,0,0,0,0
831116000,831036000,0.0001524567,0.005149535,0.0012928064,67109399,0,0.055895302,0.05990718,0.016958443,0.004223251,0.001283429,0.0012893967,0.0,0.0,0.0,0.0,1310988,1310988,6620172,197388,0,0,895,2,1,2,0,4,0,0,0,0,0,0,0
831124000,831044000,0.00015099856,0.005033935,0.0013043982,67109399,0,0.055895366,0.059907213,0.016958443,0.004223251,0.001283429,0.0012893967,0.0,0.0,0.0,0.0,1310988,1310988,6620172,197388,0,0,895,2,1,2,0,4,0,0,0,0,0,0,0
831132000,831052000,0.00014993353,0.004922432,0.0013192686,67109399,0,0.05589547,0.059898496,0.016958443,0.004223251,0.001283429,0.0074896603,0.0,0.0,0.0,0.0,1310988,1310988,6620172,197388,0,0,895,2,1,2,0,4,0,0,0,0,0,0,0
831140000,831060000,0.00014923711,0.0048146113,0.0013296884,67109399,0,0.05589564,0.05989858,0.016958443,0.004223251,0.001283429,0.0074896603,0.0,0.0,0.0,0.0,1310988,1310988,6620172,197388,0,0,895,2,1,2,0,4,0,0,0,0,0,0,0
831148000,831068000,0.00014884856,0.004709932,0.0013388981,67109399,0,0.05589589,0.059898708,0.016958443,0.004223251,0.001283429,0.0074896603,0.0,0.0,0.0,0.0,1310988,1310988,6620172,197388,0,0,895,2,1,2,0,4,0,0,0,0,0,0,0
831156000,831076000,0.00014909623,0.00460872,0.0013482701,67109399,0,0.05589624,0.059898887,0.0042141713,0.004223251,0.001283429,0.0074896603,0.0,0.0,0.0,0.0,1310988,1310988,6620172,197388,0,0,895,2,1,2,0,4,0,0,0,0,0,0,0
831164000,831084000,0.00014898797,0.004511281,0.0013568493,67109399,0,0.05589671,0.05989912,0.0042141713,0.004223251,0.001283429,0.0074896603,0.0,0.0,0.0,0.0,1310988,1310988,6620172,197388,0,0,895,2,1,2,0,4,0,0,0,0,0,0,0
831172000,831092000,0.0001491594,0.0044169542,0.0013649093,67109399,0,0.05589732,0.059899427,0.0042141713,0.004223251,0.001283429,0.0074896603,0.0,0.0,0.0,0.0,1310988,1310988,6620172,197388,0,0,895,2,1,2,0,4,0,0,0,0,0,0,0
831180000,831100000,0.00014938791,0.004325019,0.0013726267,67109399,0,0.05589809,0.059899807,0.0042141713,0.004223251,0.001283429,0.0074896603,0.0,0.0,0.0,0.0,1310988,1310988,6620172,197388,0,0,895,2,1,2,0,4,0,0,0,0,0,0,0
831188000,831108000,0.00014164156,0.0042360295,0.0013790751,67109399,0,0.055899035,0.05990028,0.0042141713,0.004223251,0.001283429,0.0074896603,0.0,0.0,0.0,0.0,1310988,1310988,6620172,197388,0,0,895,2,1,2,0,4,0,0,0,0,0,0,0
831196000,831116000,0.00013393446,0.0041488474,0.0013844258,67109399,0,0.055900183,0.059892073,0.0042141713,0.004223251,0.001283429,0.0005483642,0.0,0.0,0.0,0.0,1310988,1310988,6620172,197388,0,0,895,2,1,2,0,4,0,0,0,0,0,0,0
831204000,831124000,0.00012624229,0.0040639113,0.0013885353,67109399,0,0.055901546,0.05989275,0.0042141713,0.004223251,0.001283429,0.0005483642,0.0,0.0,0.0,0.0,1310988,1310988,6620172,197388,0,0,895,2,1,2,0,4,0,0,0,0,0,0,0
831212000,831132000,0.00011855395,0.003982043,0.0013915128,67109399,0,0.05590315,0.059893545,0.0042141713,0.004223251,0.001283429,0.0005483642,0.0,0.0,0.0,0.0,1310988,1310988,6620172,197388,0,0,895,2,1,2,0,4,0,0,0,0,0,0,0
831220000,831140000,0.00011086927,0.0039023913,0.0013937799,67109399,0,0.055905018,0.05989447,0.0042141713,0.004223251,0.001283429,0.0005483642,0.0,0.0,0.0,0.0,1310988,1310988,6620172,197388,0,0,895,2,1,2,0,4,0,0,0,0,0,0,0
831228000,831148000,0.000103325765,0.0038258503,0.0013947309,67109399,0,0.055907164,0.059895534,0.0030014701,0.004223251,0.001283429,0.0005483642,0.0,0.0,0.0,0.0,1310988,1310988,6620172,197388,0,0,895,2,1,2,0,4,0,0,0,0,0,0,0
831236000,831156000,9.567239e-05,0.0037505329,0.0013949098,67109399,0,0.05590961,0.059896745,0.0030014701,0.004223251,0.001283429,0.0005483642,0.0,0.0,0.0,0.0,1310988,1310988,6620172,197388,0,0,895,2,1,2,0,4,0,0,0,0,0,0,0
831244000,831164000,8.803771e-05,0.0036758867,0.0013937503,67109399,0,0.055912383,0.05989812,0.0030014701,0.004223251,0.001283429,0.0005483642,0.0,0.0,0.0,0.0,1310988,1310988,6620172,197388,0,0,895,2,1,2,0,4,0,0,0,0,0,0,0
831252000,831172000,8.039014e-05,0.0036039713,0.0013966694,67109399,0,0.055915505,0.059890896,0.0030014701,0.004223251,0.001283429,0.006894219,0.0,0.0,0.0,0.0,1310988,1310988,6620172,197388,0,0,895,2,1,2,0,4,0,0,0,0,0,0,0
831260000,831180000,7.27271e-05,0.003534608,0.0013938783,67109399,0,0.055918988,0.05989263,0.0030014701,0.004223251,0.001283429,0.006894219,0.0,0.0,0.0,0.0,1310988,1310988,6620172,197388,0,0,895,2,1,2,0,4,0,0,0,0,0,0,0
831268000,831188000,6.510849e-05,0.0034673268,0.0013904109,67109399,0,0.055922866,0.059894554,0.0030014701,0.004223251,0.001283429,0.006894219,0.0,0.0,0.0,0.0,1310988,1310988,6620172,197388,0,0,895,2,1,2,0,4,0,0,0,0,0,0,0
831276000,831196000,5.7888283e-05,0.0034008557,0.0013863147,67109399,0,0.05592715,0.059896685,0.0030014701,0.004223251,0.001283429,0.006894219,0.0,0.0,0.0,0.0,1310988,1310988,6620172,197388,0,0,895,2,1,2,0,4,0,0,0,0,0,0,0
831284000,831204000,5.1100935e-05,0.0033363798,0.0013818243,67109399,0,0.05593187,0.059899036,0.0030014701,0.004223251,0.001283429,0.006894219,0.0,0.0,0.0,0.0,1310988,1310988,6620172,197388,0,0,895,2,1,2,0,4,0,0,0,0,0,0,0
831292000,831212000,4.4789285e-05,0.0032748275,0.0013769446,67109399,0,0.055937048,0.059901617,0.0030014701,0.004223251,0.001283429,0.006894219,0.0,0.0,0.0,0.0,1310988,1310988,6620172,197388,0,0,895,2,1,2,0,4,0,0,0,0,0,0,0
831300000,831220000,6.5570384e-05,0.0032144622,0.0013710748,67109399,0,0.055942703,0.05990444,0.015240307,0.004223251,0.001283429,0.006894219,0.0,0.0,0.0,0.0,1310988,1310988,6620172,197388,0,0,895,2,1,2,0,4,0,0,0,0,0,0,0
831308000,831228000,0.00018666973,0.0066291564,0.0016878262,67109399,0,0.055909142,0.05988732,0.015240307,0.004223251,0.001283429,0.006894219,0.0,0.0,0.0,0.0,1310988,1310988,6620172,197388,0,0,895,2,1,2,0,4,0,0,0,0,0,0,0
831316000,831236000,0.00018301269,0.006472373,0.001699128,67109399,0,0.055909168,0.05987857,0.015240307,0.004223251,0.001283429,0.00069308357,0.0,0.0,0.0,0.0,1310988,1310988,6620172,197388,0,0,895,2,1,2,0,4,0,0,0,0,0,0,0
831324000,831244000,0.00017978318,0.006320229,0.0017080522,67109399,0,0.055909205,0.059878588,0.015240307,0.004223251,0.001283429,0.00069308357,0.0,0.0,0.0,0.0,1310988,1310988,6620172,197388,0,0,895,2,1,2,0,4,0,0,0,0,0,0,0
831332000,831252000,0.00017694698,0.0061724847,0.0017171144,67109399,0,0.05590927,0.05987862,0.015240307,0.004223251,0.001283429,0.00069308357,0.0,0.0,0.0,0.0,1310988,1310988,6620172,197388,0,0,895,2,1,2,0,4,0,0,0,0,0,0,0
831340000,831260000,0.00017444859,0.006030314,0.0017235492,67109399,0,0.055909373,0.059878677,0.015240307,0.004223251,0.001283429,0.00069308357,0.0,0.0,0.0,0.0,1310988,1310988,6620172,197388,0,0,895,2,1,2,0,4,0,0,0,0,0,0,0
831348000,831268000,0.00017230146,0.00589163,0.0017316444,67109399,0,0.055909544,0.059878763,0.015240307,0.004223251,0.001283429,0.00069308357,0.0,0.0,0.0,0.0,1310988,1310988,6620172,197388,0,0,895,2,1,2,0,4,0,0,0,0,0,0,0
831356000,831276000,0.00017040169,0.0057558143,0.0017382957,67109399,0,0.055909794,0.05987889,0.015240307,0.004223251,0.001283429,0.00069308357,0.0,0.0,0.0,0.0,1310988,1310988,6620172,197388,0,0,895,2,1,2,0,4,0,0,0,0,0,0,0
831364000,831284000,0.0001687818,0.0056240833,0.0017439618,67109399,0,0.055910144,0.05987907,0.015240307,0.004223251,0.001283429,0.00069308357,0.0,0.0,0.0,0.0,1310988,1310988,6620172,197388,0,0,895,2,1,2,0,4,0,0,0,0,0,0,0
831372000,831292000,0.00017648791,0.0054965178,0.0017472429,67109399,0,0.055910617,0.059870545,0.008898379,0.004223251,0.001283429,0.0011211389,0.0,0.0,0.0,0.0,1310988,1310988,6620172,197388,0,0,895,2,1,2,0,4,0,0,0,0,0,0,0
831380000,831300000,0.00017534308,0.0053721615,0.0017518804,67109399,0,0.055911224,0.059870847,0.008898379,0.004223251,0.001283429,0.0011211389,0.0,0.0,0.0,0.0,1310988,1310988,6620172,197388,0,0,895,2,1,2,0,4,0,0,0,0,0,0,0
