timestamp,timestamp_sample,lat,lon,alt,alt_ellipsoid,delta_alt,eph,epv,terrain_alt,lat_lon_reset_counter,alt_reset_counter,terrain_alt_valid,dead_reckoning
829260000,829260000,41.60669996391249,-86.35561551088156,229.27567,229.26926,-0.0,1.0015712,1.0018057,229.17548,2,0,1,0
829268000,829268000,41.606699963765884,-86.35561551112531,229.27567,229.26926,-0.0,1.0015712,1.0018058,229.17548,2,0,1,0
829276000,829276000,41.60669996361311,-86.35561551144217,229.27567,229.26926,-0.0,1.0015712,1.0018058,229.17548,2,0,1,0
829284000,829284000,41.606699963460606,-86.35561551178485,229.27567,229.26926,-0.0,1.0015712,1.0018052,229.17546,2,0,1,0
829292000,829292000,41.606699963296315,-86.35561551212035,229.27567,229.26926,-0.0,1.0015712,1.0018052,229.17546,2,0,1,0
829300000,829300000,41.60669996311942,-86.35561551244726,229.27567,229.26926,-0.0,1.0015713,1.0018052,229.17546,2,0,1,0
829308000,829308000,41.60669996297496,-86.35561551277702,229.27565,229.26924,-0.0,1.0015713,1.0018053,229.17546,2,0,1,0
829316000,829316000,41.60669996278842,-86.35561551317993,229.27563,229.26923,-0.0,1.0015713,1.0018053,229.17545,2,0,1,0
829324000,829324000,41.60669996258499,-86.35561551360719,229.27562,229.26921,-0.0,1.0015714,1.0018053,229.17543,2,0,1,0
829332000,829332000,41.60669996237111,-86.35561551402442,229.2756,229.2692,-0.0,1.0015714,1.0018054,229.17543,2,0,1,0
829340000,829340000,41.6066999621709,-86.35561551442015,229.27559,229.26918,-0.0,1.0015715,1.0018054,229.17543,2,0,1,0
829348000,829348000,41.60669996198141,-86.35561551480728,229.27557,229.26917,-0.0,1.0015717,1.001805,229.17542,2,0,1,0
829356000,829356000,41.606699961794334,-86.35561551523598,229.27554,229.26913,-0.0,1.0015718,1.001805,229.17542,2,0,1,0
829364000,829364000,41.606699961585015,-86.35561551569336,229.27551,229.2691,-0.0,1.0015719,1.0018051,229.17542,2,0,1,0
829372000,829372000,41.606699961374076,-86.35561551616077,229.27547,229.26906,-0.0,1.0015721,1.0018052,229.1754,2,0,1,0
829380000,829380000,41.60669996114331,-86.35561551661242,229.27544,229.26903,-0.0,1.0015723,1.0018053,229.1754,2,0,1,0
829388000,829388000,41.60669996090478,-86.35561551702965,229.2754,229.269,-0.0,1.0015725,1.0018053,229.17538,2,0,1,0
829396000,829396000,41.606699960644534,-86.35561551740243,229.27536,229.26895,-0.0,1.0015726,1.0018054,229.17535,2,0,1,0
829404000,829404000,41.60669996037732,-86.35561551774798,229.27533,229.26892,-0.0,1.0015728,1.0018051,229.17531,2,0,1,0
829412000,829412000,41.606699960107434,-86.35561551806771,229.2753,229.26889,-0.0,1.0015732,1.0018052,229.17528,2,0,1,0
829420000,829420000,41.60669995984423,-86.35561551839032,229.27527,229.26886,-0.0,1.0015734,1.0018053,229.17526,2,0,1,0
829428000,829428000,41.60669995958666,-86.35561551869573,229.27525,229.26884,-0.0,1.0015738,1.0018055,229.17523,2,0,1,0
829436000,829436000,41.60669995939316,-86.35561551893659,229.27524,229.26872,-0.0,1.0015694,1.0018045,229.17564,2,0,1,0
829444000,829444000,41.60669995920098,-86.3556155191961,229.27522,229.2687,-0.0,1.0015694,1.0018045,229.17564,2,0,1,0
829452000,829452000,41.60669995900398,-86.35561551943698,229.27522,229.2687,-0.0,1.0015694,1.0018045,229.17564,2,0,1,0
829460000,829460000,41.60669995882602,-86.35561551965493,229.27522,229.2687,-0.0,1.0015694,1.0018045,229.17564,2,0,1,0
829468000,829468000,41.6066999586427,-86.35561551986139,229.2752,229.26869,-0.0,1.0015694,1.001804,229.17563,2,0,1,0
829476000,829476000,41.60669995843632,-86.35561552009652,229.2752,229.26869,-0.0,1.0015695,1.001804,229.17563,2,0,1,0
829484000,829484000,41.60669995823531,-86.35561552036322,229.27519,229.26868,-0.0,1.0015695,1.001804,229.17563,2,0,1,0
829492000,829492000,41.60669995804019,-86.35561552065285,229.27519,229.26868,-0.0,1.0015695,1.001804,229.17563,2,0,1,0
829500000,829500000,41.60669995785124,-86.3556155209654,229.27518,229.26866,-0.0,1.0015695,1.001804,229.17563,2,0,1,0
829508000,829508000,41.60669995762986,-86.35561552128802,229.27518,229.26866,-0.0,1.0015695,1.001804,229.17564,2,0,1,0
829516000,829516000,41.60669995738515,-86.35561552159054,229.27518,229.26866,-0.0,1.0015696,1.0018041,229.17564,2,0,1,0
829524000,829524000,41.60669995715734,-86.35561552185005,229.27519,229.26868,-0.0,1.0015696,1.0018035,229.17561,2,0,1,0
829532000,829532000,41.606699956931934,-86.35561552209954,229.2752,229.26869,-0.0,1.0015697,1.0018036,229.17563,2,0,1,0
829540000,829540000,41.60669995668455,-86.35561552237196,229.27522,229.2687,-0.0,1.0015697,1.0018036,229.17563,2,0,1,0
829548000,829548000,41.606699956430205,-86.35561552265872,229.27524,229.26872,-0.0,1.0015699,1.0018036,229.17564,2,0,1,0
829556000,829556000,41.60669995614584,-86.35561552295981,229.27525,229.26874,-0.0,1.00157,1.0018038,229.17564,2,0,1,0
829564000,829564000,41.60669995582716,-86.35561552326378,229.27527,229.26875,-0.0,1.0015701,1.0018038,229.17564,2,0,1,0
829572000,829572000,41.606699955553516,-86.35561552358637,229.2753,229.26878,-0.0,1.0015702,1.0018039,229.17564,2,0,1,0
829580000,829580000,41.60669995532704,-86.35561552392618,229.27531,229.2688,-0.0,1.0015703,1.001804,229.17564,2,0,1,0
829588000,829588000,41.60669995512442,-86.35561552429466,229.27534,229.26883,-0.0,1.0015706,1.0018035,229.17564,2,0,1,0
829596000,829596000,41.606699954958785,-86.35561552466459,229.27538,229.26886,-0.0,1.0015707,1.0018036,229.17566,2,0,1,0
829604000,829604000,41.606699954821025,-86.3556155250388,229.2754,229.26889,-0.0,1.0015709,1.0018038,229.17566,2,0,1,0
829612000,829612000,41.60669995467656,-86.35561552539151,229.27544,229.26892,-0.0,1.0015712,1.0018039,229.17567,2,0,1,0
829620000,829620000,41.60669995452915,-86.35561552571986,229.27545,229.26894,-0.0,1.0015714,1.001804,229.17569,2,0,1,0
829628000,829628000,41.606699954390585,-86.35561552602239,229.27547,229.26895,-0.0,1.0015718,1.0018041,229.1757,2,0,1,0
829636000,829636000,41.606699954278554,-86.35561552629768,229.2755,229.26898,-0.0,1.0015721,1.0018044,229.17572,2,0,1,0
829644000,829644000,41.6066999542748,-86.35561552656722,229.27551,229.269,-0.0,1.0015702,1.0018028,229.17549,2,0,1,0
829652000,829652000,41.606699954254424,-86.35561552681096,229.27553,229.26901,-0.0,1.0015702,1.0018028,229.17549,2,0,1,0
829660000,829660000,41.60669995422977,-86.3556155270246,229.27554,229.26903,-0.0,1.0015702,1.0018028,229.17549,2,0,1,0
829668000,829668000,41.606699954215564,-86.3556155272153,229.27556,229.26904,-0.0,1.0015702,1.0018028,229.17549,2,0,1,0
829676000,829676000,41.606699954174296,-86.35561552740026,229.27557,229.26906,-0.0,1.0015702,1.0018028,229.17549,2,0,1,0
829684000,829684000,41.60669995411345,-86.35561552760242,229.27557,229.26906,-0.0,1.0015702,1.0018028,229.17549,2,0,1,0
829692000,829692000,41.60669995403305,-86.3556155278218,229.27557,229.26906,-0.0,1.0015702,1.0018028,229.17549,2,0,1,0
829700000,829700000,41.606699953923155,-86.35561552804548,229.27556,229.26904,-0.0,1.0015702,1.0018028,229.17548,2,0,1,0
829708000,829708000,41.60669995382265,-86.35561552822756,229.27556,229.26904,-0.0,1.0015703,1.0018023,229.17543,2,0,1,0
829716000,829716000,41.606699953762345,-86.35561552839674,229.27556,229.26904,-0.0,1.0015703,1.0018023,229.17543,2,0,1,0
829724000,829724000,41.60669995371732,-86.35561552857884,229.27554,229.26903,-0.0,1.0015703,1.0018023,229.17542,2,0,1,0
829732000,829732000,41.606699953674166,-86.35561552876523,229.27554,229.26903,-0.0,1.0015705,1.0018023,229.17542,2,0,1,0
829740000,829740000,41.60669995362405,-86.35561552896023,229.27553,229.26901,-0.0,1.0015705,1.0018023,229.1754,2,0,1,0
829748000,829748000,41.60669995357741,-86.35561552915809,229.2755,229.26898,-0.0,1.0015706,1.0018024,229.1754,2,0,1,0
829756000,829756000,41.60669995354901,-86.35561552937028,229.2755,229.26898,-0.0,1.0015707,1.0018024,229.17538,2,0,1,0
829764000,829764000,41.606699953546595,-86.35561552956815,229.27548,229.26897,-0.0,1.0015707,1.001802,229.17538,2,0,1,0
829772000,829772000,41.60669995356723,-86.35561552977175,229.27547,229.26895,-0.0,1.0015708,1.0018021,229.17535,2,0,1,0
829780000,829780000,41.60669995360341,-86.35561552998969,229.27545,229.26894,-0.0,1.001571,1.0018021,229.17534,2,0,1,0
829788000,829788000,41.60669995366291,-86.35561553018898,229.27542,229.2689,-0.0,1.0015712,1.0018022,229.17531,2,0,1,0
829796000,829796000,41.60669995374144,-86.35561553037537,229.2754,229.26883,-0.0,1.0015689,1.0018023,229.1753,2,0,1,0
829804000,829804000,41.6066999538122,-86.35561553060765,229.27538,229.2688,-0.0,1.001569,1.0018024,229.17526,2,0,1,0
829812000,829812000,41.60669995386553,-86.35561553087291,229.27534,229.26877,-0.0,1.0015693,1.0018026,229.17525,2,0,1,0
829820000,829820000,41.606699953920206,-86.35561553113672,229.27531,229.26874,-0.0,1.0015695,1.0018027,229.17522,2,0,1,0
829828000,829828000,41.606699953976225,-86.3556155313819,229.2753,229.26872,-0.0,1.0015697,1.0018022,229.17517,2,0,1,0
829836000,829836000,41.60669995403359,-86.35561553163998,229.27528,229.2687,-0.0,1.0015701,1.0018024,229.17514,2,0,1,0
829844000,829844000,41.606699954104066,-86.35561553189807,229.27527,229.26869,-0.0,1.0015703,1.0018026,229.17513,2,0,1,0
829852000,829852000,41.60669995416518,-86.35561553215327,229.27525,229.26868,-0.0,1.0015686,1.0018016,229.17548,2,0,1,0
829860000,829860000,41.6066999542102,-86.35561553241423,229.27524,229.26866,-0.0,1.0015686,1.0018016,229.17546,2,0,1,0
829868000,829868000,41.606699954246125,-86.35561553267804,229.27522,229.26865,-0.0,1.0015686,1.0018016,229.17546,2,0,1,0
829876000,829876000,41.606699954315005,-86.35561553290889,229.27522,229.26865,-0.0,1.0015686,1.0018016,229.17546,2,0,1,0
829884000,829884000,41.60669995442462,-86.35561553311821,229.2752,229.26863,-0.0,1.0015686,1.001801,229.17543,2,0,1,0
829892000,829892000,41.606699954544965,-86.35561553332039,229.2752,229.26863,-0.0,1.0015686,1.001801,229.17542,2,0,1,0
829900000,829900000,41.606699954646274,-86.35561553353402,229.27519,229.26862,-0.0,1.0015686,1.001801,229.17542,2,0,1,0
829908000,829908000,41.606699954736065,-86.35561553374048,229.27519,229.26862,-0.0,1.0015686,1.001801,229.17542,2,0,1,0
829916000,829916000,41.606699954860424,-86.35561553395411,229.27519,229.26862,-0.0,1.0015686,1.001801,229.17543,2,0,1,0
829924000,829924000,41.606699955018286,-86.35561553417348,229.27518,229.2686,-0.0,1.0015687,1.0018011,229.17543,2,0,1,0
829932000,829932000,41.60669995519008,-86.35561553440003,229.27518,229.2686,-0.0,1.0015687,1.0018011,229.17543,2,0,1,0
829940000,829940000,41.60669995538011,-86.35561553459645,229.27518,229.2686,-0.0,1.0015687,1.0018011,229.17542,2,0,1,0
829948000,829948000,41.606699955588624,-86.3556155347341,229.27518,229.2686,-0.0,1.0015688,1.0018007,229.1754,2,0,1,0
829956000,829956000,41.60669995578562,-86.35561553483733,229.27519,229.26862,-0.0,1.0015689,1.0018007,229.1754,2,0,1,0
829964000,829964000,41.60669995599896,-86.35561553491905,229.27519,229.26862,-0.0,1.0015689,1.0018008,229.1754,2,0,1,0
829972000,829972000,41.60669995623562,-86.35561553499649,229.27519,229.26862,-0.0,1.001569,1.0018008,229.1754,2,0,1,0
829980000,829980000,41.60669995648354,-86.35561553509541,229.27519,229.26862,-0.0,1.0015692,1.0018009,229.1754,2,0,1,0
829988000,829988000,41.60669995675317,-86.35561553523593,229.27518,229.2686,-0.0,1.0015693,1.0018009,229.1754,2,0,1,0
829996000,829996000,41.606699957010996,-86.35561553540369,229.27516,229.26859,-0.0,1.0015695,1.001801,229.1754,2,0,1,0
830004000,830004000,41.6066999572549,-86.35561553557717,229.27515,229.26854,-0.0,1.0015671,1.0018005,229.1754,2,0,1,0
830012000,830012000,41.60669995749585,-86.35561553573201,229.27515,229.26854,-0.0,1.0015674,1.0018007,229.1754,2,0,1,0
830020000,830020000,41.60669995774993,-86.35561553589261,229.27515,229.26854,-0.0,1.0015676,1.0018008,229.1754,2,0,1,0
830028000,830028000,41.60669995801151,-86.35561553607613,229.27515,229.26854,-0.0,1.0015678,1.0018009,229.17542,2,0,1,0
830036000,830036000,41.606699958277396,-86.35561553628116,229.27515,229.26854,-0.0,1.0015681,1.001801,229.17542,2,0,1,0
830044000,830044000,41.606699958552916,-86.35561553650483,229.27513,229.26852,-0.0,1.0015684,1.0018013,229.17542,2,0,1,0
830052000,830052000,41.606699958848004,-86.35561553672851,229.27513,229.26852,-0.0,1.0015687,1.0018009,229.1754,2,0,1,0
830060000,830060000,41.606699959101554,-86.35561553693785,229.27513,229.26852,-0.0,1.0015669,1.0017998,229.17546,2,0,1,0
830068000,830068000,41.606699959334456,-86.35561553716437,229.27512,229.26851,-0.0,1.0015669,1.0017998,229.17546,2,0,1,0
830076000,830076000,41.606699959564146,-86.35561553740526,229.2751,229.2685,-0.0,1.0015669,1.0017998,229.17545,2,0,1,0
830084000,830084000,41.60669995981903,-86.35561553761458,229.2751,229.2685,-0.0,1.0015669,1.0017998,229.17545,2,0,1,0
830092000,830092000,41.60669996006963,-86.35561553778521,229.2751,229.2685,-0.0,1.0015669,1.0017998,229.17543,2,0,1,0
830100000,830100000,41.60669996029208,-86.35561553792716,229.2751,229.2685,-0.0,1.0015669,1.0017998,229.17543,2,0,1,0
830108000,830108000,41.60669996049632,-86.35561553805333,229.27509,229.26848,-0.0,1.0015669,1.0017998,229.17543,2,0,1,0
830116000,830116000,41.606699960687145,-86.35561553817807,229.27509,229.26848,-0.0,1.0015669,1.0017993,229.1754,2,0,1,0
830124000,830124000,41.60669996085948,-86.35561553832719,229.27507,229.26846,-0.0,1.0015669,1.0017993,229.17538,2,0,1,0
830132000,830132000,41.6066999610219,-86.3556155384849,229.27507,229.26846,-0.0,1.0015669,1.0017993,229.17538,2,0,1,0
830140000,830140000,41.60669996121809,-86.35561553863688,229.27507,229.26846,-0.0,1.001567,1.0017993,229.17537,2,0,1,0
830148000,830148000,41.60669996143144,-86.35561553880464,229.27507,229.26846,-0.0,1.001567,1.0017995,229.17535,2,0,1,0
830156000,830156000,41.60669996163406,-86.35561553898529,229.27509,229.26848,-0.0,1.0015671,1.0017995,229.17534,2,0,1,0
830164000,830164000,41.60669996182542,-86.35561553915305,229.27509,229.26848,-0.0,1.0015671,1.0017995,229.17534,2,0,1,0
830172000,830172000,41.60669996201303,-86.35561553933226,229.27509,229.26848,-0.0,1.0015672,1.001799,229.17532,2,0,1,0
830180000,830180000,41.60669996219314,-86.3556155395072,229.27509,229.26848,-0.0,1.0015674,1.0017991,229.17531,2,0,1,0
830188000,830188000,41.60669996233895,-86.35561553965773,229.27505,229.26845,-0.0,1.0015675,1.0017991,229.1753,2,0,1,0
830196000,830196000,41.60669996247832,-86.35561553977101,229.27505,229.26845,-0.0,1.0015676,1.0017992,229.17528,2,0,1,0
830204000,830204000,41.60669996263725,-86.3556155398384,229.27504,229.26843,-0.0,1.0015678,1.0017992,229.17526,2,0,1,0
830212000,830212000,41.606699962776354,-86.35561553989288,229.27504,229.2684,-0.0,1.0015655,1.0017993,229.17525,2,0,1,0
830220000,830220000,41.60669996288382,-86.35561553995454,229.27502,229.26839,-0.0,1.0015657,1.0017995,229.17525,2,0,1,0
830228000,830228000,41.606699962970396,-86.35561553999754,229.27501,229.26837,-0.0,1.0015659,1.0017996,229.17523,2,0,1,0
830236000,830236000,41.6066999630508,-86.35561554002479,229.27498,229.26834,-0.0,1.0015662,1.0017992,229.17522,2,0,1,0
830244000,830244000,41.606699963091536,-86.35561554004774,229.27495,229.26831,-0.0,1.0015664,1.0017993,229.1752,2,0,1,0
830252000,830252000,41.60669996311004,-86.35561554005204,229.27493,229.2683,-0.0,1.0015666,1.0017995,229.1752,2,0,1,0
830260000,830260000,41.60669996315855,-86.35561554003196,229.27492,229.26828,-0.0,1.001567,1.0017997,229.17519,2,0,1,0
830268000,830268000,41.60669996319258,-86.35561553993446,229.2749,229.26826,-0.0,1.0015651,1.0017986,229.1755,2,0,1,0
830276000,830276000,41.60669996320598,-86.35561553983123,229.27489,229.26825,-0.0,1.0015651,1.0017986,229.1755,2,0,1,0
830284000,830284000,41.606699963216975,-86.35561553970793,229.27489,229.26825,-0.0,1.0015651,1.0017986,229.17552,2,0,1,0
830292000,830292000,41.60669996320518,-86.35561553953013,229.27489,229.26825,-0.0,1.0015651,1.0017982,229.17552,2,0,1,0
830300000,830300000,41.60669996315828,-86.35561553934087,229.27489,229.26825,-0.0,1.0015652,1.0017982,229.17552,2,0,1,0
830308000,830308000,41.60669996307386,-86.35561553918316,229.27489,229.26825,-0.0,1.0015652,1.0017982,229.17552,2,0,1,0
830316000,830316000,41.60669996299425,-86.35561553903405,229.2749,229.26826,-0.0,1.0015652,1.0017982,229.17552,2,0,1,0
830324000,830324000,41.606699962930996,-86.35561553886916,229.2749,229.26826,-0.0,1.0015652,1.0017982,229.1755,2,0,1,0
830332000,830332000,41.606699962888925,-86.35561553865838,229.27492,229.26828,-0.0,1.0015652,1.0017982,229.1755,2,0,1,0
830340000,830340000,41.60669996286051,-86.35561553841033,229.27493,229.2683,-0.0,1.0015652,1.0017982,229.1755,2,0,1,0
830348000,830348000,41.60669996284845,-86.35561553813936,229.27495,229.26831,-0.0,1.0015653,1.0017982,229.1755,2,0,1,0
830356000,830356000,41.60669996283451,-86.3556155378225,229.27496,229.26833,-0.0,1.0015653,1.0017977,229.1755,2,0,1,0
830364000,830364000,41.60669996279485,-86.35561553746547,229.27498,229.26834,-0.0,1.0015655,1.0017977,229.1755,2,0,1,0
830372000,830372000,41.60669996275143,-86.35561553705828,229.275,229.26836,-0.0,1.0015655,1.0017978,229.1755,2,0,1,0
830380000,830380000,41.60669996269917,-86.3556155366009,229.27502,229.26839,-0.0,1.0015656,1.0017978,229.1755,2,0,1,0
830388000,830388000,41.60669996268496,-86.35561553607756,229.27505,229.26842,-0.0,1.0015657,1.0017979,229.1755,2,0,1,0
830396000,830396000,41.6066999626938,-86.35561553552412,229.27509,229.26845,-0.0,1.0015658,1.0017979,229.1755,2,0,1,0
830404000,830404000,41.606699962707744,-86.35561553500078,229.27512,229.26848,-0.0,1.0015659,1.001798,229.17552,2,0,1,0
830412000,830412000,41.60669996271739,-86.35561553450327,229.27516,229.26852,-0.0,1.001566,1.0017976,229.17554,2,0,1,0
830420000,830420000,41.60669996269327,-86.35561553404015,229.27519,229.26863,-0.0,1.0015638,1.0017977,229.17554,2,0,1,0
830428000,830428000,41.60669996262572,-86.35561553361862,229.2752,229.26865,-0.0,1.001564,1.0017978,229.17555,2,0,1,0
830436000,830436000,41.60669996253808,-86.35561553321571,229.27525,229.26869,-0.0,1.0015643,1.0017979,229.17557,2,0,1,0
830444000,830444000,41.60669996245768,-86.35561553280135,229.27528,229.26872,-0.0,1.0015645,1.001798,229.17557,2,0,1,0
830452000,830452000,41.60669996238424,-86.35561553239559,229.27531,229.26875,-0.0,1.0015647,1.0017982,229.17558,2,0,1,0
830460000,830460000,41.60669996230732,-86.3556155320099,229.27534,229.26878,-0.0,1.001565,1.0017983,229.1756,2,0,1,0
830468000,830468000,41.606699962235496,-86.35561553161705,229.27538,229.26881,-0.0,1.0015653,1.0017984,229.17561,2,0,1,0
830476000,830476000,41.60669996216527,-86.3556155313948,229.27539,229.26883,-0.0,1.0015634,1.0017968,229.17538,2,0,1,0
830484000,830484000,41.60669996212292,-86.35561553122706,229.2754,229.26884,-0.0,1.0015634,1.0017968,229.17538,2,0,1,0
830492000,830492000,41.60669996209478,-86.35561553113529,229.27542,229.26886,-0.0,1.0015634,1.0017968,229.17538,2,0,1,0
830500000,830500000,41.60669996208942,-86.3556155310636,229.27544,229.26888,-0.0,1.0015634,1.0017968,229.17537,2,0,1,0
830508000,830508000,41.60669996209773,-86.35561553101485,229.27545,229.26889,-0.0,1.0015634,1.001797,229.17537,2,0,1,0
830516000,830516000,41.60669996207173,-86.35561553097901,229.27545,229.26889,-0.0,1.0015635,1.001797,229.17537,2,0,1,0
830524000,830524000,41.606699962014375,-86.3556155309446,229.27547,229.2689,-0.0,1.0015635,1.001797,229.17537,2,0,1,0
830532000,830532000,41.60669996194013,-86.35561553092165,229.27547,229.2689,-0.0,1.0015635,1.0017964,229.17535,2,0,1,0
830540000,830540000,41.60669996182944,-86.35561553092452,229.27547,229.2689,-0.0,1.0015635,1.0017964,229.17535,2,0,1,0
830548000,830548000,41.606699961705885,-86.35561553098331,229.27547,229.2689,-0.0,1.0015635,1.0017965,229.17534,2,0,1,0
830556000,830556000,41.60669996157831,-86.35561553103493,229.27547,229.2689,-0.0,1.0015637,1.0017965,229.17532,2,0,1,0
830564000,830564000,41.60669996145851,-86.35561553106503,229.27548,229.26892,-0.0,1.0015637,1.0017965,229.17531,2,0,1,0
830572000,830572000,41.606699961344596,-86.35561553112095,229.27548,229.26892,-0.0,1.0015638,1.0017965,229.1753,2,0,1,0
830580000,830580000,41.60669996122747,-86.35561553121414,229.2755,229.26894,-0.0,1.0015638,1.0017966,229.17528,2,0,1,0
830588000,830588000,41.60669996107926,-86.35561553133172,229.2755,229.26894,-0.0,1.0015639,1.0017966,229.17526,2,0,1,0
830596000,830596000,41.60669996092755,-86.35561553148514,229.2755,229.26894,-0.0,1.001564,1.0017961,229.17523,2,0,1,0
830604000,830604000,41.60669996077934,-86.3556155316701,229.2755,229.26894,-0.0,1.0015641,1.0017962,229.17522,2,0,1,0
830612000,830612000,41.60669996060754,-86.35561553187513,229.2755,229.26894,-0.0,1.0015643,1.0017962,229.1752,2,0,1,0
830620000,830620000,41.60669996046148,-86.35561553206581,229.2755,229.26894,-0.0,1.0015644,1.0017964,229.17517,2,0,1,0
830628000,830628000,41.606699960342745,-86.35561553221494,229.27551,229.26897,-0.0,1.0015621,1.0017965,229.17514,2,0,1,0
830636000,830636000,41.606699960235,-86.35561553237122,229.27551,229.26897,-0.0,1.0015624,1.0017966,229.17513,2,0,1,0
830644000,830644000,41.60669996012726,-86.35561553255475,229.27553,229.26898,-0.0,1.0015626,1.0017967,229.17513,2,0,1,0
830652000,830652000,41.606699960013344,-86.35561553277267,229.27553,229.26898,-0.0,1.0015628,1.0017962,229.17511,2,0,1,0
830660000,830660000,41.60669995991793,-86.35561553300495,229.27553,229.26898,-0.0,1.0015631,1.0017964,229.17511,2,0,1,0
830668000,830668000,41.60669995984718,-86.35561553326303,229.27553,229.26898,-0.0,1.0015633,1.0017966,229.1751,2,0,1,0
830676000,830676000,41.60669995980081,-86.35561553353833,229.27551,229.26897,-0.0,1.0015637,1.0017967,229.17508,2,0,1,0
830684000,830684000,41.60669995980161,-86.35561553370034,229.27553,229.26898,-0.0,1.0015618,1.0017956,229.1754,2,0,1,0
830692000,830692000,41.60669995979196,-86.35561553387812,229.27553,229.26898,-0.0,1.0015618,1.0017956,229.1754,2,0,1,0
830700000,830700000,41.60669995976677,-86.35561553406166,229.27553,229.26898,-0.0,1.0015618,1.0017956,229.17543,2,0,1,0
830708000,830708000,41.606699959734875,-86.35561553422941,229.27554,229.269,-0.0,1.0015618,1.0017956,229.17545,2,0,1,0
830716000,830716000,41.60669995970861,-86.3556155343685,229.27554,229.269,-0.0,1.0015618,1.0017952,229.17548,2,0,1,0
830724000,830724000,41.60669995969923,-86.35561553453337,229.27553,229.26898,-0.0,1.0015619,1.0017952,229.1755,2,0,1,0
830732000,830732000,41.6066999597271,-86.35561553469397,229.27554,229.269,-0.0,1.0015619,1.0017952,229.17552,2,0,1,0
830740000,830740000,41.606699959800274,-86.35561553482157,229.27554,229.269,-0.0,1.0015619,1.0017952,229.17554,2,0,1,0
830748000,830748000,41.60669995989488,-86.35561553491189,229.27556,229.26901,-0.0,1.0015619,1.0017952,229.17555,2,0,1,0
830756000,830756000,41.60669995997395,-86.35561553497928,229.27556,229.26901,-0.0,1.0015619,1.0017953,229.17557,2,0,1,0
830764000,830764000,41.60669996006936,-86.35561553504094,229.27557,229.26903,-0.0,1.001562,1.0017953,229.17557,2,0,1,0
830772000,830772000,41.60669996019265,-86.35561553508681,229.27557,229.26903,-0.0,1.001562,1.0017948,229.17561,2,0,1,0
830780000,830780000,41.60669996036123,-86.35561553510115,229.27559,229.26904,-0.0,1.0015621,1.0017948,229.17561,2,0,1,0
830788000,830788000,41.606699960566,-86.355615535061,229.27559,229.26904,-0.0,1.0015621,1.0017948,229.17563,2,0,1,0
830796000,830796000,41.60669996078658,-86.35561553498071,229.27559,229.26904,-0.0,1.0015622,1.0017949,229.17563,2,0,1,0
830804000,830804000,41.60669996102137,-86.35561553486602,229.2756,229.26906,-0.0,1.0015624,1.0017949,229.17563,2,0,1,0
830812000,830812000,41.60669996129073,-86.35561553474558,229.27562,229.26907,-0.0,1.0015625,1.001795,229.17564,2,0,1,0
830820000,830820000,41.60669996156249,-86.35561553465668,229.27563,229.26909,-0.0,1.0015626,1.001795,229.17564,2,0,1,0
830828000,830828000,41.60669996180827,-86.35561553456348,229.27563,229.26909,-0.0,1.0015627,1.0017952,229.17566,2,0,1,0
830836000,830836000,41.60669996202805,-86.35561553447602,229.27565,229.2691,-0.0,1.001563,1.0017947,229.17569,2,0,1,0
830844000,830844000,41.60669996225988,-86.35561553442584,229.27567,229.26912,-0.0,1.0015632,1.0017948,229.17569,2,0,1,0
830852000,830852000,41.6066999625346,-86.35561553442297,229.27568,229.26913,-0.0,1.0015633,1.0017949,229.17569,2,0,1,0
830860000,830860000,41.60669996283532,-86.35561553442727,229.2757,229.26915,-0.0,1.0015635,1.001795,229.1757,2,0,1,0
830868000,830868000,41.60669996315801,-86.35561553441006,229.27573,229.26918,-0.0,1.0015639,1.0017952,229.1757,2,0,1,0
830876000,830876000,41.60669996350482,-86.35561553439429,229.27574,229.2692,-0.0,1.0015641,1.0017954,229.17569,2,0,1,0
830884000,830884000,41.606699963854595,-86.35561553437279,229.27576,229.26921,-0.0,1.0015645,1.0017955,229.1757,2,0,1,0
830892000,830892000,41.60669996406258,-86.35561553441006,229.27577,229.26923,-0.0,1.0015626,1.0017941,229.17566,2,0,1,0
830900000,830900000,41.6066999642652,-86.35561553445882,229.27579,229.26924,-0.0,1.0015626,1.0017941,229.17566,2,0,1,0
830908000,830908000,41.60669996444611,-86.3556155345219,229.2758,229.26926,-0.0,1.0015626,1.0017941,229.17564,2,0,1,0
830916000,830916000,41.60669996459191,-86.35561553458786,229.2758,229.26926,-0.0,1.0015626,1.0017941,229.17564,2,0,1,0
830924000,830924000,41.60669996473878,-86.35561553463803,229.27583,229.26929,-0.0,1.0015626,1.0017941,229.17564,2,0,1,0
830932000,830932000,41.60669996490039,-86.35561553472981,229.27585,229.2693,-0.0,1.0015626,1.0017941,229.17564,2,0,1,0
830940000,830940000,41.60669996506228,-86.3556155348947,229.27586,229.26932,-0.0,1.0015626,1.0017941,229.17564,2,0,1,0
830948000,830948000,41.60669996521613,-86.35561553508825,229.27588,229.26933,-0.0,1.0015626,1.0017941,229.17566,2,0,1,0
830956000,830956000,41.60669996534718,-86.35561553529472,229.27588,229.26933,-0.0,1.0015627,1.0017935,229.17569,2,0,1,0
830964000,830964000,41.606699965469936,-86.3556155354811,229.2759,229.26935,-0.0,1.0015627,1.0017936,229.17569,2,0,1,0
830972000,830972000,41.60669996559296,-86.3556155356589,229.27592,229.26938,-0.0,1.0015627,1.0017936,229.17569,2,0,1,0
830980000,830980000,41.60669996574305,-86.35561553585964,229.27592,229.26938,-0.0,1.0015628,1.0017936,229.17569,2,0,1,0
830988000,830988000,41.60669996589609,-86.35561553607756,229.27594,229.2694,-0.0,1.0015628,1.0017936,229.17569,2,0,1,0
830996000,830996000,41.6066999660518,-86.35561553630697,229.27594,229.2694,-0.0,1.001563,1.0017937,229.17569,2,0,1,0
831004000,831004000,41.6066999662153,-86.35561553652204,229.27594,229.2693,-0.0,1.0015606,1.0017937,229.17569,2,0,1,0
831012000,831012000,41.60669996635333,-86.35561553674715,229.27596,229.26932,-0.0,1.0015607,1.0017933,229.1757,2,0,1,0
831020000,831020000,41.60669996646777,-86.35561553699232,229.27596,229.26932,-0.0,1.0015608,1.0017934,229.1757,2,0,1,0
831028000,831028000,41.60669996655354,-86.35561553726761,229.27594,229.2693,-0.0,1.0015609,1.0017934,229.1757,2,0,1,0
831036000,831036000,41.60669996662698,-86.3556155375472,229.27596,229.26932,-0.0,1.001561,1.0017935,229.1757,2,0,1,0
831044000,831044000,41.60669996670765,-86.35561553784113,229.27596,229.26932,-0.0,1.0015613,1.0017936,229.17572,2,0,1,0
831052000,831052000,41.60669996679476,-86.35561553816373,229.27597,229.26933,-0.0,1.0015615,1.0017937,229.17572,2,0,1,0
831060000,831060000,41.6066999668757,-86.3556155385107,229.27597,229.26933,-0.0,1.0015616,1.0017939,229.17572,2,0,1,0
831068000,831068000,41.60669996695021,-86.3556155388706,229.27597,229.26933,-0.0,1.0015619,1.001794,229.17572,2,0,1,0
831076000,831076000,41.60669996704187,-86.35561553926776,229.27599,229.26935,-0.0,1.0015622,1.0017935,229.1757,2,0,1,0
831084000,831084000,41.60669996714371,-86.35561553969359,229.27599,229.26935,-0.0,1.0015625,1.0017937,229.17569,2,0,1,0
831092000,831092000,41.60669996724852,-86.35561554014811,229.27597,229.26933,-0.0,1.0015628,1.0017939,229.17569,2,0,1,0
831100000,831100000,41.60669996735117,-86.35561554045923,229.27599,229.26935,-0.0,1.0015609,1.0017929,229.17586,2,0,1,0
831108000,831108000,41.60669996748571,-86.35561554072162,229.276,229.26936,-0.0,1.0015609,1.0017929,229.17586,2,0,1,0
831116000,831116000,41.60669996761328,-86.35561554095963,229.27603,229.2694,-0.0,1.0015609,1.0017929,229.17587,2,0,1,0
831124000,831124000,41.606699967711386,-86.35561554120623,229.27605,229.26941,-0.0,1.0015609,1.0017929,229.17587,2,0,1,0
831132000,831132000,41.6066999677816,-86.35561554146003,229.27606,229.26942,-0.0,1.0015609,1.0017923,229.17586,2,0,1,0
831140000,831140000,41.606699967828504,-86.35561554171666,229.27608,229.26944,-0.0,1.0015609,1.0017923,229.17586,2,0,1,0
831148000,831148000,41.60669996787299,-86.35561554193174,229.2761,229.26945,-0.0,1.0015609,1.0017923,229.17587,2,0,1,0
831156000,831156000,41.606699967940536,-86.35561554205934,229.27611,229.26947,-0.0,1.0015609,1.0017923,229.17589,2,0,1,0
831164000,831164000,41.60669996801585,-86.35561554211382,229.27612,229.26949,-0.0,1.001561,1.0017924,229.17589,2,0,1,0
831172000,831172000,41.606699968074814,-86.3556155421511,229.27614,229.2695,-0.0,1.001561,1.0017924,229.17589,2,0,1,0
831180000,831180000,41.606699968114214,-86.35561554216258,229.27615,229.26952,-0.0,1.001561,1.0017924,229.1759,2,0,1,0
831188000,831188000,41.60669996815281,-86.355615542164,229.27617,229.26953,-0.0,1.0015612,1.0017924,229.17592,2,0,1,0
831196000,831196000,41.60669996822303,-86.35561554218552,229.2762,229.26956,-0.0,1.0015612,1.001792,229.17593,2,0,1,0
831204000,831204000,41.6066999683238,-86.3556155422529,229.2762,229.26956,-0.0,1.0015613,1.001792,229.17596,2,0,1,0
831212000,831212000,41.606699968442534,-86.35561554235471,229.27621,229.26958,-0.0,1.0015614,1.0017921,229.17598,2,0,1,0
831220000,831220000,41.60669996858218,-86.3556155424393,229.27625,229.2696,-0.0,1.0015615,1.0017921,229.17598,2,0,1,0
831228000,831228000,41.606699968735754,-86.35561554251673,229.27628,229.26964,-0.0,1.0015616,1.0017922,229.176,2,0,1,0
831236000,831236000,41.60669996888477,-86.35561554258985,229.2763,229.26967,-0.0,1.0015618,1.0017922,229.17601,2,0,1,0
831244000,831244000,41.606699969028696,-86.35561554266297,229.27632,229.26968,-0.0,1.0015619,1.0017923,229.17603,2,0,1,0
831252000,831252000,41.60669996919701,-86.35561554275904,229.27634,229.2697,-0.0,1.001562,1.0017918,229.17601,2,0,1,0
831260000,831260000,41.60669996937444,-86.35561554289524,229.27635,229.26971,-0.0,1.0015622,1.001792,229.17603,2,0,1,0
831268000,831268000,41.6066999695843,-86.35561554304724,229.27638,229.26974,-0.0,1.0015625,1.0017921,229.17604,2,0,1,0
831276000,831276000,41.60669996983838,-86.35561554317914,229.2764,229.26976,-0.0,1.0015627,1.0017922,229.17604,2,0,1,0
831284000,831284000,41.60669997010049,-86.35561554331966,229.27643,229.26979,-0.0,1.001563,1.0017923,229.17606,2,0,1,0
831292000,831292000,41.60669997036316,-86.35561554345729,229.27644,229.2698,-0.0,1.0015633,1.0017926,229.17607,2,0,1,0
831300000,831300000,41.60669997063493,-86.3556155435892,229.27647,229.26984,-0.0,1.0015635,1.0017927,229.17609,2,0,1,0
831308000,831308000,41.60669997081396,-86.35561554367808,229.27649,229.26985,-0.0,1.0015616,1.0017917,229.17584,2,0,1,0
831316000,831316000,41.60669997096351,-86.35561554374836,229.27649,229.26985,-0.0,1.0015616,1.0017911,229.17584,2,0,1,0
831324000,831324000,41.60669997109029,-86.35561554381431,229.27649,229.26985,-0.0,1.0015616,1.0017911,229.17583,2,0,1,0
831332000,831332000,41.606699971205266,-86.35561554389747,229.27649,229.26985,-0.0,1.0015616,1.0017911,229.17583,2,0,1,0
831340000,831340000,41.60669997133204,-86.35561554394765,229.2765,229.26987,-0.0,1.0015618,1.0017911,229.17581,2,0,1,0
831348000,831348000,41.60669997145668,-86.35561554395912,229.27652,229.26988,-0.0,1.0015618,1.0017911,229.17581,2,0,1,0
831356000,831356000,41.60669997156629,-86.35561554397488,229.27652,229.26988,-0.0,1.0015618,1.0017911,229.17581,2,0,1,0
831364000,831364000,41.606699971659296,-86.35561554398205,229.27652,229.26988,-0.0,1.0015618,1.0017911,229.1758,2,0,1,0
831372000,831372000,41.60669997174828,-86.35561554397202,229.27652,229.26988,-0.0,1.0015618,1.0017906,229.1758,2,0,1,0
831380000,831380000,41.60669997183752,-86.35561554398922,229.2765,229.26987,-0.0,1.0015618,1.0017906,229.1758,2,0,1,0
831388000,831388000,41.60669997194581,-86.35561554402507,229.2765,229.26987,-0.0,1.0015619,1.0017908,229.17578,2,0,1,0
831396000,831396000,41.606699972072846,-86.35561554406522,229.2765,229.26987,-0.0,1.0015619,1.0017908,229.17577,2,0,1,0
831404000,831404000,41.60669997218756,-86.35561554411396,229.2765,229.26987,-0.0,1.001562,1.0017908,229.17575,2,0,1,0
831412000,831412000,41.60669997228807,-86.35561554417131,229.2765,229.26955,-0.0,1.0015596,1.0017908,229.17575,2,0,1,0
831420000,831420000,41.60669997238563,-86.35561554426307,229.27649,229.26953,-0.0,1.0015597,1.0017909,229.17574,2,0,1,0
831428000,831428000,41.60669997246576,-86.35561554441793,229.27649,229.26953,-0.0,1.0015599,1.0017909,229.17574,2,0,1,0
831436000,831436000,41.606699972542145,-86.35561554460575,229.27649,229.26953,-0.0,1.00156,1.0017904,229.17572,2,0,1,0
831444000,831444000,41.606699972617456,-86.35561554481653,229.27647,229.26952,-0.0,1.0015601,1.0017905,229.17572,2,0,1,0
831452000,831452000,41.60669997270966,-86.3556155450574,229.27647,229.26952,-0.0,1.0015602,1.0017906,229.1757,2,0,1,0
831460000,831460000,41.60669997280025,-86.35561554533555,229.27646,229.2695,-0.0,1.0015603,1.0017906,229.17567,2,0,1,0
831468000,831468000,41.606699972870736,-86.35561554561801,229.27644,229.26949,-0.0,1.0015606,1.0017908,229.17567,2,0,1,0
831476000,831476000,41.60669997293506,-86.35561554586606,229.27643,229.26947,-0.0,1.0015608,1.0017909,229.17566,2,0,1,0
831484000,831484000,41.606699973009036,-86.35561554605819,229.27641,229.26945,-0.0,1.001561,1.001791,229.17564,2,0,1,0
831492000,831492000,41.60669997308649,-86.35561554625176,229.27638,229.26942,-0.0,1.0015613,1.0017906,229.17564,2,0,1,0
831500000,831500000,41.60669997317333,-86.35561554643814,229.27638,229.26942,-0.0,1.0015616,1.0017908,229.17563,2,0,1,0
831508000,831508000,41.60669997328001,-86.35561554658725,229.27637,229.26941,-0.0,1.0015619,1.001791,229.17563,2,0,1,0
831516000,831516000,41.60669997332396,-86.35561554661881,229.27637,229.26941,-0.0,1.00156,1.0017899,229.1759,2,0,1,0
831524000,831524000,41.60669997335317,-86.35561554665894,229.27635,229.2694,-0.0,1.0015601,1.0017899,229.1759,2,0,1,0
831532000,831532000,41.60669997336765,-86.35561554670483,229.27634,229.26938,-0.0,1.0015601,1.0017899,229.17592,2,0,1,0
831540000,831540000,41.6066999733588,-86.35561554675644,229.27632,229.26936,-0.0,1.0015601,1.0017899,229.17593,2,0,1,0
831548000,831548000,41.60669997334379,-86.3556155468095,229.27632,229.26936,-0.0,1.0015601,1.0017899,229.17593,2,0,1,0
831556000,831556000,41.606699973310825,-86.35561554685967,229.2763,229.26935,-0.0,1.0015601,1.0017895,229.17595,2,0,1,0
831564000,831564000,41.60669997327009,-86.35561554687831,229.27629,229.26933,-0.0,1.0015601,1.0017895,229.17595,2,0,1,0
831572000,831572000,41.60669997323229,-86.35561554685107,229.27629,229.26933,-0.0,1.0015601,1.0017895,229.17595,2,0,1,0
831580000,831580000,41.60669997318888,-86.35561554677939,229.27629,229.26933,-0.0,1.0015601,1.0017895,229.17596,2,0,1,0
831588000,831588000,41.60669997312724,-86.35561554670053,229.27628,229.26932,-0.0,1.0015601,1.0017895,229.17598,2,0,1,0
831596000,831596000,41.60669997303557,-86.35561554664748,229.27626,229.2693,-0.0,1.0015602,1.0017896,229.17598,2,0,1,0
831604000,831604000,41.606699972923536,-86.35561554658582,229.27626,229.2693,-0.0,1.0015602,1.0017896,229.17598,2,0,1,0
831612000,831612000,41.606699972820884,-86.35561554653708,229.27625,229.26929,-0.0,1.0015603,1.0017891,229.17593,2,0,1,0
831620000,831620000,41.60669997273781,-86.35561554651126,229.27625,229.26923,-0.0,1.001558,1.0017891,229.17593,2,0,1,0
831628000,831628000,41.60669997266812,-86.35561554643814,229.27623,229.26921,-0.0,1.0015581,1.0017891,229.17593,2,0,1,0
831636000,831636000,41.60669997257994,-86.35561554631053,229.27623,229.26921,-0.0,1.0015582,1.0017892,229.17593,2,0,1,0
831644000,831644000,41.60669997250838,-86.35561554617145,229.27621,229.2692,-0.0,1.0015583,1.0017892,229.17593,2,0,1,0
831652000,831652000,41.60669997244245,-86.35561554604242,229.27621,229.2692,-0.0,1.0015584,1.0017893,229.17593,2,0,1,0
831660000,831660000,41.60669997234998,-86.35561554591769,229.27618,229.26917,-0.0,1.0015585,1.0017895,229.17593,2,0,1,0
831668000,831668000,41.60669997220471,-86.35561554580728,229.27617,229.26915,-0.0,1.0015588,1.0017896,229.17593,2,0,1,0
831676000,831676000,41.60669997208384,-86.35561554570548,229.27617,229.26915,-0.0,1.0015589,1.0017891,229.17593,2,0,1,0
831684000,831684000,41.606699971984405,-86.35561554561944,229.27617,229.26915,-0.0,1.0015591,1.0017892,229.17593,2,0,1,0
831692000,831692000,41.60669997187264,-86.35561554554202,229.27617,229.26915,-0.0,1.0015594,1.0017893,229.17593,2,0,1,0
831700000,831700000,41.60669997174238,-86.3556155454517,229.27615,229.26913,-0.0,1.0015596,1.0017895,229.17593,2,0,1,0
831708000,831708000,41.606699971613736,-86.35561554536567,229.27615,229.26913,-0.0,1.00156,1.0017897,229.17593,2,0,1,0
831716000,831716000,41.60669997145828,-86.35561554532552,229.27614,229.26912,-0.0,1.0015602,1.0017898,229.17593,2,0,1,0
831724000,831724000,41.60669997126263,-86.35561554531405,229.27615,229.26913,-0.0,1.0015584,1.0017887,229.17598,2,0,1,0
831732000,831732000,41.606699971068316,-86.35561554532265,229.27617,229.26915,-0.0,1.0015584,1.0017883,229.176,2,0,1,0
831740000,831740000,41.60669997088017,-86.35561554533125,229.27617,229.26915,-0.0,1.0015584,1.0017883,229.17598,2,0,1,0
831748000,831748000,41.60669997068639,-86.35561554534989,229.27618,229.26917,-0.0,1.0015584,1.0017883,229.17598,2,0,1,0
831756000,831756000,41.60669997049449,-86.35561554538144,229.27618,229.26917,-0.0,1.0015584,1.0017883,229.17598,2,0,1,0
831764000,831764000,41.60669997031759,-86.35561554540294,229.2762,229.26918,-0.0,1.0015584,1.0017883,229.17598,2,0,1,0
831772000,831772000,41.60669997014472,-86.35561554541442,229.27621,229.2692,-0.0,1.0015584,1.0017883,229.17598,2,0,1,0
831780000,831780000,41.60669996996221,-86.35561554547176,229.27621,229.2692,-0.0,1.0015584,1.0017883,229.176,2,0,1,0
831788000,831788000,41.606699969789595,-86.35561554554346,229.27623,229.26921,-0.0,1.0015584,1.0017883,229.176,2,0,1,0
831796000,831796000,41.60669996966121,-86.35561554562518,229.27625,229.26923,-0.0,1.0015585,1.0017878,229.176,2,0,1,0
831804000,831804000,41.6066999695457,-86.35561554571264,229.27628,229.26926,-0.0,1.0015585,1.0017878,229.17601,2,0,1,0
831812000,831812000,41.60669996942563,-86.3556155457614,229.27629,229.26927,-0.0,1.0015585,1.0017879,229.17603,2,0,1,0
831820000,831820000,41.606699969299655,-86.35561554576427,229.27632,229.2693,-0.0,1.0015587,1.0017879,229.17603,2,0,1,0
831828000,831828000,41.60669996915681,-86.35561554576283,229.27635,229.26941,-0.0,1.0015563,1.0017879,229.17604,2,0,1,0
831836000,831836000,41.60669996897295,-86.3556155457786,229.27637,229.26942,-0.0,1.0015564,1.001788,229.17606,2,0,1,0
831844000,831844000,41.606699968761745,-86.35561554579867,229.27641,229.26947,-0.0,1.0015565,1.001788,229.17607,2,0,1,0
831852000,831852000,41.606699968540624,-86.35561554581157,229.27646,229.26952,-0.0,1.0015566,1.0017875,229.17607,2,0,1,0
831860000,831860000,41.606699968317365,-86.35561554583164,229.2765,229.26956,-0.0,1.0015568,1.0017877,229.17607,2,0,1,0
831868000,831868000,41.60669996812386,-86.35561554587753,229.27655,229.2696,-0.0,1.0015569,1.0017877,229.17609,2,0,1,0
831876000,831876000,41.60669996797485,-86.3556155459062,229.2766,229.26965,-0.0,1.0015571,1.0017878,229.1761,2,0,1,0
831884000,831884000,41.606699967858525,-86.35561554591911,229.27663,229.26968,-0.0,1.0015572,1.0017879,229.17613,2,0,1,0
831892000,831892000,41.60669996775132,-86.3556155459148,229.27667,229.26973,-0.0,1.0015575,1.001788,229.17615,2,0,1,0
831900000,831900000,41.60669996765214,-86.3556155458718,229.2767,229.26976,-0.0,1.0015577,1.0017881,229.17618,2,0,1,0
831908000,831908000,41.606699967563706,-86.35561554578577,229.27675,229.2698,-0.0,1.001558,1.0017883,229.1762,2,0,1,0
831916000,831916000,41.6066999674573,-86.35561554570117,229.2768,229.26985,-0.0,1.0015583,1.0017879,229.17624,2,0,1,0
831924000,831924000,41.60669996734393,-86.35561554561944,229.27684,229.2699,-0.0,1.0015585,1.0017881,229.17627,2,0,1,0
831932000,831932000,41.60669996724691,-86.35561554544165,229.27687,229.26993,-0.0,1.0015568,1.0017871,229.17581,2,0,1,0
831940000,831940000,41.60669996717266,-86.35561554527534,229.27689,229.26994,-0.0,1.0015568,1.0017871,229.17581,2,0,1,0
831948000,831948000,41.6066999670818,-86.35561554506887,229.2769,229.26996,-0.0,1.0015568,1.0017871,229.17581,2,0,1,0
831956000,831956000,41.606699966964136,-86.3556155448409,229.27692,229.26997,-0.0,1.0015568,1.0017871,229.17581,2,0,1,0
831964000,831964000,41.60669996684219,-86.35561554458425,229.27693,229.26999,-0.0,1.0015568,1.0017871,229.17581,2,0,1,0
831972000,831972000,41.60669996671649,-86.35561554431325,229.27693,229.26999,-0.0,1.0015568,1.0017866,229.1758,2,0,1,0
831980000,831980000,41.60669996659159,-86.35561554402078,229.27693,229.26999,-0.0,1.0015568,1.0017866,229.1758,2,0,1,0
831988000,831988000,41.60669996648144,-86.35561554369386,229.27693,229.26999,-0.0,1.0015568,1.0017866,229.1758,2,0,1,0
831996000,831996000,41.60669996639461,-86.35561554336122,229.27693,229.26999,-0.0,1.0015568,1.0017866,229.1758,2,0,1,0
832004000,832004000,41.60669996632277,-86.35561554304292,229.27692,229.26997,-0.0,1.0015569,1.0017866,229.1758,2,0,1,0
832012000,832012000,41.606699966239425,-86.35561554272032,229.27689,229.26994,-0.0,1.0015569,1.0017866,229.1758,2,0,1,0
832020000,832020000,41.606699966156334,-86.3556155423805,229.27687,229.26993,-0.0,1.0015569,1.0017867,229.17578,2,0,1,0
832028000,832028000,41.606699966081294,-86.35561554203066,229.27687,229.26993,-0.0,1.001557,1.0017867,229.17577,2,0,1,0
832036000,832036000,41.6066999659974,-86.35561554167795,229.27684,229.26988,-0.0,1.0015546,1.0017862,229.17577,2,0,1,0
832044000,832044000,41.60669996588268,-86.35561554131377,229.27682,229.26987,-0.0,1.0015547,1.0017862,229.17577,2,0,1,0
832052000,832052000,41.606699965769316,-86.35561554093955,229.27681,229.26985,-0.0,1.0015548,1.0017864,229.17575,2,0,1,0
832060000,832060000,41.60669996565621,-86.35561554057107,229.27678,229.26982,-0.0,1.001555,1.0017864,229.17574,2,0,1,0
832068000,832068000,41.60669996553882,-86.35561554018824,229.27675,229.26979,-0.0,1.0015551,1.0017865,229.1757,2,0,1,0
832076000,832076000,41.606699965415,-86.35561553979538,229.27673,229.26978,-0.0,1.0015552,1.0017866,229.17569,2,0,1,0
832084000,832084000,41.606699965288755,-86.35561553938102,229.27672,229.26976,-0.0,1.0015554,1.0017866,229.17566,2,0,1,0
832092000,832092000,41.606699965173505,-86.35561553897239,229.2767,229.26974,-0.0,1.0015556,1.0017862,229.17561,2,0,1,0
832100000,832100000,41.606699965049145,-86.3556155385523,229.27667,229.26971,-0.0,1.0015558,1.0017864,229.17558,2,0,1,0
832108000,832108000,41.60669996490683,-86.35561553813362,229.27666,229.2697,-0.0,1.001556,1.0017865,229.17557,2,0,1,0
832116000,832116000,41.60669996474817,-86.35561553773647,229.27663,229.26967,-0.0,1.0015564,1.0017866,229.17554,2,0,1,0
832124000,832124000,41.606699964574226,-86.35561553735506,229.2766,229.26964,-0.0,1.0015566,1.0017867,229.1755,2,0,1,0
832132000,832132000,41.606699964393584,-86.35561553700809,229.27657,229.2696,-0.0,1.001557,1.001787,229.17549,2,0,1,0
832140000,832140000,41.606699964185594,-86.35561553667259,229.27657,229.2696,-0.0,1.0015551,1.0017854,229.17592,2,0,1,0
832148000,832148000,41.60669996398055,-86.35561553631844,229.27655,229.26959,-0.0,1.0015551,1.0017854,229.17592,2,0,1,0
832156000,832156000,41.60669996378276,-86.3556155359686,229.27655,229.26959,-0.0,1.0015551,1.0017854,229.17595,2,0,1,0
832164000,832164000,41.60669996356995,-86.3556155356159,229.27655,229.26959,-0.0,1.0015551,1.0017854,229.17596,2,0,1,0
832172000,832172000,41.606699963321766,-86.3556155352603,229.27655,229.26959,-0.0,1.0015551,1.0017854,229.17598,2,0,1,0
832180000,832180000,41.6066999630374,-86.35561553492049,229.27655,229.26959,-0.0,1.0015551,1.0017854,229.176,2,0,1,0
832188000,832188000,41.606699962731064,-86.35561553457208,229.27655,229.26959,-0.0,1.0015551,1.0017854,229.17603,2,0,1,0
832196000,832196000,41.60669996242445,-86.3556155341993,229.27658,229.26962,-0.0,1.0015551,1.0017854,229.17604,2,0,1,0
832204000,832204000,41.606699962129625,-86.35561553380931,229.27658,229.26962,-0.0,1.0015552,1.0017849,229.17607,2,0,1,0
832212000,832212000,41.60669996183507,-86.35561553340929,229.2766,229.26964,-0.0,1.0015552,1.0017849,229.17609,2,0,1,0
832220000,832220000,41.606699961534886,-86.35561553299348,229.27663,229.26967,-0.0,1.0015552,1.0017849,229.17612,2,0,1,0
832228000,832228000,41.60669996123658,-86.35561553258054,229.27664,229.26968,-0.0,1.0015553,1.0017849,229.17613,2,0,1,0
832236000,832236000,41.60669996094847,-86.35561553218912,229.27667,229.26971,-0.0,1.0015553,1.001785,229.17616,2,0,1,0
832244000,832244000,41.606699960634074,-86.35561553179484,229.27669,229.26973,-0.0,1.0015554,1.001785,229.17618,2,0,1,0
832252000,832252000,41.60669996028592,-86.3556155313604,229.2767,229.26974,-0.0,1.0015556,1.001785,229.17621,2,0,1,0
832260000,832260000,41.606699959948216,-86.35561553088725,229.27673,229.26978,-0.0,1.0015556,1.0017846,229.17625,2,0,1,0
832268000,832268000,41.60669995962579,-86.35561553044278,229.27676,229.2698,-0.0,1.0015557,1.0017847,229.17628,2,0,1,0
832276000,832276000,41.60669995928621,-86.3556155300413,229.2768,229.26984,-0.0,1.0015559,1.0017848,229.17632,2,0,1,0
832284000,832284000,41.60669995893779,-86.35561552962407,229.27681,229.26985,-0.0,1.001556,1.0017848,229.17636,2,0,1,0
832292000,832292000,41.60669995857114,-86.35561552921975,229.27684,229.26988,-0.0,1.0015562,1.0017849,229.17639,2,0,1,0
832300000,832300000,41.60669995821682,-86.35561552883405,229.27689,229.26993,-0.0,1.0015564,1.001785,229.17642,2,0,1,0
832308000,832308000,41.60669995786651,-86.3556155284455,229.27692,229.26996,-0.0,1.0015566,1.0017852,229.17645,2,0,1,0
832316000,832316000,41.60669995750308,-86.35561552808561,229.27696,229.27,-0.0,1.0015569,1.0017853,229.1765,2,0,1,0
832324000,832324000,41.606699957114195,-86.3556155277157,229.27701,229.27005,-0.0,1.0015571,1.0017849,229.17651,2,0,1,0
832332000,832332000,41.60669995673896,-86.35561552733002,229.27707,229.27011,-0.0,1.0015575,1.001785,229.17654,2,0,1,0
832340000,832340000,41.606699956361865,-86.3556155269816,229.27711,229.27016,-0.0,1.0015577,1.0017853,229.17659,2,0,1,0
832348000,832348000,41.60669995607401,-86.35561552671204,229.27715,229.27019,-0.0,1.0015558,1.0017842,229.17616,2,0,1,0
832356000,832356000,41.60669995581644,-86.35561552646256,229.27718,229.27022,-0.0,1.0015558,1.0017842,229.17616,2,0,1,0
832364000,832364000,41.60669995555057,-86.35561552629338,229.27722,229.27026,-0.0,1.0015558,1.0017842,229.17615,2,0,1,0
832372000,832372000,41.606699955312834,-86.35561552614283,229.27727,229.27031,-0.0,1.0015558,1.0017837,229.17613,2,0,1,0
832380000,832380000,41.60669995510914,-86.35561552602526,229.27731,229.27036,-0.0,1.0015559,1.0017837,229.17615,2,0,1,0
832388000,832388000,41.60669995491429,-86.35561552595931,229.27734,229.27039,-0.0,1.0015559,1.0017837,229.17615,2,0,1,0
832396000,832396000,41.60669995476232,-86.35561552592345,229.27739,229.27023,-0.0,1.0015534,1.0017837,229.17616,2,0,1,0
832404000,832404000,41.60669995462376,-86.35561552592345,229.27742,229.27026,-0.0,1.0015535,1.0017837,229.17618,2,0,1,0
832412000,832412000,41.60669995447795,-86.35561552591771,229.27747,229.27031,-0.0,1.0015535,1.0017837,229.1762,2,0,1,0
832420000,832420000,41.60669995436887,-86.35561552590482,229.2775,229.27034,-0.0,1.0015535,1.0017837,229.17621,2,0,1,0
832428000,832428000,41.60669995429275,-86.35561552591629,229.27753,229.27037,-0.0,1.0015535,1.0017833,229.1762,2,0,1,0
832436000,832436000,41.6066999542287,-86.35561552595787,229.27757,229.27042,-0.0,1.0015537,1.0017833,229.17621,2,0,1,0
832444000,832444000,41.60669995418903,-86.35561552597794,229.27762,229.27046,-0.0,1.0015537,1.0017833,229.17622,2,0,1,0
832452000,832452000,41.60669995419278,-86.3556155259851,229.27766,229.27051,-0.0,1.0015538,1.0017834,229.17625,2,0,1,0
832460000,832460000,41.60669995422602,-86.35561552603099,229.27771,229.27055,-0.0,1.0015539,1.0017834,229.17628,2,0,1,0
832468000,832468000,41.60669995427668,-86.35561552610699,229.27774,229.27058,-0.0,1.001554,1.0017835,229.17632,2,0,1,0
832476000,832476000,41.606699954321435,-86.35561552621596,229.27777,229.27061,-0.0,1.0015541,1.0017835,229.17635,2,0,1,0
832484000,832484000,41.60669995435788,-86.35561552636649,229.27782,229.27066,-0.0,1.0015543,1.0017836,229.17636,2,0,1,0
832492000,832492000,41.60669995439782,-86.35561552653569,229.27788,229.27072,-0.0,1.0015544,1.0017831,229.17639,2,0,1,0
832500000,832500000,41.60669995441739,-86.35561552673498,229.27792,229.27077,-0.0,1.0015546,1.0017833,229.1764,2,0,1,0
832508000,832508000,41.60669995440774,-86.35561552694145,229.27797,229.27081,-0.0,1.0015547,1.0017834,229.17644,2,0,1,0
832516000,832516000,41.606699954419526,-86.3556155271895,229.27802,229.27086,-0.0,1.001555,1.0017835,229.17648,2,0,1,0
832524000,832524000,41.606699954438284,-86.35561552747338,229.27805,229.27089,-0.0,1.0015552,1.0017836,229.17651,2,0,1,0
832532000,832532000,41.60669995444902,-86.35561552777448,229.27809,229.27094,-0.0,1.0015554,1.0017837,229.17656,2,0,1,0
832540000,832540000,41.60669995446027,-86.35561552809564,229.27812,229.27097,-0.0,1.0015558,1.0017838,229.1766,2,0,1,0
832548000,832548000,41.606699954495916,-86.35561552841538,229.27815,229.271,-0.0,1.001556,1.0017835,229.17664,2,0,1,0
832556000,832556000,41.60669995453692,-86.35561552859603,229.27818,229.27103,-0.0,1.0015543,1.0017825,229.17622,2,0,1,0
832564000,832564000,41.606699954565066,-86.35561552873942,229.2782,229.27104,-0.0,1.0015543,1.0017825,229.17622,2,0,1,0
832572000,832572000,41.60669995455917,-86.35561552887134,229.27821,229.27106,-0.0,1.0015543,1.0017825,229.17624,2,0,1,0
832580000,832580000,41.60669995454577,-86.35561552898317,229.27823,229.27107,-0.0,1.0015543,1.0017825,229.17625,2,0,1,0
832588000,832588000,41.60669995455836,-86.35561552910075,229.27824,229.27109,-0.0,1.0015543,1.0017825,229.17627,2,0,1,0
832596000,832596000,41.60669995458918,-86.35561552925272,229.27824,229.27109,-0.0,1.0015543,1.0017825,229.17628,2,0,1,0
832604000,832604000,41.60669995462215,-86.35561552941617,229.27826,229.27112,-0.0,1.0015519,1.0017825,229.1763,2,0,1,0
832612000,832612000,41.60669995464708,-86.35561552952944,229.27827,229.27113,-0.0,1.0015519,1.0017821,229.17627,2,0,1,0
832620000,832620000,41.60669995463448,-86.35561552962695,229.27826,229.27112,-0.0,1.0015519,1.0017821,229.17627,2,0,1,0
832628000,832628000,41.60669995461411,-86.35561552974451,229.27826,229.27112,-0.0,1.0015519,1.0017821,229.17627,2,0,1,0
832636000,832636000,41.60669995458356,-86.35561552987929,229.27824,229.2711,-0.0,1.001552,1.0017821,229.17628,2,0,1,0
832644000,832644000,41.606699954560504,-86.35561553000976,229.27824,229.2711,-0.0,1.001552,1.0017821,229.1763,2,0,1,0
832652000,832652000,41.606699954518426,-86.35561553016318,229.27823,229.27109,-0.0,1.0015521,1.0017822,229.1763,2,0,1,0
832660000,832660000,41.60669995442489,-86.35561553034097,229.27821,229.27107,-0.0,1.0015521,1.0017822,229.17632,2,0,1,0
832668000,832668000,41.60669995431098,-86.35561553047144,229.27821,229.27107,-0.0,1.0015522,1.0017817,229.17632,2,0,1,0
832676000,832676000,41.60669995417054,-86.35561553057467,229.2782,229.27106,-0.0,1.0015523,1.0017817,229.17633,2,0,1,0
832684000,832684000,41.60669995399981,-86.3556155306435,229.2782,229.27106,-0.0,1.0015525,1.0017818,229.17633,2,0,1,0
832692000,832692000,41.60669995382105,-86.35561553069655,229.27818,229.27104,-0.0,1.0015526,1.001782,229.17633,2,0,1,0
832700000,832700000,41.60669995365487,-86.35561553078544,229.27817,229.27103,-0.0,1.0015527,1.001782,229.17633,2,0,1,0
832708000,832708000,41.60669995349701,-86.35561553088581,229.27815,229.27101,-0.0,1.0015529,1.0017821,229.17633,2,0,1,0
832716000,832716000,41.6066999533563,-86.35561553094603,229.27815,229.27101,-0.0,1.001553,1.0017822,229.17633,2,0,1,0
832724000,832724000,41.60669995324239,-86.35561553096036,229.27814,229.271,-0.0,1.0015533,1.0017823,229.17633,2,0,1,0
832732000,832732000,41.606699953161446,-86.35561553100767,229.27812,229.27098,-0.0,1.0015535,1.001782,229.17635,2,0,1,0
832740000,832740000,41.60669995308426,-86.3556155310765,229.27812,229.27098,-0.0,1.0015539,1.0017821,229.17635,2,0,1,0
832748000,832748000,41.606699952987235,-86.35561553119551,229.2781,229.27097,-0.0,1.0015541,1.0017822,229.17636,2,0,1,0
832756000,832756000,41.60669995288111,-86.35561553131738,229.27809,229.27095,-0.0,1.0015545,1.0017824,229.17636,2,0,1,0
832764000,832764000,41.60669995284465,-86.35561553141058,229.27808,229.27094,-0.0,1.0015526,1.0017813,229.1763,2,0,1,0
832772000,832772000,41.60669995280766,-86.35561553152527,229.27805,229.2709,-0.0,1.0015526,1.0017813,229.1763,2,0,1,0
832780000,832780000,41.606699952789974,-86.35561553164142,229.27803,229.27089,-0.0,1.0015526,1.0017813,229.1763,2,0,1,0
832788000,832788000,41.60669995281169,-86.35561553172171,229.27802,229.27087,-0.0,1.0015526,1.0017809,229.17632,2,0,1,0
832796000,832796000,41.60669995283661,-86.35561553178479,229.278,229.27086,-0.0,1.0015526,1.0017809,229.17632,2,0,1,0
832804000,832804000,41.60669995286314,-86.35561553188802,229.27798,229.27084,-0.0,1.0015526,1.0017809,229.17632,2,0,1,0
832812000,832812000,41.60669995289022,-86.3556155320013,229.27797,229.27101,-0.0,1.0015502,1.0017809,229.17632,2,0,1,0
832820000,832820000,41.60669995292934,-86.35561553211026,229.27794,229.27098,-0.0,1.0015502,1.0017809,229.17632,2,0,1,0
832828000,832828000,41.6066999529918,-86.35561553221636,229.27791,229.27095,-0.0,1.0015502,1.0017809,229.17633,2,0,1,0
832836000,832836000,41.606699953092566,-86.35561553233536,229.2779,229.27094,-0.0,1.0015503,1.0017809,229.17633,2,0,1,0
832844000,832844000,41.606699953241325,-86.35561553245294,229.27788,229.27092,-0.0,1.0015503,1.0017809,229.17633,2,0,1,0
832852000,832852000,41.60669995341634,-86.35561553257769,229.27786,229.2709,-0.0,1.0015503,1.0017804,229.17627,2,0,1,0
832860000,832860000,41.60669995361681,-86.35561553269525,229.27783,229.27087,-0.0,1.0015504,1.0017804,229.17627,2,0,1,0
832868000,832868000,41.606699953801474,-86.3556155328071,229.27782,229.27086,-0.0,1.0015506,1.0017805,229.17627,2,0,1,0
832876000,832876000,41.60669995394031,-86.3556155328759,229.27779,229.27083,-0.0,1.0015506,1.0017805,229.17628,2,0,1,0
832884000,832884000,41.606699954045375,-86.35561553289884,229.27776,229.2708,-0.0,1.0015507,1.0017806,229.17628,2,0,1,0
832892000,832892000,41.60669995416223,-86.35561553288738,229.27773,229.27077,-0.0,1.0015508,1.0017806,229.17628,2,0,1,0
832900000,832900000,41.606699954311246,-86.35561553284579,229.27771,229.27075,-0.0,1.0015509,1.0017807,229.17627,2,0,1,0
832908000,832908000,41.606699954468034,-86.35561553277267,229.2777,229.27074,-0.0,1.0015512,1.0017803,229.17628,2,0,1,0
832916000,832916000,41.606699954624034,-86.35561553273682,229.27768,229.27072,-0.0,1.0015513,1.0017804,229.17628,2,0,1,0
832924000,832924000,41.60669995477679,-86.35561553270959,229.27765,229.27069,-0.0,1.0015515,1.0017805,229.1763,2,0,1,0
832932000,832932000,41.60669995491778,-86.35561553266227,229.27762,229.27066,-0.0,1.0015517,1.0017806,229.1763,2,0,1,0
832940000,832940000,41.60669995506197,-86.35561553258914,229.2776,229.27065,-0.0,1.001552,1.0017807,229.1763,2,0,1,0
832948000,832948000,41.606699955226,-86.35561553247445,229.27759,229.27063,-0.0,1.0015522,1.0017809,229.1763,2,0,1,0
832956000,832956000,41.606699955421114,-86.3556155323454,229.27757,229.27061,-0.0,1.0015525,1.001781,229.1763,2,0,1,0
832964000,832964000,41.60669995562937,-86.35561553220346,229.27756,229.2706,-0.0,1.0015528,1.0017812,229.1763,2,0,1,0
832972000,832972000,41.606699955776236,-86.35561553201563,229.27753,229.27057,-0.0,1.0015509,1.0017797,229.17618,2,0,1,0
832980000,832980000,41.606699955890946,-86.35561553175613,229.27751,229.27055,-0.0,1.0015509,1.0017797,229.17618,2,0,1,0
832988000,832988000,41.60669995596493,-86.35561553146076,229.27748,229.27052,-0.0,1.0015509,1.0017797,229.17618,2,0,1,0
832996000,832996000,41.60669995600218,-86.35561553116827,229.27744,229.27048,-0.0,1.0015509,1.0017797,229.17618,2,0,1,0
833004000,833004000,41.60669995605686,-86.35561553084136,229.27742,229.27046,-0.0,1.0015509,1.0017797,229.17618,2,0,1,0
833012000,833012000,41.60669995616273,-86.35561553047144,229.27739,229.27043,-0.0,1.0015509,1.0017797,229.17616,2,0,1,0
833020000,833020000,41.60669995627744,-86.3556155301259,229.27736,229.27048,-0.0,1.0015485,1.0017797,229.17616,2,0,1,0
833028000,833028000,41.60669995637338,-86.35561552979469,229.27734,229.27046,-0.0,1.0015485,1.0017792,229.17615,2,0,1,0
833036000,833036000,41.60669995644092,-86.35561552947925,229.27733,229.27045,-0.0,1.0015486,1.0017792,229.17615,2,0,1,0
833044000,833044000,41.60669995648006,-86.35561552918533,229.2773,229.27042,-0.0,1.0015486,1.0017792,229.17615,2,0,1,0
833052000,833052000,41.60669995648756,-86.3556155288527,229.27725,229.27037,-0.0,1.0015486,1.0017792,229.17615,2,0,1,0
833060000,833060000,41.60669995649453,-86.35561552845984,229.27724,229.27036,-0.0,1.0015488,1.0017792,229.17615,2,0,1,0
833068000,833068000,41.606699956499625,-86.35561552804117,229.2772,229.27032,-0.0,1.0015488,1.0017793,229.17615,2,0,1,0
833076000,833076000,41.606699956489166,-86.35561552763397,229.27718,229.2703,-0.0,1.0015489,1.0017793,229.17613,2,0,1,0
833084000,833084000,41.60669995644844,-86.35561552724684,229.27716,229.27028,-0.0,1.001549,1.0017793,229.17613,2,0,1,0
833092000,833092000,41.606699956383835,-86.35561552688553,229.27713,229.27025,-0.0,1.0015491,1.001779,229.17612,2,0,1,0
833100000,833100000,41.60669995632192,-86.35561552653712,229.2771,229.27022,-0.0,1.0015492,1.001779,229.17612,2,0,1,0
833108000,833108000,41.60669995625974,-86.35561552619157,229.27708,229.2702,-0.0,1.0015494,1.0017791,229.17612,2,0,1,0
833116000,833116000,41.606699956216055,-86.35561552584316,229.27705,229.27017,-0.0,1.0015495,1.0017791,229.17612,2,0,1,0
833124000,833124000,41.606699956226244,-86.3556155254417,229.27702,229.27014,-0.0,1.0015496,1.0017792,229.1761,2,0,1,0
833132000,833132000,41.606699956269395,-86.35561552498862,229.27701,229.27013,-0.0,1.0015498,1.0017793,229.1761,2,0,1,0
833140000,833140000,41.60669995633747,-86.35561552450257,229.27698,229.2701,-0.0,1.0015501,1.0017794,229.1761,2,0,1,0
833148000,833148000,41.60669995639215,-86.35561552401651,229.27695,229.27007,-0.0,1.0015503,1.0017791,229.17609,2,0,1,0
833156000,833156000,41.60669995642163,-86.35561552353475,229.27692,229.27003,-0.0,1.0015506,1.0017792,229.17607,2,0,1,0
833164000,833164000,41.60669995641492,-86.35561552308025,229.27689,229.27,-0.0,1.0015509,1.0017793,229.17607,2,0,1,0
833172000,833172000,41.60669995640635,-86.35561552263005,229.27686,229.26997,-0.0,1.0015512,1.0017796,229.17607,2,0,1,0
833180000,833180000,41.60669995649988,-86.35561552225296,229.27684,229.26996,-0.0,1.0015494,1.0017785,229.17607,2,0,1,0
833188000,833188000,41.60669995661889,-86.35561552185723,229.27681,229.26993,-0.0,1.0015494,1.0017785,229.17606,2,0,1,0
833196000,833196000,41.6066999567202,-86.35561552147153,229.2768,229.26991,-0.0,1.0015494,1.0017785,229.17606,2,0,1,0
833204000,833204000,41.606699956825,-86.35561552109874,229.27676,229.26988,-0.0,1.0015494,1.0017785,229.17606,2,0,1,0
833212000,833212000,41.6066999569306,-86.35561552071306,229.27675,229.26987,-0.0,1.0015494,1.001778,229.17603,2,0,1,0
833220000,833220000,41.606699957031644,-86.3556155202858,229.27672,229.26984,-0.0,1.0015494,1.001778,229.17603,2,0,1,0
833228000,833228000,41.60669995713375,-86.35561551988576,229.27669,229.26984,-0.0,1.001547,1.001778,229.17603,2,0,1,0
833236000,833236000,41.606699957274465,-86.35561551949863,229.27667,229.26982,-0.0,1.001547,1.001778,229.17601,2,0,1,0
833244000,833244000,41.606699957437684,-86.35561551911582,229.27664,229.26979,-0.0,1.001547,1.001778,229.176,2,0,1,0
833252000,833252000,41.60669995756714,-86.35561551871722,229.27663,229.26978,-0.0,1.001547,1.001778,229.176,2,0,1,0
833260000,833260000,41.60669995767676,-86.35561551831432,229.2766,229.26974,-0.0,1.0015471,1.001778,229.176,2,0,1,0
