timestamp,timestamp_sample,gps_hvel[0],gps_hvel[1],gps_vvel,gps_hpos[0],gps_hpos[1],gps_vpos,ev_hvel[0],ev_hvel[1],ev_vvel,ev_hpos[0],ev_hpos[1],ev_vpos,rng_vpos,baro_vpos,aux_hvel[0],aux_hvel[1],aux_vvel,flow[0],flow[1],heading,mag_field[0],mag_field[1],mag_field[2],drag[0],drag[1],airspeed,beta,hagl,hagl_rate
829260000,829180000,0.00010736867,0.0,7.544249e-05,1.8338233e-06,0.0,0.0,0.0,0.0,0.0,0.0,0.0,0.0,0.0,7.743933e-06,0.0,0.0,nan,0.0,0.0,1.1052913e-05,0.0,0.0,0.0,0.0,0.0,0.0,0.0,0.0,0.0
829268000,829188000,0.00010736867,0.0,7.544249e-05,1.8338233e-06,0.0,0.0,0.0,0.0,0.0,0.0,0.0,0.0,0.0,7.743933e-06,0.0,0.0,nan,0.0,0.0,1.1052913e-05,0.0,0.0,0.0,0.0,0.0,0.0,0.0,0.0,0.0
829276000,829196000,0.00010736867,0.0,7.544249e-05,1.8338233e-06,0.0,0.0,0.0,0.0,0.0,0.0,0.0,0.0,0.0,7.743933e-06,0.0,0.0,nan,0.0,0.0,1.1052913e-05,0.0,0.0,0.0,0.0,0.0,0.0,0.0,0.0,0.0
829284000,829204000,0.00010736867,0.0,7.544249e-05,1.8338233e-06,0.0,0.0,0.0,0.0,0.0,0.0,0.0,0.0,0.0,9.4489957e-07,0.0,0.0,nan,0.0,0.0,1.1052913e-05,0.0,0.0,0.0,0.0,0.0,0.0,0.0,0.0,0.0
829292000,829212000,0.00010736867,0.0,7.544249e-05,1.8338233e-06,0.0,0.0,0.0,0.0,0.0,0.0,0.0,0.0,0.0,9.4489957e-07,0.0,0.0,nan,0.0,0.0,1.1052913e-05,0.0,0.0,0.0,0.0,0.0,0.0,0.0,0.0,0.0
829300000,829220000,0.00010736867,0.0,7.544249e-05,1.8338233e-06,0.0,0.0,0.0,0.0,0.0,0.0,0.0,0.0,0.0,9.4489957e-07,0.0,0.0,nan,0.0,0.0,1.1052913e-05,0.0,0.0,0.0,0.0,0.0,0.0,0.0,0.0,0.0
829308000,829228000,0.00010736867,0.0,7.544249e-05,1.8338233e-06,0.0,0.0,0.0,0.0,0.0,0.0,0.0,0.0,0.0,9.4489957e-07,0.0,0.0,nan,0.0,0.0,0.0004098309,0.0,0.0,0.0,0.0,0.0,0.0,0.0,0.0,0.0
829316000,829236000,0.00010736867,0.0,7.544249e-05,1.8338233e-06,0.0,0.0,0.0,0.0,0.0,0.0,0.0,0.0,0.0,9.4489957e-07,0.0,0.0,nan,0.0,0.0,0.0004098309,0.0,0.0,0.0,0.0,0.0,0.0,0.0,0.0,0.0
829324000,829244000,0.00010736867,0.0,7.544249e-05,1.8338233e-06,0.0,0.0,0.0,0.0,0.0,0.0,0.0,0.0,0.0,9.4489957e-07,0.0,0.0,nan,0.0,0.0,0.0004098309,0.0,0.0,0.0,0.0,0.0,0.0,0.0,0.0,0.0
829332000,829252000,0.00010736867,0.0,7.544249e-05,1.8338233e-06,0.0,0.0,0.0,0.0,0.0,0.0,0.0,0.0,0.0,9.4489957e-07,0.0,0.0,nan,0.0,0.0,0.0004098309,0.0,0.0,0.0,0.0,0.0,0.0,0.0,0.0,0.0
829340000,829260000,0.00010736867,0.0,7.544249e-05,1.8338233e-06,0.0,0.0,0.0,0.0,0.0,0.0,0.0,0.0,0.0,9.4489957e-07,0.0,0.0,nan,0.0,0.0,0.0004098309,0.0,0.0,0.0,0.0,0.0,0.0,0.0,0.0,0.0
829348000,829268000,0.00010736867,0.0,7.544249e-05,1.8338233e-06,0.0,0.0,0.0,0.0,0.0,0.0,0.0,0.0,0.0,1.2549955e-06,0.0,0.0,nan,0.0,0.0,0.0004098309,0.0,0.0,0.0,0.0,0.0,0.0,0.0,0.0,0.0
829356000,829276000,0.00010736867,0.0,7.544249e-05,1.8338233e-06,0.0,0.0,0.0,0.0,0.0,0.0,0.0,0.0,0.0,1.2549955e-06,0.0,0.0,nan,0.0,0.0,0.0004098309,0.0,0.0,0.0,0.0,0.0,0.0,0.0,0.0,0.0
829364000,829284000,0.00010736867,0.0,7.544249e-05,1.8338233e-06,0.0,0.0,0.0,0.0,0.0,0.0,0.0,0.0,0.0,1.2549955e-06,0.0,0.0,nan,0.0,0.0,0.0004098309,0.0,0.0,0.0,0.0,0.0,0.0,0.0,0.0,0.0
829372000,829292000,0.00010736867,0.0,7.544249e-05,1.8338233e-06,0.0,0.0,0.0,0.0,0.0,0.0,0.0,0.0,0.0,1.2549955e-06,0.0,0.0,nan,0.0,0.0,0.0004098309,0.0,0.0,0.0,0.0,0.0,0.0,0.0,0.0,0.0
829380000,829300000,0.00010736867,0.0,7.544249e-05,1.8338233e-06,0.0,0.0,0.0,0.0,0.0,0.0,0.0,0.0,0.0,1.2549955e-06,0.0,0.0,nan,0.0,0.0,2.1279424e-05,0.0,0.0,0.0,0.0,0.0,0.0,0.0,0.0,0.0
829388000,829308000,0.00010736867,0.0,7.544249e-05,1.8338233e-06,0.0,0.0,0.0,0.0,0.0,0.0,0.0,0.0,0.0,1.2549955e-06,0.0,0.0,nan,0.0,0.0,2.1279424e-05,0.0,0.0,0.0,0.0,0.0,0.0,0.0,0.0,0.0
829396000,829316000,0.00010736867,0.0,7.544249e-05,1.8338233e-06,0.0,0.0,0.0,0.0,0.0,0.0,0.0,0.0,0.0,1.2549955e-06,0.0,0.0,nan,0.0,0.0,2.1279424e-05,0.0,0.0,0.0,0.0,0.0,0.0,0.0,0.0,0.0
829404000,829324000,0.00010736867,0.0,7.544249e-05,1.8338233e-06,0.0,0.0,0.0,0.0,0.0,0.0,0.0,0.0,0.0,3.185527e-05,0.0,0.0,nan,0.0,0.0,2.1279424e-05,0.0,0.0,0.0,0.0,0.0,0.0,0.0,0.0,0.0
829412000,829332000,0.00010736867,0.0,7.544249e-05,1.8338233e-06,0.0,0.0,0.0,0.0,0.0,0.0,0.0,0.0,0.0,3.185527e-05,0.0,0.0,nan,0.0,0.0,2.1279424e-05,0.0,0.0,0.0,0.0,0.0,0.0,0.0,0.0,0.0
829420000,829340000,0.00010736867,0.0,7.544249e-05,1.8338233e-06,0.0,0.0,0.0,0.0,0.0,0.0,0.0,0.0,0.0,3.185527e-05,0.0,0.0,nan,0.0,0.0,2.1279424e-05,0.0,0.0,0.0,0.0,0.0,0.0,0.0,0.0,0.0
829428000,829348000,0.00010736867,0.0,7.544249e-05,1.8338233e-06,0.0,0.0,0.0,0.0,0.0,0.0,0.0,0.0,0.0,3.185527e-05,0.0,0.0,nan,0.0,0.0,2.1279424e-05,0.0,0.0,0.0,0.0,0.0,0.0,0.0,0.0,0.0
829436000,829356000,1.8028147e-06,0.0,3.855958e-06,1.6647687e-06,0.0,0.0,0.0,0.0,0.0,0.0,0.0,0.0,0.0,3.185527e-05,0.0,0.0,nan,0.0,0.0,2.1279424e-05,0.0,0.0,0.0,0.0,0.0,0.0,0.0,0.0,0.0
829444000,829364000,1.8028147e-06,0.0,3.855958e-06,1.6647687e-06,0.0,0.0,0.0,0.0,0.0,0.0,0.0,0.0,0.0,3.185527e-05,0.0,0.0,nan,0.0,0.0,7.130472e-05,0.0,0.0,0.0,0.0,0.0,0.0,0.0,0.0,0.0
829452000,829372000,1.8028147e-06,0.0,3.855958e-06,1.6647687e-06,0.0,0.0,0.0,0.0,0.0,0.0,0.0,0.0,0.0,3.185527e-05,0.0,0.0,nan,0.0,0.0,7.130472e-05,0.0,0.0,0.0,0.0,0.0,0.0,0.0,0.0,0.0
829460000,829380000,1.8028147e-06,0.0,3.855958e-06,1.6647687e-06,0.0,0.0,0.0,0.0,0.0,0.0,0.0,0.0,0.0,3.185527e-05,0.0,0.0,nan,0.0,0.0,7.130472e-05,0.0,0.0,0.0,0.0,0.0,0.0,0.0,0.0,0.0
829468000,829388000,1.8028147e-06,0.0,3.855958e-06,1.6647687e-06,0.0,0.0,0.0,0.0,0.0,0.0,0.0,0.0,0.0,2.8095914e-07,0.0,0.0,nan,0.0,0.0,7.130472e-05,0.0,0.0,0.0,0.0,0.0,0.0,0.0,0.0,0.0
829476000,829396000,1.8028147e-06,0.0,3.855958e-06,1.6647687e-06,0.0,0.0,0.0,0.0,0.0,0.0,0.0,0.0,0.0,2.8095914e-07,0.0,0.0,nan,0.0,0.0,7.130472e-05,0.0,0.0,0.0,0.0,0.0,0.0,0.0,0.0,0.0
829484000,829404000,1.8028147e-06,0.0,3.855958e-06,1.6647687e-06,0.0,0.0,0.0,0.0,0.0,0.0,0.0,0.0,0.0,2.8095914e-07,0.0,0.0,nan,0.0,0.0,7.130472e-05,0.0,0.0,0.0,0.0,0.0,0.0,0.0,0.0,0.0
829492000,829412000,1.8028147e-06,0.0,3.855958e-06,1.6647687e-06,0.0,0.0,0.0,0.0,0.0,0.0,0.0,0.0,0.0,2.8095914e-07,0.0,0.0,nan,0.0,0.0,7.130472e-05,0.0,0.0,0.0,0.0,0.0,0.0,0.0,0.0,0.0
829500000,829420000,1.8028147e-06,0.0,3.855958e-06,1.6647687e-06,0.0,0.0,0.0,0.0,0.0,0.0,0.0,0.0,0.0,2.8095914e-07,0.0,0.0,nan,0.0,0.0,7.130472e-05,0.0,0.0,0.0,0.0,0.0,0.0,0.0,0.0,0.0
829508000,829428000,1.8028147e-06,0.0,3.855958e-06,1.6647687e-06,0.0,0.0,0.0,0.0,0.0,0.0,0.0,0.0,0.0,2.8095914e-07,0.0,0.0,nan,0.0,0.0,7.130472e-05,0.0,0.0,0.0,0.0,0.0,0.0,0.0,0.0,0.0
829516000,829436000,1.8028147e-06,0.0,3.855958e-06,1.6647687e-06,0.0,0.0,0.0,0.0,0.0,0.0,0.0,0.0,0.0,2.8095914e-07,0.0,0.0,nan,0.0,0.0,0.000103916114,0.0,0.0,0.0,0.0,0.0,0.0,0.0,0.0,0.0
829524000,829444000,1.8028147e-06,0.0,3.855958e-06,1.6647687e-06,0.0,0.0,0.0,0.0,0.0,0.0,0.0,0.0,0.0,4.5121265e-05,0.0,0.0,nan,0.0,0.0,0.000103916114,0.0,0.0,0.0,0.0,0.0,0.0,0.0,0.0,0.0
829532000,829452000,1.8028147e-06,0.0,3.855958e-06,1.6647687e-06,0.0,0.0,0.0,0.0,0.0,0.0,0.0,0.0,0.0,4.5121265e-05,0.0,0.0,nan,0.0,0.0,0.000103916114,0.0,0.0,0.0,0.0,0.0,0.0,0.0,0.0,0.0
829540000,829460000,1.8028147e-06,0.0,3.855958e-06,1.6647687e-06,0.0,0.0,0.0,0.0,0.0,0.0,0.0,0.0,0.0,4.5121265e-05,0.0,0.0,nan,0.0,0.0,0.000103916114,0.0,0.0,0.0,0.0,0.0,0.0,0.0,0.0,0.0
829548000,829468000,1.8028147e-06,0.0,3.855958e-06,1.6647687e-06,0.0,0.0,0.0,0.0,0.0,0.0,0.0,0.0,0.0,4.5121265e-05,0.0,0.0,nan,0.0,0.0,0.000103916114,0.0,0.0,0.0,0.0,0.0,0.0,0.0,0.0,0.0
829556000,829476000,1.8028147e-06,0.0,3.855958e-06,1.6647687e-06,0.0,0.0,0.0,0.0,0.0,0.0,0.0,0.0,0.0,4.5121265e-05,0.0,0.0,nan,0.0,0.0,0.000103916114,0.0,0.0,0.0,0.0,0.0,0.0,0.0,0.0,0.0
829564000,829484000,1.8028147e-06,0.0,3.855958e-06,1.6647687e-06,0.0,0.0,0.0,0.0,0.0,0.0,0.0,0.0,0.0,4.5121265e-05,0.0,0.0,nan,0.0,0.0,0.000103916114,0.0,0.0,0.0,0.0,0.0,0.0,0.0,0.0,0.0
829572000,829492000,1.8028147e-06,0.0,3.855958e-06,1.6647687e-06,0.0,0.0,0.0,0.0,0.0,0.0,0.0,0.0,0.0,4.5121265e-05,0.0,0.0,nan,0.0,0.0,0.000103916114,0.0,0.0,0.0,0.0,0.0,0.0,0.0,0.0,0.0
829580000,829500000,1.8028147e-06,0.0,3.855958e-06,1.6647687e-06,0.0,0.0,0.0,0.0,0.0,0.0,0.0,0.0,0.0,4.5121265e-05,0.0,0.0,nan,0.0,0.0,0.000103916114,0.0,0.0,0.0,0.0,0.0,0.0,0.0,0.0,0.0
829588000,829508000,1.8028147e-06,0.0,3.855958e-06,1.6647687e-06,0.0,0.0,0.0,0.0,0.0,0.0,0.0,0.0,0.0,2.5175539e-06,0.0,0.0,nan,0.0,0.0,0.00016383504,0.0,0.0,0.0,0.0,0.0,0.0,0.0,0.0,0.0
829596000,829516000,1.8028147e-06,0.0,3.855958e-06,1.6647687e-06,0.0,0.0,0.0,0.0,0.0,0.0,0.0,0.0,0.0,2.5175539e-06,0.0,0.0,nan,0.0,0.0,0.00016383504,0.0,0.0,0.0,0.0,0.0,0.0,0.0,0.0,0.0
829604000,829524000,1.8028147e-06,0.0,3.855958e-06,1.6647687e-06,0.0,0.0,0.0,0.0,0.0,0.0,0.0,0.0,0.0,2.5175539e-06,0.0,0.0,nan,0.0,0.0,0.00016383504,0.0,0.0,0.0,0.0,0.0,0.0,0.0,0.0,0.0
829612000,829532000,1.8028147e-06,0.0,3.855958e-06,1.6647687e-06,0.0,0.0,0.0,0.0,0.0,0.0,0.0,0.0,0.0,2.5175539e-06,0.0,0.0,nan,0.0,0.0,0.00016383504,0.0,0.0,0.0,0.0,0.0,0.0,0.0,0.0,0.0
829620000,829540000,1.8028147e-06,0.0,3.855958e-06,1.6647687e-06,0.0,0.0,0.0,0.0,0.0,0.0,0.0,0.0,0.0,2.5175539e-06,0.0,0.0,nan,0.0,0.0,0.00016383504,0.0,0.0,0.0,0.0,0.0,0.0,0.0,0.0,0.0
829628000,829548000,1.8028147e-06,0.0,3.855958e-06,1.6647687e-06,0.0,0.0,0.0,0.0,0.0,0.0,0.0,0.0,0.0,2.5175539e-06,0.0,0.0,nan,0.0,0.0,0.00016383504,0.0,0.0,0.0,0.0,0.0,0.0,0.0,0.0,0.0
829636000,829556000,1.8028147e-06,0.0,3.855958e-06,1.6647687e-06,0.0,0.0,0.0,0.0,0.0,0.0,0.0,0.0,0.0,2.5175539e-06,0.0,0.0,nan,0.0,0.0,0.00016383504,0.0,0.0,0.0,0.0,0.0,0.0,0.0,0.0,0.0
829644000,829564000,1.8028147e-06,0.0,3.855958e-06,1.6647687e-06,0.0,0.0,0.0,0.0,0.0,0.0,0.0,0.0,0.0,9.5339317e-07,0.0,0.0,nan,0.0,0.0,0.00016383504,0.0,0.0,0.0,0.0,0.0,0.0,0.0,0.0,0.0
829652000,829572000,1.8028147e-06,0.0,3.855958e-06,1.6647687e-06,0.0,0.0,0.0,0.0,0.0,0.0,0.0,0.0,0.0,9.5339317e-07,0.0,0.0,nan,0.0,0.0,0.00016383504,0.0,0.0,0.0,0.0,0.0,0.0,0.0,0.0,0.0
829660000,829580000,1.8028147e-06,0.0,3.855958e-06,1.6647687e-06,0.0,0.0,0.0,0.0,0.0,0.0,0.0,0.0,0.0,9.5339317e-07,0.0,0.0,nan,0.0,0.0,0.00012544134,0.0,0.0,0.0,0.0,0.0,0.0,0.0,0.0,0.0
829668000,829588000,1.8028147e-06,0.0,3.855958e-06,1.6647687e-06,0.0,0.0,0.0,0.0,0.0,0.0,0.0,0.0,0.0,9.5339317e-07,0.0,0.0,nan,0.0,0.0,0.00012544134,0.0,0.0,0.0,0.0,0.0,0.0,0.0,0.0,0.0
829676000,829596000,1.8028147e-06,0.0,3.855958e-06,1.6647687e-06,0.0,0.0,0.0,0.0,0.0,0.0,0.0,0.0,0.0,9.5339317e-07,0.0,0.0,nan,0.0,0.0,0.00012544134,0.0,0.0,0.0,0.0,0.0,0.0,0.0,0.0,0.0
829684000,829604000,1.8028147e-06,0.0,3.855958e-06,1.6647687e-06,0.0,0.0,0.0,0.0,0.0,0.0,0.0,0.0,0.0,9.5339317e-07,0.0,0.0,nan,0.0,0.0,0.00012544134,0.0,0.0,0.0,0.0,0.0,0.0,0.0,0.0,0.0
829692000,829612000,1.8028147e-06,0.0,3.855958e-06,1.6647687e-06,0.0,0.0,0.0,0.0,0.0,0.0,0.0,0.0,0.0,9.5339317e-07,0.0,0.0,nan,0.0,0.0,0.00012544134,0.0,0.0,0.0,0.0,0.0,0.0,0.0,0.0,0.0
829700000,829620000,1.8028147e-06,0.0,3.855958e-06,1.6647687e-06,0.0,0.0,0.0,0.0,0.0,0.0,0.0,0.0,0.0,9.5339317e-07,0.0,0.0,nan,0.0,0.0,0.00012544134,0.0,0.0,0.0,0.0,0.0,0.0,0.0,0.0,0.0
829708000,829628000,1.8028147e-06,0.0,3.855958e-06,1.6647687e-06,0.0,0.0,0.0,0.0,0.0,0.0,0.0,0.0,0.0,2.6997817e-05,0.0,0.0,nan,0.0,0.0,0.00012544134,0.0,0.0,0.0,0.0,0.0,0.0,0.0,0.0,0.0
829716000,829636000,1.8028147e-06,0.0,3.855958e-06,1.6647687e-06,0.0,0.0,0.0,0.0,0.0,0.0,0.0,0.0,0.0,2.6997817e-05,0.0,0.0,nan,0.0,0.0,0.00012544134,0.0,0.0,0.0,0.0,0.0,0.0,0.0,0.0,0.0
829724000,829644000,1.8028147e-06,0.0,3.855958e-06,1.6647687e-06,0.0,0.0,0.0,0.0,0.0,0.0,0.0,0.0,0.0,2.6997817e-05,0.0,0.0,nan,0.0,0.0,0.00012544134,0.0,0.0,0.0,0.0,0.0,0.0,0.0,0.0,0.0
829732000,829652000,1.8028147e-06,0.0,3.855958e-06,1.6647687e-06,0.0,0.0,0.0,0.0,0.0,0.0,0.0,0.0,0.0,2.6997817e-05,0.0,0.0,nan,0.0,0.0,0.00013138102,0.0,0.0,0.0,0.0,0.0,0.0,0.0,0.0,0.0
829740000,829660000,1.8028147e-06,0.0,3.855958e-06,1.6647687e-06,0.0,0.0,0.0,0.0,0.0,0.0,0.0,0.0,0.0,2.6997817e-05,0.0,0.0,nan,0.0,0.0,0.00013138102,0.0,0.0,0.0,0.0,0.0,0.0,0.0,0.0,0.0
829748000,829668000,1.8028147e-06,0.0,3.855958e-06,1.6647687e-06,0.0,0.0,0.0,0.0,0.0,0.0,0.0,0.0,0.0,2.6997817e-05,0.0,0.0,nan,0.0,0.0,0.00013138102,0.0,0.0,0.0,0.0,0.0,0.0,0.0,0.0,0.0
829756000,829676000,1.8028147e-06,0.0,3.855958e-06,1.6647687e-06,0.0,0.0,0.0,0.0,0.0,0.0,0.0,0.0,0.0,2.6997817e-05,0.0,0.0,nan,0.0,0.0,0.00013138102,0.0,0.0,0.0,0.0,0.0,0.0,0.0,0.0,0.0
829764000,829684000,1.8028147e-06,0.0,3.855958e-06,1.6647687e-06,0.0,0.0,0.0,0.0,0.0,0.0,0.0,0.0,0.0,9.681201e-06,0.0,0.0,nan,0.0,0.0,0.00013138102,0.0,0.0,0.0,0.0,0.0,0.0,0.0,0.0,0.0
829772000,829692000,1.8028147e-06,0.0,3.855958e-06,1.6647687e-06,0.0,0.0,0.0,0.0,0.0,0.0,0.0,0.0,0.0,9.681201e-06,0.0,0.0,nan,0.0,0.0,0.00013138102,0.0,0.0,0.0,0.0,0.0,0.0,0.0,0.0,0.0
829780000,829700000,1.8028147e-06,0.0,3.855958e-06,1.6647687e-06,0.0,0.0,0.0,0.0,0.0,0.0,0.0,0.0,0.0,9.681201e-06,0.0,0.0,nan,0.0,0.0,0.00013138102,0.0,0.0,0.0,0.0,0.0,0.0,0.0,0.0,0.0
829788000,829708000,1.8028147e-06,0.0,3.855958e-06,1.6647687e-06,0.0,0.0,0.0,0.0,0.0,0.0,0.0,0.0,0.0,9.681201e-06,0.0,0.0,nan,0.0,0.0,0.00013138102,0.0,0.0,0.0,0.0,0.0,0.0,0.0,0.0,0.0
829796000,829716000,4.202352e-05,0.0,0.0005551388,1.962041e-06,0.0,0.0,0.0,0.0,0.0,0.0,0.0,0.0,0.0,9.681201e-06,0.0,0.0,nan,0.0,0.0,0.00013138102,0.0,0.0,0.0,0.0,0.0,0.0,0.0,0.0,0.0
829804000,829724000,4.202352e-05,0.0,0.0005551388,1.962041e-06,0.0,0.0,0.0,0.0,0.0,0.0,0.0,0.0,0.0,9.681201e-06,0.0,0.0,nan,0.0,0.0,7.8593104e-07,0.0,0.0,0.0,0.0,0.0,0.0,0.0,0.0,0.0
829812000,829732000,4.202352e-05,0.0,0.0005551388,1.962041e-06,0.0,0.0,0.0,0.0,0.0,0.0,0.0,0.0,0.0,9.681201e-06,0.0,0.0,nan,0.0,0.0,7.8593104e-07,0.0,0.0,0.0,0.0,0.0,0.0,0.0,0.0,0.0
829820000,829740000,4.202352e-05,0.0,0.0005551388,1.962041e-06,0.0,0.0,0.0,0.0,0.0,0.0,0.0,0.0,0.0,9.681201e-06,0.0,0.0,nan,0.0,0.0,7.8593104e-07,0.0,0.0,0.0,0.0,0.0,0.0,0.0,0.0,0.0
829828000,829748000,4.202352e-05,0.0,0.0005551388,1.962041e-06,0.0,0.0,0.0,0.0,0.0,0.0,0.0,0.0,0.0,9.113063e-07,0.0,0.0,nan,0.0,0.0,7.8593104e-07,0.0,0.0,0.0,0.0,0.0,0.0,0.0,0.0,0.0
829836000,829756000,4.202352e-05,0.0,0.0005551388,1.962041e-06,0.0,0.0,0.0,0.0,0.0,0.0,0.0,0.0,0.0,9.113063e-07,0.0,0.0,nan,0.0,0.0,7.8593104e-07,0.0,0.0,0.0,0.0,0.0,0.0,0.0,0.0,0.0
829844000,829764000,4.202352e-05,0.0,0.0005551388,1.962041e-06,0.0,0.0,0.0,0.0,0.0,0.0,0.0,0.0,0.0,9.113063e-07,0.0,0.0,nan,0.0,0.0,7.8593104e-07,0.0,0.0,0.0,0.0,0.0,0.0,0.0,0.0,0.0
829852000,829772000,4.202352e-05,0.0,0.0005551388,1.962041e-06,0.0,0.0,0.0,0.0,0.0,0.0,0.0,0.0,0.0,9.113063e-07,0.0,0.0,nan,0.0,0.0,7.8593104e-07,0.0,0.0,0.0,0.0,0.0,0.0,0.0,0.0,0.0
829860000,829780000,4.202352e-05,0.0,0.0005551388,1.962041e-06,0.0,0.0,0.0,0.0,0.0,0.0,0.0,0.0,0.0,9.113063e-07,0.0,0.0,nan,0.0,0.0,7.8593104e-07,0.0,0.0,0.0,0.0,0.0,0.0,0.0,0.0,0.0
829868000,829788000,4.202352e-05,0.0,0.0005551388,1.962041e-06,0.0,0.0,0.0,0.0,0.0,0.0,0.0,0.0,0.0,9.113063e-07,0.0,0.0,nan,0.0,0.0,7.8593104e-07,0.0,0.0,0.0,0.0,0.0,0.0,0.0,0.0,0.0
829876000,829796000,4.202352e-05,0.0,0.0005551388,1.962041e-06,0.0,0.0,0.0,0.0,0.0,0.0,0.0,0.0,0.0,9.113063e-07,0.0,0.0,nan,0.0,0.0,0.0009185237,0.0,0.0,0.0,0.0,0.0,0.0,0.0,0.0,0.0
829884000,829804000,4.202352e-05,0.0,0.0005551388,1.962041e-06,0.0,0.0,0.0,0.0,0.0,0.0,0.0,0.0,0.0,1.7148392e-05,0.0,0.0,nan,0.0,0.0,0.0009185237,0.0,0.0,0.0,0.0,0.0,0.0,0.0,0.0,0.0
829892000,829812000,4.202352e-05,0.0,0.0005551388,1.962041e-06,0.0,0.0,0.0,0.0,0.0,0.0,0.0,0.0,0.0,1.7148392e-05,0.0,0.0,nan,0.0,0.0,0.0009185237,0.0,0.0,0.0,0.0,0.0,0.0,0.0,0.0,0.0
829900000,829820000,4.202352e-05,0.0,0.0005551388,1.962041e-06,0.0,0.0,0.0,0.0,0.0,0.0,0.0,0.0,0.0,1.7148392e-05,0.0,0.0,nan,0.0,0.0,0.0009185237,0.0,0.0,0.0,0.0,0.0,0.0,0.0,0.0,0.0
829908000,829828000,4.202352e-05,0.0,0.0005551388,1.962041e-06,0.0,0.0,0.0,0.0,0.0,0.0,0.0,0.0,0.0,1.7148392e-05,0.0,0.0,nan,0.0,0.0,0.0009185237,0.0,0.0,0.0,0.0,0.0,0.0,0.0,0.0,0.0
829916000,829836000,4.202352e-05,0.0,0.0005551388,1.962041e-06,0.0,0.0,0.0,0.0,0.0,0.0,0.0,0.0,0.0,1.7148392e-05,0.0,0.0,nan,0.0,0.0,0.0009185237,0.0,0.0,0.0,0.0,0.0,0.0,0.0,0.0,0.0
829924000,829844000,4.202352e-05,0.0,0.0005551388,1.962041e-06,0.0,0.0,0.0,0.0,0.0,0.0,0.0,0.0,0.0,1.7148392e-05,0.0,0.0,nan,0.0,0.0,0.0009185237,0.0,0.0,0.0,0.0,0.0,0.0,0.0,0.0,0.0
829932000,829852000,4.202352e-05,0.0,0.0005551388,1.962041e-06,0.0,0.0,0.0,0.0,0.0,0.0,0.0,0.0,0.0,1.7148392e-05,0.0,0.0,nan,0.0,0.0,0.0009185237,0.0,0.0,0.0,0.0,0.0,0.0,0.0,0.0,0.0
829940000,829860000,4.202352e-05,0.0,0.0005551388,1.962041e-06,0.0,0.0,0.0,0.0,0.0,0.0,0.0,0.0,0.0,1.7148392e-05,0.0,0.0,nan,0.0,0.0,0.0009185237,0.0,0.0,0.0,0.0,0.0,0.0,0.0,0.0,0.0
829948000,829868000,4.202352e-05,0.0,0.0005551388,1.962041e-06,0.0,0.0,0.0,0.0,0.0,0.0,0.0,0.0,0.0,4.1049557e-06,0.0,0.0,nan,0.0,0.0,5.4890265e-06,0.0,0.0,0.0,0.0,0.0,0.0,0.0,0.0,0.0
829956000,829876000,4.202352e-05,0.0,0.0005551388,1.962041e-06,0.0,0.0,0.0,0.0,0.0,0.0,0.0,0.0,0.0,4.1049557e-06,0.0,0.0,nan,0.0,0.0,5.4890265e-06,0.0,0.0,0.0,0.0,0.0,0.0,0.0,0.0,0.0
829964000,829884000,4.202352e-05,0.0,0.0005551388,1.962041e-06,0.0,0.0,0.0,0.0,0.0,0.0,0.0,0.0,0.0,4.1049557e-06,0.0,0.0,nan,0.0,0.0,5.4890265e-06,0.0,0.0,0.0,0.0,0.0,0.0,0.0,0.0,0.0
829972000,829892000,4.202352e-05,0.0,0.0005551388,1.962041e-06,0.0,0.0,0.0,0.0,0.0,0.0,0.0,0.0,0.0,4.1049557e-06,0.0,0.0,nan,0.0,0.0,5.4890265e-06,0.0,0.0,0.0,0.0,0.0,0.0,0.0,0.0,0.0
829980000,829900000,4.202352e-05,0.0,0.0005551388,1.962041e-06,0.0,0.0,0.0,0.0,0.0,0.0,0.0,0.0,0.0,4.1049557e-06,0.0,0.0,nan,0.0,0.0,5.4890265e-06,0.0,0.0,0.0,0.0,0.0,0.0,0.0,0.0,0.0
829988000,829908000,4.202352e-05,0.0,0.0005551388,1.962041e-06,0.0,0.0,0.0,0.0,0.0,0.0,0.0,0.0,0.0,4.1049557e-06,0.0,0.0,nan,0.0,0.0,5.4890265e-06,0.0,0.0,0.0,0.0,0.0,0.0,0.0,0.0,0.0
829996000,829916000,4.202352e-05,0.0,0.0005551388,1.962041e-06,0.0,0.0,0.0,0.0,0.0,0.0,0.0,0.0,0.0,4.1049557e-06,0.0,0.0,nan,0.0,0.0,5.4890265e-06,0.0,0.0,0.0,0.0,0.0,0.0,0.0,0.0,0.0
830004000,829924000,5.5534598e-05,0.0,9.3169575e-07,1.920488e-06,0.0,0.0,0.0,0.0,0.0,0.0,0.0,0.0,0.0,4.208042e-06,0.0,0.0,nan,0.0,0.0,5.4890265e-06,0.0,0.0,0.0,0.0,0.0,0.0,0.0,0.0,0.0
830012000,829932000,5.5534598e-05,0.0,9.3169575e-07,1.920488e-06,0.0,0.0,0.0,0.0,0.0,0.0,0.0,0.0,0.0,4.208042e-06,0.0,0.0,nan,0.0,0.0,5.4890265e-06,0.0,0.0,0.0,0.0,0.0,0.0,0.0,0.0,0.0
830020000,829940000,5.5534598e-05,0.0,9.3169575e-07,1.920488e-06,0.0,0.0,0.0,0.0,0.0,0.0,0.0,0.0,0.0,4.208042e-06,0.0,0.0,nan,0.0,0.0,0.0013474188,0.0,0.0,0.0,0.0,0.0,0.0,0.0,0.0,0.0
830028000,829948000,5.5534598e-05,0.0,9.3169575e-07,1.920488e-06,0.0,0.0,0.0,0.0,0.0,0.0,0.0,0.0,0.0,4.208042e-06,0.0,0.0,nan,0.0,0.0,0.0013474188,0.0,0.0,0.0,0.0,0.0,0.0,0.0,0.0,0.0
830036000,829956000,5.5534598e-05,0.0,9.3169575e-07,1.920488e-06,0.0,0.0,0.0,0.0,0.0,0.0,0.0,0.0,0.0,4.208042e-06,0.0,0.0,nan,0.0,0.0,0.0013474188,0.0,0.0,0.0,0.0,0.0,0.0,0.0,0.0,0.0
830044000,829964000,5.5534598e-05,0.0,9.3169575e-07,1.920488e-06,0.0,0.0,0.0,0.0,0.0,0.0,0.0,0.0,0.0,4.208042e-06,0.0,0.0,nan,0.0,0.0,0.0013474188,0.0,0.0,0.0,0.0,0.0,0.0,0.0,0.0,0.0
830052000,829972000,5.5534598e-05,0.0,9.3169575e-07,1.920488e-06,0.0,0.0,0.0,0.0,0.0,0.0,0.0,0.0,0.0,4.738854e-06,0.0,0.0,nan,0.0,0.0,0.0013474188,0.0,0.0,0.0,0.0,0.0,0.0,0.0,0.0,0.0
830060000,829980000,5.5534598e-05,0.0,9.3169575e-07,1.920488e-06,0.0,0.0,0.0,0.0,0.0,0.0,0.0,0.0,0.0,4.738854e-06,0.0,0.0,nan,0.0,0.0,0.0013474188,0.0,0.0,0.0,0.0,0.0,0.0,0.0,0.0,0.0
830068000,829988000,5.5534598e-05,0.0,9.3169575e-07,1.920488e-06,0.0,0.0,0.0,0.0,0.0,0.0,0.0,0.0,0.0,4.738854e-06,0.0,0.0,nan,0.0,0.0,0.0013474188,0.0,0.0,0.0,0.0,0.0,0.0,0.0,0.0,0.0
830076000,829996000,5.5534598e-05,0.0,9.3169575e-07,1.920488e-06,0.0,0.0,0.0,0.0,0.0,0.0,0.0,0.0,0.0,4.738854e-06,0.0,0.0,nan,0.0,0.0,0.0013474188,0.0,0.0,0.0,0.0,0.0,0.0,0.0,0.0,0.0
830084000,830004000,5.5534598e-05,0.0,9.3169575e-07,1.920488e-06,0.0,0.0,0.0,0.0,0.0,0.0,0.0,0.0,0.0,4.738854e-06,0.0,0.0,nan,0.0,0.0,0.0013474188,0.0,0.0,0.0,0.0,0.0,0.0,0.0,0.0,0.0
830092000,830012000,5.5534598e-05,0.0,9.3169575e-07,1.920488e-06,0.0,0.0,0.0,0.0,0.0,0.0,0.0,0.0,0.0,4.738854e-06,0.0,0.0,nan,0.0,0.0,1.6504781e-06,0.0,0.0,0.0,0.0,0.0,0.0,0.0,0.0,0.0
830100000,830020000,5.5534598e-05,0.0,9.3169575e-07,1.920488e-06,0.0,0.0,0.0,0.0,0.0,0.0,0.0,0.0,0.0,4.738854e-06,0.0,0.0,nan,0.0,0.0,1.6504781e-06,0.0,0.0,0.0,0.0,0.0,0.0,0.0,0.0,0.0
830108000,830028000,5.5534598e-05,0.0,9.3169575e-07,1.920488e-06,0.0,0.0,0.0,0.0,0.0,0.0,0.0,0.0,0.0,4.738854e-06,0.0,0.0,nan,0.0,0.0,1.6504781e-06,0.0,0.0,0.0,0.0,0.0,0.0,0.0,0.0,0.0
830116000,830036000,5.5534598e-05,0.0,9.3169575e-07,1.920488e-06,0.0,0.0,0.0,0.0,0.0,0.0,0.0,0.0,0.0,1.8412788e-05,0.0,0.0,nan,0.0,0.0,1.6504781e-06,0.0,0.0,0.0,0.0,0.0,0.0,0.0,0.0,0.0
830124000,830044000,5.5534598e-05,0.0,9.3169575e-07,1.920488e-06,0.0,0.0,0.0,0.0,0.0,0.0,0.0,0.0,0.0,1.8412788e-05,0.0,0.0,nan,0.0,0.0,1.6504781e-06,0.0,0.0,0.0,0.0,0.0,0.0,0.0,0.0,0.0
830132000,830052000,5.5534598e-05,0.0,9.3169575e-07,1.920488e-06,0.0,0.0,0.0,0.0,0.0,0.0,0.0,0.0,0.0,1.8412788e-05,0.0,0.0,nan,0.0,0.0,1.6504781e-06,0.0,0.0,0.0,0.0,0.0,0.0,0.0,0.0,0.0
830140000,830060000,5.5534598e-05,0.0,9.3169575e-07,1.920488e-06,0.0,0.0,0.0,0.0,0.0,0.0,0.0,0.0,0.0,1.8412788e-05,0.0,0.0,nan,0.0,0.0,1.6504781e-06,0.0,0.0,0.0,0.0,0.0,0.0,0.0,0.0,0.0
830148000,830068000,5.5534598e-05,0.0,9.3169575e-07,1.920488e-06,0.0,0.0,0.0,0.0,0.0,0.0,0.0,0.0,0.0,1.8412788e-05,0.0,0.0,nan,0.0,0.0,1.6504781e-06,0.0,0.0,0.0,0.0,0.0,0.0,0.0,0.0,0.0
830156000,830076000,5.5534598e-05,0.0,9.3169575e-07,1.920488e-06,0.0,0.0,0.0,0.0,0.0,0.0,0.0,0.0,0.0,1.8412788e-05,0.0,0.0,nan,0.0,0.0,1.6049356e-06,0.0,0.0,0.0,0.0,0.0,0.0,0.0,0.0,0.0
830164000,830084000,5.5534598e-05,0.0,9.3169575e-07,1.920488e-06,0.0,0.0,0.0,0.0,0.0,0.0,0.0,0.0,0.0,1.8412788e-05,0.0,0.0,nan,0.0,0.0,1.6049356e-06,0.0,0.0,0.0,0.0,0.0,0.0,0.0,0.0,0.0
830172000,830092000,5.5534598e-05,0.0,9.3169575e-07,1.920488e-06,0.0,0.0,0.0,0.0,0.0,0.0,0.0,0.0,0.0,1.2901221e-07,0.0,0.0,nan,0.0,0.0,1.6049356e-06,0.0,0.0,0.0,0.0,0.0,0.0,0.0,0.0,0.0
830180000,830100000,5.5534598e-05,0.0,9.3169575e-07,1.920488e-06,0.0,0.0,0.0,0.0,0.0,0.0,0.0,0.0,0.0,1.2901221e-07,0.0,0.0,nan,0.0,0.0,1.6049356e-06,0.0,0.0,0.0,0.0,0.0,0.0,0.0,0.0,0.0
830188000,830108000,5.5534598e-05,0.0,9.3169575e-07,1.920488e-06,0.0,0.0,0.0,0.0,0.0,0.0,0.0,0.0,0.0,1.2901221e-07,0.0,0.0,nan,0.0,0.0,1.6049356e-06,0.0,0.0,0.0,0.0,0.0,0.0,0.0,0.0,0.0
830196000,830116000,5.5534598e-05,0.0,9.3169575e-07,1.920488e-06,0.0,0.0,0.0,0.0,0.0,0.0,0.0,0.0,0.0,1.2901221e-07,0.0,0.0,nan,0.0,0.0,1.6049356e-06,0.0,0.0,0.0,0.0,0.0,0.0,0.0,0.0,0.0
830204000,830124000,5.5534598e-05,0.0,9.3169575e-07,1.920488e-06,0.0,0.0,0.0,0.0,0.0,0.0,0.0,0.0,0.0,1.2901221e-07,0.0,0.0,nan,0.0,0.0,1.6049356e-06,0.0,0.0,0.0,0.0,0.0,0.0,0.0,0.0,0.0
830212000,830132000,3.2138058e-05,0.0,0.00017187612,1.8318058e-06,0.0,0.0,0.0,0.0,0.0,0.0,0.0,0.0,0.0,1.2901221e-07,0.0,0.0,nan,0.0,0.0,1.6049356e-06,0.0,0.0,0.0,0.0,0.0,0.0,0.0,0.0,0.0
830220000,830140000,3.2138058e-05,0.0,0.00017187612,1.8318058e-06,0.0,0.0,0.0,0.0,0.0,0.0,0.0,0.0,0.0,1.2901221e-07,0.0,0.0,nan,0.0,0.0,1.6049356e-06,0.0,0.0,0.0,0.0,0.0,0.0,0.0,0.0,0.0
830228000,830148000,3.2138058e-05,0.0,0.00017187612,1.8318058e-06,0.0,0.0,0.0,0.0,0.0,0.0,0.0,0.0,0.0,1.2901221e-07,0.0,0.0,nan,0.0,0.0,4.2974773e-07,0.0,0.0,0.0,0.0,0.0,0.0,0.0,0.0,0.0
830236000,830156000,3.2138058e-05,0.0,0.00017187612,1.8318058e-06,0.0,0.0,0.0,0.0,0.0,0.0,0.0,0.0,0.0,1.0393698e-05,0.0,0.0,nan,0.0,0.0,4.2974773e-07,0.0,0.0,0.0,0.0,0.0,0.0,0.0,0.0,0.0
830244000,830164000,3.2138058e-05,0.0,0.00017187612,1.8318058e-06,0.0,0.0,0.0,0.0,0.0,0.0,0.0,0.0,0.0,1.0393698e-05,0.0,0.0,nan,0.0,0.0,4.2974773e-07,0.0,0.0,0.0,0.0,0.0,0.0,0.0,0.0,0.0
830252000,830172000,3.2138058e-05,0.0,0.00017187612,1.8318058e-06,0.0,0.0,0.0,0.0,0.0,0.0,0.0,0.0,0.0,1.0393698e-05,0.0,0.0,nan,0.0,0.0,4.2974773e-07,0.0,0.0,0.0,0.0,0.0,0.0,0.0,0.0,0.0
830260000,830180000,3.2138058e-05,0.0,0.00017187612,1.8318058e-06,0.0,0.0,0.0,0.0,0.0,0.0,0.0,0.0,0.0,1.0393698e-05,0.0,0.0,nan,0.0,0.0,4.2974773e-07,0.0,0.0,0.0,0.0,0.0,0.0,0.0,0.0,0.0
830268000,830188000,3.2138058e-05,0.0,0.00017187612,1.8318058e-06,0.0,0.0,0.0,0.0,0.0,0.0,0.0,0.0,0.0,1.0393698e-05,0.0,0.0,nan,0.0,0.0,4.2974773e-07,0.0,0.0,0.0,0.0,0.0,0.0,0.0,0.0,0.0
830276000,830196000,3.2138058e-05,0.0,0.00017187612,1.8318058e-06,0.0,0.0,0.0,0.0,0.0,0.0,0.0,0.0,0.0,1.0393698e-05,0.0,0.0,nan,0.0,0.0,4.2974773e-07,0.0,0.0,0.0,0.0,0.0,0.0,0.0,0.0,0.0
830284000,830204000,3.2138058e-05,0.0,0.00017187612,1.8318058e-06,0.0,0.0,0.0,0.0,0.0,0.0,0.0,0.0,0.0,1.0393698e-05,0.0,0.0,nan,0.0,0.0,4.2974773e-07,0.0,0.0,0.0,0.0,0.0,0.0,0.0,0.0,0.0
830292000,830212000,3.2138058e-05,0.0,0.00017187612,1.8318058e-06,0.0,0.0,0.0,0.0,0.0,0.0,0.0,0.0,0.0,4.9866222e-09,0.0,0.0,nan,0.0,0.0,4.2974773e-07,0.0,0.0,0.0,0.0,0.0,0.0,0.0,0.0,0.0
830300000,830220000,3.2138058e-05,0.0,0.00017187612,1.8318058e-06,0.0,0.0,0.0,0.0,0.0,0.0,0.0,0.0,0.0,4.9866222e-09,0.0,0.0,nan,0.0,0.0,0.00020550154,0.0,0.0,0.0,0.0,0.0,0.0,0.0,0.0,0.0
830308000,830228000,3.2138058e-05,0.0,0.00017187612,1.8318058e-06,0.0,0.0,0.0,0.0,0.0,0.0,0.0,0.0,0.0,4.9866222e-09,0.0,0.0,nan,0.0,0.0,0.00020550154,0.0,0.0,0.0,0.0,0.0,0.0,0.0,0.0,0.0
830316000,830236000,3.2138058e-05,0.0,0.00017187612,1.8318058e-06,0.0,0.0,0.0,0.0,0.0,0.0,0.0,0.0,0.0,4.9866222e-09,0.0,0.0,nan,0.0,0.0,0.00020550154,0.0,0.0,0.0,0.0,0.0,0.0,0.0,0.0,0.0
830324000,830244000,3.2138058e-05,0.0,0.00017187612,1.8318058e-06,0.0,0.0,0.0,0.0,0.0,0.0,0.0,0.0,0.0,4.9866222e-09,0.0,0.0,nan,0.0,0.0,0.00020550154,0.0,0.0,0.0,0.0,0.0,0.0,0.0,0.0,0.0
830332000,830252000,3.2138058e-05,0.0,0.00017187612,1.8318058e-06,0.0,0.0,0.0,0.0,0.0,0.0,0.0,0.0,0.0,4.9866222e-09,0.0,0.0,nan,0.0,0.0,0.00020550154,0.0,0.0,0.0,0.0,0.0,0.0,0.0,0.0,0.0
830340000,830260000,3.2138058e-05,0.0,0.00017187612,1.8318058e-06,0.0,0.0,0.0,0.0,0.0,0.0,0.0,0.0,0.0,4.9866222e-09,0.0,0.0,nan,0.0,0.0,0.00020550154,0.0,0.0,0.0,0.0,0.0,0.0,0.0,0.0,0.0
830348000,830268000,3.2138058e-05,0.0,0.00017187612,1.8318058e-06,0.0,0.0,0.0,0.0,0.0,0.0,0.0,0.0,0.0,4.9866222e-09,0.0,0.0,nan,0.0,0.0,0.00020550154,0.0,0.0,0.0,0.0,0.0,0.0,0.0,0.0,0.0
830356000,830276000,3.2138058e-05,0.0,0.00017187612,1.8318058e-06,0.0,0.0,0.0,0.0,0.0,0.0,0.0,0.0,0.0,4.822728e-06,0.0,0.0,nan,0.0,0.0,0.00020550154,0.0,0.0,0.0,0.0,0.0,0.0,0.0,0.0,0.0
830364000,830284000,3.2138058e-05,0.0,0.00017187612,1.8318058e-06,0.0,0.0,0.0,0.0,0.0,0.0,0.0,0.0,0.0,4.822728e-06,0.0,0.0,nan,0.0,0.0,0.00020550154,0.0,0.0,0.0,0.0,0.0,0.0,0.0,0.0,0.0
830372000,830292000,3.2138058e-05,0.0,0.00017187612,1.8318058e-06,0.0,0.0,0.0,0.0,0.0,0.0,0.0,0.0,0.0,4.822728e-06,0.0,0.0,nan,0.0,0.0,8.327276e-05,0.0,0.0,0.0,0.0,0.0,0.0,0.0,0.0,0.0
830380000,830300000,3.2138058e-05,0.0,0.00017187612,1.8318058e-06,0.0,0.0,0.0,0.0,0.0,0.0,0.0,0.0,0.0,4.822728e-06,0.0,0.0,nan,0.0,0.0,8.327276e-05,0.0,0.0,0.0,0.0,0.0,0.0,0.0,0.0,0.0
830388000,830308000,3.2138058e-05,0.0,0.00017187612,1.8318058e-06,0.0,0.0,0.0,0.0,0.0,0.0,0.0,0.0,0.0,4.822728e-06,0.0,0.0,nan,0.0,0.0,8.327276e-05,0.0,0.0,0.0,0.0,0.0,0.0,0.0,0.0,0.0
830396000,830316000,3.2138058e-05,0.0,0.00017187612,1.8318058e-06,0.0,0.0,0.0,0.0,0.0,0.0,0.0,0.0,0.0,4.822728e-06,0.0,0.0,nan,0.0,0.0,8.327276e-05,0.0,0.0,0.0,0.0,0.0,0.0,0.0,0.0,0.0
830404000,830324000,3.2138058e-05,0.0,0.00017187612,1.8318058e-06,0.0,0.0,0.0,0.0,0.0,0.0,0.0,0.0,0.0,4.822728e-06,0.0,0.0,nan,0.0,0.0,8.327276e-05,0.0,0.0,0.0,0.0,0.0,0.0,0.0,0.0,0.0
830412000,830332000,3.2138058e-05,0.0,0.00017187612,1.8318058e-06,0.0,0.0,0.0,0.0,0.0,0.0,0.0,0.0,0.0,1.6602953e-06,0.0,0.0,nan,0.0,0.0,8.327276e-05,0.0,0.0,0.0,0.0,0.0,0.0,0.0,0.0,0.0
830420000,830340000,0.00022209663,0.0,2.5590869e-05,1.9671265e-06,0.0,0.0,0.0,0.0,0.0,0.0,0.0,0.0,0.0,1.6602953e-06,0.0,0.0,nan,0.0,0.0,8.327276e-05,0.0,0.0,0.0,0.0,0.0,0.0,0.0,0.0,0.0
830428000,830348000,0.00022209663,0.0,2.5590869e-05,1.9671265e-06,0.0,0.0,0.0,0.0,0.0,0.0,0.0,0.0,0.0,1.6602953e-06,0.0,0.0,nan,0.0,0.0,8.327276e-05,0.0,0.0,0.0,0.0,0.0,0.0,0.0,0.0,0.0
830436000,830356000,0.00022209663,0.0,2.5590869e-05,1.9671265e-06,0.0,0.0,0.0,0.0,0.0,0.0,0.0,0.0,0.0,1.6602953e-06,0.0,0.0,nan,0.0,0.0,8.327276e-05,0.0,0.0,0.0,0.0,0.0,0.0,0.0,0.0,0.0
830444000,830364000,0.00022209663,0.0,2.5590869e-05,1.9671265e-06,0.0,0.0,0.0,0.0,0.0,0.0,0.0,0.0,0.0,1.6602953e-06,0.0,0.0,nan,0.0,0.0,8.407377e-05,0.0,0.0,0.0,0.0,0.0,0.0,0.0,0.0,0.0
830452000,830372000,0.00022209663,0.0,2.5590869e-05,1.9671265e-06,0.0,0.0,0.0,0.0,0.0,0.0,0.0,0.0,0.0,1.6602953e-06,0.0,0.0,nan,0.0,0.0,8.407377e-05,0.0,0.0,0.0,0.0,0.0,0.0,0.0,0.0,0.0
830460000,830380000,0.00022209663,0.0,2.5590869e-05,1.9671265e-06,0.0,0.0,0.0,0.0,0.0,0.0,0.0,0.0,0.0,1.6602953e-06,0.0,0.0,nan,0.0,0.0,8.407377e-05,0.0,0.0,0.0,0.0,0.0,0.0,0.0,0.0,0.0
830468000,830388000,0.00022209663,0.0,2.5590869e-05,1.9671265e-06,0.0,0.0,0.0,0.0,0.0,0.0,0.0,0.0,0.0,1.6602953e-06,0.0,0.0,nan,0.0,0.0,8.407377e-05,0.0,0.0,0.0,0.0,0.0,0.0,0.0,0.0,0.0
830476000,830396000,0.00022209663,0.0,2.5590869e-05,1.9671265e-06,0.0,0.0,0.0,0.0,0.0,0.0,0.0,0.0,0.0,6.1994456e-06,0.0,0.0,nan,0.0,0.0,8.407377e-05,0.0,0.0,0.0,0.0,0.0,0.0,0.0,0.0,0.0
830484000,830404000,0.00022209663,0.0,2.5590869e-05,1.9671265e-06,0.0,0.0,0.0,0.0,0.0,0.0,0.0,0.0,0.0,6.1994456e-06,0.0,0.0,nan,0.0,0.0,8.407377e-05,0.0,0.0,0.0,0.0,0.0,0.0,0.0,0.0,0.0
830492000,830412000,0.00022209663,0.0,2.5590869e-05,1.9671265e-06,0.0,0.0,0.0,0.0,0.0,0.0,0.0,0.0,0.0,6.1994456e-06,0.0,0.0,nan,0.0,0.0,8.407377e-05,0.0,0.0,0.0,0.0,0.0,0.0,0.0,0.0,0.0
830500000,830420000,0.00022209663,0.0,2.5590869e-05,1.9671265e-06,0.0,0.0,0.0,0.0,0.0,0.0,0.0,0.0,0.0,6.1994456e-06,0.0,0.0,nan,0.0,0.0,8.407377e-05,0.0,0.0,0.0,0.0,0.0,0.0,0.0,0.0,0.0
830508000,830428000,0.00022209663,0.0,2.5590869e-05,1.9671265e-06,0.0,0.0,0.0,0.0,0.0,0.0,0.0,0.0,0.0,6.1994456e-06,0.0,0.0,nan,0.0,0.0,8.407377e-05,0.0,0.0,0.0,0.0,0.0,0.0,0.0,0.0,0.0
830516000,830436000,0.00022209663,0.0,2.5590869e-05,1.9671265e-06,0.0,0.0,0.0,0.0,0.0,0.0,0.0,0.0,0.0,6.1994456e-06,0.0,0.0,nan,0.0,0.0,2.7566282e-05,0.0,0.0,0.0,0.0,0.0,0.0,0.0,0.0,0.0
830524000,830444000,0.00022209663,0.0,2.5590869e-05,1.9671265e-06,0.0,0.0,0.0,0.0,0.0,0.0,0.0,0.0,0.0,6.1994456e-06,0.0,0.0,nan,0.0,0.0,2.7566282e-05,0.0,0.0,0.0,0.0,0.0,0.0,0.0,0.0,0.0
830532000,830452000,0.00022209663,0.0,2.5590869e-05,1.9671265e-06,0.0,0.0,0.0,0.0,0.0,0.0,0.0,0.0,0.0,4.487961e-08,0.0,0.0,nan,0.0,0.0,2.7566282e-05,0.0,0.0,0.0,0.0,0.0,0.0,0.0,0.0,0.0
830540000,830460000,0.00022209663,0.0,2.5590869e-05,1.9671265e-06,0.0,0.0,0.0,0.0,0.0,0.0,0.0,0.0,0.0,4.487961e-08,0.0,0.0,nan,0.0,0.0,2.7566282e-05,0.0,0.0,0.0,0.0,0.0,0.0,0.0,0.0,0.0
830548000,830468000,0.00022209663,0.0,2.5590869e-05,1.9671265e-06,0.0,0.0,0.0,0.0,0.0,0.0,0.0,0.0,0.0,4.487961e-08,0.0,0.0,nan,0.0,0.0,2.7566282e-05,0.0,0.0,0.0,0.0,0.0,0.0,0.0,0.0,0.0
830556000,830476000,0.00022209663,0.0,2.5590869e-05,1.9671265e-06,0.0,0.0,0.0,0.0,0.0,0.0,0.0,0.0,0.0,4.487961e-08,0.0,0.0,nan,0.0,0.0,2.7566282e-05,0.0,0.0,0.0,0.0,0.0,0.0,0.0,0.0,0.0
830564000,830484000,0.00022209663,0.0,2.5590869e-05,1.9671265e-06,0.0,0.0,0.0,0.0,0.0,0.0,0.0,0.0,0.0,4.487961e-08,0.0,0.0,nan,0.0,0.0,2.7566282e-05,0.0,0.0,0.0,0.0,0.0,0.0,0.0,0.0,0.0
830572000,830492000,0.00022209663,0.0,2.5590869e-05,1.9671265e-06,0.0,0.0,0.0,0.0,0.0,0.0,0.0,0.0,0.0,4.487961e-08,0.0,0.0,nan,0.0,0.0,2.7566282e-05,0.0,0.0,0.0,0.0,0.0,0.0,0.0,0.0,0.0
830580000,830500000,0.00022209663,0.0,2.5590869e-05,1.9671265e-06,0.0,0.0,0.0,0.0,0.0,0.0,0.0,0.0,0.0,4.487961e-08,0.0,0.0,nan,0.0,0.0,2.7566282e-05,0.0,0.0,0.0,0.0,0.0,0.0,0.0,0.0,0.0
830588000,830508000,0.00022209663,0.0,2.5590869e-05,1.9671265e-06,0.0,0.0,0.0,0.0,0.0,0.0,0.0,0.0,0.0,4.487961e-08,0.0,0.0,nan,0.0,0.0,0.0006305446,0.0,0.0,0.0,0.0,0.0,0.0,0.0,0.0,0.0
830596000,830516000,0.00022209663,0.0,2.5590869e-05,1.9671265e-06,0.0,0.0,0.0,0.0,0.0,0.0,0.0,0.0,0.0,6.8723207e-06,0.0,0.0,nan,0.0,0.0,0.0006305446,0.0,0.0,0.0,0.0,0.0,0.0,0.0,0.0,0.0
830604000,830524000,0.00022209663,0.0,2.5590869e-05,1.9671265e-06,0.0,0.0,0.0,0.0,0.0,0.0,0.0,0.0,0.0,6.8723207e-06,0.0,0.0,nan,0.0,0.0,0.0006305446,0.0,0.0,0.0,0.0,0.0,0.0,0.0,0.0,0.0
830612000,830532000,0.00022209663,0.0,2.5590869e-05,1.9671265e-06,0.0,0.0,0.0,0.0,0.0,0.0,0.0,0.0,0.0,6.8723207e-06,0.0,0.0,nan,0.0,0.0,0.0006305446,0.0,0.0,0.0,0.0,0.0,0.0,0.0,0.0,0.0
830620000,830540000,0.00022209663,0.0,2.5590869e-05,1.9671265e-06,0.0,0.0,0.0,0.0,0.0,0.0,0.0,0.0,0.0,6.8723207e-06,0.0,0.0,nan,0.0,0.0,0.0006305446,0.0,0.0,0.0,0.0,0.0,0.0,0.0,0.0,0.0
830628000,830548000,4.1906233e-06,0.0,8.934942e-07,1.7412121e-06,0.0,0.0,0.0,0.0,0.0,0.0,0.0,0.0,0.0,6.8723207e-06,0.0,0.0,nan,0.0,0.0,0.0006305446,0.0,0.0,0.0,0.0,0.0,0.0,0.0,0.0,0.0
830636000,830556000,4.1906233e-06,0.0,8.934942e-07,1.7412121e-06,0.0,0.0,0.0,0.0,0.0,0.0,0.0,0.0,0.0,6.8723207e-06,0.0,0.0,nan,0.0,0.0,0.0006305446,0.0,0.0,0.0,0.0,0.0,0.0,0.0,0.0,0.0
830644000,830564000,4.1906233e-06,0.0,8.934942e-07,1.7412121e-06,0.0,0.0,0.0,0.0,0.0,0.0,0.0,0.0,0.0,6.8723207e-06,0.0,0.0,nan,0.0,0.0,0.0006305446,0.0,0.0,0.0,0.0,0.0,0.0,0.0,0.0,0.0
830652000,830572000,4.1906233e-06,0.0,8.934942e-07,1.7412121e-06,0.0,0.0,0.0,0.0,0.0,0.0,0.0,0.0,0.0,1.350507e-06,0.0,0.0,nan,0.0,0.0,0.0006305446,0.0,0.0,0.0,0.0,0.0,0.0,0.0,0.0,0.0
830660000,830580000,4.1906233e-06,0.0,8.934942e-07,1.7412121e-06,0.0,0.0,0.0,0.0,0.0,0.0,0.0,0.0,0.0,1.350507e-06,0.0,0.0,nan,0.0,0.0,0.0001996044,0.0,0.0,0.0,0.0,0.0,0.0,0.0,0.0,0.0
830668000,830588000,4.1906233e-06,0.0,8.934942e-07,1.7412121e-06,0.0,0.0,0.0,0.0,0.0,0.0,0.0,0.0,0.0,1.350507e-06,0.0,0.0,nan,0.0,0.0,0.0001996044,0.0,0.0,0.0,0.0,0.0,0.0,0.0,0.0,0.0
830676000,830596000,4.1906233e-06,0.0,8.934942e-07,1.7412121e-06,0.0,0.0,0.0,0.0,0.0,0.0,0.0,0.0,0.0,1.350507e-06,0.0,0.0,nan,0.0,0.0,0.0001996044,0.0,0.0,0.0,0.0,0.0,0.0,0.0,0.0,0.0
830684000,830604000,4.1906233e-06,0.0,8.934942e-07,1.7412121e-06,0.0,0.0,0.0,0.0,0.0,0.0,0.0,0.0,0.0,1.350507e-06,0.0,0.0,nan,0.0,0.0,0.0001996044,0.0,0.0,0.0,0.0,0.0,0.0,0.0,0.0,0.0
830692000,830612000,4.1906233e-06,0.0,8.934942e-07,1.7412121e-06,0.0,0.0,0.0,0.0,0.0,0.0,0.0,0.0,0.0,1.350507e-06,0.0,0.0,nan,0.0,0.0,0.0001996044,0.0,0.0,0.0,0.0,0.0,0.0,0.0,0.0,0.0
830700000,830620000,4.1906233e-06,0.0,8.934942e-07,1.7412121e-06,0.0,0.0,0.0,0.0,0.0,0.0,0.0,0.0,0.0,1.350507e-06,0.0,0.0,nan,0.0,0.0,0.0001996044,0.0,0.0,0.0,0.0,0.0,0.0,0.0,0.0,0.0
830708000,830628000,4.1906233e-06,0.0,8.934942e-07,1.7412121e-06,0.0,0.0,0.0,0.0,0.0,0.0,0.0,0.0,0.0,1.350507e-06,0.0,0.0,nan,0.0,0.0,0.0001996044,0.0,0.0,0.0,0.0,0.0,0.0,0.0,0.0,0.0
830716000,830636000,4.1906233e-06,0.0,8.934942e-07,1.7412121e-06,0.0,0.0,0.0,0.0,0.0,0.0,0.0,0.0,0.0,4.834224e-06,0.0,0.0,nan,0.0,0.0,0.0001996044,0.0,0.0,0.0,0.0,0.0,0.0,0.0,0.0,0.0
830724000,830644000,4.1906233e-06,0.0,8.934942e-07,1.7412121e-06,0.0,0.0,0.0,0.0,0.0,0.0,0.0,0.0,0.0,4.834224e-06,0.0,0.0,nan,0.0,0.0,0.0001996044,0.0,0.0,0.0,0.0,0.0,0.0,0.0,0.0,0.0
830732000,830652000,4.1906233e-06,0.0,8.934942e-07,1.7412121e-06,0.0,0.0,0.0,0.0,0.0,0.0,0.0,0.0,0.0,4.834224e-06,0.0,0.0,nan,0.0,0.0,0.0009643278,0.0,0.0,0.0,0.0,0.0,0.0,0.0,0.0,0.0
830740000,830660000,4.1906233e-06,0.0,8.934942e-07,1.7412121e-06,0.0,0.0,0.0,0.0,0.0,0.0,0.0,0.0,0.0,4.834224e-06,0.0,0.0,nan,0.0,0.0,0.0009643278,0.0,0.0,0.0,0.0,0.0,0.0,0.0,0.0,0.0
830748000,830668000,4.1906233e-06,0.0,8.934942e-07,1.7412121e-06,0.0,0.0,0.0,0.0,0.0,0.0,0.0,0.0,0.0,4.834224e-06,0.0,0.0,nan,0.0,0.0,0.0009643278,0.0,0.0,0.0,0.0,0.0,0.0,0.0,0.0,0.0
830756000,830676000,4.1906233e-06,0.0,8.934942e-07,1.7412121e-06,0.0,0.0,0.0,0.0,0.0,0.0,0.0,0.0,0.0,4.834224e-06,0.0,0.0,nan,0.0,0.0,0.0009643278,0.0,0.0,0.0,0.0,0.0,0.0,0.0,0.0,0.0
830764000,830684000,4.1906233e-06,0.0,8.934942e-07,1.7412121e-06,0.0,0.0,0.0,0.0,0.0,0.0,0.0,0.0,0.0,4.834224e-06,0.0,0.0,nan,0.0,0.0,0.0009643278,0.0,0.0,0.0,0.0,0.0,0.0,0.0,0.0,0.0
830772000,830692000,4.1906233e-06,0.0,8.934942e-07,1.7412121e-06,0.0,0.0,0.0,0.0,0.0,0.0,0.0,0.0,0.0,2.4099481e-05,0.0,0.0,nan,0.0,0.0,0.0009643278,0.0,0.0,0.0,0.0,0.0,0.0,0.0,0.0,0.0
830780000,830700000,4.1906233e-06,0.0,8.934942e-07,1.7412121e-06,0.0,0.0,0.0,0.0,0.0,0.0,0.0,0.0,0.0,2.4099481e-05,0.0,0.0,nan,0.0,0.0,0.0009643278,0.0,0.0,0.0,0.0,0.0,0.0,0.0,0.0,0.0
830788000,830708000,4.1906233e-06,0.0,8.934942e-07,1.7412121e-06,0.0,0.0,0.0,0.0,0.0,0.0,0.0,0.0,0.0,2.4099481e-05,0.0,0.0,nan,0.0,0.0,0.0009643278,0.0,0.0,0.0,0.0,0.0,0.0,0.0,0.0,0.0
830796000,830716000,4.1906233e-06,0.0,8.934942e-07,1.7412121e-06,0.0,0.0,0.0,0.0,0.0,0.0,0.0,0.0,0.0,2.4099481e-05,0.0,0.0,nan,0.0,0.0,0.0009643278,0.0,0.0,0.0,0.0,0.0,0.0,0.0,0.0,0.0
830804000,830724000,4.1906233e-06,0.0,8.934942e-07,1.7412121e-06,0.0,0.0,0.0,0.0,0.0,0.0,0.0,0.0,0.0,2.4099481e-05,0.0,0.0,nan,0.0,0.0,0.00032199177,0.0,0.0,0.0,0.0,0.0,0.0,0.0,0.0,0.0
830812000,830732000,4.1906233e-06,0.0,8.934942e-07,1.7412121e-06,0.0,0.0,0.0,0.0,0.0,0.0,0.0,0.0,0.0,2.4099481e-05,0.0,0.0,nan,0.0,0.0,0.00032199177,0.0,0.0,0.0,0.0,0.0,0.0,0.0,0.0,0.0
830820000,830740000,4.1906233e-06,0.0,8.934942e-07,1.7412121e-06,0.0,0.0,0.0,0.0,0.0,0.0,0.0,0.0,0.0,2.4099481e-05,0.0,0.0,nan,0.0,0.0,0.00032199177,0.0,0.0,0.0,0.0,0.0,0.0,0.0,0.0,0.0
830828000,830748000,4.1906233e-06,0.0,8.934942e-07,1.7412121e-06,0.0,0.0,0.0,0.0,0.0,0.0,0.0,0.0,0.0,2.4099481e-05,0.0,0.0,nan,0.0,0.0,0.00032199177,0.0,0.0,0.0,0.0,0.0,0.0,0.0,0.0,0.0
830836000,830756000,4.1906233e-06,0.0,8.934942e-07,1.7412121e-06,0.0,0.0,0.0,0.0,0.0,0.0,0.0,0.0,0.0,1.4801458e-05,0.0,0.0,nan,0.0,0.0,0.00032199177,0.0,0.0,0.0,0.0,0.0,0.0,0.0,0.0,0.0
830844000,830764000,4.1906233e-06,0.0,8.934942e-07,1.7412121e-06,0.0,0.0,0.0,0.0,0.0,0.0,0.0,0.0,0.0,1.4801458e-05,0.0,0.0,nan,0.0,0.0,0.00032199177,0.0,0.0,0.0,0.0,0.0,0.0,0.0,0.0,0.0
830852000,830772000,4.1906233e-06,0.0,8.934942e-07,1.7412121e-06,0.0,0.0,0.0,0.0,0.0,0.0,0.0,0.0,0.0,1.4801458e-05,0.0,0.0,nan,0.0,0.0,0.00032199177,0.0,0.0,0.0,0.0,0.0,0.0,0.0,0.0,0.0
830860000,830780000,4.1906233e-06,0.0,8.934942e-07,1.7412121e-06,0.0,0.0,0.0,0.0,0.0,0.0,0.0,0.0,0.0,1.4801458e-05,0.0,0.0,nan,0.0,0.0,0.00032199177,0.0,0.0,0.0,0.0,0.0,0.0,0.0,0.0,0.0
830868000,830788000,4.1906233e-06,0.0,8.934942e-07,1.7412121e-06,0.0,0.0,0.0,0.0,0.0,0.0,0.0,0.0,0.0,1.4801458e-05,0.0,0.0,nan,0.0,0.0,0.00032199177,0.0,0.0,0.0,0.0,0.0,0.0,0.0,0.0,0.0
830876000,830796000,4.1906233e-06,0.0,8.934942e-07,1.7412121e-06,0.0,0.0,0.0,0.0,0.0,0.0,0.0,0.0,0.0,1.4801458e-05,0.0,0.0,nan,0.0,0.0,0.0004443729,0.0,0.0,0.0,0.0,0.0,0.0,0.0,0.0,0.0
830884000,830804000,4.1906233e-06,0.0,8.934942e-07,1.7412121e-06,0.0,0.0,0.0,0.0,0.0,0.0,0.0,0.0,0.0,1.4801458e-05,0.0,0.0,nan,0.0,0.0,0.0004443729,0.0,0.0,0.0,0.0,0.0,0.0,0.0,0.0,0.0
830892000,830812000,4.1906233e-06,0.0,8.934942e-07,1.7412121e-06,0.0,0.0,0.0,0.0,0.0,0.0,0.0,0.0,0.0,1.150692e-05,0.0,0.0,nan,0.0,0.0,0.0004443729,0.0,0.0,0.0,0.0,0.0,0.0,0.0,0.0,0.0
830900000,830820000,4.1906233e-06,0.0,8.934942e-07,1.7412121e-06,0.0,0.0,0.0,0.0,0.0,0.0,0.0,0.0,0.0,1.150692e-05,0.0,0.0,nan,0.0,0.0,0.0004443729,0.0,0.0,0.0,0.0,0.0,0.0,0.0,0.0,0.0
830908000,830828000,4.1906233e-06,0.0,8.934942e-07,1.7412121e-06,0.0,0.0,0.0,0.0,0.0,0.0,0.0,0.0,0.0,1.150692e-05,0.0,0.0,nan,0.0,0.0,0.0004443729,0.0,0.0,0.0,0.0,0.0,0.0,0.0,0.0,0.0
830916000,830836000,4.1906233e-06,0.0,8.934942e-07,1.7412121e-06,0.0,0.0,0.0,0.0,0.0,0.0,0.0,0.0,0.0,1.150692e-05,0.0,0.0,nan,0.0,0.0,0.0004443729,0.0,0.0,0.0,0.0,0.0,0.0,0.0,0.0,0.0
830924000,830844000,4.1906233e-06,0.0,8.934942e-07,1.7412121e-06,0.0,0.0,0.0,0.0,0.0,0.0,0.0,0.0,0.0,1.150692e-05,0.0,0.0,nan,0.0,0.0,0.0004443729,0.0,0.0,0.0,0.0,0.0,0.0,0.0,0.0,0.0
830932000,830852000,4.1906233e-06,0.0,8.934942e-07,1.7412121e-06,0.0,0.0,0.0,0.0,0.0,0.0,0.0,0.0,0.0,1.150692e-05,0.0,0.0,nan,0.0,0.0,0.0004443729,0.0,0.0,0.0,0.0,0.0,0.0,0.0,0.0,0.0
830940000,830860000,4.1906233e-06,0.0,8.934942e-07,1.7412121e-06,0.0,0.0,0.0,0.0,0.0,0.0,0.0,0.0,0.0,1.150692e-05,0.0,0.0,nan,0.0,0.0,0.0004443729,0.0,0.0,0.0,0.0,0.0,0.0,0.0,0.0,0.0
830948000,830868000,4.1906233e-06,0.0,8.934942e-07,1.7412121e-06,0.0,0.0,0.0,0.0,0.0,0.0,0.0,0.0,0.0,1.150692e-05,0.0,0.0,nan,0.0,0.0,5.8058562e-05,0.0,0.0,0.0,0.0,0.0,0.0,0.0,0.0,0.0
830956000,830876000,4.1906233e-06,0.0,8.934942e-07,1.7412121e-06,0.0,0.0,0.0,0.0,0.0,0.0,0.0,0.0,0.0,1.8502697e-05,0.0,0.0,nan,0.0,0.0,5.8058562e-05,0.0,0.0,0.0,0.0,0.0,0.0,0.0,0.0,0.0
830964000,830884000,4.1906233e-06,0.0,8.934942e-07,1.7412121e-06,0.0,0.0,0.0,0.0,0.0,0.0,0.0,0.0,0.0,1.8502697e-05,0.0,0.0,nan,0.0,0.0,5.8058562e-05,0.0,0.0,0.0,0.0,0.0,0.0,0.0,0.0,0.0
830972000,830892000,4.1906233e-06,0.0,8.934942e-07,1.7412121e-06,0.0,0.0,0.0,0.0,0.0,0.0,0.0,0.0,0.0,1.8502697e-05,0.0,0.0,nan,0.0,0.0,5.8058562e-05,0.0,0.0,0.0,0.0,0.0,0.0,0.0,0.0,0.0
830980000,830900000,4.1906233e-06,0.0,8.934942e-07,1.7412121e-06,0.0,0.0,0.0,0.0,0.0,0.0,0.0,0.0,0.0,1.8502697e-05,0.0,0.0,nan,0.0,0.0,5.8058562e-05,0.0,0.0,0.0,0.0,0.0,0.0,0.0,0.0,0.0
830988000,830908000,4.1906233e-06,0.0,8.934942e-07,1.7412121e-06,0.0,0.0,0.0,0.0,0.0,0.0,0.0,0.0,0.0,1.8502697e-05,0.0,0.0,nan,0.0,0.0,5.8058562e-05,0.0,0.0,0.0,0.0,0.0,0.0,0.0,0.0,0.0
830996000,830916000,4.1906233e-06,0.0,8.934942e-07,1.7412121e-06,0.0,0.0,0.0,0.0,0.0,0.0,0.0,0.0,0.0,1.8502697e-05,0.0,0.0,nan,0.0,0.0,5.8058562e-05,0.0,0.0,0.0,0.0,0.0,0.0,0.0,0.0,0.0
831004000,830924000,1.0412379e-06,0.0,1.7835848e-05,1.6471901e-06,0.0,0.0,0.0,0.0,0.0,0.0,0.0,0.0,0.0,1.8502697e-05,0.0,0.0,nan,0.0,0.0,5.8058562e-05,0.0,0.0,0.0,0.0,0.0,0.0,0.0,0.0,0.0
831012000,830932000,1.0412379e-06,0.0,1.7835848e-05,1.6471901e-06,0.0,0.0,0.0,0.0,0.0,0.0,0.0,0.0,0.0,1.7191765e-05,0.0,0.0,nan,0.0,0.0,5.8058562e-05,0.0,0.0,0.0,0.0,0.0,0.0,0.0,0.0,0.0
831020000,830940000,1.0412379e-06,0.0,1.7835848e-05,1.6471901e-06,0.0,0.0,0.0,0.0,0.0,0.0,0.0,0.0,0.0,1.7191765e-05,0.0,0.0,nan,0.0,0.0,0.0007095624,0.0,0.0,0.0,0.0,0.0,0.0,0.0,0.0,0.0
831028000,830948000,1.0412379e-06,0.0,1.7835848e-05,1.6471901e-06,0.0,0.0,0.0,0.0,0.0,0.0,0.0,0.0,0.0,1.7191765e-05,0.0,0.0,nan,0.0,0.0,0.0007095624,0.0,0.0,0.0,0.0,0.0,0.0,0.0,0.0,0.0
831036000,830956000,1.0412379e-06,0.0,1.7835848e-05,1.6471901e-06,0.0,0.0,0.0,0.0,0.0,0.0,0.0,0.0,0.0,1.7191765e-05,0.0,0.0,nan,0.0,0.0,0.0007095624,0.0,0.0,0.0,0.0,0.0,0.0,0.0,0.0,0.0
831044000,830964000,1.0412379e-06,0.0,1.7835848e-05,1.6471901e-06,0.0,0.0,0.0,0.0,0.0,0.0,0.0,0.0,0.0,1.7191765e-05,0.0,0.0,nan,0.0,0.0,0.0007095624,0.0,0.0,0.0,0.0,0.0,0.0,0.0,0.0,0.0
831052000,830972000,1.0412379e-06,0.0,1.7835848e-05,1.6471901e-06,0.0,0.0,0.0,0.0,0.0,0.0,0.0,0.0,0.0,1.7191765e-05,0.0,0.0,nan,0.0,0.0,0.0007095624,0.0,0.0,0.0,0.0,0.0,0.0,0.0,0.0,0.0
831060000,830980000,1.0412379e-06,0.0,1.7835848e-05,1.6471901e-06,0.0,0.0,0.0,0.0,0.0,0.0,0.0,0.0,0.0,1.7191765e-05,0.0,0.0,nan,0.0,0.0,0.0007095624,0.0,0.0,0.0,0.0,0.0,0.0,0.0,0.0,0.0
831068000,830988000,1.0412379e-06,0.0,1.7835848e-05,1.6471901e-06,0.0,0.0,0.0,0.0,0.0,0.0,0.0,0.0,0.0,1.7191765e-05,0.0,0.0,nan,0.0,0.0,0.0007095624,0.0,0.0,0.0,0.0,0.0,0.0,0.0,0.0,0.0
831076000,830996000,1.0412379e-06,0.0,1.7835848e-05,1.6471901e-06,0.0,0.0,0.0,0.0,0.0,0.0,0.0,0.0,0.0,1.6625438e-06,0.0,0.0,nan,0.0,0.0,0.0007095624,0.0,0.0,0.0,0.0,0.0,0.0,0.0,0.0,0.0
831084000,831004000,1.0412379e-06,0.0,1.7835848e-05,1.6471901e-06,0.0,0.0,0.0,0.0,0.0,0.0,0.0,0.0,0.0,1.6625438e-06,0.0,0.0,nan,0.0,0.0,0.00028758883,0.0,0.0,0.0,0.0,0.0,0.0,0.0,0.0,0.0
831092000,831012000,1.0412379e-06,0.0,1.7835848e-05,1.6471901e-06,0.0,0.0,0.0,0.0,0.0,0.0,0.0,0.0,0.0,1.6625438e-06,0.0,0.0,nan,0.0,0.0,0.00028758883,0.0,0.0,0.0,0.0,0.0,0.0,0.0,0.0,0.0
831100000,831020000,1.0412379e-06,0.0,1.7835848e-05,1.6471901e-06,0.0,0.0,0.0,0.0,0.0,0.0,0.0,0.0,0.0,1.6625438e-06,0.0,0.0,nan,0.0,0.0,0.00028758883,0.0,0.0,0.0,0.0,0.0,0.0,0.0,0.0,0.0
831108000,831028000,1.0412379e-06,0.0,1.7835848e-05,1.6471901e-06,0.0,0.0,0.0,0.0,0.0,0.0,0.0,0.0,0.0,1.6625438e-06,0.0,0.0,nan,0.0,0.0,0.00028758883,0.0,0.0,0.0,0.0,0.0,0.0,0.0,0.0,0.0
831116000,831036000,1.0412379e-06,0.0,1.7835848e-05,1.6471901e-06,0.0,0.0,0.0,0.0,0.0,0.0,0.0,0.0,0.0,1.6625438e-06,0.0,0.0,nan,0.0,0.0,0.00028758883,0.0,0.0,0.0,0.0,0.0,0.0,0.0,0.0,0.0
831124000,831044000,1.0412379e-06,0.0,1.7835848e-05,1.6471901e-06,0.0,0.0,0.0,0.0,0.0,0.0,0.0,0.0,0.0,1.6625438e-06,0.0,0.0,nan,0.0,0.0,0.00028758883,0.0,0.0,0.0,0.0,0.0,0.0,0.0,0.0,0.0
831132000,831052000,1.0412379e-06,0.0,1.7835848e-05,1.6471901e-06,0.0,0.0,0.0,0.0,0.0,0.0,0.0,0.0,0.0,5.6095014e-05,0.0,0.0,nan,0.0,0.0,0.00028758883,0.0,0.0,0.0,0.0,0.0,0.0,0.0,0.0,0.0
831140000,831060000,1.0412379e-06,0.0,1.7835848e-05,1.6471901e-06,0.0,0.0,0.0,0.0,0.0,0.0,0.0,0.0,0.0,5.6095014e-05,0.0,0.0,nan,0.0,0.0,0.00028758883,0.0,0.0,0.0,0.0,0.0,0.0,0.0,0.0,0.0
831148000,831068000,1.0412379e-06,0.0,1.7835848e-05,1.6471901e-06,0.0,0.0,0.0,0.0,0.0,0.0,0.0,0.0,0.0,5.6095014e-05,0.0,0.0,nan,0.0,0.0,0.00028758883,0.0,0.0,0.0,0.0,0.0,0.0,0.0,0.0,0.0
831156000,831076000,1.0412379e-06,0.0,1.7835848e-05,1.6471901e-06,0.0,0.0,0.0,0.0,0.0,0.0,0.0,0.0,0.0,5.6095014e-05,0.0,0.0,nan,0.0,0.0,1.7759241e-05,0.0,0.0,0.0,0.0,0.0,0.0,0.0,0.0,0.0
831164000,831084000,1.0412379e-06,0.0,1.7835848e-05,1.6471901e-06,0.0,0.0,0.0,0.0,0.0,0.0,0.0,0.0,0.0,5.6095014e-05,0.0,0.0,nan,0.0,0.0,1.7759241e-05,0.0,0.0,0.0,0.0,0.0,0.0,0.0,0.0,0.0
831172000,831092000,1.0412379e-06,0.0,1.7835848e-05,1.6471901e-06,0.0,0.0,0.0,0.0,0.0,0.0,0.0,0.0,0.0,5.6095014e-05,0.0,0.0,nan,0.0,0.0,1.7759241e-05,0.0,0.0,0.0,0.0,0.0,0.0,0.0,0.0,0.0
831180000,831100000,1.0412379e-06,0.0,1.7835848e-05,1.6471901e-06,0.0,0.0,0.0,0.0,0.0,0.0,0.0,0.0,0.0,5.6095014e-05,0.0,0.0,nan,0.0,0.0,1.7759241e-05,0.0,0.0,0.0,0.0,0.0,0.0,0.0,0.0,0.0
831188000,831108000,1.0412379e-06,0.0,1.7835848e-05,1.6471901e-06,0.0,0.0,0.0,0.0,0.0,0.0,0.0,0.0,0.0,5.6095014e-05,0.0,0.0,nan,0.0,0.0,1.7759241e-05,0.0,0.0,0.0,0.0,0.0,0.0,0.0,0.0,0.0
831196000,831116000,1.0412379e-06,0.0,1.7835848e-05,1.6471901e-06,0.0,0.0,0.0,0.0,0.0,0.0,0.0,0.0,0.0,3.0070328e-07,0.0,0.0,nan,0.0,0.0,1.7759241e-05,0.0,0.0,0.0,0.0,0.0,0.0,0.0,0.0,0.0
831204000,831124000,1.0412379e-06,0.0,1.7835848e-05,1.6471901e-06,0.0,0.0,0.0,0.0,0.0,0.0,0.0,0.0,0.0,3.0070328e-07,0.0,0.0,nan,0.0,0.0,1.7759241e-05,0.0,0.0,0.0,0.0,0.0,0.0,0.0,0.0,0.0
831212000,831132000,1.0412379e-06,0.0,1.7835848e-05,1.6471901e-06,0.0,0.0,0.0,0.0,0.0,0.0,0.0,0.0,0.0,3.0070328e-07,0.0,0.0,nan,0.0,0.0,1.7759241e-05,0.0,0.0,0.0,0.0,0.0,0.0,0.0,0.0,0.0
831220000,831140000,1.0412379e-06,0.0,1.7835848e-05,1.6471901e-06,0.0,0.0,0.0,0.0,0.0,0.0,0.0,0.0,0.0,3.0070328e-07,0.0,0.0,nan,0.0,0.0,1.7759241e-05,0.0,0.0,0.0,0.0,0.0,0.0,0.0,0.0,0.0
831228000,831148000,1.0412379e-06,0.0,1.7835848e-05,1.6471901e-06,0.0,0.0,0.0,0.0,0.0,0.0,0.0,0.0,0.0,3.0070328e-07,0.0,0.0,nan,0.0,0.0,9.008822e-06,0.0,0.0,0.0,0.0,0.0,0.0,0.0,0.0,0.0
831236000,831156000,1.0412379e-06,0.0,1.7835848e-05,1.6471901e-06,0.0,0.0,0.0,0.0,0.0,0.0,0.0,0.0,0.0,3.0070328e-07,0.0,0.0,nan,0.0,0.0,9.008822e-06,0.0,0.0,0.0,0.0,0.0,0.0,0.0,0.0,0.0
831244000,831164000,1.0412379e-06,0.0,1.7835848e-05,1.6471901e-06,0.0,0.0,0.0,0.0,0.0,0.0,0.0,0.0,0.0,3.0070328e-07,0.0,0.0,nan,0.0,0.0,9.008822e-06,0.0,0.0,0.0,0.0,0.0,0.0,0.0,0.0,0.0
831252000,831172000,1.0412379e-06,0.0,1.7835848e-05,1.6471901e-06,0.0,0.0,0.0,0.0,0.0,0.0,0.0,0.0,0.0,4.753026e-05,0.0,0.0,nan,0.0,0.0,9.008822e-06,0.0,0.0,0.0,0.0,0.0,0.0,0.0,0.0,0.0
831260000,831180000,1.0412379e-06,0.0,1.7835848e-05,1.6471901e-06,0.0,0.0,0.0,0.0,0.0,0.0,0.0,0.0,0.0,4.753026e-05,0.0,0.0,nan,0.0,0.0,9.008822e-06,0.0,0.0,0.0,0.0,0.0,0.0,0.0,0.0,0.0
831268000,831188000,1.0412379e-06,0.0,1.7835848e-05,1.6471901e-06,0.0,0.0,0.0,0.0,0.0,0.0,0.0,0.0,0.0,4.753026e-05,0.0,0.0,nan,0.0,0.0,9.008822e-06,0.0,0.0,0.0,0.0,0.0,0.0,0.0,0.0,0.0
831276000,831196000,1.0412379e-06,0.0,1.7835848e-05,1.6471901e-06,0.0,0.0,0.0,0.0,0.0,0.0,0.0,0.0,0.0,4.753026e-05,0.0,0.0,nan,0.0,0.0,9.008822e-06,0.0,0.0,0.0,0.0,0.0,0.0,0.0,0.0,0.0
831284000,831204000,1.0412379e-06,0.0,1.7835848e-05,1.6471901e-06,0.0,0.0,0.0,0.0,0.0,0.0,0.0,0.0,0.0,4.753026e-05,0.0,0.0,nan,0.0,0.0,9.008822e-06,0.0,0.0,0.0,0.0,0.0,0.0,0.0,0.0,0.0
831292000,831212000,1.0412379e-06,0.0,1.7835848e-05,1.6471901e-06,0.0,0.0,0.0,0.0,0.0,0.0,0.0,0.0,0.0,4.753026e-05,0.0,0.0,nan,0.0,0.0,9.008822e-06,0.0,0.0,0.0,0.0,0.0,0.0,0.0,0.0,0.0
831300000,831220000,1.0412379e-06,0.0,1.7835848e-05,1.6471901e-06,0.0,0.0,0.0,0.0,0.0,0.0,0.0,0.0,0.0,4.753026e-05,0.0,0.0,nan,0.0,0.0,0.00023226695,0.0,0.0,0.0,0.0,0.0,0.0,0.0,0.0,0.0
831308000,831228000,1.0412379e-06,0.0,1.7835848e-05,1.6471901e-06,0.0,0.0,0.0,0.0,0.0,0.0,0.0,0.0,0.0,4.753026e-05,0.0,0.0,nan,0.0,0.0,0.00023226695,0.0,0.0,0.0,0.0,0.0,0.0,0.0,0.0,0.0
831316000,831236000,1.0412379e-06,0.0,1.7835848e-05,1.6471901e-06,0.0,0.0,0.0,0.0,0.0,0.0,0.0,0.0,0.0,4.803648e-07,0.0,0.0,nan,0.0,0.0,0.00023226695,0.0,0.0,0.0,0.0,0.0,0.0,0.0,0.0,0.0
831324000,831244000,1.0412379e-06,0.0,1.7835848e-05,1.6471901e-06,0.0,0.0,0.0,0.0,0.0,0.0,0.0,0.0,0.0,4.803648e-07,0.0,0.0,nan,0.0,0.0,0.00023226695,0.0,0.0,0.0,0.0,0.0,0.0,0.0,0.0,0.0
831332000,831252000,1.0412379e-06,0.0,1.7835848e-05,1.6471901e-06,0.0,0.0,0.0,0.0,0.0,0.0,0.0,0.0,0.0,4.803648e-07,0.0,0.0,nan,0.0,0.0,0.00023226695,0.0,0.0,0.0,0.0,0.0,0.0,0.0,0.0,0.0
831340000,831260000,1.0412379e-06,0.0,1.7835848e-05,1.6471901e-06,0.0,0.0,0.0,0.0,0.0,0.0,0.0,0.0,0.0,4.803648e-07,0.0,0.0,nan,0.0,0.0,0.00023226695,0.0,0.0,0.0,0.0,0.0,0.0,0.0,0.0,0.0
831348000,831268000,1.0412379e-06,0.0,1.7835848e-05,1.6471901e-06,0.0,0.0,0.0,0.0,0.0,0.0,0.0,0.0,0.0,4.803648e-07,0.0,0.0,nan,0.0,0.0,0.00023226695,0.0,0.0,0.0,0.0,0.0,0.0,0.0,0.0,0.0
831356000,831276000,1.0412379e-06,0.0,1.7835848e-05,1.6471901e-06,0.0,0.0,0.0,0.0,0.0,0.0,0.0,0.0,0.0,4.803648e-07,0.0,0.0,nan,0.0,0.0,0.00023226695,0.0,0.0,0.0,0.0,0.0,0.0,0.0,0.0,0.0
831364000,831284000,1.0412379e-06,0.0,1.7835848e-05,1.6471901e-06,0.0,0.0,0.0,0.0,0.0,0.0,0.0,0.0,0.0,4.803648e-07,0.0,0.0,nan,0.0,0.0,0.00023226695,0.0,0.0,0.0,0.0,0.0,0.0,0.0,0.0,0.0
831372000,831292000,1.0412379e-06,0.0,1.7835848e-05,1.6471901e-06,0.0,0.0,0.0,0.0,0.0,0.0,0.0,0.0,0.0,1.2569525e-06,0.0,0.0,nan,0.0,0.0,7.918115e-05,0.0,0.0,0.0,0.0,0.0,0.0,0.0,0.0,0.0
831380000,831300000,1.0412379e-06,0.0,1.7835848e-05,1.6471901e-06,0.0,0.0,0.0,0.0,0.0,0.0,0.0,0.0,0.0,1.2569525e-06,0.0,0.0,nan,0.0,0.0,7.918115e-05,0.0,0.0,0.0,0.0,0.0,0.0,0.0,0.0,0.0
831388000,831308000,1.0412379e-06,0.0,1.7835848e-05,1.6471901e-06,0.0,0.0,0.0,0.0,0.0,0.0,0.0,0.0,0.0,1.2569525e-06,0.0,0.0,nan,0.0,0.0,7.918115e-05,0.0,0.0,0.0,0.0,0.0,0.0,0.0,0.0,0.0
831396000,831316000,1.0412379e-06,0.0,1.7835848e-05,1.6471901e-06,0.0,0.0,0.0,0.0,0.0,0.0,0.0,0.0,0.0,1.2569525e-06,0.0,0.0,nan,0.0,0.0,7.918115e-05,0.0,0.0,0.0,0.0,0.0,0.0,0.0,0.0,0.0
831404000,831324000,1.0412379e-06,0.0,1.7835848e-05,1.6471901e-06,0.0,0.0,0.0,0.0,0.0,0.0,0.0,0.0,0.0,1.2569525e-06,0.0,0.0,nan,0.0,0.0,7.918115e-05,0.0,0.0,0.0,0.0,0.0,0.0,0.0,0.0,0.0
831412000,831332000,1.1967771e-06,0.0,1.8385217e-05,1.5871483e-06,0.0,0.0,0.0,0.0,0.0,0.0,0.0,0.0,0.0,1.2569525e-06,0.0,0.0,nan,0.0,0.0,7.918115e-05,0.0,0.0,0.0,0.0,0.0,0.0,0.0,0.0,0.0
831420000,831340000,1.1967771e-06,0.0,1.8385217e-05,1.5871483e-06,0.0,0.0,0.0,0.0,0.0,0.0,0.0,0.0,0.0,1.2569525e-06,0.0,0.0,nan,0.0,0.0,7.918115e-05,0.0,0.0,0.0,0.0,0.0,0.0,0.0,0.0,0.0
831428000,831348000,1.1967771e-06,0.0,1.8385217e-05,1.5871483e-06,0.0,0.0,0.0,0.0,0.0,0.0,0.0,0.0,0.0,1.2569525e-06,0.0,0.0,nan,0.0,0.0,7.918115e-05,0.0,0.0,0.0,0.0,0.0,0.0,0.0,0.0,0.0
831436000,831356000,1.1967771e-06,0.0,1.8385217e-05,1.5871483e-06,0.0,0.0,0.0,0.0,0.0,0.0,0.0,0.0,0.0,2.708854e-07,0.0,0.0,nan,0.0,0.0,7.918115e-05,0.0,0.0,0.0,0.0,0.0,0.0,0.0,0.0,0.0
831444000,831364000,1.1967771e-06,0.0,1.8385217e-05,1.5871483e-06,0.0,0.0,0.0,0.0,0.0,0.0,0.0,0.0,0.0,2.708854e-07,0.0,0.0,nan,0.0,0.0,0.00037592847,0.0,0.0,0.0,0.0,0.0,0.0,0.0,0.0,0.0
831452000,831372000,1.1967771e-06,0.0,1.8385217e-05,1.5871483e-06,0.0,0.0,0.0,0.0,0.0,0.0,0.0,0.0,0.0,2.708854e-07,0.0,0.0,nan,0.0,0.0,0.00037592847,0.0,0.0,0.0,0.0,0.0,0.0,0.0,0.0,0.0
831460000,831380000,1.1967771e-06,0.0,1.8385217e-05,1.5871483e-06,0.0,0.0,0.0,0.0,0.0,0.0,0.0,0.0,0.0,2.708854e-07,0.0,0.0,nan,0.0,0.0,0.00037592847,0.0,0.0,0.0,0.0,0.0,0.0,0.0,0.0,0.0
831468000,831388000,1.1967771e-06,0.0,1.8385217e-05,1.5871483e-06,0.0,0.0,0.0,0.0,0.0,0.0,0.0,0.0,0.0,2.708854e-07,0.0,0.0,nan,0.0,0.0,0.00037592847,0.0,0.0,0.0,0.0,0.0,0.0,0.0,0.0,0.0
831476000,831396000,1.1967771e-06,0.0,1.8385217e-05,1.5871483e-06,0.0,0.0,0.0,0.0,0.0,0.0,0.0,0.0,0.0,2.708854e-07,0.0,0.0,nan,0.0,0.0,0.00037592847,0.0,0.0,0.0,0.0,0.0,0.0,0.0,0.0,0.0
831484000,831404000,1.1967771e-06,0.0,1.8385217e-05,1.5871483e-06,0.0,0.0,0.0,0.0,0.0,0.0,0.0,0.0,0.0,2.708854e-07,0.0,0.0,nan,0.0,0.0,0.00037592847,0.0,0.0,0.0,0.0,0.0,0.0,0.0,0.0,0.0
831492000,831412000,1.1967771e-06,0.0,1.8385217e-05,1.5871483e-06,0.0,0.0,0.0,0.0,0.0,0.0,0.0,0.0,0.0,3.0037907e-06,0.0,0.0,nan,0.0,0.0,0.00037592847,0.0,0.0,0.0,0.0,0.0,0.0,0.0,0.0,0.0
831500000,831420000,1.1967771e-06,0.0,1.8385217e-05,1.5871483e-06,0.0,0.0,0.0,0.0,0.0,0.0,0.0,0.0,0.0,3.0037907e-06,0.0,0.0,nan,0.0,0.0,0.00037592847,0.0,0.0,0.0,0.0,0.0,0.0,0.0,0.0,0.0
831508000,831428000,1.1967771e-06,0.0,1.8385217e-05,1.5871483e-06,0.0,0.0,0.0,0.0,0.0,0.0,0.0,0.0,0.0,3.0037907e-06,0.0,0.0,nan,0.0,0.0,0.00037592847,0.0,0.0,0.0,0.0,0.0,0.0,0.0,0.0,0.0
831516000,831436000,1.1967771e-06,0.0,1.8385217e-05,1.5871483e-06,0.0,0.0,0.0,0.0,0.0,0.0,0.0,0.0,0.0,3.0037907e-06,0.0,0.0,nan,0.0,0.0,1.025042e-05,0.0,0.0,0.0,0.0,0.0,0.0,0.0,0.0,0.0
831524000,831444000,1.1967771e-06,0.0,1.8385217e-05,1.5871483e-06,0.0,0.0,0.0,0.0,0.0,0.0,0.0,0.0,0.0,3.0037907e-06,0.0,0.0,nan,0.0,0.0,1.025042e-05,0.0,0.0,0.0,0.0,0.0,0.0,0.0,0.0,0.0
831532000,831452000,1.1967771e-06,0.0,1.8385217e-05,1.5871483e-06,0.0,0.0,0.0,0.0,0.0,0.0,0.0,0.0,0.0,3.0037907e-06,0.0,0.0,nan,0.0,0.0,1.025042e-05,0.0,0.0,0.0,0.0,0.0,0.0,0.0,0.0,0.0
831540000,831460000,1.1967771e-06,0.0,1.8385217e-05,1.5871483e-06,0.0,0.0,0.0,0.0,0.0,0.0,0.0,0.0,0.0,3.0037907e-06,0.0,0.0,nan,0.0,0.0,1.025042e-05,0.0,0.0,0.0,0.0,0.0,0.0,0.0,0.0,0.0
831548000,831468000,1.1967771e-06,0.0,1.8385217e-05,1.5871483e-06,0.0,0.0,0.0,0.0,0.0,0.0,0.0,0.0,0.0,3.0037907e-06,0.0,0.0,nan,0.0,0.0,1.025042e-05,0.0,0.0,0.0,0.0,0.0,0.0,0.0,0.0,0.0
831556000,831476000,1.1967771e-06,0.0,1.8385217e-05,1.5871483e-06,0.0,0.0,0.0,0.0,0.0,0.0,0.0,0.0,0.0,4.2690743e-08,0.0,0.0,nan,0.0,0.0,1.025042e-05,0.0,0.0,0.0,0.0,0.0,0.0,0.0,0.0,0.0
831564000,831484000,1.1967771e-06,0.0,1.8385217e-05,1.5871483e-06,0.0,0.0,0.0,0.0,0.0,0.0,0.0,0.0,0.0,4.2690743e-08,0.0,0.0,nan,0.0,0.0,1.025042e-05,0.0,0.0,0.0,0.0,0.0,0.0,0.0,0.0,0.0
831572000,831492000,1.1967771e-06,0.0,1.8385217e-05,1.5871483e-06,0.0,0.0,0.0,0.0,0.0,0.0,0.0,0.0,0.0,4.2690743e-08,0.0,0.0,nan,0.0,0.0,1.025042e-05,0.0,0.0,0.0,0.0,0.0,0.0,0.0,0.0,0.0
831580000,831500000,1.1967771e-06,0.0,1.8385217e-05,1.5871483e-06,0.0,0.0,0.0,0.0,0.0,0.0,0.0,0.0,0.0,4.2690743e-08,0.0,0.0,nan,0.0,0.0,1.025042e-05,0.0,0.0,0.0,0.0,0.0,0.0,0.0,0.0,0.0
831588000,831508000,1.1967771e-06,0.0,1.8385217e-05,1.5871483e-06,0.0,0.0,0.0,0.0,0.0,0.0,0.0,0.0,0.0,4.2690743e-08,0.0,0.0,nan,0.0,0.0,2.326064e-06,0.0,0.0,0.0,0.0,0.0,0.0,0.0,0.0,0.0
831596000,831516000,1.1967771e-06,0.0,1.8385217e-05,1.5871483e-06,0.0,0.0,0.0,0.0,0.0,0.0,0.0,0.0,0.0,4.2690743e-08,0.0,0.0,nan,0.0,0.0,2.326064e-06,0.0,0.0,0.0,0.0,0.0,0.0,0.0,0.0,0.0
831604000,831524000,1.1967771e-06,0.0,1.8385217e-05,1.5871483e-06,0.0,0.0,0.0,0.0,0.0,0.0,0.0,0.0,0.0,4.2690743e-08,0.0,0.0,nan,0.0,0.0,2.326064e-06,0.0,0.0,0.0,0.0,0.0,0.0,0.0,0.0,0.0
831612000,831532000,1.1967771e-06,0.0,1.8385217e-05,1.5871483e-06,0.0,0.0,0.0,0.0,0.0,0.0,0.0,0.0,0.0,0.00013043065,0.0,0.0,nan,0.0,0.0,2.326064e-06,0.0,0.0,0.0,0.0,0.0,0.0,0.0,0.0,0.0
831620000,831540000,3.4267123e-07,0.0,1.7935108e-05,1.7957728e-06,0.0,0.0,0.0,0.0,0.0,0.0,0.0,0.0,0.0,0.00013043065,0.0,0.0,nan,0.0,0.0,2.326064e-06,0.0,0.0,0.0,0.0,0.0,0.0,0.0,0.0,0.0
831628000,831548000,3.4267123e-07,0.0,1.7935108e-05,1.7957728e-06,0.0,0.0,0.0,0.0,0.0,0.0,0.0,0.0,0.0,0.00013043065,0.0,0.0,nan,0.0,0.0,2.326064e-06,0.0,0.0,0.0,0.0,0.0,0.0,0.0,0.0,0.0
831636000,831556000,3.4267123e-07,0.0,1.7935108e-05,1.7957728e-06,0.0,0.0,0.0,0.0,0.0,0.0,0.0,0.0,0.0,0.00013043065,0.0,0.0,nan,0.0,0.0,2.326064e-06,0.0,0.0,0.0,0.0,0.0,0.0,0.0,0.0,0.0
831644000,831564000,3.4267123e-07,0.0,1.7935108e-05,1.7957728e-06,0.0,0.0,0.0,0.0,0.0,0.0,0.0,0.0,0.0,0.00013043065,0.0,0.0,nan,0.0,0.0,2.326064e-06,0.0,0.0,0.0,0.0,0.0,0.0,0.0,0.0,0.0
831652000,831572000,3.4267123e-07,0.0,1.7935108e-05,1.7957728e-06,0.0,0.0,0.0,0.0,0.0,0.0,0.0,0.0,0.0,0.00013043065,0.0,0.0,nan,0.0,0.0,2.326064e-06,0.0,0.0,0.0,0.0,0.0,0.0,0.0,0.0,0.0
831660000,831580000,3.4267123e-07,0.0,1.7935108e-05,1.7957728e-06,0.0,0.0,0.0,0.0,0.0,0.0,0.0,0.0,0.0,0.00013043065,0.0,0.0,nan,0.0,0.0,3.933865e-05,0.0,0.0,0.0,0.0,0.0,0.0,0.0,0.0,0.0
831668000,831588000,3.4267123e-07,0.0,1.7935108e-05,1.7957728e-06,0.0,0.0,0.0,0.0,0.0,0.0,0.0,0.0,0.0,0.00013043065,0.0,0.0,nan,0.0,0.0,3.933865e-05,0.0,0.0,0.0,0.0,0.0,0.0,0.0,0.0,0.0
831676000,831596000,3.4267123e-07,0.0,1.7935108e-05,1.7957728e-06,0.0,0.0,0.0,0.0,0.0,0.0,0.0,0.0,0.0,4.3899973e-07,0.0,0.0,nan,0.0,0.0,3.933865e-05,0.0,0.0,0.0,0.0,0.0,0.0,0.0,0.0,0.0
831684000,831604000,3.4267123e-07,0.0,1.7935108e-05,1.7957728e-06,0.0,0.0,0.0,0.0,0.0,0.0,0.0,0.0,0.0,4.3899973e-07,0.0,0.0,nan,0.0,0.0,3.933865e-05,0.0,0.0,0.0,0.0,0.0,0.0,0.0,0.0,0.0
831692000,831612000,3.4267123e-07,0.0,1.7935108e-05,1.7957728e-06,0.0,0.0,0.0,0.0,0.0,0.0,0.0,0.0,0.0,4.3899973e-07,0.0,0.0,nan,0.0,0.0,3.933865e-05,0.0,0.0,0.0,0.0,0.0,0.0,0.0,0.0,0.0
831700000,831620000,3.4267123e-07,0.0,1.7935108e-05,1.7957728e-06,0.0,0.0,0.0,0.0,0.0,0.0,0.0,0.0,0.0,4.3899973e-07,0.0,0.0,nan,0.0,0.0,3.933865e-05,0.0,0.0,0.0,0.0,0.0,0.0,0.0,0.0,0.0
831708000,831628000,3.4267123e-07,0.0,1.7935108e-05,1.7957728e-06,0.0,0.0,0.0,0.0,0.0,0.0,0.0,0.0,0.0,4.3899973e-07,0.0,0.0,nan,0.0,0.0,3.933865e-05,0.0,0.0,0.0,0.0,0.0,0.0,0.0,0.0,0.0
831716000,831636000,3.4267123e-07,0.0,1.7935108e-05,1.7957728e-06,0.0,0.0,0.0,0.0,0.0,0.0,0.0,0.0,0.0,4.3899973e-07,0.0,0.0,nan,0.0,0.0,3.933865e-05,0.0,0.0,0.0,0.0,0.0,0.0,0.0,0.0,0.0
831724000,831644000,3.4267123e-07,0.0,1.7935108e-05,1.7957728e-06,0.0,0.0,0.0,0.0,0.0,0.0,0.0,0.0,0.0,4.3899973e-07,0.0,0.0,nan,0.0,0.0,3.933865e-05,0.0,0.0,0.0,0.0,0.0,0.0,0.0,0.0,0.0
831732000,831652000,3.4267123e-07,0.0,1.7935108e-05,1.7957728e-06,0.0,0.0,0.0,0.0,0.0,0.0,0.0,0.0,0.0,4.708547e-06,0.0,0.0,nan,0.0,0.0,0.0002557283,0.0,0.0,0.0,0.0,0.0,0.0,0.0,0.0,0.0
831740000,831660000,3.4267123e-07,0.0,1.7935108e-05,1.7957728e-06,0.0,0.0,0.0,0.0,0.0,0.0,0.0,0.0,0.0,4.708547e-06,0.0,0.0,nan,0.0,0.0,0.0002557283,0.0,0.0,0.0,0.0,0.0,0.0,0.0,0.0,0.0
831748000,831668000,3.4267123e-07,0.0,1.7935108e-05,1.7957728e-06,0.0,0.0,0.0,0.0,0.0,0.0,0.0,0.0,0.0,4.708547e-06,0.0,0.0,nan,0.0,0.0,0.0002557283,0.0,0.0,0.0,0.0,0.0,0.0,0.0,0.0,0.0
831756000,831676000,3.4267123e-07,0.0,1.7935108e-05,1.7957728e-06,0.0,0.0,0.0,0.0,0.0,0.0,0.0,0.0,0.0,4.708547e-06,0.0,0.0,nan,0.0,0.0,0.0002557283,0.0,0.0,0.0,0.0,0.0,0.0,0.0,0.0,0.0
831764000,831684000,3.4267123e-07,0.0,1.7935108e-05,1.7957728e-06,0.0,0.0,0.0,0.0,0.0,0.0,0.0,0.0,0.0,4.708547e-06,0.0,0.0,nan,0.0,0.0,0.0002557283,0.0,0.0,0.0,0.0,0.0,0.0,0.0,0.0,0.0
831772000,831692000,3.4267123e-07,0.0,1.7935108e-05,1.7957728e-06,0.0,0.0,0.0,0.0,0.0,0.0,0.0,0.0,0.0,4.708547e-06,0.0,0.0,nan,0.0,0.0,0.0002557283,0.0,0.0,0.0,0.0,0.0,0.0,0.0,0.0,0.0
831780000,831700000,3.4267123e-07,0.0,1.7935108e-05,1.7957728e-06,0.0,0.0,0.0,0.0,0.0,0.0,0.0,0.0,0.0,4.708547e-06,0.0,0.0,nan,0.0,0.0,0.0002557283,0.0,0.0,0.0,0.0,0.0,0.0,0.0,0.0,0.0
831788000,831708000,3.4267123e-07,0.0,1.7935108e-05,1.7957728e-06,0.0,0.0,0.0,0.0,0.0,0.0,0.0,0.0,0.0,4.708547e-06,0.0,0.0,nan,0.0,0.0,0.0002557283,0.0,0.0,0.0,0.0,0.0,0.0,0.0,0.0,0.0
831796000,831716000,3.4267123e-07,0.0,1.7935108e-05,1.7957728e-06,0.0,0.0,0.0,0.0,0.0,0.0,0.0,0.0,0.0,4.7085473e-06,0.0,0.0,nan,0.0,0.0,0.0002557283,0.0,0.0,0.0,0.0,0.0,0.0,0.0,0.0,0.0
831804000,831724000,3.4267123e-07,0.0,1.7935108e-05,1.7957728e-06,0.0,0.0,0.0,0.0,0.0,0.0,0.0,0.0,0.0,4.7085473e-06,0.0,0.0,nan,0.0,0.0,9.383531e-06,0.0,0.0,0.0,0.0,0.0,0.0,0.0,0.0,0.0
831812000,831732000,3.4267123e-07,0.0,1.7935108e-05,1.7957728e-06,0.0,0.0,0.0,0.0,0.0,0.0,0.0,0.0,0.0,4.7085473e-06,0.0,0.0,nan,0.0,0.0,9.383531e-06,0.0,0.0,0.0,0.0,0.0,0.0,0.0,0.0,0.0
831820000,831740000,3.4267123e-07,0.0,1.7935108e-05,1.7957728e-06,0.0,0.0,0.0,0.0,0.0,0.0,0.0,0.0,0.0,4.7085473e-06,0.0,0.0,nan,0.0,0.0,9.383531e-06,0.0,0.0,0.0,0.0,0.0,0.0,0.0,0.0,0.0
831828000,831748000,4.9001872e-05,0.0,3.5018118e-07,1.7351917e-06,0.0,0.0,0.0,0.0,0.0,0.0,0.0,0.0,0.0,4.7085473e-06,0.0,0.0,nan,0.0,0.0,9.383531e-06,0.0,0.0,0.0,0.0,0.0,0.0,0.0,0.0,0.0
831836000,831756000,4.9001872e-05,0.0,3.5018118e-07,1.7351917e-06,0.0,0.0,0.0,0.0,0.0,0.0,0.0,0.0,0.0,4.7085473e-06,0.0,0.0,nan,0.0,0.0,9.383531e-06,0.0,0.0,0.0,0.0,0.0,0.0,0.0,0.0,0.0
