timestamp,timestamp_sample,ref_timestamp,ref_lat,ref_lon,x,y,z,delta_xy[0],delta_xy[1],delta_z,vx,vy,vz,z_deriv,delta_vxy[0],delta_vxy[1],delta_vz,ax,ay,az,heading,delta_heading,ref_alt,dist_bottom,eph,epv,evh,evv,vxy_max,vz_max,hagl_min,hagl_max,xy_valid,z_valid,v_xy_valid,v_z_valid,xy_reset_counter,z_reset_counter,vxy_reset_counter,vz_reset_counter,heading_reset_counter,heading_good_for_control,xy_global,z_global,dist_bottom_valid,dist_bottom_sensor_bitfield
829676000,829676000,1032000,41.606704,-86.3556021,-0.44856563,-1.115899,0.12643446,0.0004142284,0.0001567321,0.0,-0.0031830359,-0.0017998691,0.00027708057,-0.0006402735,-0.00029453117,-0.012450447,-0.01706494,-0.048677646,-0.05203292,0.08232978,-1.1143045,-0.01330457,229.4058,0.10011174,0.05606911,0.060083713,0.008108907,0.0057621947,inf,inf,inf,inf,1,1,1,1,2,0,2,1,4,0,1,1,1,0
830180000,830180000,1032000,41.606704,-86.3556021,-0.44764715,-1.1168087,0.12698573,0.0004142284,0.0001567321,0.0,0.0015349915,-0.0048380597,0.004177989,0.0033670985,-0.00029453117,-0.012450447,-0.01706494,-0.05590125,0.0017069171,0.46168724,-1.1141887,-0.01330457,229.4058,0.1,0.05601835,0.06002183,0.015853364,0.011401677,inf,inf,inf,inf,1,1,1,1,2,0,2,1,4,0,1,1,1,0
830676000,830676000,1032000,41.606704,-86.3556021,-0.4479288,-1.1162454,0.12678728,0.0004142284,0.0001567321,0.0,-3.0384823e-05,-0.0032569487,0.00062440103,3.335972e-06,-0.00029453117,-0.012450447,-0.01706494,-0.037380476,-0.0014973455,0.09042855,-1.114098,-0.01330457,229.4058,0.10037464,0.055952158,0.059982974,0.020807792,0.015110593,inf,inf,inf,inf,1,1,1,1,2,0,2,1,4,0,1,1,1,0
831172000,831172000,1032000,41.606704,-86.3556021,-0.446846,-1.1169283,0.12603512,0.0004142284,0.0001567321,0.0,0.0037519138,-0.0037296885,-0.0013164518,-0.0020101091,-0.00029453117,-0.012450447,-0.01706494,-0.005310516,0.047248587,0.048663404,-1.1139791,-0.01330457,229.4058,0.10012746,0.05590491,0.05990961,0.01217647,0.008700739,inf,inf,inf,inf,1,1,1,1,2,0,2,1,4,0,1,1,1,0
831676000,831676000,1032000,41.606704,-86.3556021,-0.4463529,-1.1172056,0.12578055,0.0004142284,0.0001567321,0.0,0.0038317754,-0.0049089445,0.00023963676,7.3978175e-05,-0.00029453117,-0.012450447,-0.01706494,0.029923877,-0.04069843,0.05582527,-1.1137006,-0.01330457,229.4058,0.10030693,0.05586708,0.059854463,0.018454118,0.013339142,inf,inf,inf,inf,1,1,1,1,2,0,2,1,4,0,1,1,1,0
832172000,832172000,1032000,41.606704,-86.3556021,-0.447349,-1.1162311,0.12546074,0.0004142284,0.0001567321,0.0,-0.0014816163,-0.00026356228,-0.00036370143,9.093409e-05,-0.00029453117,-0.012450447,-0.01706494,-0.06764273,-0.016602665,0.4024542,-1.1134797,-0.01330457,229.4058,0.10058507,0.055798322,0.05979237,0.008109975,0.0057621803,inf,inf,inf,inf,1,1,1,1,2,0,2,1,4,0,1,1,1,0
832676000,832676000,1032000,41.606704,-86.3556021,-0.4483393,-1.1158037,0.12390814,0.0004142284,0.0001567321,0.0,-0.0029224844,-0.0024300613,-0.0044597993,-0.0031210247,-0.00029453117,-0.012450447,-0.01706494,-0.059188794,0.051537164,-0.010929133,-1.1133866,-0.01330457,229.4058,0.10200258,0.055748988,0.059731726,0.01585253,0.01140104,inf,inf,inf,inf,1,1,1,1,2,0,2,1,4,0,1,1,1,0
833172000,833172000,1032000,41.606704,-86.3556021,-0.4481172,-1.1151392,0.12558074,0.0004142284,0.0001567321,0.0,-0.0006918562,0.0035609538,-0.0008493978,0.0009963514,-0.00029453117,-0.012450447,-0.01706494,0.11220587,0.022491345,-0.05741051,-1.112895,-0.01330457,229.4058,0.100724384,0.055728212,0.059694048,0.02082105,0.015114953,inf,inf,inf,inf,1,1,1,1,2,0,2,1,4,0,1,1,1,0
833676000,833676000,1032000,41.606704,-86.3556021,-0.44730467,-1.1130401,0.12660994,0.0004142284,0.0001567321,0.0,0.0006964066,0.0067369547,0.0008955479,0.002287605,-0.00029453117,-0.012450447,-0.01706494,0.036100484,0.019006947,-0.008488136,-1.1131234,-0.01330457,229.4058,0.1,0.055639103,0.059613395,0.012848749,0.009192499,inf,inf,inf,inf,1,1,1,1,2,0,2,1,4,0,1,1,1,0
834172000,834172000,1032000,41.606704,-86.3556021,-0.44647843,-1.1145864,0.12627779,0.0004142284,0.0001567321,0.0,0.0022114152,0.00055011245,-0.0012252332,-0.00018787077,-0.00029453117,-0.012450447,-0.01706494,-0.035292815,0.02622176,0.030550111,-1.11272,-0.01330457,229.4058,0.10036056,0.05564497,0.05956776,0.018462133,0.013341297,inf,inf,inf,inf,1,1,1,1,2,0,2,1,4,0,1,1,1,0
834676000,834676000,1032000,41.606704,-86.3556021,-0.4464912,-1.1155543,0.12661417,0.0004142284,0.0001567321,0.0,0.002423264,0.00095610286,0.0009865941,0.0021920875,-0.00029453117,-0.012450447,-0.01706494,0.03227901,0.021278763,-0.20238483,-1.1126359,-0.01330457,229.4058,0.10005312,0.055534657,0.05950679,0.009055494,0.0064422903,inf,inf,inf,inf,1,1,1,1,2,0,2,1,4,0,1,1,1,0
835180000,835180000,1032000,41.606704,-86.3556021,-0.44651034,-1.1155128,0.12713744,0.0004142284,0.0001567321,0.0,0.00406375,0.002611463,-0.0007362583,-0.00013671955,-0.00029453117,-0.012450447,-0.01706494,-0.039548256,0.06577528,0.029419484,-1.1126621,-0.01330457,229.4058,0.1,0.05553142,0.059448328,0.016400814,0.011806637,inf,inf,inf,inf,1,1,1,1,2,0,2,1,4,0,1,1,1,0
835676000,835676000,1032000,41.606704,-86.3556021,-0.44612604,-1.1158541,0.12820512,0.0004142284,0.0001567321,0.0,0.0049046804,-0.0009604955,0.0020486114,0.0021426287,-0.00029453117,-0.012450447,-0.01706494,-0.026710378,0.038954455,-0.045226015,-1.1123574,-0.01330457,229.4058,0.1,0.055433363,0.059393473,0.0014142136,0.001,inf,inf,inf,inf,1,1,1,1,2,0,2,1,4,0,1,1,1,0
836180000,836180000,1032000,41.606704,-86.3556021,-0.446925,-1.1157923,0.127902,0.0004142284,0.0001567321,0.0,0.0032338158,-0.00045745345,-0.0012657904,-0.0014170796,-0.00029453117,-0.012450447,-0.01706494,0.021261046,0.08318229,0.07409596,-1.1124874,-0.01330457,229.4058,0.1,0.05542268,0.059331633,0.013495481,0.009664441,inf,inf,inf,inf,1,1,1,1,2,0,2,1,4,0,1,1,1,0
836676000,836676000,1032000,41.606704,-86.3556021,-0.4465028,-1.1166419,0.12630613,0.0004142284,0.0001567321,0.0,0.0033211515,-0.0056238407,-0.0012417033,-0.0014407759,-0.00029453117,-0.012450447,-0.01706494,0.040279735,0.06709808,-0.08879887,-1.1114603,-0.01330457,229.4058,0.101342574,0.05671265,0.059981983,0.038663518,0.028935686,inf,inf,inf,inf,1,1,1,1,2,0,2,1,4,0,1,1,1,0
837180000,837180000,1032000,41.606704,-86.3556021,-0.4455681,-1.1219126,0.112995245,0.0004142284,0.0001567321,0.0,-0.014327493,-0.029697007,-0.1744497,-0.1745385,-0.00029453117,-0.012450447,-0.01706494,0.092788875,0.0009461193,-1.6180509,-1.1076136,-0.01330457,229.4058,0.11465346,0.06489308,0.06462991,0.05841028,0.044327836,inf,inf,inf,inf,1,1,1,1,2,0,2,1,4,0,1,1,1,0
837676000,837676000,1032000,41.606704,-86.3556021,-0.4530911,-1.1324956,-0.21203831,0.0004142284,0.0001567321,0.0,-0.018964395,-0.0127941575,-1.1565403,-1.1560616,-0.00029453117,-0.012450447,-0.01706494,0.10946185,0.07719291,-2.0831375,-1.108805,-0.01330457,229.4058,0.439687,0.084212944,0.0767709,0.07898845,0.058230065,inf,inf,inf,inf,1,1,1,1,2,0,2,1,4,0,1,1,1,0
838180000,838180000,1032000,41.606704,-86.3556021,-0.4596945,-1.1384517,-0.93458176,0.0004142284,0.0001567321,0.0,-0.0021168436,-0.015146519,-1.333229,-1.3313143,-0.00029453117,-0.012450447,-0.01706494,-0.06782897,-0.04338019,1.135174,-1.1090105,-0.01330457,229.4058,1.1622305,0.11503362,0.09791463,0.097039215,0.07127774,inf,inf,inf,inf,1,1,1,1,2,0,2,1,4,0,1,1,1,0
838676000,838676000,1032000,41.606704,-86.3556021,-0.46226507,-1.1451848,-1.4553338,0.0004142284,0.0001567321,0.0,0.012319511,-0.010906326,-0.8041634,-0.8048469,-0.00029453117,-0.012450447,-0.01706494,0.006110728,0.04340082,0.5753971,-1.0729893,0.040185317,229.4058,1.6829826,0.15148784,0.12584631,0.10665195,0.082925275,inf,inf,inf,inf,1,1,1,1,2,0,2,1,5,0,1,1,1,0
839180000,839180000,1032000,41.606704,-86.3556021,-0.459709,-1.1467823,-1.7759322,0.0004142284,0.0001567321,0.0,0.017942961,-0.002688532,-0.47910962,-0.48238248,-0.00029453117,-0.012450447,-0.01706494,-0.0062935054,-0.05221042,0.51400614,-1.084737,0.040185317,229.4058,2.0035808,0.19363014,0.16140792,0.11945334,0.09487023,inf,inf,inf,inf,1,1,1,1,2,0,2,1,5,0,1,1,1,0
839676000,839676000,1032000,41.606704,-86.3556021,-0.46227685,-1.1437842,-1.9649148,0.0004142284,0.0001567321,0.0,0.016424702,0.003059601,-0.30340597,-0.30463898,-0.00029453117,-0.012450447,-0.01706494,-0.06515016,-0.026098704,0.21085694,-1.089608,0.040185317,229.4058,2.1925635,0.21888912,0.19256522,0.13039838,0.10046145,inf,inf,inf,inf,1,1,1,1,2,0,2,1,5,1,1,1,1,0
840172000,840172000,1032000,41.606704,-86.3556021,-0.46821213,-1.1408942,-2.0864608,0.0004142284,0.0001567321,0.0,0.019194284,0.0020363226,-0.20204961,-0.20204812,-0.00029453117,-0.012450447,-0.01706494,0.015415934,-0.019672032,0.15242857,-1.0926265,0.040185317,229.4058,2.3141096,0.26046813,0.23198158,0.15772954,0.109548345,inf,inf,inf,inf,1,1,1,1,2,0,2,1,5,1,1,1,1,0
840676000,840676000,1032000,41.606704,-86.3556021,-0.4775709,-1.1383103,-2.0809748,0.0004142284,0.0001567321,0.0,-0.006817287,-0.00863794,0.1055498,0.10148809,-0.00029453117,-0.012450447,-0.01706494,0.039477363,0.095167674,-0.11571596,-1.093763,0.040185317,229.4058,2.3086236,0.27483314,0.25881505,0.15754849,0.110615596,inf,inf,inf,inf,1,1,1,1,2,0,2,1,5,1,1,1,1,0
841172000,841172000,1032000,41.606704,-86.3556021,-0.49958503,-1.1080133,-2.0944796,0.0004142284,0.0001567321,0.0,-0.00978486,0.12721732,-0.186566,-0.19108532,-0.00029453117,-0.012450447,-0.01706494,0.008047137,0.548239,-0.8696485,-1.0814657,0.040185317,229.4058,2.3221283,0.2984047,0.28849736,0.1664482,0.11363622,inf,inf,inf,inf,1,1,1,1,2,0,2,1,5,1,1,1,0,0
841676000,841676000,1032000,41.606704,-86.3556021,-0.5032607,-0.9259962,-2.2631655,0.0004142284,0.0001567321,0.0,0.0023233935,0.65248966,-0.4882995,-0.48526865,-0.00029453117,-0.012450447,-0.01706494,-0.048929196,1.4888016,-0.5971352,-1.0632974,0.040185317,229.4058,2.4908142,0.33924338,0.32398483,0.18573245,0.119170465,inf,inf,inf,inf,1,1,1,1,2,0,2,1,5,1,1,1,0,0
842172000,842172000,1032000,41.606704,-86.3556021,-0.47248706,-0.44134495,-2.5323236,0.0004142284,0.0001567321,0.0,0.008338059,1.3935506,-0.66717345,-0.6464235,-0.00029453117,-0.012450447,-0.01706494,-0.029313369,1.6840084,-0.40311834,-1.0639215,0.040185317,229.4058,2.7599723,0.3509397,0.34442988,0.18174349,0.11874142,inf,inf,inf,inf,1,1,1,1,2,0,2,1,5,1,1,1,0,0
842676000,842676000,1032000,41.606704,-86.3556021,-0.41265365,0.394833,-2.8687665,0.0004142284,0.0001567321,0.0,-0.025020912,1.9842824,-0.74868006,-0.7172694,-0.00029453117,-0.012450447,-0.01706494,-0.19456986,0.86309,-0.10055403,-1.0715406,0.040185317,229.4058,3.0964153,0.36270848,0.36401048,0.17897364,0.11870419,inf,inf,inf,inf,1,1,1,1,2,0,2,1,5,1,1,1,0,0
843172000,843172000,1032000,41.606704,-86.3556021,-0.36527643,1.4679502,-3.2138016,0.0004142284,0.0001567321,0.0,-0.07082508,2.3153555,-0.7572085,-0.7149669,-0.00029453117,-0.012450447,-0.01706494,-0.2549009,0.46090472,-0.006924446,-1.0823164,0.040185317,229.4058,3.4414504,0.36906,0.3769858,0.17129062,0.11750649,inf,inf,inf,inf,1,1,1,1,2,0,2,1,5,1,1,1,0,0
843676000,843676000,1032000,41.606704,-86.3556021,-0.321352,2.6918678,-3.535729,0.0004142284,0.0001567321,0.0,-0.12134165,2.4491034,-0.7607055,-0.69278765,-0.00029453117,-0.012450447,-0.01706494,-0.20090158,0.112005115,-0.07128349,-1.0866224,0.040185317,229.4058,3.7633777,0.3533235,0.3792859,0.1525659,0.11318096,inf,inf,inf,inf,1,1,1,1,2,0,2,1,5,1,1,1,0,0
844172000,844172000,1032000,41.606704,-86.3556021,-0.3409249,3.9396968,-3.8827746,0.0004142284,0.0001567321,0.0,-0.16506548,2.5028393,-0.7540981,-0.69143516,-0.00029453117,-0.012450447,-0.01706494,0.105602555,0.104907796,-0.12901524,-1.0929767,0.040185317,229.4058,4.110423,0.38087288,0.3983312,0.16025205,0.11666384,inf,inf,inf,inf,1,1,1,1,2,0,2,1,5,1,1,1,0,0
844676000,844676000,1032000,41.606704,-86.3556021,-0.3916768,5.2201796,-4.2274094,0.0004142284,0.0001567321,0.0,-0.14910538,2.5181296,-0.7411052,-0.6766572,-0.00029453117,-0.012450447,-0.01706494,0.06439671,-0.06351295,0.008230966,-1.1002463,0.040185317,229.4058,4.455058,0.380913,0.40655452,0.15336516,0.11613146,inf,inf,inf,inf,1,1,1,1,2,0,2,1,5,1,1,1,0,0
845172000,845172000,1032000,41.606704,-86.3556021,-0.4251569,6.482129,-4.5281057,0.0004142284,0.0001567321,0.0,-0.1262582,2.5118456,-0.77013946,-0.6751181,-0.00029453117,-0.012450447,-0.01706494,-0.08001345,0.028320624,-0.14632852,-1.11132,0.040185317,229.4058,4.7557545,0.38155565,0.41002685,0.14991954,0.115455575,inf,inf,inf,inf,1,1,1,1,2,0,2,1,5,1,1,1,0,0
845676000,845676000,1032000,41.606704,-86.3556021,-0.47845736,7.7639184,-4.8628874,0.0004142284,0.0001567321,0.0,-0.110884145,2.5304942,-0.8106104,-0.70201725,-0.00029453117,-0.012450447,-0.01706494,0.115470946,-0.032802932,-0.06763829,-1.1166456,0.040185317,229.4058,5.090536,0.38129517,0.4155137,0.14707635,0.11541311,inf,inf,inf,inf,1,1,1,1,2,0,2,1,5,1,1,1,0,0
846180000,846180000,1032000,41.606704,-86.3556021,-0.5354447,9.043215,-5.194421,0.0004142284,0.0001567321,0.0,-0.071944155,2.522868,-0.8277834,-0.70117545,-0.00029453117,-0.012450447,-0.01706494,0.06410261,0.08298466,-0.2577007,-1.1271185,0.040185317,229.4058,5.4220695,0.3823304,0.4172343,0.14651996,0.115352094,inf,inf,inf,inf,1,1,1,1,2,0,2,1,5,1,1,1,0,0
846676000,846676000,1032000,41.606704,-86.3556021,-0.57648796,10.287461,-5.530854,0.0004142284,0.0001567321,0.0,-0.033869587,2.501239,-0.8515387,-0.716183,-0.00029453117,-0.012450447,-0.01706494,-0.030103108,0.33169985,-1.2749006,-1.1356547,0.040185317,229.4058,5.758503,0.3822458,0.42038074,0.14599751,0.11565055,inf,inf,inf,inf,1,1,1,1,2,0,2,1,5,1,1,1,0,0
847172000,847172000,1032000,41.606704,-86.3556021,-0.60757333,11.519059,-5.888597,0.0004142284,0.0001567321,0.0,-0.011356758,2.4987543,-0.84826577,-0.71896064,-0.00029453117,-0.012450447,-0.01706494,0.016288176,-0.124196425,0.04378886,-1.1425242,0.040185317,229.4058,6.1162457,0.40402612,0.4269058,0.15473568,0.11898556,inf,inf,inf,inf,1,1,1,1,2,0,2,1,5,1,1,1,0,0
847676000,847676000,1032000,41.606704,-86.3556021,-0.6320809,12.766941,-6.216247,0.0004142284,0.0001567321,0.0,0.011641529,2.4992323,-0.8658567,-0.70973593,-0.00029453117,-0.012450447,-0.01706494,0.15574001,0.10541635,-0.13817665,-1.1559255,0.040185317,229.4058,6.443896,0.37795663,0.42212525,0.14238134,0.11523262,inf,inf,inf,inf,1,1,1,1,2,0,2,1,5,1,1,1,0,0
848172000,848172000,1032000,41.606704,-86.3556021,-0.6359276,14.00346,-6.5775,0.0004142284,0.0001567321,0.0,0.027408397,2.512193,-0.881837,-0.7306841,-0.00029453117,-0.012450447,-0.01706494,-0.0063641523,-0.03296134,-0.060464315,-1.1595864,0.040185317,229.4058,6.8051486,0.399027,0.42745072,0.15202309,0.1187308,inf,inf,inf,inf,1,1,1,1,2,0,2,1,5,1,1,1,0,0
848676000,848676000,1032000,41.606704,-86.3556021,-0.6472106,15.257908,-6.933254,0.0004142284,0.0001567321,0.0,0.02912548,2.5094824,-0.8892784,-0.731298,-0.00029453117,-0.012450447,-0.01706494,-0.027810698,-0.05165118,0.13626826,-1.1723977,0.040185317,229.4058,7.1609025,0.37525102,0.42255747,0.1415927,0.11513003,inf,inf,inf,inf,1,1,1,1,2,0,2,1,5,1,1,1,0,0
849172000,849172000,1032000,41.606704,-86.3556021,-0.6429821,16.499502,-7.3102527,0.0004142284,0.0001567321,0.0,0.0354236,2.5202768,-0.8808342,-0.739321,-0.00029453117,-0.012450447,-0.01706494,-0.030193359,-0.0137033975,0.09775899,-1.1806602,0.040185317,229.4058,7.5379014,0.39772406,0.4274255,0.15295574,0.11898435,inf,inf,inf,inf,1,1,1,1,2,0,2,1,5,1,1,1,0,0
849676000,849676000,1032000,41.606704,-86.3556021,-0.6378465,17.762407,-7.7019477,0.0004142284,0.0001567321,0.0,0.019036416,2.501472,-0.8493378,-0.7308543,-0.00029453117,-0.012450447,-0.01706494,-0.011699651,-0.0690367,0.11114955,-1.1910163,0.040185317,229.4058,7.9295964,0.39487812,0.42875367,0.15112361,0.11883983,inf,inf,inf,inf,1,1,1,1,2,0,2,1,5,1,1,1,0,0
850172000,850172000,1032000,41.606704,-86.3556021,-0.64005196,18.9927,-8.05928,0.0004142284,0.0001567321,0.0,0.016489418,2.4881299,-0.8348617,-0.7174167,-0.00029453117,-0.012450447,-0.01706494,0.040287472,-0.014333816,-0.15103821,-1.1976562,0.040185317,229.4058,8.286929,0.39170977,0.42928138,0.1496417,0.11848068,inf,inf,inf,inf,1,1,1,1,2,0,2,1,5,1,1,1,0,0
850676000,850676000,1032000,41.606704,-86.3556021,-0.64340186,20.216656,-8.377698,0.0004142284,0.0001567321,0.0,0.013604619,2.2757404,-0.42799726,-0.3189867,-0.00029453117,-0.012450447,-0.01706494,0.09583992,-1.1383839,1.5072578,-1.2223011,0.040185317,229.4058,8.605347,0.38992068,0.4272815,0.1483853,0.1179817,inf,inf,inf,inf,1,1,1,1,2,0,2,1,5,1,1,1,0,0
851172000,851172000,1032000,41.606704,-86.3556021,-0.648572,21.154055,-8.388364,0.0004142284,0.0001567321,0.0,0.011242856,1.3253438,0.18050393,0.27885807,-0.00029453117,-0.012450447,-0.01706494,0.014317252,-2.5369785,1.0989455,-1.2075162,0.040185317,229.4058,8.616013,0.38798302,0.4247777,0.1486482,0.11734288,inf,inf,inf,inf,1,1,1,1,2,0,2,1,5,1,1,1,0,0
851676000,851676000,1032000,41.606704,-86.3556021,-0.6933313,21.5368,-8.156123,0.0004142284,0.0001567321,0.0,0.0064260717,0.03888902,0.5893605,0.6701408,-0.00029453117,-0.012450447,-0.01706494,0.14257863,-2.4392736,0.65639234,-1.1964198,0.040185317,229.4058,8.383772,0.3885766,0.42628866,0.15510933,0.11720553,inf,inf,inf,inf,1,1,1,1,2,0,2,1,5,1,1,1,0,0
852172000,852172000,1032000,41.606704,-86.3556021,-0.7510158,21.338354,-7.8203807,0.0004142284,0.0001567321,0.0,0.023267578,-0.85693467,0.59870577,0.6562992,-0.00029453117,-0.012450447,-0.01706494,-0.063667454,-1.0056206,0.8423355,-1.2044853,0.040185317,229.4058,8.048029,0.41215783,0.43023068,0.17039898,0.12011579,inf,inf,inf,inf,1,1,1,1,2,0,2,1,5,1,1,1,0,0
852676000,852676000,1032000,41.606704,-86.3556021,-0.8815965,20.798588,-7.5369782,0.0004142284,0.0001567321,0.0,0.04149432,-1.1500517,0.60350573,0.6402964,-0.00029453117,-0.012450447,-0.01706494,0.38769642,0.0085395565,0.383499,-1.2080561,0.040185317,229.4058,7.764627,0.38320503,0.42472655,0.15189244,0.11584175,inf,inf,inf,inf,1,1,1,1,2,0,2,1,5,1,1,1,0,0
853180000,853180000,1032000,41.606704,-86.3556021,-0.94846267,20.234976,-7.2068486,0.0004142284,0.0001567321,0.0,0.1609033,-0.88894665,0.7149482,0.7317111,-0.00029453117,-0.012450447,-0.01706494,0.26836973,0.7764856,0.066686355,-1.1955988,0.040185317,229.4058,7.4344974,0.40678677,0.42899904,0.15886918,0.11996631,inf,inf,inf,inf,1,1,1,1,2,0,2,1,5,1,1,1,0,0
853676000,853676000,1032000,41.606704,-86.3556021,-0.9211172,19.802925,-6.899849,0.0004142284,0.0001567321,0.0,0.22952792,-0.66477877,0.69975424,0.67895436,-0.00029453117,-0.012450447,-0.01706494,0.1314374,0.36406147,0.071974404,-1.1940415,0.040185317,229.4058,7.1274977,0.37983873,0.42325076,0.14445505,0.116380274,inf,inf,inf,inf,1,1,1,1,2,0,2,1,5,1,1,1,0,0
854172000,854172000,1032000,41.606704,-86.3556021,-0.8296171,19.477074,-6.581214,0.0004142284,0.0001567321,0.0,0.22779651,-0.4472988,0.80188394,0.74911773,-0.00029453117,-0.012450447,-0.01706494,-0.10114379,0.4902753,0.1622773,-1.1925956,0.040185317,229.4058,6.8088627,0.3795666,0.4211749,0.14484191,0.116869055,inf,inf,inf,inf,1,1,1,1,2,0,2,1,5,1,1,1,0,0
854676000,854676000,1032000,41.606704,-86.3556021,-0.7194572,19.285044,-6.205112,0.0004142284,0.0001567321,0.0,0.1625528,-0.20343375,0.8204267,0.76479524,-0.00029453117,-0.012450447,-0.01706494,-0.19872816,0.4555918,-0.06482197,-1.1942759,0.040185317,229.4058,6.4327607,0.40210888,0.4257247,0.15628904,0.12120345,inf,inf,inf,inf,1,1,1,1,2,0,2,1,5,1,1,1,0,0
855180000,855180000,1032000,41.606704,-86.3556021,-0.6294304,19.197432,-5.848798,0.0004142284,0.0001567321,0.0,0.07610566,-0.038350478,0.80557257,0.7341252,-0.00029453117,-0.012450447,-0.01706494,-0.15550958,0.3513103,0.007598597,-1.1960043,0.040185317,229.4058,6.0764465,0.39829922,0.42694497,0.15461153,0.12114421,inf,inf,inf,inf,1,1,1,1,2,0,2,1,5,1,1,1,0,0
855676000,855676000,1032000,41.606704,-86.3556021,-0.5708614,19.17264,-5.5112033,0.0004142284,0.0001567321,0.0,-0.004935324,0.049570084,0.82496476,0.7342898,-0.00029453117,-0.012450447,-0.01706494,-0.08943412,0.1328945,0.050466444,-1.1967082,0.040185317,229.4058,5.738852,0.39624593,0.427758,0.15430386,0.1211715,inf,inf,inf,inf,1,1,1,1,2,0,2,1,5,1,1,1,0,0
856172000,856172000,1032000,41.606704,-86.3556021,-0.54866743,20.015135,-6.6198463,0.0004142284,0.0001567321,0.0,-0.094683446,4.0672836,-3.2431545,-3.2715054,-0.00029453117,-0.012450447,-0.01706494,-0.11808544,8.741302,-0.6916942,-1.1578524,0.040185317,229.4058,6.847495,0.3936041,0.42813474,0.19293648,0.11738158,inf,inf,inf,inf,1,1,1,1,2,0,2,1,5,1,1,1,0,0
856676000,856676000,1032000,41.606704,-86.3556021,-0.388522,22.541754,-8.375143,0.0004142284,0.0001567321,0.0,-0.037495412,6.098641,-3.5229504,-3.5743635,-0.00029453117,-0.012450447,-0.01706494,-0.5098708,1.6231885,-0.15786389,-1.2620779,0.040185317,229.4058,8.602792,0.37130934,0.42019886,0.18039836,0.109611504,inf,inf,inf,inf,1,1,1,1,2,0,2,1,5,1,1,1,0,0
857172000,857172000,1032000,41.606704,-86.3556021,-0.2646199,25.633102,-10.144914,0.0004142284,0.0001567321,0.0,-0.1982227,6.2126646,-3.1922462,-3.2611303,-0.00029453117,-0.012450447,-0.01706494,-0.34874526,-1.9999771,2.7940524,-1.2844435,0.040185317,229.4058,10.372562,0.39377403,0.42517546,0.18667972,0.10901346,inf,inf,inf,inf,1,1,1,1,2,0,2,1,5,1,1,1,0,0
857676000,857676000,1032000,41.606704,-86.3556021,-0.2405348,28.466211,-11.379276,0.0004142284,0.0001567321,0.0,-0.21983328,4.578416,-1.4869598,-1.5746213,-0.00029453117,-0.012450447,-0.01706494,-0.1758364,-3.835071,3.0156624,-1.2888556,0.040185317,229.4058,11.606925,0.3904376,0.42199045,0.16463421,0.10449051,inf,inf,inf,inf,1,1,1,1,2,0,2,1,5,1,1,1,0,0
858172000,858172000,1032000,41.606704,-86.3556021,-0.26953903,30.480255,-11.922453,0.0004142284,0.0001567321,0.0,-0.25794446,2.956191,-0.5483127,-0.6601096,-0.00029453117,-0.012450447,-0.01706494,-0.18621811,-2.8814907,1.0976278,-1.2657726,0.040185317,229.4058,12.150102,0.3882351,0.42113984,0.16045074,0.10309532,inf,inf,inf,inf,1,1,1,1,2,0,2,1,5,1,1,1,0,0
858676000,858676000,1032000,41.606704,-86.3556021,-0.4144423,31.7809,-12.1410055,0.0004142284,0.0001567321,0.0,-0.26909056,1.8218473,-0.2276683,-0.32209134,-0.00029453117,-0.012450447,-0.01706494,0.10547102,-1.9884218,0.25609407,-1.263968,0.040185317,229.4058,12.368654,0.38588578,0.41777837,0.16241392,0.1035299,inf,inf,inf,inf,1,1,1,1,2,0,2,1,5,1,1,1,0,0
859180000,859180000,1032000,41.606704,-86.3556021,-0.5938723,32.53292,-12.213338,0.0004142284,0.0001567321,0.0,-0.11940005,0.59352857,0.17738682,0.09828039,-0.00029453117,-0.012450447,-0.01706494,0.6608662,-3.5786548,0.9184013,-1.2483776,0.040185317,229.4058,12.440987,0.38547066,0.4175818,0.16370013,0.10334251,inf,inf,inf,inf,1,1,1,1,2,0,2,1,5,1,1,1,0,0
859676000,859676000,1032000,41.606704,-86.3556021,-0.6798869,32.580162,-12.146544,0.0004142284,0.0001567321,0.0,0.08424645,-0.42187253,0.15034382,0.078088135,-0.00029453117,-0.012450447,-0.01706494,0.37671378,-0.7809279,-0.12419192,-1.2510841,0.040185317,229.4058,12.374193,0.384501,0.41690397,0.16349103,0.09987918,inf,inf,inf,inf,1,1,1,1,2,0,2,1,5,1,1,1,0,0
860180000,860180000,1032000,41.606704,-86.3556021,-0.70327276,32.335167,-12.112606,0.0004142284,0.0001567321,0.0,0.15752827,-0.5238897,0.09691441,0.03168761,-0.00029453117,-0.012450447,-0.01706494,0.16379242,0.20037898,-0.09043055,-1.2587423,0.040185317,229.4058,12.340255,0.4069852,0.41771615,0.1730438,0.100313246,inf,inf,inf,inf,1,1,1,1,2,0,2,1,5,1,1,1,0,0
860676000,860676000,1032000,41.606704,-86.3556021,-0.74077636,32.100277,-12.114482,0.0004142284,0.0001567321,0.0,0.18982649,-0.3453836,0.07109438,-0.0031555723,-0.00029453117,-0.012450447,-0.01706494,0.28066418,0.53052735,-0.05870784,-1.267853,0.040185317,229.4058,12.342131,0.37917355,0.4130701,0.15533957,0.097790115,inf,inf,inf,inf,1,1,1,1,2,0,2,1,5,1,1,1,0,0
861172000,861172000,1032000,41.606704,-86.3556021,-0.70840853,31.964745,-12.128377,0.0004142284,0.0001567321,0.0,0.23232974,-0.1338636,0.053100623,-0.028458426,-0.00029453117,-0.012450447,-0.01706494,-0.016439669,0.41856438,-0.028432408,-1.2674706,0.040185317,229.4058,12.356026,0.4006908,0.4162219,0.166874,0.10138479,inf,inf,inf,inf,1,1,1,1,2,0,2,1,5,1,1,1,0,0
861676000,861676000,1032000,41.606704,-86.3556021,-0.65351915,31.913822,-12.1657295,0.0004142284,0.0001567321,0.0,0.2110075,0.008060276,0.0662151,-0.034321077,-0.00029453117,-0.012450447,-0.01706494,0.032475505,0.16142906,-0.038881846,-1.2709025,0.040185317,229.4058,12.393378,0.37618035,0.40972504,0.15373573,0.10093308,inf,inf,inf,inf,1,1,1,1,2,0,2,1,5,1,1,1,0,0
862172000,862172000,1032000,41.606704,-86.3556021,-0.5901877,31.926702,-12.18536,0.0004142284,0.0001567321,0.0,0.1690281,0.07428085,0.07129184,-0.029924242,-0.00029453117,-0.012450447,-0.01706494,-0.22120039,0.09074642,-1.1558319,-1.2733941,0.040185317,229.4058,12.413009,0.3995462,0.4136228,0.16730584,0.10648915,inf,inf,inf,inf,1,1,1,1,2,0,2,1,5,1,1,1,0,0
862676000,862676000,1032000,41.606704,-86.3556021,-0.5332104,31.961014,-12.19976,0.0004142284,0.0001567321,0.0,0.111512646,0.0854978,0.07282381,-0.027788036,-0.00029453117,-0.012450447,-0.01706494,-0.048455916,-0.010062385,0.07983756,-1.276437,0.040185317,229.4058,12.427409,0.39664495,0.4117199,0.16397825,0.109028496,inf,inf,inf,inf,1,1,1,1,2,0,2,1,5,1,1,1,0,0
863180000,863180000,1032000,41.606704,-86.3556021,-0.50613827,31.993103,-12.236965,0.0004142284,0.0001567321,0.0,0.060409155,0.068992734,0.09053402,-0.029253539,-0.00029453117,-0.012450447,-0.01706494,-0.036529984,-0.028220572,0.16827409,-1.2769356,0.040185317,229.4058,12.464614,0.39427698,0.41308653,0.16109611,0.1117106,inf,inf,inf,inf,1,1,1,1,2,0,2,1,5,1,1,1,0,0
863676000,863676000,1032000,41.606704,-86.3556021,-0.4899834,32.01992,-12.255927,0.0004142284,0.0001567321,0.0,0.0351259,0.04760721,0.10707795,-0.018277097,-0.00029453117,-0.012450447,-0.01706494,-0.013678133,-0.11429805,0.058378026,-1.278389,0.040185317,229.4058,12.483576,0.39163208,0.41140074,0.1580898,0.11366928,inf,inf,inf,inf,1,1,1,1,2,0,2,1,5,1,1,1,0,0
864180000,864180000,1032000,41.606704,-86.3556021,-0.4812334,32.042725,-12.286718,0.0004142284,0.0001567321,0.0,0.019080484,0.025626622,0.12475302,-0.018372215,-0.00029453117,-0.012450447,-0.01706494,-0.053014286,-0.019039253,0.12391613,-1.2786127,0.040185317,229.4058,12.514367,0.39040616,0.41069946,0.15612455,0.115536384,inf,inf,inf,inf,1,1,1,1,2,0,2,1,5,1,1,1,0,0
864676000,864676000,1032000,41.606704,-86.3556021,-0.47653234,32.051403,-12.309541,0.0004142284,0.0001567321,0.0,0.005824168,0.008341396,0.15096615,-0.003667316,-0.00029453117,-0.012450447,-0.01706494,-0.13854259,0.029635463,-0.058351144,-1.2791586,0.040185317,229.4058,12.5371895,0.3902631,0.41274318,0.15531836,0.11744341,inf,inf,inf,inf,1,1,1,1,2,0,2,1,5,1,1,1,0,0
865172000,865172000,1032000,41.606704,-86.3556021,-0.47098467,32.053993,-12.302805,0.0004142284,0.0001567321,0.0,0.007912775,-0.0040274635,0.14523551,0.0020802447,-0.00029453117,-0.012450447,-0.01706494,0.26008397,0.032975588,0.2568857,-1.2792954,0.040185317,229.4058,12.530454,0.41410986,0.41750112,0.16523886,0.12237469,inf,inf,inf,inf,1,1,1,1,2,0,2,1,5,1,1,1,0,0
865676000,865676000,1032000,41.606704,-86.3556021,-0.4666243,32.059917,-12.319906,0.0004142284,0.0001567321,0.0,-0.0037150732,-0.00607599,0.14248537,-0.012221305,-0.00029453117,-0.012450447,-0.01706494,-0.032136586,-0.06958133,0.06340344,-1.2800314,0.040185317,229.4058,12.547555,0.38444486,0.4144047,0.14875571,0.11875362,inf,inf,inf,inf,1,1,1,1,2,0,2,1,5,1,1,1,0,0
866172000,866172000,1032000,41.606704,-86.3556021,-0.45628518,32.064884,-12.32788,0.0004142284,0.0001567321,0.0,8.458843e-05,-0.012327338,0.16185735,0.006245843,-0.00029453117,-0.012450447,-0.01706494,0.002146242,-0.11064459,0.08290161,-1.280143,0.040185317,229.4058,12.555529,0.4073125,0.41948596,0.15869227,0.12317841,inf,inf,inf,inf,1,1,1,1,2,0,2,1,5,1,1,1,0,0
866676000,866676000,1032000,41.606704,-86.3556021,-0.4485559,32.06948,-12.329616,0.0004142284,0.0001567321,0.0,-0.00470481,-0.013624014,0.15487766,-0.0013793171,-0.00029453117,-0.012450447,-0.01706494,0.016045358,-0.0827096,0.07187382,-1.2804317,0.040185317,229.4058,12.557264,0.38065654,0.416138,0.14521825,0.11916586,inf,inf,inf,inf,1,1,1,1,2,0,2,1,5,1,1,1,0,0
867180000,867180000,1032000,41.606704,-86.3556021,-0.44861096,32.080086,-12.32975,0.0004142284,0.0001567321,0.0,-0.018260462,-0.015453977,0.1540633,-9.888181e-05,-0.00029453117,-0.012450447,-0.01706494,-0.00721319,-0.0005349241,0.031412516,-1.2804267,0.040185317,229.4058,12.557399,0.38104022,0.41597575,0.14566334,0.11941524,inf,inf,inf,inf,1,1,1,1,2,0,2,1,5,1,1,1,0,0
867676000,867676000,1032000,41.606704,-86.3556021,-0.4533247,32.08232,-12.312494,0.0004142284,0.0001567321,0.0,-0.018070698,-0.023837013,0.14518169,0.0075321463,-0.00029453117,-0.012450447,-0.01706494,-0.054577082,1.6682543e-05,-0.15816377,-1.2804427,0.040185317,229.4058,12.540143,0.40315104,0.42426005,0.15553689,0.123706706,inf,inf,inf,inf,1,1,1,1,2,0,2,1,5,1,1,1,0,0
868180000,868180000,1032000,41.606704,-86.3556021,-0.4549238,32.080494,-12.3012495,0.0004142284,0.0001567321,0.0,-0.004595245,-0.025730355,0.1286253,0.0019307121,-0.00029453117,-0.012450447,-0.01706494,0.05031496,-0.00853313,-0.08940051,-1.2804568,0.040185317,229.4058,12.528898,0.39914453,0.42345497,0.15256982,0.122872904,inf,inf,inf,inf,1,1,1,1,2,0,2,1,5,1,1,1,0,0
868676000,868676000,1032000,41.606704,-86.3556021,-0.45572314,32.088554,-12.289763,0.0004142284,0.0001567321,0.0,-0.00533944,-0.02367632,0.11929905,0.0049055303,-0.00029453117,-0.012450447,-0.01706494,-0.050887916,-0.038721837,0.03153545,-1.2802303,0.040185317,229.4058,12.517412,0.39693248,0.4223091,0.15162182,0.12228614,inf,inf,inf,inf,1,1,1,1,2,0,2,1,5,1,1,1,0,0
869180000,869180000,1032000,41.606704,-86.3556021,-0.4610075,32.08592,-12.272686,0.0004142284,0.0001567321,0.0,-0.0017534631,-0.027551714,0.1000926,0.0018351417,-0.00029453117,-0.012450447,-0.01706494,-0.0438357,-0.007521873,-0.012329842,-1.2799072,0.040185317,229.4058,12.500335,0.39452565,0.42455477,0.15030977,0.12200815,inf,inf,inf,inf,1,1,1,1,2,0,2,1,5,1,1,1,0,0
869676000,869676000,1032000,41.606704,-86.3556021,-0.4694437,32.081814,-12.25874,0.0004142284,0.0001567321,0.0,0.0011858023,-0.02024204,0.08129863,-0.0036051597,-0.00029453117,-0.012450447,-0.01706494,0.027400477,-0.08786853,-0.01639041,-1.2797933,0.040185317,229.4058,12.486389,0.3716798,0.41686314,0.14035693,0.11739896,inf,inf,inf,inf,1,1,1,1,2,0,2,1,5,1,1,1,0,0
870172000,870172000,1032000,41.606704,-86.3556021,-0.47207457,32.075317,-12.238885,0.0004142284,0.0001567321,0.0,0.009996092,-0.018316934,0.06315991,-0.0025040447,-0.00029453117,-0.012450447,-0.01706494,-0.02899404,0.044011913,0.020473199,-1.2799944,0.040185317,229.4058,12.466534,0.3924758,0.4245478,0.1504576,0.12141543,inf,inf,inf,inf,1,1,1,1,2,0,2,1,5,1,1,1,0,0
870676000,870676000,1032000,41.606704,-86.3556021,-0.47080845,32.057537,-12.2226515,0.0004142284,0.0001567321,0.0,0.013348936,-0.0110250795,0.04703175,-0.0025798935,-0.00029453117,-0.012450447,-0.01706494,0.08219369,0.022809267,-0.107896574,-1.2799282,0.040185317,229.4058,12.4503,0.38889787,0.42599633,0.14790702,0.12078942,inf,inf,inf,inf,1,1,1,1,2,0,2,1,5,1,1,1,0,0
871172000,871172000,1032000,41.606704,-86.3556021,-0.47416598,32.040173,-12.210573,0.0004142284,0.0001567321,0.0,0.018366048,0.0016584838,0.036508895,-0.00027649832,-0.00029453117,-0.012450447,-0.01706494,0.10762156,0.104214475,-0.15191366,-1.2799335,0.040185317,229.4058,12.438222,0.38689017,0.42386687,0.14724566,0.12006667,inf,inf,inf,inf,1,1,1,1,2,0,2,1,5,1,1,1,0,0
871676000,871676000,1032000,41.606704,-86.3556021,-0.47511128,32.03336,-12.19495,0.0004142284,0.0001567321,0.0,0.020935623,0.011756248,0.014180577,-0.0070718927,-0.00029453117,-0.012450447,-0.01706494,-0.07602421,0.0072106305,-1.289202,-1.2797704,0.040185317,229.4058,12.422599,0.38472468,0.4252594,0.14606011,0.11973566,inf,inf,inf,inf,1,1,1,1,2,0,2,1,5,1,1,1,0,0
872172000,872172000,1032000,41.606704,-86.3556021,-0.4905316,32.024635,-12.188034,0.0004142284,0.0001567321,0.0,0.019491987,0.020074254,0.007394096,-0.0060793627,-0.00029453117,-0.012450447,-0.01706494,0.06994734,0.005572541,-0.04734198,-1.2799083,0.040185317,229.4058,12.415683,0.38372168,0.4230927,0.14618152,0.1192646,inf,inf,inf,inf,1,1,1,1,2,0,2,1,5,1,1,1,0,0
872676000,872676000,1032000,41.606704,-86.3556021,-0.499449,32.02527,-12.178522,0.0004142284,0.0001567321,0.0,0.034576137,0.029419448,-0.004508235,-0.007135092,-0.00029453117,-0.012450447,-0.01706494,0.082060516,0.049982868,-0.007492553,-1.2796154,0.040185317,229.4058,12.406171,0.38354814,0.42465922,0.1464696,0.11940952,inf,inf,inf,inf,1,1,1,1,2,0,2,1,5,1,1,1,0,0
873180000,873180000,1032000,41.606704,-86.3556021,-0.49760598,32.029095,-12.176835,0.0004142284,0.0001567321,0.0,0.04006889,0.027377294,-0.00783087,-0.008376187,-0.00029453117,-0.012450447,-0.01706494,0.057526354,0.001924636,-0.020790907,-1.2796035,0.040185317,229.4058,12.404484,0.40520105,0.43252552,0.15573403,0.12332801,inf,inf,inf,inf,1,1,1,1,2,0,2,1,5,1,1,1,0,0
873676000,873676000,1032000,41.606704,-86.3556021,-0.5080863,32.02766,-12.170373,0.0004142284,0.0001567321,0.0,0.037009068,0.022959622,-0.012256017,-0.00588118,-0.00029453117,-0.012450447,-0.01706494,0.056960605,-0.0019350435,-0.10291772,-1.2792742,0.040185317,229.4058,12.398022,0.37832594,0.42311066,0.14302386,0.11819542,inf,inf,inf,inf,1,1,1,1,2,0,2,1,5,1,1,1,0,0
874180000,874180000,1032000,41.606704,-86.3556021,-0.51334876,32.035248,-12.166363,0.0004142284,0.0001567321,0.0,0.026325168,0.011678908,0.002232574,0.011022981,-0.00029453117,-0.012450447,-0.01706494,-0.092724904,-0.022430366,-0.093996584,-1.2791244,0.040185317,229.4058,12.3940115,0.39993322,0.4307198,0.15286313,0.122235544,inf,inf,inf,inf,1,1,1,1,2,0,2,1,5,1,1,1,0,0
874676000,874676000,1032000,41.606704,-86.3556021,-0.5363058,32.034138,-12.150368,0.0004142284,0.0001567321,0.0,0.007561578,0.0076379203,-0.016333085,0.0006538058,-0.00029453117,-0.012450447,-0.01706494,0.03622283,-0.005711543,0.22150569,-1.2792475,0.040185317,229.4058,12.378016,0.375353,0.42468622,0.14180927,0.11785119,inf,inf,inf,inf,1,1,1,1,2,0,2,1,5,1,1,1,0,0
875172000,875172000,1032000,41.606704,-86.3556021,-0.533185,32.04686,-12.15513,0.0004142284,0.0001567321,0.0,0.12469816,0.058056332,-0.054315176,-0.035891633,-0.00029453117,-0.012450447,-0.01706494,0.6503149,0.22221269,-0.08804916,-1.2802424,0.040185317,229.4058,12.382779,0.3979256,0.4286058,0.1530482,0.12174259,inf,inf,inf,inf,1,1,1,1,2,0,2,1,5,1,1,1,0,0
875676000,875676000,1032000,41.606704,-86.3556021,-0.39382324,32.094,-12.183242,0.0004142284,0.0001567321,0.0,0.6346871,0.12855163,-0.13012652,-0.110012636,-0.00029453117,-0.012450447,-0.01706494,1.4114105,0.08725693,-0.242753,-1.2870481,0.040185317,229.4058,12.410891,0.39508247,0.42945305,0.15131593,0.121340364,inf,inf,inf,inf,1,1,1,1,2,0,2,1,5,1,1,1,0,0
876180000,876180000,1032000,41.606704,-86.3556021,0.074749105,32.171883,-12.247533,0.0004142284,0.0001567321,0.0,1.4585116,0.1655492,-0.16335154,-0.14061983,-0.00029453117,-0.012450447,-0.01706494,1.6066197,0.027889589,0.00957207,-1.2914681,0.040185317,229.4058,12.475182,0.39275208,0.4271304,0.15093897,0.1203987,inf,inf,inf,inf,1,1,1,1,2,0,2,1,5,1,1,1,0,0
876676000,876676000,1032000,41.606704,-86.3556021,0.9109174,32.252193,-12.310027,0.0004142284,0.0001567321,0.0,2.0312438,0.1794907,-0.1459312,-0.11915361,-0.00029453117,-0.012450447,-0.01706494,0.927537,0.024756784,0.06742769,-1.2887828,0.040185317,229.4058,12.537676,0.39016998,0.42743537,0.15002146,0.119733505,inf,inf,inf,inf,1,1,1,1,2,0,2,1,5,1,1,1,0,0
877180000,877180000,1032000,41.606704,-86.3556021,2.0078986,32.335796,-12.3481245,0.0004142284,0.0001567321,0.0,2.3439949,0.18792936,-0.107972555,-0.07274363,-0.00029453117,-0.012450447,-0.01706494,0.3589667,0.07958089,0.0515682,-1.2918087,0.040185317,229.4058,12.575773,0.38898212,0.4283812,0.1492187,0.119432695,inf,inf,inf,inf,1,1,1,1,2,0,2,1,5,1,1,1,0,0
877676000,877676000,1032000,41.606704,-86.3556021,3.2081702,32.420265,-12.381971,0.0004142284,0.0001567321,0.0,2.4655776,0.19991979,-0.066641666,-0.039468158,-0.00029453117,-0.012450447,-0.01706494,0.2111572,-0.026237566,0.104302466,-1.2990483,0.040185317,229.4058,12.60962,0.3888448,0.42573583,0.14907971,0.11904245,inf,inf,inf,inf,1,1,1,1,2,0,2,1,5,1,1,1,0,0
878180000,878180000,1032000,41.606704,-86.3556021,4.4706054,32.520226,-12.399203,0.0004142284,0.0001567321,0.0,2.5092587,0.21271218,-0.050756253,-0.027129946,-0.00029453117,-0.012450447,-0.01706494,0.02301879,-0.04064903,0.051828038,-1.3044776,0.040185317,229.4058,12.626852,0.41273147,0.4334142,0.1589839,0.12311508,inf,inf,inf,inf,1,1,1,1,2,0,2,1,5,1,1,1,0,0
878676000,878676000,1032000,41.606704,-86.3556021,5.735903,32.622765,-12.403585,0.0004142284,0.0001567321,0.0,2.4721987,0.2067513,0.003635716,0.028060915,-0.00029453117,-0.012450447,-0.01706494,-0.5748433,-0.03810793,0.34847942,-1.3151172,0.040185317,229.4058,12.631234,0.3831521,0.42374274,0.14423881,0.11784929,inf,inf,inf,inf,1,1,1,1,2,0,2,1,5,1,1,1,0,0
879180000,879180000,1032000,41.606704,-86.3556021,6.8563466,32.714855,-12.364457,0.0004142284,0.0001567321,0.0,1.759494,0.15551339,0.1039252,0.1205645,-0.00029453117,-0.012450447,-0.01706494,-1.875629,-0.1531235,-0.048731513,-1.3232064,0.040185317,229.4058,12.592106,0.40622693,0.43138555,0.15456828,0.12221611,inf,inf,inf,inf,1,1,1,1,2,0,2,1,5,1,1,1,0,0
879676000,879676000,1032000,41.606704,-86.3556021,7.580666,32.792053,-12.294903,0.0004142284,0.0001567321,0.0,1.0581594,0.10062451,0.220816,0.24254417,-0.00029453117,-0.012450447,-0.01706494,-0.38176775,-0.016345913,1.2923552,-1.3339354,0.040185317,229.4058,12.522552,0.37957633,0.42219716,0.14364742,0.11742984,inf,inf,inf,inf,1,1,1,1,2,0,2,1,5,1,1,1,0,0
880180000,880180000,1032000,41.606704,-86.3556021,8.064519,32.847813,-12.007647,0.0004142284,0.0001567321,0.0,0.5779012,0.04416154,0.8111364,0.8242763,-0.00029453117,-0.012450447,-0.01706494,-1.7657944,-0.042086925,0.6480262,-1.3337637,0.040185317,229.4058,12.235295,0.37992585,0.4237035,0.14362137,0.11787563,inf,inf,inf,inf,1,1,1,1,2,0,2,1,5,1,1,1,0,0
880676000,880676000,1032000,41.606704,-86.3556021,8.180089,32.874313,-11.5363865,0.0004142284,0.0001567321,0.0,-0.14740458,-0.011573137,1.0228994,1.0283096,-0.00029453117,-0.012450447,-0.01706494,-1.0185351,-0.108341284,-0.4578205,-1.3199089,0.040185317,229.4058,11.764035,0.40144286,0.43083084,0.1548593,0.12172743,inf,inf,inf,inf,1,1,1,1,2,0,2,1,5,1,1,1,0,0
881172000,881172000,1032000,41.606704,-86.3556021,8.05203,32.89664,-11.07119,0.0004142284,0.0001567321,0.0,-0.36848587,-0.039181847,0.84804386,0.8657085,-0.00029453117,-0.012450447,-0.01706494,-0.13953447,-0.02103702,-0.26202205,-1.313802,0.040185317,229.4058,11.298839,0.39687282,0.4278935,0.15235429,0.12065266,inf,inf,inf,inf,1,1,1,1,2,0,2,1,5,1,1,1,0,0
881676000,881676000,1032000,41.606704,-86.3556021,7.87426,32.913994,-10.652484,0.0004142284,0.0001567321,0.0,-0.4141832,-0.06816293,0.8266332,0.83668077,-0.00029453117,-0.012450447,-0.01706494,0.062409557,-0.12901413,-0.04736899,-1.3134351,0.040185317,229.4058,10.880133,0.39560363,0.4290876,0.15115161,0.12070525,inf,inf,inf,inf,1,1,1,1,2,0,2,1,5,1,1,1,0,0
882180000,882180000,1032000,41.606704,-86.3556021,7.675637,32.904873,-10.2331505,0.0004142284,0.0001567321,0.0,-0.39450958,-0.09338711,0.85597414,0.8587535,-0.00029453117,-0.012450447,-0.01706494,0.14065157,-0.056112427,0.34311593,-1.314833,0.040185317,229.4058,10.460799,0.39338365,0.42698303,0.14915225,0.12023733,inf,inf,inf,inf,1,1,1,1,2,0,2,1,5,1,1,1,0,0
882676000,882676000,1032000,41.606704,-86.3556021,7.5129313,32.87899,-9.807336,0.0004142284,0.0001567321,0.0,-0.29497,-0.101006694,0.90618724,0.9002414,-0.00029453117,-0.012450447,-0.01706494,0.15342087,0.055873062,0.09739485,-1.3171229,0.040185317,229.4058,10.034985,0.37090775,0.42151397,0.13883635,0.11639079,inf,inf,inf,inf,1,1,1,1,2,0,2,1,5,1,1,1,0,0
883180000,883180000,1032000,41.606704,-86.3556021,7.3985457,32.835587,-9.349488,0.0004142284,0.0001567321,0.0,-0.18178202,-0.0865083,0.89856714,0.8996341,-0.00029453117,-0.012450447,-0.01706494,0.16480067,0.049991142,-0.011486995,-1.3193018,0.040185317,229.4058,9.577137,0.39231452,0.4258729,0.14880808,0.1203891,inf,inf,inf,inf,1,1,1,1,2,0,2,1,5,1,1,1,0,0
883676000,883676000,1032000,41.606704,-86.3556021,7.3381763,32.80114,-8.900473,0.0004142284,0.0001567321,0.0,-0.0857692,-0.05434732,0.8935229,0.8978481,-0.00029453117,-0.012450447,-0.01706494,0.096545264,0.09207738,0.03487983,-1.3209009,0.040185317,229.4058,9.128121,0.38813594,0.42622712,0.14608225,0.11987193,inf,inf,inf,inf,1,1,1,1,2,0,2,1,5,1,1,1,0,0
884172000,884172000,1032000,41.606704,-86.3556021,7.326495,32.778866,-8.462662,0.0004142284,0.0001567321,0.0,-0.024572894,-0.025870971,0.885786,0.8860361,-0.00029453117,-0.012450447,-0.01706494,0.08547735,0.08651719,0.034898456,-1.3221576,0.040185317,229.4058,8.6903105,0.38623476,0.4268638,0.14557494,0.11976003,inf,inf,inf,inf,1,1,1,1,2,0,2,1,5,1,1,1,0,0
884676000,884676000,1032000,41.606704,-86.3556021,7.336743,32.767223,-8.017648,0.0004142284,0.0001567321,0.0,-0.0011105903,-0.0066400403,0.8688485,0.8712013,-0.00029453117,-0.012450447,-0.01706494,0.10883022,0.010613579,0.010370214,-1.3229342,0.040185317,229.4058,8.2452965,0.384173,0.42489597,0.14461882,0.11924802,inf,inf,inf,inf,1,1,1,1,2,0,2,1,5,1,1,1,0,0
885172000,885172000,1032000,41.606704,-86.3556021,7.355289,32.763,-7.5867624,0.0004142284,0.0001567321,0.0,-0.00015377147,0.001737907,0.84447896,0.85122734,-0.00029453117,-0.012450447,-0.01706494,-0.12780204,0.0821176,-0.106080495,-1.3236009,0.040185317,229.4058,7.814411,0.38324687,0.42575777,0.14488871,0.11931554,inf,inf,inf,inf,1,1,1,1,2,0,2,1,5,1,1,1,0,0
885676000,885676000,1032000,41.606704,-86.3556021,7.365697,32.763386,-7.1641836,0.0004142284,0.0001567321,0.0,-0.010936695,0.011510946,0.814365,0.82177526,-0.00029453117,-0.012450447,-0.01706494,0.02281196,0.04214883,-0.12314604,-1.3233517,0.040185317,229.4058,7.3918324,0.3831376,0.42411146,0.145316,0.11920026,inf,inf,inf,inf,1,1,1,1,2,0,2,1,5,1,1,1,0,0
886172000,886172000,1032000,41.606704,-86.3556021,7.3687344,32.762066,-6.7642083,0.0004142284,0.0001567321,0.0,-0.019417627,0.008469308,0.79972935,0.80492765,-0.00029453117,-0.012450447,-0.01706494,-0.052591518,-0.04843712,-0.06100355,-1.3230839,0.040185317,229.4058,6.991857,0.40393215,0.43128303,0.15415536,0.123027734,inf,inf,inf,inf,1,1,1,1,2,0,2,1,5,1,1,1,0,0
886676000,886676000,1032000,41.606704,-86.3556021,7.3707247,32.755688,-6.364202,0.0004142284,0.0001567321,0.0,-0.023735005,0.012549611,0.7652431,0.7728636,-0.00029453117,-0.012450447,-0.01706494,-0.056521837,0.0653132,-0.06476144,-1.3228251,0.040185317,229.4058,6.5918508,0.37810028,0.42275435,0.1421522,0.11820066,inf,inf,inf,inf,1,1,1,1,2,0,2,1,5,1,1,1,0,0
887180000,887180000,1032000,41.606704,-86.3556021,7.36877,32.75667,-5.9845643,0.0004142284,0.0001567321,0.0,-0.02291314,0.013965769,0.74674743,0.7499867,-0.00029453117,-0.012450447,-0.01706494,-0.015671983,0.029173134,-0.08339627,-1.3227565,0.040185317,229.4058,6.212213,0.39966187,0.4305987,0.15192418,0.122343875,inf,inf,inf,inf,1,1,1,1,2,0,2,1,5,1,1,1,0,0
887676000,887676000,1032000,41.606704,-86.3556021,7.3662386,32.756653,-5.6224465,0.0004142284,0.0001567321,0.0,-0.026006922,0.0102296565,0.7304122,0.72892696,-0.00029453117,-0.012450447,-0.01706494,-0.013137816,-0.051122237,-0.016450945,-1.3226682,0.040185317,229.4058,5.8500953,0.37518707,0.42173707,0.14098254,0.11764969,inf,inf,inf,inf,1,1,1,1,2,0,2,1,5,1,1,1,0,0
888180000,888180000,1032000,41.606704,-86.3556021,7.354562,32.75681,-5.256118,0.0004142284,0.0001567321,0.0,-0.03230355,0.008244303,0.7074608,0.7093412,-0.00029453117,-0.012450447,-0.01706494,-0.01707614,0.10682715,-0.0551148,-1.3225081,0.040185317,229.4058,5.4837666,0.39844942,0.42975658,0.15225819,0.12218023,inf,inf,inf,inf,1,1,1,1,2,0,2,1,5,1,1,1,0,0
888676000,888676000,1032000,41.606704,-86.3556021,7.3397684,32.75946,-4.9095016,0.0004142284,0.0001567321,0.0,-0.02180355,0.0059958478,0.69093555,0.6929048,-0.00029453117,-0.012450447,-0.01706494,-0.07655139,-0.004268677,-0.19549304,-1.3227115,0.040185317,229.4058,5.1371503,0.39486086,0.42705747,0.1498838,0.12129776,inf,inf,inf,inf,1,1,1,1,2,0,2,1,5,1,1,1,0,0
889180000,889180000,1032000,41.606704,-86.3556021,7.332126,32.76222,-4.5602636,0.0004142284,0.0001567321,0.0,-0.009065709,0.0005270796,0.6867864,0.69004434,-0.00029453117,-0.012450447,-0.01706494,-0.056722727,-0.07940169,0.15472054,-1.3227876,0.040185317,229.4058,4.7879124,0.39246026,0.42832628,0.14840762,0.12107619,inf,inf,inf,inf,1,1,1,1,2,0,2,1,5,1,1,1,0,0
889676000,889676000,1032000,41.606704,-86.3556021,7.3246727,32.770557,-4.226783,0.0004142284,0.0001567321,0.0,-0.009029014,-0.0032019406,0.69789016,0.69168645,-0.00029453117,-0.012450447,-0.01706494,-0.025779612,0.019034315,0.025685811,-1.3228022,0.040185317,229.4058,4.4544315,0.3900157,0.42600912,0.14712808,0.12044764,inf,inf,inf,inf,1,1,1,1,2,0,2,1,5,1,1,1,0,0
890180000,890180000,1032000,41.606704,-86.3556021,7.3221345,32.776,-3.8794513,0.0004142284,0.0001567321,0.0,-0.0036320481,-0.013554274,0.70744663,0.698668,-0.00029453117,-0.012450447,-0.01706494,0.06103283,-0.0502489,-0.007707688,-1.3229129,0.040185317,229.4058,4.1071,0.38884002,0.42442617,0.14670977,0.12010888,inf,inf,inf,inf,1,1,1,1,2,0,2,1,5,1,1,1,0,0
890676000,890676000,1032000,41.606704,-86.3556021,7.3193154,32.78249,-3.5397463,0.0004142284,0.0001567321,0.0,-0.002807004,-0.019070867,0.7093111,0.69550157,-0.00029453117,-0.012450447,-0.01706494,-0.0015965317,-0.08512756,0.041944843,-1.3226448,0.040185317,229.4058,3.767395,0.3886924,0.42551234,0.14734396,0.12030799,inf,inf,inf,inf,1,1,1,1,2,0,2,1,5,1,1,1,0,0
891172000,891172000,1032000,41.606704,-86.3556021,7.314629,32.780724,-3.195621,0.0004142284,0.0001567321,0.0,-0.0030892775,-0.030209826,0.7098584,0.69613534,-0.00029453117,-0.012450447,-0.01706494,0.00041863683,-0.026685514,-0.04746771,-1.3226446,0.040185317,229.4058,3.4232697,0.411719,0.43306535,0.15742095,0.12438459,inf,inf,inf,inf,1,1,1,1,2,0,2,1,5,1,1,1,0,0
891676000,891676000,1032000,41.606704,-86.3556021,7.317156,32.78497,-2.840249,0.0004142284,0.0001567321,0.0,-0.0022811948,-0.03232841,0.7124766,0.70282054,-0.00029453117,-0.012450447,-0.01706494,-0.04823898,0.05306998,-0.078786224,-1.3226385,0.040185317,229.4058,3.0678978,0.38307834,0.42406848,0.14368992,0.11914917,inf,inf,inf,inf,1,1,1,1,2,0,2,1,5,1,1,1,0,0
892172000,892172000,1032000,41.606704,-86.3556021,7.3188457,32.788174,-2.489954,0.0004142284,0.0001567321,0.0,-0.0027016217,-0.033607274,0.6973521,0.6922812,-0.00029453117,-0.012450447,-0.01706494,-0.01223088,-0.030896235,0.14273444,-1.3229722,0.040185317,229.4058,2.7176027,0.40551746,0.43133104,0.15407865,0.12322663,inf,inf,inf,inf,1,1,1,1,2,0,2,1,5,1,1,1,0,0
892676000,892676000,1032000,41.606704,-86.3556021,7.3221865,32.79659,-2.147563,0.0004142284,0.0001567321,0.0,0.00070464,-0.036488358,0.6970245,0.68755233,-0.00029453117,-0.012450447,-0.01706494,-0.026516754,-0.03838594,0.016845698,-1.3227617,0.040185317,229.4058,2.3752117,0.3796206,0.42579243,0.14229666,0.11876099,inf,inf,inf,inf,1,1,1,1,2,0,2,1,5,1,1,1,0,0
893172000,893172000,1032000,41.606704,-86.3556021,7.3293753,32.80536,-1.8179415,0.0004142284,0.0001567321,0.0,-0.009575813,-0.043193396,0.7065718,0.6870206,-0.00029453117,-0.012450447,-0.01706494,-0.129586,-0.015217709,0.05373818,-1.3229693,0.040185317,229.4058,2.0455902,0.37940234,0.42351767,0.14291209,0.11854459,inf,inf,inf,inf,1,1,1,1,2,0,2,1,5,1,1,1,0,0
893676000,893676000,1032000,41.606704,-86.3556021,7.3280315,32.802223,-1.4744225,0.0004142284,0.0001567321,0.0,-0.01298352,-0.04769206,0.7102447,0.68886936,-0.00029453117,-0.012450447,-0.01706494,-0.022974776,-0.047363736,0.028509581,-1.3226894,0.040185317,229.4058,1.7020712,0.40201372,0.42815503,0.15314695,0.12241474,inf,inf,inf,inf,1,1,1,1,2,0,2,1,5,1,1,1,0,0
894172000,894172000,1032000,41.606704,-86.3556021,7.330315,32.79604,-1.132763,0.0004142284,0.0001567321,0.0,-0.01465847,-0.050519023,0.70845056,0.687765,-0.00029453117,-0.012450447,-0.01706494,-0.03066095,-0.030083733,0.03371195,-1.3227404,0.040185317,229.4058,1.3604118,0.39754856,0.42852464,0.15031399,0.12177956,inf,inf,inf,inf,1,1,1,1,2,0,2,1,5,1,1,1,0,0
894676000,894676000,1032000,41.606704,-86.3556021,7.335408,32.792076,-0.7903909,0.0004142284,0.0001567321,0.0,-0.022694342,-0.047827855,0.71293163,0.68892914,-0.00029453117,-0.012450447,-0.01706494,-0.011998737,-0.0753758,-0.007539119,-1.3227898,0.040185317,229.4058,1.0180396,0.39616734,0.42974383,0.14982872,0.121732466,inf,inf,inf,inf,1,1,1,1,2,0,2,1,5,1,1,1,0,0
895172000,895172000,1032000,41.606704,-86.3556021,7.341162,32.787453,-0.4482016,0.0004142284,0.0001567321,0.0,-0.025582895,-0.0401201,0.7159472,0.6938025,-0.00029453117,-0.012450447,-0.01706494,-0.097568035,0.04561965,-0.15030341,-1.3227156,0.040185317,229.4058,0.6758503,0.39315632,0.4301311,0.14829011,0.12130718,inf,inf,inf,inf,1,1,1,1,2,0,2,1,5,1,1,1,0,0
895676000,895676000,1032000,41.606704,-86.3556021,7.35481,32.792168,-0.10384138,0.0004142284,0.0001567321,0.0,-0.029176889,-0.0380724,0.70394856,0.67947155,-0.00029453117,-0.012450447,-0.01706494,-0.06555422,-0.008676099,-0.0544964,-1.3227412,0.040185317,229.4058,0.3314901,0.37127307,0.4220022,0.13893826,0.11702216,inf,inf,inf,inf,1,1,1,1,2,0,2,1,5,1,1,1,0,0
896172000,896172000,1032000,41.606704,-86.3556021,7.3679814,32.793476,0.09401664,0.0004142284,0.0001567321,0.0,-0.038352765,-0.025557894,0.030261932,0.0015977342,-0.00029453117,-0.012450447,-0.01706494,0.14947715,-0.064329855,-1.5163404,-1.3120496,0.040185317,229.4058,0.13363206,0.39215326,0.4289313,0.15112692,0.118851505,inf,inf,inf,inf,1,1,1,1,2,0,2,1,5,1,1,1,0,0
896676000,896676000,1032000,41.606704,-86.3556021,7.371657,32.79179,0.10240849,0.0004142284,0.0001567321,0.0,-0.026776612,-0.026126646,0.04010328,0.014831943,-0.00029453117,-0.012450447,-0.01706494,0.070883244,0.13886589,-0.9310981,-1.3102984,0.040185317,229.4058,0.1252402,0.38876286,0.42637002,0.15017113,0.11012316,inf,inf,inf,inf,1,1,1,1,2,0,2,1,5,1,1,1,0,0
897180000,897180000,1032000,41.606704,-86.3556021,7.3772693,32.794792,0.104967594,0.0004142284,0.0001567321,0.0,-0.026949324,-0.023286596,0.05056124,0.019525416,-0.00029453117,-0.012450447,-0.01706494,0.0028304004,-0.035318002,0.66169995,-1.3105702,0.040185317,229.4058,0.1,0.38750938,0.42647296,0.15284902,0.10463249,inf,inf,inf,inf,1,1,1,1,2,0,2,1,5,0,1,1,1,0
897676000,897676000,1032000,41.606704,-86.3556021,7.3766046,32.795067,0.12333296,0.0004142284,0.0001567321,0.0,-0.024260463,-0.027504485,0.05953339,0.034781154,-0.00029453117,-0.012450447,-0.01706494,-0.17689368,-0.0027012618,0.17955333,-1.310442,0.040185317,229.4058,0.1,0.38470748,0.42561564,0.15460035,0.10162512,inf,inf,inf,inf,1,1,1,1,2,0,2,1,5,0,1,1,1,0
898172000,898172000,1032000,41.606704,-86.3556021,7.381292,32.79992,0.13719605,0.0004142284,0.0001567321,0.0,-0.020371601,-0.022362225,0.06442493,0.03585886,-0.00029453117,-0.012450447,-0.01706494,0.006935802,0.015437133,-0.3731549,-1.31008,0.040185317,229.4058,0.1,0.383863,0.4215171,0.1576378,0.100526966,inf,inf,inf,inf,1,1,1,1,2,0,2,1,5,0,1,1,1,0
898676000,898676000,1032000,41.606704,-86.3556021,7.4042144,32.82713,0.009913077,0.0004142284,0.0001567321,0.0,-0.0045737564,-0.0068801437,0.018885652,-0.12553087,-0.00029453117,-0.012450447,-0.01706494,-0.08010417,0.12181198,-0.7567583,-1.3092074,0.040185317,229.4058,0.1,0.30146438,0.3143529,0.013743818,0.009664685,inf,inf,inf,inf,1,1,1,1,2,0,2,1,5,0,1,1,1,0
899180000,899180000,1032000,41.606704,-86.3556021,7.406882,32.8297,-0.031149194,0.0004142284,0.0001567321,0.0,0.00235709,0.0043234266,0.0044767186,-0.10639334,-0.00029453117,-0.012450447,-0.01706494,-0.1482191,-0.15316324,0.9328992,-1.3085365,0.040185317,229.4058,0.12165682,0.29029736,0.301165,0.019883208,0.014067919,inf,inf,inf,inf,1,1,1,1,2,0,2,1,5,0,1,1,1,0
899676000,899676000,1032000,41.606704,-86.3556021,7.405331,32.827774,-0.024354545,0.0004142284,0.0001567321,0.0,0.00084141,0.0059543736,0.0023985298,-0.05447386,-0.00029453117,-0.012450447,-0.01706494,-0.039521553,-0.01364126,0.46552244,-1.3086743,0.040185317,229.4058,0.11979225,0.2727067,0.29218864,0.01033639,0.0073042163,inf,inf,inf,inf,1,1,1,1,2,0,2,1,5,0,1,1,1,0
900172000,900172000,1032000,41.606704,-86.3556021,7.404936,32.825096,-0.015838692,0.0004142284,0.0001567321,0.0,0.006492773,0.0053619607,-0.002141107,-0.027805237,-0.00029453117,-0.012450447,-0.01706494,0.031185865,0.0017789194,0.45088485,-1.3086034,0.040185317,229.4058,0.11620901,0.2677815,0.28437132,0.017114166,0.012059381,inf,inf,inf,inf,1,1,1,1,2,0,2,1,5,0,1,1,1,0
