timestamp,timestamp_sample,device_id,x,y,z,temperature,error_count,clip_counter[0],clip_counter[1],clip_counter[2],samples
829984000,829984000,1310988,0.04070143,-0.0047884034,-9.763555,13.515131,0,0,0,0,1
830984000,830984000,1310988,0.021547815,-0.055066638,-9.770737,13.515131,0,0,0,0,1
831984000,831984000,1310988,-0.02633622,0.07182605,-9.811439,13.515131,0,0,0,0,1
832984000,832984000,1310988,-0.035913024,-0.050278235,-9.794679,13.515131,0,0,0,0,1
833984000,833984000,1310988,-0.079008654,0.088585466,-9.861717,13.515131,0,0,0,0,1
834984000,834984000,1310988,0.0023942017,0.02873042,-9.785102,13.515131,0,0,0,0,1
835984000,835984000,1310988,-0.074220255,0.12928689,-9.414001,13.515131,0,0,0,0,1
836984000,836984000,1310988,-0.047884032,0.011971008,-9.859323,13.515131,0,0,0,0,1
837984000,837984000,1310988,0.08619126,0.14844051,-9.315839,13.510065,0,0,0,0,1
838984000,838984000,1310988,0.08379706,0.079008654,-9.143456,13.503473,0,0,0,0,1
839984000,839984000,1310988,0.01436521,-0.009576807,-9.622296,13.501001,0,0,0,0,1
840984000,840984000,1310988,0.090979666,-0.07182605,-10.6637745,13.500971,0,0,0,0,1
841984000,841984000,1310988,1.1994951,-0.6775591,-10.014946,13.498865,0,0,0,0,1
842984000,842984000,1310988,2.4109612,-0.9959879,-9.459491,13.494562,0,0,0,0,1
843984000,843984000,1310988,2.7509377,-1.2066777,-7.9750857,13.490259,0,0,0,0,1
844984000,844984000,1310988,2.8682537,-0.78529817,-9.457097,13.486414,0,0,0,0,1
845984000,845984000,1310988,2.8083985,-0.6536171,-9.572019,13.482355,0,0,0,0,1
846984000,846984000,1310988,2.7030537,-0.6991069,-9.303867,13.477991,0,0,0,0,1
847984000,847984000,1310988,2.7748797,-0.79966336,-9.528923,13.473536,0,0,0,0,1
848984000,848984000,1310988,2.681506,-0.7254431,-9.497798,13.468622,0,0,0,0,1
849984000,849984000,1310988,2.72939,-0.7206547,-9.406818,13.463678,0,0,0,0,1
850984000,850984000,1310988,2.0494366,-0.48123455,-8.796297,13.460413,0,0,0,0,1
851984000,851984000,1310988,-0.81881696,0.641646,-10.199299,13.463587,0,0,0,0,1
852984000,852984000,1310988,-1.436521,0.33997664,-9.555259,13.467524,0,0,0,0,1
853984000,853984000,1310988,-0.866701,-0.10295067,-9.643845,13.471521,0,0,0,0,1
854984000,854984000,1310988,-0.23463176,-0.22266077,-9.909601,13.475977,0,0,0,0,1
855984000,855984000,1310988,-0.19393034,0.088585466,-13.9677725,13.475336,0,0,0,0,1
856984000,856984000,1310988,4.5992613,-1.4221559,-7.6853876,13.452265,0,0,0,0,1
857984000,857984000,1310988,4.0797195,-0.81163436,-7.795521,13.43722,0,0,0,0,1
858984000,858984000,1310988,0.2801216,0.20590134,-8.341399,13.4343815,0,0,0,0,1
859984000,859984000,1310988,-0.6943185,0.30166942,-9.9550905,13.434809,0,0,0,0,1
860984000,860984000,1310988,-0.33279404,-0.059855044,-10.0508585,13.434473,0,0,0,0,1
861984000,861984000,1310988,-0.01436521,-0.20111294,-9.770737,13.433741,0,0,0,0,1
862984000,862984000,1310988,0.08619126,-0.04309563,-9.725247,13.433069,0,0,0,0,1
863984000,863984000,1310988,-0.033518825,0.04070143,-9.866506,13.43255,0,0,0,0,1
864984000,864984000,1310988,0.055066638,-0.11971009,-9.746795,13.432306,0,0,0,0,1
865984000,865984000,1310988,0.050278235,-0.0023942017,-9.694122,13.432245,0,0,0,0,1
866984000,866984000,1310988,0.035913024,-0.009576807,-9.787497,13.432459,0,0,0,0,1
867984000,867984000,1310988,-0.02633622,0.11731588,-9.507375,13.432917,0,0,0,0,1
868984000,868984000,1310988,-0.12928689,0.059855044,-9.787497,13.433405,0,0,0,0,1
869984000,869984000,1310988,-0.08140286,0.04070143,-9.900024,13.433924,0,0,0,0,1
870984000,870984000,1310988,-0.088585466,0.059855044,-9.572019,13.434351,0,0,0,0,1
871984000,871984000,1310988,-0.019153614,0.08619126,-9.830592,13.434687,0,0,0,0,1
872984000,872984000,1310988,-0.06943185,0.17238252,-9.7563715,13.434931,0,0,0,0,1
873984000,873984000,1310988,-0.06464344,0.22744916,-9.849746,13.435175,0,0,0,0,1
874984000,874984000,1310988,-0.009576807,0.079008654,-9.916783,13.435389,0,0,0,0,1
875984000,875984000,1310988,-0.20829555,-1.2976574,-9.82341,13.435022,0,0,0,0,1
876984000,876984000,1310988,-0.5291186,-2.6479871,-9.339781,13.434229,0,0,0,0,1
877984000,877984000,1310988,-0.557849,-2.9161377,-9.291897,13.433893,0,0,0,0,1
878984000,878984000,1310988,-0.37828386,-2.6264393,-9.428367,13.434015,0,0,0,0,1
879984000,879984000,1310988,-0.090979666,-0.9864111,-8.755595,13.435694,0,0,0,0,1
880984000,880984000,1310988,0.17717093,0.62728083,-10.06283,13.441736,0,0,0,0,1
881984000,881984000,1310988,-0.007182605,0.7158663,-9.751583,13.447351,0,0,0,0,1
882984000,882984000,1310988,-0.17238252,0.4309563,-9.844957,13.453241,0,0,0,0,1
883984000,883984000,1310988,-0.11731588,0.19393034,-9.832987,13.45904,0,0,0,0,1
884984000,884984000,1310988,-0.088585466,-0.045489833,-9.974244,13.464838,0,0,0,0,1
885984000,885984000,1310988,-0.16998832,0.11252748,-9.876082,13.47024,0,0,0,0,1
886984000,886984000,1310988,-0.04309563,0.23702596,-9.765948,13.475153,0,0,0,0,1
887984000,887984000,1310988,0.007182605,0.0047884034,-9.986216,13.479914,0,0,0,0,1
888984000,888984000,1310988,0.007182605,0.20111294,-9.775525,13.484339,0,0,0,0,1
889984000,889984000,1310988,0.0,0.10055647,-9.80665,13.488672,0,0,0,0,1
890984000,890984000,1310988,0.050278235,0.06464344,-9.878476,13.493189,0,0,0,0,1
891984000,891984000,1310988,-0.055066638,-0.15562311,-11.051635,13.497675,0,0,0,0,1
892984000,892984000,1310988,-0.07182605,0.12449849,-9.718064,13.501917,0,0,0,0,1
893984000,893984000,1310988,-0.08619126,0.01436521,-9.871294,13.506342,0,0,0,0,1
894984000,894984000,1310988,-0.07182605,0.37110126,-9.488221,13.510828,0,0,0,0,1
895984000,895984000,1310988,-1.3623008,-10.831368,-36.475662,13.515131,0,0,0,0,1
896984000,896984000,1310988,0.04309563,0.11731588,-10.927136,13.515131,0,0,0,0,1
897984000,897984000,1310988,-0.009576807,0.090979666,-10.635044,13.515131,0,0,0,0,1
898984000,898984000,1310988,-0.1436521,0.05267244,-9.610326,13.515131,0,0,0,0,1
899984000,899984000,1310988,-0.10295067,0.074220255,-9.763555,13.515131,0,0,0,0,1
