timestamp,timestamp_sample,lat,lon,alt,alt_ellipsoid,delta_alt,eph,epv,terrain_alt,lat_lon_reset_counter,alt_reset_counter,terrain_alt_valid,dead_reckoning
829264000,0,41.606699899999995,-86.3556156,229.269,0.0,0.0,0.0,0.0,0.0,0,0,0,0
829268000,0,41.606699899999995,-86.3556156,229.269,0.0,0.0,0.0,0.0,0.0,0,0,0,0
829360000,0,41.606699899999995,-86.3556156,229.269,0.0,0.0,0.0,0.0,0.0,0,0,0,0
829464000,0,41.606699899999995,-86.3556156,229.269,0.0,0.0,0.0,0.0,0.0,0,0,0,0
829564000,0,41.606699899999995,-86.3556156,229.269,0.0,0.0,0.0,0.0,0.0,0,0,0,0
829664000,0,41.606699899999995,-86.3556156,229.269,0.0,0.0,0.0,0.0,0.0,0,0,0,0
829760000,0,41.606699899999995,-86.3556156,229.269,0.0,0.0,0.0,0.0,0.0,0,0,0,0
829864000,0,41.606699899999995,-86.3556156,229.269,0.0,0.0,0.0,0.0,0.0,0,0,0,0
829964000,0,41.606699899999995,-86.3556156,229.269,0.0,0.0,0.0,0.0,0.0,0,0,0,0
830064000,0,41.606699899999995,-86.3556156,229.269,0.0,0.0,0.0,0.0,0.0,0,0,0,0
830164000,0,41.606699899999995,-86.3556156,229.269,0.0,0.0,0.0,0.0,0.0,0,0,0,0
830264000,0,41.606699899999995,-86.3556156,229.269,0.0,0.0,0.0,0.0,0.0,0,0,0,0
830360000,0,41.606699899999995,-86.3556156,229.269,0.0,0.0,0.0,0.0,0.0,0,0,0,0
830460000,0,41.606699899999995,-86.3556156,229.269,0.0,0.0,0.0,0.0,0.0,0,0,0,0
830564000,0,41.606699899999995,-86.3556156,229.269,0.0,0.0,0.0,0.0,0.0,0,0,0,0
830664000,0,41.606699899999995,-86.3556156,229.269,0.0,0.0,0.0,0.0,0.0,0,0,0,0
830764000,0,41.606699899999995,-86.3556156,229.269,0.0,0.0,0.0,0.0,0.0,0,0,0,0
830864000,0,41.606699899999995,-86.3556156,229.269,0.0,0.0,0.0,0.0,0.0,0,0,0,0
830960000,0,41.606699899999995,-86.3556156,229.269,0.0,0.0,0.0,0.0,0.0,0,0,0,0
831060000,0,41.606699899999995,-86.3556156,229.269,0.0,0.0,0.0,0.0,0.0,0,0,0,0
831160000,0,41.606699899999995,-86.3556156,229.269,0.0,0.0,0.0,0.0,0.0,0,0,0,0
831264000,0,41.606699899999995,-86.3556156,229.269,0.0,0.0,0.0,0.0,0.0,0,0,0,0
831364000,0,41.606699899999995,-86.3556156,229.269,0.0,0.0,0.0,0.0,0.0,0,0,0,0
831464000,0,41.606699899999995,-86.3556156,229.269,0.0,0.0,0.0,0.0,0.0,0,0,0,0
831564000,0,41.606699899999995,-86.3556156,229.269,0.0,0.0,0.0,0.0,0.0,0,0,0,0
831664000,0,41.606699899999995,-86.3556156,229.269,0.0,0.0,0.0,0.0,0.0,0,0,0,0
831764000,0,41.606699899999995,-86.3556156,229.269,0.0,0.0,0.0,0.0,0.0,0,0,0,0
831864000,0,41.606699899999995,-86.3556156,229.269,0.0,0.0,0.0,0.0,0.0,0,0,0,0
831964000,0,41.606699899999995,-86.3556156,229.269,0.0,0.0,0.0,0.0,0.0,0,0,0,0
832060000,0,41.606699899999995,-86.3556156,229.269,0.0,0.0,0.0,0.0,0.0,0,0,0,0
832160000,0,41.606699899999995,-86.3556156,229.269,0.0,0.0,0.0,0.0,0.0,0,0,0,0
832264000,0,41.606699899999995,-86.3556156,229.269,0.0,0.0,0.0,0.0,0.0,0,0,0,0
832364000,0,41.606699899999995,-86.3556156,229.269,0.0,0.0,0.0,0.0,0.0,0,0,0,0
832460000,0,41.606699899999995,-86.3556156,229.269,0.0,0.0,0.0,0.0,0.0,0,0,0,0
832560000,0,41.606699899999995,-86.3556156,229.269,0.0,0.0,0.0,0.0,0.0,0,0,0,0
832660000,0,41.606699899999995,-86.3556156,229.269,0.0,0.0,0.0,0.0,0.0,0,0,0,0
832764000,0,41.606699899999995,-86.3556156,229.269,0.0,0.0,0.0,0.0,0.0,0,0,0,0
832860000,0,41.606699899999995,-86.3556156,229.269,0.0,0.0,0.0,0.0,0.0,0,0,0,0
832964000,0,41.606699899999995,-86.3556156,229.269,0.0,0.0,0.0,0.0,0.0,0,0,0,0
833060000,0,41.606699899999995,-86.3556156,229.269,0.0,0.0,0.0,0.0,0.0,0,0,0,0
833164000,0,41.606699899999995,-86.3556156,229.269,0.0,0.0,0.0,0.0,0.0,0,0,0,0
833260000,0,41.606699899999995,-86.3556156,229.269,0.0,0.0,0.0,0.0,0.0,0,0,0,0
833364000,0,41.606699899999995,-86.3556156,229.269,0.0,0.0,0.0,0.0,0.0,0,0,0,0
833464000,0,41.606699899999995,-86.3556156,229.269,0.0,0.0,0.0,0.0,0.0,0,0,0,0
833560000,0,41.606699899999995,-86.3556156,229.269,0.0,0.0,0.0,0.0,0.0,0,0,0,0
833664000,0,41.606699899999995,-86.3556156,229.269,0.0,0.0,0.0,0.0,0.0,0,0,0,0
833760000,0,41.606699899999995,-86.3556156,229.269,0.0,0.0,0.0,0.0,0.0,0,0,0,0
833864000,0,41.606699899999995,-86.3556156,229.269,0.0,0.0,0.0,0.0,0.0,0,0,0,0
833960000,0,41.606699899999995,-86.3556156,229.269,0.0,0.0,0.0,0.0,0.0,0,0,0,0
834064000,0,41.606699899999995,-86.3556156,229.269,0.0,0.0,0.0,0.0,0.0,0,0,0,0
834164000,0,41.606699899999995,-86.3556156,229.269,0.0,0.0,0.0,0.0,0.0,0,0,0,0
834260000,0,41.606699899999995,-86.3556156,229.269,0.0,0.0,0.0,0.0,0.0,0,0,0,0
834360000,0,41.606699899999995,-86.3556156,229.269,0.0,0.0,0.0,0.0,0.0,0,0,0,0
834464000,0,41.606699899999995,-86.3556156,229.269,0.0,0.0,0.0,0.0,0.0,0,0,0,0
834564000,0,41.606699899999995,-86.3556156,229.269,0.0,0.0,0.0,0.0,0.0,0,0,0,0
834664000,0,41.606699899999995,-86.3556156,229.269,0.0,0.0,0.0,0.0,0.0,0,0,0,0
834764000,0,41.606699899999995,-86.3556156,229.269,0.0,0.0,0.0,0.0,0.0,0,0,0,0
834860000,0,41.606699899999995,-86.3556156,229.269,0.0,0.0,0.0,0.0,0.0,0,0,0,0
834964000,0,41.606699899999995,-86.3556156,229.269,0.0,0.0,0.0,0.0,0.0,0,0,0,0
835060000,0,41.606699899999995,-86.3556156,229.269,0.0,0.0,0.0,0.0,0.0,0,0,0,0
835164000,0,41.606699899999995,-86.3556156,229.269,0.0,0.0,0.0,0.0,0.0,0,0,0,0
835264000,0,41.606699899999995,-86.3556156,229.269,0.0,0.0,0.0,0.0,0.0,0,0,0,0
835364000,0,41.606699899999995,-86.3556156,229.269,0.0,0.0,0.0,0.0,0.0,0,0,0,0
835460000,0,41.606699899999995,-86.3556156,229.269,0.0,0.0,0.0,0.0,0.0,0,0,0,0
835560000,0,41.606699899999995,-86.3556156,229.269,0.0,0.0,0.0,0.0,0.0,0,0,0,0
835664000,0,41.606699899999995,-86.3556156,229.269,0.0,0.0,0.0,0.0,0.0,0,0,0,0
835764000,0,41.606699899999995,-86.3556156,229.269,0.0,0.0,0.0,0.0,0.0,0,0,0,0
835860000,0,41.606699899999995,-86.3556156,229.269,0.0,0.0,0.0,0.0,0.0,0,0,0,0
835964000,0,41.606699899999995,-86.3556156,229.269,0.0,0.0,0.0,0.0,0.0,0,0,0,0
836060000,0,41.606699899999995,-86.3556156,229.269,0.0,0.0,0.0,0.0,0.0,0,0,0,0
836164000,0,41.606699899999995,-86.3556156,229.269,0.0,0.0,0.0,0.0,0.0,0,0,0,0
836260000,0,41.606699899999995,-86.3556156,229.269,0.0,0.0,0.0,0.0,0.0,0,0,0,0
836360000,0,41.606699899999995,-86.3556156,229.269,0.0,0.0,0.0,0.0,0.0,0,0,0,0
836464000,0,41.606699899999995,-86.3556156,229.269,0.0,0.0,0.0,0.0,0.0,0,0,0,0
836564000,0,41.606699899999995,-86.3556156,229.269,0.0,0.0,0.0,0.0,0.0,0,0,0,0
836660000,0,41.606699899999995,-86.3556156,229.269,0.0,0.0,0.0,0.0,0.0,0,0,0,0
836764000,0,41.606699899999995,-86.3556156,229.269,0.0,0.0,0.0,0.0,0.0,0,0,0,0
836860000,0,41.606699899999995,-86.3556156,229.269,0.0,0.0,0.0,0.0,0.0,0,0,0,0
836964000,0,41.606699899999995,-86.3556156,229.269,0.0,0.0,0.0,0.0,0.0,0,0,0,0
837064000,0,41.606699899999995,-86.3556156,229.27,0.0,0.0,0.0,0.0,0.0,0,0,0,0
837164000,0,41.606699899999995,-86.3556156,229.279,0.0,0.0,0.0,0.0,0.0,0,0,0,0
837264000,0,41.606699899999995,-86.3556156,229.304,0.0,0.0,0.0,0.0,0.0,0,0,0,0
837364000,0,41.606699899999995,-86.3556157,229.348,0.0,0.0,0.0,0.0,0.0,0,0,0,0
837460000,0,41.6066998,-86.3556157,229.407,0.0,0.0,0.0,0.0,0.0,0,0,0,0
837560000,0,41.6066998,-86.3556157,229.494,0.0,0.0,0.0,0.0,0.0,0,0,0,0
837664000,0,41.6066997,-86.3556157,229.598,0.0,0.0,0.0,0.0,0.0,0,0,0,0
837764000,0,41.6066997,-86.3556158,229.723,0.0,0.0,0.0,0.0,0.0,0,0,0,0
837864000,0,41.6066996,-86.3556158,229.868,0.0,0.0,0.0,0.0,0.0,0,0,0,0
837964000,0,41.6066996,-86.3556158,230.031,0.0,0.0,0.0,0.0,0.0,0,0,0,0
838060000,0,41.6066996,-86.35561589999999,230.178,0.0,0.0,0.0,0.0,0.0,0,0,0,0
838164000,0,41.6066995,-86.35561589999999,230.32,0.0,0.0,0.0,0.0,0.0,0,0,0,0
838260000,0,41.6066995,-86.35561589999999,230.45,0.0,0.0,0.0,0.0,0.0,0,0,0,0
838360000,0,41.6066994,-86.35561589999999,230.563,0.0,0.0,0.0,0.0,0.0,0,0,0,0
838460000,0,41.6066994,-86.355616,230.669,0.0,0.0,0.0,0.0,0.0,0,0,0,0
838564000,0,41.6066994,-86.355616,230.772,0.0,0.0,0.0,0.0,0.0,0,0,0,0
838660000,0,41.6066994,-86.355616,230.851,0.0,0.0,0.0,0.0,0.0,0,0,0,0
838764000,0,41.606699299999995,-86.355616,230.933,0.0,0.0,0.0,0.0,0.0,0,0,0,0
838864000,0,41.606699299999995,-86.355616,231.005,0.0,0.0,0.0,0.0,0.0,0,0,0,0
838964000,0,41.606699299999995,-86.355616,231.066,0.0,0.0,0.0,0.0,0.0,0,0,0,0
839064000,0,41.606699299999995,-86.355616,231.122,0.0,0.0,0.0,0.0,0.0,0,0,0,0
839164000,0,41.6066992,-86.355616,231.175,0.0,0.0,0.0,0.0,0.0,0,0,0,0
839264000,0,41.6066992,-86.35561589999999,231.221,0.0,0.0,0.0,0.0,0.0,0,0,0,0
839364000,0,41.6066992,-86.35561589999999,231.261,0.0,0.0,0.0,0.0,0.0,0,0,0,0
839464000,0,41.6066992,-86.35561589999999,231.299,0.0,0.0,0.0,0.0,0.0,0,0,0,0
839564000,0,41.6066992,-86.35561589999999,231.334,0.0,0.0,0.0,0.0,0.0,0,0,0,0
839664000,0,41.6066991,-86.35561589999999,231.366,0.0,0.0,0.0,0.0,0.0,0,0,0,0
839760000,0,41.6066991,-86.3556158,231.392,0.0,0.0,0.0,0.0,0.0,0,0,0,0
839860000,0,41.6066991,-86.3556158,231.419,0.0,0.0,0.0,0.0,0.0,0,0,0,0
839960000,0,41.6066991,-86.3556158,231.443,0.0,0.0,0.0,0.0,0.0,0,0,0,0
840060000,0,41.6066991,-86.3556157,231.464,0.0,0.0,0.0,0.0,0.0,0,0,0,0
840160000,0,41.6066991,-86.3556157,231.484,0.0,0.0,0.0,0.0,0.0,0,0,0,0
840260000,0,41.606699,-86.3556157,231.501,0.0,0.0,0.0,0.0,0.0,0,0,0,0
840360000,0,41.606699,-86.3556156,231.504,0.0,0.0,0.0,0.0,0.0,0,0,0,0
840460000,0,41.606699,-86.3556156,231.495,0.0,0.0,0.0,0.0,0.0,0,0,0,0
840564000,0,41.606699,-86.3556156,231.481,0.0,0.0,0.0,0.0,0.0,0,0,0,0
840664000,0,41.606699,-86.3556156,231.468,0.0,0.0,0.0,0.0,0.0,0,0,0,0
840760000,0,41.6066989,-86.3556155,231.456,0.0,0.0,0.0,0.0,0.0,0,0,0,0
840860000,0,41.6066989,-86.3556155,231.449,0.0,0.0,0.0,0.0,0.0,0,0,0,0
840964000,0,41.6066989,-86.35561539999999,231.447,0.0,0.0,0.0,0.0,0.0,0,0,0,0
841060000,0,41.6066989,-86.3556153,231.452,0.0,0.0,0.0,0.0,0.0,0,0,0,0
841160000,0,41.6066989,-86.3556152,231.464,0.0,0.0,0.0,0.0,0.0,0,0,0,0
841264000,0,41.6066989,-86.355615,231.483,0.0,0.0,0.0,0.0,0.0,0,0,0,0
841360000,0,41.6066989,-86.35561469999999,231.508,0.0,0.0,0.0,0.0,0.0,0,0,0,0
841464000,0,41.6066989,-86.3556143,231.54,0.0,0.0,0.0,0.0,0.0,0,0,0,0
841564000,0,41.606699,-86.35561369999999,231.579,0.0,0.0,0.0,0.0,0.0,0,0,0,0
841664000,0,41.606699,-86.35561299999999,231.621,0.0,0.0,0.0,0.0,0.0,0,0,0,0
841760000,0,41.6066991,-86.3556122,231.667,0.0,0.0,0.0,0.0,0.0,0,0,0,0
841860000,0,41.6066992,-86.3556112,231.716,0.0,0.0,0.0,0.0,0.0,0,0,0,0
841964000,0,41.606699299999995,-86.3556098,231.775,0.0,0.0,0.0,0.0,0.0,0,0,0,0
842064000,0,41.6066994,-86.3556085,231.831,0.0,0.0,0.0,0.0,0.0,0,0,0,0
842164000,0,41.6066995,-86.35560679999999,231.895,0.0,0.0,0.0,0.0,0.0,0,0,0,0
842264000,0,41.6066997,-86.35560509999999,231.956,0.0,0.0,0.0,0.0,0.0,0,0,0,0
842364000,0,41.6066998,-86.3556031,232.024,0.0,0.0,0.0,0.0,0.0,0,0,0,0
842464000,0,41.6067,-86.3556011,232.089,0.0,0.0,0.0,0.0,0.0,0,0,0,0
842560000,0,41.6067001,-86.35559889999999,232.154,0.0,0.0,0.0,0.0,0.0,0,0,0,0
842660000,0,41.6067003,-86.35559649999999,232.225,0.0,0.0,0.0,0.0,0.0,0,0,0,0
842764000,0,41.6067004,-86.355594,232.294,0.0,0.0,0.0,0.0,0.0,0,0,0,0
842864000,0,41.606700499999995,-86.3555914,232.362,0.0,0.0,0.0,0.0,0.0,0,0,0,0
842964000,0,41.606700599999996,-86.3555887,232.433,0.0,0.0,0.0,0.0,0.0,0,0,0,0
843064000,0,41.6067007,-86.3555859,232.5,0.0,0.0,0.0,0.0,0.0,0,0,0,0
843164000,0,41.6067008,-86.3555832,232.564,0.0,0.0,0.0,0.0,0.0,0,0,0,0
843264000,0,41.6067009,-86.3555804,232.63,0.0,0.0,0.0,0.0,0.0,0,0,0,0
843360000,0,41.606701,-86.3555775,232.696,0.0,0.0,0.0,0.0,0.0,0,0,0,0
843464000,0,41.606701,-86.3555744,232.763,0.0,0.0,0.0,0.0,0.0,0,0,0,0
843560000,0,41.606701,-86.35557159999999,232.825,0.0,0.0,0.0,0.0,0.0,0,0,0,0
843664000,0,41.606701,-86.3555686,232.89,0.0,0.0,0.0,0.0,0.0,0,0,0,0
843764000,0,41.606701,-86.35556539999999,232.958,0.0,0.0,0.0,0.0,0.0,0,0,0,0
843860000,0,41.606701,-86.35556249999999,233.021,0.0,0.0,0.0,0.0,0.0,0,0,0,0
843964000,0,41.606701,-86.35555939999999,233.088,0.0,0.0,0.0,0.0,0.0,0,0,0,0
844060000,0,41.6067009,-86.3555566,233.147,0.0,0.0,0.0,0.0,0.0,0,0,0,0
844164000,0,41.6067008,-86.3555532,233.214,0.0,0.0,0.0,0.0,0.0,0,0,0,0
844260000,0,41.6067007,-86.35555029999999,233.274,0.0,0.0,0.0,0.0,0.0,0,0,0,0
844364000,0,41.6067007,-86.3555471,233.338,0.0,0.0,0.0,0.0,0.0,0,0,0,0
844464000,0,41.606700599999996,-86.3555442,233.396,0.0,0.0,0.0,0.0,0.0,0,0,0,0
844564000,0,41.606700499999995,-86.355541,233.457,0.0,0.0,0.0,0.0,0.0,0,0,0,0
844664000,0,41.6067004,-86.3555379,233.516,0.0,0.0,0.0,0.0,0.0,0,0,0,0
844760000,0,41.6067003,-86.3555351,233.569,0.0,0.0,0.0,0.0,0.0,0,0,0,0
844860000,0,41.6067002,-86.355532,233.627,0.0,0.0,0.0,0.0,0.0,0,0,0,0
844964000,0,41.6067001,-86.3555287,233.69,0.0,0.0,0.0,0.0,0.0,0,0,0,0
845064000,0,41.6067,-86.3555258,233.746,0.0,0.0,0.0,0.0,0.0,0,0,0,0
845164000,0,41.606699899999995,-86.3555226,233.809,0.0,0.0,0.0,0.0,0.0,0,0,0,0
845264000,0,41.6066998,-86.3555196,233.87,0.0,0.0,0.0,0.0,0.0,0,0,0,0
845364000,0,41.6066997,-86.3555165,233.932,0.0,0.0,0.0,0.0,0.0,0,0,0,0
845464000,0,41.6066996,-86.3555136,233.992,0.0,0.0,0.0,0.0,0.0,0,0,0,0
845564000,0,41.6066994,-86.3555104,234.058,0.0,0.0,0.0,0.0,0.0,0,0,0,0
845660000,0,41.606699299999995,-86.3555076,234.116,0.0,0.0,0.0,0.0,0.0,0,0,0,0
845764000,0,41.6066992,-86.35550429999999,234.184,0.0,0.0,0.0,0.0,0.0,0,0,0,0
845860000,0,41.6066991,-86.3555015,234.242,0.0,0.0,0.0,0.0,0.0,0,0,0,0
845960000,0,41.606699,-86.3554984,234.306,0.0,0.0,0.0,0.0,0.0,0,0,0,0
846064000,0,41.6066989,-86.3554953,234.373,0.0,0.0,0.0,0.0,0.0,0,0,0,0
846164000,0,41.6066988,-86.35549209999999,234.44,0.0,0.0,0.0,0.0,0.0,0,0,0,0
846264000,0,41.6066988,-86.3554892,234.503,0.0,0.0,0.0,0.0,0.0,0,0,0,0
846360000,0,41.606698699999995,-86.3554863,234.566,0.0,0.0,0.0,0.0,0.0,0,0,0,0
846464000,0,41.6066986,-86.35548299999999,234.637,0.0,0.0,0.0,0.0,0.0,0,0,0,0
846560000,0,41.6066986,-86.3554801,234.702,0.0,0.0,0.0,0.0,0.0,0,0,0,0
846664000,0,41.6066985,-86.3554771,234.769,0.0,0.0,0.0,0.0,0.0,0,0,0,0
846764000,0,41.6066984,-86.355474,234.839,0.0,0.0,0.0,0.0,0.0,0,0,0,0
846864000,0,41.6066984,-86.355471,234.907,0.0,0.0,0.0,0.0,0.0,0,0,0,0
846964000,0,41.6066983,-86.355468,234.974,0.0,0.0,0.0,0.0,0.0,0,0,0,0
847064000,0,41.6066983,-86.3554652,235.04,0.0,0.0,0.0,0.0,0.0,0,0,0,0
847164000,0,41.6066983,-86.3554621,235.11,0.0,0.0,0.0,0.0,0.0,0,0,0,0
847264000,0,41.6066982,-86.35545909999999,235.178,0.0,0.0,0.0,0.0,0.0,0,0,0,0
847364000,0,41.6066982,-86.35545619999999,235.243,0.0,0.0,0.0,0.0,0.0,0,0,0,0
847464000,0,41.6066982,-86.35545309999999,235.315,0.0,0.0,0.0,0.0,0.0,0,0,0,0
847564000,0,41.606698099999996,-86.3554501,235.384,0.0,0.0,0.0,0.0,0.0,0,0,0,0
847664000,0,41.606698099999996,-86.3554473,235.452,0.0,0.0,0.0,0.0,0.0,0,0,0,0
847764000,0,41.606698099999996,-86.3554443,235.524,0.0,0.0,0.0,0.0,0.0,0,0,0,0
847860000,0,41.606698099999996,-86.35544139999999,235.594,0.0,0.0,0.0,0.0,0.0,0,0,0,0
847964000,0,41.606698099999996,-86.3554382,235.674,0.0,0.0,0.0,0.0,0.0,0,0,0,0
848064000,0,41.606698099999996,-86.3554352,235.748,0.0,0.0,0.0,0.0,0.0,0,0,0,0
848160000,0,41.606698099999996,-86.35543229999999,235.819,0.0,0.0,0.0,0.0,0.0,0,0,0,0
848264000,0,41.606698099999996,-86.3554293,235.892,0.0,0.0,0.0,0.0,0.0,0,0,0,0
848360000,0,41.606698099999996,-86.35542629999999,235.966,0.0,0.0,0.0,0.0,0.0,0,0,0,0
848464000,0,41.606698099999996,-86.35542319999999,236.043,0.0,0.0,0.0,0.0,0.0,0,0,0,0
848560000,0,41.606698099999996,-86.3554204,236.112,0.0,0.0,0.0,0.0,0.0,0,0,0,0
848660000,0,41.606698099999996,-86.3554173,236.191,0.0,0.0,0.0,0.0,0.0,0,0,0,0
848764000,0,41.606698099999996,-86.3554142,236.27,0.0,0.0,0.0,0.0,0.0,0,0,0,0
848864000,0,41.6066982,-86.35541119999999,236.346,0.0,0.0,0.0,0.0,0.0,0,0,0,0
848964000,0,41.6066982,-86.3554083,236.42,0.0,0.0,0.0,0.0,0.0,0,0,0,0
849060000,0,41.6066982,-86.3554054,236.494,0.0,0.0,0.0,0.0,0.0,0,0,0,0
849164000,0,41.6066982,-86.3554022,236.578,0.0,0.0,0.0,0.0,0.0,0,0,0,0
849264000,0,41.6066982,-86.3553993,236.651,0.0,0.0,0.0,0.0,0.0,0,0,0,0
849360000,0,41.6066982,-86.3553963,236.728,0.0,0.0,0.0,0.0,0.0,0,0,0,0
849464000,0,41.6066982,-86.3553932,236.803,0.0,0.0,0.0,0.0,0.0,0,0,0,0
849560000,0,41.6066982,-86.35539039999999,236.876,0.0,0.0,0.0,0.0,0.0,0,0,0,0
849664000,0,41.6066982,-86.35538729999999,236.953,0.0,0.0,0.0,0.0,0.0,0,0,0,0
849760000,0,41.6066982,-86.35538439999999,237.024,0.0,0.0,0.0,0.0,0.0,0,0,0,0
849864000,0,41.6066982,-86.35538129999999,237.101,0.0,0.0,0.0,0.0,0.0,0,0,0,0
849964000,0,41.6066982,-86.3553783,237.174,0.0,0.0,0.0,0.0,0.0,0,0,0,0
850064000,0,41.6066982,-86.3553752,237.251,0.0,0.0,0.0,0.0,0.0,0,0,0,0
850164000,0,41.6066982,-86.35537219999999,237.325,0.0,0.0,0.0,0.0,0.0,0,0,0,0
850264000,0,41.6066982,-86.35536929999999,237.399,0.0,0.0,0.0,0.0,0.0,0,0,0,0
850360000,0,41.6066982,-86.3553665,237.468,0.0,0.0,0.0,0.0,0.0,0,0,0,0
850460000,0,41.6066982,-86.35536359999999,237.539,0.0,0.0,0.0,0.0,0.0,0,0,0,0
850564000,0,41.6066982,-86.35536049999999,237.602,0.0,0.0,0.0,0.0,0.0,0,0,0,0
850664000,0,41.6066982,-86.3553577,237.646,0.0,0.0,0.0,0.0,0.0,0,0,0,0
850760000,0,41.6066982,-86.35535519999999,237.672,0.0,0.0,0.0,0.0,0.0,0,0,0,0
850860000,0,41.606698099999996,-86.35535259999999,237.687,0.0,0.0,0.0,0.0,0.0,0,0,0,0
850964000,0,41.606698099999996,-86.35535019999999,237.688,0.0,0.0,0.0,0.0,0.0,0,0,0,0
851064000,0,41.606698,-86.3553482,237.677,0.0,0.0,0.0,0.0,0.0,0,0,0,0
851160000,0,41.6066979,-86.3553465,237.657,0.0,0.0,0.0,0.0,0.0,0,0,0,0
851264000,0,41.6066978,-86.355345,237.625,0.0,0.0,0.0,0.0,0.0,0,0,0,0
851364000,0,41.6066977,-86.3553439,237.586,0.0,0.0,0.0,0.0,0.0,0,0,0,0
851464000,0,41.606697499999996,-86.3553431,237.538,0.0,0.0,0.0,0.0,0.0,0,0,0,0
851560000,0,41.6066974,-86.3553427,237.485,0.0,0.0,0.0,0.0,0.0,0,0,0,0
851664000,0,41.6066972,-86.35534249999999,237.418,0.0,0.0,0.0,0.0,0.0,0,0,0,0
851764000,0,41.606697,-86.3553426,237.35,0.0,0.0,0.0,0.0,0.0,0,0,0,0
851864000,0,41.606696799999995,-86.35534299999999,237.28,0.0,0.0,0.0,0.0,0.0,0,0,0,0
851964000,0,41.6066965,-86.3553436,237.203,0.0,0.0,0.0,0.0,0.0,0,0,0,0
852064000,0,41.606696299999996,-86.35534439999999,237.135,0.0,0.0,0.0,0.0,0.0,0,0,0,0
852160000,0,41.6066961,-86.35534539999999,237.072,0.0,0.0,0.0,0.0,0.0,0,0,0,0
852260000,0,41.6066958,-86.35534659999999,237.011,0.0,0.0,0.0,0.0,0.0,0,0,0,0
852364000,0,41.606695599999995,-86.35534799999999,236.953,0.0,0.0,0.0,0.0,0.0,0,0,0,0
852460000,0,41.6066954,-86.3553494,236.901,0.0,0.0,0.0,0.0,0.0,0,0,0,0
852564000,0,41.6066952,-86.35535089999999,236.844,0.0,0.0,0.0,0.0,0.0,0,0,0,0
852660000,0,41.606694999999995,-86.35535229999999,236.791,0.0,0.0,0.0,0.0,0.0,0,0,0,0
852760000,0,41.6066949,-86.3553538,236.732,0.0,0.0,0.0,0.0,0.0,0,0,0,0
852864000,0,41.6066948,-86.3553553,236.665,0.0,0.0,0.0,0.0,0.0,0,0,0,0
852964000,0,41.6066947,-86.3553567,236.604,0.0,0.0,0.0,0.0,0.0,0,0,0,0
853060000,0,41.6066947,-86.355358,236.539,0.0,0.0,0.0,0.0,0.0,0,0,0,0
853164000,0,41.6066948,-86.35535929999999,236.474,0.0,0.0,0.0,0.0,0.0,0,0,0,0
853264000,0,41.6066948,-86.35536049999999,236.408,0.0,0.0,0.0,0.0,0.0,0,0,0,0
853364000,0,41.6066949,-86.3553615,236.348,0.0,0.0,0.0,0.0,0.0,0,0,0,0
853464000,0,41.606695099999996,-86.3553625,236.286,0.0,0.0,0.0,0.0,0.0,0,0,0,0
853564000,0,41.6066952,-86.35536359999999,236.224,0.0,0.0,0.0,0.0,0.0,0,0,0,0
853664000,0,41.6066954,-86.3553645,236.166,0.0,0.0,0.0,0.0,0.0,0,0,0,0
853764000,0,41.606695599999995,-86.3553653,236.105,0.0,0.0,0.0,0.0,0.0,0,0,0,0
853864000,0,41.6066958,-86.35536619999999,236.043,0.0,0.0,0.0,0.0,0.0,0,0,0,0
853960000,0,41.606696,-86.35536689999999,235.98,0.0,0.0,0.0,0.0,0.0,0,0,0,0
854064000,0,41.606696299999996,-86.3553677,235.909,0.0,0.0,0.0,0.0,0.0,0,0,0,0
854160000,0,41.6066965,-86.3553683,235.843,0.0,0.0,0.0,0.0,0.0,0,0,0,0
854264000,0,41.6066967,-86.355369,235.772,0.0,0.0,0.0,0.0,0.0,0,0,0,0
854364000,0,41.606697,-86.3553695,235.702,0.0,0.0,0.0,0.0,0.0,0,0,0,0
854464000,0,41.6066972,-86.35537,235.633,0.0,0.0,0.0,0.0,0.0,0,0,0,0
854560000,0,41.6066974,-86.35537029999999,235.566,0.0,0.0,0.0,0.0,0.0,0,0,0,0
854664000,0,41.6066977,-86.3553707,235.495,0.0,0.0,0.0,0.0,0.0,0,0,0,0
854760000,0,41.6066979,-86.35537099999999,235.431,0.0,0.0,0.0,0.0,0.0,0,0,0,0
854860000,0,41.606698099999996,-86.3553712,235.364,0.0,0.0,0.0,0.0,0.0,0,0,0,0
854964000,0,41.6066982,-86.3553714,235.298,0.0,0.0,0.0,0.0,0.0,0,0,0,0
855064000,0,41.6066984,-86.3553716,235.233,0.0,0.0,0.0,0.0,0.0,0,0,0,0
855160000,0,41.6066986,-86.35537169999999,235.17,0.0,0.0,0.0,0.0,0.0,0,0,0,0
855264000,0,41.606698699999995,-86.3553718,235.102,0.0,0.0,0.0,0.0,0.0,0,0,0,0
855364000,0,41.6066989,-86.3553718,235.035,0.0,0.0,0.0,0.0,0.0,0,0,0,0
855460000,0,41.606699,-86.3553719,234.972,0.0,0.0,0.0,0.0,0.0,0,0,0,0
855560000,0,41.6066991,-86.3553719,234.903,0.0,0.0,0.0,0.0,0.0,0,0,0,0
855664000,0,41.6066992,-86.3553718,234.836,0.0,0.0,0.0,0.0,0.0,0,0,0,0
855764000,0,41.606699299999995,-86.35537169999999,234.824,0.0,0.0,0.0,0.0,0.0,0,0,0,0
855864000,0,41.6066994,-86.3553709,235.004,0.0,0.0,0.0,0.0,0.0,0,0,0,0
855964000,0,41.6066995,-86.3553688,235.333,0.0,0.0,0.0,0.0,0.0,0,0,0,0
856060000,0,41.6066997,-86.3553656,235.68,0.0,0.0,0.0,0.0,0.0,0,0,0,0
856164000,0,41.6067,-86.35536119999999,236.043,0.0,0.0,0.0,0.0,0.0,0,0,0,0
856260000,0,41.6067003,-86.35535589999999,236.39,0.0,0.0,0.0,0.0,0.0,0,0,0,0
856360000,0,41.606700599999996,-86.3553501,236.728,0.0,0.0,0.0,0.0,0.0,0,0,0,0
856460000,0,41.606701,-86.3553434,237.089,0.0,0.0,0.0,0.0,0.0,0,0,0,0
856560000,0,41.6067015,-86.3553361,237.47,0.0,0.0,0.0,0.0,0.0,0,0,0,0
856664000,0,41.606701799999996,-86.3553285,237.854,0.0,0.0,0.0,0.0,0.0,0,0,0,0
856764000,0,41.6067022,-86.3553209,238.224,0.0,0.0,0.0,0.0,0.0,0,0,0,0
856860000,0,41.606702399999996,-86.35531379999999,238.563,0.0,0.0,0.0,0.0,0.0,0,0,0,0
856964000,0,41.6067027,-86.35530539999999,238.959,0.0,0.0,0.0,0.0,0.0,0,0,0,0
857060000,0,41.6067028,-86.3552979,239.303,0.0,0.0,0.0,0.0,0.0,0,0,0,0
857164000,0,41.606702899999995,-86.3552898,239.662,0.0,0.0,0.0,0.0,0.0,0,0,0,0
857264000,0,41.606702899999995,-86.3552825,239.967,0.0,0.0,0.0,0.0,0.0,0,0,0,0
857360000,0,41.606702999999996,-86.3552753,240.25,0.0,0.0,0.0,0.0,0.0,0,0,0,0
857464000,0,41.606702899999995,-86.3552684,240.497,0.0,0.0,0.0,0.0,0.0,0,0,0,0
857564000,0,41.606702899999995,-86.3552617,240.715,0.0,0.0,0.0,0.0,0.0,0,0,0,0
857660000,0,41.6067028,-86.355256,240.884,0.0,0.0,0.0,0.0,0.0,0,0,0,0
857764000,0,41.6067026,-86.3552502,241.036,0.0,0.0,0.0,0.0,0.0,0,0,0,0
857864000,0,41.6067025,-86.3552452,241.156,0.0,0.0,0.0,0.0,0.0,0,0,0,0
857964000,0,41.606702299999995,-86.3552405,241.255,0.0,0.0,0.0,0.0,0.0,0,0,0,0
858060000,0,41.606702,-86.3552366,241.331,0.0,0.0,0.0,0.0,0.0,0,0,0,0
858164000,0,41.606701699999995,-86.35523239999999,241.405,0.0,0.0,0.0,0.0,0.0,0,0,0,0
858260000,0,41.6067015,-86.3552291,241.458,0.0,0.0,0.0,0.0,0.0,0,0,0,0
858364000,0,41.606701099999995,-86.35522569999999,241.508,0.0,0.0,0.0,0.0,0.0,0,0,0,0
858460000,0,41.6067008,-86.35522279999999,241.55,0.0,0.0,0.0,0.0,0.0,0,0,0,0
858560000,0,41.6067004,-86.35522019999999,241.584,0.0,0.0,0.0,0.0,0.0,0,0,0,0
858664000,0,41.6067,-86.3552177,241.617,0.0,0.0,0.0,0.0,0.0,0,0,0,0
858760000,0,41.6066996,-86.3552155,241.646,0.0,0.0,0.0,0.0,0.0,0,0,0,0
858864000,0,41.6066992,-86.35521349999999,241.671,0.0,0.0,0.0,0.0,0.0,0,0,0,0
858964000,0,41.6066989,-86.35521179999999,241.693,0.0,0.0,0.0,0.0,0.0,0,0,0,0
859064000,0,41.6066985,-86.35521039999999,241.701,0.0,0.0,0.0,0.0,0.0,0,0,0,0
859164000,0,41.6066982,-86.35520939999999,241.697,0.0,0.0,0.0,0.0,0.0,0,0,0,0
859260000,0,41.6066979,-86.3552089,241.684,0.0,0.0,0.0,0.0,0.0,0,0,0,0
859360000,0,41.6066977,-86.35520869999999,241.67,0.0,0.0,0.0,0.0,0.0,0,0,0,0
859460000,0,41.606697499999996,-86.3552088,241.656,0.0,0.0,0.0,0.0,0.0,0,0,0,0
859564000,0,41.6066973,-86.3552091,241.645,0.0,0.0,0.0,0.0,0.0,0,0,0,0
859664000,0,41.6066972,-86.3552096,241.637,0.0,0.0,0.0,0.0,0.0,0,0,0,0
859764000,0,41.6066971,-86.3552102,241.632,0.0,0.0,0.0,0.0,0.0,0,0,0,0
859860000,0,41.606697,-86.3552108,241.629,0.0,0.0,0.0,0.0,0.0,0,0,0,0
859964000,0,41.606696899999996,-86.3552115,241.628,0.0,0.0,0.0,0.0,0.0,0,0,0,0
860064000,0,41.606696799999995,-86.35521229999999,241.628,0.0,0.0,0.0,0.0,0.0,0,0,0,0
860164000,0,41.606696799999995,-86.35521299999999,241.63,0.0,0.0,0.0,0.0,0.0,0,0,0,0
860264000,0,41.6066967,-86.3552136,241.633,0.0,0.0,0.0,0.0,0.0,0,0,0,0
860360000,0,41.6066967,-86.3552143,241.637,0.0,0.0,0.0,0.0,0.0,0,0,0,0
860464000,0,41.6066967,-86.3552149,241.642,0.0,0.0,0.0,0.0,0.0,0,0,0,0
860564000,0,41.6066967,-86.35521539999999,241.648,0.0,0.0,0.0,0.0,0.0,0,0,0,0
860660000,0,41.606696799999995,-86.35521589999999,241.655,0.0,0.0,0.0,0.0,0.0,0,0,0,0
860764000,0,41.606696899999996,-86.35521639999999,241.663,0.0,0.0,0.0,0.0,0.0,0,0,0,0
860864000,0,41.606696899999996,-86.3552168,241.672,0.0,0.0,0.0,0.0,0.0,0,0,0,0
860964000,0,41.606697,-86.35521709999999,241.682,0.0,0.0,0.0,0.0,0.0,0,0,0,0
861064000,0,41.6066972,-86.3552174,241.692,0.0,0.0,0.0,0.0,0.0,0,0,0,0
861164000,0,41.6066973,-86.3552176,241.704,0.0,0.0,0.0,0.0,0.0,0,0,0,0
861264000,0,41.6066974,-86.35521779999999,241.715,0.0,0.0,0.0,0.0,0.0,0,0,0,0
861364000,0,41.606697499999996,-86.355218,241.726,0.0,0.0,0.0,0.0,0.0,0,0,0,0
861464000,0,41.6066977,-86.3552181,241.738,0.0,0.0,0.0,0.0,0.0,0,0,0,0
861564000,0,41.6066978,-86.3552181,241.749,0.0,0.0,0.0,0.0,0.0,0,0,0,0
861664000,0,41.606698,-86.3552182,241.76,0.0,0.0,0.0,0.0,0.0,0,0,0,0
861760000,0,41.606698099999996,-86.3552182,241.77,0.0,0.0,0.0,0.0,0.0,0,0,0,0
861860000,0,41.6066982,-86.3552182,241.78,0.0,0.0,0.0,0.0,0.0,0,0,0,0
861964000,0,41.6066984,-86.3552181,241.791,0.0,0.0,0.0,0.0,0.0,0,0,0,0
862060000,0,41.6066985,-86.3552181,241.801,0.0,0.0,0.0,0.0,0.0,0,0,0,0
862160000,0,41.6066986,-86.355218,241.811,0.0,0.0,0.0,0.0,0.0,0,0,0,0
862264000,0,41.6066988,-86.355218,241.821,0.0,0.0,0.0,0.0,0.0,0,0,0,0
862360000,0,41.6066989,-86.3552179,241.831,0.0,0.0,0.0,0.0,0.0,0,0,0,0
862464000,0,41.606699,-86.35521779999999,241.842,0.0,0.0,0.0,0.0,0.0,0,0,0,0
862564000,0,41.6066991,-86.3552177,241.853,0.0,0.0,0.0,0.0,0.0,0,0,0,0
862664000,0,41.6066991,-86.3552176,241.863,0.0,0.0,0.0,0.0,0.0,0,0,0,0
862760000,0,41.6066992,-86.3552175,241.874,0.0,0.0,0.0,0.0,0.0,0,0,0,0
862864000,0,41.606699299999995,-86.3552174,241.885,0.0,0.0,0.0,0.0,0.0,0,0,0,0
862964000,0,41.606699299999995,-86.3552174,241.896,0.0,0.0,0.0,0.0,0.0,0,0,0,0
863064000,0,41.6066994,-86.35521729999999,241.907,0.0,0.0,0.0,0.0,0.0,0,0,0,0
863164000,0,41.6066994,-86.3552172,241.916,0.0,0.0,0.0,0.0,0.0,0,0,0,0
863260000,0,41.6066995,-86.35521709999999,241.924,0.0,0.0,0.0,0.0,0.0,0,0,0,0
863364000,0,41.6066995,-86.355217,241.933,0.0,0.0,0.0,0.0,0.0,0,0,0,0
863464000,0,41.6066996,-86.355217,241.94,0.0,0.0,0.0,0.0,0.0,0,0,0,0
863560000,0,41.6066996,-86.3552169,241.947,0.0,0.0,0.0,0.0,0.0,0,0,0,0
863664000,0,41.6066996,-86.3552168,241.955,0.0,0.0,0.0,0.0,0.0,0,0,0,0
863764000,0,41.6066996,-86.3552168,241.963,0.0,0.0,0.0,0.0,0.0,0,0,0,0
863864000,0,41.6066997,-86.3552167,241.97,0.0,0.0,0.0,0.0,0.0,0,0,0,0
863960000,0,41.6066997,-86.3552167,241.976,0.0,0.0,0.0,0.0,0.0,0,0,0,0
864064000,0,41.6066997,-86.35521659999999,241.983,0.0,0.0,0.0,0.0,0.0,0,0,0,0
864160000,0,41.6066997,-86.35521659999999,241.988,0.0,0.0,0.0,0.0,0.0,0,0,0,0
864264000,0,41.6066998,-86.3552165,241.993,0.0,0.0,0.0,0.0,0.0,0,0,0,0
864360000,0,41.6066998,-86.3552165,241.997,0.0,0.0,0.0,0.0,0.0,0,0,0,0
864464000,0,41.6066998,-86.3552165,242.001,0.0,0.0,0.0,0.0,0.0,0,0,0,0
864564000,0,41.6066998,-86.35521639999999,242.003,0.0,0.0,0.0,0.0,0.0,0,0,0,0
864660000,0,41.6066998,-86.35521639999999,242.005,0.0,0.0,0.0,0.0,0.0,0,0,0,0
864764000,0,41.6066998,-86.35521639999999,242.007,0.0,0.0,0.0,0.0,0.0,0,0,0,0
864864000,0,41.6066998,-86.35521639999999,242.009,0.0,0.0,0.0,0.0,0.0,0,0,0,0
864960000,0,41.606699899999995,-86.3552163,242.011,0.0,0.0,0.0,0.0,0.0,0,0,0,0
865064000,0,41.606699899999995,-86.3552163,242.012,0.0,0.0,0.0,0.0,0.0,0,0,0,0
865160000,0,41.606699899999995,-86.3552163,242.014,0.0,0.0,0.0,0.0,0.0,0,0,0,0
865260000,0,41.606699899999995,-86.3552163,242.016,0.0,0.0,0.0,0.0,0.0,0,0,0,0
865364000,0,41.606699899999995,-86.3552163,242.018,0.0,0.0,0.0,0.0,0.0,0,0,0,0
865460000,0,41.606699899999995,-86.3552162,242.021,0.0,0.0,0.0,0.0,0.0,0,0,0,0
865564000,0,41.606699899999995,-86.3552162,242.023,0.0,0.0,0.0,0.0,0.0,0,0,0,0
865664000,0,41.6067,-86.3552162,242.024,0.0,0.0,0.0,0.0,0.0,0,0,0,0
865764000,0,41.6067,-86.3552162,242.025,0.0,0.0,0.0,0.0,0.0,0,0,0,0
865864000,0,41.6067,-86.3552162,242.025,0.0,0.0,0.0,0.0,0.0,0,0,0,0
865964000,0,41.6067,-86.35521609999999,242.024,0.0,0.0,0.0,0.0,0.0,0,0,0,0
866064000,0,41.6067,-86.35521609999999,242.022,0.0,0.0,0.0,0.0,0.0,0,0,0,0
866160000,0,41.6067,-86.35521609999999,242.019,0.0,0.0,0.0,0.0,0.0,0,0,0,0
866264000,0,41.6067,-86.35521609999999,242.016,0.0,0.0,0.0,0.0,0.0,0,0,0,0
866360000,0,41.6067001,-86.35521609999999,242.014,0.0,0.0,0.0,0.0,0.0,0,0,0,0
866464000,0,41.6067001,-86.355216,242.01,0.0,0.0,0.0,0.0,0.0,0,0,0,0
866564000,0,41.6067001,-86.355216,242.007,0.0,0.0,0.0,0.0,0.0,0,0,0,0
866664000,0,41.6067001,-86.355216,242.003,0.0,0.0,0.0,0.0,0.0,0,0,0,0
866764000,0,41.6067001,-86.355216,241.999,0.0,0.0,0.0,0.0,0.0,0,0,0,0
866864000,0,41.6067001,-86.35521589999999,241.994,0.0,0.0,0.0,0.0,0.0,0,0,0,0
866964000,0,41.6067001,-86.35521589999999,241.989,0.0,0.0,0.0,0.0,0.0,0,0,0,0
867064000,0,41.6067001,-86.35521589999999,241.983,0.0,0.0,0.0,0.0,0.0,0,0,0,0
867160000,0,41.6067001,-86.35521589999999,241.977,0.0,0.0,0.0,0.0,0.0,0,0,0,0
867264000,0,41.6067,-86.35521589999999,241.97,0.0,0.0,0.0,0.0,0.0,0,0,0,0
867364000,0,41.6067,-86.35521589999999,241.964,0.0,0.0,0.0,0.0,0.0,0,0,0,0
867464000,0,41.6067,-86.35521589999999,241.956,0.0,0.0,0.0,0.0,0.0,0,0,0,0
867564000,0,41.6067,-86.35521589999999,241.949,0.0,0.0,0.0,0.0,0.0,0,0,0,0
867664000,0,41.6067,-86.3552158,241.942,0.0,0.0,0.0,0.0,0.0,0,0,0,0
867764000,0,41.6067,-86.3552158,241.935,0.0,0.0,0.0,0.0,0.0,0,0,0,0
867864000,0,41.6067,-86.3552158,241.929,0.0,0.0,0.0,0.0,0.0,0,0,0,0
867964000,0,41.6067,-86.35521589999999,241.922,0.0,0.0,0.0,0.0,0.0,0,0,0,0
868060000,0,41.6067,-86.35521589999999,241.916,0.0,0.0,0.0,0.0,0.0,0,0,0,0
868164000,0,41.6067,-86.35521589999999,241.909,0.0,0.0,0.0,0.0,0.0,0,0,0,0
868260000,0,41.6067,-86.35521589999999,241.902,0.0,0.0,0.0,0.0,0.0,0,0,0,0
868364000,0,41.6067,-86.35521589999999,241.894,0.0,0.0,0.0,0.0,0.0,0,0,0,0
868464000,0,41.6067,-86.35521589999999,241.886,0.0,0.0,0.0,0.0,0.0,0,0,0,0
868564000,0,41.6067,-86.35521589999999,241.878,0.0,0.0,0.0,0.0,0.0,0,0,0,0
868664000,0,41.606699899999995,-86.35521589999999,241.869,0.0,0.0,0.0,0.0,0.0,0,0,0,0
868764000,0,41.606699899999995,-86.35521589999999,241.861,0.0,0.0,0.0,0.0,0.0,0,0,0,0
868860000,0,41.606699899999995,-86.355216,241.853,0.0,0.0,0.0,0.0,0.0,0,0,0,0
868960000,0,41.606699899999995,-86.355216,241.845,0.0,0.0,0.0,0.0,0.0,0,0,0,0
869064000,0,41.606699899999995,-86.355216,241.836,0.0,0.0,0.0,0.0,0.0,0,0,0,0
869160000,0,41.606699899999995,-86.355216,241.828,0.0,0.0,0.0,0.0,0.0,0,0,0,0
869260000,0,41.606699899999995,-86.35521609999999,241.819,0.0,0.0,0.0,0.0,0.0,0,0,0,0
869364000,0,41.6066998,-86.35521609999999,241.81,0.0,0.0,0.0,0.0,0.0,0,0,0,0
869460000,0,41.6066998,-86.35521609999999,241.803,0.0,0.0,0.0,0.0,0.0,0,0,0,0
869564000,0,41.6066998,-86.3552162,241.794,0.0,0.0,0.0,0.0,0.0,0,0,0,0
869664000,0,41.6066998,-86.3552162,241.786,0.0,0.0,0.0,0.0,0.0,0,0,0,0
869764000,0,41.6066998,-86.3552163,241.779,0.0,0.0,0.0,0.0,0.0,0,0,0,0
869860000,0,41.6066998,-86.3552163,241.771,0.0,0.0,0.0,0.0,0.0,0,0,0,0
869964000,0,41.6066998,-86.3552163,241.762,0.0,0.0,0.0,0.0,0.0,0,0,0,0
870060000,0,41.6066998,-86.35521639999999,241.755,0.0,0.0,0.0,0.0,0.0,0,0,0,0
870164000,0,41.6066997,-86.35521639999999,241.748,0.0,0.0,0.0,0.0,0.0,0,0,0,0
870264000,0,41.6066997,-86.3552165,241.74,0.0,0.0,0.0,0.0,0.0,0,0,0,0
870364000,0,41.6066997,-86.35521659999999,241.734,0.0,0.0,0.0,0.0,0.0,0,0,0,0
870464000,0,41.6066997,-86.35521659999999,241.727,0.0,0.0,0.0,0.0,0.0,0,0,0,0
870560000,0,41.6066997,-86.3552167,241.721,0.0,0.0,0.0,0.0,0.0,0,0,0,0
870660000,0,41.6066997,-86.3552167,241.715,0.0,0.0,0.0,0.0,0.0,0,0,0,0
870764000,0,41.6066997,-86.3552168,241.708,0.0,0.0,0.0,0.0,0.0,0,0,0,0
870864000,0,41.6066997,-86.3552168,241.703,0.0,0.0,0.0,0.0,0.0,0,0,0,0
870964000,0,41.6066997,-86.3552169,241.697,0.0,0.0,0.0,0.0,0.0,0,0,0,0
871064000,0,41.6066997,-86.3552169,241.692,0.0,0.0,0.0,0.0,0.0,0,0,0,0
871164000,0,41.6066996,-86.355217,241.686,0.0,0.0,0.0,0.0,0.0,0,0,0,0
871264000,0,41.6066996,-86.355217,241.681,0.0,0.0,0.0,0.0,0.0,0,0,0,0
871364000,0,41.6066996,-86.355217,241.675,0.0,0.0,0.0,0.0,0.0,0,0,0,0
871460000,0,41.6066996,-86.35521709999999,241.671,0.0,0.0,0.0,0.0,0.0,0,0,0,0
871560000,0,41.6066996,-86.35521709999999,241.666,0.0,0.0,0.0,0.0,0.0,0,0,0,0
871660000,0,41.6066996,-86.35521709999999,241.661,0.0,0.0,0.0,0.0,0.0,0,0,0,0
871764000,0,41.6066995,-86.35521709999999,241.656,0.0,0.0,0.0,0.0,0.0,0,0,0,0
871864000,0,41.6066995,-86.3552172,241.652,0.0,0.0,0.0,0.0,0.0,0,0,0,0
871964000,0,41.6066995,-86.3552172,241.649,0.0,0.0,0.0,0.0,0.0,0,0,0,0
872064000,0,41.6066994,-86.3552172,241.645,0.0,0.0,0.0,0.0,0.0,0,0,0,0
872164000,0,41.6066994,-86.3552172,241.641,0.0,0.0,0.0,0.0,0.0,0,0,0,0
872260000,0,41.6066994,-86.3552172,241.637,0.0,0.0,0.0,0.0,0.0,0,0,0,0
872360000,0,41.6066994,-86.3552172,241.633,0.0,0.0,0.0,0.0,0.0,0,0,0,0
872460000,0,41.6066994,-86.3552172,241.63,0.0,0.0,0.0,0.0,0.0,0,0,0,0
872560000,0,41.606699299999995,-86.3552172,241.626,0.0,0.0,0.0,0.0,0.0,0,0,0,0
872664000,0,41.606699299999995,-86.3552172,241.622,0.0,0.0,0.0,0.0,0.0,0,0,0,0
872764000,0,41.606699299999995,-86.3552172,241.618,0.0,0.0,0.0,0.0,0.0,0,0,0,0
872860000,0,41.606699299999995,-86.3552172,241.615,0.0,0.0,0.0,0.0,0.0,0,0,0,0
872964000,0,41.606699299999995,-86.3552172,241.611,0.0,0.0,0.0,0.0,0.0,0,0,0,0
873064000,0,41.6066992,-86.35521709999999,241.607,0.0,0.0,0.0,0.0,0.0,0,0,0,0
873164000,0,41.6066992,-86.35521709999999,241.603,0.0,0.0,0.0,0.0,0.0,0,0,0,0
873264000,0,41.6066992,-86.35521709999999,241.599,0.0,0.0,0.0,0.0,0.0,0,0,0,0
873364000,0,41.6066992,-86.35521709999999,241.595,0.0,0.0,0.0,0.0,0.0,0,0,0,0
873464000,0,41.6066992,-86.35521709999999,241.591,0.0,0.0,0.0,0.0,0.0,0,0,0,0
873564000,0,41.6066991,-86.355217,241.587,0.0,0.0,0.0,0.0,0.0,0,0,0,0
873660000,0,41.6066991,-86.355217,241.583,0.0,0.0,0.0,0.0,0.0,0,0,0,0
873764000,0,41.6066991,-86.355217,241.579,0.0,0.0,0.0,0.0,0.0,0,0,0,0
873860000,0,41.6066991,-86.355217,241.575,0.0,0.0,0.0,0.0,0.0,0,0,0,0
873960000,0,41.606699,-86.3552169,241.571,0.0,0.0,0.0,0.0,0.0,0,0,0,0
874064000,0,41.606699,-86.3552169,241.567,0.0,0.0,0.0,0.0,0.0,0,0,0,0
874160000,0,41.606699,-86.3552169,241.562,0.0,0.0,0.0,0.0,0.0,0,0,0,0
874264000,0,41.606699,-86.3552168,241.557,0.0,0.0,0.0,0.0,0.0,0,0,0,0
874364000,0,41.6066989,-86.3552168,241.553,0.0,0.0,0.0,0.0,0.0,0,0,0,0
874460000,0,41.6066989,-86.3552168,241.549,0.0,0.0,0.0,0.0,0.0,0,0,0,0
874564000,0,41.6066988,-86.3552168,241.545,0.0,0.0,0.0,0.0,0.0,0,0,0,0
874664000,0,41.6066988,-86.3552168,241.542,0.0,0.0,0.0,0.0,0.0,0,0,0,0
874764000,0,41.606698699999995,-86.3552167,241.54,0.0,0.0,0.0,0.0,0.0,0,0,0,0
874864000,0,41.606698699999995,-86.3552167,241.538,0.0,0.0,0.0,0.0,0.0,0,0,0,0
874960000,0,41.606698699999995,-86.35521659999999,241.538,0.0,0.0,0.0,0.0,0.0,0,0,0,0
875060000,0,41.606698699999995,-86.35521659999999,241.538,0.0,0.0,0.0,0.0,0.0,0,0,0,0
875160000,0,41.606698699999995,-86.3552165,241.539,0.0,0.0,0.0,0.0,0.0,0,0,0,0
875264000,0,41.6066988,-86.35521639999999,241.541,0.0,0.0,0.0,0.0,0.0,0,0,0,0
875364000,0,41.606699,-86.3552163,241.545,0.0,0.0,0.0,0.0,0.0,0,0,0,0
875464000,0,41.6066992,-86.35521609999999,241.549,0.0,0.0,0.0,0.0,0.0,0,0,0,0
875564000,0,41.6066995,-86.355216,241.555,0.0,0.0,0.0,0.0,0.0,0,0,0,0
875664000,0,41.6067,-86.3552158,241.563,0.0,0.0,0.0,0.0,0.0,0,0,0,0
875764000,0,41.606700599999996,-86.3552157,241.573,0.0,0.0,0.0,0.0,0.0,0,0,0,0
875864000,0,41.6067013,-86.3552155,241.585,0.0,0.0,0.0,0.0,0.0,0,0,0,0
875964000,0,41.606702299999995,-86.3552153,241.597,0.0,0.0,0.0,0.0,0.0,0,0,0,0
876060000,0,41.6067033,-86.35521519999999,241.609,0.0,0.0,0.0,0.0,0.0,0,0,0,0
876160000,0,41.6067044,-86.355215,241.622,0.0,0.0,0.0,0.0,0.0,0,0,0,0
876264000,0,41.6067059,-86.3552148,241.636,0.0,0.0,0.0,0.0,0.0,0,0,0,0
876364000,0,41.6067073,-86.3552146,241.649,0.0,0.0,0.0,0.0,0.0,0,0,0,0
876464000,0,41.606708999999995,-86.3552144,241.662,0.0,0.0,0.0,0.0,0.0,0,0,0,0
876564000,0,41.6067107,-86.3552143,241.675,0.0,0.0,0.0,0.0,0.0,0,0,0,0
876664000,0,41.6067124,-86.3552141,241.686,0.0,0.0,0.0,0.0,0.0,0,0,0,0
876764000,0,41.6067144,-86.3552139,241.697,0.0,0.0,0.0,0.0,0.0,0,0,0,0
876860000,0,41.606716299999995,-86.3552137,241.706,0.0,0.0,0.0,0.0,0.0,0,0,0,0
876960000,0,41.6067183,-86.35521349999999,241.715,0.0,0.0,0.0,0.0,0.0,0,0,0,0
877060000,0,41.6067203,-86.3552133,241.724,0.0,0.0,0.0,0.0,0.0,0,0,0,0
877164000,0,41.6067225,-86.3552131,241.732,0.0,0.0,0.0,0.0,0.0,0,0,0,0
877264000,0,41.6067246,-86.3552129,241.739,0.0,0.0,0.0,0.0,0.0,0,0,0,0
877360000,0,41.606726699999996,-86.3552127,241.745,0.0,0.0,0.0,0.0,0.0,0,0,0,0
877460000,0,41.606729,-86.3552125,241.751,0.0,0.0,0.0,0.0,0.0,0,0,0,0
877564000,0,41.6067314,-86.35521229999999,241.756,0.0,0.0,0.0,0.0,0.0,0,0,0,0
877660000,0,41.6067335,-86.3552121,241.76,0.0,0.0,0.0,0.0,0.0,0,0,0,0
877764000,0,41.6067359,-86.35521179999999,241.763,0.0,0.0,0.0,0.0,0.0,0,0,0,0
877864000,0,41.6067381,-86.35521159999999,241.766,0.0,0.0,0.0,0.0,0.0,0,0,0,0
877964000,0,41.6067403,-86.3552114,241.768,0.0,0.0,0.0,0.0,0.0,0,0,0,0
878060000,0,41.606742499999996,-86.35521109999999,241.77,0.0,0.0,0.0,0.0,0.0,0,0,0,0
878164000,0,41.606744899999995,-86.3552109,241.772,0.0,0.0,0.0,0.0,0.0,0,0,0,0
878264000,0,41.606747299999995,-86.35521059999999,241.773,0.0,0.0,0.0,0.0,0.0,0,0,0,0
878364000,0,41.6067496,-86.3552103,241.774,0.0,0.0,0.0,0.0,0.0,0,0,0,0
878464000,0,41.6067519,-86.3552101,241.775,0.0,0.0,0.0,0.0,0.0,0,0,0,0
878564000,0,41.6067543,-86.3552098,241.776,0.0,0.0,0.0,0.0,0.0,0,0,0,0
878660000,0,41.606756499999996,-86.3552096,241.775,0.0,0.0,0.0,0.0,0.0,0,0,0,0
878760000,0,41.6067586,-86.3552093,241.77,0.0,0.0,0.0,0.0,0.0,0,0,0,0
878860000,0,41.6067609,-86.3552091,241.761,0.0,0.0,0.0,0.0,0.0,0,0,0,0
878964000,0,41.606763,-86.3552088,241.749,0.0,0.0,0.0,0.0,0.0,0,0,0,0
879064000,0,41.606764899999995,-86.3552086,241.736,0.0,0.0,0.0,0.0,0.0,0,0,0,0
879164000,0,41.6067666,-86.3552084,241.722,0.0,0.0,0.0,0.0,0.0,0,0,0,0
879264000,0,41.6067681,-86.35520819999999,241.708,0.0,0.0,0.0,0.0,0.0,0,0,0,0
879364000,0,41.6067695,-86.3552079,241.694,0.0,0.0,0.0,0.0,0.0,0,0,0,0
879464000,0,41.6067707,-86.3552077,241.68,0.0,0.0,0.0,0.0,0.0,0,0,0,0
879564000,0,41.6067718,-86.35520749999999,241.667,0.0,0.0,0.0,0.0,0.0,0,0,0,0
879660000,0,41.606772899999996,-86.35520729999999,241.648,0.0,0.0,0.0,0.0,0.0,0,0,0,0
879764000,0,41.6067739,-86.3552072,241.614,0.0,0.0,0.0,0.0,0.0,0,0,0,0
879864000,0,41.6067748,-86.355207,241.566,0.0,0.0,0.0,0.0,0.0,0,0,0,0
879964000,0,41.6067757,-86.35520679999999,241.501,0.0,0.0,0.0,0.0,0.0,0,0,0,0
880064000,0,41.6067764,-86.3552067,241.427,0.0,0.0,0.0,0.0,0.0,0,0,0,0
880164000,0,41.606777099999995,-86.3552066,241.346,0.0,0.0,0.0,0.0,0.0,0,0,0,0
880264000,0,41.6067775,-86.3552064,241.262,0.0,0.0,0.0,0.0,0.0,0,0,0,0
880364000,0,41.6067779,-86.35520629999999,241.164,0.0,0.0,0.0,0.0,0.0,0,0,0,0
880464000,0,41.606778,-86.3552062,241.068,0.0,0.0,0.0,0.0,0.0,0,0,0,0
880564000,0,41.6067781,-86.35520609999999,240.957,0.0,0.0,0.0,0.0,0.0,0,0,0,0
880664000,0,41.606778,-86.355206,240.849,0.0,0.0,0.0,0.0,0.0,0,0,0,0
880760000,0,41.6067779,-86.3552059,240.753,0.0,0.0,0.0,0.0,0.0,0,0,0,0
880860000,0,41.606777699999995,-86.3552058,240.652,0.0,0.0,0.0,0.0,0.0,0,0,0,0
880960000,0,41.6067774,-86.3552058,240.56,0.0,0.0,0.0,0.0,0.0,0,0,0,0
881060000,0,41.606777099999995,-86.3552057,240.471,0.0,0.0,0.0,0.0,0.0,0,0,0,0
881164000,0,41.6067767,-86.3552057,240.383,0.0,0.0,0.0,0.0,0.0,0,0,0,0
881264000,0,41.6067764,-86.35520559999999,240.293,0.0,0.0,0.0,0.0,0.0,0,0,0,0
881364000,0,41.6067761,-86.35520559999999,240.211,0.0,0.0,0.0,0.0,0.0,0,0,0,0
881460000,0,41.6067758,-86.35520559999999,240.13,0.0,0.0,0.0,0.0,0.0,0,0,0,0
881564000,0,41.6067754,-86.35520559999999,240.042,0.0,0.0,0.0,0.0,0.0,0,0,0,0
881664000,0,41.6067751,-86.35520559999999,239.959,0.0,0.0,0.0,0.0,0.0,0,0,0,0
881764000,0,41.606774699999995,-86.35520559999999,239.874,0.0,0.0,0.0,0.0,0.0,0,0,0,0
881860000,0,41.6067743,-86.3552057,239.793,0.0,0.0,0.0,0.0,0.0,0,0,0,0
881964000,0,41.6067739,-86.3552057,239.701,0.0,0.0,0.0,0.0,0.0,0,0,0,0
882064000,0,41.6067736,-86.3552058,239.615,0.0,0.0,0.0,0.0,0.0,0,0,0,0
882164000,0,41.6067732,-86.3552058,239.528,0.0,0.0,0.0,0.0,0.0,0,0,0,0
882264000,0,41.606772899999996,-86.3552059,239.44,0.0,0.0,0.0,0.0,0.0,0,0,0,0
882360000,0,41.6067726,-86.355206,239.359,0.0,0.0,0.0,0.0,0.0,0,0,0,0
882460000,0,41.606772199999995,-86.35520609999999,239.265,0.0,0.0,0.0,0.0,0.0,0,0,0,0
882564000,0,41.6067719,-86.3552062,239.17,0.0,0.0,0.0,0.0,0.0,0,0,0,0
882660000,0,41.606771699999996,-86.35520629999999,239.086,0.0,0.0,0.0,0.0,0.0,0,0,0,0
882764000,0,41.6067714,-86.3552064,238.987,0.0,0.0,0.0,0.0,0.0,0,0,0,0
882864000,0,41.6067712,-86.3552065,238.895,0.0,0.0,0.0,0.0,0.0,0,0,0,0
882964000,0,41.606770999999995,-86.3552066,238.808,0.0,0.0,0.0,0.0,0.0,0,0,0,0
883064000,0,41.6067708,-86.35520679999999,238.716,0.0,0.0,0.0,0.0,0.0,0,0,0,0
883164000,0,41.6067707,-86.3552069,238.622,0.0,0.0,0.0,0.0,0.0,0,0,0,0
883264000,0,41.606770499999996,-86.355207,238.534,0.0,0.0,0.0,0.0,0.0,0,0,0,0
883360000,0,41.606770399999995,-86.3552071,238.447,0.0,0.0,0.0,0.0,0.0,0,0,0,0
883464000,0,41.6067703,-86.3552072,238.352,0.0,0.0,0.0,0.0,0.0,0,0,0,0
883560000,0,41.6067702,-86.3552072,238.265,0.0,0.0,0.0,0.0,0.0,0,0,0,0
883660000,0,41.6067702,-86.35520729999999,238.174,0.0,0.0,0.0,0.0,0.0,0,0,0,0
883760000,0,41.6067701,-86.3552074,238.08,0.0,0.0,0.0,0.0,0.0,0,0,0,0
883860000,0,41.6067701,-86.35520749999999,237.993,0.0,0.0,0.0,0.0,0.0,0,0,0,0
883964000,0,41.6067701,-86.35520749999999,237.896,0.0,0.0,0.0,0.0,0.0,0,0,0,0
884064000,0,41.6067701,-86.3552076,237.809,0.0,0.0,0.0,0.0,0.0,0,0,0,0
884164000,0,41.6067701,-86.3552076,237.719,0.0,0.0,0.0,0.0,0.0,0,0,0,0
884264000,0,41.6067701,-86.3552077,237.63,0.0,0.0,0.0,0.0,0.0,0,0,0,0
884364000,0,41.6067701,-86.3552077,237.537,0.0,0.0,0.0,0.0,0.0,0,0,0,0
884464000,0,41.6067701,-86.3552078,237.451,0.0,0.0,0.0,0.0,0.0,0,0,0,0
884564000,0,41.6067701,-86.3552078,237.363,0.0,0.0,0.0,0.0,0.0,0,0,0,0
884664000,0,41.6067702,-86.3552078,237.275,0.0,0.0,0.0,0.0,0.0,0,0,0,0
884764000,0,41.6067702,-86.3552079,237.188,0.0,0.0,0.0,0.0,0.0,0,0,0,0
884864000,0,41.6067702,-86.3552079,237.101,0.0,0.0,0.0,0.0,0.0,0,0,0,0
884964000,0,41.6067702,-86.3552079,237.016,0.0,0.0,0.0,0.0,0.0,0,0,0,0
885064000,0,41.6067703,-86.3552079,236.93,0.0,0.0,0.0,0.0,0.0,0,0,0,0
885160000,0,41.6067703,-86.35520799999999,236.849,0.0,0.0,0.0,0.0,0.0,0,0,0,0
885264000,0,41.6067703,-86.35520799999999,236.762,0.0,0.0,0.0,0.0,0.0,0,0,0,0
885360000,0,41.606770399999995,-86.35520799999999,236.678,0.0,0.0,0.0,0.0,0.0,0,0,0,0
885464000,0,41.606770399999995,-86.35520799999999,236.593,0.0,0.0,0.0,0.0,0.0,0,0,0,0
885564000,0,41.606770399999995,-86.35520799999999,236.511,0.0,0.0,0.0,0.0,0.0,0,0,0,0
885664000,0,41.606770399999995,-86.35520799999999,236.43,0.0,0.0,0.0,0.0,0.0,0,0,0,0
885764000,0,41.606770399999995,-86.35520799999999,236.35,0.0,0.0,0.0,0.0,0.0,0,0,0,0
885860000,0,41.606770399999995,-86.3552081,236.276,0.0,0.0,0.0,0.0,0.0,0,0,0,0
885964000,0,41.606770399999995,-86.3552081,236.189,0.0,0.0,0.0,0.0,0.0,0,0,0,0
886060000,0,41.606770399999995,-86.3552081,236.112,0.0,0.0,0.0,0.0,0.0,0,0,0,0
886164000,0,41.606770399999995,-86.3552081,236.03,0.0,0.0,0.0,0.0,0.0,0,0,0,0
886260000,0,41.606770499999996,-86.3552081,235.954,0.0,0.0,0.0,0.0,0.0,0,0,0,0
886360000,0,41.606770499999996,-86.3552081,235.876,0.0,0.0,0.0,0.0,0.0,0,0,0,0
886460000,0,41.606770499999996,-86.3552081,235.802,0.0,0.0,0.0,0.0,0.0,0,0,0,0
886560000,0,41.606770499999996,-86.3552081,235.722,0.0,0.0,0.0,0.0,0.0,0,0,0,0
886664000,0,41.606770499999996,-86.3552081,235.646,0.0,0.0,0.0,0.0,0.0,0,0,0,0
886760000,0,41.606770399999995,-86.3552081,235.573,0.0,0.0,0.0,0.0,0.0,0,0,0,0
886860000,0,41.606770399999995,-86.3552081,235.498,0.0,0.0,0.0,0.0,0.0,0,0,0,0
886964000,0,41.606770399999995,-86.3552081,235.418,0.0,0.0,0.0,0.0,0.0,0,0,0,0
887064000,0,41.606770399999995,-86.3552081,235.344,0.0,0.0,0.0,0.0,0.0,0,0,0,0
887164000,0,41.606770399999995,-86.3552081,235.273,0.0,0.0,0.0,0.0,0.0,0,0,0,0
887260000,0,41.606770399999995,-86.3552081,235.199,0.0,0.0,0.0,0.0,0.0,0,0,0,0
887364000,0,41.606770399999995,-86.3552081,235.123,0.0,0.0,0.0,0.0,0.0,0,0,0,0
887464000,0,41.606770399999995,-86.3552081,235.054,0.0,0.0,0.0,0.0,0.0,0,0,0,0
887564000,0,41.6067703,-86.3552081,234.982,0.0,0.0,0.0,0.0,0.0,0,0,0,0
887660000,0,41.6067703,-86.3552081,234.91,0.0,0.0,0.0,0.0,0.0,0,0,0,0
887764000,0,41.6067703,-86.3552081,234.838,0.0,0.0,0.0,0.0,0.0,0,0,0,0
887864000,0,41.6067703,-86.35520799999999,234.764,0.0,0.0,0.0,0.0,0.0,0,0,0,0
887964000,0,41.6067702,-86.35520799999999,234.697,0.0,0.0,0.0,0.0,0.0,0,0,0,0
888060000,0,41.6067702,-86.35520799999999,234.627,0.0,0.0,0.0,0.0,0.0,0,0,0,0
888160000,0,41.6067702,-86.35520799999999,234.56,0.0,0.0,0.0,0.0,0.0,0,0,0,0
888260000,0,41.6067701,-86.35520799999999,234.491,0.0,0.0,0.0,0.0,0.0,0,0,0,0
888360000,0,41.6067701,-86.35520799999999,234.423,0.0,0.0,0.0,0.0,0.0,0,0,0,0
888460000,0,41.6067701,-86.3552079,234.353,0.0,0.0,0.0,0.0,0.0,0,0,0,0
888560000,0,41.6067701,-86.3552079,234.285,0.0,0.0,0.0,0.0,0.0,0,0,0,0
888664000,0,41.60677,-86.3552079,234.215,0.0,0.0,0.0,0.0,0.0,0,0,0,0
888764000,0,41.60677,-86.3552079,234.148,0.0,0.0,0.0,0.0,0.0,0,0,0,0
888864000,0,41.60677,-86.3552079,234.084,0.0,0.0,0.0,0.0,0.0,0,0,0,0
888964000,0,41.60677,-86.3552079,234.015,0.0,0.0,0.0,0.0,0.0,0,0,0,0
889064000,0,41.606769899999996,-86.3552078,233.951,0.0,0.0,0.0,0.0,0.0,0,0,0,0
889164000,0,41.606769899999996,-86.3552078,233.885,0.0,0.0,0.0,0.0,0.0,0,0,0,0
889260000,0,41.606769899999996,-86.3552078,233.818,0.0,0.0,0.0,0.0,0.0,0,0,0,0
889364000,0,41.606769899999996,-86.3552078,233.751,0.0,0.0,0.0,0.0,0.0,0,0,0,0
889464000,0,41.606769799999995,-86.3552077,233.684,0.0,0.0,0.0,0.0,0.0,0,0,0,0
889560000,0,41.606769799999995,-86.3552077,233.616,0.0,0.0,0.0,0.0,0.0,0,0,0,0
889664000,0,41.606769799999995,-86.3552077,233.549,0.0,0.0,0.0,0.0,0.0,0,0,0,0
889764000,0,41.606769799999995,-86.3552077,233.478,0.0,0.0,0.0,0.0,0.0,0,0,0,0
889860000,0,41.606769799999995,-86.3552076,233.412,0.0,0.0,0.0,0.0,0.0,0,0,0,0
889964000,0,41.606769799999995,-86.3552076,233.343,0.0,0.0,0.0,0.0,0.0,0,0,0,0
890064000,0,41.606769799999995,-86.3552076,233.271,0.0,0.0,0.0,0.0,0.0,0,0,0,0
890164000,0,41.6067697,-86.3552076,233.202,0.0,0.0,0.0,0.0,0.0,0,0,0,0
890264000,0,41.6067697,-86.3552076,233.136,0.0,0.0,0.0,0.0,0.0,0,0,0,0
890364000,0,41.6067697,-86.35520749999999,233.064,0.0,0.0,0.0,0.0,0.0,0,0,0,0
890464000,0,41.6067697,-86.35520749999999,232.998,0.0,0.0,0.0,0.0,0.0,0,0,0,0
890564000,0,41.6067697,-86.35520749999999,232.926,0.0,0.0,0.0,0.0,0.0,0,0,0,0
890660000,0,41.6067697,-86.35520749999999,232.86,0.0,0.0,0.0,0.0,0.0,0,0,0,0
890764000,0,41.6067697,-86.35520749999999,232.788,0.0,0.0,0.0,0.0,0.0,0,0,0,0
890864000,0,41.6067697,-86.35520749999999,232.722,0.0,0.0,0.0,0.0,0.0,0,0,0,0
890964000,0,41.6067697,-86.35520749999999,232.65,0.0,0.0,0.0,0.0,0.0,0,0,0,0
891064000,0,41.6067697,-86.35520749999999,232.584,0.0,0.0,0.0,0.0,0.0,0,0,0,0
891160000,0,41.6067697,-86.3552074,232.517,0.0,0.0,0.0,0.0,0.0,0,0,0,0
891260000,0,41.6067697,-86.3552074,232.448,0.0,0.0,0.0,0.0,0.0,0,0,0,0
891360000,0,41.6067697,-86.3552074,232.379,0.0,0.0,0.0,0.0,0.0,0,0,0,0
891464000,0,41.6067697,-86.3552074,232.307,0.0,0.0,0.0,0.0,0.0,0,0,0,0
891560000,0,41.6067697,-86.3552074,232.238,0.0,0.0,0.0,0.0,0.0,0,0,0,0
891664000,0,41.6067697,-86.3552074,232.169,0.0,0.0,0.0,0.0,0.0,0,0,0,0
891760000,0,41.606769799999995,-86.3552074,232.104,0.0,0.0,0.0,0.0,0.0,0,0,0,0
891864000,0,41.606769799999995,-86.35520729999999,232.03,0.0,0.0,0.0,0.0,0.0,0,0,0,0
891964000,0,41.606769799999995,-86.35520729999999,231.963,0.0,0.0,0.0,0.0,0.0,0,0,0,0
892064000,0,41.606769799999995,-86.35520729999999,231.896,0.0,0.0,0.0,0.0,0.0,0,0,0,0
892164000,0,41.606769799999995,-86.35520729999999,231.83,0.0,0.0,0.0,0.0,0.0,0,0,0,0
892264000,0,41.606769799999995,-86.35520729999999,231.766,0.0,0.0,0.0,0.0,0.0,0,0,0,0
892364000,0,41.606769799999995,-86.35520729999999,231.701,0.0,0.0,0.0,0.0,0.0,0,0,0,0
892464000,0,41.606769899999996,-86.35520729999999,231.635,0.0,0.0,0.0,0.0,0.0,0,0,0,0
892560000,0,41.606769899999996,-86.3552072,231.572,0.0,0.0,0.0,0.0,0.0,0,0,0,0
892660000,0,41.606769899999996,-86.3552072,231.506,0.0,0.0,0.0,0.0,0.0,0,0,0,0
892764000,0,41.606769899999996,-86.3552072,231.437,0.0,0.0,0.0,0.0,0.0,0,0,0,0
892860000,0,41.606769899999996,-86.3552072,231.373,0.0,0.0,0.0,0.0,0.0,0,0,0,0
892964000,0,41.60677,-86.3552072,231.305,0.0,0.0,0.0,0.0,0.0,0,0,0,0
893064000,0,41.60677,-86.3552072,231.235,0.0,0.0,0.0,0.0,0.0,0,0,0,0
893164000,0,41.60677,-86.3552072,231.171,0.0,0.0,0.0,0.0,0.0,0,0,0,0
893260000,0,41.60677,-86.3552072,231.104,0.0,0.0,0.0,0.0,0.0,0,0,0,0
893360000,0,41.60677,-86.3552072,231.039,0.0,0.0,0.0,0.0,0.0,0,0,0,0
893460000,0,41.60677,-86.3552072,230.968,0.0,0.0,0.0,0.0,0.0,0,0,0,0
893560000,0,41.60677,-86.3552072,230.9,0.0,0.0,0.0,0.0,0.0,0,0,0,0
893664000,0,41.6067701,-86.3552072,230.832,0.0,0.0,0.0,0.0,0.0,0,0,0,0
893764000,0,41.6067701,-86.3552072,230.763,0.0,0.0,0.0,0.0,0.0,0,0,0,0
893860000,0,41.6067701,-86.35520729999999,230.695,0.0,0.0,0.0,0.0,0.0,0,0,0,0
893964000,0,41.6067701,-86.35520729999999,230.624,0.0,0.0,0.0,0.0,0.0,0,0,0,0
894064000,0,41.6067701,-86.35520729999999,230.558,0.0,0.0,0.0,0.0,0.0,0,0,0,0
894164000,0,41.6067701,-86.35520729999999,230.487,0.0,0.0,0.0,0.0,0.0,0,0,0,0
894264000,0,41.6067701,-86.35520729999999,230.419,0.0,0.0,0.0,0.0,0.0,0,0,0,0
894360000,0,41.6067702,-86.35520729999999,230.354,0.0,0.0,0.0,0.0,0.0,0,0,0,0
894460000,0,41.6067702,-86.35520729999999,230.285,0.0,0.0,0.0,0.0,0.0,0,0,0,0
894560000,0,41.6067702,-86.3552074,230.217,0.0,0.0,0.0,0.0,0.0,0,0,0,0
894664000,0,41.6067702,-86.3552074,230.149,0.0,0.0,0.0,0.0,0.0,0,0,0,0
894764000,0,41.6067702,-86.3552074,230.078,0.0,0.0,0.0,0.0,0.0,0,0,0,0
894860000,0,41.6067702,-86.3552074,230.012,0.0,0.0,0.0,0.0,0.0,0,0,0,0
894960000,0,41.6067703,-86.3552074,229.944,0.0,0.0,0.0,0.0,0.0,0,0,0,0
895060000,0,41.6067703,-86.3552074,229.877,0.0,0.0,0.0,0.0,0.0,0,0,0,0
895164000,0,41.6067703,-86.3552074,229.806,0.0,0.0,0.0,0.0,0.0,0,0,0,0
895264000,0,41.6067703,-86.3552074,229.741,0.0,0.0,0.0,0.0,0.0,0,0,0,0
895364000,0,41.6067703,-86.3552074,229.673,0.0,0.0,0.0,0.0,0.0,0,0,0,0
895460000,0,41.606770399999995,-86.3552074,229.606,0.0,0.0,0.0,0.0,0.0,0,0,0,0
895564000,0,41.606770399999995,-86.3552074,229.537,0.0,0.0,0.0,0.0,0.0,0,0,0,0
895664000,0,41.606770399999995,-86.3552074,229.47,0.0,0.0,0.0,0.0,0.0,0,0,0,0
895764000,0,41.606770399999995,-86.3552074,229.406,0.0,0.0,0.0,0.0,0.0,0,0,0,0
895864000,0,41.606770399999995,-86.3552074,229.339,0.0,0.0,0.0,0.0,0.0,0,0,0,0
895960000,0,41.606770399999995,-86.35520749999999,229.274,0.0,0.0,0.0,0.0,0.0,0,0,0,0
896064000,0,41.606770399999995,-86.3552074,229.273,0.0,0.0,0.0,0.0,0.0,0,0,0,0
896164000,0,41.606770499999996,-86.3552074,229.269,0.0,0.0,0.0,0.0,0.0,0,0,0,0
896260000,0,41.606770499999996,-86.3552074,229.269,0.0,0.0,0.0,0.0,0.0,0,0,0,0
896364000,0,41.606770499999996,-86.3552074,229.269,0.0,0.0,0.0,0.0,0.0,0,0,0,0
896464000,0,41.606770499999996,-86.3552074,229.269,0.0,0.0,0.0,0.0,0.0,0,0,0,0
896564000,0,41.606770499999996,-86.3552074,229.269,0.0,0.0,0.0,0.0,0.0,0,0,0,0
896664000,0,41.606770499999996,-86.3552074,229.269,0.0,0.0,0.0,0.0,0.0,0,0,0,0
896760000,0,41.606770499999996,-86.3552074,229.269,0.0,0.0,0.0,0.0,0.0,0,0,0,0
896864000,0,41.606770499999996,-86.3552074,229.269,0.0,0.0,0.0,0.0,0.0,0,0,0,0
896960000,0,41.606770499999996,-86.35520749999999,229.269,0.0,0.0,0.0,0.0,0.0,0,0,0,0
897060000,0,41.606770499999996,-86.35520749999999,229.269,0.0,0.0,0.0,0.0,0.0,0,0,0,0
897160000,0,41.606770499999996,-86.35520749999999,229.269,0.0,0.0,0.0,0.0,0.0,0,0,0,0
897264000,0,41.606770499999996,-86.35520749999999,229.269,0.0,0.0,0.0,0.0,0.0,0,0,0,0
897364000,0,41.606770499999996,-86.35520749999999,229.269,0.0,0.0,0.0,0.0,0.0,0,0,0,0
897464000,0,41.606770499999996,-86.35520749999999,229.269,0.0,0.0,0.0,0.0,0.0,0,0,0,0
897564000,0,41.606770499999996,-86.35520749999999,229.269,0.0,0.0,0.0,0.0,0.0,0,0,0,0
897664000,0,41.606770499999996,-86.35520749999999,229.269,0.0,0.0,0.0,0.0,0.0,0,0,0,0
897760000,0,41.606770499999996,-86.35520749999999,229.269,0.0,0.0,0.0,0.0,0.0,0,0,0,0
897860000,0,41.606770499999996,-86.35520749999999,229.269,0.0,0.0,0.0,0.0,0.0,0,0,0,0
897960000,0,41.606770499999996,-86.35520749999999,229.269,0.0,0.0,0.0,0.0,0.0,0,0,0,0
898064000,0,41.606770499999996,-86.35520749999999,229.269,0.0,0.0,0.0,0.0,0.0,0,0,0,0
898160000,0,41.606770499999996,-86.35520749999999,229.269,0.0,0.0,0.0,0.0,0.0,0,0,0,0
898260000,0,41.606770499999996,-86.35520749999999,229.269,0.0,0.0,0.0,0.0,0.0,0,0,0,0
898364000,0,41.606770499999996,-86.35520749999999,229.269,0.0,0.0,0.0,0.0,0.0,0,0,0,0
898460000,0,41.606770499999996,-86.35520749999999,229.269,0.0,0.0,0.0,0.0,0.0,0,0,0,0
898564000,0,41.606770499999996,-86.35520749999999,229.269,0.0,0.0,0.0,0.0,0.0,0,0,0,0
898664000,0,41.606770499999996,-86.35520749999999,229.269,0.0,0.0,0.0,0.0,0.0,0,0,0,0
898764000,0,41.606770499999996,-86.35520749999999,229.269,0.0,0.0,0.0,0.0,0.0,0,0,0,0
898864000,0,41.606770499999996,-86.35520749999999,229.269,0.0,0.0,0.0,0.0,0.0,0,0,0,0
898960000,0,41.606770499999996,-86.35520749999999,229.269,0.0,0.0,0.0,0.0,0.0,0,0,0,0
899060000,0,41.606770499999996,-86.35520749999999,229.269,0.0,0.0,0.0,0.0,0.0,0,0,0,0
899164000,0,41.606770499999996,-86.35520749999999,229.269,0.0,0.0,0.0,0.0,0.0,0,0,0,0
899264000,0,41.606770499999996,-86.35520749999999,229.269,0.0,0.0,0.0,0.0,0.0,0,0,0,0
899364000,0,41.606770499999996,-86.35520749999999,229.269,0.0,0.0,0.0,0.0,0.0,0,0,0,0
899464000,0,41.606770499999996,-86.35520749999999,229.269,0.0,0.0,0.0,0.0,0.0,0,0,0,0
899564000,0,41.606770499999996,-86.35520749999999,229.269,0.0,0.0,0.0,0.0,0.0,0,0,0,0
899664000,0,41.606770499999996,-86.35520749999999,229.269,0.0,0.0,0.0,0.0,0.0,0,0,0,0
899764000,0,41.606770499999996,-86.35520749999999,229.269,0.0,0.0,0.0,0.0,0.0,0,0,0,0
899864000,0,41.606770499999996,-86.35520749999999,229.269,0.0,0.0,0.0,0.0,0.0,0,0,0,0
899964000,0,41.606770499999996,-86.35520749999999,229.269,0.0,0.0,0.0,0.0,0.0,0,0,0,0
900060000,0,41.606770499999996,-86.35520749999999,229.269,0.0,0.0,0.0,0.0,0.0,0,0,0,0
900160000,0,41.606770499999996,-86.35520749999999,229.269,0.0,0.0,0.0,0.0,0.0,0,0,0,0
