timestamp,timestamp_sample,gps_hvel[0],gps_hvel[1],gps_vvel,gps_hpos[0],gps_hpos[1],gps_vpos,ev_hvel[0],ev_hvel[1],ev_vvel,ev_hpos[0],ev_hpos[1],ev_vpos,rng_vpos,baro_vpos,aux_hvel[0],aux_hvel[1],aux_vvel,flow[0],flow[1],heading,mag_field[0],mag_field[1],mag_field[2],drag[0],drag[1],airspeed,beta,hagl,hagl_rate
829260000,829180000,0.09022629,0.09022629,0.2027389,1.001577,1.001577,0.0,0.0,0.0,0.0,0.0,0.0,0.0,0.0,12.253618,0.0,0.0,nan,0.0,0.0,0.09032147,0.0025360344,0.002542024,0.0025466767,0.0,0.0,0.0,0.0,0.0,0.0
829268000,829188000,0.09022629,0.09022629,0.2027389,1.001577,1.001577,0.0,0.0,0.0,0.0,0.0,0.0,0.0,0.0,12.253618,0.0,0.0,nan,0.0,0.0,0.09032147,0.0025360344,0.002542024,0.0025466767,0.0,0.0,0.0,0.0,0.0,0.0
829276000,829196000,0.09022629,0.09022629,0.2027389,1.001577,1.001577,0.0,0.0,0.0,0.0,0.0,0.0,0.0,0.0,12.253618,0.0,0.0,nan,0.0,0.0,0.09032147,0.0025360344,0.002542024,0.0025466767,0.0,0.0,0.0,0.0,0.0,0.0
829284000,829204000,0.09022629,0.09022629,0.2027389,1.001577,1.001577,0.0,0.0,0.0,0.0,0.0,0.0,0.0,0.0,12.253614,0.0,0.0,nan,0.0,0.0,0.09032147,0.0025360344,0.002542024,0.0025466767,0.0,0.0,0.0,0.0,0.0,0.0
829292000,829212000,0.09022629,0.09022629,0.2027389,1.001577,1.001577,0.0,0.0,0.0,0.0,0.0,0.0,0.0,0.0,12.253614,0.0,0.0,nan,0.0,0.0,0.09032147,0.0025360344,0.002542024,0.0025466767,0.0,0.0,0.0,0.0,0.0,0.0
829300000,829220000,0.09022629,0.09022629,0.2027389,1.001577,1.001577,0.0,0.0,0.0,0.0,0.0,0.0,0.0,0.0,12.253614,0.0,0.0,nan,0.0,0.0,0.09032147,0.0025360344,0.002542024,0.0025466767,0.0,0.0,0.0,0.0,0.0,0.0
829308000,829228000,0.09022629,0.09022629,0.2027389,1.001577,1.001577,0.0,0.0,0.0,0.0,0.0,0.0,0.0,0.0,12.253614,0.0,0.0,nan,0.0,0.0,0.09032148,0.0025360344,0.002542024,0.0025466767,0.0,0.0,0.0,0.0,0.0,0.0
829316000,829236000,0.09022629,0.09022629,0.2027389,1.001577,1.001577,0.0,0.0,0.0,0.0,0.0,0.0,0.0,0.0,12.253614,0.0,0.0,nan,0.0,0.0,0.09032148,0.0025360344,0.002542024,0.0025466767,0.0,0.0,0.0,0.0,0.0,0.0
829324000,829244000,0.09022629,0.09022629,0.2027389,1.001577,1.001577,0.0,0.0,0.0,0.0,0.0,0.0,0.0,0.0,12.253614,0.0,0.0,nan,0.0,0.0,0.09032148,0.0025360344,0.002542024,0.0025466767,0.0,0.0,0.0,0.0,0.0,0.0
829332000,829252000,0.09022629,0.09022629,0.2027389,1.001577,1.001577,0.0,0.0,0.0,0.0,0.0,0.0,0.0,0.0,12.253614,0.0,0.0,nan,0.0,0.0,0.09032148,0.0025360344,0.002542024,0.0025466767,0.0,0.0,0.0,0.0,0.0,0.0
829340000,829260000,0.09022629,0.09022629,0.2027389,1.001577,1.001577,0.0,0.0,0.0,0.0,0.0,0.0,0.0,0.0,12.253614,0.0,0.0,nan,0.0,0.0,0.09032148,0.0025360344,0.002542024,0.0025466767,0.0,0.0,0.0,0.0,0.0,0.0
829348000,829268000,0.09022629,0.09022629,0.2027389,1.001577,1.001577,0.0,0.0,0.0,0.0,0.0,0.0,0.0,0.0,12.253614,0.0,0.0,nan,0.0,0.0,0.09032148,0.0025360344,0.002542024,0.0025466767,0.0,0.0,0.0,0.0,0.0,0.0
829356000,829276000,0.09022629,0.09022629,0.2027389,1.001577,1.001577,0.0,0.0,0.0,0.0,0.0,0.0,0.0,0.0,12.253614,0.0,0.0,nan,0.0,0.0,0.09032148,0.0025360344,0.002542024,0.0025466767,0.0,0.0,0.0,0.0,0.0,0.0
829364000,829284000,0.09022629,0.09022629,0.2027389,1.001577,1.001577,0.0,0.0,0.0,0.0,0.0,0.0,0.0,0.0,12.253614,0.0,0.0,nan,0.0,0.0,0.09032148,0.0025360344,0.002542024,0.0025466767,0.0,0.0,0.0,0.0,0.0,0.0
829372000,829292000,0.09022629,0.09022629,0.2027389,1.001577,1.001577,0.0,0.0,0.0,0.0,0.0,0.0,0.0,0.0,12.253614,0.0,0.0,nan,0.0,0.0,0.09032148,0.0025360344,0.002542024,0.0025466767,0.0,0.0,0.0,0.0,0.0,0.0
829380000,829300000,0.09022629,0.09022629,0.2027389,1.001577,1.001577,0.0,0.0,0.0,0.0,0.0,0.0,0.0,0.0,12.253614,0.0,0.0,nan,0.0,0.0,0.09032149,0.0025360344,0.002542024,0.0025466767,0.0,0.0,0.0,0.0,0.0,0.0
829388000,829308000,0.09022629,0.09022629,0.2027389,1.001577,1.001577,0.0,0.0,0.0,0.0,0.0,0.0,0.0,0.0,12.253614,0.0,0.0,nan,0.0,0.0,0.09032149,0.0025360344,0.002542024,0.0025466767,0.0,0.0,0.0,0.0,0.0,0.0
829396000,829316000,0.09022629,0.09022629,0.2027389,1.001577,1.001577,0.0,0.0,0.0,0.0,0.0,0.0,0.0,0.0,12.253614,0.0,0.0,nan,0.0,0.0,0.09032149,0.0025360344,0.002542024,0.0025466767,0.0,0.0,0.0,0.0,0.0,0.0
829404000,829324000,0.09022629,0.09022629,0.2027389,1.001577,1.001577,0.0,0.0,0.0,0.0,0.0,0.0,0.0,0.0,12.253614,0.0,0.0,nan,0.0,0.0,0.09032149,0.0025360344,0.002542024,0.0025466767,0.0,0.0,0.0,0.0,0.0,0.0
829412000,829332000,0.09022629,0.09022629,0.2027389,1.001577,1.001577,0.0,0.0,0.0,0.0,0.0,0.0,0.0,0.0,12.253614,0.0,0.0,nan,0.0,0.0,0.09032149,0.0025360344,0.002542024,0.0025466767,0.0,0.0,0.0,0.0,0.0,0.0
829420000,829340000,0.09022629,0.09022629,0.2027389,1.001577,1.001577,0.0,0.0,0.0,0.0,0.0,0.0,0.0,0.0,12.253614,0.0,0.0,nan,0.0,0.0,0.09032149,0.0025360344,0.002542024,0.0025466767,0.0,0.0,0.0,0.0,0.0,0.0
829428000,829348000,0.09022629,0.09022629,0.2027389,1.001577,1.001577,0.0,0.0,0.0,0.0,0.0,0.0,0.0,0.0,12.253614,0.0,0.0,nan,0.0,0.0,0.09032149,0.0025360344,0.002542024,0.0025466767,0.0,0.0,0.0,0.0,0.0,0.0
829436000,829356000,0.0902262,0.09022621,0.2027389,1.0015754,1.0015754,0.0,0.0,0.0,0.0,0.0,0.0,0.0,0.0,12.253614,0.0,0.0,nan,0.0,0.0,0.09032149,0.0025360344,0.002542024,0.0025466767,0.0,0.0,0.0,0.0,0.0,0.0
829444000,829364000,0.0902262,0.09022621,0.2027389,1.0015754,1.0015754,0.0,0.0,0.0,0.0,0.0,0.0,0.0,0.0,12.253614,0.0,0.0,nan,0.0,0.0,0.09032137,0.0025360344,0.002542024,0.0025466767,0.0,0.0,0.0,0.0,0.0,0.0
829452000,829372000,0.0902262,0.09022621,0.2027389,1.0015754,1.0015754,0.0,0.0,0.0,0.0,0.0,0.0,0.0,0.0,12.253614,0.0,0.0,nan,0.0,0.0,0.09032137,0.0025360344,0.002542024,0.0025466767,0.0,0.0,0.0,0.0,0.0,0.0
829460000,829380000,0.0902262,0.09022621,0.2027389,1.0015754,1.0015754,0.0,0.0,0.0,0.0,0.0,0.0,0.0,0.0,12.253614,0.0,0.0,nan,0.0,0.0,0.09032137,0.0025360344,0.002542024,0.0025466767,0.0,0.0,0.0,0.0,0.0,0.0
829468000,829388000,0.0902262,0.09022621,0.2027389,1.0015754,1.0015754,0.0,0.0,0.0,0.0,0.0,0.0,0.0,0.0,12.2536125,0.0,0.0,nan,0.0,0.0,0.09032137,0.0025360344,0.002542024,0.0025466767,0.0,0.0,0.0,0.0,0.0,0.0
829476000,829396000,0.0902262,0.09022621,0.2027389,1.0015754,1.0015754,0.0,0.0,0.0,0.0,0.0,0.0,0.0,0.0,12.2536125,0.0,0.0,nan,0.0,0.0,0.09032137,0.0025360344,0.002542024,0.0025466767,0.0,0.0,0.0,0.0,0.0,0.0
829484000,829404000,0.0902262,0.09022621,0.2027389,1.0015754,1.0015754,0.0,0.0,0.0,0.0,0.0,0.0,0.0,0.0,12.2536125,0.0,0.0,nan,0.0,0.0,0.09032137,0.0025360344,0.002542024,0.0025466767,0.0,0.0,0.0,0.0,0.0,0.0
829492000,829412000,0.0902262,0.09022621,0.2027389,1.0015754,1.0015754,0.0,0.0,0.0,0.0,0.0,0.0,0.0,0.0,12.2536125,0.0,0.0,nan,0.0,0.0,0.09032137,0.0025360344,0.002542024,0.0025466767,0.0,0.0,0.0,0.0,0.0,0.0
829500000,829420000,0.0902262,0.09022621,0.2027389,1.0015754,1.0015754,0.0,0.0,0.0,0.0,0.0,0.0,0.0,0.0,12.2536125,0.0,0.0,nan,0.0,0.0,0.09032137,0.0025360344,0.002542024,0.0025466767,0.0,0.0,0.0,0.0,0.0,0.0
829508000,829428000,0.0902262,0.09022621,0.2027389,1.0015754,1.0015754,0.0,0.0,0.0,0.0,0.0,0.0,0.0,0.0,12.2536125,0.0,0.0,nan,0.0,0.0,0.09032137,0.0025360344,0.002542024,0.0025466767,0.0,0.0,0.0,0.0,0.0,0.0
829516000,829436000,0.0902262,0.09022621,0.2027389,1.0015754,1.0015754,0.0,0.0,0.0,0.0,0.0,0.0,0.0,0.0,12.2536125,0.0,0.0,nan,0.0,0.0,0.09032139,0.0025360344,0.002542024,0.0025466767,0.0,0.0,0.0,0.0,0.0,0.0
829524000,829444000,0.0902262,0.09022621,0.2027389,1.0015754,1.0015754,0.0,0.0,0.0,0.0,0.0,0.0,0.0,0.0,12.253612,0.0,0.0,nan,0.0,0.0,0.09032139,0.0025360344,0.002542024,0.0025466767,0.0,0.0,0.0,0.0,0.0,0.0
829532000,829452000,0.0902262,0.09022621,0.2027389,1.0015754,1.0015754,0.0,0.0,0.0,0.0,0.0,0.0,0.0,0.0,12.253612,0.0,0.0,nan,0.0,0.0,0.09032139,0.0025360344,0.002542024,0.0025466767,0.0,0.0,0.0,0.0,0.0,0.0
829540000,829460000,0.0902262,0.09022621,0.2027389,1.0015754,1.0015754,0.0,0.0,0.0,0.0,0.0,0.0,0.0,0.0,12.253612,0.0,0.0,nan,0.0,0.0,0.09032139,0.0025360344,0.002542024,0.0025466767,0.0,0.0,0.0,0.0,0.0,0.0
829548000,829468000,0.0902262,0.09022621,0.2027389,1.0015754,1.0015754,0.0,0.0,0.0,0.0,0.0,0.0,0.0,0.0,12.253612,0.0,0.0,nan,0.0,0.0,0.09032139,0.0025360344,0.002542024,0.0025466767,0.0,0.0,0.0,0.0,0.0,0.0
829556000,829476000,0.0902262,0.09022621,0.2027389,1.0015754,1.0015754,0.0,0.0,0.0,0.0,0.0,0.0,0.0,0.0,12.253612,0.0,0.0,nan,0.0,0.0,0.09032139,0.0025360344,0.002542024,0.0025466767,0.0,0.0,0.0,0.0,0.0,0.0
829564000,829484000,0.0902262,0.09022621,0.2027389,1.0015754,1.0015754,0.0,0.0,0.0,0.0,0.0,0.0,0.0,0.0,12.253612,0.0,0.0,nan,0.0,0.0,0.09032139,0.0025360344,0.002542024,0.0025466767,0.0,0.0,0.0,0.0,0.0,0.0
829572000,829492000,0.0902262,0.09022621,0.2027389,1.0015754,1.0015754,0.0,0.0,0.0,0.0,0.0,0.0,0.0,0.0,12.253612,0.0,0.0,nan,0.0,0.0,0.09032139,0.0025360344,0.002542024,0.0025466767,0.0,0.0,0.0,0.0,0.0,0.0
829580000,829500000,0.0902262,0.09022621,0.2027389,1.0015754,1.0015754,0.0,0.0,0.0,0.0,0.0,0.0,0.0,0.0,12.253612,0.0,0.0,nan,0.0,0.0,0.09032139,0.0025360344,0.002542024,0.0025466767,0.0,0.0,0.0,0.0,0.0,0.0
829588000,829508000,0.0902262,0.09022621,0.2027389,1.0015754,1.0015754,0.0,0.0,0.0,0.0,0.0,0.0,0.0,0.0,12.253612,0.0,0.0,nan,0.0,0.0,0.09032141,0.0025360344,0.002542024,0.0025466767,0.0,0.0,0.0,0.0,0.0,0.0
829596000,829516000,0.0902262,0.09022621,0.2027389,1.0015754,1.0015754,0.0,0.0,0.0,0.0,0.0,0.0,0.0,0.0,12.253612,0.0,0.0,nan,0.0,0.0,0.09032141,0.0025360344,0.002542024,0.0025466767,0.0,0.0,0.0,0.0,0.0,0.0
829604000,829524000,0.0902262,0.09022621,0.2027389,1.0015754,1.0015754,0.0,0.0,0.0,0.0,0.0,0.0,0.0,0.0,12.253612,0.0,0.0,nan,0.0,0.0,0.09032141,0.0025360344,0.002542024,0.0025466767,0.0,0.0,0.0,0.0,0.0,0.0
829612000,829532000,0.0902262,0.09022621,0.2027389,1.0015754,1.0015754,0.0,0.0,0.0,0.0,0.0,0.0,0.0,0.0,12.253612,0.0,0.0,nan,0.0,0.0,0.09032141,0.0025360344,0.002542024,0.0025466767,0.0,0.0,0.0,0.0,0.0,0.0
829620000,829540000,0.0902262,0.09022621,0.2027389,1.0015754,1.0015754,0.0,0.0,0.0,0.0,0.0,0.0,0.0,0.0,12.253612,0.0,0.0,nan,0.0,0.0,0.09032141,0.0025360344,0.002542024,0.0025466767,0.0,0.0,0.0,0.0,0.0,0.0
829628000,829548000,0.0902262,0.09022621,0.2027389,1.0015754,1.0015754,0.0,0.0,0.0,0.0,0.0,0.0,0.0,0.0,12.253612,0.0,0.0,nan,0.0,0.0,0.09032141,0.0025360344,0.002542024,0.0025466767,0.0,0.0,0.0,0.0,0.0,0.0
829636000,829556000,0.0902262,0.09022621,0.2027389,1.0015754,1.0015754,0.0,0.0,0.0,0.0,0.0,0.0,0.0,0.0,12.253612,0.0,0.0,nan,0.0,0.0,0.09032141,0.0025360344,0.002542024,0.0025466767,0.0,0.0,0.0,0.0,0.0,0.0
829644000,829564000,0.0902262,0.09022621,0.2027389,1.0015754,1.0015754,0.0,0.0,0.0,0.0,0.0,0.0,0.0,0.0,12.2536125,0.0,0.0,nan,0.0,0.0,0.09032141,0.0025360344,0.002542024,0.0025466767,0.0,0.0,0.0,0.0,0.0,0.0
829652000,829572000,0.0902262,0.09022621,0.2027389,1.0015754,1.0015754,0.0,0.0,0.0,0.0,0.0,0.0,0.0,0.0,12.2536125,0.0,0.0,nan,0.0,0.0,0.09032141,0.0025360344,0.002542024,0.0025466767,0.0,0.0,0.0,0.0,0.0,0.0
829660000,829580000,0.0902262,0.09022621,0.2027389,1.0015754,1.0015754,0.0,0.0,0.0,0.0,0.0,0.0,0.0,0.0,12.2536125,0.0,0.0,nan,0.0,0.0,0.09032141,0.0025360344,0.002542024,0.0025466767,0.0,0.0,0.0,0.0,0.0,0.0
829668000,829588000,0.0902262,0.09022621,0.2027389,1.0015754,1.0015754,0.0,0.0,0.0,0.0,0.0,0.0,0.0,0.0,12.2536125,0.0,0.0,nan,0.0,0.0,0.09032141,0.0025360344,0.002542024,0.0025466767,0.0,0.0,0.0,0.0,0.0,0.0
829676000,829596000,0.0902262,0.09022621,0.2027389,1.0015754,1.0015754,0.0,0.0,0.0,0.0,0.0,0.0,0.0,0.0,12.2536125,0.0,0.0,nan,0.0,0.0,0.09032141,0.0025360344,0.002542024,0.0025466767,0.0,0.0,0.0,0.0,0.0,0.0
829684000,829604000,0.0902262,0.09022621,0.2027389,1.0015754,1.0015754,0.0,0.0,0.0,0.0,0.0,0.0,0.0,0.0,12.2536125,0.0,0.0,nan,0.0,0.0,0.09032141,0.0025360344,0.002542024,0.0025466767,0.0,0.0,0.0,0.0,0.0,0.0
829692000,829612000,0.0902262,0.09022621,0.2027389,1.0015754,1.0015754,0.0,0.0,0.0,0.0,0.0,0.0,0.0,0.0,12.2536125,0.0,0.0,nan,0.0,0.0,0.09032141,0.0025360344,0.002542024,0.0025466767,0.0,0.0,0.0,0.0,0.0,0.0
829700000,829620000,0.0902262,0.09022621,0.2027389,1.0015754,1.0015754,0.0,0.0,0.0,0.0,0.0,0.0,0.0,0.0,12.2536125,0.0,0.0,nan,0.0,0.0,0.09032141,0.0025360344,0.002542024,0.0025466767,0.0,0.0,0.0,0.0,0.0,0.0
829708000,829628000,0.0902262,0.09022621,0.2027389,1.0015754,1.0015754,0.0,0.0,0.0,0.0,0.0,0.0,0.0,0.0,12.253609,0.0,0.0,nan,0.0,0.0,0.09032141,0.0025360344,0.002542024,0.0025466767,0.0,0.0,0.0,0.0,0.0,0.0
829716000,829636000,0.0902262,0.09022621,0.2027389,1.0015754,1.0015754,0.0,0.0,0.0,0.0,0.0,0.0,0.0,0.0,12.253609,0.0,0.0,nan,0.0,0.0,0.09032141,0.0025360344,0.002542024,0.0025466767,0.0,0.0,0.0,0.0,0.0,0.0
829724000,829644000,0.0902262,0.09022621,0.2027389,1.0015754,1.0015754,0.0,0.0,0.0,0.0,0.0,0.0,0.0,0.0,12.253609,0.0,0.0,nan,0.0,0.0,0.09032141,0.0025360344,0.002542024,0.0025466767,0.0,0.0,0.0,0.0,0.0,0.0
829732000,829652000,0.0902262,0.09022621,0.2027389,1.0015754,1.0015754,0.0,0.0,0.0,0.0,0.0,0.0,0.0,0.0,12.253609,0.0,0.0,nan,0.0,0.0,0.09032143,0.0025360344,0.002542024,0.0025466767,0.0,0.0,0.0,0.0,0.0,0.0
829740000,829660000,0.0902262,0.09022621,0.2027389,1.0015754,1.0015754,0.0,0.0,0.0,0.0,0.0,0.0,0.0,0.0,12.253609,0.0,0.0,nan,0.0,0.0,0.09032143,0.0025360344,0.002542024,0.0025466767,0.0,0.0,0.0,0.0,0.0,0.0
829748000,829668000,0.0902262,0.09022621,0.2027389,1.0015754,1.0015754,0.0,0.0,0.0,0.0,0.0,0.0,0.0,0.0,12.253609,0.0,0.0,nan,0.0,0.0,0.09032143,0.0025360344,0.002542024,0.0025466767,0.0,0.0,0.0,0.0,0.0,0.0
829756000,829676000,0.0902262,0.09022621,0.2027389,1.0015754,1.0015754,0.0,0.0,0.0,0.0,0.0,0.0,0.0,0.0,12.253609,0.0,0.0,nan,0.0,0.0,0.09032143,0.0025360344,0.002542024,0.0025466767,0.0,0.0,0.0,0.0,0.0,0.0
829764000,829684000,0.0902262,0.09022621,0.2027389,1.0015754,1.0015754,0.0,0.0,0.0,0.0,0.0,0.0,0.0,0.0,12.253609,0.0,0.0,nan,0.0,0.0,0.09032143,0.0025360344,0.002542024,0.0025466767,0.0,0.0,0.0,0.0,0.0,0.0
829772000,829692000,0.0902262,0.09022621,0.2027389,1.0015754,1.0015754,0.0,0.0,0.0,0.0,0.0,0.0,0.0,0.0,12.253609,0.0,0.0,nan,0.0,0.0,0.09032143,0.0025360344,0.002542024,0.0025466767,0.0,0.0,0.0,0.0,0.0,0.0
829780000,829700000,0.0902262,0.09022621,0.2027389,1.0015754,1.0015754,0.0,0.0,0.0,0.0,0.0,0.0,0.0,0.0,12.253609,0.0,0.0,nan,0.0,0.0,0.09032143,0.0025360344,0.002542024,0.0025466767,0.0,0.0,0.0,0.0,0.0,0.0
829788000,829708000,0.0902262,0.09022621,0.2027389,1.0015754,1.0015754,0.0,0.0,0.0,0.0,0.0,0.0,0.0,0.0,12.253609,0.0,0.0,nan,0.0,0.0,0.09032143,0.0025360344,0.002542024,0.0025466767,0.0,0.0,0.0,0.0,0.0,0.0
829796000,829716000,0.0901613,0.0901613,0.2026682,1.0015726,1.0015726,0.0,0.0,0.0,0.0,0.0,0.0,0.0,0.0,12.253609,0.0,0.0,nan,0.0,0.0,0.09032143,0.0025360344,0.002542024,0.0025466767,0.0,0.0,0.0,0.0,0.0,0.0
829804000,829724000,0.0901613,0.0901613,0.2026682,1.0015726,1.0015726,0.0,0.0,0.0,0.0,0.0,0.0,0.0,0.0,12.253609,0.0,0.0,nan,0.0,0.0,0.090321444,0.0025360344,0.002542024,0.0025466767,0.0,0.0,0.0,0.0,0.0,0.0
829812000,829732000,0.0901613,0.0901613,0.2026682,1.0015726,1.0015726,0.0,0.0,0.0,0.0,0.0,0.0,0.0,0.0,12.253609,0.0,0.0,nan,0.0,0.0,0.090321444,0.0025360344,0.002542024,0.0025466767,0.0,0.0,0.0,0.0,0.0,0.0
829820000,829740000,0.0901613,0.0901613,0.2026682,1.0015726,1.0015726,0.0,0.0,0.0,0.0,0.0,0.0,0.0,0.0,12.253609,0.0,0.0,nan,0.0,0.0,0.090321444,0.0025360344,0.002542024,0.0025466767,0.0,0.0,0.0,0.0,0.0,0.0
829828000,829748000,0.0901613,0.0901613,0.2026682,1.0015726,1.0015726,0.0,0.0,0.0,0.0,0.0,0.0,0.0,0.0,12.253609,0.0,0.0,nan,0.0,0.0,0.090321444,0.0025360344,0.002542024,0.0025466767,0.0,0.0,0.0,0.0,0.0,0.0
829836000,829756000,0.0901613,0.0901613,0.2026682,1.0015726,1.0015726,0.0,0.0,0.0,0.0,0.0,0.0,0.0,0.0,12.253609,0.0,0.0,nan,0.0,0.0,0.090321444,0.0025360344,0.002542024,0.0025466767,0.0,0.0,0.0,0.0,0.0,0.0
829844000,829764000,0.0901613,0.0901613,0.2026682,1.0015726,1.0015726,0.0,0.0,0.0,0.0,0.0,0.0,0.0,0.0,12.253609,0.0,0.0,nan,0.0,0.0,0.090321444,0.0025360344,0.002542024,0.0025466767,0.0,0.0,0.0,0.0,0.0,0.0
829852000,829772000,0.0901613,0.0901613,0.2026682,1.0015726,1.0015726,0.0,0.0,0.0,0.0,0.0,0.0,0.0,0.0,12.253609,0.0,0.0,nan,0.0,0.0,0.090321444,0.0025360344,0.002542024,0.0025466767,0.0,0.0,0.0,0.0,0.0,0.0
829860000,829780000,0.0901613,0.0901613,0.2026682,1.0015726,1.0015726,0.0,0.0,0.0,0.0,0.0,0.0,0.0,0.0,12.253609,0.0,0.0,nan,0.0,0.0,0.090321444,0.0025360344,0.002542024,0.0025466767,0.0,0.0,0.0,0.0,0.0,0.0
829868000,829788000,0.0901613,0.0901613,0.2026682,1.0015726,1.0015726,0.0,0.0,0.0,0.0,0.0,0.0,0.0,0.0,12.253609,0.0,0.0,nan,0.0,0.0,0.090321444,0.0025360344,0.002542024,0.0025466767,0.0,0.0,0.0,0.0,0.0,0.0
829876000,829796000,0.0901613,0.0901613,0.2026682,1.0015726,1.0015726,0.0,0.0,0.0,0.0,0.0,0.0,0.0,0.0,12.253609,0.0,0.0,nan,0.0,0.0,0.09032146,0.0025360344,0.002542024,0.0025466767,0.0,0.0,0.0,0.0,0.0,0.0
829884000,829804000,0.0901613,0.0901613,0.2026682,1.0015726,1.0015726,0.0,0.0,0.0,0.0,0.0,0.0,0.0,0.0,12.253607,0.0,0.0,nan,0.0,0.0,0.09032146,0.0025360344,0.002542024,0.0025466767,0.0,0.0,0.0,0.0,0.0,0.0
829892000,829812000,0.0901613,0.0901613,0.2026682,1.0015726,1.0015726,0.0,0.0,0.0,0.0,0.0,0.0,0.0,0.0,12.253607,0.0,0.0,nan,0.0,0.0,0.09032146,0.0025360344,0.002542024,0.0025466767,0.0,0.0,0.0,0.0,0.0,0.0
829900000,829820000,0.0901613,0.0901613,0.2026682,1.0015726,1.0015726,0.0,0.0,0.0,0.0,0.0,0.0,0.0,0.0,12.253607,0.0,0.0,nan,0.0,0.0,0.09032146,0.0025360344,0.002542024,0.0025466767,0.0,0.0,0.0,0.0,0.0,0.0
829908000,829828000,0.0901613,0.0901613,0.2026682,1.0015726,1.0015726,0.0,0.0,0.0,0.0,0.0,0.0,0.0,0.0,12.253607,0.0,0.0,nan,0.0,0.0,0.09032146,0.0025360344,0.002542024,0.0025466767,0.0,0.0,0.0,0.0,0.0,0.0
829916000,829836000,0.0901613,0.0901613,0.2026682,1.0015726,1.0015726,0.0,0.0,0.0,0.0,0.0,0.0,0.0,0.0,12.253607,0.0,0.0,nan,0.0,0.0,0.09032146,0.0025360344,0.002542024,0.0025466767,0.0,0.0,0.0,0.0,0.0,0.0
829924000,829844000,0.0901613,0.0901613,0.2026682,1.0015726,1.0015726,0.0,0.0,0.0,0.0,0.0,0.0,0.0,0.0,12.253607,0.0,0.0,nan,0.0,0.0,0.09032146,0.0025360344,0.002542024,0.0025466767,0.0,0.0,0.0,0.0,0.0,0.0
829932000,829852000,0.0901613,0.0901613,0.2026682,1.0015726,1.0015726,0.0,0.0,0.0,0.0,0.0,0.0,0.0,0.0,12.253607,0.0,0.0,nan,0.0,0.0,0.09032146,0.0025360344,0.002542024,0.0025466767,0.0,0.0,0.0,0.0,0.0,0.0
829940000,829860000,0.0901613,0.0901613,0.2026682,1.0015726,1.0015726,0.0,0.0,0.0,0.0,0.0,0.0,0.0,0.0,12.253607,0.0,0.0,nan,0.0,0.0,0.09032146,0.0025360344,0.002542024,0.0025466767,0.0,0.0,0.0,0.0,0.0,0.0
829948000,829868000,0.0901613,0.0901613,0.2026682,1.0015726,1.0015726,0.0,0.0,0.0,0.0,0.0,0.0,0.0,0.0,12.253606,0.0,0.0,nan,0.0,0.0,0.09032147,0.0025360344,0.002542024,0.0025466767,0.0,0.0,0.0,0.0,0.0,0.0
829956000,829876000,0.0901613,0.0901613,0.2026682,1.0015726,1.0015726,0.0,0.0,0.0,0.0,0.0,0.0,0.0,0.0,12.253606,0.0,0.0,nan,0.0,0.0,0.09032147,0.0025360344,0.002542024,0.0025466767,0.0,0.0,0.0,0.0,0.0,0.0
829964000,829884000,0.0901613,0.0901613,0.2026682,1.0015726,1.0015726,0.0,0.0,0.0,0.0,0.0,0.0,0.0,0.0,12.253606,0.0,0.0,nan,0.0,0.0,0.09032147,0.0025360344,0.002542024,0.0025466767,0.0,0.0,0.0,0.0,0.0,0.0
829972000,829892000,0.0901613,0.0901613,0.2026682,1.0015726,1.0015726,0.0,0.0,0.0,0.0,0.0,0.0,0.0,0.0,12.253606,0.0,0.0,nan,0.0,0.0,0.09032147,0.0025360344,0.002542024,0.0025466767,0.0,0.0,0.0,0.0,0.0,0.0
829980000,829900000,0.0901613,0.0901613,0.2026682,1.0015726,1.0015726,0.0,0.0,0.0,0.0,0.0,0.0,0.0,0.0,12.253606,0.0,0.0,nan,0.0,0.0,0.09032147,0.0025360344,0.002542024,0.0025466767,0.0,0.0,0.0,0.0,0.0,0.0
829988000,829908000,0.0901613,0.0901613,0.2026682,1.0015726,1.0015726,0.0,0.0,0.0,0.0,0.0,0.0,0.0,0.0,12.253606,0.0,0.0,nan,0.0,0.0,0.09032147,0.0025360344,0.002542024,0.0025466767,0.0,0.0,0.0,0.0,0.0,0.0
829996000,829916000,0.0901613,0.0901613,0.2026682,1.0015726,1.0015726,0.0,0.0,0.0,0.0,0.0,0.0,0.0,0.0,12.253606,0.0,0.0,nan,0.0,0.0,0.09032147,0.0025360344,0.002542024,0.0025466767,0.0,0.0,0.0,0.0,0.0,0.0
830004000,829924000,0.090161316,0.090161316,0.2026682,1.0015708,1.0015708,0.0,0.0,0.0,0.0,0.0,0.0,0.0,0.0,12.253606,0.0,0.0,nan,0.0,0.0,0.09032147,0.0025360344,0.002542024,0.0025466767,0.0,0.0,0.0,0.0,0.0,0.0
830012000,829932000,0.090161316,0.090161316,0.2026682,1.0015708,1.0015708,0.0,0.0,0.0,0.0,0.0,0.0,0.0,0.0,12.253606,0.0,0.0,nan,0.0,0.0,0.09032147,0.0025360344,0.002542024,0.0025466767,0.0,0.0,0.0,0.0,0.0,0.0
830020000,829940000,0.090161316,0.090161316,0.2026682,1.0015708,1.0015708,0.0,0.0,0.0,0.0,0.0,0.0,0.0,0.0,12.253606,0.0,0.0,nan,0.0,0.0,0.09032149,0.0025360344,0.002542024,0.0025466767,0.0,0.0,0.0,0.0,0.0,0.0
830028000,829948000,0.090161316,0.090161316,0.2026682,1.0015708,1.0015708,0.0,0.0,0.0,0.0,0.0,0.0,0.0,0.0,12.253606,0.0,0.0,nan,0.0,0.0,0.09032149,0.0025360344,0.002542024,0.0025466767,0.0,0.0,0.0,0.0,0.0,0.0
830036000,829956000,0.090161316,0.090161316,0.2026682,1.0015708,1.0015708,0.0,0.0,0.0,0.0,0.0,0.0,0.0,0.0,12.253606,0.0,0.0,nan,0.0,0.0,0.09032149,0.0025360344,0.002542024,0.0025466767,0.0,0.0,0.0,0.0,0.0,0.0
830044000,829964000,0.090161316,0.090161316,0.2026682,1.0015708,1.0015708,0.0,0.0,0.0,0.0,0.0,0.0,0.0,0.0,12.253606,0.0,0.0,nan,0.0,0.0,0.09032149,0.0025360344,0.002542024,0.0025466767,0.0,0.0,0.0,0.0,0.0,0.0
830052000,829972000,0.090161316,0.090161316,0.2026682,1.0015708,1.0015708,0.0,0.0,0.0,0.0,0.0,0.0,0.0,0.0,12.253606,0.0,0.0,nan,0.0,0.0,0.09032149,0.0025360344,0.002542024,0.0025466767,0.0,0.0,0.0,0.0,0.0,0.0
830060000,829980000,0.090161316,0.090161316,0.2026682,1.0015708,1.0015708,0.0,0.0,0.0,0.0,0.0,0.0,0.0,0.0,12.253606,0.0,0.0,nan,0.0,0.0,0.09032149,0.0025360344,0.002542024,0.0025466767,0.0,0.0,0.0,0.0,0.0,0.0
830068000,829988000,0.090161316,0.090161316,0.2026682,1.0015708,1.0015708,0.0,0.0,0.0,0.0,0.0,0.0,0.0,0.0,12.253606,0.0,0.0,nan,0.0,0.0,0.09032149,0.0025360344,0.002542024,0.0025466767,0.0,0.0,0.0,0.0,0.0,0.0
830076000,829996000,0.090161316,0.090161316,0.2026682,1.0015708,1.0015708,0.0,0.0,0.0,0.0,0.0,0.0,0.0,0.0,12.253606,0.0,0.0,nan,0.0,0.0,0.09032149,0.0025360344,0.002542024,0.0025466767,0.0,0.0,0.0,0.0,0.0,0.0
830084000,830004000,0.090161316,0.090161316,0.2026682,1.0015708,1.0015708,0.0,0.0,0.0,0.0,0.0,0.0,0.0,0.0,12.253606,0.0,0.0,nan,0.0,0.0,0.09032149,0.0025360344,0.002542024,0.0025466767,0.0,0.0,0.0,0.0,0.0,0.0
830092000,830012000,0.090161316,0.090161316,0.2026682,1.0015708,1.0015708,0.0,0.0,0.0,0.0,0.0,0.0,0.0,0.0,12.253606,0.0,0.0,nan,0.0,0.0,0.090321496,0.0025360344,0.002542024,0.0025466767,0.0,0.0,0.0,0.0,0.0,0.0
830100000,830020000,0.090161316,0.090161316,0.2026682,1.0015708,1.0015708,0.0,0.0,0.0,0.0,0.0,0.0,0.0,0.0,12.253606,0.0,0.0,nan,0.0,0.0,0.090321496,0.0025360344,0.002542024,0.0025466767,0.0,0.0,0.0,0.0,0.0,0.0
830108000,830028000,0.090161316,0.090161316,0.2026682,1.0015708,1.0015708,0.0,0.0,0.0,0.0,0.0,0.0,0.0,0.0,12.253606,0.0,0.0,nan,0.0,0.0,0.090321496,0.0025360344,0.002542024,0.0025466767,0.0,0.0,0.0,0.0,0.0,0.0
830116000,830036000,0.090161316,0.090161316,0.2026682,1.0015708,1.0015708,0.0,0.0,0.0,0.0,0.0,0.0,0.0,0.0,12.253603,0.0,0.0,nan,0.0,0.0,0.090321496,0.0025360344,0.002542024,0.0025466767,0.0,0.0,0.0,0.0,0.0,0.0
830124000,830044000,0.090161316,0.090161316,0.2026682,1.0015708,1.0015708,0.0,0.0,0.0,0.0,0.0,0.0,0.0,0.0,12.253603,0.0,0.0,nan,0.0,0.0,0.090321496,0.0025360344,0.002542024,0.0025466767,0.0,0.0,0.0,0.0,0.0,0.0
830132000,830052000,0.090161316,0.090161316,0.2026682,1.0015708,1.0015708,0.0,0.0,0.0,0.0,0.0,0.0,0.0,0.0,12.253603,0.0,0.0,nan,0.0,0.0,0.090321496,0.0025360344,0.002542024,0.0025466767,0.0,0.0,0.0,0.0,0.0,0.0
830140000,830060000,0.090161316,0.090161316,0.2026682,1.0015708,1.0015708,0.0,0.0,0.0,0.0,0.0,0.0,0.0,0.0,12.253603,0.0,0.0,nan,0.0,0.0,0.090321496,0.0025360344,0.002542024,0.0025466767,0.0,0.0,0.0,0.0,0.0,0.0
830148000,830068000,0.090161316,0.090161316,0.2026682,1.0015708,1.0015708,0.0,0.0,0.0,0.0,0.0,0.0,0.0,0.0,12.253603,0.0,0.0,nan,0.0,0.0,0.090321496,0.0025360344,0.002542024,0.0025466767,0.0,0.0,0.0,0.0,0.0,0.0
830156000,830076000,0.090161316,0.090161316,0.2026682,1.0015708,1.0015708,0.0,0.0,0.0,0.0,0.0,0.0,0.0,0.0,12.253603,0.0,0.0,nan,0.0,0.0,0.090321384,0.0025360344,0.002542024,0.0025466767,0.0,0.0,0.0,0.0,0.0,0.0
830164000,830084000,0.090161316,0.090161316,0.2026682,1.0015708,1.0015708,0.0,0.0,0.0,0.0,0.0,0.0,0.0,0.0,12.253603,0.0,0.0,nan,0.0,0.0,0.090321384,0.0025360344,0.002542024,0.0025466767,0.0,0.0,0.0,0.0,0.0,0.0
830172000,830092000,0.090161316,0.090161316,0.2026682,1.0015708,1.0015708,0.0,0.0,0.0,0.0,0.0,0.0,0.0,0.0,12.253602,0.0,0.0,nan,0.0,0.0,0.090321384,0.0025360344,0.002542024,0.0025466767,0.0,0.0,0.0,0.0,0.0,0.0
830180000,830100000,0.090161316,0.090161316,0.2026682,1.0015708,1.0015708,0.0,0.0,0.0,0.0,0.0,0.0,0.0,0.0,12.253602,0.0,0.0,nan,0.0,0.0,0.090321384,0.0025360344,0.002542024,0.0025466767,0.0,0.0,0.0,0.0,0.0,0.0
830188000,830108000,0.090161316,0.090161316,0.2026682,1.0015708,1.0015708,0.0,0.0,0.0,0.0,0.0,0.0,0.0,0.0,12.253602,0.0,0.0,nan,0.0,0.0,0.090321384,0.0025360344,0.002542024,0.0025466767,0.0,0.0,0.0,0.0,0.0,0.0
830196000,830116000,0.090161316,0.090161316,0.2026682,1.0015708,1.0015708,0.0,0.0,0.0,0.0,0.0,0.0,0.0,0.0,12.253602,0.0,0.0,nan,0.0,0.0,0.090321384,0.0025360344,0.002542024,0.0025466767,0.0,0.0,0.0,0.0,0.0,0.0
830204000,830124000,0.090161316,0.090161316,0.2026682,1.0015708,1.0015708,0.0,0.0,0.0,0.0,0.0,0.0,0.0,0.0,12.253602,0.0,0.0,nan,0.0,0.0,0.090321384,0.0025360344,0.002542024,0.0025466767,0.0,0.0,0.0,0.0,0.0,0.0
830212000,830132000,0.090161346,0.090161346,0.2026682,1.0015692,1.0015692,0.0,0.0,0.0,0.0,0.0,0.0,0.0,0.0,12.253602,0.0,0.0,nan,0.0,0.0,0.090321384,0.0025360344,0.002542024,0.0025466767,0.0,0.0,0.0,0.0,0.0,0.0
830220000,830140000,0.090161346,0.090161346,0.2026682,1.0015692,1.0015692,0.0,0.0,0.0,0.0,0.0,0.0,0.0,0.0,12.253602,0.0,0.0,nan,0.0,0.0,0.090321384,0.0025360344,0.002542024,0.0025466767,0.0,0.0,0.0,0.0,0.0,0.0
830228000,830148000,0.090161346,0.090161346,0.2026682,1.0015692,1.0015692,0.0,0.0,0.0,0.0,0.0,0.0,0.0,0.0,12.253602,0.0,0.0,nan,0.0,0.0,0.0903214,0.0025360344,0.002542024,0.0025466767,0.0,0.0,0.0,0.0,0.0,0.0
830236000,830156000,0.090161346,0.090161346,0.2026682,1.0015692,1.0015692,0.0,0.0,0.0,0.0,0.0,0.0,0.0,0.0,12.253603,0.0,0.0,nan,0.0,0.0,0.0903214,0.0025360344,0.002542024,0.0025466767,0.0,0.0,0.0,0.0,0.0,0.0
830244000,830164000,0.090161346,0.090161346,0.2026682,1.0015692,1.0015692,0.0,0.0,0.0,0.0,0.0,0.0,0.0,0.0,12.253603,0.0,0.0,nan,0.0,0.0,0.0903214,0.0025360344,0.002542024,0.0025466767,0.0,0.0,0.0,0.0,0.0,0.0
830252000,830172000,0.090161346,0.090161346,0.2026682,1.0015692,1.0015692,0.0,0.0,0.0,0.0,0.0,0.0,0.0,0.0,12.253603,0.0,0.0,nan,0.0,0.0,0.0903214,0.0025360344,0.002542024,0.0025466767,0.0,0.0,0.0,0.0,0.0,0.0
830260000,830180000,0.090161346,0.090161346,0.2026682,1.0015692,1.0015692,0.0,0.0,0.0,0.0,0.0,0.0,0.0,0.0,12.253603,0.0,0.0,nan,0.0,0.0,0.0903214,0.0025360344,0.002542024,0.0025466767,0.0,0.0,0.0,0.0,0.0,0.0
830268000,830188000,0.090161346,0.090161346,0.2026682,1.0015692,1.0015692,0.0,0.0,0.0,0.0,0.0,0.0,0.0,0.0,12.253603,0.0,0.0,nan,0.0,0.0,0.0903214,0.0025360344,0.002542024,0.0025466767,0.0,0.0,0.0,0.0,0.0,0.0
830276000,830196000,0.090161346,0.090161346,0.2026682,1.0015692,1.0015692,0.0,0.0,0.0,0.0,0.0,0.0,0.0,0.0,12.253603,0.0,0.0,nan,0.0,0.0,0.0903214,0.0025360344,0.002542024,0.0025466767,0.0,0.0,0.0,0.0,0.0,0.0
830284000,830204000,0.090161346,0.090161346,0.2026682,1.0015692,1.0015692,0.0,0.0,0.0,0.0,0.0,0.0,0.0,0.0,12.253603,0.0,0.0,nan,0.0,0.0,0.0903214,0.0025360344,0.002542024,0.0025466767,0.0,0.0,0.0,0.0,0.0,0.0
830292000,830212000,0.090161346,0.090161346,0.2026682,1.0015692,1.0015692,0.0,0.0,0.0,0.0,0.0,0.0,0.0,0.0,12.2536,0.0,0.0,nan,0.0,0.0,0.0903214,0.0025360344,0.002542024,0.0025466767,0.0,0.0,0.0,0.0,0.0,0.0
830300000,830220000,0.090161346,0.090161346,0.2026682,1.0015692,1.0015692,0.0,0.0,0.0,0.0,0.0,0.0,0.0,0.0,12.2536,0.0,0.0,nan,0.0,0.0,0.090321414,0.0025360344,0.002542024,0.0025466767,0.0,0.0,0.0,0.0,0.0,0.0
830308000,830228000,0.090161346,0.090161346,0.2026682,1.0015692,1.0015692,0.0,0.0,0.0,0.0,0.0,0.0,0.0,0.0,12.2536,0.0,0.0,nan,0.0,0.0,0.090321414,0.0025360344,0.002542024,0.0025466767,0.0,0.0,0.0,0.0,0.0,0.0
830316000,830236000,0.090161346,0.090161346,0.2026682,1.0015692,1.0015692,0.0,0.0,0.0,0.0,0.0,0.0,0.0,0.0,12.2536,0.0,0.0,nan,0.0,0.0,0.090321414,0.0025360344,0.002542024,0.0025466767,0.0,0.0,0.0,0.0,0.0,0.0
830324000,830244000,0.090161346,0.090161346,0.2026682,1.0015692,1.0015692,0.0,0.0,0.0,0.0,0.0,0.0,0.0,0.0,12.2536,0.0,0.0,nan,0.0,0.0,0.090321414,0.0025360344,0.002542024,0.0025466767,0.0,0.0,0.0,0.0,0.0,0.0
830332000,830252000,0.090161346,0.090161346,0.2026682,1.0015692,1.0015692,0.0,0.0,0.0,0.0,0.0,0.0,0.0,0.0,12.2536,0.0,0.0,nan,0.0,0.0,0.090321414,0.0025360344,0.002542024,0.0025466767,0.0,0.0,0.0,0.0,0.0,0.0
830340000,830260000,0.090161346,0.090161346,0.2026682,1.0015692,1.0015692,0.0,0.0,0.0,0.0,0.0,0.0,0.0,0.0,12.2536,0.0,0.0,nan,0.0,0.0,0.090321414,0.0025360344,0.002542024,0.0025466767,0.0,0.0,0.0,0.0,0.0,0.0
830348000,830268000,0.090161346,0.090161346,0.2026682,1.0015692,1.0015692,0.0,0.0,0.0,0.0,0.0,0.0,0.0,0.0,12.2536,0.0,0.0,nan,0.0,0.0,0.090321414,0.0025360344,0.002542024,0.0025466767,0.0,0.0,0.0,0.0,0.0,0.0
830356000,830276000,0.090161346,0.090161346,0.2026682,1.0015692,1.0015692,0.0,0.0,0.0,0.0,0.0,0.0,0.0,0.0,12.2536,0.0,0.0,nan,0.0,0.0,0.090321414,0.0025360344,0.002542024,0.0025466767,0.0,0.0,0.0,0.0,0.0,0.0
830364000,830284000,0.090161346,0.090161346,0.2026682,1.0015692,1.0015692,0.0,0.0,0.0,0.0,0.0,0.0,0.0,0.0,12.2536,0.0,0.0,nan,0.0,0.0,0.090321414,0.0025360344,0.002542024,0.0025466767,0.0,0.0,0.0,0.0,0.0,0.0
830372000,830292000,0.090161346,0.090161346,0.2026682,1.0015692,1.0015692,0.0,0.0,0.0,0.0,0.0,0.0,0.0,0.0,12.2536,0.0,0.0,nan,0.0,0.0,0.09032143,0.0025360344,0.002542024,0.0025466767,0.0,0.0,0.0,0.0,0.0,0.0
830380000,830300000,0.090161346,0.090161346,0.2026682,1.0015692,1.0015692,0.0,0.0,0.0,0.0,0.0,0.0,0.0,0.0,12.2536,0.0,0.0,nan,0.0,0.0,0.09032143,0.0025360344,0.002542024,0.0025466767,0.0,0.0,0.0,0.0,0.0,0.0
830388000,830308000,0.090161346,0.090161346,0.2026682,1.0015692,1.0015692,0.0,0.0,0.0,0.0,0.0,0.0,0.0,0.0,12.2536,0.0,0.0,nan,0.0,0.0,0.09032143,0.0025360344,0.002542024,0.0025466767,0.0,0.0,0.0,0.0,0.0,0.0
830396000,830316000,0.090161346,0.090161346,0.2026682,1.0015692,1.0015692,0.0,0.0,0.0,0.0,0.0,0.0,0.0,0.0,12.2536,0.0,0.0,nan,0.0,0.0,0.09032143,0.0025360344,0.002542024,0.0025466767,0.0,0.0,0.0,0.0,0.0,0.0
830404000,830324000,0.090161346,0.090161346,0.2026682,1.0015692,1.0015692,0.0,0.0,0.0,0.0,0.0,0.0,0.0,0.0,12.2536,0.0,0.0,nan,0.0,0.0,0.09032143,0.0025360344,0.002542024,0.0025466767,0.0,0.0,0.0,0.0,0.0,0.0
830412000,830332000,0.090161346,0.090161346,0.2026682,1.0015692,1.0015692,0.0,0.0,0.0,0.0,0.0,0.0,0.0,0.0,12.253599,0.0,0.0,nan,0.0,0.0,0.09032143,0.0025360344,0.002542024,0.0025466767,0.0,0.0,0.0,0.0,0.0,0.0
830420000,830340000,0.090161376,0.090161376,0.2026682,1.0015675,1.0015675,0.0,0.0,0.0,0.0,0.0,0.0,0.0,0.0,12.253599,0.0,0.0,nan,0.0,0.0,0.09032143,0.0025360344,0.002542024,0.0025466767,0.0,0.0,0.0,0.0,0.0,0.0
830428000,830348000,0.090161376,0.090161376,0.2026682,1.0015675,1.0015675,0.0,0.0,0.0,0.0,0.0,0.0,0.0,0.0,12.253599,0.0,0.0,nan,0.0,0.0,0.09032143,0.0025360344,0.002542024,0.0025466767,0.0,0.0,0.0,0.0,0.0,0.0
830436000,830356000,0.090161376,0.090161376,0.2026682,1.0015675,1.0015675,0.0,0.0,0.0,0.0,0.0,0.0,0.0,0.0,12.253599,0.0,0.0,nan,0.0,0.0,0.09032143,0.0025360344,0.002542024,0.0025466767,0.0,0.0,0.0,0.0,0.0,0.0
830444000,830364000,0.090161376,0.090161376,0.2026682,1.0015675,1.0015675,0.0,0.0,0.0,0.0,0.0,0.0,0.0,0.0,12.253599,0.0,0.0,nan,0.0,0.0,0.090321444,0.0025360344,0.002542024,0.0025466767,0.0,0.0,0.0,0.0,0.0,0.0
830452000,830372000,0.090161376,0.090161376,0.2026682,1.0015675,1.0015675,0.0,0.0,0.0,0.0,0.0,0.0,0.0,0.0,12.253599,0.0,0.0,nan,0.0,0.0,0.090321444,0.0025360344,0.002542024,0.0025466767,0.0,0.0,0.0,0.0,0.0,0.0
830460000,830380000,0.090161376,0.090161376,0.2026682,1.0015675,1.0015675,0.0,0.0,0.0,0.0,0.0,0.0,0.0,0.0,12.253599,0.0,0.0,nan,0.0,0.0,0.090321444,0.0025360344,0.002542024,0.0025466767,0.0,0.0,0.0,0.0,0.0,0.0
830468000,830388000,0.090161376,0.090161376,0.2026682,1.0015675,1.0015675,0.0,0.0,0.0,0.0,0.0,0.0,0.0,0.0,12.253599,0.0,0.0,nan,0.0,0.0,0.090321444,0.0025360344,0.002542024,0.0025466767,0.0,0.0,0.0,0.0,0.0,0.0
830476000,830396000,0.090161376,0.090161376,0.2026682,1.0015675,1.0015675,0.0,0.0,0.0,0.0,0.0,0.0,0.0,0.0,12.2536,0.0,0.0,nan,0.0,0.0,0.090321444,0.0025360344,0.002542024,0.0025466767,0.0,0.0,0.0,0.0,0.0,0.0
830484000,830404000,0.090161376,0.090161376,0.2026682,1.0015675,1.0015675,0.0,0.0,0.0,0.0,0.0,0.0,0.0,0.0,12.2536,0.0,0.0,nan,0.0,0.0,0.090321444,0.0025360344,0.002542024,0.0025466767,0.0,0.0,0.0,0.0,0.0,0.0
830492000,830412000,0.090161376,0.090161376,0.2026682,1.0015675,1.0015675,0.0,0.0,0.0,0.0,0.0,0.0,0.0,0.0,12.2536,0.0,0.0,nan,0.0,0.0,0.090321444,0.0025360344,0.002542024,0.0025466767,0.0,0.0,0.0,0.0,0.0,0.0
830500000,830420000,0.090161376,0.090161376,0.2026682,1.0015675,1.0015675,0.0,0.0,0.0,0.0,0.0,0.0,0.0,0.0,12.2536,0.0,0.0,nan,0.0,0.0,0.090321444,0.0025360344,0.002542024,0.0025466767,0.0,0.0,0.0,0.0,0.0,0.0
830508000,830428000,0.090161376,0.090161376,0.2026682,1.0015675,1.0015675,0.0,0.0,0.0,0.0,0.0,0.0,0.0,0.0,12.2536,0.0,0.0,nan,0.0,0.0,0.090321444,0.0025360344,0.002542024,0.0025466767,0.0,0.0,0.0,0.0,0.0,0.0
830516000,830436000,0.090161376,0.090161376,0.2026682,1.0015675,1.0015675,0.0,0.0,0.0,0.0,0.0,0.0,0.0,0.0,12.2536,0.0,0.0,nan,0.0,0.0,0.09032145,0.0025360344,0.002542024,0.0025466767,0.0,0.0,0.0,0.0,0.0,0.0
830524000,830444000,0.090161376,0.090161376,0.2026682,1.0015675,1.0015675,0.0,0.0,0.0,0.0,0.0,0.0,0.0,0.0,12.2536,0.0,0.0,nan,0.0,0.0,0.09032145,0.0025360344,0.002542024,0.0025466767,0.0,0.0,0.0,0.0,0.0,0.0
830532000,830452000,0.090161376,0.090161376,0.2026682,1.0015675,1.0015675,0.0,0.0,0.0,0.0,0.0,0.0,0.0,0.0,12.253597,0.0,0.0,nan,0.0,0.0,0.09032145,0.0025360344,0.002542024,0.0025466767,0.0,0.0,0.0,0.0,0.0,0.0
830540000,830460000,0.090161376,0.090161376,0.2026682,1.0015675,1.0015675,0.0,0.0,0.0,0.0,0.0,0.0,0.0,0.0,12.253597,0.0,0.0,nan,0.0,0.0,0.09032145,0.0025360344,0.002542024,0.0025466767,0.0,0.0,0.0,0.0,0.0,0.0
830548000,830468000,0.090161376,0.090161376,0.2026682,1.0015675,1.0015675,0.0,0.0,0.0,0.0,0.0,0.0,0.0,0.0,12.253597,0.0,0.0,nan,0.0,0.0,0.09032145,0.0025360344,0.002542024,0.0025466767,0.0,0.0,0.0,0.0,0.0,0.0
830556000,830476000,0.090161376,0.090161376,0.2026682,1.0015675,1.0015675,0.0,0.0,0.0,0.0,0.0,0.0,0.0,0.0,12.253597,0.0,0.0,nan,0.0,0.0,0.09032145,0.0025360344,0.002542024,0.0025466767,0.0,0.0,0.0,0.0,0.0,0.0
830564000,830484000,0.090161376,0.090161376,0.2026682,1.0015675,1.0015675,0.0,0.0,0.0,0.0,0.0,0.0,0.0,0.0,12.253597,0.0,0.0,nan,0.0,0.0,0.09032145,0.0025360344,0.002542024,0.0025466767,0.0,0.0,0.0,0.0,0.0,0.0
830572000,830492000,0.090161376,0.090161376,0.2026682,1.0015675,1.0015675,0.0,0.0,0.0,0.0,0.0,0.0,0.0,0.0,12.253597,0.0,0.0,nan,0.0,0.0,0.09032145,0.0025360344,0.002542024,0.0025466767,0.0,0.0,0.0,0.0,0.0,0.0
830580000,830500000,0.090161376,0.090161376,0.2026682,1.0015675,1.0015675,0.0,0.0,0.0,0.0,0.0,0.0,0.0,0.0,12.253597,0.0,0.0,nan,0.0,0.0,0.09032145,0.0025360344,0.002542024,0.0025466767,0.0,0.0,0.0,0.0,0.0,0.0
830588000,830508000,0.090161376,0.090161376,0.2026682,1.0015675,1.0015675,0.0,0.0,0.0,0.0,0.0,0.0,0.0,0.0,12.253597,0.0,0.0,nan,0.0,0.0,0.09032147,0.0025360344,0.002542024,0.0025466767,0.0,0.0,0.0,0.0,0.0,0.0
830596000,830516000,0.090161376,0.090161376,0.2026682,1.0015675,1.0015675,0.0,0.0,0.0,0.0,0.0,0.0,0.0,0.0,12.253596,0.0,0.0,nan,0.0,0.0,0.09032147,0.0025360344,0.002542024,0.0025466767,0.0,0.0,0.0,0.0,0.0,0.0
830604000,830524000,0.090161376,0.090161376,0.2026682,1.0015675,1.0015675,0.0,0.0,0.0,0.0,0.0,0.0,0.0,0.0,12.253596,0.0,0.0,nan,0.0,0.0,0.09032147,0.0025360344,0.002542024,0.0025466767,0.0,0.0,0.0,0.0,0.0,0.0
830612000,830532000,0.090161376,0.090161376,0.2026682,1.0015675,1.0015675,0.0,0.0,0.0,0.0,0.0,0.0,0.0,0.0,12.253596,0.0,0.0,nan,0.0,0.0,0.09032147,0.0025360344,0.002542024,0.0025466767,0.0,0.0,0.0,0.0,0.0,0.0
830620000,830540000,0.090161376,0.090161376,0.2026682,1.0015675,1.0015675,0.0,0.0,0.0,0.0,0.0,0.0,0.0,0.0,12.253596,0.0,0.0,nan,0.0,0.0,0.09032147,0.0025360344,0.002542024,0.0025466767,0.0,0.0,0.0,0.0,0.0,0.0
830628000,830548000,0.090161316,0.090161316,0.2026682,1.0015658,1.0015658,0.0,0.0,0.0,0.0,0.0,0.0,0.0,0.0,12.253596,0.0,0.0,nan,0.0,0.0,0.09032147,0.0025360344,0.002542024,0.0025466767,0.0,0.0,0.0,0.0,0.0,0.0
830636000,830556000,0.090161316,0.090161316,0.2026682,1.0015658,1.0015658,0.0,0.0,0.0,0.0,0.0,0.0,0.0,0.0,12.253596,0.0,0.0,nan,0.0,0.0,0.09032147,0.0025360344,0.002542024,0.0025466767,0.0,0.0,0.0,0.0,0.0,0.0
830644000,830564000,0.090161316,0.090161316,0.2026682,1.0015658,1.0015658,0.0,0.0,0.0,0.0,0.0,0.0,0.0,0.0,12.253596,0.0,0.0,nan,0.0,0.0,0.09032147,0.0025360344,0.002542024,0.0025466767,0.0,0.0,0.0,0.0,0.0,0.0
830652000,830572000,0.090161316,0.090161316,0.2026682,1.0015658,1.0015658,0.0,0.0,0.0,0.0,0.0,0.0,0.0,0.0,12.253597,0.0,0.0,nan,0.0,0.0,0.09032147,0.0025360344,0.002542024,0.0025466767,0.0,0.0,0.0,0.0,0.0,0.0
830660000,830580000,0.090161316,0.090161316,0.2026682,1.0015658,1.0015658,0.0,0.0,0.0,0.0,0.0,0.0,0.0,0.0,12.253597,0.0,0.0,nan,0.0,0.0,0.09032148,0.0025360344,0.002542024,0.0025466767,0.0,0.0,0.0,0.0,0.0,0.0
830668000,830588000,0.090161316,0.090161316,0.2026682,1.0015658,1.0015658,0.0,0.0,0.0,0.0,0.0,0.0,0.0,0.0,12.253597,0.0,0.0,nan,0.0,0.0,0.09032148,0.0025360344,0.002542024,0.0025466767,0.0,0.0,0.0,0.0,0.0,0.0
830676000,830596000,0.090161316,0.090161316,0.2026682,1.0015658,1.0015658,0.0,0.0,0.0,0.0,0.0,0.0,0.0,0.0,12.253597,0.0,0.0,nan,0.0,0.0,0.09032148,0.0025360344,0.002542024,0.0025466767,0.0,0.0,0.0,0.0,0.0,0.0
830684000,830604000,0.090161316,0.090161316,0.2026682,1.0015658,1.0015658,0.0,0.0,0.0,0.0,0.0,0.0,0.0,0.0,12.253597,0.0,0.0,nan,0.0,0.0,0.09032148,0.0025360344,0.002542024,0.0025466767,0.0,0.0,0.0,0.0,0.0,0.0
830692000,830612000,0.090161316,0.090161316,0.2026682,1.0015658,1.0015658,0.0,0.0,0.0,0.0,0.0,0.0,0.0,0.0,12.253597,0.0,0.0,nan,0.0,0.0,0.09032148,0.0025360344,0.002542024,0.0025466767,0.0,0.0,0.0,0.0,0.0,0.0
830700000,830620000,0.090161316,0.090161316,0.2026682,1.0015658,1.0015658,0.0,0.0,0.0,0.0,0.0,0.0,0.0,0.0,12.253597,0.0,0.0,nan,0.0,0.0,0.09032148,0.0025360344,0.002542024,0.0025466767,0.0,0.0,0.0,0.0,0.0,0.0
830708000,830628000,0.090161316,0.090161316,0.2026682,1.0015658,1.0015658,0.0,0.0,0.0,0.0,0.0,0.0,0.0,0.0,12.253597,0.0,0.0,nan,0.0,0.0,0.09032148,0.0025360344,0.002542024,0.0025466767,0.0,0.0,0.0,0.0,0.0,0.0
830716000,830636000,0.090161316,0.090161316,0.2026682,1.0015658,1.0015658,0.0,0.0,0.0,0.0,0.0,0.0,0.0,0.0,12.253594,0.0,0.0,nan,0.0,0.0,0.09032148,0.0025360344,0.002542024,0.0025466767,0.0,0.0,0.0,0.0,0.0,0.0
830724000,830644000,0.090161316,0.090161316,0.2026682,1.0015658,1.0015658,0.0,0.0,0.0,0.0,0.0,0.0,0.0,0.0,12.253594,0.0,0.0,nan,0.0,0.0,0.09032148,0.0025360344,0.002542024,0.0025466767,0.0,0.0,0.0,0.0,0.0,0.0
830732000,830652000,0.090161316,0.090161316,0.2026682,1.0015658,1.0015658,0.0,0.0,0.0,0.0,0.0,0.0,0.0,0.0,12.253594,0.0,0.0,nan,0.0,0.0,0.09032149,0.0025360344,0.002542024,0.0025466767,0.0,0.0,0.0,0.0,0.0,0.0
830740000,830660000,0.090161316,0.090161316,0.2026682,1.0015658,1.0015658,0.0,0.0,0.0,0.0,0.0,0.0,0.0,0.0,12.253594,0.0,0.0,nan,0.0,0.0,0.09032149,0.0025360344,0.002542024,0.0025466767,0.0,0.0,0.0,0.0,0.0,0.0
830748000,830668000,0.090161316,0.090161316,0.2026682,1.0015658,1.0015658,0.0,0.0,0.0,0.0,0.0,0.0,0.0,0.0,12.253594,0.0,0.0,nan,0.0,0.0,0.09032149,0.0025360344,0.002542024,0.0025466767,0.0,0.0,0.0,0.0,0.0,0.0
830756000,830676000,0.090161316,0.090161316,0.2026682,1.0015658,1.0015658,0.0,0.0,0.0,0.0,0.0,0.0,0.0,0.0,12.253594,0.0,0.0,nan,0.0,0.0,0.09032149,0.0025360344,0.002542024,0.0025466767,0.0,0.0,0.0,0.0,0.0,0.0
830764000,830684000,0.090161316,0.090161316,0.2026682,1.0015658,1.0015658,0.0,0.0,0.0,0.0,0.0,0.0,0.0,0.0,12.253594,0.0,0.0,nan,0.0,0.0,0.09032149,0.0025360344,0.002542024,0.0025466767,0.0,0.0,0.0,0.0,0.0,0.0
830772000,830692000,0.090161316,0.090161316,0.2026682,1.0015658,1.0015658,0.0,0.0,0.0,0.0,0.0,0.0,0.0,0.0,12.253593,0.0,0.0,nan,0.0,0.0,0.09032149,0.0025360344,0.002542024,0.0025466767,0.0,0.0,0.0,0.0,0.0,0.0
830780000,830700000,0.090161316,0.090161316,0.2026682,1.0015658,1.0015658,0.0,0.0,0.0,0.0,0.0,0.0,0.0,0.0,12.253593,0.0,0.0,nan,0.0,0.0,0.09032149,0.0025360344,0.002542024,0.0025466767,0.0,0.0,0.0,0.0,0.0,0.0
830788000,830708000,0.090161316,0.090161316,0.2026682,1.0015658,1.0015658,0.0,0.0,0.0,0.0,0.0,0.0,0.0,0.0,12.253593,0.0,0.0,nan,0.0,0.0,0.09032149,0.0025360344,0.002542024,0.0025466767,0.0,0.0,0.0,0.0,0.0,0.0
830796000,830716000,0.090161316,0.090161316,0.2026682,1.0015658,1.0015658,0.0,0.0,0.0,0.0,0.0,0.0,0.0,0.0,12.253593,0.0,0.0,nan,0.0,0.0,0.09032149,0.0025360344,0.002542024,0.0025466767,0.0,0.0,0.0,0.0,0.0,0.0
830804000,830724000,0.090161316,0.090161316,0.2026682,1.0015658,1.0015658,0.0,0.0,0.0,0.0,0.0,0.0,0.0,0.0,12.253593,0.0,0.0,nan,0.0,0.0,0.090321496,0.0025360344,0.002542024,0.0025466767,0.0,0.0,0.0,0.0,0.0,0.0
830812000,830732000,0.090161316,0.090161316,0.2026682,1.0015658,1.0015658,0.0,0.0,0.0,0.0,0.0,0.0,0.0,0.0,12.253593,0.0,0.0,nan,0.0,0.0,0.090321496,0.0025360344,0.002542024,0.0025466767,0.0,0.0,0.0,0.0,0.0,0.0
830820000,830740000,0.090161316,0.090161316,0.2026682,1.0015658,1.0015658,0.0,0.0,0.0,0.0,0.0,0.0,0.0,0.0,12.253593,0.0,0.0,nan,0.0,0.0,0.090321496,0.0025360344,0.002542024,0.0025466767,0.0,0.0,0.0,0.0,0.0,0.0
830828000,830748000,0.090161316,0.090161316,0.2026682,1.0015658,1.0015658,0.0,0.0,0.0,0.0,0.0,0.0,0.0,0.0,12.253593,0.0,0.0,nan,0.0,0.0,0.090321496,0.0025360344,0.002542024,0.0025466767,0.0,0.0,0.0,0.0,0.0,0.0
830836000,830756000,0.090161316,0.090161316,0.2026682,1.0015658,1.0015658,0.0,0.0,0.0,0.0,0.0,0.0,0.0,0.0,12.253593,0.0,0.0,nan,0.0,0.0,0.090321496,0.0025360344,0.002542024,0.0025466767,0.0,0.0,0.0,0.0,0.0,0.0
830844000,830764000,0.090161316,0.090161316,0.2026682,1.0015658,1.0015658,0.0,0.0,0.0,0.0,0.0,0.0,0.0,0.0,12.253593,0.0,0.0,nan,0.0,0.0,0.090321496,0.0025360344,0.002542024,0.0025466767,0.0,0.0,0.0,0.0,0.0,0.0
830852000,830772000,0.090161316,0.090161316,0.2026682,1.0015658,1.0015658,0.0,0.0,0.0,0.0,0.0,0.0,0.0,0.0,12.253593,0.0,0.0,nan,0.0,0.0,0.090321496,0.0025360344,0.002542024,0.0025466767,0.0,0.0,0.0,0.0,0.0,0.0
830860000,830780000,0.090161316,0.090161316,0.2026682,1.0015658,1.0015658,0.0,0.0,0.0,0.0,0.0,0.0,0.0,0.0,12.253593,0.0,0.0,nan,0.0,0.0,0.090321496,0.0025360344,0.002542024,0.0025466767,0.0,0.0,0.0,0.0,0.0,0.0
830868000,830788000,0.090161316,0.090161316,0.2026682,1.0015658,1.0015658,0.0,0.0,0.0,0.0,0.0,0.0,0.0,0.0,12.253593,0.0,0.0,nan,0.0,0.0,0.090321496,0.0025360344,0.002542024,0.0025466767,0.0,0.0,0.0,0.0,0.0,0.0
830876000,830796000,0.090161316,0.090161316,0.2026682,1.0015658,1.0015658,0.0,0.0,0.0,0.0,0.0,0.0,0.0,0.0,12.253593,0.0,0.0,nan,0.0,0.0,0.09032151,0.0025360344,0.002542024,0.0025466767,0.0,0.0,0.0,0.0,0.0,0.0
830884000,830804000,0.090161316,0.090161316,0.2026682,1.0015658,1.0015658,0.0,0.0,0.0,0.0,0.0,0.0,0.0,0.0,12.253593,0.0,0.0,nan,0.0,0.0,0.09032151,0.0025360344,0.002542024,0.0025466767,0.0,0.0,0.0,0.0,0.0,0.0
830892000,830812000,0.090161316,0.090161316,0.2026682,1.0015658,1.0015658,0.0,0.0,0.0,0.0,0.0,0.0,0.0,0.0,12.253594,0.0,0.0,nan,0.0,0.0,0.09032151,0.0025360344,0.002542024,0.0025466767,0.0,0.0,0.0,0.0,0.0,0.0
830900000,830820000,0.090161316,0.090161316,0.2026682,1.0015658,1.0015658,0.0,0.0,0.0,0.0,0.0,0.0,0.0,0.0,12.253594,0.0,0.0,nan,0.0,0.0,0.09032151,0.0025360344,0.002542024,0.0025466767,0.0,0.0,0.0,0.0,0.0,0.0
830908000,830828000,0.090161316,0.090161316,0.2026682,1.0015658,1.0015658,0.0,0.0,0.0,0.0,0.0,0.0,0.0,0.0,12.253594,0.0,0.0,nan,0.0,0.0,0.09032151,0.0025360344,0.002542024,0.0025466767,0.0,0.0,0.0,0.0,0.0,0.0
830916000,830836000,0.090161316,0.090161316,0.2026682,1.0015658,1.0015658,0.0,0.0,0.0,0.0,0.0,0.0,0.0,0.0,12.253594,0.0,0.0,nan,0.0,0.0,0.09032151,0.0025360344,0.002542024,0.0025466767,0.0,0.0,0.0,0.0,0.0,0.0
830924000,830844000,0.090161316,0.090161316,0.2026682,1.0015658,1.0015658,0.0,0.0,0.0,0.0,0.0,0.0,0.0,0.0,12.253594,0.0,0.0,nan,0.0,0.0,0.09032151,0.0025360344,0.002542024,0.0025466767,0.0,0.0,0.0,0.0,0.0,0.0
830932000,830852000,0.090161316,0.090161316,0.2026682,1.0015658,1.0015658,0.0,0.0,0.0,0.0,0.0,0.0,0.0,0.0,12.253594,0.0,0.0,nan,0.0,0.0,0.09032151,0.0025360344,0.002542024,0.0025466767,0.0,0.0,0.0,0.0,0.0,0.0
830940000,830860000,0.090161316,0.090161316,0.2026682,1.0015658,1.0015658,0.0,0.0,0.0,0.0,0.0,0.0,0.0,0.0,12.253594,0.0,0.0,nan,0.0,0.0,0.09032151,0.0025360344,0.002542024,0.0025466767,0.0,0.0,0.0,0.0,0.0,0.0
830948000,830868000,0.090161316,0.090161316,0.2026682,1.0015658,1.0015658,0.0,0.0,0.0,0.0,0.0,0.0,0.0,0.0,12.253594,0.0,0.0,nan,0.0,0.0,0.090321526,0.0025360344,0.002542024,0.0025466767,0.0,0.0,0.0,0.0,0.0,0.0
830956000,830876000,0.090161316,0.090161316,0.2026682,1.0015658,1.0015658,0.0,0.0,0.0,0.0,0.0,0.0,0.0,0.0,12.253592,0.0,0.0,nan,0.0,0.0,0.090321526,0.0025360344,0.002542024,0.0025466767,0.0,0.0,0.0,0.0,0.0,0.0
830964000,830884000,0.090161316,0.090161316,0.2026682,1.0015658,1.0015658,0.0,0.0,0.0,0.0,0.0,0.0,0.0,0.0,12.253592,0.0,0.0,nan,0.0,0.0,0.090321526,0.0025360344,0.002542024,0.0025466767,0.0,0.0,0.0,0.0,0.0,0.0
830972000,830892000,0.090161316,0.090161316,0.2026682,1.0015658,1.0015658,0.0,0.0,0.0,0.0,0.0,0.0,0.0,0.0,12.253592,0.0,0.0,nan,0.0,0.0,0.090321526,0.0025360344,0.002542024,0.0025466767,0.0,0.0,0.0,0.0,0.0,0.0
830980000,830900000,0.090161316,0.090161316,0.2026682,1.0015658,1.0015658,0.0,0.0,0.0,0.0,0.0,0.0,0.0,0.0,12.253592,0.0,0.0,nan,0.0,0.0,0.090321526,0.0025360344,0.002542024,0.0025466767,0.0,0.0,0.0,0.0,0.0,0.0
830988000,830908000,0.090161316,0.090161316,0.2026682,1.0015658,1.0015658,0.0,0.0,0.0,0.0,0.0,0.0,0.0,0.0,12.253592,0.0,0.0,nan,0.0,0.0,0.090321526,0.0025360344,0.002542024,0.0025466767,0.0,0.0,0.0,0.0,0.0,0.0
830996000,830916000,0.090161316,0.090161316,0.2026682,1.0015658,1.0015658,0.0,0.0,0.0,0.0,0.0,0.0,0.0,0.0,12.253592,0.0,0.0,nan,0.0,0.0,0.090321526,0.0025360344,0.002542024,0.0025466767,0.0,0.0,0.0,0.0,0.0,0.0
831004000,830924000,0.09011693,0.09011693,0.20262071,1.0015643,1.0015643,0.0,0.0,0.0,0.0,0.0,0.0,0.0,0.0,12.253592,0.0,0.0,nan,0.0,0.0,0.090321526,0.0025360344,0.002542024,0.0025466767,0.0,0.0,0.0,0.0,0.0,0.0
831012000,830932000,0.09011693,0.09011693,0.20262071,1.0015643,1.0015643,0.0,0.0,0.0,0.0,0.0,0.0,0.0,0.0,12.253591,0.0,0.0,nan,0.0,0.0,0.090321526,0.0025360344,0.002542024,0.0025466767,0.0,0.0,0.0,0.0,0.0,0.0
831020000,830940000,0.09011693,0.09011693,0.20262071,1.0015643,1.0015643,0.0,0.0,0.0,0.0,0.0,0.0,0.0,0.0,12.253591,0.0,0.0,nan,0.0,0.0,0.09032154,0.0025360344,0.002542024,0.0025466767,0.0,0.0,0.0,0.0,0.0,0.0
831028000,830948000,0.09011693,0.09011693,0.20262071,1.0015643,1.0015643,0.0,0.0,0.0,0.0,0.0,0.0,0.0,0.0,12.253591,0.0,0.0,nan,0.0,0.0,0.09032154,0.0025360344,0.002542024,0.0025466767,0.0,0.0,0.0,0.0,0.0,0.0
831036000,830956000,0.09011693,0.09011693,0.20262071,1.0015643,1.0015643,0.0,0.0,0.0,0.0,0.0,0.0,0.0,0.0,12.253591,0.0,0.0,nan,0.0,0.0,0.09032154,0.0025360344,0.002542024,0.0025466767,0.0,0.0,0.0,0.0,0.0,0.0
831044000,830964000,0.09011693,0.09011693,0.20262071,1.0015643,1.0015643,0.0,0.0,0.0,0.0,0.0,0.0,0.0,0.0,12.253591,0.0,0.0,nan,0.0,0.0,0.09032154,0.0025360344,0.002542024,0.0025466767,0.0,0.0,0.0,0.0,0.0,0.0
831052000,830972000,0.09011693,0.09011693,0.20262071,1.0015643,1.0015643,0.0,0.0,0.0,0.0,0.0,0.0,0.0,0.0,12.253591,0.0,0.0,nan,0.0,0.0,0.09032154,0.0025360344,0.002542024,0.0025466767,0.0,0.0,0.0,0.0,0.0,0.0
831060000,830980000,0.09011693,0.09011693,0.20262071,1.0015643,1.0015643,0.0,0.0,0.0,0.0,0.0,0.0,0.0,0.0,12.253591,0.0,0.0,nan,0.0,0.0,0.09032154,0.0025360344,0.002542024,0.0025466767,0.0,0.0,0.0,0.0,0.0,0.0
831068000,830988000,0.09011693,0.09011693,0.20262071,1.0015643,1.0015643,0.0,0.0,0.0,0.0,0.0,0.0,0.0,0.0,12.253591,0.0,0.0,nan,0.0,0.0,0.09032154,0.0025360344,0.002542024,0.0025466767,0.0,0.0,0.0,0.0,0.0,0.0
831076000,830996000,0.09011693,0.09011693,0.20262071,1.0015643,1.0015643,0.0,0.0,0.0,0.0,0.0,0.0,0.0,0.0,12.253592,0.0,0.0,nan,0.0,0.0,0.09032154,0.0025360344,0.002542024,0.0025466767,0.0,0.0,0.0,0.0,0.0,0.0
831084000,831004000,0.09011693,0.09011693,0.20262071,1.0015643,1.0015643,0.0,0.0,0.0,0.0,0.0,0.0,0.0,0.0,12.253592,0.0,0.0,nan,0.0,0.0,0.09032143,0.0025360344,0.002542024,0.0025466767,0.0,0.0,0.0,0.0,0.0,0.0
831092000,831012000,0.09011693,0.09011693,0.20262071,1.0015643,1.0015643,0.0,0.0,0.0,0.0,0.0,0.0,0.0,0.0,12.253592,0.0,0.0,nan,0.0,0.0,0.09032143,0.0025360344,0.002542024,0.0025466767,0.0,0.0,0.0,0.0,0.0,0.0
831100000,831020000,0.09011693,0.09011693,0.20262071,1.0015643,1.0015643,0.0,0.0,0.0,0.0,0.0,0.0,0.0,0.0,12.253592,0.0,0.0,nan,0.0,0.0,0.09032143,0.0025360344,0.002542024,0.0025466767,0.0,0.0,0.0,0.0,0.0,0.0
831108000,831028000,0.09011693,0.09011693,0.20262071,1.0015643,1.0015643,0.0,0.0,0.0,0.0,0.0,0.0,0.0,0.0,12.253592,0.0,0.0,nan,0.0,0.0,0.09032143,0.0025360344,0.002542024,0.0025466767,0.0,0.0,0.0,0.0,0.0,0.0
831116000,831036000,0.09011693,0.09011693,0.20262071,1.0015643,1.0015643,0.0,0.0,0.0,0.0,0.0,0.0,0.0,0.0,12.253592,0.0,0.0,nan,0.0,0.0,0.09032143,0.0025360344,0.002542024,0.0025466767,0.0,0.0,0.0,0.0,0.0,0.0
831124000,831044000,0.09011693,0.09011693,0.20262071,1.0015643,1.0015643,0.0,0.0,0.0,0.0,0.0,0.0,0.0,0.0,12.253592,0.0,0.0,nan,0.0,0.0,0.09032143,0.0025360344,0.002542024,0.0025466767,0.0,0.0,0.0,0.0,0.0,0.0
831132000,831052000,0.09011693,0.09011693,0.20262071,1.0015643,1.0015643,0.0,0.0,0.0,0.0,0.0,0.0,0.0,0.0,12.253589,0.0,0.0,nan,0.0,0.0,0.09032143,0.0025360344,0.002542024,0.0025466767,0.0,0.0,0.0,0.0,0.0,0.0
831140000,831060000,0.09011693,0.09011693,0.20262071,1.0015643,1.0015643,0.0,0.0,0.0,0.0,0.0,0.0,0.0,0.0,12.253589,0.0,0.0,nan,0.0,0.0,0.09032143,0.0025360344,0.002542024,0.0025466767,0.0,0.0,0.0,0.0,0.0,0.0
831148000,831068000,0.09011693,0.09011693,0.20262071,1.0015643,1.0015643,0.0,0.0,0.0,0.0,0.0,0.0,0.0,0.0,12.253589,0.0,0.0,nan,0.0,0.0,0.09032143,0.0025360344,0.002542024,0.0025466767,0.0,0.0,0.0,0.0,0.0,0.0
831156000,831076000,0.09011693,0.09011693,0.20262071,1.0015643,1.0015643,0.0,0.0,0.0,0.0,0.0,0.0,0.0,0.0,12.253589,0.0,0.0,nan,0.0,0.0,0.090321444,0.0025360344,0.002542024,0.0025466767,0.0,0.0,0.0,0.0,0.0,0.0
831164000,831084000,0.09011693,0.09011693,0.20262071,1.0015643,1.0015643,0.0,0.0,0.0,0.0,0.0,0.0,0.0,0.0,12.253589,0.0,0.0,nan,0.0,0.0,0.090321444,0.0025360344,0.002542024,0.0025466767,0.0,0.0,0.0,0.0,0.0,0.0
831172000,831092000,0.09011693,0.09011693,0.20262071,1.0015643,1.0015643,0.0,0.0,0.0,0.0,0.0,0.0,0.0,0.0,12.253589,0.0,0.0,nan,0.0,0.0,0.090321444,0.0025360344,0.002542024,0.0025466767,0.0,0.0,0.0,0.0,0.0,0.0
831180000,831100000,0.09011693,0.09011693,0.20262071,1.0015643,1.0015643,0.0,0.0,0.0,0.0,0.0,0.0,0.0,0.0,12.253589,0.0,0.0,nan,0.0,0.0,0.090321444,0.0025360344,0.002542024,0.0025466767,0.0,0.0,0.0,0.0,0.0,0.0
831188000,831108000,0.09011693,0.09011693,0.20262071,1.0015643,1.0015643,0.0,0.0,0.0,0.0,0.0,0.0,0.0,0.0,12.253589,0.0,0.0,nan,0.0,0.0,0.090321444,0.0025360344,0.002542024,0.0025466767,0.0,0.0,0.0,0.0,0.0,0.0
831196000,831116000,0.09011693,0.09011693,0.20262071,1.0015643,1.0015643,0.0,0.0,0.0,0.0,0.0,0.0,0.0,0.0,12.253588,0.0,0.0,nan,0.0,0.0,0.090321444,0.0025360344,0.002542024,0.0025466767,0.0,0.0,0.0,0.0,0.0,0.0
831204000,831124000,0.09011693,0.09011693,0.20262071,1.0015643,1.0015643,0.0,0.0,0.0,0.0,0.0,0.0,0.0,0.0,12.253588,0.0,0.0,nan,0.0,0.0,0.090321444,0.0025360344,0.002542024,0.0025466767,0.0,0.0,0.0,0.0,0.0,0.0
831212000,831132000,0.09011693,0.09011693,0.20262071,1.0015643,1.0015643,0.0,0.0,0.0,0.0,0.0,0.0,0.0,0.0,12.253588,0.0,0.0,nan,0.0,0.0,0.090321444,0.0025360344,0.002542024,0.0025466767,0.0,0.0,0.0,0.0,0.0,0.0
831220000,831140000,0.09011693,0.09011693,0.20262071,1.0015643,1.0015643,0.0,0.0,0.0,0.0,0.0,0.0,0.0,0.0,12.253588,0.0,0.0,nan,0.0,0.0,0.090321444,0.0025360344,0.002542024,0.0025466767,0.0,0.0,0.0,0.0,0.0,0.0
831228000,831148000,0.09011693,0.09011693,0.20262071,1.0015643,1.0015643,0.0,0.0,0.0,0.0,0.0,0.0,0.0,0.0,12.253588,0.0,0.0,nan,0.0,0.0,0.090321444,0.0025360344,0.002542024,0.0025466767,0.0,0.0,0.0,0.0,0.0,0.0
831236000,831156000,0.09011693,0.09011693,0.20262071,1.0015643,1.0015643,0.0,0.0,0.0,0.0,0.0,0.0,0.0,0.0,12.253588,0.0,0.0,nan,0.0,0.0,0.090321444,0.0025360344,0.002542024,0.0025466767,0.0,0.0,0.0,0.0,0.0,0.0
831244000,831164000,0.09011693,0.09011693,0.20262071,1.0015643,1.0015643,0.0,0.0,0.0,0.0,0.0,0.0,0.0,0.0,12.253588,0.0,0.0,nan,0.0,0.0,0.090321444,0.0025360344,0.002542024,0.0025466767,0.0,0.0,0.0,0.0,0.0,0.0
831252000,831172000,0.09011693,0.09011693,0.20262071,1.0015643,1.0015643,0.0,0.0,0.0,0.0,0.0,0.0,0.0,0.0,12.253588,0.0,0.0,nan,0.0,0.0,0.090321444,0.0025360344,0.002542024,0.0025466767,0.0,0.0,0.0,0.0,0.0,0.0
831260000,831180000,0.09011693,0.09011693,0.20262071,1.0015643,1.0015643,0.0,0.0,0.0,0.0,0.0,0.0,0.0,0.0,12.253588,0.0,0.0,nan,0.0,0.0,0.090321444,0.0025360344,0.002542024,0.0025466767,0.0,0.0,0.0,0.0,0.0,0.0
831268000,831188000,0.09011693,0.09011693,0.20262071,1.0015643,1.0015643,0.0,0.0,0.0,0.0,0.0,0.0,0.0,0.0,12.253588,0.0,0.0,nan,0.0,0.0,0.090321444,0.0025360344,0.002542024,0.0025466767,0.0,0.0,0.0,0.0,0.0,0.0
831276000,831196000,0.09011693,0.09011693,0.20262071,1.0015643,1.0015643,0.0,0.0,0.0,0.0,0.0,0.0,0.0,0.0,12.253588,0.0,0.0,nan,0.0,0.0,0.090321444,0.0025360344,0.002542024,0.0025466767,0.0,0.0,0.0,0.0,0.0,0.0
831284000,831204000,0.09011693,0.09011693,0.20262071,1.0015643,1.0015643,0.0,0.0,0.0,0.0,0.0,0.0,0.0,0.0,12.253588,0.0,0.0,nan,0.0,0.0,0.090321444,0.0025360344,0.002542024,0.0025466767,0.0,0.0,0.0,0.0,0.0,0.0
831292000,831212000,0.09011693,0.09011693,0.20262071,1.0015643,1.0015643,0.0,0.0,0.0,0.0,0.0,0.0,0.0,0.0,12.253588,0.0,0.0,nan,0.0,0.0,0.090321444,0.0025360344,0.002542024,0.0025466767,0.0,0.0,0.0,0.0,0.0,0.0
831300000,831220000,0.09011693,0.09011693,0.20262071,1.0015643,1.0015643,0.0,0.0,0.0,0.0,0.0,0.0,0.0,0.0,12.253588,0.0,0.0,nan,0.0,0.0,0.090321474,0.0025360344,0.002542024,0.0025466767,0.0,0.0,0.0,0.0,0.0,0.0
831308000,831228000,0.09011693,0.09011693,0.20262071,1.0015643,1.0015643,0.0,0.0,0.0,0.0,0.0,0.0,0.0,0.0,12.253588,0.0,0.0,nan,0.0,0.0,0.090321474,0.0025360344,0.002542024,0.0025466767,0.0,0.0,0.0,0.0,0.0,0.0
831316000,831236000,0.09011693,0.09011693,0.20262071,1.0015643,1.0015643,0.0,0.0,0.0,0.0,0.0,0.0,0.0,0.0,12.253587,0.0,0.0,nan,0.0,0.0,0.090321474,0.0025360344,0.002542024,0.0025466767,0.0,0.0,0.0,0.0,0.0,0.0
831324000,831244000,0.09011693,0.09011693,0.20262071,1.0015643,1.0015643,0.0,0.0,0.0,0.0,0.0,0.0,0.0,0.0,12.253587,0.0,0.0,nan,0.0,0.0,0.090321474,0.0025360344,0.002542024,0.0025466767,0.0,0.0,0.0,0.0,0.0,0.0
831332000,831252000,0.09011693,0.09011693,0.20262071,1.0015643,1.0015643,0.0,0.0,0.0,0.0,0.0,0.0,0.0,0.0,12.253587,0.0,0.0,nan,0.0,0.0,0.090321474,0.0025360344,0.002542024,0.0025466767,0.0,0.0,0.0,0.0,0.0,0.0
831340000,831260000,0.09011693,0.09011693,0.20262071,1.0015643,1.0015643,0.0,0.0,0.0,0.0,0.0,0.0,0.0,0.0,12.253587,0.0,0.0,nan,0.0,0.0,0.090321474,0.0025360344,0.002542024,0.0025466767,0.0,0.0,0.0,0.0,0.0,0.0
831348000,831268000,0.09011693,0.09011693,0.20262071,1.0015643,1.0015643,0.0,0.0,0.0,0.0,0.0,0.0,0.0,0.0,12.253587,0.0,0.0,nan,0.0,0.0,0.090321474,0.0025360344,0.002542024,0.0025466767,0.0,0.0,0.0,0.0,0.0,0.0
831356000,831276000,0.09011693,0.09011693,0.20262071,1.0015643,1.0015643,0.0,0.0,0.0,0.0,0.0,0.0,0.0,0.0,12.253587,0.0,0.0,nan,0.0,0.0,0.090321474,0.0025360344,0.002542024,0.0025466767,0.0,0.0,0.0,0.0,0.0,0.0
831364000,831284000,0.09011693,0.09011693,0.20262071,1.0015643,1.0015643,0.0,0.0,0.0,0.0,0.0,0.0,0.0,0.0,12.253587,0.0,0.0,nan,0.0,0.0,0.090321474,0.0025360344,0.002542024,0.0025466767,0.0,0.0,0.0,0.0,0.0,0.0
831372000,831292000,0.09011693,0.09011693,0.20262071,1.0015643,1.0015643,0.0,0.0,0.0,0.0,0.0,0.0,0.0,0.0,12.253586,0.0,0.0,nan,0.0,0.0,0.09032149,0.0025360344,0.002542024,0.0025466767,0.0,0.0,0.0,0.0,0.0,0.0
831380000,831300000,0.09011693,0.09011693,0.20262071,1.0015643,1.0015643,0.0,0.0,0.0,0.0,0.0,0.0,0.0,0.0,12.253586,0.0,0.0,nan,0.0,0.0,0.09032149,0.0025360344,0.002542024,0.0025466767,0.0,0.0,0.0,0.0,0.0,0.0
831388000,831308000,0.09011693,0.09011693,0.20262071,1.0015643,1.0015643,0.0,0.0,0.0,0.0,0.0,0.0,0.0,0.0,12.253586,0.0,0.0,nan,0.0,0.0,0.09032149,0.0025360344,0.002542024,0.0025466767,0.0,0.0,0.0,0.0,0.0,0.0
831396000,831316000,0.09011693,0.09011693,0.20262071,1.0015643,1.0015643,0.0,0.0,0.0,0.0,0.0,0.0,0.0,0.0,12.253586,0.0,0.0,nan,0.0,0.0,0.09032149,0.0025360344,0.002542024,0.0025466767,0.0,0.0,0.0,0.0,0.0,0.0
831404000,831324000,0.09011693,0.09011693,0.20262071,1.0015643,1.0015643,0.0,0.0,0.0,0.0,0.0,0.0,0.0,0.0,12.253586,0.0,0.0,nan,0.0,0.0,0.09032149,0.0025360344,0.002542024,0.0025466767,0.0,0.0,0.0,0.0,0.0,0.0
831412000,831332000,0.09010824,0.09010824,0.20261152,1.0015633,1.0015633,0.0,0.0,0.0,0.0,0.0,0.0,0.0,0.0,12.253586,0.0,0.0,nan,0.0,0.0,0.09032149,0.0025360344,0.002542024,0.0025466767,0.0,0.0,0.0,0.0,0.0,0.0
831420000,831340000,0.09010824,0.09010824,0.20261152,1.0015633,1.0015633,0.0,0.0,0.0,0.0,0.0,0.0,0.0,0.0,12.253586,0.0,0.0,nan,0.0,0.0,0.09032149,0.0025360344,0.002542024,0.0025466767,0.0,0.0,0.0,0.0,0.0,0.0
831428000,831348000,0.09010824,0.09010824,0.20261152,1.0015633,1.0015633,0.0,0.0,0.0,0.0,0.0,0.0,0.0,0.0,12.253586,0.0,0.0,nan,0.0,0.0,0.09032149,0.0025360344,0.002542024,0.0025466767,0.0,0.0,0.0,0.0,0.0,0.0
831436000,831356000,0.09010824,0.09010824,0.20261152,1.0015633,1.0015633,0.0,0.0,0.0,0.0,0.0,0.0,0.0,0.0,12.253585,0.0,0.0,nan,0.0,0.0,0.09032149,0.0025360344,0.002542024,0.0025466767,0.0,0.0,0.0,0.0,0.0,0.0
831444000,831364000,0.09010824,0.09010824,0.20261152,1.0015633,1.0015633,0.0,0.0,0.0,0.0,0.0,0.0,0.0,0.0,12.253585,0.0,0.0,nan,0.0,0.0,0.090321496,0.0025360344,0.002542024,0.0025466767,0.0,0.0,0.0,0.0,0.0,0.0
831452000,831372000,0.09010824,0.09010824,0.20261152,1.0015633,1.0015633,0.0,0.0,0.0,0.0,0.0,0.0,0.0,0.0,12.253585,0.0,0.0,nan,0.0,0.0,0.090321496,0.0025360344,0.002542024,0.0025466767,0.0,0.0,0.0,0.0,0.0,0.0
831460000,831380000,0.09010824,0.09010824,0.20261152,1.0015633,1.0015633,0.0,0.0,0.0,0.0,0.0,0.0,0.0,0.0,12.253585,0.0,0.0,nan,0.0,0.0,0.090321496,0.0025360344,0.002542024,0.0025466767,0.0,0.0,0.0,0.0,0.0,0.0
831468000,831388000,0.09010824,0.09010824,0.20261152,1.0015633,1.0015633,0.0,0.0,0.0,0.0,0.0,0.0,0.0,0.0,12.253585,0.0,0.0,nan,0.0,0.0,0.090321496,0.0025360344,0.002542024,0.0025466767,0.0,0.0,0.0,0.0,0.0,0.0
831476000,831396000,0.09010824,0.09010824,0.20261152,1.0015633,1.0015633,0.0,0.0,0.0,0.0,0.0,0.0,0.0,0.0,12.253585,0.0,0.0,nan,0.0,0.0,0.090321496,0.0025360344,0.002542024,0.0025466767,0.0,0.0,0.0,0.0,0.0,0.0
831484000,831404000,0.09010824,0.09010824,0.20261152,1.0015633,1.0015633,0.0,0.0,0.0,0.0,0.0,0.0,0.0,0.0,12.253585,0.0,0.0,nan,0.0,0.0,0.090321496,0.0025360344,0.002542024,0.0025466767,0.0,0.0,0.0,0.0,0.0,0.0
831492000,831412000,0.09010824,0.09010824,0.20261152,1.0015633,1.0015633,0.0,0.0,0.0,0.0,0.0,0.0,0.0,0.0,12.253586,0.0,0.0,nan,0.0,0.0,0.090321496,0.0025360344,0.002542024,0.0025466767,0.0,0.0,0.0,0.0,0.0,0.0
831500000,831420000,0.09010824,0.09010824,0.20261152,1.0015633,1.0015633,0.0,0.0,0.0,0.0,0.0,0.0,0.0,0.0,12.253586,0.0,0.0,nan,0.0,0.0,0.090321496,0.0025360344,0.002542024,0.0025466767,0.0,0.0,0.0,0.0,0.0,0.0
831508000,831428000,0.09010824,0.09010824,0.20261152,1.0015633,1.0015633,0.0,0.0,0.0,0.0,0.0,0.0,0.0,0.0,12.253586,0.0,0.0,nan,0.0,0.0,0.090321496,0.0025360344,0.002542024,0.0025466767,0.0,0.0,0.0,0.0,0.0,0.0
831516000,831436000,0.09010824,0.09010824,0.20261152,1.0015633,1.0015633,0.0,0.0,0.0,0.0,0.0,0.0,0.0,0.0,12.253586,0.0,0.0,nan,0.0,0.0,0.09032152,0.0025360344,0.002542024,0.0025466767,0.0,0.0,0.0,0.0,0.0,0.0
831524000,831444000,0.09010824,0.09010824,0.20261152,1.0015633,1.0015633,0.0,0.0,0.0,0.0,0.0,0.0,0.0,0.0,12.253586,0.0,0.0,nan,0.0,0.0,0.09032152,0.0025360344,0.002542024,0.0025466767,0.0,0.0,0.0,0.0,0.0,0.0
831532000,831452000,0.09010824,0.09010824,0.20261152,1.0015633,1.0015633,0.0,0.0,0.0,0.0,0.0,0.0,0.0,0.0,12.253586,0.0,0.0,nan,0.0,0.0,0.09032152,0.0025360344,0.002542024,0.0025466767,0.0,0.0,0.0,0.0,0.0,0.0
831540000,831460000,0.09010824,0.09010824,0.20261152,1.0015633,1.0015633,0.0,0.0,0.0,0.0,0.0,0.0,0.0,0.0,12.253586,0.0,0.0,nan,0.0,0.0,0.09032152,0.0025360344,0.002542024,0.0025466767,0.0,0.0,0.0,0.0,0.0,0.0
831548000,831468000,0.09010824,0.09010824,0.20261152,1.0015633,1.0015633,0.0,0.0,0.0,0.0,0.0,0.0,0.0,0.0,12.253586,0.0,0.0,nan,0.0,0.0,0.09032152,0.0025360344,0.002542024,0.0025466767,0.0,0.0,0.0,0.0,0.0,0.0
