timestamp,timestamp_sample,gyro_device_id,gyro_bias[0],gyro_bias[1],gyro_bias[2],gyro_bias_limit,gyro_bias_variance[0],gyro_bias_variance[1],gyro_bias_variance[2],accel_device_id,accel_bias[0],accel_bias[1],accel_bias[2],accel_bias_limit,accel_bias_variance[0],accel_bias_variance[1],accel_bias_variance[2],mag_device_id,mag_bias[0],mag_bias[1],mag_bias[2],mag_bias_limit,mag_bias_variance[0],mag_bias_variance[1],mag_bias_variance[2],gyro_bias_valid,gyro_bias_stable,accel_bias_valid,accel_bias_stable,mag_bias_valid,mag_bias_stable
828808000,828728000,1311004,0.00030737795,-0.0023714392,0.0012483997,0.34906584,1.3787479e-07,1.3787398e-07,3.595598e-07,1311004,0.020428468,0.012426694,-0.13731073,0.4,0.0018054155,0.0018046764,0.00078123936,197644,0.00406333,-0.0007098313,-5.653436e-05,0.5,3.5968034e-05,6.187747e-05,0.00011926411,1,1,1,0,1,0
829432000,829352000,1311004,0.0003192252,-0.002361613,0.0012460954,0.34906584,1.3787749e-07,1.3787592e-07,3.5994026e-07,1311004,0.020431386,0.012432309,-0.13441537,0.4,0.0018054559,0.0018047148,0.00078123936,197644,0.00406333,-0.0007098313,-5.653436e-05,0.5,3.5968034e-05,6.187747e-05,0.00011926411,1,1,1,0,1,0
829640000,829560000,1311004,0.00031056892,-0.0023561602,0.0012438124,0.34906584,1.3787214e-07,1.3787248e-07,3.5987338e-07,1311004,0.020433698,0.012435152,-0.13572668,0.4,0.0018054692,0.0018047256,0.00078123936,197644,0.00406333,-0.0007098313,-5.653436e-05,0.5,3.5968034e-05,6.187747e-05,0.00011926411,1,1,1,0,1,0
829848000,829768000,1311004,0.00031147816,-0.0023583013,0.0012432196,0.34906584,1.3787677e-07,1.3787636e-07,3.5980977e-07,1311004,0.020432513,0.012436437,-0.13348773,0.4,0.0018054829,0.0018047396,0.00078123936,197644,0.00406333,-0.0007098313,-5.653436e-05,0.5,3.5968034e-05,6.187747e-05,0.00011926411,1,1,1,0,1,0
830264000,830184000,1311004,0.0003152344,-0.002366993,0.0012428649,0.34906584,1.378834e-07,1.378806e-07,3.5967884e-07,1311004,0.020429904,0.012437906,-0.12995994,0.4,0.0018055104,0.0018047679,0.00078123936,197644,0.00406333,-0.0007098313,-5.653436e-05,0.5,3.5968034e-05,6.187747e-05,0.00011926411,1,1,1,0,1,0
830472000,830392000,1311004,0.00032214305,-0.0023542023,0.001241861,0.34906584,1.3787356e-07,1.3787167e-07,3.5961654e-07,1311004,0.020437663,0.012433968,-0.13249749,0.4,0.0018055185,0.0018047784,0.00078123936,197644,0.00406333,-0.0007098313,-5.653436e-05,0.5,3.5968034e-05,6.187747e-05,0.00011926411,1,1,1,0,1,0
830680000,830600000,1311004,0.00031372698,-0.002360875,0.0012396054,0.34906584,1.3787884e-07,1.3787708e-07,3.5954665e-07,1311004,0.0204338,0.012435999,-0.13024989,0.4,0.0018055316,0.0018047907,0.00078123936,197644,0.00406333,-0.0007098313,-5.653436e-05,0.5,3.5968034e-05,6.187747e-05,0.00011926411,1,1,1,0,1,0
831512000,831432000,1311004,0.0003354605,-0.0023914722,0.0012342295,0.34906584,1.378828e-07,1.378727e-07,3.598542e-07,1311004,0.020428892,0.012424182,-0.12914732,0.4,0.0018055825,0.0018048447,0.00078123936,197644,0.00406333,-0.0007098313,-5.653436e-05,0.5,3.5968034e-05,6.187747e-05,0.00011926411,1,1,1,0,1,0
831928000,831848000,1311004,0.0003360868,-0.0024022555,0.001232353,0.34906584,1.3787616e-07,1.3786475e-07,3.597222e-07,1311004,0.02042658,0.012422451,-0.13191856,0.4,0.0018056057,0.0018048688,0.00078123936,197644,0.00406333,-0.0007098313,-5.653436e-05,0.5,3.5968034e-05,6.187747e-05,0.00011926411,1,1,1,0,1,0
832136000,832056000,1311004,0.00034107713,-0.0023999761,0.0012299223,0.34906584,1.3788255e-07,1.3787121e-07,3.596597e-07,1311004,0.02042721,0.012420745,-0.12893741,0.4,0.0018056183,0.0018048807,0.00078123936,197644,0.00406333,-0.0007098313,-5.653436e-05,0.5,3.5968034e-05,6.187747e-05,0.00011926411,1,1,1,0,1,0
832344000,832264000,1311004,0.00033703723,-0.0023920606,0.0012280112,0.34906584,1.3787356e-07,1.3786472e-07,3.59595e-07,1311004,0.020429462,0.012425542,-0.13199179,0.4,0.001805628,0.0018048912,0.00078123936,197644,0.00406333,-0.0007098313,-5.653436e-05,0.5,3.5968034e-05,6.187747e-05,0.00011926411,1,1,1,0,1,0
832552000,832472000,1311004,0.0003378317,-0.002401502,0.001227927,0.34906584,1.3787084e-07,1.3786025e-07,3.6010323e-07,1311004,0.020428902,0.012422911,-0.13441694,0.4,0.0018056384,0.0018049035,0.00078123936,197644,0.00406333,-0.0007098313,-5.653436e-05,0.5,3.5968034e-05,6.187747e-05,0.00011926411,1,1,1,0,1,0
832760000,832680000,1311004,0.0003302225,-0.0023999214,0.0012248225,0.34906584,1.3786968e-07,1.3786087e-07,3.6003752e-07,1311004,0.020427754,0.012423208,-0.13548277,0.4,0.001805653,0.0018049171,0.00078123936,197644,0.00406333,-0.0007098313,-5.653436e-05,0.5,3.5968034e-05,6.187747e-05,0.00011926411,1,1,1,0,1,0
833384000,833304000,1311004,0.00033864877,-0.0023862473,0.001218334,0.34906584,1.3786745e-07,1.378604e-07,3.598524e-07,1311004,0.020432297,0.01242819,-0.13733509,0.4,0.0018056955,0.0018049604,0.00078123936,197644,0.00406333,-0.0007098313,-5.653436e-05,0.5,3.5968034e-05,6.187747e-05,0.00011926411,1,1,1,0,1,0
833800000,833720000,1311004,0.0003533072,-0.0023684823,0.0012145314,0.34906584,1.3786962e-07,1.3786348e-07,3.597247e-07,1311004,0.020431748,0.012433988,-0.13629554,0.4,0.001805722,0.0018049876,0.00078123936,197644,0.00406333,-0.0007098313,-5.653436e-05,0.5,3.5968034e-05,6.187747e-05,0.00011926411,1,1,1,0,1,0
834008000,833928000,1311004,0.0003624416,-0.002367533,0.0012126293,0.34906584,1.3786472e-07,1.3785736e-07,3.5966198e-07,1311004,0.020439427,0.012432322,-0.13894822,0.4,0.0018057346,0.0018049992,0.00078123936,197644,0.00406333,-0.0007098313,-5.653436e-05,0.5,3.5968034e-05,6.187747e-05,0.00011926411,1,1,1,0,1,0
834424000,834344000,1311004,0.00036642642,-0.0023715785,0.0012115438,0.34906584,1.3786489e-07,1.3785628e-07,3.6011022e-07,1311004,0.02044356,0.012429211,-0.14095885,0.4,0.0018057626,0.0018050284,0.00078123936,197644,0.00406333,-0.0007098313,-5.653436e-05,0.5,3.5968034e-05,6.187747e-05,0.00011926411,1,1,1,0,1,0
834632000,834552000,1311004,0.0003737097,-0.0023723007,0.0012090098,0.34906584,1.378719e-07,1.378621e-07,3.6004792e-07,1311004,0.02044417,0.012433387,-0.13888335,0.4,0.0018057753,0.0018050409,0.00078123936,197644,0.00406333,-0.0007098313,-5.653436e-05,0.5,3.5968034e-05,6.187747e-05,0.00011926411,1,1,1,0,1,0
835048000,834968000,1311004,0.00038198073,-0.0023770977,0.0012072491,0.34906584,1.3787158e-07,1.3785998e-07,3.5991968e-07,1311004,0.020448739,0.012431054,-0.14026734,0.4,0.0018058032,0.001805069,0.00078123936,197644,0.00406333,-0.0007098313,-5.653436e-05,0.5,3.5968034e-05,6.187747e-05,0.00011926411,1,1,1,0,1,0
835464000,835384000,1311004,0.00040331998,-0.0023846123,0.0012040312,0.34906584,1.3787906e-07,1.3786338e-07,3.5978152e-07,1311004,0.020455237,0.012436739,-0.13855729,0.4,0.0018058277,0.001805095,0.00078123936,197644,0.00406333,-0.0007098313,-5.653436e-05,0.5,3.5968034e-05,6.187747e-05,0.00011926411,1,1,1,0,1,0
835672000,835592000,1311004,0.00040566083,-0.0023854387,0.0012018809,0.34906584,1.37882e-07,1.3786608e-07,3.602913e-07,1311004,0.020456003,0.012439122,-0.13747539,0.4,0.0018058422,0.0018051091,0.00078123936,197644,0.00406333,-0.0007098313,-5.653436e-05,0.5,3.5968034e-05,6.187747e-05,0.00011926411,1,1,1,0,1,0
835880000,835800000,1311004,0.00041606245,-0.0023916245,0.0012017561,0.34906584,1.378804e-07,1.3786217e-07,3.6021996e-07,1311004,0.020458318,0.012435088,-0.13861421,0.4,0.0018058558,0.0018051229,0.00078123936,197644,0.00406333,-0.0007098313,-5.653436e-05,0.5,3.5968034e-05,6.187747e-05,0.00011926411,1,1,1,0,1,0
836880000,836800000,1311004,0.0004185952,-0.0023909349,0.0011922289,0.34906584,1.4411965e-07,1.441026e-07,3.6014677e-07,1311004,0.02046052,0.012432767,-0.13902913,0.4,0.0018059278,0.0018051949,0.00078123936,197644,0.00406333,-0.0007098313,-5.653436e-05,0.5,3.5968034e-05,6.187747e-05,0.00011926411,1,0,1,0,1,0
837808000,837728000,1311004,0.00042300232,-0.0023900487,0.0011843325,0.34906584,1.5028871e-07,1.5027281e-07,3.6006267e-07,1311004,0.020546047,0.012289229,-0.14026211,0.4,0.0018051811,0.0018044474,0.00078123936,197644,0.00406333,-0.0007098313,-5.653436e-05,0.5,3.5968034e-05,6.187747e-05,0.00011926411,1,0,1,0,1,0
838808000,838728000,1311004,0.00043699218,-0.0023992066,0.0011778495,0.34906584,1.547646e-07,1.5474848e-07,3.6228943e-07,1311004,0.020476982,0.012109297,-0.13886,0.4,0.001802639,0.0018019091,0.00078123936,197644,0.00406333,-0.0007098313,-5.653436e-05,0.5,0.0025000002,0.0025000002,0.0025000002,1,0,1,0,1,0
839416000,839336000,1311004,0.00044349543,-0.002405328,0.0011783045,0.34906584,1.5773045e-07,1.5771396e-07,3.671492e-07,1311004,0.021284034,0.0127071375,-0.1391275,0.4,0.0017751983,0.001774502,0.00078123936,197644,0.00406333,-0.0007098313,-5.653436e-05,0.5,0.0025000002,0.0025000002,0.0025000002,1,0,1,0,1,0
839832000,839752000,1311004,0.00045006585,-0.0024084358,0.0011787243,0.34906584,1.5955396e-07,1.5953745e-07,3.7047087e-07,1311004,0.021839283,0.013701738,-0.13915117,0.4,0.001720106,0.0017194669,0.00078123936,197644,0.00406333,-0.0007098313,-5.653436e-05,0.5,0.0025000002,0.0025000002,0.0025000002,1,0,1,0,1,0
840408000,840328000,1311004,0.0004535243,-0.002412569,0.0011792412,0.34906584,1.6296441e-07,1.6294814e-07,3.7506524e-07,1311004,0.022937525,0.014256111,-0.13840823,0.4,0.0016275248,0.0016269686,0.00078123936,197644,0.00406333,-0.0007098313,-5.653436e-05,0.5,0.0025000002,0.0025000002,0.0025000002,1,0,1,0,1,0
840824000,840744000,1311004,0.00045611075,-0.0024163204,0.0011796572,0.34906584,1.6544804e-07,1.6543183e-07,3.7837725e-07,1311004,0.024122514,0.014747735,-0.13828245,0.4,0.0015373316,0.0015368584,0.00078123936,197644,0.00406333,-0.0007098313,-5.653436e-05,0.5,0.0025000002,0.0025000002,0.0025000002,1,0,1,0,1,0
841808000,841728000,1311004,0.00045586552,-0.0024150573,0.0011801927,0.34906584,1.7236621e-07,1.7234957e-07,3.8618865e-07,1311004,0.022520658,0.013543299,-0.13991793,0.4,0.0014122338,0.0014118543,0.00078123936,197644,0.00406333,-0.0007098313,-5.653436e-05,0.5,0.0025000002,0.0025000002,0.0025000002,1,0,1,0,1,0
842016000,841936000,1311004,0.00045466927,-0.0024129534,0.0011800211,0.34906584,1.7377712e-07,1.7375876e-07,3.8784023e-07,1311004,0.021094711,0.012544382,-0.14079587,0.4,0.0013797795,0.0013797157,0.00078123936,197644,0.00406333,-0.0007098313,-5.653436e-05,0.5,0.0025000002,0.0025000002,0.0025000002,1,0,1,0,1,0
842224000,842144000,1311004,0.00045294783,-0.0024111052,0.0011802713,0.34906584,1.75224e-07,1.7520249e-07,3.89484e-07,1311004,0.019861786,0.011259173,-0.14108904,0.4,0.0013539505,0.0013544828,0.00078123936,197644,0.00406333,-0.0007098313,-5.653436e-05,0.5,0.0025000002,0.0025000002,0.0025000002,1,0,1,0,1,0
842432000,842352000,1311004,0.00045087383,-0.0024095871,0.0011804815,0.34906584,1.76697e-07,1.7667085e-07,3.9112592e-07,1311004,0.018910315,0.009881672,-0.14188276,0.4,0.0013331131,0.0013344919,0.00078123936,197644,0.00406333,-0.0007098313,-5.653436e-05,0.5,0.0025000002,0.0025000002,0.0025000002,1,0,1,0,1,0
842520000,842440000,1311004,0.0004508656,-0.0024095713,0.0011803668,0.34906584,1.7740093e-07,1.7737473e-07,3.9182223e-07,1311004,0.018905176,0.009871415,-0.14185558,0.4,0.001333105,0.0013344343,0.00078123994,197644,0.0046563125,-0.00082754134,0.00084342266,0.5,0.0014170364,0.0015607735,0.0016221339,1,0,1,0,1,0
842800000,842720000,1311004,0.00044739404,-0.0024074072,0.0011802833,0.34906584,1.7944248e-07,1.794071e-07,3.9406208e-07,1311004,0.017991042,0.008224511,-0.14269859,0.4,0.0013142404,0.0013170268,0.00078123936,197644,0.0047406703,-0.0012413185,0.0009976235,0.5,0.0008555097,0.0011626175,0.001292318,1,0,1,0,1,0
843008000,842928000,1311004,0.00044349366,-0.0024060667,0.0011799188,0.34906584,1.809287e-07,1.80882e-07,3.9572535e-07,1311004,0.017533872,0.006533078,-0.14371687,0.4,0.0012991074,0.0013035565,0.00078123936,197644,0.0047327443,-0.0010856264,0.00093603786,0.5,0.0007213072,0.0010753829,0.001221746,1,0,1,0,1,0
843216000,843136000,1311004,0.00043957258,-0.002405126,0.0011792256,0.34906584,1.8242696e-07,1.8236685e-07,3.973868e-07,1311004,0.017408531,0.0050032297,-0.14516437,0.4,0.0012866652,0.0012928302,0.00078123936,197644,0.004365256,-0.0013575004,0.0009472797,0.5,0.0006595003,0.0010378798,0.0011916927,1,0,1,0,1,0
843424000,843344000,1311004,0.00043616415,-0.0024035831,0.0011781468,0.34906584,1.8393015e-07,1.8385434e-07,3.9904432e-07,1311004,0.017129036,0.0038097156,-0.14630955,0.4,0.001276192,0.0012840561,0.00078123936,197644,0.0045790076,-0.0017047568,0.0010501242,0.5,0.0006235952,0.0010164757,0.0011755446,1,0,1,0,1,0
843632000,843552000,1311004,0.00043242367,-0.0024026232,0.0011767241,0.34906584,1.8542674e-07,1.8533191e-07,4.0069003e-07,1311004,0.01699797,0.0026930904,-0.14683788,0.4,0.0012671612,0.0012765832,0.00078123936,197644,0.0046107946,-0.0019390378,0.0009679008,0.5,0.0005998038,0.0010021157,0.0011658807,1,0,1,0,1,0
844008000,843928000,1311004,0.00042881042,-0.002402136,0.0011749147,0.34906584,1.8818456e-07,1.8805893e-07,4.0363315e-07,1311004,0.017156221,0.0018116845,-0.14763269,0.4,0.0012582258,0.0012690467,0.00078123936,197644,0.0048513785,-0.0022432045,0.00086647697,0.5,0.00057474396,0.0009867464,0.0011555146,1,0,1,0,1,0
844408000,844328000,1311004,0.0004252417,-0.002401485,0.0011729199,0.34906584,1.9103375e-07,1.9086836e-07,4.0671847e-07,1311004,0.0173356,0.0010907262,-0.14865756,0.4,0.001249558,0.0012619508,0.00078123936,197644,0.00484785,-0.0024547311,0.0009791667,0.5,0.0005580999,0.0009779643,0.0011494498,1,0,1,0,1,0
844616000,844536000,1311004,0.000421376,-0.0023995205,0.0011700334,0.34906584,1.9235047e-07,1.9214785e-07,4.082568e-07,1311004,0.0175823,0.00039256015,-0.150047,0.4,0.0012422143,0.0012561779,0.00078123936,197644,0.0050351503,-0.0025107907,0.0010185153,0.5,0.00055021007,0.00097462704,0.0011469374,1,0,1,0,1,0
844824000,844744000,1311004,0.00041808363,-0.0023986823,0.0011679973,0.34906584,1.9364688e-07,1.934085e-07,4.0977002e-07,1311004,0.018004904,-0.00020952552,-0.15169235,0.4,0.0012357751,0.0012513038,0.00078123936,197644,0.004903709,-0.0025509745,0.0010575394,0.5,0.00054338254,0.00097216264,0.0011449385,1,0,1,0,1,0
845032000,844952000,1311004,0.0004155256,-0.0023981966,0.0011660305,0.34906584,1.9491023e-07,1.9463724e-07,4.112525e-07,1311004,0.018540848,-0.00079010124,-0.15335827,0.4,0.0012300368,0.0012471407,0.00078123936,197644,0.0049321097,-0.0027518328,0.0011231353,0.5,0.0005371272,0.00097013224,0.0011433281,1,0,1,0,1,0
845400000,845320000,1311004,0.0004150626,-0.0023978108,0.0011649027,0.34906584,1.972602e-07,1.9694626e-07,4.1390257e-07,1311004,0.019201037,-0.0011152856,-0.15505992,0.4,0.0012242773,0.0012431907,0.00078123936,197644,0.0053001777,-0.002828626,0.0011217867,0.5,0.00052806915,0.00096771325,0.0011410317,1,0,1,0,1,0
845608000,845528000,1311004,0.00041561198,-0.0023974772,0.0011655099,0.34906584,1.9831255e-07,1.9795803e-07,4.1526042e-07,1311004,0.01975995,-0.0012614878,-0.15667751,0.4,0.0012191331,0.0012399398,0.00078123936,197644,0.0051058102,-0.0027855863,0.0011740699,0.5,0.00052339805,0.00096668897,0.0011398148,1,0,1,0,1,0
845816000,845736000,1311004,0.00041453275,-0.0023979691,0.0011651696,0.34906584,1.993197e-07,1.9892477e-07,4.1658433e-07,1311004,0.02025738,-0.0014152119,-0.1579021,0.4,0.0012143702,0.0012371662,0.00078123936,197644,0.0050529437,-0.0027072174,0.0011427202,0.5,0.0005189196,0.00096587854,0.0011389012,1,0,1,0,1,0
846016000,845936000,1311004,0.00041762285,-0.00239828,0.0011671364,0.34906584,2.002159e-07,1.9977975e-07,4.1781027e-07,1311004,0.021096505,-0.0015588879,-0.15995608,0.4,0.001209957,0.0012347985,0.00078123936,197644,0.005161453,-0.0027421727,0.0010757091,0.5,0.00051461835,0.00096517964,0.0011381236,1,0,1,0,1,0
846232000,846152000,1311004,0.00041904656,-0.0023967472,0.0011674542,0.34906584,2.012103e-07,2.0072268e-07,4.1900984e-07,1311004,0.02175199,-0.0017671934,-0.16183071,0.4,0.0012057095,0.0012321683,0.00078123936,197644,0.0051615774,-0.0027422325,0.0010757466,0.5,0.00051461835,0.00096517964,0.0011381236,1,0,1,0,1,0
846608000,846528000,1311004,0.0004233026,-0.0023958236,0.0011695628,0.34906584,2.0319652e-07,2.0263397e-07,4.2125643e-07,1311004,0.022511113,-0.0019269,-0.16394904,0.4,0.001201244,0.0012294062,0.00078123936,197644,0.0051615774,-0.0027422325,0.0010757466,0.5,0.00051461835,0.00096517964,0.0011381236,1,0,1,0,1,0
847008000,846928000,1311004,0.00043140614,-0.002393715,0.0011742648,0.34906584,2.0502938e-07,2.0435924e-07,4.2354813e-07,1311004,0.023174712,-0.0019867,-0.16592309,0.4,0.0011965961,0.001226969,0.00078123936,197644,0.0051615774,-0.0027422325,0.0010757466,0.5,0.00051461835,0.00096517964,0.0011381236,1,0,1,0,1,0
847216000,847136000,1311004,0.0004351683,-0.0023934534,0.0011773051,0.34906584,2.0533899e-07,2.0455325e-07,4.2442005e-07,1311004,0.024066746,-0.0021596681,-0.1681932,0.4,0.001192363,0.0012252241,0.00078123936,197644,0.0051615774,-0.0027422325,0.0010757466,0.5,0.00051461835,0.00096517964,0.0011381236,1,0,1,0,1,0
847424000,847344000,1311004,0.00043876987,-0.002390707,0.0011785293,0.34906584,2.0563704e-07,2.047262e-07,4.2530027e-07,1311004,0.024985904,-0.0024503751,-0.17068598,0.4,0.0011884102,0.0012237558,0.00078123936,197644,0.0051615774,-0.0027422325,0.0010757466,0.5,0.00051461835,0.00096517964,0.0011381236,1,0,1,0,1,0
847632000,847552000,1311004,0.00044218625,-0.002389248,0.0011802473,0.34906584,2.0590339e-07,2.0485656e-07,4.2618197e-07,1311004,0.025595328,-0.0026192118,-0.17234707,0.4,0.0011846415,0.0012225036,0.00078123936,197644,0.0051615774,-0.0027422325,0.0010757466,0.5,0.00051461835,0.00096517964,0.0011381236,1,0,1,0,1,0
848000000,847920000,1311004,0.00044771712,-0.0023879604,0.0011840082,0.34906584,2.0708137e-07,2.0585779e-07,4.2812607e-07,1311004,0.026322726,-0.0027842391,-0.17435876,0.4,0.0011807074,0.0012211851,0.00078123936,197644,0.0051615774,-0.0027422325,0.0010757466,0.5,0.00051461835,0.00096517964,0.0011381236,1,0,1,0,1,0
848208000,848128000,1311004,0.00045556948,-0.002385277,0.0011887529,0.34906584,2.0699764e-07,2.0558768e-07,4.288983e-07,1311004,0.02703699,-0.0029704077,-0.17640859,0.4,0.0011771217,0.0012202293,0.00078123936,197644,0.0051615774,-0.0027422325,0.0010757466,0.5,0.00051461835,0.00096517964,0.0011381236,1,0,1,0,1,0
848416000,848336000,1311004,0.00046305475,-0.002385419,0.0011938317,0.34906584,2.069095e-07,2.0530575e-07,4.2968205e-07,1311004,0.027633213,-0.0031101843,-0.17812222,0.4,0.0011736794,0.0012193713,0.00078123936,197644,0.0051615774,-0.0027422325,0.0010757466,0.5,0.00051461835,0.00096517964,0.0011381236,1,0,1,0,1,0
848616000,848536000,1311004,0.00046712882,-0.0023838372,0.0011955547,0.34906584,2.0675034e-07,2.0494711e-07,4.3041382e-07,1311004,0.028131116,-0.0032913052,-0.17954151,0.4,0.0011704606,0.0012186001,0.00078123936,197644,0.0051615774,-0.0027422325,0.0010757466,0.5,0.00051461835,0.00096517964,0.0011381236,1,0,1,0,1,0
848832000,848752000,1311004,0.00047108738,-0.0023812742,0.001197632,0.34906584,2.0666673e-07,2.0465372e-07,4.3126767e-07,1311004,0.028711267,-0.0034843462,-0.18120341,0.4,0.0011673463,0.0012178826,0.00078123936,197644,0.0051615774,-0.0027422325,0.0010757466,0.5,0.00051461835,0.00096517964,0.0011381236,1,0,1,0,1,0
849208000,849128000,1311004,0.0004756102,-0.0023802358,0.0012008203,0.34906584,2.0742083e-07,2.0515812e-07,4.3317146e-07,1311004,0.029133182,-0.0036071104,-0.18249227,0.4,0.0011640505,0.0012170216,0.00078123936,197644,0.0051615774,-0.0027422325,0.0010757466,0.5,0.00051461835,0.00096517964,0.0011381236,1,0,1,0,1,0
849608000,849528000,1311004,0.00047980523,-0.0023808046,0.0012035384,0.34906584,2.078984e-07,2.0533889e-07,4.350587e-07,1311004,0.029608112,-0.003762456,-0.18399182,0.4,0.0011605993,0.0012160857,0.00078123936,197644,0.0051615774,-0.0027422325,0.0010757466,0.5,0.00051461835,0.00096517964,0.0011381236,1,0,1,0,1,0
849816000,849736000,1311004,0.0004848438,-0.0023783168,0.0012057698,0.34906584,2.0701371e-07,2.0414754e-07,4.3559714e-07,1311004,0.029974382,-0.0039237854,-0.18520248,0.4,0.0011575494,0.0012153949,0.00078123936,197644,0.0051615774,-0.0027422325,0.0010757466,0.5,0.00051461835,0.00096517964,0.0011381236,1,0,1,0,1,0
850024000,849944000,1311004,0.0004900077,-0.002376615,0.0012087327,0.34906584,2.062292e-07,2.0306527e-07,4.3618346e-07,1311004,0.030371724,-0.004076143,-0.18651594,0.4,0.0011547491,0.0012147361,0.00078123936,197644,0.0051615774,-0.0027422325,0.0010757466,0.5,0.00051461835,0.00096517964,0.0011381236,1,0,1,0,1,0
850232000,850152000,1311004,0.00049295195,-0.0023755904,0.0012108712,0.34906584,2.0551855e-07,2.0205201e-07,4.3684673e-07,1311004,0.030713977,-0.0041816276,-0.187617,0.4,0.0011521304,0.0012141519,0.00078123936,197644,0.0051615774,-0.0027422325,0.0010757466,0.5,0.00051461835,0.00096517964,0.0011381236,1,0,1,0,1,0
850808000,850728000,1311004,0.0004957628,-0.0023840207,0.0012137634,0.34906584,2.049528e-07,2.0080068e-07,4.3898507e-07,1311004,0.031111086,-0.0042585926,-0.18904804,0.4,0.0011469173,0.0012127688,0.00078123936,197644,0.0051615774,-0.0027422325,0.0010757466,0.5,0.00051461835,0.00096517964,0.0011381236,1,0,1,0,1,0
851224000,851144000,1311004,0.00050688256,-0.0024180068,0.0012284074,0.34906584,2.0416003e-07,1.9900824e-07,4.398648e-07,1311004,0.031349815,-0.0040311697,-0.19024901,0.4,0.0011429859,0.0012117523,0.00078123936,197644,0.0051615774,-0.0027422325,0.0010757466,0.5,0.00051461835,0.00096517964,0.0011381236,1,0,1,0,1,0
851320000,851240000,1311004,0.0005069016,-0.0024183297,0.0012285084,0.34906584,2.0477749e-07,1.9971061e-07,4.4054605e-07,1311004,0.031340554,-0.004043898,-0.19034518,0.4,0.0011418979,0.0012103483,0.00078123936,197644,0.0047393898,-0.0031458836,-0.000122056874,0.5,0.00043311814,0.0007551356,0.00087208906,1,0,1,0,1,0
851808000,851728000,1311004,0.0005390601,-0.0024630725,0.0012728028,0.34906584,2.0503579e-07,1.9829703e-07,4.41548e-07,1311004,0.03156325,-0.0032706677,-0.19161756,0.4,0.0011375339,0.0012076359,0.00078123936,197644,0.005719618,-0.002760107,-0.00083199126,0.5,0.00025713223,0.0005265311,0.0006356672,1,0,1,0,1,0
852416000,852336000,1311004,0.00060266396,-0.0024801213,0.0013383966,0.34906584,2.0621533e-07,1.9656235e-07,4.43338e-07,1311004,0.031634983,-0.0028032418,-0.19205467,0.4,0.0011358074,0.0012062503,0.00078123936,197644,0.006957904,-0.0031345172,-0.0014900907,0.5,0.00020846077,0.0004852121,0.00059574586,1,0,1,0,1,0
853200000,853120000,1311004,0.0006844359,-0.0024548343,0.0013907343,0.34906584,2.0695505e-07,1.9336787e-07,4.470679e-07,1311004,0.032012895,-0.0032491002,-0.19036093,0.4,0.0011335334,0.0012047994,0.00078123936,197644,0.007476799,-0.0032045664,-0.0014769352,0.5,0.00017761061,0.00045833204,0.00057324296,1,0,1,0,1,0
853408000,853328000,1311004,0.0007033329,-0.0024445648,0.001397756,0.34906584,2.0632532e-07,1.9175083e-07,4.4828795e-07,1311004,0.0322844,-0.0035188484,-0.18884592,0.4,0.0011324045,0.0012043637,0.00078123936,197644,0.007537882,-0.0031722363,-0.0013638019,0.5,0.00017222633,0.00045279867,0.0005661185,1,0,1,0,1,0
853608000,853528000,1311004,0.0007156363,-0.0024349997,0.0014015922,0.34906584,2.0556469e-07,1.9022224e-07,4.495613e-07,1311004,0.032590784,-0.0037432336,-0.18736239,0.4,0.0011311319,0.0012039442,0.00078123936,197644,0.0075837197,-0.0031353766,-0.0013111011,0.5,0.00016789713,0.00044836185,0.00056091574,1,0,1,0,1,0
853824000,853744000,1311004,0.00072285556,-0.0024219274,0.0014031492,0.34906584,2.0481541e-07,1.8890984e-07,4.510601e-07,1311004,0.032972913,-0.003938556,-0.1859714,0.4,0.0011296584,0.0012035394,0.00078123936,197644,0.007613319,-0.0031353584,-0.0011948402,0.5,0.00016536057,0.0004458039,0.0005576455,1,0,1,0,1,0
854032000,853952000,1311004,0.0007271648,-0.0024088807,0.0014045623,0.34906584,2.0386703e-07,1.8763292e-07,4.525504e-07,1311004,0.033363692,-0.004093294,-0.18459919,0.4,0.0011279997,0.0012031101,0.00078123936,197644,0.007488459,-0.0029779477,-0.0012801611,0.5,0.0001619667,0.0004425001,0.0005524212,1,0,1,0,1,0
854400000,854320000,1311004,0.0007258423,-0.0023921907,0.0014045425,0.34906584,2.0339674e-07,1.8721232e-07,4.553534e-07,1311004,0.033849325,-0.0041924696,-0.18327174,0.4,0.00112581,0.0012025551,0.00078123936,197644,0.007429674,-0.0029840788,-0.0012020124,0.5,0.00015701535,0.00043815444,0.0005418526,1,0,1,0,1,0
854808000,854728000,1311004,0.0007196153,-0.0023750947,0.0014040859,0.34906584,2.0231883e-07,1.866264e-07,4.5848904e-07,1311004,0.034618847,-0.004277661,-0.18109666,0.4,0.0011231313,0.0012018415,0.00078123936,197644,0.0074602133,-0.0030715119,-0.000949056,0.5,0.00015204475,0.00043432417,0.0005289637,1,0,1,0,1,0
855016000,854936000,1311004,0.00071412744,-0.0023590615,0.0014043618,0.34906584,1.999158e-07,1.8480557e-07,4.6007628e-07,1311004,0.03529562,-0.004331999,-0.17923374,0.4,0.0011205724,0.0012011667,0.00078123936,197644,0.0074246665,-0.0030888163,-0.0008574746,0.5,0.00014983688,0.00043269756,0.00052306044,1,0,1,0,1,0
855224000,855144000,1311004,0.0007072638,-0.0023452637,0.0014043325,0.34906584,1.9769904e-07,1.8325119e-07,4.6166147e-07,1311004,0.035933807,-0.0043536825,-0.17749767,0.4,0.0011180632,0.0012005041,0.00078123936,197644,0.0074610133,-0.0032075406,-0.00071133353,0.5,0.00014782781,0.0004312213,0.00051768724,1,0,1,0,1,0
855432000,855352000,1311004,0.0006956946,-0.0023364471,0.001404274,0.34906584,1.955659e-07,1.81917e-07,4.630737e-07,1311004,0.036544096,-0.00432677,-0.17567025,0.4,0.0011156155,0.0011998297,0.00078123936,197644,0.0074610133,-0.0032075406,-0.00071133353,0.5,0.00014782781,0.0004312213,0.00051768724,1,0,1,0,1,0
856112000,856032000,1311004,0.00066884665,-0.0022010454,0.0014180642,0.34906584,1.8925695e-07,1.7920019e-07,4.6726086e-07,1311004,0.03654369,-0.0043271454,-0.17567025,0.4,0.0011155279,0.0011997605,0.0007812411,197644,0.0071583902,-0.0031909887,0.0006135113,0.5,0.00012995658,0.0003226589,0.00035347918,1,0,1,0,1,0
856264000,856184000,1311004,0.0006247063,-0.0021065644,0.0014463988,0.34906584,1.840032e-07,1.762232e-07,4.6740269e-07,1311004,0.03612893,-0.0045313304,-0.17578715,0.4,0.0011154565,0.0011996577,0.0007812428,197644,0.007195444,-0.0033805296,0.0019665773,0.5,0.00012335456,0.0002964011,0.0003049872,1,0,1,0,1,0
856424000,856344000,1311004,0.00055816874,-0.002037869,0.0014880691,0.34906584,1.8009719e-07,1.7382894e-07,4.6742906e-07,1311004,0.035223473,-0.005481556,-0.17596546,0.4,0.0011147093,0.0011987174,0.00078123936,197644,0.0072057303,-0.003915352,0.0026055458,0.5,0.000118362725,0.00028043278,0.0002749248,1,0,1,0,1,0
856632000,856552000,1311004,0.0004904653,-0.0020020413,0.0015250097,0.34906584,1.7786685e-07,1.7228652e-07,4.680681e-07,1311004,0.034433663,-0.0070944047,-0.17580563,0.4,0.00111281,0.0011965916,0.00078123936,197644,0.007506097,-0.0045057144,0.0034300524,0.5,0.000112398484,0.00026530103,0.0002477365,1,0,1,0,1,0
857008000,856928000,1311004,0.0004315008,-0.0019893034,0.0015494548,0.34906584,1.7753275e-07,1.7209314e-07,4.7038588e-07,1311004,0.03396577,-0.0095283715,-0.17520471,0.4,0.0011074436,0.0011908091,0.00078123936,197644,0.0078612,-0.005181351,0.0043215705,0.5,0.000105190324,0.00025041966,0.00022285046,1,0,1,0,1,0
857408000,857328000,1311004,0.00038070395,-0.0020101652,0.0015585879,0.34906584,1.779698e-07,1.7234886e-07,4.7333558e-07,1311004,0.0347808,-0.012340149,-0.17326324,0.4,0.0010972428,0.0011796914,0.00078123936,197644,0.008288559,-0.0057984167,0.004940061,0.5,9.863788e-05,0.00024058767,0.00021150662,1,0,1,0,1,0
857616000,857536000,1311004,0.00034912812,-0.0020358642,0.0015602639,0.34906584,1.7757148e-07,1.7172235e-07,4.7489306e-07,1311004,0.035981916,-0.014299046,-0.17116679,0.4,0.0010858647,0.0011671225,0.00078123936,197644,0.008543997,-0.0062419754,0.0050866585,0.5,9.369358e-05,0.00023528065,0.00020768332,1,0,1,0,1,0
857824000,857744000,1311004,0.00032573214,-0.0020586003,0.0015594865,0.34906584,1.7755563e-07,1.7151122e-07,4.763997e-07,1311004,0.037249185,-0.015942179,-0.16938683,0.4,0.0010733276,0.0011526388,0.00078123936,197644,0.008551412,-0.0063398876,0.0052641914,0.5,8.9027875e-05,0.00023063812,0.00020408144,1,0,1,0,1,0
858040000,857960000,1311004,0.00031283335,-0.0020850545,0.0015587586,0.34906584,1.7782247e-07,1.7162853e-07,4.777962e-07,1311004,0.039259452,-0.01678723,-0.16772401,0.4,0.0010596063,0.0011361165,0.00078123936,197644,0.008957009,-0.00672999,0.00519222,0.5,8.500025e-05,0.0002264802,0.00020075137,1,0,1,0,1,0
858400000,858320000,1311004,0.0003130179,-0.0021099348,0.0015653312,0.34906584,1.791927e-07,1.7286516e-07,4.7980427e-07,1311004,0.041346207,-0.016215505,-0.16630927,0.4,0.0010421026,0.0011143058,0.00078123936,197644,0.009230939,-0.006929966,0.0050449013,0.5,7.961994e-05,0.0002205585,0.00019592367,1,0,1,0,1,0
858608000,858528000,1311004,0.00031312034,-0.0021295191,0.0015706939,0.34906584,1.7955158e-07,1.7310659e-07,4.8049947e-07,1311004,0.043227855,-0.015808662,-0.16531783,0.4,0.0010250307,0.0010934898,0.00078123936,197644,0.009502709,-0.0071559222,0.0047980305,0.5,7.687265e-05,0.0002176926,0.00019330556,1,0,1,0,1,0
858816000,858736000,1311004,0.00032229983,-0.00214414,0.0015841837,0.34906584,1.8006439e-07,1.7349011e-07,4.810944e-07,1311004,0.044465233,-0.014209177,-0.16444038,0.4,0.0010084744,0.00107404,0.00078123936,197644,0.009603309,-0.0071753142,0.004739749,0.5,7.439319e-05,0.00021524834,0.0001908005,1,0,1,0,1,0
859016000,858936000,1311004,0.0003290603,-0.0021636847,0.0015957705,0.34906584,1.8064947e-07,1.7392577e-07,4.8153584e-07,1311004,0.046581764,-0.012939006,-0.16338778,0.4,0.0009926473,0.0010562582,0.00078123936,197644,0.010172643,-0.007580235,0.0042572822,0.5,7.204671e-05,0.00021306658,0.00018802333,1,0,1,0,1,0
859368000,859288000,1311004,0.00033865432,-0.0021799072,0.0016079386,0.34906584,1.8250107e-07,1.7558457e-07,4.8289223e-07,1311004,0.046757586,-0.01286378,-0.16337663,0.4,0.0009923779,0.001055464,0.0007812415,197644,0.010480865,-0.008207053,0.00320786,0.5,6.655368e-05,0.00020924878,0.0001723083,1,0,1,0,1,0
860008000,859928000,1311004,0.00037771484,-0.00219676,0.0016562273,0.34906584,1.8514227e-07,1.7756491e-07,4.843719e-07,1311004,0.047585584,-0.010460455,-0.16296467,0.4,0.000984209,0.0010459897,0.00078123936,197644,0.01094159,-0.008757514,0.0026008727,0.5,6.168677e-05,0.00020483133,0.00016218756,1,0,1,0,1,0
860216000,860136000,1311004,0.000396958,-0.0022021849,0.0016763925,0.34906584,1.8557661e-07,1.7761917e-07,4.847668e-07,1311004,0.047957335,-0.008881623,-0.16255406,0.4,0.0009768216,0.0010382668,0.00078123936,197644,0.011100607,-0.008851289,0.0024768317,0.5,6.043461e-05,0.0002035462,0.00016033248,1,0,1,0,1,0
860424000,860344000,1311004,0.0004125197,-0.0022019804,0.0016894364,0.34906584,1.8607246e-07,1.7775552e-07,4.8550487e-07,1311004,0.047904592,-0.0074975137,-0.16201198,0.4,0.0009681912,0.001029456,0.00078123936,197644,0.011155329,-0.00889009,0.0024640525,0.5,5.9356364e-05,0.00020245642,0.00015897643,1,0,1,0,1,0
860632000,860552000,1311004,0.00042637615,-0.0022045467,0.0016997167,0.34906584,1.8659625e-07,1.7795378e-07,4.8649497e-07,1311004,0.048101775,-0.006146262,-0.16162996,0.4,0.000958481,0.0010196209,0.00078123936,197644,0.011295829,-0.008910321,0.0023650327,0.5,5.8393576e-05,0.00020148083,0.00015789519,1,0,1,0,1,0
861000000,860920000,1311004,0.0004404954,-0.0022054312,0.0017061918,0.34906584,1.881015e-07,1.7916531e-07,4.8889973e-07,1311004,0.04813666,-0.00470623,-0.16024968,0.4,0.00094520213,0.0010058775,0.00078123936,197644,0.011318102,-0.009012258,0.0022560055,0.5,5.7043788e-05,0.00020001146,0.00015650477,1,0,1,0,1,0
861208000,861128000,1311004,0.00045214393,-0.0022043188,0.0017107591,0.34906584,1.8841926e-07,1.7924027e-07,4.9021617e-07,1311004,0.04799336,-0.0034835075,-0.15952615,0.4,0.0009319831,0.0009922218,0.00078123936,197644,0.01133558,-0.0090383515,0.0021842748,0.5,5.6331497e-05,0.00019922902,0.00015583134,1,0,1,0,1,0
861416000,861336000,1311004,0.00045927337,-0.0022039977,0.0017122768,0.34906584,1.8877135e-07,1.7940667e-07,4.916123e-07,1311004,0.04794722,-0.002718449,-0.15845665,0.4,0.0009189091,0.0009785917,0.00078123936,197644,0.011395379,-0.0090629365,0.0021213053,0.5,5.5679775e-05,0.00019854067,0.00015524097,1,0,1,0,1,0
861624000,861544000,1311004,0.00046803977,-0.002206902,0.001713991,0.34906584,1.891425e-07,1.7964204e-07,4.9305584e-07,1311004,0.04816764,-0.001795421,-0.15758127,0.4,0.0009060866,0.00096509006,0.00078123936,197644,0.01140818,-0.009068846,0.0021117993,0.5,5.507657e-05,0.00019792562,0.00015471176,1,0,1,0,1,0
861832000,861752000,1311004,0.00047315442,-0.0022070848,0.0017143467,0.34906584,1.8952257e-07,1.7993203e-07,4.945265e-07,1311004,0.048172045,-0.0012376886,-0.15647507,0.4,0.000893621,0.00095183216,0.00078123936,197644,0.011441173,-0.009072452,0.002074996,0.5,5.4519922e-05,0.0001973612,0.00015422725,1,0,1,0,1,0
862208000,862128000,1311004,0.00047833452,-0.0022081293,0.0017157948,0.34906584,1.9091635e-07,1.8130473e-07,4.972509e-07,1311004,0.048192605,-0.00060268183,-0.15512747,0.4,0.00087950967,0.00093656307,0.00078123936,197644,0.0114076855,-0.00897581,0.0020829944,0.5,5.3681808e-05,0.00019653137,0.00015348781,1,0,1,0,1,0
862608000,862528000,1311004,0.0004828274,-0.0022084343,0.0017159078,0.34906584,1.9221078e-07,1.8263708e-07,5.001504e-07,1311004,0.048199963,-6.739175e-05,-0.15339872,0.4,0.00086438906,0.0009200537,0.00078123936,197644,0.011380935,-0.008959049,0.0019981032,0.5,5.2918873e-05,0.00019582518,0.00015280947,1,0,1,0,1,0
862816000,862736000,1311004,0.00048842886,-0.0022082846,0.0017153113,0.34906584,1.921769e-07,1.8265051e-07,5.0161634e-07,1311004,0.048145957,0.00049371796,-0.15145409,0.4,0.00085128506,0.00090573303,0.00078123936,197644,0.011380477,-0.00895942,0.001977046,0.5,5.2484495e-05,0.00019543587,0.00015241987,1,0,1,0,1,0
863024000,862944000,1311004,0.0004906722,-0.0022103142,0.0017142534,0.34906584,1.9229466e-07,1.828282e-07,5.0282296e-07,1311004,0.048291102,0.0007651705,-0.14998159,0.4,0.00083981286,0.0008931282,0.00078123936,197644,0.011368028,-0.008948827,0.0019596738,0.5,5.2353294e-05,0.00019532187,0.00015229799,1,0,1,0,1,0
863232000,863152000,1311004,0.00049362547,-0.0022106352,0.0017155809,0.34906584,1.925081e-07,1.8311349e-07,5.0388314e-07,1311004,0.048293214,0.0010820472,-0.14845978,0.4,0.00082969153,0.00088195584,0.00078123936,197644,0.011368028,-0.008948827,0.0019596738,0.5,5.2353294e-05,0.00019532187,0.00015229799,1,0,1,0,1,0
863592000,863512000,1311004,0.0004932914,-0.0022118099,0.0017149799,0.34906584,1.9370228e-07,1.8442583e-07,5.0571754e-07,1311004,0.048351992,0.001107268,-0.14638235,0.4,0.00081973587,0.0008708845,0.00078123936,197644,0.011368028,-0.008948827,0.0019596738,0.5,5.2353294e-05,0.00019532187,0.00015229799,1,0,1,0,1,0
863808000,863728000,1311004,0.00049759,-0.0022155042,0.0017135484,0.34906584,1.9383678e-07,1.84673e-07,5.0677727e-07,1311004,0.048587024,0.0014997743,-0.14416897,0.4,0.00081117224,0.0008613807,0.00078123936,197644,0.011368028,-0.008948827,0.0019596738,0.5,5.2353294e-05,0.00019532187,0.00015229799,1,0,1,0,1,0
864016000,863936000,1311004,0.0004983046,-0.0022149922,0.0017125534,0.34906584,1.9397145e-07,1.8492474e-07,5.077498e-07,1311004,0.04851732,0.0015977414,-0.14226547,0.4,0.00080381316,0.0008532033,0.00078123936,197644,0.011368028,-0.008948827,0.0019596738,0.5,5.2353294e-05,0.00019532187,0.00015229799,1,0,1,0,1,0
864224000,864144000,1311004,0.0004977432,-0.0022153475,0.0017130967,0.34906584,1.941487e-07,1.8522327e-07,5.086994e-07,1311004,0.048519425,0.0016125143,-0.14023389,0.4,0.00079745025,0.0008461248,0.00078123936,197644,0.011368028,-0.008948827,0.0019596738,0.5,5.2353294e-05,0.00019532187,0.00015229799,1,0,1,0,1,0
864432000,864352000,1311004,0.0005002935,-0.0022155324,0.0017121898,0.34906584,1.9434816e-07,1.8554732e-07,5.096242e-07,1311004,0.04849772,0.0018237864,-0.13834901,0.4,0.0007919433,0.00083999074,0.00078123936,197644,0.011368028,-0.008948827,0.0019596738,0.5,5.2353294e-05,0.00019532187,0.00015229799,1,0,1,0,1,0
864808000,864728000,1311004,0.0005004602,-0.0022164648,0.0017105251,0.34906584,1.955742e-07,1.8694037e-07,5.1136334e-07,1311004,0.048517417,0.0018843815,-0.13610385,0.4,0.0007867454,0.0008341584,0.00078123936,197644,0.011368028,-0.008948827,0.0019596738,0.5,5.2353294e-05,0.00019532187,0.00015229799,1,0,1,0,1,0
865208000,865128000,1311004,0.0004995783,-0.0022183587,0.001714284,0.34906584,1.9664776e-07,1.8821444e-07,5.1321945e-07,1311004,0.04859991,0.001890279,-0.13386321,0.4,0.00078202644,0.0008288521,0.00078123936,197644,0.011368028,-0.008948827,0.0019596738,0.5,5.2353294e-05,0.00019532187,0.00015229799,1,0,1,0,1,0
865416000,865336000,1311004,0.00050035067,-0.0022205478,0.0017123683,0.34906584,1.9633183e-07,1.8807923e-07,5.1402014e-07,1311004,0.0486677,0.0019736036,-0.13156396,0.4,0.00078123936,0.000824623,0.00078123936,197644,0.011368028,-0.008948827,0.0019596738,0.5,5.2353294e-05,0.00019532187,0.00015229799,1,0,1,0,1,0
865624000,865544000,1311004,0.00049769477,-0.0022216695,0.0017118677,0.34906584,1.9610547e-07,1.8802608e-07,5.1479816e-07,1311004,0.048695777,0.0019044481,-0.12950514,0.4,0.00078123936,0.0008212168,0.00078123936,197644,0.011368028,-0.008948827,0.0019596738,0.5,5.2353294e-05,0.00019532187,0.00015229799,1,0,1,0,1,0
865832000,865752000,1311004,0.0004935966,-0.0022221727,0.0017111698,0.34906584,1.9593594e-07,1.8802369e-07,5.155541e-07,1311004,0.048700232,0.0017844569,-0.12771873,0.4,0.00078123936,0.00081846083,0.00078123936,197644,0.011368028,-0.008948827,0.0019596738,0.5,5.2353294e-05,0.00019532187,0.00015229799,1,0,1,0,1,0
866200000,866120000,1311004,0.00049055903,-0.0022232004,0.001712605,0.34906584,1.9672146e-07,1.8900974e-07,5.1697134e-07,1311004,0.048723012,0.0017207715,-0.12578648,0.4,0.00078123936,0.0008161109,0.00078123936,197644,0.011368028,-0.008948827,0.0019596738,0.5,5.2353294e-05,0.00019532187,0.00015229799,1,1,1,0,1,0
866408000,866328000,1311004,0.00049003074,-0.0022249962,0.0017130491,0.34906584,1.9632479e-07,1.8879611e-07,5.176587e-07,1311004,0.04875892,0.001737107,-0.12396717,0.4,0.00078123936,0.0008142963,0.00078123936,197644,0.011368028,-0.008948827,0.0019596738,0.5,5.2353294e-05,0.00019532187,0.00015229799,1,1,1,0,1,0
866616000,866536000,1311004,0.00048785738,-0.0022275401,0.0017099888,0.34906584,1.9598366e-07,1.8863106e-07,5.1832535e-07,1311004,0.0488066,0.001716579,-0.12236951,0.4,0.00078123936,0.00081289315,0.00078123936,197644,0.011368028,-0.008948827,0.0019596738,0.5,5.2353294e-05,0.00019532187,0.00015229799,1,1,1,0,1,0
866824000,866744000,1311004,0.00048666226,-0.0022303727,0.0017102697,0.34906584,1.9567469e-07,1.8849246e-07,5.189727e-07,1311004,0.048856743,0.0017126899,-0.12078636,0.4,0.00078123936,0.00081181526,0.00078123936,197644,0.011368028,-0.008948827,0.0019596738,0.5,5.2353294e-05,0.00019532187,0.00015229799,1,1,1,0,1,0
867032000,866952000,1311004,0.00048668653,-0.0022359733,0.0017095519,0.34906584,1.9538295e-07,1.8836495e-07,5.1992237e-07,1311004,0.048945617,0.0017396854,-0.11890798,0.4,0.00078123936,0.0008110025,0.00078123936,197644,0.011368028,-0.008948827,0.0019596738,0.5,5.2353294e-05,0.00019532187,0.00015229799,1,1,1,0,1,0
867408000,867328000,1311004,0.0004831127,-0.0022377104,0.0017077015,0.34906584,1.9602183e-07,1.8920798e-07,5.208664e-07,1311004,0.048954267,0.0017189392,-0.11713196,0.4,0.00078123936,0.00081038894,0.00078123936,197644,0.011368028,-0.008948827,0.0019596738,0.5,5.2353294e-05,0.00019532187,0.00015229799,1,1,1,0,1,0
867808000,867728000,1311004,0.00048307318,-0.0022404068,0.0017058778,0.34906584,1.9641327e-07,1.8982838e-07,5.2225323e-07,1311004,0.04896647,0.001745036,-0.11529664,0.4,0.00078123936,0.0008099826,0.00078123936,197644,0.011368028,-0.008948827,0.0019596738,0.5,5.2353294e-05,0.00019532187,0.00015229799,1,1,1,0,1,0
868016000,867936000,1311004,0.00048093687,-0.0022424594,0.0017049921,0.34906584,1.95449e-07,1.8906891e-07,5.2276954e-07,1311004,0.04897914,0.0017415548,-0.11427344,0.4,0.00078123936,0.00080971123,0.00078123936,197644,0.011368028,-0.008948827,0.0019596738,0.5,5.2353294e-05,0.00019532187,0.00015229799,1,1,1,0,1,0
868264000,868184000,1311004,0.00047857527,-0.0022488958,0.0017026974,0.34906584,1.9492289e-07,1.8873666e-07,5.232215e-07,1311004,0.04901238,0.0017469648,-0.113259494,0.4,0.00078124175,0.00080952456,0.00078123936,197644,0.011368028,-0.008948827,0.0019596738,0.5,5.2353294e-05,0.00019532187,0.00015229799,1,1,1,0,1,0
868720000,868640000,1311004,0.00048021774,-0.00225265,0.0016998125,0.34906584,1.9614036e-07,1.9014219e-07,5.245382e-07,1311004,0.04901895,0.0017695194,-0.11223514,0.4,0.000781258,0.0008093952,0.00078123936,197644,0.011368028,-0.008948827,0.0019596738,0.5,5.2353294e-05,0.00019532187,0.00015229799,1,1,1,0,1,0
868840000,868760000,1311004,0.00048048462,-0.0022553094,0.0016979044,0.34906584,1.9430026e-07,1.885051e-07,5.2464384e-07,1311004,0.04901037,0.0017844465,-0.11120148,0.4,0.0007812417,0.000809298,0.00078123936,197644,0.011368028,-0.008948827,0.0019596738,0.5,5.2353294e-05,0.00019532187,0.00015229799,1,1,1,0,1,0
869424000,869344000,1311004,0.0004872425,-0.0022643148,0.0016936307,0.34906584,1.9124123e-07,1.8599005e-07,5.263107e-07,1311004,0.048974354,0.001773828,-0.109738484,0.4,0.00078123936,0.0008089693,0.00078123936,197644,0.011368028,-0.008948827,0.0019596738,0.5,5.2353294e-05,0.00019532187,0.00015229799,1,1,1,0,1,0
870424000,870344000,1311004,0.0004946625,-0.002261501,0.0016865801,0.34906584,1.9057887e-07,1.8591017e-07,5.280839e-07,1311004,0.048998144,0.0017371632,-0.108943135,0.4,0.0007812405,0.0008081465,0.0007812405,197644,0.011368028,-0.008948827,0.0019596738,0.5,5.2353294e-05,0.00019532187,0.00015229799,1,1,1,0,1,0
871424000,871344000,1311004,0.00051317085,-0.002255234,0.0016775127,0.34906584,1.8670524e-07,1.827766e-07,5.297363e-07,1311004,0.0490661,0.0015347261,-0.1095432,0.4,0.00078124105,0.00080608524,0.0007812405,197644,0.011368028,-0.008948827,0.0019596738,0.5,5.2353294e-05,0.00019532187,0.00015229799,1,1,1,0,1,0
872424000,872344000,1311004,0.0005478621,-0.0022491317,0.0016661853,0.34906584,1.8375594e-07,1.80456e-07,5.304462e-07,1311004,0.049156528,0.0010164266,-0.10990329,0.4,0.0007812527,0.0008032918,0.00078123994,197644,0.011368028,-0.008948827,0.0019596738,0.5,5.2353294e-05,0.00019532187,0.00015229799,1,1,1,0,1,0
873216000,873136000,1311004,0.0005769677,-0.0022446036,0.0016617273,0.34906584,1.8067718e-07,1.7785732e-07,5.306979e-07,1311004,0.049243525,0.0005203609,-0.110782444,0.4,0.00078123936,0.00080039614,0.00078123936,197644,0.011368028,-0.008948827,0.0019596738,0.5,5.2353294e-05,0.00019532187,0.00015229799,1,1,1,0,1,0
874000000,873920000,1311004,0.0006006157,-0.002249839,0.0016586935,0.34906584,1.7835545e-07,1.7593254e-07,5.30619e-07,1311004,0.04916562,9.877823e-05,-0.11178641,0.4,0.00078123936,0.0007975338,0.00078123936,197644,0.011368028,-0.008948827,0.0019596738,0.5,5.2353294e-05,0.00019532187,0.00015229799,1,1,1,0,1,0
874624000,874544000,1311004,0.00062297157,-0.002250896,0.00165466,0.34906584,1.7539307e-07,1.7330245e-07,5.308043e-07,1311004,0.049166996,-0.00029500813,-0.113101766,0.4,0.00078123936,0.0007948197,0.00078123936,197644,0.011368028,-0.008948827,0.0019596738,0.5,5.2353294e-05,0.00019532187,0.00015229799,1,1,1,0,1,0
875608000,875528000,1311004,0.0006569707,-0.002263341,0.00165133,0.34906584,1.7491222e-07,1.73118e-07,5.29862e-07,1311004,0.04897891,-0.0009177448,-0.1142075,0.4,0.00078123936,0.00079193886,0.00078123936,197644,0.011368028,-0.008948827,0.0019596738,0.5,5.2353294e-05,0.00019532187,0.00015229799,1,1,1,0,1,0
876024000,875944000,1311004,0.00069108664,-0.0022696,0.0016458102,0.34906584,1.7267668e-07,1.7104105e-07,5.285783e-07,1311004,0.048888672,-0.0015637197,-0.11513219,0.4,0.00078123936,0.00078992266,0.00078123936,197644,0.011368028,-0.008948827,0.0019596738,0.5,5.2353294e-05,0.00019532187,0.00015229799,1,1,1,0,1,0
876592000,876512000,1311004,0.0007081434,-0.002266596,0.0016495582,0.34906584,1.7167346e-07,1.7019488e-07,5.2503833e-07,1311004,0.048974052,-0.0017887806,-0.1161346,0.4,0.00078123936,0.00078572205,0.00078123936,197644,0.011389872,-0.0084523205,0.0015236132,0.5,4.8567228e-05,0.0001573481,0.00012761753,1,1,1,0,1,0
877016000,876936000,1311004,0.00071211235,-0.0022616694,0.0016534942,0.34906584,1.6993293e-07,1.6854885e-07,5.2192235e-07,1311004,0.04904153,-0.0019374898,-0.1173821,0.4,0.00078123936,0.00078244536,0.00078123936,197644,0.011383144,-0.008402385,0.0015530131,0.5,4.4456618e-05,0.00013419065,0.00011118752,1,1,1,0,1,0
878016000,877936000,1311004,0.0007098215,-0.002251332,0.0016558619,0.34906584,1.7079348e-07,1.695567e-07,5.202024e-07,1311004,0.049236923,-0.0019851364,-0.11815994,0.4,0.00078123936,0.00078123936,0.00078124244,197644,0.011467182,-0.008200145,0.0016578721,0.5,3.863803e-05,0.00011453483,9.6724e-05,1,1,1,0,1,0
879016000,878936000,1311004,0.0006864931,-0.0022391554,0.001650175,0.34906584,1.6868222e-07,1.679364e-07,5.214633e-07,1311004,0.04953001,-0.0016212635,-0.11815474,0.4,0.00078123936,0.00078123936,0.0007812422,197644,0.01163217,-0.008179068,0.0017219242,0.5,3.5270128e-05,0.00010664997,9.065612e-05,1,1,1,0,1,0
880016000,879936000,1311004,0.0006398871,-0.0022430108,0.0016622092,0.34906584,1.6748852e-07,1.673519e-07,5.187431e-07,1311004,0.049647726,-0.0010919237,-0.11828176,0.4,0.00078124227,0.00078124227,0.0007812424,197644,0.011771948,-0.007932164,0.0018108815,0.5,3.2959575e-05,0.000100949306,8.595653e-05,1,1,1,0,1,0
881016000,880936000,1311004,0.00060409575,-0.0022705416,0.0017043558,0.34906584,1.6598888e-07,1.6743427e-07,4.993164e-07,1311004,0.04988042,-0.0010038534,-0.11963815,0.4,0.00078123936,0.00078123936,0.00078123936,197644,0.011969925,-0.008047231,0.0015441445,0.5,2.9737557e-05,7.96671e-05,6.956042e-05,1,1,1,0,1,0
882016000,881936000,1311004,0.0005832998,-0.0022967618,0.001733521,0.34906584,1.6467429e-07,1.6810371e-07,4.897605e-07,1311004,0.0501148,-0.0007606912,-0.11896742,0.4,0.00078123936,0.00078123936,0.00078123936,197644,0.012199887,-0.008143665,0.0011517901,0.5,2.6582931e-05,6.781353e-05,5.9695558e-05,1,1,1,0,1,0
883016000,882936000,1311004,0.00057515595,-0.002300859,0.0017298673,0.34906584,1.6407607e-07,1.6892339e-07,4.9016603e-07,1311004,0.05032033,-0.0007057906,-0.11913863,0.4,0.00078124,0.00078124,0.00078124,197644,0.012382073,-0.008343383,0.0010808018,0.5,2.4631661e-05,6.2726234e-05,5.5413915e-05,1,1,1,0,1,0
884016000,883936000,1311004,0.00056687964,-0.0022954561,0.0017227306,0.34906584,1.6472076e-07,1.7000293e-07,4.9293794e-07,1311004,0.050507028,-0.0006572225,-0.118990086,0.4,0.00078124274,0.00078124146,0.00078123994,197644,0.012507037,-0.008393691,0.0010400554,0.5,2.3328757e-05,5.986941e-05,5.3022268e-05,1,1,1,0,1,0
885016000,884936000,1311004,0.0005435882,-0.0022803468,0.0017256978,0.34906584,1.6206153e-07,1.6702238e-07,4.901981e-07,1311004,0.050621845,-0.00050439354,-0.11994116,0.4,0.00078123936,0.00078123936,0.00078123936,197644,0.012507037,-0.008393691,0.0010400554,0.5,2.3328757e-05,5.986941e-05,5.3022268e-05,1,1,1,0,1,0
886016000,885936000,1311004,0.00053383206,-0.0022704625,0.0017230902,0.34906584,1.6338669e-07,1.6787092e-07,4.871937e-07,1311004,0.050679468,-0.00043702705,-0.12014856,0.4,0.00078123994,0.00078123994,0.00078123994,197644,0.012507037,-0.008393691,0.0010400554,0.5,2.3328757e-05,5.986941e-05,5.3022268e-05,1,1,1,0,1,0
887016000,886936000,1311004,0.00052199775,-0.0022596603,0.0017189196,0.34906584,1.6252034e-07,1.6635494e-07,4.838381e-07,1311004,0.050737888,-0.00035648086,-0.12026434,0.4,0.0007812405,0.00078124023,0.00078123994,197644,0.012507037,-0.008393691,0.0010400554,0.5,2.3328757e-05,5.986941e-05,5.3022268e-05,1,1,1,0,1,0
888016000,887936000,1311004,0.0005175987,-0.0022544907,0.0017062012,0.34906584,1.6246729e-07,1.6571455e-07,4.8036344e-07,1311004,0.050729997,-0.00028610826,-0.12039546,0.4,0.00078124396,0.00078124314,0.00078123936,197644,0.012507037,-0.008393691,0.0010400554,0.5,2.3328757e-05,5.986941e-05,5.3022268e-05,1,1,1,0,1,0
889016000,888936000,1311004,0.00051729754,-0.0022516912,0.0017038918,0.34906584,1.6349048e-07,1.6626596e-07,4.7685205e-07,1311004,0.050746433,-0.00025073747,-0.12073106,0.4,0.0007812434,0.0007812414,0.00078123994,197644,0.012507037,-0.008393691,0.0010400554,0.5,2.3328757e-05,5.986941e-05,5.3022268e-05,1,1,1,0,1,0
889600000,889520000,1311004,0.00051548146,-0.0022601718,0.0017008666,0.34906584,1.6170455e-07,1.6410358e-07,4.7477639e-07,1311004,0.050663587,-0.0003114539,-0.11964962,0.4,0.00078123936,0.00078123936,0.00078123936,197644,0.012507037,-0.008393691,0.0010400554,0.5,2.3328757e-05,5.986941e-05,5.3022268e-05,1,1,1,0,1,0
890600000,890520000,1311004,0.00051185326,-0.0022688136,0.0016931479,0.34906584,1.6175235e-07,1.6373977e-07,4.7114074e-07,1311004,0.050569396,-0.00032711634,-0.11883224,0.4,0.00078124343,0.00078124134,0.00078124,197644,0.012507037,-0.008393691,0.0010400554,0.5,2.3328757e-05,5.986941e-05,5.3022268e-05,1,1,1,0,1,0
891600000,891520000,1311004,0.0005038338,-0.002282971,0.0016843919,0.34906584,1.628385e-07,1.6452776e-07,4.6756125e-07,1311004,0.050438367,-0.00030192043,-0.118322924,0.4,0.0007812439,0.0007812428,0.0007812428,197644,0.012507037,-0.008393691,0.0010400554,0.5,2.3328757e-05,5.986941e-05,5.3022268e-05,1,1,1,1,1,0
892600000,892520000,1311004,0.0004943745,-0.0023046301,0.0016756709,0.34906584,1.622918e-07,1.6368055e-07,4.639336e-07,1311004,0.050264336,-0.00026679022,-0.11791332,0.4,0.0007812439,0.00078124227,0.00078124227,197644,0.012507037,-0.008393691,0.0010400554,0.5,2.3328757e-05,5.986941e-05,5.3022268e-05,1,1,1,1,1,0
892816000,892736000,1311004,0.00048565524,-0.0023167604,0.0016710265,0.34906584,1.6008224e-07,1.6135543e-07,4.6313244e-07,1311004,0.0501573,-0.00026946244,-0.11669058,0.4,0.00078123936,0.00078123936,0.00078123936,197644,0.012507037,-0.008393691,0.0010400554,0.5,2.3328757e-05,5.986941e-05,5.3022268e-05,1,1,1,1,1,0
893808000,893728000,1311004,0.0004734898,-0.002335514,0.0016623266,0.34906584,1.6151036e-07,1.6261099e-07,4.5949716e-07,1311004,0.05000339,-0.00024662793,-0.11548088,0.4,0.00078123936,0.00078123936,0.00078123936,197644,0.012507037,-0.008393691,0.0010400554,0.5,2.3328757e-05,5.986941e-05,5.3022268e-05,1,1,1,1,1,0
894432000,894352000,1311004,0.00046132505,-0.0023478416,0.0016549422,0.34906584,1.6009741e-07,1.610574e-07,4.570193e-07,1311004,0.0498963,-0.00021577268,-0.11427221,0.4,0.00078123936,0.00078123936,0.00078123936,197644,0.012507037,-0.008393691,0.0010400554,0.5,2.3328757e-05,5.986941e-05,5.3022268e-05,1,1,1,1,1,0
895424000,895344000,1311004,0.000432174,-0.0023637642,0.0016425997,0.34906584,1.5973781e-07,1.6054732e-07,4.5334758e-07,1311004,0.04974673,-9.748628e-05,-0.11285386,0.4,0.00078123936,0.00078123936,0.00078123936,197644,0.012507037,-0.008393691,0.0010400554,0.5,2.3328757e-05,5.986941e-05,5.3022268e-05,1,1,1,1,1,0
896008000,895928000,1311004,0.00041138788,-0.0023702316,0.0016346454,0.34906584,1.6037593e-07,1.6112382e-07,4.5138583e-07,1311004,0.049669784,-1.4375436e-05,-0.11150318,0.4,0.00078123936,0.00078123936,0.00078123936,197644,0.012507037,-0.008393691,0.0010400554,0.5,2.3328757e-05,5.986941e-05,5.3022268e-05,1,1,1,1,1,0
897008000,896928000,1311004,0.00039440664,-0.002379144,0.0016178398,0.34906584,1.6099057e-07,1.6161454e-07,4.4776186e-07,1311004,0.049713995,-0.000118109914,-0.11142529,0.4,0.0007812526,0.0007812526,0.0007812525,197644,0.012507037,-0.008393691,0.0010400554,0.5,2.3328757e-05,5.986941e-05,5.3022268e-05,1,1,1,0,1,0
897816000,897736000,1311004,0.0003741497,-0.002393264,0.0016000946,0.34906584,1.5905627e-07,1.5953343e-07,4.4509184e-07,1311004,0.05026974,-0.00096931355,-0.11071399,0.4,0.00078123936,0.00078123936,0.00078123936,197644,0.012507037,-0.008393691,0.0010400554,0.5,2.3328757e-05,5.986941e-05,5.3022268e-05,1,1,1,0,1,0
898384000,898304000,1311004,0.00034595423,-0.0024160906,0.0015879257,0.34906584,1.4922595e-07,1.4946922e-07,4.4297352e-07,1311004,0.051760674,-0.0028513616,-0.10236984,0.4,0.00078123936,0.00078123936,0.00078123936,197644,0.012507037,-0.008393691,0.0010400554,0.5,2.3328757e-05,5.986941e-05,5.3022268e-05,1,1,1,0,1,0
898800000,898720000,1311004,0.00033462953,-0.0024229789,0.0015780672,0.34906584,1.5054826e-07,1.5076115e-07,4.4133583e-07,1311004,0.052857045,-0.0047189677,-0.097771175,0.4,0.00078123936,0.00078123936,0.00078123936,197644,0.012507037,-0.008393691,0.0010400554,0.5,2.3328757e-05,5.986941e-05,5.3022268e-05,1,1,1,0,1,0
899008000,898928000,1311004,0.00033242343,-0.0024290888,0.0015741941,0.34906584,1.512978e-07,1.5149718e-07,4.4051805e-07,1311004,0.053762645,-0.0050517214,-0.09732863,0.4,0.00078123936,0.00078123936,0.00078123936,197644,0.012507037,-0.008393691,0.0010400554,0.5,2.3328757e-05,5.986941e-05,5.3022268e-05,1,1,1,0,1,0
899192000,899112000,1311004,0.00033249203,-0.0024291577,0.0015707241,0.34906584,1.5276927e-07,1.5296855e-07,4.4033908e-07,1311004,0.0,0.0,0.0,0.4,0.040000003,0.040000003,0.040000003,197644,0.012507037,-0.008393691,0.0010400554,0.5,2.3328757e-05,5.986941e-05,5.3022268e-05,1,1,1,0,1,0
899216000,899136000,1311004,0.0003344371,-0.0024289347,0.0015706816,0.34906584,1.5198378e-07,1.5217091e-07,4.4052157e-07,1311004,-0.0006945599,0.0049016313,0.016428359,0.4,0.03408384,0.034083456,0.03395927,197644,0.012507037,-0.008393691,0.0010400554,0.5,2.3328757e-05,5.986941e-05,5.3022268e-05,1,1,1,0,1,0
899424000,899344000,1311004,0.00033407522,-0.0024295668,0.0015655808,0.34906584,1.535608e-07,1.5374678e-07,4.3971144e-07,1311004,0.009098066,-0.00368878,0.0010693762,0.4,0.0050125746,0.005011768,0.00416828,197644,0.012507037,-0.008393691,0.0010400554,0.5,2.3328757e-05,5.986941e-05,5.3022268e-05,1,1,1,0,1,0
899632000,899552000,1311004,0.00033321814,-0.0024287761,0.0015615855,0.34906584,1.5518991e-07,1.55376e-07,4.3889725e-07,1311004,0.002190177,-0.0111115165,0.013710727,0.4,0.0031163297,0.0031154442,0.0022117535,197644,0.012507037,-0.008393691,0.0010400554,0.5,2.3328757e-05,5.986941e-05,5.3022268e-05,1,1,1,0,1,0
899840000,899760000,1311004,0.00033343086,-0.0024297226,0.0015566736,0.34906584,1.5680256e-07,1.5698764e-07,4.380855e-07,1311004,0.005287535,-0.010650696,0.01221643,0.4,0.0024467562,0.0024457518,0.0015052322,197644,0.012507037,-0.008393691,0.0010400554,0.5,2.3328757e-05,5.986941e-05,5.3022268e-05,1,1,1,0,1,0
900048000,899968000,1311004,0.0003342647,-0.002431265,0.0015519139,0.34906584,1.5838047e-07,1.5856418e-07,4.3727505e-07,1311004,0.008136919,-0.009110841,0.016564267,0.4,0.002109572,0.0021084663,0.001140827,197644,0.012507037,-0.008393691,0.0010400554,0.5,2.3328757e-05,5.986941e-05,5.3022268e-05,1,1,1,0,1,0
