timestamp,accel_device_id_primary,accel_device_ids[0],accel_device_ids[1],accel_device_ids[2],accel_device_ids[3],accel_inconsistency_m_s_s[0],accel_inconsistency_m_s_s[1],accel_inconsistency_m_s_s[2],accel_inconsistency_m_s_s[3],gyro_device_id_primary,gyro_device_ids[0],gyro_device_ids[1],gyro_device_ids[2],gyro_device_ids[3],gyro_inconsistency_rad_s[0],gyro_inconsistency_rad_s[1],gyro_inconsistency_rad_s[2],gyro_inconsistency_rad_s[3],accel_healthy[0],accel_healthy[1],accel_healthy[2],accel_healthy[3],accel_priority[0],accel_priority[1],accel_priority[2],accel_priority[3],gyro_healthy[0],gyro_healthy[1],gyro_healthy[2],gyro_healthy[3],gyro_priority[0],gyro_priority[1],gyro_priority[2],gyro_priority[3]
829264000,1310988,1310988,1310996,1311004,0,0.0072330367,0.003682904,0.0036021841,0.0,1310988,1310988,1310996,1311004,0,0.00018423621,0.00012430735,0.00014325517,0.0,1,1,1,0,50,50,50,0,1,1,1,0,1,1,1,0
829268000,1310988,1310988,1310996,1311004,0,0.0072278786,0.0026406383,0.004715192,0.0,1310988,1310988,1310996,1311004,0,0.00019491164,0.00021710528,0.00016512244,0.0,1,1,1,0,50,50,50,0,1,1,1,0,1,1,1,0
829460000,1310988,1310988,1310996,1311004,0,0.0079646325,0.013094364,0.0099863745,0.0,1310988,1310988,1310996,1311004,0,0.0008419787,0.00036178387,0.0006777962,0.0,1,1,1,0,50,50,50,0,1,1,1,0,1,1,1,0
829664000,1310988,1310988,1310996,1311004,0,0.015981086,0.0115050785,0.004560071,0.0,1310988,1310988,1310996,1311004,0,0.00035500445,7.735891e-05,0.00032225123,0.0,1,1,1,0,50,50,50,0,1,1,1,0,1,1,1,0
829864000,1310988,1310988,1310996,1311004,0,0.023183692,0.01057742,0.013188165,0.0,1310988,1310988,1310996,1311004,0,0.00042483385,0.00047271952,0.00013760536,0.0,1,1,1,0,50,50,50,0,1,1,1,0,1,1,1,0
830064000,1310988,1310988,1310996,1311004,0,0.0067434036,0.022029066,0.02025557,0.0,1310988,1310988,1310996,1311004,0,0.00044783583,0.00055558234,0.00045972376,0.0,1,1,1,0,50,50,50,0,1,1,1,0,1,1,1,0
830260000,1310988,1310988,1310996,1311004,0,0.005595835,0.0074872826,0.0038801841,0.0,1310988,1310988,1310996,1311004,0,0.00069682125,0.00020702505,0.0007306629,0.0,1,1,1,0,50,50,50,0,1,1,1,0,1,1,1,0
830464000,1310988,1310988,1310996,1311004,0,0.018481558,0.020540752,0.0050790464,0.0,1310988,1310988,1310996,1311004,0,0.0001565652,0.00053024397,0.00065841933,0.0,1,1,1,0,50,50,50,0,1,1,1,0,1,1,1,0
830660000,1310988,1310988,1310996,1311004,0,0.011879509,0.02753717,0.022263197,0.0,1310988,1310988,1310996,1311004,0,0.00023861228,0.00036193503,0.0003521255,0.0,1,1,1,0,50,50,50,0,1,1,1,0,1,1,1,0
830860000,1310988,1310988,1310996,1311004,0,0.012942201,0.014870019,0.009282624,0.0,1310988,1310988,1310996,1311004,0,0.000921248,0.00035615996,0.0005852339,0.0,1,1,1,0,50,50,50,0,1,1,1,0,1,1,1,0
831060000,1310988,1310988,1310996,1311004,0,0.014603669,0.0024158407,0.012812923,0.0,1310988,1310988,1310996,1311004,0,0.0004952464,0.00036265,0.00036848633,0.0,1,1,1,0,50,50,50,0,1,1,1,0,1,1,1,0
831260000,1310988,1310988,1310996,1311004,0,0.01009992,0.0056210766,0.0046772705,0.0,1310988,1310988,1310996,1311004,0,0.0007108615,0.0005524255,0.00027370188,0.0,1,1,1,0,50,50,50,0,1,1,1,0,1,1,1,0
831460000,1310988,1310988,1310996,1311004,0,0.0059826076,0.0041446905,0.0064939233,0.0,1310988,1310988,1310996,1311004,0,0.00028382798,0.00049696333,0.00042804977,0.0,1,1,1,0,50,50,50,0,1,1,1,0,1,1,1,0
831660000,1310988,1310988,1310996,1311004,0,0.00569264,0.006322445,0.009210916,0.0,1310988,1310988,1310996,1311004,0,0.00027099968,0.0002704758,0.00033537758,0.0,1,1,1,0,50,50,50,0,1,1,1,0,1,1,1,0
831860000,1310988,1310988,1310996,1311004,0,0.013541594,0.01969078,0.012406328,0.0,1310988,1310988,1310996,1311004,0,0.0004002827,0.0001112187,0.00051069557,0.0,1,1,1,0,50,50,50,0,1,1,1,0,1,1,1,0
832064000,1310988,1310988,1310996,1311004,0,0.016963035,0.013392244,0.004502644,0.0,1310988,1310988,1310996,1311004,0,0.00034692232,0.00044519542,0.0002137329,0.0,1,1,1,0,50,50,50,0,1,1,1,0,1,1,1,0
832260000,1310988,1310988,1310996,1311004,0,0.008257226,0.007912778,0.009663836,0.0,1310988,1310988,1310996,1311004,0,0.00044728798,0.00028371575,0.00034384546,0.0,1,1,1,0,50,50,50,0,1,1,1,0,1,1,1,0
832464000,1310988,1310988,1310996,1311004,0,0.017625447,0.013136445,0.00619562,0.0,1310988,1310988,1310996,1311004,0,0.00038867397,0.00038389335,0.00019915895,0.0,1,1,1,0,50,50,50,0,1,1,1,0,1,1,1,0
832660000,1310988,1310988,1310996,1311004,0,0.017186686,0.01411702,0.025502222,0.0,1310988,1310988,1310996,1311004,0,0.00043267562,0.00062055635,0.00054143113,0.0,1,1,1,0,50,50,50,0,1,1,1,0,1,1,1,0
832860000,1310988,1310988,1310996,1311004,0,0.007995925,0.0045126444,0.0035033044,0.0,1310988,1310988,1310996,1311004,0,0.0005280746,0.00025010775,0.00033364675,0.0,1,1,1,0,50,50,50,0,1,1,1,0,1,1,1,0
833060000,1310988,1310988,1310996,1311004,0,0.010585272,0.016154319,0.014813217,0.0,1310988,1310988,1310996,1311004,0,0.00056638074,0.00018873675,0.00051180733,0.0,1,1,1,0,50,50,50,0,1,1,1,0,1,1,1,0
833260000,1310988,1310988,1310996,1311004,0,0.015712237,0.008530869,0.014975143,0.0,1310988,1310988,1310996,1311004,0,0.0005571205,0.00026533924,0.000533322,0.0,1,1,1,0,50,50,50,0,1,1,1,0,1,1,1,0
833464000,1310988,1310988,1310996,1311004,0,0.017611103,0.012593516,0.0053822594,0.0,1310988,1310988,1310996,1311004,0,0.00030817324,0.0004939684,0.0007621551,0.0,1,1,1,0,50,50,50,0,1,1,1,0,1,1,1,0
833660000,1310988,1310988,1310996,1311004,0,0.011037701,0.00770964,0.0052482253,0.0,1310988,1310988,1310996,1311004,0,0.00064059475,0.0005678967,0.00011818151,0.0,1,1,1,0,50,50,50,0,1,1,1,0,1,1,1,0
833864000,1310988,1310988,1310996,1311004,0,0.008600053,0.011836839,0.009852297,0.0,1310988,1310988,1310996,1311004,0,6.580385e-05,0.0002836834,0.00026841485,0.0,1,1,1,0,50,50,50,0,1,1,1,0,1,1,1,0
834060000,1310988,1310988,1310996,1311004,0,0.010728294,0.009801595,0.0132642165,0.0,1310988,1310988,1310996,1311004,0,0.0005986269,0.00041151443,0.00019810264,0.0,1,1,1,0,50,50,50,0,1,1,1,0,1,1,1,0
834260000,1310988,1310988,1310996,1311004,0,0.013156238,0.016311573,0.0076097264,0.0,1310988,1310988,1310996,1311004,0,0.00043299698,0.0004042569,0.00025452257,0.0,1,1,1,0,50,50,50,0,1,1,1,0,1,1,1,0
834460000,1310988,1310988,1310996,1311004,0,0.01064716,0.011403394,0.0074505894,0.0,1310988,1310988,1310996,1311004,0,0.00028598512,0.00029306233,0.00033236912,0.0,1,1,1,0,50,50,50,0,1,1,1,0,1,1,1,0
834664000,1310988,1310988,1310996,1311004,0,0.014748801,0.006015924,0.0092536565,0.0,1310988,1310988,1310996,1311004,0,0.0006288147,0.0004529738,0.00031904827,0.0,1,1,1,0,50,50,50,0,1,1,1,0,1,1,1,0
834860000,1310988,1310988,1310996,1311004,0,0.010635746,0.015642287,0.007983178,0.0,1310988,1310988,1310996,1311004,0,0.00031486398,0.0002953112,0.0003318872,0.0,1,1,1,0,50,50,50,0,1,1,1,0,1,1,1,0
835060000,1310988,1310988,1310996,1311004,0,0.008948024,0.010211162,0.0094023,0.0,1310988,1310988,1310996,1311004,0,0.0004190055,0.00046606467,0.00021913217,0.0,1,1,1,0,50,50,50,0,1,1,1,0,1,1,1,0
835264000,1310988,1310988,1310996,1311004,0,0.013037084,0.008601694,0.016662542,0.0,1310988,1310988,1310996,1311004,0,0.0003965569,0.00027986852,0.00017460465,0.0,1,1,1,0,50,50,50,0,1,1,1,0,1,1,1,0
835460000,1310988,1310988,1310996,1311004,0,0.01826965,0.0049552126,0.016354876,0.0,1310988,1310988,1310996,1311004,0,0.0003171599,0.00022128114,0.00011160336,0.0,1,1,1,0,50,50,50,0,1,1,1,0,1,1,1,0
835664000,1310988,1310988,1310996,1311004,0,0.017391026,0.009166897,0.01885912,0.0,1310988,1310988,1310996,1311004,0,0.0004838274,0.00051593286,0.00030278624,0.0,1,1,1,0,50,50,50,0,1,1,1,0,1,1,1,0
835860000,1310988,1310988,1310996,1311004,0,0.0076722903,0.005666726,0.0055460897,0.0,1310988,1310988,1310996,1311004,0,0.00091911183,0.0017962505,0.0008809403,0.0,1,1,1,0,50,50,50,0,1,1,1,0,1,1,1,0
836064000,1310988,1310988,1310996,1311004,0,0.028570564,0.009032504,0.037243035,0.0,1310988,1310988,1310996,1311004,0,0.0014226896,0.0009759886,0.00056744483,0.0,1,1,1,0,50,50,50,0,1,1,1,0,1,1,1,0
836264000,1310988,1310988,1310996,1311004,0,0.014200684,0.024451561,0.016991451,0.0,1310988,1310988,1310996,1311004,0,0.0018434366,0.00050039333,0.0014303346,0.0,1,1,1,0,50,50,50,0,1,1,1,0,1,1,1,0
836460000,1310988,1310988,1310996,1311004,0,0.027943049,0.021283992,0.049211524,0.0,1310988,1310988,1310996,1311004,0,0.00080773426,0.000332314,0.00047726269,0.0,1,1,1,0,50,50,50,0,1,1,1,0,1,1,1,0
836660000,1310988,1310988,1310996,1311004,0,0.044782978,0.006584837,0.04089171,0.0,1310988,1310988,1310996,1311004,0,0.0009098051,0.0012470058,0.0004964837,0.0,1,1,1,0,50,50,50,0,1,1,1,0,1,1,1,0
836860000,1310988,1310988,1310996,1311004,0,0.035215523,0.012784205,0.022492588,0.0,1310988,1310988,1310996,1311004,0,0.0003073716,0.0001389796,0.00017859359,0.0,1,1,1,0,50,50,50,0,1,1,1,0,1,1,1,0
837064000,1310988,1310988,1310996,1311004,0,0.02268096,0.036466967,0.014101058,0.0,1310988,1310988,1310996,1311004,0,0.00054694235,0.0010606482,0.0013700821,0.0,1,1,1,0,50,50,50,0,1,1,1,0,1,1,1,0
837264000,1310988,1310988,1310996,1311004,0,0.060419187,0.028886212,0.031623255,0.0,1310988,1310988,1310996,1311004,0,0.005034766,0.002516323,0.002540518,0.0,1,1,1,0,50,50,50,0,1,1,1,0,1,1,1,0
837464000,1310988,1310988,1310996,1311004,0,0.024169583,0.02541216,0.044260394,0.0,1310988,1310988,1310996,1311004,0,0.0077242963,0.0033464695,0.0043852357,0.0,1,1,1,0,50,50,50,0,1,1,1,0,1,1,1,0
837660000,1310988,1310988,1310996,1311004,0,0.018247223,0.012547628,0.0071329903,0.0,1310988,1310988,1310996,1311004,0,0.008455392,0.004116482,0.0043808213,0.0,1,1,1,0,50,50,50,0,1,1,1,0,1,1,1,0
837860000,1310988,1310988,1310996,1311004,0,0.01489493,0.017204944,0.02829686,0.0,1310988,1310988,1310996,1311004,0,7.7141915e-05,0.0003674833,0.00037764732,0.0,1,1,1,0,50,50,50,0,1,1,1,0,1,1,1,0
838064000,1310988,1310988,1310996,1311004,0,0.010635498,0.0059437226,0.0058817267,0.0,1310988,1310988,1310996,1311004,0,0.0026633637,0.0020141148,0.0006754742,0.0,1,1,1,0,50,50,50,0,1,1,1,0,1,1,1,0
838260000,1310988,1310988,1310996,1311004,0,0.0115704015,0.0048410515,0.007597546,0.0,1310988,1310988,1310996,1311004,0,0.0026724054,0.0013043202,0.0013778647,0.0,1,1,1,0,50,50,50,0,1,1,1,0,1,1,1,0
838464000,1310988,1310988,1310996,1311004,0,0.009709335,0.0046194107,0.005238606,0.0,1310988,1310988,1310996,1311004,0,0.000314829,0.0007755822,0.00076832133,0.0,1,1,1,0,50,50,50,0,1,1,1,0,1,1,1,0
838664000,1310988,1310988,1310996,1311004,0,0.021200009,0.04057988,0.020646987,0.0,1310988,1310988,1310996,1311004,0,0.005543838,0.0011232902,0.0066225245,0.0,1,1,1,0,50,50,50,0,1,1,1,0,1,1,1,0
838860000,1310988,1310988,1310996,1311004,0,0.014139096,0.040732708,0.030355994,0.0,1310988,1310988,1310996,1311004,0,0.00081687345,0.00758721,0.008337855,0.0,1,1,1,0,50,50,50,0,1,1,1,0,1,1,1,0
839060000,1310988,1310988,1310996,1311004,0,0.02272726,0.022624183,0.008348778,0.0,1310988,1310988,1310996,1311004,0,0.0002937085,0.0036150357,0.003806667,0.0,1,1,1,0,50,50,50,0,1,1,1,0,1,1,1,0
839264000,1310988,1310988,1310996,1311004,0,0.01578305,0.018017063,0.009151412,0.0,1310988,1310988,1310996,1311004,0,0.005242831,0.0020430188,0.0032022393,0.0,1,1,1,0,50,50,50,0,1,1,1,0,1,1,1,0
839464000,1310988,1310988,1310996,1311004,0,0.018217169,0.02032268,0.015813416,0.0,1310988,1310988,1310996,1311004,0,0.0036087702,0.0011425837,0.0025499016,0.0,1,1,1,0,50,50,50,0,1,1,1,0,1,1,1,0
839664000,1310988,1310988,1310996,1311004,0,0.011584692,0.0023066204,0.009315997,0.0,1310988,1310988,1310996,1311004,0,0.0025695984,0.0015818507,0.000987987,0.0,1,1,1,0,50,50,50,0,1,1,1,0,1,1,1,0
839860000,1310988,1310988,1310996,1311004,0,0.006128825,0.003754033,0.003551349,0.0,1310988,1310988,1310996,1311004,0,0.00056078756,0.00025731258,0.0005780747,0.0,1,1,1,0,50,50,50,0,1,1,1,0,1,1,1,0
840064000,1310988,1310988,1310996,1311004,0,0.022410156,0.007808916,0.014616571,0.0,1310988,1310988,1310996,1311004,0,0.004259418,0.003063372,0.0012447091,0.0,1,1,1,0,50,50,50,0,1,1,1,0,1,1,1,0
840260000,1310988,1310988,1310996,1311004,0,0.024497952,0.009097513,0.020085815,0.0,1310988,1310988,1310996,1311004,0,0.006093352,0.00442913,0.0016863716,0.0,1,1,1,0,50,50,50,0,1,1,1,0,1,1,1,0
840464000,1310988,1310988,1310996,1311004,0,0.020797942,0.03618267,0.017537171,0.0,1310988,1310988,1310996,1311004,0,0.0017556818,0.001112189,0.00067285425,0.0,1,1,1,0,50,50,50,0,1,1,1,0,1,1,1,0
840664000,1310988,1310988,1310996,1311004,0,0.030384922,0.0119901905,0.01886457,0.0,1310988,1310988,1310996,1311004,0,0.005678554,0.0007709596,0.004942577,0.0,1,1,1,0,50,50,50,0,1,1,1,0,1,1,1,0
840864000,1310988,1310988,1310996,1311004,0,0.012214883,0.004652975,0.007958774,0.0,1310988,1310988,1310996,1311004,0,0.0014011234,0.0025431018,0.0038919144,0.0,1,1,1,0,50,50,50,0,1,1,1,0,1,1,1,0
841064000,1310988,1310988,1310996,1311004,0,0.01616456,0.0060754176,0.010797446,0.0,1310988,1310988,1310996,1311004,0,0.0023654487,0.000906285,0.0014614676,0.0,1,1,1,0,50,50,50,0,1,1,1,0,1,1,1,0
841260000,1310988,1310988,1310996,1311004,0,0.011144089,0.012253213,0.00628502,0.0,1310988,1310988,1310996,1311004,0,0.0019038697,0.0010284238,0.00090423686,0.0,1,1,1,0,50,50,50,0,1,1,1,0,1,1,1,0
841464000,1310988,1310988,1310996,1311004,0,0.007422471,0.0024933228,0.0051019103,0.0,1310988,1310988,1310996,1311004,0,0.0041753156,0.00231756,0.0018578846,0.0,1,1,1,0,50,50,50,0,1,1,1,0,1,1,1,0
841664000,1310988,1310988,1310996,1311004,0,0.0308211,0.015412759,0.019292371,0.0,1310988,1310988,1310996,1311004,0,0.0036865275,0.0020104786,0.0016872253,0.0,1,1,1,0,50,50,50,0,1,1,1,0,1,1,1,0
841860000,1310988,1310988,1310996,1311004,0,0.041075766,0.002861941,0.039591543,0.0,1310988,1310988,1310996,1311004,0,0.0049145035,0.0064166053,0.001798671,0.0,1,1,1,0,50,50,50,0,1,1,1,0,1,1,1,0
842060000,1310988,1310988,1310996,1311004,0,0.025986046,0.0056289593,0.020578358,0.0,1310988,1310988,1310996,1311004,0,0.0011443567,0.001506832,0.0026247078,0.0,1,1,1,0,50,50,50,0,1,1,1,0,1,1,1,0
842260000,1310988,1310988,1310996,1311004,0,0.02042816,0.011941404,0.009627214,0.0,1310988,1310988,1310996,1311004,0,0.00030323374,0.00029642548,0.00043147616,0.0,1,1,1,0,50,50,50,0,1,1,1,0,1,1,1,0
842460000,1310988,1310988,1310996,1311004,0,0.008288211,0.0071241604,0.0052025975,0.0,1310988,1310988,1310996,1311004,0,0.002210939,0.0011921024,0.0010378361,0.0,1,1,1,0,50,50,50,0,1,1,1,0,1,1,1,0
842660000,1310988,1310988,1310996,1311004,0,0.007194739,0.0061526857,0.0062814495,0.0,1310988,1310988,1310996,1311004,0,0.0005383228,0.0013077414,0.0016328071,0.0,1,1,1,0,50,50,50,0,1,1,1,0,1,1,1,0
842864000,1310988,1310988,1310996,1311004,0,0.004509574,0.0033941136,0.003224121,0.0,1310988,1310988,1310996,1311004,0,0.0011989939,0.000804987,0.00048046678,0.0,1,1,1,0,50,50,50,0,1,1,1,0,1,1,1,0
843064000,1310988,1310988,1310996,1311004,0,0.02583162,0.01494515,0.012162346,0.0,1310988,1310988,1310996,1311004,0,0.009332112,0.0040411423,0.005311373,0.0,1,1,1,0,50,50,50,0,1,1,1,0,1,1,1,0
843260000,1310988,1310988,1310996,1311004,0,0.0223622,0.013368411,0.03399766,0.0,1310988,1310988,1310996,1311004,0,0.0009933184,0.00088799564,0.00027863082,0.0,1,1,1,0,50,50,50,0,1,1,1,0,1,1,1,0
843464000,1310988,1310988,1310996,1311004,0,0.008435807,0.004542866,0.005434002,0.0,1310988,1310988,1310996,1311004,0,0.0005386234,0.00035401995,0.00050708104,0.0,1,1,1,0,50,50,50,0,1,1,1,0,1,1,1,0
843664000,1310988,1310988,1310996,1311004,0,0.009767628,0.006196153,0.007973144,0.0,1310988,1310988,1310996,1311004,0,0.00047829124,0.0002434558,0.0003666748,0.0,1,1,1,0,50,50,50,0,1,1,1,0,1,1,1,0
843864000,1310988,1310988,1310996,1311004,0,0.008472099,0.005353093,0.008776821,0.0,1310988,1310988,1310996,1311004,0,0.0008697797,0.0009852281,0.00027455375,0.0,1,1,1,0,50,50,50,0,1,1,1,0,1,1,1,0
844064000,1310988,1310988,1310996,1311004,0,0.005718412,0.017763797,0.019508624,0.0,1310988,1310988,1310996,1311004,0,0.001349416,0.002251669,0.0010732574,0.0,1,1,1,0,50,50,50,0,1,1,1,0,1,1,1,0
844260000,1310988,1310988,1310996,1311004,0,0.012081046,0.0050405287,0.014602152,0.0,1310988,1310988,1310996,1311004,0,0.0016371178,0.0016201932,0.00042735733,0.0,1,1,1,0,50,50,50,0,1,1,1,0,1,1,1,0
844464000,1310988,1310988,1310996,1311004,0,0.011517942,0.011886762,0.020790681,0.0,1310988,1310988,1310996,1311004,0,0.0021194874,0.0012929649,0.0009904068,0.0,1,1,1,0,50,50,50,0,1,1,1,0,1,1,1,0
844664000,1310988,1310988,1310996,1311004,0,0.011424495,0.0057556476,0.0057087485,0.0,1310988,1310988,1310996,1311004,0,0.0004624706,0.00050722016,0.00041508678,0.0,1,1,1,0,50,50,50,0,1,1,1,0,1,1,1,0
844860000,1310988,1310988,1310996,1311004,0,0.009450573,0.009264159,0.006608678,0.0,1310988,1310988,1310996,1311004,0,0.0008220247,0.00026733836,0.0005746106,0.0,1,1,1,0,50,50,50,0,1,1,1,0,1,1,1,0
845060000,1310988,1310988,1310996,1311004,0,0.008763824,0.009202611,0.0035749227,0.0,1310988,1310988,1310996,1311004,0,0.0028693452,0.00092280586,0.0019491627,0.0,1,1,1,0,50,50,50,0,1,1,1,0,1,1,1,0
845264000,1310988,1310988,1310996,1311004,0,0.010367816,0.0052380688,0.005718316,0.0,1310988,1310988,1310996,1311004,0,0.0010984634,0.00066970446,0.00047635447,0.0,1,1,1,0,50,50,50,0,1,1,1,0,1,1,1,0
845464000,1310988,1310988,1310996,1311004,0,0.02152224,0.037888415,0.018589344,0.0,1310988,1310988,1310996,1311004,0,0.006307212,0.0036612472,0.0026476753,0.0,1,1,1,0,50,50,50,0,1,1,1,0,1,1,1,0
845664000,1310988,1310988,1310996,1311004,0,0.036851685,0.009827407,0.027443137,0.0,1310988,1310988,1310996,1311004,0,0.0012640385,0.0008421246,0.0019277908,0.0,1,1,1,0,50,50,50,0,1,1,1,0,1,1,1,0
845860000,1310988,1310988,1310996,1311004,0,0.012067143,0.02025431,0.009869367,0.0,1310988,1310988,1310996,1311004,0,0.003780454,0.00088365184,0.0029013038,0.0,1,1,1,0,50,50,50,0,1,1,1,0,1,1,1,0
846064000,1310988,1310988,1310996,1311004,0,0.0071917684,0.0233717,0.02493479,0.0,1310988,1310988,1310996,1311004,0,0.0012921974,0.0011721704,0.002341792,0.0,1,1,1,0,50,50,50,0,1,1,1,0,1,1,1,0
846264000,1310988,1310988,1310996,1311004,0,0.010165479,0.012299,0.014592737,0.0,1310988,1310988,1310996,1311004,0,0.0034933784,0.0019641288,0.0015365564,0.0,1,1,1,0,50,50,50,0,1,1,1,0,1,1,1,0
846464000,1310988,1310988,1310996,1311004,0,0.008431137,0.0043353587,0.0057433983,0.0,1310988,1310988,1310996,1311004,0,0.0010602176,0.0014385587,0.0024119674,0.0,1,1,1,0,50,50,50,0,1,1,1,0,1,1,1,0
846664000,1310988,1310988,1310996,1311004,0,0.0047243484,0.008106519,0.009854206,0.0,1310988,1310988,1310996,1311004,0,0.0004420217,0.001060461,0.0006820573,0.0,1,1,1,0,50,50,50,0,1,1,1,0,1,1,1,0
846864000,1310988,1310988,1310996,1311004,0,0.01017692,0.00585366,0.005931259,0.0,1310988,1310988,1310996,1311004,0,0.008117687,0.0038870662,0.0042353934,0.0,1,1,1,0,50,50,50,0,1,1,1,0,1,1,1,0
847060000,1310988,1310988,1310996,1311004,0,0.0105526615,0.027205773,0.03634696,0.0,1310988,1310988,1310996,1311004,0,0.003134002,0.00096594286,0.002172712,0.0,1,1,1,0,50,50,50,0,1,1,1,0,1,1,1,0
847264000,1310988,1310988,1310996,1311004,0,0.01625989,0.018031076,0.021293037,0.0,1310988,1310988,1310996,1311004,0,0.0024641533,0.0009773234,0.0033002477,0.0,1,1,1,0,50,50,50,0,1,1,1,0,1,1,1,0
847464000,1310988,1310988,1310996,1311004,0,0.00712841,0.0053964737,0.0033710846,0.0,1310988,1310988,1310996,1311004,0,0.0003820367,0.00052190904,0.0005707461,0.0,1,1,1,0,50,50,50,0,1,1,1,0,1,1,1,0
847664000,1310988,1310988,1310996,1311004,0,0.008236241,0.0042727343,0.0041191718,0.0,1310988,1310988,1310996,1311004,0,0.00041355847,0.00028510124,0.0001414703,0.0,1,1,1,0,50,50,50,0,1,1,1,0,1,1,1,0
847860000,1310988,1310988,1310996,1311004,0,0.01821602,0.028626679,0.011289896,0.0,1310988,1310988,1310996,1311004,0,0.0020513202,0.0017557449,0.00032704842,0.0,1,1,1,0,50,50,50,0,1,1,1,0,1,1,1,0
848060000,1310988,1310988,1310996,1311004,0,0.006930965,0.005977279,0.0075811977,0.0,1310988,1310988,1310996,1311004,0,0.0020397585,0.00087323296,0.001388784,0.0,1,1,1,0,50,50,50,0,1,1,1,0,1,1,1,0
848264000,1310988,1310988,1310996,1311004,0,0.015227098,0.0031404975,0.015589823,0.0,1310988,1310988,1310996,1311004,0,0.00056194776,0.00039614507,0.00087720633,0.0,1,1,1,0,50,50,50,0,1,1,1,0,1,1,1,0
848464000,1310988,1310988,1310996,1311004,0,0.0040204017,0.007694191,0.00650837,0.0,1310988,1310988,1310996,1311004,0,0.0013641038,0.000757406,0.00063653605,0.0,1,1,1,0,50,50,50,0,1,1,1,0,1,1,1,0
848660000,1310988,1310988,1310996,1311004,0,0.00611709,0.0048109153,0.0042860107,0.0,1310988,1310988,1310996,1311004,0,0.0007515688,0.0019274057,0.0013521487,0.0,1,1,1,0,50,50,50,0,1,1,1,0,1,1,1,0
848860000,1310988,1310988,1310996,1311004,0,0.021108791,0.050033677,0.06968768,0.0,1310988,1310988,1310996,1311004,0,0.0041341614,0.004612359,0.008711917,0.0,1,1,1,0,50,50,50,0,1,1,1,0,1,1,1,0
849060000,1310988,1310988,1310996,1311004,0,0.01975655,0.037853047,0.01983127,0.0,1310988,1310988,1310996,1311004,0,0.0062101926,0.0040792897,0.002142415,0.0,1,1,1,0,50,50,50,0,1,1,1,0,1,1,1,0
849264000,1310988,1310988,1310996,1311004,0,0.016463825,0.021126006,0.0063224426,0.0,1310988,1310988,1310996,1311004,0,0.0006790115,0.00030222186,0.00038171644,0.0,1,1,1,0,50,50,50,0,1,1,1,0,1,1,1,0
849460000,1310988,1310988,1310996,1311004,0,0.015019118,0.02379124,0.01351312,0.0,1310988,1310988,1310996,1311004,0,0.00047770396,0.00074559613,0.00037238476,0.0,1,1,1,0,50,50,50,0,1,1,1,0,1,1,1,0
849664000,1310988,1310988,1310996,1311004,0,0.012134608,0.017816754,0.009969305,0.0,1310988,1310988,1310996,1311004,0,0.00037769417,0.0002040033,0.0003441664,0.0,1,1,1,0,50,50,50,0,1,1,1,0,1,1,1,0
849864000,1310988,1310988,1310996,1311004,0,0.013133621,0.023089245,0.011145433,0.0,1310988,1310988,1310996,1311004,0,0.00048770587,0.0021322088,0.0019629907,0.0,1,1,1,0,50,50,50,0,1,1,1,0,1,1,1,0
850060000,1310988,1310988,1310996,1311004,0,0.014672595,0.007213116,0.007891844,0.0,1310988,1310988,1310996,1311004,0,0.00069829397,0.0010408887,0.0005479852,0.0,1,1,1,0,50,50,50,0,1,1,1,0,1,1,1,0
850260000,1310988,1310988,1310996,1311004,0,0.0071242577,0.0065674977,0.007033018,0.0,1310988,1310988,1310996,1311004,0,0.00032741987,0.0003622633,0.0002852595,0.0,1,1,1,0,50,50,50,0,1,1,1,0,1,1,1,0
850464000,1310988,1310988,1310996,1311004,0,0.019658884,0.030180762,0.04910808,0.0,1310988,1310988,1310996,1311004,0,0.004245972,0.0014779567,0.0029960938,0.0,1,1,1,0,50,50,50,0,1,1,1,0,1,1,1,0
850660000,1310988,1310988,1310996,1311004,0,0.010213697,0.009322539,0.015028641,0.0,1310988,1310988,1310996,1311004,0,0.004878307,0.0024567996,0.0072375443,0.0,1,1,1,0,50,50,50,0,1,1,1,0,1,1,1,0
850860000,1310988,1310988,1310996,1311004,0,0.03380699,0.08062548,0.047207374,0.0,1310988,1310988,1310996,1311004,0,0.0033496108,0.006610429,0.0032803905,0.0,1,1,1,0,50,50,50,0,1,1,1,0,1,1,1,0
851064000,1310988,1310988,1310996,1311004,0,0.024997039,0.044821743,0.02517413,0.0,1310988,1310988,1310996,1311004,0,0.003482645,0.005244679,0.0018380735,0.0,1,1,1,0,50,50,50,0,1,1,1,0,1,1,1,0
851260000,1310988,1310988,1310996,1311004,0,0.07126704,0.037543673,0.033808116,0.0,1310988,1310988,1310996,1311004,0,0.0033854453,0.0011865373,0.002319841,0.0,1,1,1,0,50,50,50,0,1,1,1,0,1,1,1,0
851464000,1310988,1310988,1310996,1311004,0,0.006906538,0.011229333,0.01127895,0.0,1310988,1310988,1310996,1311004,0,0.009041183,0.0038717003,0.005195887,0.0,1,1,1,0,50,50,50,0,1,1,1,0,1,1,1,0
851660000,1310988,1310988,1310996,1311004,0,0.005081566,0.0046157036,0.0018977763,0.0,1310988,1310988,1310996,1311004,0,0.0013503673,0.0005440633,0.0010537785,0.0,1,1,1,0,50,50,50,0,1,1,1,0,1,1,1,0
851860000,1310988,1310988,1310996,1311004,0,0.04476627,0.022117957,0.022718504,0.0,1310988,1310988,1310996,1311004,0,0.0033191454,0.0009357651,0.0024048313,0.0,1,1,1,0,50,50,50,0,1,1,1,0,1,1,1,0
852060000,1310988,1310988,1310996,1311004,0,0.015637856,0.009826419,0.0058839237,0.0,1310988,1310988,1310996,1311004,0,0.0004058031,0.00015319986,0.00025754492,0.0,1,1,1,0,50,50,50,0,1,1,1,0,1,1,1,0
852260000,1310988,1310988,1310996,1311004,0,0.019948026,0.020304255,0.006689899,0.0,1310988,1310988,1310996,1311004,0,0.0024402123,0.0013345776,0.0011452103,0.0,1,1,1,0,50,50,50,0,1,1,1,0,1,1,1,0
852460000,1310988,1310988,1310996,1311004,0,0.013160515,0.010903287,0.007604133,0.0,1310988,1310988,1310996,1311004,0,0.0021711842,0.003423333,0.0013941792,0.0,1,1,1,0,50,50,50,0,1,1,1,0,1,1,1,0
852664000,1310988,1310988,1310996,1311004,0,0.013584311,0.012599577,0.015187525,0.0,1310988,1310988,1310996,1311004,0,0.0006897629,0.0009672718,0.0009015664,0.0,1,1,1,0,50,50,50,0,1,1,1,0,1,1,1,0
852864000,1310988,1310988,1310996,1311004,0,0.00835514,0.0062764385,0.0036674438,0.0,1310988,1310988,1310996,1311004,0,0.008686599,0.005255277,0.003436457,0.0,1,1,1,0,50,50,50,0,1,1,1,0,1,1,1,0
853060000,1310988,1310988,1310996,1311004,0,0.031330485,0.0031808007,0.030878495,0.0,1310988,1310988,1310996,1311004,0,0.0039076027,0.0059817024,0.0021637417,0.0,1,1,1,0,50,50,50,0,1,1,1,0,1,1,1,0
853260000,1310988,1310988,1310996,1311004,0,0.03145092,0.013645667,0.036863137,0.0,1310988,1310988,1310996,1311004,0,0.0019040664,0.0039406153,0.0057582995,0.0,1,1,1,0,50,50,50,0,1,1,1,0,1,1,1,0
853464000,1310988,1310988,1310996,1311004,0,0.0033485182,0.001821118,0.0041407193,0.0,1310988,1310988,1310996,1311004,0,0.00478046,0.0020154621,0.0027693098,0.0,1,1,1,0,50,50,50,0,1,1,1,0,1,1,1,0
853660000,1310988,1310988,1310996,1311004,0,0.009074702,0.0046565086,0.0045112027,0.0,1310988,1310988,1310996,1311004,0,0.0014884277,0.0021151004,0.00065241853,0.0,1,1,1,0,50,50,50,0,1,1,1,0,1,1,1,0
853860000,1310988,1310988,1310996,1311004,0,0.01219152,0.0032850185,0.009132323,0.0,1310988,1310988,1310996,1311004,0,0.00087117834,0.0003301065,0.00073152885,0.0,1,1,1,0,50,50,50,0,1,1,1,0,1,1,1,0
854060000,1310988,1310988,1310996,1311004,0,0.007937909,0.0065975315,0.0043825125,0.0,1310988,1310988,1310996,1311004,0,0.0006733955,0.0022857185,0.0021355161,0.0,1,1,1,0,50,50,50,0,1,1,1,0,1,1,1,0
854264000,1310988,1310988,1310996,1311004,0,0.029659113,0.014750839,0.043205258,0.0,1310988,1310988,1310996,1311004,0,0.0026853052,0.011891792,0.014573108,0.0,1,1,1,0,50,50,50,0,1,1,1,0,1,1,1,0
854464000,1310988,1310988,1310996,1311004,0,0.03211178,0.054785557,0.023038909,0.0,1310988,1310988,1310996,1311004,0,0.0018022263,0.003970993,0.0021900288,0.0,1,1,1,0,50,50,50,0,1,1,1,0,1,1,1,0
854664000,1310988,1310988,1310996,1311004,0,0.008805248,0.018160218,0.009421954,0.0,1310988,1310988,1310996,1311004,0,0.0029907948,0.00635548,0.0034378287,0.0,1,1,1,0,50,50,50,0,1,1,1,0,1,1,1,0
854864000,1310988,1310988,1310996,1311004,0,0.017896844,0.009219016,0.009017433,0.0,1310988,1310988,1310996,1311004,0,0.0007249253,0.00058080157,0.00019619739,0.0,1,1,1,0,50,50,50,0,1,1,1,0,1,1,1,0
855064000,1310988,1310988,1310996,1311004,0,0.016901229,0.016410677,0.0014604043,0.0,1310988,1310988,1310996,1311004,0,0.0028385068,0.0013173036,0.0015261584,0.0,1,1,1,0,50,50,50,0,1,1,1,0,1,1,1,0
855260000,1310988,1310988,1310996,1311004,0,0.007885396,0.0044192537,0.007807663,0.0,1310988,1310988,1310996,1311004,0,0.0017728828,0.0035507516,0.0018628759,0.0,1,1,1,0,50,50,50,0,1,1,1,0,1,1,1,0
855464000,1310988,1310988,1310996,1311004,0,0.010294055,0.0052003423,0.008873902,0.0,1310988,1310988,1310996,1311004,0,0.0017852576,0.0018661071,0.0004853889,0.0,1,1,1,0,50,50,50,0,1,1,1,0,1,1,1,0
855664000,1310988,1310988,1310996,1311004,0,0.04359695,0.021698594,0.02595656,0.0,1310988,1310988,1310996,1311004,0,0.010403832,0.006454551,0.0039533013,0.0,1,1,1,0,50,50,50,0,1,1,1,0,1,1,1,0
855860000,1310988,1310988,1310996,1311004,0,0.02887158,0.04112434,0.028085038,0.0,1310988,1310988,1310996,1311004,0,0.0032593806,0.013009192,0.013128719,0.0,1,1,1,0,50,50,50,0,1,1,1,0,1,1,1,0
856064000,1310988,1310988,1310996,1311004,0,0.009766226,0.01053972,0.008185971,0.0,1310988,1310988,1310996,1311004,0,0.005477602,0.0048553413,0.002143648,0.0,1,1,1,0,50,50,50,0,1,1,1,0,1,1,1,0
856260000,1310988,1310988,1310996,1311004,0,0.02775369,0.027127927,0.008690055,0.0,1310988,1310988,1310996,1311004,0,0.0047860467,0.0022433202,0.00269504,0.0,1,1,1,0,50,50,50,0,1,1,1,0,1,1,1,0
856460000,1310988,1310988,1310996,1311004,0,0.008936941,0.013698572,0.019971238,0.0,1310988,1310988,1310996,1311004,0,0.002672813,0.0021217356,0.004743878,0.0,1,1,1,0,50,50,50,0,1,1,1,0,1,1,1,0
856664000,1310988,1310988,1310996,1311004,0,0.013081341,0.0062161763,0.0110515915,0.0,1310988,1310988,1310996,1311004,0,0.0010272423,0.00095440925,0.0018217147,0.0,1,1,1,0,50,50,50,0,1,1,1,0,1,1,1,0
856860000,1310988,1310988,1310996,1311004,0,0.015639227,0.0067915968,0.012690366,0.0,1310988,1310988,1310996,1311004,0,0.0015404486,0.0037040669,0.0022118548,0.0,1,1,1,0,50,50,50,0,1,1,1,0,1,1,1,0
857060000,1310988,1310988,1310996,1311004,0,0.021749692,0.011469226,0.012391234,0.0,1310988,1310988,1310996,1311004,0,0.0023563628,0.0020871973,0.0006509495,0.0,1,1,1,0,50,50,50,0,1,1,1,0,1,1,1,0
857260000,1310988,1310988,1310996,1311004,0,0.008239038,0.005303207,0.0033379,0.0,1310988,1310988,1310996,1311004,0,0.0006852888,0.00044503756,0.00085138745,0.0,1,1,1,0,50,50,50,0,1,1,1,0,1,1,1,0
857460000,1310988,1310988,1310996,1311004,0,0.0075037167,0.003721057,0.006950578,0.0,1310988,1310988,1310996,1311004,0,0.0031337556,0.0015460649,0.0016613313,0.0,1,1,1,0,50,50,50,0,1,1,1,0,1,1,1,0
857660000,1310988,1310988,1310996,1311004,0,0.0072866385,0.005259046,0.0053915665,0.0,1310988,1310988,1310996,1311004,0,0.00021085114,0.0015834254,0.0017115695,0.0,1,1,1,0,50,50,50,0,1,1,1,0,1,1,1,0
857860000,1310988,1310988,1310996,1311004,0,0.019834869,0.011442153,0.008466742,0.0,1310988,1310988,1310996,1311004,0,0.00084550615,0.0018179758,0.0018266377,0.0,1,1,1,0,50,50,50,0,1,1,1,0,1,1,1,0
858064000,1310988,1310988,1310996,1311004,0,0.009096496,0.0070416247,0.0037098017,0.0,1310988,1310988,1310996,1311004,0,0.0020768605,0.00031723062,0.0018408526,0.0,1,1,1,0,50,50,50,0,1,1,1,0,1,1,1,0
858264000,1310988,1310988,1310996,1311004,0,0.008132341,0.004818035,0.006335533,0.0,1310988,1310988,1310996,1311004,0,0.00050057186,0.0004422588,0.00054870517,0.0,1,1,1,0,50,50,50,0,1,1,1,0,1,1,1,0
858460000,1310988,1310988,1310996,1311004,0,0.008642043,0.006515731,0.0025222483,0.0,1310988,1310988,1310996,1311004,0,0.0014016792,0.00062613824,0.00084819255,0.0,1,1,1,0,50,50,50,0,1,1,1,0,1,1,1,0
858660000,1310988,1310988,1310996,1311004,0,0.013380245,0.007261548,0.009325554,0.0,1310988,1310988,1310996,1311004,0,0.002342043,0.00030807368,0.002291514,0.0,1,1,1,0,50,50,50,0,1,1,1,0,1,1,1,0
858860000,1310988,1310988,1310996,1311004,0,0.019541346,0.008337655,0.0114737265,0.0,1310988,1310988,1310996,1311004,0,0.007862996,0.004943529,0.0029293827,0.0,1,1,1,0,50,50,50,0,1,1,1,0,1,1,1,0
859060000,1310988,1310988,1310996,1311004,0,0.018213252,0.019307898,0.027371464,0.0,1310988,1310988,1310996,1311004,0,0.0037056184,0.004780259,0.0011358163,0.0,1,1,1,0,50,50,50,0,1,1,1,0,1,1,1,0
859260000,1310988,1310988,1310996,1311004,0,0.009825767,0.01030136,0.011752805,0.0,1310988,1310988,1310996,1311004,0,0.0015009942,0.0097993165,0.011006852,0.0,1,1,1,0,50,50,50,0,1,1,1,0,1,1,1,0
859464000,1310988,1310988,1310996,1311004,0,0.022535376,0.009177674,0.027351158,0.0,1310988,1310988,1310996,1311004,0,0.0003531007,0.0044982936,0.00434217,0.0,1,1,1,0,50,50,50,0,1,1,1,0,1,1,1,0
859660000,1310988,1310988,1310996,1311004,0,0.016026238,0.01077056,0.008022519,0.0,1310988,1310988,1310996,1311004,0,0.0019039159,0.0018458783,0.0036267159,0.0,1,1,1,0,50,50,50,0,1,1,1,0,1,1,1,0
859860000,1310988,1310988,1310996,1311004,0,0.0071886294,0.013630756,0.0068115876,0.0,1310988,1310988,1310996,1311004,0,0.00079522893,0.0023544934,0.0017768166,0.0,1,1,1,0,50,50,50,0,1,1,1,0,1,1,1,0
860060000,1310988,1310988,1310996,1311004,0,0.010035866,0.007365935,0.0080638705,0.0,1310988,1310988,1310996,1311004,0,0.00092109997,0.00071121554,0.0013914745,0.0,1,1,1,0,50,50,50,0,1,1,1,0,1,1,1,0
860264000,1310988,1310988,1310996,1311004,0,0.011875639,0.0075630667,0.010953428,0.0,1310988,1310988,1310996,1311004,0,0.0067919283,0.0065628863,0.00029020826,0.0,1,1,1,0,50,50,50,0,1,1,1,0,1,1,1,0
860460000,1310988,1310988,1310996,1311004,0,0.019895094,0.02822496,0.04711743,0.0,1310988,1310988,1310996,1311004,0,0.008380276,0.0042945603,0.004090436,0.0,1,1,1,0,50,50,50,0,1,1,1,0,1,1,1,0
860660000,1310988,1310988,1310996,1311004,0,0.014044758,0.023208655,0.015085871,0.0,1310988,1310988,1310996,1311004,0,0.004726067,0.00023997042,0.0046863765,0.0,1,1,1,0,50,50,50,0,1,1,1,0,1,1,1,0
860864000,1310988,1310988,1310996,1311004,0,0.0081344135,0.0026065072,0.0060097715,0.0,1310988,1310988,1310996,1311004,0,0.00076387794,0.0003080713,0.00074909494,0.0,1,1,1,0,50,50,50,0,1,1,1,0,1,1,1,0
861060000,1310988,1310988,1310996,1311004,0,0.0133948475,0.00740175,0.010894368,0.0,1310988,1310988,1310996,1311004,0,0.0005372585,0.0010998071,0.00080290245,0.0,1,1,1,0,50,50,50,0,1,1,1,0,1,1,1,0
861264000,1310988,1310988,1310996,1311004,0,0.0047792247,0.0026375016,0.003017815,0.0,1310988,1310988,1310996,1311004,0,0.0005019087,0.0009318956,0.00070935715,0.0,1,1,1,0,50,50,50,0,1,1,1,0,1,1,1,0
861460000,1310988,1310988,1310996,1311004,0,0.010537487,0.0034070215,0.013923964,0.0,1310988,1310988,1310996,1311004,0,0.00076427124,0.002512743,0.0019801555,0.0,1,1,1,0,50,50,50,0,1,1,1,0,1,1,1,0
861660000,1310988,1310988,1310996,1311004,0,0.025419794,0.013092996,0.017778328,0.0,1310988,1310988,1310996,1311004,0,0.0091894455,0.0058299256,0.015017223,0.0,1,1,1,0,50,50,50,0,1,1,1,0,1,1,1,0
861864000,1310988,1310988,1310996,1311004,0,0.044635396,0.036596354,0.008736954,0.0,1310988,1310988,1310996,1311004,0,0.0006901342,0.0039015014,0.003369952,0.0,1,1,1,0,50,50,50,0,1,1,1,0,1,1,1,0
862064000,1310988,1310988,1310996,1311004,0,0.0049133794,0.0012816578,0.0047189393,0.0,1310988,1310988,1310996,1311004,0,0.00071518036,0.00045251992,0.00035285513,0.0,1,1,1,0,50,50,50,0,1,1,1,0,1,1,1,0
862264000,1310988,1310988,1310996,1311004,0,0.008399684,0.0049838745,0.0037297658,0.0,1310988,1310988,1310996,1311004,0,0.0011491184,0.0030519625,0.0041384622,0.0,1,1,1,0,50,50,50,0,1,1,1,0,1,1,1,0
862464000,1310988,1310988,1310996,1311004,0,0.015280553,0.008063418,0.007685612,0.0,1310988,1310988,1310996,1311004,0,0.00039455655,0.0004342807,0.0005008199,0.0,1,1,1,0,50,50,50,0,1,1,1,0,1,1,1,0
862660000,1310988,1310988,1310996,1311004,0,0.009823863,0.00862611,0.00987779,0.0,1310988,1310988,1310996,1311004,0,0.0005960126,0.00093331723,0.0008343256,0.0,1,1,1,0,50,50,50,0,1,1,1,0,1,1,1,0
862864000,1310988,1310988,1310996,1311004,0,0.010643606,0.0009611394,0.01082447,0.0,1310988,1310988,1310996,1311004,0,0.00036819806,0.00068442035,0.0010493171,0.0,1,1,1,0,50,50,50,0,1,1,1,0,1,1,1,0
863064000,1310988,1310988,1310996,1311004,0,0.018321266,0.0066823177,0.014054892,0.0,1310988,1310988,1310996,1311004,0,0.009014002,0.004073895,0.004940806,0.0,1,1,1,0,50,50,50,0,1,1,1,0,1,1,1,0
863264000,1310988,1310988,1310996,1311004,0,0.025868565,0.03933998,0.015537277,0.0,1310988,1310988,1310996,1311004,0,0.0012092782,0.00013394255,0.0012011143,0.0,1,1,1,0,50,50,50,0,1,1,1,0,1,1,1,0
863464000,1310988,1310988,1310996,1311004,0,0.017593147,0.011658433,0.024298443,0.0,1310988,1310988,1310996,1311004,0,0.0038645342,0.0040947967,0.007939523,0.0,1,1,1,0,50,50,50,0,1,1,1,0,1,1,1,0
863664000,1310988,1310988,1310996,1311004,0,0.016272057,0.01915632,0.03169041,0.0,1310988,1310988,1310996,1311004,0,0.0039072945,0.0028703597,0.0010429528,0.0,1,1,1,0,50,50,50,0,1,1,1,0,1,1,1,0
863860000,1310988,1310988,1310996,1311004,0,0.010712323,0.003581441,0.008321383,0.0,1310988,1310988,1310996,1311004,0,0.0016632114,0.00059711904,0.0010705584,0.0,1,1,1,0,50,50,50,0,1,1,1,0,1,1,1,0
864064000,1310988,1310988,1310996,1311004,0,0.011161917,0.011296067,0.00892131,0.0,1310988,1310988,1310996,1311004,0,0.002346217,0.0012152783,0.0011669056,0.0,1,1,1,0,50,50,50,0,1,1,1,0,1,1,1,0
864260000,1310988,1310988,1310996,1311004,0,0.0070792967,0.010000606,0.004852324,0.0,1310988,1310988,1310996,1311004,0,0.0009305426,0.0011432816,0.00034981585,0.0,1,1,1,0,50,50,50,0,1,1,1,0,1,1,1,0
864464000,1310988,1310988,1310996,1311004,0,0.039353423,0.019833168,0.019638078,0.0,1310988,1310988,1310996,1311004,0,0.0033596451,0.001691913,0.0016804126,0.0,1,1,1,0,50,50,50,0,1,1,1,0,1,1,1,0
864660000,1310988,1310988,1310996,1311004,0,0.02690581,0.011773714,0.036740918,0.0,1310988,1310988,1310996,1311004,0,0.00477416,0.0035466256,0.008313902,0.0,1,1,1,0,50,50,50,0,1,1,1,0,1,1,1,0
864864000,1310988,1310988,1310996,1311004,0,0.008413216,0.00650359,0.004140824,0.0,1310988,1310988,1310996,1311004,0,0.00035376492,0.0003039024,0.0006441735,0.0,1,1,1,0,50,50,50,0,1,1,1,0,1,1,1,0
865064000,1310988,1310988,1310996,1311004,0,0.013270309,0.013753736,0.021659158,0.0,1310988,1310988,1310996,1311004,0,0.0010714654,0.0010377746,0.00020000243,0.0,1,1,1,0,50,50,50,0,1,1,1,0,1,1,1,0
865264000,1310988,1310988,1310996,1311004,0,0.021592267,0.020661114,0.0075448104,0.0,1310988,1310988,1310996,1311004,0,0.0013121291,0.0019280451,0.00070977205,0.0,1,1,1,0,50,50,50,0,1,1,1,0,1,1,1,0
865464000,1310988,1310988,1310996,1311004,0,0.009481353,0.0046144403,0.005361301,0.0,1310988,1310988,1310996,1311004,0,0.00073142606,0.00015167613,0.0005806324,0.0,1,1,1,0,50,50,50,0,1,1,1,0,1,1,1,0
865660000,1310988,1310988,1310996,1311004,0,0.009602546,0.007987875,0.006211604,0.0,1310988,1310988,1310996,1311004,0,0.0015876452,0.0010262948,0.0010590242,0.0,1,1,1,0,50,50,50,0,1,1,1,0,1,1,1,0
865864000,1310988,1310988,1310996,1311004,0,0.009855929,0.0059862435,0.0040112063,0.0,1310988,1310988,1310996,1311004,0,0.0004808799,0.00044469626,0.00011490787,0.0,1,1,1,0,50,50,50,0,1,1,1,0,1,1,1,0
866064000,1310988,1310988,1310996,1311004,0,0.016883677,0.004997852,0.01762302,0.0,1310988,1310988,1310996,1311004,0,0.0013954646,0.0007368406,0.002061146,0.0,1,1,1,0,50,50,50,0,1,1,1,0,1,1,1,0
866260000,1310988,1310988,1310996,1311004,0,0.016013311,0.035883497,0.022544695,0.0,1310988,1310988,1310996,1311004,0,0.00016095776,0.0004775574,0.00044269516,0.0,1,1,1,0,50,50,50,0,1,1,1,0,1,1,1,0
866460000,1310988,1310988,1310996,1311004,0,0.01820763,0.01606767,0.03416962,0.0,1310988,1310988,1310996,1311004,0,0.0013363839,0.0038795914,0.0025778727,0.0,1,1,1,0,50,50,50,0,1,1,1,0,1,1,1,0
866664000,1310988,1310988,1310996,1311004,0,0.026933271,0.024565166,0.0033065318,0.0,1310988,1310988,1310996,1311004,0,0.00049680134,0.0019898086,0.0015146638,0.0,1,1,1,0,50,50,50,0,1,1,1,0,1,1,1,0
866860000,1310988,1310988,1310996,1311004,0,0.018272953,0.004881783,0.016969666,0.0,1310988,1310988,1310996,1311004,0,0.0007488863,0.00083940657,0.0012858147,0.0,1,1,1,0,50,50,50,0,1,1,1,0,1,1,1,0
867060000,1310988,1310988,1310996,1311004,0,0.00852472,0.011525265,0.003140508,0.0,1310988,1310988,1310996,1311004,0,0.001275729,0.0027202077,0.0014650747,0.0,1,1,1,0,50,50,50,0,1,1,1,0,1,1,1,0
867260000,1310988,1310988,1310996,1311004,0,0.008641072,0.011178942,0.010527018,0.0,1310988,1310988,1310996,1311004,0,0.0006351771,0.0012604763,0.0008052484,0.0,1,1,1,0,50,50,50,0,1,1,1,0,1,1,1,0
867464000,1310988,1310988,1310996,1311004,0,0.023627516,0.015807766,0.038287427,0.0,1310988,1310988,1310996,1311004,0,0.0057929805,0.0015527115,0.0072296066,0.0,1,1,1,0,50,50,50,0,1,1,1,0,1,1,1,0
867660000,1310988,1310988,1310996,1311004,0,0.057898425,0.0053179716,0.05498395,0.0,1310988,1310988,1310996,1311004,0,0.003966158,0.0013207429,0.0052795033,0.0,1,1,1,0,50,50,50,0,1,1,1,0,1,1,1,0
867864000,1310988,1310988,1310996,1311004,0,0.0025909205,0.017950743,0.015416143,0.0,1310988,1310988,1310996,1311004,0,0.0046815965,0.002563467,0.0021403502,0.0,1,1,1,0,50,50,50,0,1,1,1,0,1,1,1,0
868060000,1310988,1310988,1310996,1311004,0,0.015659489,0.007491294,0.016270503,0.0,1310988,1310988,1310996,1311004,0,0.004250216,0.004229421,0.00011353236,0.0,1,1,1,0,50,50,50,0,1,1,1,0,1,1,1,0
868264000,1310988,1310988,1310996,1311004,0,0.008320795,0.019335968,0.013344481,0.0,1310988,1310988,1310996,1311004,0,0.0007696291,0.0014705342,0.002235609,0.0,1,1,1,0,50,50,50,0,1,1,1,0,1,1,1,0
868464000,1310988,1310988,1310996,1311004,0,0.0071829385,0.01118577,0.00888137,0.0,1310988,1310988,1310996,1311004,0,0.00046260672,0.00072817056,0.00094580895,0.0,1,1,1,0,50,50,50,0,1,1,1,0,1,1,1,0
868664000,1310988,1310988,1310996,1311004,0,0.019792875,0.0056394706,0.014774202,0.0,1310988,1310988,1310996,1311004,0,0.00059244054,0.0007504471,0.0012822844,0.0,1,1,1,0,50,50,50,0,1,1,1,0,1,1,1,0
868860000,1310988,1310988,1310996,1311004,0,0.023721447,0.014933672,0.008895937,0.0,1310988,1310988,1310996,1311004,0,0.0030334117,0.0019371005,0.001097306,0.0,1,1,1,0,50,50,50,0,1,1,1,0,1,1,1,0
869064000,1310988,1310988,1310996,1311004,0,0.027513862,0.01158943,0.036901623,0.0,1310988,1310988,1310996,1311004,0,0.003790612,0.0029829799,0.006773377,0.0,1,1,1,0,50,50,50,0,1,1,1,0,1,1,1,0
869264000,1310988,1310988,1310996,1311004,0,0.022863211,0.011262561,0.028653638,0.0,1310988,1310988,1310996,1311004,0,0.0024908762,0.006780424,0.009266357,0.0,1,1,1,0,50,50,50,0,1,1,1,0,1,1,1,0
869460000,1310988,1310988,1310996,1311004,0,0.029921379,0.0112324245,0.020800263,0.0,1310988,1310988,1310996,1311004,0,0.0008340714,0.0010063251,0.00035082528,0.0,1,1,1,0,50,50,50,0,1,1,1,0,1,1,1,0
869664000,1310988,1310988,1310996,1311004,0,0.015688343,0.009046914,0.01736149,0.0,1310988,1310988,1310996,1311004,0,0.00056853436,0.00037334327,0.0006515139,0.0,1,1,1,0,50,50,50,0,1,1,1,0,1,1,1,0
869864000,1310988,1310988,1310996,1311004,0,0.022310564,0.0049949125,0.018296951,0.0,1310988,1310988,1310996,1311004,0,0.0010356279,3.251161e-05,0.0010516576,0.0,1,1,1,0,50,50,50,0,1,1,1,0,1,1,1,0
870064000,1310988,1310988,1310996,1311004,0,0.01170017,0.004098595,0.010639262,0.0,1310988,1310988,1310996,1311004,0,0.0021705145,0.0018136645,0.00042345095,0.0,1,1,1,0,50,50,50,0,1,1,1,0,1,1,1,0
870264000,1310988,1310988,1310996,1311004,0,0.007698481,0.0049536875,0.007269195,0.0,1310988,1310988,1310996,1311004,0,0.00041867964,0.00055073714,0.0001725594,0.0,1,1,1,0,50,50,50,0,1,1,1,0,1,1,1,0
870464000,1310988,1310988,1310996,1311004,0,0.032694712,0.04039549,0.008726864,0.0,1310988,1310988,1310996,1311004,0,0.003357407,0.007843583,0.0044893813,0.0,1,1,1,0,50,50,50,0,1,1,1,0,1,1,1,0
870664000,1310988,1310988,1310996,1311004,0,0.019059839,0.0125607755,0.031237628,0.0,1310988,1310988,1310996,1311004,0,0.00030799257,0.00052637915,0.00030611618,0.0,1,1,1,0,50,50,50,0,1,1,1,0,1,1,1,0
870860000,1310988,1310988,1310996,1311004,0,0.015362383,0.010789448,0.0049581495,0.0,1310988,1310988,1310996,1311004,0,0.0036708543,0.0019618357,0.0017438587,0.0,1,1,1,0,50,50,50,0,1,1,1,0,1,1,1,0
871060000,1310988,1310988,1310996,1311004,0,0.017876158,0.0077016074,0.01019957,0.0,1310988,1310988,1310996,1311004,0,0.0030061395,0.0013791217,0.0016337355,0.0,1,1,1,0,50,50,50,0,1,1,1,0,1,1,1,0
871264000,1310988,1310988,1310996,1311004,0,0.014620913,0.024771843,0.012090634,0.0,1310988,1310988,1310996,1311004,0,0.000580703,0.0017290976,0.0012768486,0.0,1,1,1,0,50,50,50,0,1,1,1,0,1,1,1,0
871460000,1310988,1310988,1310996,1311004,0,0.010199162,0.003148479,0.008067882,0.0,1310988,1310988,1310996,1311004,0,0.00025460188,0.00036817152,0.00060289074,0.0,1,1,1,0,50,50,50,0,1,1,1,0,1,1,1,0
871664000,1310988,1310988,1310996,1311004,0,0.009619482,0.005445193,0.006609543,0.0,1310988,1310988,1310996,1311004,0,0.00045545513,0.00027736675,0.00066699664,0.0,1,1,1,0,50,50,50,0,1,1,1,0,1,1,1,0
871864000,1310988,1310988,1310996,1311004,0,0.0040020347,0.0065016877,0.0026468267,0.0,1310988,1310988,1310996,1311004,0,0.0016228339,0.007089534,0.0087014865,0.0,1,1,1,0,50,50,50,0,1,1,1,0,1,1,1,0
872060000,1310988,1310988,1310996,1311004,0,0.057683494,0.053414654,0.007656852,0.0,1310988,1310988,1310996,1311004,0,0.0040807812,0.0007585057,0.0033258647,0.0,1,1,1,0,50,50,50,0,1,1,1,0,1,1,1,0
872260000,1310988,1310988,1310996,1311004,0,0.027793195,0.010699654,0.017158583,0.0,1310988,1310988,1310996,1311004,0,0.0054361084,0.0028308514,0.0026172237,0.0,1,1,1,0,50,50,50,0,1,1,1,0,1,1,1,0
872460000,1310988,1310988,1310996,1311004,0,0.021158101,0.010991286,0.010394293,0.0,1310988,1310988,1310996,1311004,0,0.0018104438,0.00081376545,0.0010003285,0.0,1,1,1,0,50,50,50,0,1,1,1,0,1,1,1,0
872664000,1310988,1310988,1310996,1311004,0,0.009906939,0.006517109,0.003817161,0.0,1310988,1310988,1310996,1311004,0,0.00037848137,0.0004228751,0.00044855106,0.0,1,1,1,0,50,50,50,0,1,1,1,0,1,1,1,0
872864000,1310988,1310988,1310996,1311004,0,0.0107017625,0.010135773,0.009127791,0.0,1310988,1310988,1310996,1311004,0,0.0004556855,0.0024452202,0.0027899835,0.0,1,1,1,0,50,50,50,0,1,1,1,0,1,1,1,0
873060000,1310988,1310988,1310996,1311004,0,0.010649735,0.008567366,0.007984746,0.0,1310988,1310988,1310996,1311004,0,0.0019950056,0.00045686265,0.0015457984,0.0,1,1,1,0,50,50,50,0,1,1,1,0,1,1,1,0
873264000,1310988,1310988,1310996,1311004,0,0.0110119255,0.009088491,0.0060973004,0.0,1310988,1310988,1310996,1311004,0,0.0020200706,0.0016887008,0.00033290006,0.0,1,1,1,0,50,50,50,0,1,1,1,0,1,1,1,0
873464000,1310988,1310988,1310996,1311004,0,0.014240263,0.00497751,0.010739271,0.0,1310988,1310988,1310996,1311004,0,0.006548883,0.00390981,0.0026399428,0.0,1,1,1,0,50,50,50,0,1,1,1,0,1,1,1,0
873660000,1310988,1310988,1310996,1311004,0,0.010436616,0.008782503,0.0024701145,0.0,1310988,1310988,1310996,1311004,0,0.00052499585,0.0009509331,0.00053354487,0.0,1,1,1,0,50,50,50,0,1,1,1,0,1,1,1,0
873864000,1310988,1310988,1310996,1311004,0,0.012010936,0.020881115,0.009950089,0.0,1310988,1310988,1310996,1311004,0,9.9628625e-05,0.00023033748,0.00030434554,0.0,1,1,1,0,50,50,50,0,1,1,1,0,1,1,1,0
874060000,1310988,1310988,1310996,1311004,0,0.004826179,0.0025142843,0.0026207129,0.0,1310988,1310988,1310996,1311004,0,0.0050009903,0.002867464,0.0021419895,0.0,1,1,1,0,50,50,50,0,1,1,1,0,1,1,1,0
874264000,1310988,1310988,1310996,1311004,0,0.014740375,0.008621354,0.006699826,0.0,1310988,1310988,1310996,1311004,0,0.00028300122,0.00038528052,0.0001405409,0.0,1,1,1,0,50,50,50,0,1,1,1,0,1,1,1,0
874464000,1310988,1310988,1310996,1311004,0,0.011116075,0.009855738,0.0059876093,0.0,1310988,1310988,1310996,1311004,0,0.00090966775,0.0008806155,0.0016992568,0.0,1,1,1,0,50,50,50,0,1,1,1,0,1,1,1,0
874664000,1310988,1310988,1310996,1311004,0,0.020093607,0.010421913,0.009810692,0.0,1310988,1310988,1310996,1311004,0,0.0026126613,0.0020703976,0.00055683334,0.0,1,1,1,0,50,50,50,0,1,1,1,0,1,1,1,0
874864000,1310988,1310988,1310996,1311004,0,0.034775574,0.017944617,0.016851509,0.0,1310988,1310988,1310996,1311004,0,0.00504671,0.0025250013,0.0025293727,0.0,1,1,1,0,50,50,50,0,1,1,1,0,1,1,1,0
875060000,1310988,1310988,1310996,1311004,0,0.01123329,0.013773817,0.016152238,0.0,1310988,1310988,1310996,1311004,0,0.004191042,0.00834931,0.00417077,0.0,1,1,1,0,50,50,50,0,1,1,1,0,1,1,1,0
875260000,1310988,1310988,1310996,1311004,0,0.0119416695,0.017398927,0.009916089,0.0,1310988,1310988,1310996,1311004,0,0.0015979991,0.00778602,0.0062442613,0.0,1,1,1,0,50,50,50,0,1,1,1,0,1,1,1,0
875464000,1310988,1310988,1310996,1311004,0,0.027342822,0.014073681,0.013308779,0.0,1310988,1310988,1310996,1311004,0,0.0014627083,0.0013498105,0.00019741459,0.0,1,1,1,0,50,50,50,0,1,1,1,0,1,1,1,0
875660000,1310988,1310988,1310996,1311004,0,0.01263719,0.014049362,0.005617991,0.0,1310988,1310988,1310996,1311004,0,0.0017849677,0.0013724017,0.00046826093,0.0,1,1,1,0,50,50,50,0,1,1,1,0,1,1,1,0
875864000,1310988,1310988,1310996,1311004,0,0.0048967875,0.0045977165,0.0008329052,0.0,1310988,1310988,1310996,1311004,0,0.0049488405,0.00256746,0.0023814144,0.0,1,1,1,0,50,50,50,0,1,1,1,0,1,1,1,0
876060000,1310988,1310988,1310996,1311004,0,0.011823981,0.009025424,0.0048424145,0.0,1310988,1310988,1310996,1311004,0,0.010316918,0.0054868017,0.0048312796,0.0,1,1,1,0,50,50,50,0,1,1,1,0,1,1,1,0
876260000,1310988,1310988,1310996,1311004,0,0.027602661,0.04559721,0.019263038,0.0,1310988,1310988,1310996,1311004,0,0.005393924,0.0003176531,0.005206137,0.0,1,1,1,0,50,50,50,0,1,1,1,0,1,1,1,0
876464000,1310988,1310988,1310996,1311004,0,0.02117496,0.00981905,0.011698936,0.0,1310988,1310988,1310996,1311004,0,0.0013849096,0.000903701,0.0004900964,0.0,1,1,1,0,50,50,50,0,1,1,1,0,1,1,1,0
876660000,1310988,1310988,1310996,1311004,0,0.004663585,0.0019208736,0.002899365,0.0,1310988,1310988,1310996,1311004,0,0.00056452677,0.00018203842,0.000424697,0.0,1,1,1,0,50,50,50,0,1,1,1,0,1,1,1,0
876860000,1310988,1310988,1310996,1311004,0,0.012337693,0.0071818857,0.005498529,0.0,1310988,1310988,1310996,1311004,0,0.0005970955,0.00031469273,0.00040979052,0.0,1,1,1,0,50,50,50,0,1,1,1,0,1,1,1,0
877060000,1310988,1310988,1310996,1311004,0,0.004057204,0.0032531696,0.0020256874,0.0,1310988,1310988,1310996,1311004,0,0.0011307168,0.0003868301,0.00096961367,0.0,1,1,1,0,50,50,50,0,1,1,1,0,1,1,1,0
877260000,1310988,1310988,1310996,1311004,0,0.0051586805,0.005148234,0.0018617893,0.0,1310988,1310988,1310996,1311004,0,0.00088188145,0.00034501342,0.00053695106,0.0,1,1,1,0,50,50,50,0,1,1,1,0,1,1,1,0
877460000,1310988,1310988,1310996,1311004,0,0.008575712,0.006751199,0.0020555686,0.0,1310988,1310988,1310996,1311004,0,0.00083741214,0.00033757184,0.0005829038,0.0,1,1,1,0,50,50,50,0,1,1,1,0,1,1,1,0
877660000,1310988,1310988,1310996,1311004,0,0.005299518,0.0029747495,0.0025745248,0.0,1310988,1310988,1310996,1311004,0,0.00075239193,0.00037311375,0.0003886407,0.0,1,1,1,0,50,50,50,0,1,1,1,0,1,1,1,0
877860000,1310988,1310988,1310996,1311004,0,0.0068972707,0.0041169557,0.0031200417,0.0,1310988,1310988,1310996,1311004,0,0.00064234535,0.00033904743,0.0003397637,0.0,1,1,1,0,50,50,50,0,1,1,1,0,1,1,1,0
878060000,1310988,1310988,1310996,1311004,0,0.00648944,0.005277973,0.0037580826,0.0,1310988,1310988,1310996,1311004,0,0.0009189132,0.0010708797,0.0019334923,0.0,1,1,1,0,50,50,50,0,1,1,1,0,1,1,1,0
878260000,1310988,1310988,1310996,1311004,0,0.0077514104,0.0064983335,0.0073143,0.0,1310988,1310988,1310996,1311004,0,0.0005246123,0.0006114877,0.0007151674,0.0,1,1,1,0,50,50,50,0,1,1,1,0,1,1,1,0
878460000,1310988,1310988,1310996,1311004,0,0.008250216,0.0015839187,0.0072690165,0.0,1310988,1310988,1310996,1311004,0,0.000869226,0.00027164776,0.00084882206,0.0,1,1,1,0,50,50,50,0,1,1,1,0,1,1,1,0
878664000,1310988,1310988,1310996,1311004,0,0.0065557696,0.0033381064,0.0051288027,0.0,1310988,1310988,1310996,1311004,0,0.0016567273,0.0012192543,0.0007433109,0.0,1,1,1,0,50,50,50,0,1,1,1,0,1,1,1,0
878864000,1310988,1310988,1310996,1311004,0,0.010433376,0.0101060895,0.006001714,0.0,1310988,1310988,1310996,1311004,0,0.00074527116,0.0009402952,0.0016806538,0.0,1,1,1,0,50,50,50,0,1,1,1,0,1,1,1,0
879060000,1310988,1310988,1310996,1311004,0,0.007943116,0.0039617973,0.007387143,0.0,1310988,1310988,1310996,1311004,0,0.0002555407,0.0004264752,0.00035832834,0.0,1,1,1,0,50,50,50,0,1,1,1,0,1,1,1,0
879264000,1310988,1310988,1310996,1311004,0,0.0048329835,0.0023037838,0.0026362918,0.0,1310988,1310988,1310996,1311004,0,0.003237235,0.0015721656,0.0016658183,0.0,1,1,1,0,50,50,50,0,1,1,1,0,1,1,1,0
879460000,1310988,1310988,1310996,1311004,0,0.04831315,0.02590443,0.024493506,0.0,1310988,1310988,1310996,1311004,0,0.003255726,0.008472887,0.011697461,0.0,1,1,1,0,50,50,50,0,1,1,1,0,1,1,1,0
879664000,1310988,1310988,1310996,1311004,0,0.012620042,0.01780613,0.0069845594,0.0,1310988,1310988,1310996,1311004,0,0.005707961,0.0051484355,0.0006155597,0.0,1,1,1,0,50,50,50,0,1,1,1,0,1,1,1,0
879860000,1310988,1310988,1310996,1311004,0,0.017252894,0.010514375,0.007426109,0.0,1310988,1310988,1310996,1311004,0,0.0004901926,0.0053674174,0.005533949,0.0,1,1,1,0,50,50,50,0,1,1,1,0,1,1,1,0
880060000,1310988,1310988,1310996,1311004,0,0.022536835,0.010639172,0.011977975,0.0,1310988,1310988,1310996,1311004,0,0.0065646917,0.003739582,0.002843344,0.0,1,1,1,0,50,50,50,0,1,1,1,0,1,1,1,0
880260000,1310988,1310988,1310996,1311004,0,0.02582779,0.01272517,0.015278724,0.0,1310988,1310988,1310996,1311004,0,0.0078060543,0.0031683226,0.0046643927,0.0,1,1,1,0,50,50,50,0,1,1,1,0,1,1,1,0
880460000,1310988,1310988,1310996,1311004,0,0.0055464352,0.0017687489,0.004371676,0.0,1310988,1310988,1310996,1311004,0,0.0011607304,0.0007986709,0.00071517617,0.0,1,1,1,0,50,50,50,0,1,1,1,0,1,1,1,0
880660000,1310988,1310988,1310996,1311004,0,0.012233512,0.012263284,0.017236575,0.0,1310988,1310988,1310996,1311004,0,0.0017664721,0.0005489706,0.0012517016,0.0,1,1,1,0,50,50,50,0,1,1,1,0,1,1,1,0
880864000,1310988,1310988,1310996,1311004,0,0.01373594,0.005583248,0.008226118,0.0,1310988,1310988,1310996,1311004,0,0.00052616815,0.00026088805,0.00036413188,0.0,1,1,1,0,50,50,50,0,1,1,1,0,1,1,1,0
881060000,1310988,1310988,1310996,1311004,0,0.019643271,0.00786599,0.017348612,0.0,1310988,1310988,1310996,1311004,0,0.0006081428,0.0020950076,0.0024155236,0.0,1,1,1,0,50,50,50,0,1,1,1,0,1,1,1,0
881260000,1310988,1310988,1310996,1311004,0,0.013142556,0.0063992515,0.0068255365,0.0,1310988,1310988,1310996,1311004,0,0.0015762994,0.0007993921,0.00084768294,0.0,1,1,1,0,50,50,50,0,1,1,1,0,1,1,1,0
881460000,1310988,1310988,1310996,1311004,0,0.010125961,0.009227268,0.004630134,0.0,1310988,1310988,1310996,1311004,0,0.0003706074,0.0014222488,0.0016618344,0.0,1,1,1,0,50,50,50,0,1,1,1,0,1,1,1,0
881660000,1310988,1310988,1310996,1311004,0,0.0080964705,0.006191952,0.0060390276,0.0,1310988,1310988,1310996,1311004,0,0.0048875734,0.0023615716,0.0025405255,0.0,1,1,1,0,50,50,50,0,1,1,1,0,1,1,1,0
881860000,1310988,1310988,1310996,1311004,0,0.037442192,0.02117375,0.016273642,0.0,1310988,1310988,1310996,1311004,0,0.0010814699,0.0010871371,1.3652597e-05,0.0,1,1,1,0,50,50,50,0,1,1,1,0,1,1,1,0
882060000,1310988,1310988,1310996,1311004,0,0.017754639,0.008792355,0.024911288,0.0,1310988,1310988,1310996,1311004,0,0.0020954038,0.0021561645,0.004197003,0.0,1,1,1,0,50,50,50,0,1,1,1,0,1,1,1,0
882260000,1310988,1310988,1310996,1311004,0,0.010111688,0.0077856863,0.0038067617,0.0,1310988,1310988,1310996,1311004,0,0.00046549694,0.0004329528,0.00053700415,0.0,1,1,1,0,50,50,50,0,1,1,1,0,1,1,1,0
882464000,1310988,1310988,1310996,1311004,0,0.009464695,0.0046109967,0.0062316014,0.0,1310988,1310988,1310996,1311004,0,0.0004991845,0.00023587784,0.00040955472,0.0,1,1,1,0,50,50,50,0,1,1,1,0,1,1,1,0
882664000,1310988,1310988,1310996,1311004,0,0.0071400907,0.005833055,0.0036634614,0.0,1310988,1310988,1310996,1311004,0,0.0017926651,0.00054397515,0.0014723926,0.0,1,1,1,0,50,50,50,0,1,1,1,0,1,1,1,0
882860000,1310988,1310988,1310996,1311004,0,0.008243386,0.0062328186,0.003281631,0.0,1310988,1310988,1310996,1311004,0,0.00040079962,0.0006525174,0.00052043074,0.0,1,1,1,0,50,50,50,0,1,1,1,0,1,1,1,0
883064000,1310988,1310988,1310996,1311004,0,0.06565734,0.0310629,0.034614455,0.0,1310988,1310988,1310996,1311004,0,0.0048995507,0.003084163,0.0018179643,0.0,1,1,1,0,50,50,50,0,1,1,1,0,1,1,1,0
883260000,1310988,1310988,1310996,1311004,0,0.007074531,0.006659711,0.0051873303,0.0,1310988,1310988,1310996,1311004,0,0.005272465,0.005822771,0.00057080266,0.0,1,1,1,0,50,50,50,0,1,1,1,0,1,1,1,0
883460000,1310988,1310988,1310996,1311004,0,0.02353534,0.011051652,0.0129002975,0.0,1310988,1310988,1310996,1311004,0,0.005107968,0.0010138554,0.0041161026,0.0,1,1,1,0,50,50,50,0,1,1,1,0,1,1,1,0
883660000,1310988,1310988,1310996,1311004,0,0.0092244735,0.003353932,0.007360829,0.0,1310988,1310988,1310996,1311004,0,0.0012592536,0.0028416787,0.004092239,0.0,1,1,1,0,50,50,50,0,1,1,1,0,1,1,1,0
883864000,1310988,1310988,1310996,1311004,0,0.010518371,0.0022382468,0.011781326,0.0,1310988,1310988,1310996,1311004,0,0.0012697867,0.00075271074,0.0007408963,0.0,1,1,1,0,50,50,50,0,1,1,1,0,1,1,1,0
884064000,1310988,1310988,1310996,1311004,0,0.023491822,0.004112492,0.020740902,0.0,1310988,1310988,1310996,1311004,0,0.0019192591,0.0016530483,0.00027925664,0.0,1,1,1,0,50,50,50,0,1,1,1,0,1,1,1,0
884264000,1310988,1310988,1310996,1311004,0,0.06572753,0.016908826,0.061320093,0.0,1310988,1310988,1310996,1311004,0,0.007009032,0.0042404714,0.0027763746,0.0,1,1,1,0,50,50,50,0,1,1,1,0,1,1,1,0
884460000,1310988,1310988,1310996,1311004,0,0.011300221,0.005852437,0.006613088,0.0,1310988,1310988,1310996,1311004,0,0.0040488634,0.005195818,0.009241412,0.0,1,1,1,0,50,50,50,0,1,1,1,0,1,1,1,0
884664000,1310988,1310988,1310996,1311004,0,0.013396326,0.0059809056,0.007956737,0.0,1310988,1310988,1310996,1311004,0,0.0019259918,0.0013767926,0.00055674784,0.0,1,1,1,0,50,50,50,0,1,1,1,0,1,1,1,0
884860000,1310988,1310988,1310996,1311004,0,0.010536163,0.005321048,0.007692648,0.0,1310988,1310988,1310996,1311004,0,0.004215412,0.0021006274,0.0021225682,0.0,1,1,1,0,50,50,50,0,1,1,1,0,1,1,1,0
885064000,1310988,1310988,1310996,1311004,0,0.009865544,0.0045367084,0.008327816,0.0,1310988,1310988,1310996,1311004,0,0.00014135755,0.0012648525,0.0012406281,0.0,1,1,1,0,50,50,50,0,1,1,1,0,1,1,1,0
885264000,1310988,1310988,1310996,1311004,0,0.0040666866,0.009125191,0.0067329113,0.0,1310988,1310988,1310996,1311004,0,0.0029813314,0.0015159164,0.0014783937,0.0,1,1,1,0,50,50,50,0,1,1,1,0,1,1,1,0
885464000,1310988,1310988,1310996,1311004,0,0.011751392,0.005578908,0.006247012,0.0,1310988,1310988,1310996,1311004,0,0.00027176875,0.00092438766,0.0011298786,0.0,1,1,1,0,50,50,50,0,1,1,1,0,1,1,1,0
885664000,1310988,1310988,1310996,1311004,0,0.016948326,0.056144908,0.07014387,0.0,1310988,1310988,1310996,1311004,0,0.0063443608,0.0083761485,0.0020376255,0.0,1,1,1,0,50,50,50,0,1,1,1,0,1,1,1,0
885860000,1310988,1310988,1310996,1311004,0,0.024037924,0.03882863,0.021425726,0.0,1310988,1310988,1310996,1311004,0,0.0043429043,0.006053741,0.0017322985,0.0,1,1,1,0,50,50,50,0,1,1,1,0,1,1,1,0
886064000,1310988,1310988,1310996,1311004,0,0.013734382,0.008097192,0.0063075745,0.0,1310988,1310988,1310996,1311004,0,0.00026035449,0.00030217343,0.00020201142,0.0,1,1,1,0,50,50,50,0,1,1,1,0,1,1,1,0
886264000,1310988,1310988,1310996,1311004,0,0.012740066,0.0075106905,0.0113883605,0.0,1310988,1310988,1310996,1311004,0,0.0019309244,0.0018686561,0.003749809,0.0,1,1,1,0,50,50,50,0,1,1,1,0,1,1,1,0
886464000,1310988,1310988,1310996,1311004,0,0.0036325993,0.014133997,0.01074154,0.0,1310988,1310988,1310996,1311004,0,0.002957974,0.0017947927,0.0011762292,0.0,1,1,1,0,50,50,50,0,1,1,1,0,1,1,1,0
886660000,1310988,1310988,1310996,1311004,0,0.018639896,0.008489521,0.010679403,0.0,1310988,1310988,1310996,1311004,0,0.000424796,0.002036819,0.0019983498,0.0,1,1,1,0,50,50,50,0,1,1,1,0,1,1,1,0
886860000,1310988,1310988,1310996,1311004,0,0.0061093094,0.0042366213,0.0031578522,0.0,1310988,1310988,1310996,1311004,0,0.0018198275,0.00019472574,0.0017510528,0.0,1,1,1,0,50,50,50,0,1,1,1,0,1,1,1,0
887060000,1310988,1310988,1310996,1311004,0,0.0070949723,0.06418868,0.067124926,0.0,1310988,1310988,1310996,1311004,0,2.6808304e-05,0.0057718833,0.0057700123,0.0,1,1,1,0,50,50,50,0,1,1,1,0,1,1,1,0
887264000,1310988,1310988,1310996,1311004,0,0.014111307,0.004617113,0.009777825,0.0,1310988,1310988,1310996,1311004,0,0.0051023522,0.00085785094,0.004292013,0.0,1,1,1,0,50,50,50,0,1,1,1,0,1,1,1,0
887460000,1310988,1310988,1310996,1311004,0,0.031899102,0.014186006,0.018138869,0.0,1310988,1310988,1310996,1311004,0,0.0041096173,0.00810746,0.0040072165,0.0,1,1,1,0,50,50,50,0,1,1,1,0,1,1,1,0
887664000,1310988,1310988,1310996,1311004,0,0.014130833,0.015545567,0.028860686,0.0,1310988,1310988,1310996,1311004,0,0.00034245913,0.0011536964,0.0008960019,0.0,1,1,1,0,50,50,50,0,1,1,1,0,1,1,1,0
887860000,1310988,1310988,1310996,1311004,0,0.009994018,0.0051382226,0.013019673,0.0,1310988,1310988,1310996,1311004,0,0.00079604256,0.0014674928,0.0022601301,0.0,1,1,1,0,50,50,50,0,1,1,1,0,1,1,1,0
888064000,1310988,1310988,1310996,1311004,0,0.019788861,0.0115891695,0.00884592,0.0,1310988,1310988,1310996,1311004,0,0.0018406084,0.00090295024,0.0009804905,0.0,1,1,1,0,50,50,50,0,1,1,1,0,1,1,1,0
888260000,1310988,1310988,1310996,1311004,0,0.014290062,0.013570314,0.0034833855,0.0,1310988,1310988,1310996,1311004,0,0.0014630725,0.0010053089,0.0005075322,0.0,1,1,1,0,50,50,50,0,1,1,1,0,1,1,1,0
888460000,1310988,1310988,1310996,1311004,0,0.010795162,0.005950096,0.0062447316,0.0,1310988,1310988,1310996,1311004,0,0.0016575844,0.0011579532,0.00061093207,0.0,1,1,1,0,50,50,50,0,1,1,1,0,1,1,1,0
888660000,1310988,1310988,1310996,1311004,0,0.026617896,0.046484757,0.026339445,0.0,1310988,1310988,1310996,1311004,0,0.00060097844,0.00077488436,0.0013510938,0.0,1,1,1,0,50,50,50,0,1,1,1,0,1,1,1,0
888860000,1310988,1310988,1310996,1311004,0,0.017450515,0.024694765,0.040069442,0.0,1310988,1310988,1310996,1311004,0,0.00016699538,0.00085088145,0.0008553866,0.0,1,1,1,0,50,50,50,0,1,1,1,0,1,1,1,0
889060000,1310988,1310988,1310996,1311004,0,0.011811802,0.018393366,0.022711743,0.0,1310988,1310988,1310996,1311004,0,0.0019858344,0.0004944449,0.0015456114,0.0,1,1,1,0,50,50,50,0,1,1,1,0,1,1,1,0
