timestamp,timestamp_sample,gps_hvel[0],gps_hvel[1],gps_vvel,gps_hpos[0],gps_hpos[1],gps_vpos,ev_hvel[0],ev_hvel[1],ev_vvel,ev_hpos[0],ev_hpos[1],ev_vpos,rng_vpos,baro_vpos,aux_hvel[0],aux_hvel[1],aux_vvel,flow[0],flow[1],heading,mag_field[0],mag_field[1],mag_field[2],drag[0],drag[1],airspeed,beta,hagl,hagl_rate
829596000,829516000,2.1643682e-06,0.0,4.1150834e-06,2.4193928e-06,0.0,0.0,0.0,0.0,0.0,0.0,0.0,0.0,0.0,1.8877672e-06,0.0,0.0,nan,0.0,0.0,0.00016585256,0.0,0.0,0.0,0.0,0.0,0.0,0.0,0.0,0.0
830100000,830020000,5.4703392e-05,0.0,8.259689e-07,2.2765955e-06,0.0,0.0,0.0,0.0,0.0,0.0,0.0,0.0,0.0,5.6977456e-06,0.0,0.0,nan,0.0,0.0,1.7685469e-06,0.0,0.0,0.0,0.0,0.0,0.0,0.0,0.0,0.0
830596000,830516000,0.00022226611,0.0,2.2079626e-05,2.3250245e-06,0.0,0.0,0.0,0.0,0.0,0.0,0.0,0.0,0.0,7.949074e-06,0.0,0.0,nan,0.0,0.0,0.0006384997,0.0,0.0,0.0,0.0,0.0,0.0,0.0,0.0,0.0
831100000,831020000,9.176042e-07,0.0,1.8073633e-05,2.0077023e-06,0.0,0.0,0.0,0.0,0.0,0.0,0.0,0.0,0.0,2.2172385e-06,0.0,0.0,nan,0.0,0.0,0.00029582778,0.0,0.0,0.0,0.0,0.0,0.0,0.0,0.0,0.0
831596000,831516000,1.5828896e-06,0.0,1.8093606e-05,1.9468048e-06,0.0,0.0,0.0,0.0,0.0,0.0,0.0,0.0,0.0,1.2160655e-11,0.0,0.0,nan,0.0,0.0,1.3246033e-06,0.0,0.0,0.0,0.0,0.0,0.0,0.0,0.0,0.0
832100000,832020000,1.10679e-06,0.0,0.00016821038,2.6872817e-06,0.0,0.0,0.0,0.0,0.0,0.0,0.0,0.0,0.0,9.937887e-06,0.0,0.0,nan,0.0,0.0,0.00017741896,0.0,0.0,0.0,0.0,0.0,0.0,0.0,0.0,0.0
832604000,832524000,5.2300446e-05,0.0,0.0004907317,1.9464876e-06,0.0,0.0,0.0,0.0,0.0,0.0,0.0,0.0,0.0,6.3493576e-07,0.0,0.0,nan,0.0,0.0,4.329588e-06,0.0,0.0,0.0,0.0,0.0,0.0,0.0,0.0,0.0
833100000,833020000,5.1609313e-05,0.0,1.9116147e-05,2.7913488e-06,0.0,0.0,0.0,0.0,0.0,0.0,0.0,0.0,0.0,7.346478e-06,0.0,0.0,nan,0.0,0.0,0.00023811554,0.0,0.0,0.0,0.0,0.0,0.0,0.0,0.0,0.0
833596000,833516000,1.151442e-06,0.0,8.466048e-05,2.8633165e-06,0.0,0.0,0.0,0.0,0.0,0.0,0.0,0.0,0.0,1.9390664e-05,0.0,0.0,nan,0.0,0.0,0.00020482835,0.0,0.0,0.0,0.0,0.0,0.0,0.0,0.0,0.0
834100000,834020000,7.466256e-05,0.0,0.00011212922,1.922242e-06,0.0,0.0,0.0,0.0,0.0,0.0,0.0,0.0,0.0,5.223328e-07,0.0,0.0,nan,0.0,0.0,0.0002504906,0.0,0.0,0.0,0.0,0.0,0.0,0.0,0.0,0.0
834604000,834524000,7.1193745e-07,0.0,0.000100611775,3.108123e-06,0.0,0.0,0.0,0.0,0.0,0.0,0.0,0.0,0.0,1.3987918e-05,0.0,0.0,nan,0.0,0.0,1.6359396e-05,0.0,0.0,0.0,0.0,0.0,0.0,0.0,0.0,0.0
835100000,835020000,0.00017328266,0.0,6.9381356e-05,2.7174056e-07,0.0,0.0,0.0,0.0,0.0,0.0,0.0,0.0,0.0,2.5930629e-05,0.0,0.0,nan,0.0,0.0,0.0018482025,0.0,0.0,0.0,0.0,0.0,0.0,0.0,0.0,0.0
835604000,835524000,0.00021654346,0.0,3.5783341e-06,3.0596368e-06,0.0,0.0,0.0,0.0,0.0,0.0,0.0,0.0,0.0,1.3857813e-07,0.0,0.0,nan,0.0,0.0,0.00023324919,0.0,0.0,0.0,0.0,0.0,0.0,0.0,0.0,0.0
836100000,836020000,5.8463365e-06,0.0,8.737309e-05,2.076387e-06,0.0,0.0,0.0,0.0,0.0,0.0,0.0,0.0,0.0,6.740067e-05,0.0,0.0,nan,0.0,0.0,0.0008383389,0.0,0.0,0.0,0.0,0.0,0.0,0.0,0.0,0.0
836604000,836524000,0.00017693185,0.0,0.00029076988,2.8288264e-07,0.0,0.0,0.0,0.0,0.0,0.0,0.0,0.0,0.0,9.3371345e-06,0.0,0.0,nan,0.0,0.0,0.0006305279,0.0,0.0,0.0,0.0,0.0,0.0,0.0,0.0,0.0
837100000,837020000,1.1864979e-05,0.0,1.0752759e-06,8.2131453e-07,0.0,0.0,0.0,0.0,0.0,0.0,0.0,0.0,0.0,2.1425208e-06,0.0,0.0,nan,0.0,0.0,0.000102517624,0.0,0.0,0.0,0.0,0.0,0.0,0.0,0.0,0.0
837604000,837524000,0.00037262394,0.0,0.00078884413,1.26514815e-05,0.0,0.0,0.0,0.0,0.0,0.0,0.0,0.0,0.0,0.0,0.0,0.0,nan,0.0,0.0,1.6979693e-05,0.0,0.0,0.0,0.0,0.0,0.0,0.0,0.0,0.0
838100000,838020000,0.0007326415,0.0,2.0182268e-05,4.0385712e-05,0.0,0.0,0.0,0.0,0.0,0.0,0.0,0.0,0.0,1.6427379e-05,0.0,0.0,nan,0.0,0.0,6.025514e-06,0.0,0.0,0.0,0.0,0.0,0.0,0.0,0.0,0.0
838596000,838516000,0.00046477554,0.0,0.0011502656,5.372661e-05,0.0,0.0,0.0,0.0,0.0,0.0,0.0,0.0,0.0,7.84452e-06,0.0,0.0,nan,0.0,0.0,0.001758954,0.0,0.0,0.0,0.0,0.0,0.0,0.0,0.0,0.0
839100000,839020000,0.00076102477,0.0,0.0004405978,9.3729e-05,0.0,0.0,0.0,0.0,0.0,0.0,0.0,0.0,0.0,9.676369e-06,0.0,0.0,nan,0.0,0.0,0.0007654297,0.0,0.0,0.0,0.0,0.0,0.0,0.0,0.0,0.0
839596000,839516000,0.0005935963,0.0,0.00015721438,0.00019882388,0.0,0.0,0.0,0.0,0.0,0.0,0.0,0.0,0.0,1.8991157e-05,0.0,0.0,nan,0.0,0.0,1.4666825e-05,0.0,0.0,0.0,0.0,0.0,0.0,0.0,0.0,0.0
840100000,840020000,0.00018860282,0.0,2.3832138e-06,0.0002219015,0.0,0.0,0.0,0.0,0.0,0.0,0.0,0.0,0.0,8.210713e-06,0.0,0.0,nan,0.0,0.0,0.00083785865,0.0,0.0,0.0,0.0,0.0,0.0,0.0,0.0,0.0
840604000,840524000,0.000259263,0.0,0.00088794995,0.00026789124,0.0,0.0,0.0,0.0,0.0,0.0,0.0,0.0,0.0,2.644089e-05,0.0,0.0,nan,0.0,0.0,5.782703e-07,0.0,0.0,0.0,0.0,0.0,0.0,0.0,0.0,0.0
841100000,841020000,0.00026902132,0.0,3.5048313e-08,0.00020964387,0.0,0.0,0.0,0.0,0.0,0.0,0.0,0.0,0.0,5.2686974e-06,0.0,0.0,nan,0.0,0.0,2.5657193e-10,0.0,0.0,0.0,0.0,0.0,0.0,0.0,0.0,0.0
841596000,841516000,0.00040012784,0.0,0.0002451311,0.00015738123,0.0,0.0,0.0,0.0,0.0,0.0,0.0,0.0,0.0,1.23580585e-05,0.0,0.0,nan,0.0,0.0,5.5349283e-05,0.0,0.0,0.0,0.0,0.0,0.0,0.0,0.0,0.0
842100000,842020000,0.003222614,0.0,0.0010284354,0.00012331348,0.0,0.0,0.0,0.0,0.0,0.0,0.0,0.0,0.0,2.310713e-05,0.0,0.0,nan,0.0,0.0,0.0021418028,0.0,0.0,0.0,0.0,0.0,0.0,0.0,0.0,0.0
842604000,842524000,0.006008669,0.0,0.0008627247,0.000113455746,0.0,0.0,0.0,0.0,0.0,0.0,0.0,0.0,0.0,1.6975004e-06,0.0,0.0,nan,0.0,0.0,0.0,0.00013954964,0.0,0.0,0.0,0.0,0.0,0.0,0.0,0.0
843100000,843020000,0.009432347,0.0,0.0016127579,3.6817808e-05,0.0,0.0,0.0,0.0,0.0,0.0,0.0,0.0,0.0,8.03898e-06,0.0,0.0,nan,0.0,0.0,0.0,8.542462e-05,0.0,0.0,0.0,0.0,0.0,0.0,0.0,0.0
843596000,843516000,0.007359598,0.0,0.0019429855,2.9569994e-05,0.0,0.0,0.0,0.0,0.0,0.0,0.0,0.0,0.0,7.9347174e-08,0.0,0.0,nan,0.0,0.0,0.0,0.00044140752,0.0,0.0,0.0,0.0,0.0,0.0,0.0,0.0
844100000,844020000,0.0032180615,0.0,0.0012973855,2.3553002e-05,0.0,0.0,0.0,0.0,0.0,0.0,0.0,0.0,0.0,1.1191252e-06,0.0,0.0,nan,0.0,0.0,0.0,0.0006042163,0.0,0.0,0.0,0.0,0.0,0.0,0.0,0.0
844604000,844524000,0.0021633077,0.0,0.001441361,6.3662475e-05,0.0,0.0,0.0,0.0,0.0,0.0,0.0,0.0,0.0,2.4381528e-05,0.0,0.0,nan,0.0,0.0,0.0,8.048774e-05,0.0,0.0,0.0,0.0,0.0,0.0,0.0,0.0
845100000,845020000,0.0012515294,0.0,0.005041289,4.0646464e-05,0.0,0.0,0.0,0.0,0.0,0.0,0.0,0.0,0.0,1.1273575e-05,0.0,0.0,nan,0.0,0.0,0.0,0.00023408851,0.0,0.0,0.0,0.0,0.0,0.0,0.0,0.0
845596000,845516000,5.1204435e-05,0.0,0.0042684907,4.886382e-05,0.0,0.0,0.0,0.0,0.0,0.0,0.0,0.0,0.0,3.7577935e-05,0.0,0.0,nan,0.0,0.0,0.0,0.00045131947,0.0,0.0,0.0,0.0,0.0,0.0,0.0,0.0
846100000,846020000,0.00043123026,0.0,0.007783429,5.3434705e-05,0.0,0.0,0.0,0.0,0.0,0.0,0.0,0.0,0.0,4.7658556e-05,0.0,0.0,nan,0.0,0.0,1.3951664e-06,0.0,0.0,0.0,0.0,0.0,0.0,0.0,0.0,0.0
846604000,846524000,0.00019708455,0.0,0.0060872706,4.680713e-05,0.0,0.0,0.0,0.0,0.0,0.0,0.0,0.0,0.0,7.886298e-05,0.0,0.0,nan,0.0,0.0,0.00042732892,0.0,0.0,0.0,0.0,0.0,0.0,0.0,0.0,0.0
847100000,847020000,0.0010816586,0.0,0.004473039,9.0347334e-05,0.0,0.0,0.0,0.0,0.0,0.0,0.0,0.0,0.0,0.00010206037,0.0,0.0,nan,0.0,0.0,0.0003705193,0.0,0.0,0.0,0.0,0.0,0.0,0.0,0.0,0.0
847604000,847524000,0.00041457618,0.0,0.0097476905,3.4849916e-05,0.0,0.0,0.0,0.0,0.0,0.0,0.0,0.0,0.0,5.772491e-05,0.0,0.0,nan,0.0,0.0,0.00058861106,0.0,0.0,0.0,0.0,0.0,0.0,0.0,0.0,0.0
848100000,848020000,0.00039893723,0.0,0.005455837,9.29915e-05,0.0,0.0,0.0,0.0,0.0,0.0,0.0,0.0,0.0,0.00013226383,0.0,0.0,nan,0.0,0.0,0.000260368,0.0,0.0,0.0,0.0,0.0,0.0,0.0,0.0,0.0
848596000,848516000,0.0010370276,0.0,0.0043372763,7.578428e-05,0.0,0.0,0.0,0.0,0.0,0.0,0.0,0.0,0.0,9.595839e-05,0.0,0.0,nan,0.0,0.0,0.00038566836,0.0,0.0,0.0,0.0,0.0,0.0,0.0,0.0,0.0
849100000,849020000,0.0003720599,0.0,0.0046331626,7.8683945e-05,0.0,0.0,0.0,0.0,0.0,0.0,0.0,0.0,0.0,4.0345294e-05,0.0,0.0,nan,0.0,0.0,2.5166642e-05,0.0,0.0,0.0,0.0,0.0,0.0,0.0,0.0,0.0
849596000,849516000,0.0002264229,0.0,0.0022293474,4.275141e-05,0.0,0.0,0.0,0.0,0.0,0.0,0.0,0.0,0.0,5.6631565e-05,0.0,0.0,nan,0.0,0.0,0.00057084404,0.0,0.0,0.0,0.0,0.0,0.0,0.0,0.0,0.0
850100000,850020000,0.00030233373,0.0,0.002297188,3.0274125e-05,0.0,0.0,0.0,0.0,0.0,0.0,0.0,0.0,0.0,6.376495e-05,0.0,0.0,nan,0.0,0.0,2.9058534e-05,0.0,0.0,0.0,0.0,0.0,0.0,0.0,0.0,0.0
850604000,850524000,0.0001535958,0.0,0.00027061088,5.7675014e-05,0.0,0.0,0.0,0.0,0.0,0.0,0.0,0.0,0.0,0.00011550346,0.0,0.0,nan,0.0,0.0,0.0014510298,0.0,0.0,0.0,0.0,0.0,0.0,0.0,0.0,0.0
851100000,851020000,0.0022879525,0.0,0.0014345935,5.544575e-05,0.0,0.0,0.0,0.0,0.0,0.0,0.0,0.0,0.0,4.0927665e-05,0.0,0.0,nan,0.0,0.0,0.0006266366,0.0,0.0,0.0,0.0,0.0,0.0,0.0,0.0,0.0
851596000,851516000,0.008874832,0.0,0.0005632133,5.7128702e-05,0.0,0.0,0.0,0.0,0.0,0.0,0.0,0.0,0.0,0.0,0.0,0.0,nan,0.0,0.0,0.0,0.00023582122,0.0,0.0,0.0,0.0,0.0,0.0,0.0,0.0
852100000,852020000,0.020858316,0.0,0.0010869283,9.734263e-05,0.0,0.0,0.0,0.0,0.0,0.0,0.0,0.0,0.0,0.0,0.0,0.0,nan,0.0,0.0,0.0,0.000318458,0.0,0.0,0.0,0.0,0.0,0.0,0.0,0.0
852596000,852516000,0.02279568,0.0,4.1407827e-08,0.0002307674,0.0,0.0,0.0,0.0,0.0,0.0,0.0,0.0,0.0,0.0,0.0,0.0,nan,0.0,0.0,0.0,0.0005521745,0.0,0.0,0.0,0.0,0.0,0.0,0.0,0.0
853100000,853020000,0.01149129,0.0,2.6036878e-07,0.000114042945,0.0,0.0,0.0,0.0,0.0,0.0,0.0,0.0,0.0,0.0,0.0,0.0,nan,0.0,0.0,0.0,0.00059542933,0.0,0.0,0.0,0.0,0.0,0.0,0.0,0.0
853604000,853524000,0.0030551746,0.0,0.0027766777,0.00017000243,0.0,0.0,0.0,0.0,0.0,0.0,0.0,0.0,0.0,0.0,0.0,0.0,nan,0.0,0.0,0.0,8.717856e-05,0.0,0.0,0.0,0.0,0.0,0.0,0.0,0.0
854100000,854020000,0.0023339437,0.0,0.0023378017,7.390095e-05,0.0,0.0,0.0,0.0,0.0,0.0,0.0,0.0,0.0,0.0,0.0,0.0,nan,0.0,0.0,0.0,9.2399e-05,0.0,0.0,0.0,0.0,0.0,0.0,0.0,0.0
854596000,854516000,0.0025653634,0.0,0.001979807,3.9535906e-05,0.0,0.0,0.0,0.0,0.0,0.0,0.0,0.0,0.0,0.0,0.0,0.0,nan,0.0,0.0,0.0,0.0003435601,0.0,0.0,0.0,0.0,0.0,0.0,0.0,0.0
855100000,855020000,0.0016292507,0.0,0.0044290195,5.248775e-05,0.0,0.0,0.0,0.0,0.0,0.0,0.0,0.0,0.0,0.0,0.0,0.0,nan,0.0,0.0,0.0,0.0006317169,0.0,0.0,0.0,0.0,0.0,0.0,0.0,0.0
855596000,855516000,0.0023710132,0.0,0.00501895,4.8941532e-05,0.0,0.0,0.0,0.0,0.0,0.0,0.0,0.0,0.0,0.0,0.0,0.0,nan,0.0,0.0,4.8190755e-05,0.0,0.0,0.0,0.0,0.0,0.0,0.0,0.0,0.0
856100000,856020000,0.11307078,0.0,0.012680464,0.0002196013,0.0,0.0,0.0,0.0,0.0,0.0,0.0,0.0,0.0,0.0,0.0,0.0,nan,0.0,0.0,0.0,0.0017341117,0.0,0.0,0.0,0.0,0.0,0.0,0.0,0.0
856596000,856516000,0.05547722,0.0,0.0042834315,5.919726e-05,0.0,0.0,0.0,0.0,0.0,0.0,0.0,0.0,0.0,1.6177944e-05,0.0,0.0,nan,0.0,0.0,0.0,0.00097517745,0.0,0.0,0.0,0.0,0.0,0.0,0.0,0.0
857100000,857020000,0.03954545,0.0,0.0036051678,0.00036525464,0.0,0.0,0.0,0.0,0.0,0.0,0.0,0.0,0.0,7.3195304e-05,0.0,0.0,nan,0.0,0.0,0.0,0.00044999685,0.0,0.0,0.0,0.0,0.0,0.0,0.0,0.0
857604000,857524000,0.026177377,0.0,0.012119948,0.00066606386,0.0,0.0,0.0,0.0,0.0,0.0,0.0,0.0,0.0,3.1017375e-05,0.0,0.0,nan,0.0,0.0,0.0,0.001506355,0.0,0.0,0.0,0.0,0.0,0.0,0.0,0.0
858100000,858020000,0.019682473,0.0,0.0038792056,0.00023316932,0.0,0.0,0.0,0.0,0.0,0.0,0.0,0.0,0.0,5.5142144e-05,0.0,0.0,nan,0.0,0.0,0.0,0.0008457489,0.0,0.0,0.0,0.0,0.0,0.0,0.0,0.0
858604000,858524000,0.00823543,0.0,0.0009776143,0.00040038012,0.0,0.0,0.0,0.0,0.0,0.0,0.0,0.0,0.0,5.25433e-05,0.0,0.0,nan,0.0,0.0,0.0,0.0005711708,0.0,0.0,0.0,0.0,0.0,0.0,0.0,0.0
859100000,859020000,0.011989916,0.0,0.0015872333,0.0003136027,0.0,0.0,0.0,0.0,0.0,0.0,0.0,0.0,0.0,1.1197319e-05,0.0,0.0,nan,0.0,0.0,0.0,0.0005223799,0.0,0.0,0.0,0.0,0.0,0.0,0.0,0.0
859604000,859524000,0.01455717,0.0,0.0007409573,0.00020326205,0.0,0.0,0.0,0.0,0.0,0.0,0.0,0.0,0.0,7.0138165e-05,0.0,0.0,nan,0.0,0.0,0.0,0.0015125788,0.0,0.0,0.0,0.0,0.0,0.0,0.0,0.0
860100000,860020000,0.017151257,0.0,0.0026187547,0.00017002515,0.0,0.0,0.0,0.0,0.0,0.0,0.0,0.0,0.0,3.2957454e-05,0.0,0.0,nan,0.0,0.0,0.0,0.0005463895,0.0,0.0,0.0,0.0,0.0,0.0,0.0,0.0
860604000,860524000,0.007219191,0.0,0.002541872,9.2688155e-05,0.0,0.0,0.0,0.0,0.0,0.0,0.0,0.0,0.0,6.8591266e-06,0.0,0.0,nan,0.0,0.0,0.0,0.00054544787,0.0,0.0,0.0,0.0,0.0,0.0,0.0,0.0
861100000,861020000,0.004868656,0.0,0.009760379,4.148339e-05,0.0,0.0,0.0,0.0,0.0,0.0,0.0,0.0,0.0,0.00011992536,0.0,0.0,nan,0.0,0.0,0.0,0.00011547396,0.0,0.0,0.0,0.0,0.0,0.0,0.0,0.0
861604000,861524000,0.0013042988,0.0,0.004457272,4.1889412e-05,0.0,0.0,0.0,0.0,0.0,0.0,0.0,0.0,0.0,0.00019869687,0.0,0.0,nan,0.0,0.0,0.0,0.00014080673,0.0,0.0,0.0,0.0,0.0,0.0,0.0,0.0
862100000,862020000,0.0007208178,0.0,0.0038240945,1.599328e-05,0.0,0.0,0.0,0.0,0.0,0.0,0.0,0.0,0.0,0.00012489555,0.0,0.0,nan,0.0,0.0,0.0,0.0005499459,0.0,0.0,0.0,0.0,0.0,0.0,0.0,0.0
862604000,862524000,0.00051166135,0.0,0.0051598707,1.939237e-05,0.0,0.0,0.0,0.0,0.0,0.0,0.0,0.0,0.0,0.00017047333,0.0,0.0,nan,0.0,0.0,0.0,0.0003210318,0.0,0.0,0.0,0.0,0.0,0.0,0.0,0.0
863100000,863020000,0.00019534914,0.0,0.0036534672,8.542582e-06,0.0,0.0,0.0,0.0,0.0,0.0,0.0,0.0,0.0,0.0002195089,0.0,0.0,nan,0.0,0.0,3.443809e-05,0.0,0.0,0.0,0.0,0.0,0.0,0.0,0.0,0.0
863596000,863516000,1.1163488e-05,0.0,0.005933415,1.1171414e-05,0.0,0.0,0.0,0.0,0.0,0.0,0.0,0.0,0.0,0.0001876454,0.0,0.0,nan,0.0,0.0,5.0310514e-06,0.0,0.0,0.0,0.0,0.0,0.0,0.0,0.0,0.0
864100000,864020000,3.49303e-05,0.0,0.0049239206,5.483358e-06,0.0,0.0,0.0,0.0,0.0,0.0,0.0,0.0,0.0,0.00017489062,0.0,0.0,nan,0.0,0.0,0.00037883292,0.0,0.0,0.0,0.0,0.0,0.0,0.0,0.0,0.0
864604000,864524000,0.00015113126,0.0,0.0046367534,6.202597e-06,0.0,0.0,0.0,0.0,0.0,0.0,0.0,0.0,0.0,0.00019393684,0.0,0.0,nan,0.0,0.0,0.0007844658,0.0,0.0,0.0,0.0,0.0,0.0,0.0,0.0,0.0
865100000,865020000,4.7940925e-06,0.0,0.005491711,1.15554485e-05,0.0,0.0,0.0,0.0,0.0,0.0,0.0,0.0,0.0,0.00031438892,0.0,0.0,nan,0.0,0.0,0.0016110614,0.0,0.0,0.0,0.0,0.0,0.0,0.0,0.0,0.0
865604000,865524000,6.25536e-05,0.0,0.0056721023,1.3941584e-05,0.0,0.0,0.0,0.0,0.0,0.0,0.0,0.0,0.0,0.00021800162,0.0,0.0,nan,0.0,0.0,3.870941e-05,0.0,0.0,0.0,0.0,0.0,0.0,0.0,0.0,0.0
866100000,866020000,0.00032831077,0.0,0.0035754626,1.5344884e-05,0.0,0.0,0.0,0.0,0.0,0.0,0.0,0.0,0.0,0.00026041697,0.0,0.0,nan,0.0,0.0,0.00015774844,0.0,0.0,0.0,0.0,0.0,0.0,0.0,0.0,0.0
866604000,866524000,6.1344035e-05,0.0,0.0035837707,2.3403427e-05,0.0,0.0,0.0,0.0,0.0,0.0,0.0,0.0,0.0,0.0002850425,0.0,0.0,nan,0.0,0.0,0.00012251633,0.0,0.0,0.0,0.0,0.0,0.0,0.0,0.0,0.0
867100000,867020000,0.00062829605,0.0,0.0047837263,3.7507838e-05,0.0,0.0,0.0,0.0,0.0,0.0,0.0,0.0,0.0,6.333169e-05,0.0,0.0,nan,0.0,0.0,2.5255185e-05,0.0,0.0,0.0,0.0,0.0,0.0,0.0,0.0,0.0
867596000,867516000,0.00015186393,0.0,0.0027638397,2.671281e-05,0.0,0.0,0.0,0.0,0.0,0.0,0.0,0.0,0.0,0.00011223623,0.0,0.0,nan,0.0,0.0,1.3609732e-05,0.0,0.0,0.0,0.0,0.0,0.0,0.0,0.0,0.0
868100000,868020000,9.542066e-05,0.0,0.001017792,5.0253628e-05,0.0,0.0,0.0,0.0,0.0,0.0,0.0,0.0,0.0,7.285056e-05,0.0,0.0,nan,0.0,0.0,0.00049674546,0.0,0.0,0.0,0.0,0.0,0.0,0.0,0.0,0.0
868596000,868516000,0.00015149012,0.0,0.00063423096,3.015107e-05,0.0,0.0,0.0,0.0,0.0,0.0,0.0,0.0,0.0,9.638215e-05,0.0,0.0,nan,0.0,0.0,5.3101663e-05,0.0,0.0,0.0,0.0,0.0,0.0,0.0,0.0,0.0
869100000,869020000,0.00011009843,0.0,0.00016947763,8.2944425e-06,0.0,0.0,0.0,0.0,0.0,0.0,0.0,0.0,0.0,0.00016177216,0.0,0.0,nan,0.0,0.0,2.9285378e-05,0.0,0.0,0.0,0.0,0.0,0.0,0.0,0.0,0.0
869596000,869516000,0.00033751264,0.0,0.000488298,6.3026487e-06,0.0,0.0,0.0,0.0,0.0,0.0,0.0,0.0,0.0,9.032258e-05,0.0,0.0,nan,0.0,0.0,0.00023953163,0.0,0.0,0.0,0.0,0.0,0.0,0.0,0.0,0.0
870100000,870020000,0.00017530438,0.0,1.6495574e-07,1.0054163e-06,0.0,0.0,0.0,0.0,0.0,0.0,0.0,0.0,0.0,8.758255e-05,0.0,0.0,nan,0.0,0.0,0.00034067687,0.0,0.0,0.0,0.0,0.0,0.0,0.0,0.0,0.0
870596000,870516000,0.00031878622,0.0,1.2937735e-05,1.8335244e-06,0.0,0.0,0.0,0.0,0.0,0.0,0.0,0.0,0.0,7.785211e-05,0.0,0.0,nan,0.0,0.0,4.396545e-05,0.0,0.0,0.0,0.0,0.0,0.0,0.0,0.0,0.0
871100000,871020000,0.00042026333,0.0,0.00029958997,8.109368e-07,0.0,0.0,0.0,0.0,0.0,0.0,0.0,0.0,0.0,8.965251e-06,0.0,0.0,nan,0.0,0.0,8.964843e-06,0.0,0.0,0.0,0.0,0.0,0.0,0.0,0.0,0.0
871596000,871516000,0.0006577374,0.0,0.0005987765,1.1177723e-05,0.0,0.0,0.0,0.0,0.0,0.0,0.0,0.0,0.0,1.8349638e-05,0.0,0.0,nan,0.0,0.0,3.0207043e-06,0.0,0.0,0.0,0.0,0.0,0.0,0.0,0.0,0.0
872100000,872020000,0.0012356603,0.0,2.1878237e-05,1.4861273e-05,0.0,0.0,0.0,0.0,0.0,0.0,0.0,0.0,0.0,7.5231384e-07,0.0,0.0,nan,0.0,0.0,0.00020152038,0.0,0.0,0.0,0.0,0.0,0.0,0.0,0.0,0.0
872604000,872524000,0.0011052799,0.0,0.00067520555,6.3016323e-06,0.0,0.0,0.0,0.0,0.0,0.0,0.0,0.0,0.0,6.384442e-05,0.0,0.0,nan,0.0,0.0,8.179862e-05,0.0,0.0,0.0,0.0,0.0,0.0,0.0,0.0,0.0
873100000,873020000,0.0006164406,0.0,1.3316093e-06,4.9543058e-05,0.0,0.0,0.0,0.0,0.0,0.0,0.0,0.0,0.0,2.3797842e-05,0.0,0.0,nan,0.0,0.0,5.7402664e-05,0.0,0.0,0.0,0.0,0.0,0.0,0.0,0.0,0.0
873596000,873516000,0.00046429044,0.0,0.00011220221,2.4038867e-05,0.0,0.0,0.0,0.0,0.0,0.0,0.0,0.0,0.0,4.6698647e-06,0.0,0.0,nan,0.0,0.0,4.3427794e-05,0.0,0.0,0.0,0.0,0.0,0.0,0.0,0.0,0.0
874100000,874020000,0.0010684176,0.0,0.00047584242,4.651657e-05,0.0,0.0,0.0,0.0,0.0,0.0,0.0,0.0,0.0,2.8187591e-08,0.0,0.0,nan,0.0,0.0,4.1044983e-05,0.0,0.0,0.0,0.0,0.0,0.0,0.0,0.0,0.0
874604000,874524000,0.001170326,0.0,1.6679678e-05,4.1935615e-05,0.0,0.0,0.0,0.0,0.0,0.0,0.0,0.0,0.0,1.867426e-06,0.0,0.0,nan,0.0,0.0,4.175887e-05,0.0,0.0,0.0,0.0,0.0,0.0,0.0,0.0,0.0
875100000,875020000,0.00013955109,0.0,6.986603e-05,8.515992e-05,0.0,0.0,0.0,0.0,0.0,0.0,0.0,0.0,0.0,2.851459e-07,0.0,0.0,nan,0.0,0.0,2.4965304e-05,0.0,0.0,0.0,0.0,0.0,0.0,0.0,0.0,0.0
875604000,875524000,0.0026459843,0.0,0.0004644178,0.00012080128,0.0,0.0,0.0,0.0,0.0,0.0,0.0,0.0,0.0,5.9044658e-05,0.0,0.0,nan,0.0,0.0,3.9960465e-05,0.0,0.0,0.0,0.0,0.0,0.0,0.0,0.0,0.0
876100000,876020000,0.0032296297,0.0,0.00091806485,5.0564508e-05,0.0,0.0,0.0,0.0,0.0,0.0,0.0,0.0,0.0,1.7722567e-05,0.0,0.0,nan,0.0,0.0,4.8254966e-05,0.0,0.0,0.0,0.0,0.0,0.0,0.0,0.0,0.0
876604000,876524000,0.0006812901,0.0,0.00044715442,6.7881745e-05,0.0,0.0,0.0,0.0,0.0,0.0,0.0,0.0,0.0,6.1956994e-06,0.0,0.0,nan,0.0,0.0,0.0,0.00079044397,0.0,0.0,0.0,0.0,0.0,0.0,0.0,0.0
877100000,877020000,0.0003752955,0.0,0.00046738592,3.6178648e-05,0.0,0.0,0.0,0.0,0.0,0.0,0.0,0.0,0.0,6.7419013e-12,0.0,0.0,nan,0.0,0.0,0.0,0.00034602243,0.0,0.0,0.0,0.0,0.0,0.0,0.0,0.0
877604000,877524000,8.854935e-05,0.0,3.376447e-05,1.212383e-05,0.0,0.0,0.0,0.0,0.0,0.0,0.0,0.0,0.0,2.1122726e-07,0.0,0.0,nan,0.0,0.0,0.0,0.00025772885,0.0,0.0,0.0,0.0,0.0,0.0,0.0,0.0
878100000,878020000,5.163967e-05,0.0,0.00075573166,8.032296e-06,0.0,0.0,0.0,0.0,0.0,0.0,0.0,0.0,0.0,7.8129915e-08,0.0,0.0,nan,0.0,0.0,0.0,0.00022461005,0.0,0.0,0.0,0.0,0.0,0.0,0.0,0.0
878604000,878524000,0.0005535604,0.0,0.00018525345,1.7861584e-08,0.0,0.0,0.0,0.0,0.0,0.0,0.0,0.0,0.0,3.76795e-06,0.0,0.0,nan,0.0,0.0,0.0,0.00010971973,0.0,0.0,0.0,0.0,0.0,0.0,0.0,0.0
879100000,879020000,0.0014397645,0.0,1.9877636e-05,1.2309515e-05,0.0,0.0,0.0,0.0,0.0,0.0,0.0,0.0,0.0,3.6072126e-07,0.0,0.0,nan,0.0,0.0,0.0,0.00056668336,0.0,0.0,0.0,0.0,0.0,0.0,0.0,0.0
879604000,879524000,0.0027962849,0.0,0.00041340187,3.9717343e-05,0.0,0.0,0.0,0.0,0.0,0.0,0.0,0.0,0.0,1.2775566e-05,0.0,0.0,nan,0.0,0.0,0.0,0.00011012196,0.0,0.0,0.0,0.0,0.0,0.0,0.0,0.0
880100000,880020000,0.0009195876,0.0,9.754424e-08,3.998796e-05,0.0,0.0,0.0,0.0,0.0,0.0,0.0,0.0,0.0,0.0,0.0,0.0,nan,0.0,0.0,0.0002464558,0.0,0.0,0.0,0.0,0.0,0.0,0.0,0.0,0.0
880596000,880516000,0.0017417786,0.0,9.90165e-06,8.1067934e-05,0.0,0.0,0.0,0.0,0.0,0.0,0.0,0.0,0.0,0.0,0.0,0.0,nan,0.0,0.0,0.0,0.00019561706,0.0,0.0,0.0,0.0,0.0,0.0,0.0,0.0
881100000,881020000,0.0022886728,0.0,0.0002772208,9.6447184e-05,0.0,0.0,0.0,0.0,0.0,0.0,0.0,0.0,0.0,0.0,0.0,0.0,nan,0.0,0.0,0.0,0.0039053373,0.0,0.0,0.0,0.0,0.0,0.0,0.0,0.0
881604000,881524000,0.00058630033,0.0,7.074841e-05,0.00010146768,0.0,0.0,0.0,0.0,0.0,0.0,0.0,0.0,0.0,0.0,0.0,0.0,nan,0.0,0.0,0.0,0.00045007464,0.0,0.0,0.0,0.0,0.0,0.0,0.0,0.0
882100000,882020000,0.0014883315,0.0,0.00014791766,9.7424025e-05,0.0,0.0,0.0,0.0,0.0,0.0,0.0,0.0,0.0,0.0,0.0,0.0,nan,0.0,0.0,0.0,0.0002633159,0.0,0.0,0.0,0.0,0.0,0.0,0.0,0.0
882604000,882524000,0.00029703815,0.0,7.5406015e-06,4.4031975e-05,0.0,0.0,0.0,0.0,0.0,0.0,0.0,0.0,0.0,0.0,0.0,0.0,nan,0.0,0.0,0.0,0.0012127003,0.0,0.0,0.0,0.0,0.0,0.0,0.0,0.0
883100000,883020000,5.426039e-05,0.0,0.00033697177,4.579314e-05,0.0,0.0,0.0,0.0,0.0,0.0,0.0,0.0,0.0,0.0,0.0,0.0,nan,0.0,0.0,0.0,0.00069413683,0.0,0.0,0.0,0.0,0.0,0.0,0.0,0.0
883604000,883524000,5.3968615e-05,0.0,8.6056684e-07,4.526502e-05,0.0,0.0,0.0,0.0,0.0,0.0,0.0,0.0,0.0,0.0,0.0,0.0,nan,0.0,0.0,0.0,0.00078237016,0.0,0.0,0.0,0.0,0.0,0.0,0.0,0.0
884100000,884020000,0.0005332698,0.0,1.6689071e-06,3.0276373e-05,0.0,0.0,0.0,0.0,0.0,0.0,0.0,0.0,0.0,0.0,0.0,0.0,nan,0.0,0.0,1.77071e-05,0.0,0.0,0.0,0.0,0.0,0.0,0.0,0.0,0.0
884596000,884516000,0.00053227827,0.0,0.00013329653,2.2668712e-05,0.0,0.0,0.0,0.0,0.0,0.0,0.0,0.0,0.0,0.0,0.0,0.0,nan,0.0,0.0,6.28913e-05,0.0,0.0,0.0,0.0,0.0,0.0,0.0,0.0,0.0
885100000,885020000,0.0014200681,0.0,0.00036322282,9.630036e-06,0.0,0.0,0.0,0.0,0.0,0.0,0.0,0.0,0.0,0.0,0.0,0.0,nan,0.0,0.0,8.865976e-06,0.0,0.0,0.0,0.0,0.0,0.0,0.0,0.0,0.0
885604000,885524000,0.0010432107,0.0,8.4952655e-05,2.2568556e-05,0.0,0.0,0.0,0.0,0.0,0.0,0.0,0.0,0.0,0.0,0.0,0.0,nan,0.0,0.0,3.9297738e-05,0.0,0.0,0.0,0.0,0.0,0.0,0.0,0.0,0.0
886100000,886020000,0.0003941708,0.0,0.00012455085,1.2099352e-05,0.0,0.0,0.0,0.0,0.0,0.0,0.0,0.0,0.0,0.0,0.0,0.0,nan,0.0,0.0,4.824071e-05,0.0,0.0,0.0,0.0,0.0,0.0,0.0,0.0,0.0
886596000,886516000,0.0001866529,0.0,2.782905e-05,8.561101e-06,0.0,0.0,0.0,0.0,0.0,0.0,0.0,0.0,0.0,0.0,0.0,0.0,nan,0.0,0.0,0.0007476201,0.0,0.0,0.0,0.0,0.0,0.0,0.0,0.0,0.0
887100000,887020000,0.00031262808,0.0,1.2214114e-05,1.1018859e-05,0.0,0.0,0.0,0.0,0.0,0.0,0.0,0.0,0.0,0.0,0.0,0.0,nan,0.0,0.0,7.689462e-05,0.0,0.0,0.0,0.0,0.0,0.0,0.0,0.0,0.0
887604000,887524000,0.000108592256,0.0,0.0004850388,9.901743e-06,0.0,0.0,0.0,0.0,0.0,0.0,0.0,0.0,0.0,0.0,0.0,0.0,nan,0.0,0.0,0.00048428486,0.0,0.0,0.0,0.0,0.0,0.0,0.0,0.0,0.0
888100000,888020000,3.2467546e-05,0.0,7.558689e-05,5.4316934e-06,0.0,0.0,0.0,0.0,0.0,0.0,0.0,0.0,0.0,0.0,0.0,0.0,nan,0.0,0.0,1.4132843e-05,0.0,0.0,0.0,0.0,0.0,0.0,0.0,0.0,0.0
888604000,888524000,2.1269914e-05,0.0,1.260378e-05,3.7726766e-06,0.0,0.0,0.0,0.0,0.0,0.0,0.0,0.0,0.0,0.0,0.0,0.0,nan,0.0,0.0,2.1663762e-05,0.0,0.0,0.0,0.0,0.0,0.0,0.0,0.0,0.0
889100000,889020000,0.00011375351,0.0,1.2756486e-05,7.504995e-06,0.0,0.0,0.0,0.0,0.0,0.0,0.0,0.0,0.0,0.0,0.0,0.0,nan,0.0,0.0,0.0001497437,0.0,0.0,0.0,0.0,0.0,0.0,0.0,0.0,0.0
889596000,889516000,0.00017510692,0.0,0.000396611,1.5764423e-05,0.0,0.0,0.0,0.0,0.0,0.0,0.0,0.0,0.0,0.0,0.0,0.0,nan,0.0,0.0,1.5470203e-05,0.0,0.0,0.0,0.0,0.0,0.0,0.0,0.0,0.0
890100000,890020000,9.466388e-06,0.0,4.2296248e-05,1.7507342e-05,0.0,0.0,0.0,0.0,0.0,0.0,0.0,0.0,0.0,0.0,0.0,0.0,nan,0.0,0.0,1.8007371e-05,0.0,0.0,0.0,0.0,0.0,0.0,0.0,0.0,0.0
890604000,890524000,0.000171882,0.0,0.0002228959,2.1893486e-05,0.0,0.0,0.0,0.0,0.0,0.0,0.0,0.0,0.0,0.0,0.0,0.0,nan,0.0,0.0,8.232409e-05,0.0,0.0,0.0,0.0,0.0,0.0,0.0,0.0,0.0
891100000,891020000,0.00036443194,0.0,0.00016868491,2.1385044e-05,0.0,0.0,0.0,0.0,0.0,0.0,0.0,0.0,0.0,0.0,0.0,0.0,nan,0.0,0.0,1.1473066e-06,0.0,0.0,0.0,0.0,0.0,0.0,0.0,0.0,0.0
891604000,891524000,0.00059784827,0.0,5.3520273e-07,3.6925376e-05,0.0,0.0,0.0,0.0,0.0,0.0,0.0,0.0,0.0,0.0,0.0,0.0,nan,0.0,0.0,0.0004956589,0.0,0.0,0.0,0.0,0.0,0.0,0.0,0.0,0.0
892100000,892020000,0.00055084354,0.0,2.0595822e-05,2.2144879e-05,0.0,0.0,0.0,0.0,0.0,0.0,0.0,0.0,0.0,0.0,0.0,0.0,nan,0.0,0.0,1.6960441e-05,0.0,0.0,0.0,0.0,0.0,0.0,0.0,0.0,0.0
892604000,892524000,0.0011551261,0.0,4.003952e-05,3.8051217e-05,0.0,0.0,0.0,0.0,0.0,0.0,0.0,0.0,0.0,0.0,0.0,0.0,nan,0.0,0.0,0.000744205,0.0,0.0,0.0,0.0,0.0,0.0,0.0,0.0,0.0
893100000,893020000,0.0004968248,0.0,4.6474255e-05,2.3450808e-05,0.0,0.0,0.0,0.0,0.0,0.0,0.0,0.0,0.0,0.0,0.0,0.0,nan,0.0,0.0,0.0002944757,0.0,0.0,0.0,0.0,0.0,0.0,0.0,0.0,0.0
893596000,893516000,0.0017202911,0.0,0.00061683386,3.848799e-05,0.0,0.0,0.0,0.0,0.0,0.0,0.0,0.0,0.0,0.0,0.0,0.0,nan,0.0,0.0,5.853958e-05,0.0,0.0,0.0,0.0,0.0,0.0,0.0,0.0,0.0
894100000,894020000,0.0003133664,0.0,6.549722e-05,2.429301e-05,0.0,0.0,0.0,0.0,0.0,0.0,0.0,0.0,0.0,0.0,0.0,0.0,nan,0.0,0.0,3.3553115e-05,0.0,0.0,0.0,0.0,0.0,0.0,0.0,0.0,0.0
894604000,894524000,0.0009516683,0.0,0.00013579318,3.7030986e-05,0.0,0.0,0.0,0.0,0.0,0.0,0.0,0.0,0.0,0.0,0.0,0.0,nan,0.0,0.0,0.00040935268,0.0,0.0,0.0,0.0,0.0,0.0,0.0,0.0,0.0
895100000,895020000,0.0011593208,0.0,1.4376422e-05,4.0585965e-05,0.0,0.0,0.0,0.0,0.0,0.0,0.0,0.0,0.0,0.0,0.0,0.0,nan,0.0,0.0,6.552054e-07,0.0,0.0,0.0,0.0,0.0,0.0,0.0,0.0,0.0
895596000,895516000,0.0008737897,0.0,0.0012322955,2.8180813e-05,0.0,0.0,0.0,0.0,0.0,0.0,0.0,0.0,0.0,0.0,0.0,0.0,nan,0.0,0.0,0.00026302898,0.0,0.0,0.0,0.0,0.0,0.0,0.0,0.0,0.0
896100000,896020000,0.0029376894,0.0,0.000305544,2.7580234e-05,0.0,0.0,0.0,0.0,0.0,0.0,0.0,0.0,0.0,0.0,0.0,0.0,nan,0.0,0.0,3.2227257e-05,0.0,0.0,0.0,0.0,0.0,0.0,0.0,0.0,0.0
896604000,896524000,0.0005220452,0.0,0.00010721782,3.574638e-05,0.0,0.0,0.0,0.0,0.0,0.0,0.0,0.0,0.0,0.0,0.0,0.0,nan,0.0,0.0,3.806606e-05,0.0,0.0,0.0,0.0,0.0,0.0,0.0,0.0,0.0
897100000,897020000,0.00024777924,0.0,0.00023403585,2.3694842e-05,0.0,0.0,0.0,0.0,0.0,0.0,0.0,0.0,0.0,0.0,0.0,0.0,nan,0.0,0.0,9.067263e-06,0.0,0.0,0.0,0.0,0.0,0.0,0.0,0.0,0.0
897596000,897516000,0.00026390035,0.0,0.00021850893,2.7876391e-05,0.0,0.0,0.0,0.0,0.0,0.0,0.0,0.0,0.0,1.25783745e-05,0.0,0.0,nan,0.0,0.0,0.00052394747,0.0,0.0,0.0,0.0,0.0,0.0,0.0,0.0,0.0
898100000,898020000,0.00019446205,0.0,0.0008101708,9.097309e-06,0.0,0.0,0.0,0.0,0.0,0.0,0.0,0.0,0.0,1.16325864e-07,0.0,0.0,nan,0.0,0.0,4.5892404e-05,0.0,0.0,0.0,0.0,0.0,0.0,0.0,0.0,0.0
898596000,898516000,0.0003583624,0.0,0.00062964286,7.935288e-06,0.0,0.0,0.0,0.0,0.0,0.0,0.0,0.0,0.0,7.262192e-05,0.0,0.0,nan,0.0,0.0,0.00034766187,0.0,0.0,0.0,0.0,0.0,0.0,0.0,0.0,0.0
899100000,899020000,1.3909171e-07,0.0,0.00037377668,4.3336217e-06,0.0,0.0,0.0,0.0,0.0,0.0,0.0,0.0,0.0,0.00024575158,0.0,0.0,nan,0.0,0.0,0.00048504118,0.0,0.0,0.0,0.0,0.0,0.0,0.0,0.0,0.0
899604000,899524000,0.00031363228,0.0,1.7322428e-07,4.155232e-06,0.0,0.0,0.0,0.0,0.0,0.0,0.0,0.0,0.0,2.449317e-05,0.0,0.0,nan,0.0,0.0,0.00024960985,0.0,0.0,0.0,0.0,0.0,0.0,0.0,0.0,0.0
900100000,900020000,5.285676e-05,0.0,3.6433406e-07,3.964913e-06,0.0,0.0,0.0,0.0,0.0,0.0,0.0,0.0,0.0,0.000102376034,0.0,0.0,nan,0.0,0.0,0.0002975839,0.0,0.0,0.0,0.0,0.0,0.0,0.0,0.0,0.0
