timestamp,timestamp_sample,gps_hvel[0],gps_hvel[1],gps_vvel,gps_hpos[0],gps_hpos[1],gps_vpos,ev_hvel[0],ev_hvel[1],ev_vvel,ev_hpos[0],ev_hpos[1],ev_vpos,rng_vpos,baro_vpos,aux_hvel[0],aux_hvel[1],aux_vvel,flow[0],flow[1],heading,mag_field[0],mag_field[1],mag_field[2],drag[0],drag[1],airspeed,beta,hagl,hagl_rate
829588000,829508000,0.0902262,0.09022621,0.2027389,1.0015757,1.0015757,0.0,0.0,0.0,0.0,0.0,0.0,0.0,0.0,12.2536125,0.0,0.0,nan,0.0,0.0,0.090321384,0.002535536,0.0025413446,0.0025458185,0.0,0.0,0.0,0.0,0.0,0.0
830092000,830012000,0.090161316,0.09016132,0.2026682,1.0015713,1.0015713,0.0,0.0,0.0,0.0,0.0,0.0,0.0,0.0,12.253607,0.0,0.0,nan,0.0,0.0,0.09032148,0.002535536,0.0025413446,0.0025458185,0.0,0.0,0.0,0.0,0.0,0.0
830588000,830508000,0.09016136,0.09016136,0.2026682,1.001568,1.001568,0.0,0.0,0.0,0.0,0.0,0.0,0.0,0.0,12.253598,0.0,0.0,nan,0.0,0.0,0.090321444,0.002535536,0.0025413446,0.0025458185,0.0,0.0,0.0,0.0,0.0,0.0
831092000,831012000,0.09011693,0.09011693,0.20262071,1.0015646,1.0015646,0.0,0.0,0.0,0.0,0.0,0.0,0.0,0.0,12.2535925,0.0,0.0,nan,0.0,0.0,0.0903214,0.002535536,0.0025413446,0.0025458185,0.0,0.0,0.0,0.0,0.0,0.0
831588000,831508000,0.09010823,0.09010824,0.20261152,1.0015637,1.0015637,0.0,0.0,0.0,0.0,0.0,0.0,0.0,0.0,12.253584,0.0,0.0,nan,0.0,0.0,0.09032149,0.002535536,0.0025413446,0.0025458185,0.0,0.0,0.0,0.0,0.0,0.0
832092000,832012000,0.09010823,0.09010823,0.20261152,1.0015587,1.0015587,0.0,0.0,0.0,0.0,0.0,0.0,0.0,0.0,12.253578,0.0,0.0,nan,0.0,0.0,0.090321586,0.002535536,0.0025413446,0.0025458185,0.0,0.0,0.0,0.0,0.0,0.0
832588000,832508000,0.09004919,0.0900492,0.20254992,1.0015575,1.0015575,0.0,0.0,0.0,0.0,0.0,0.0,0.0,0.0,12.253572,0.0,0.0,nan,0.0,0.0,0.09032166,0.002535536,0.0025413446,0.0025458185,0.0,0.0,0.0,0.0,0.0,0.0
833092000,833012000,0.090049185,0.090049185,0.20254992,1.0015526,1.0015526,0.0,0.0,0.0,0.0,0.0,0.0,0.0,0.0,12.253563,0.0,0.0,nan,0.0,0.0,0.09032164,0.002535536,0.0025413446,0.0025458185,0.0,0.0,0.0,0.0,0.0,0.0
833588000,833508000,0.090049185,0.090049185,0.20254992,1.0015509,1.001551,0.0,0.0,0.0,0.0,0.0,0.0,0.0,0.0,12.253557,0.0,0.0,nan,0.0,0.0,0.090321474,0.002535536,0.0025413446,0.0025458185,0.0,0.0,0.0,0.0,0.0,0.0
834092000,834012000,0.09022636,0.090226375,0.2027389,1.0015515,1.0015515,0.0,0.0,0.0,0.0,0.0,0.0,0.0,0.0,12.253549,0.0,0.0,nan,0.0,0.0,0.090321556,0.002535536,0.0025413446,0.0025458185,0.0,0.0,0.0,0.0,0.0,0.0
834588000,834508000,0.09022633,0.09022634,0.2027389,1.0015482,1.0015482,0.0,0.0,0.0,0.0,0.0,0.0,0.0,0.0,12.253543,0.0,0.0,nan,0.0,0.0,0.09032153,0.002535536,0.0025413446,0.0025458185,0.0,0.0,0.0,0.0,0.0,0.0
835092000,835012000,0.09016136,0.09016136,0.2026682,1.0015439,1.0015439,0.0,0.0,0.0,0.0,0.0,0.0,0.0,0.0,12.253538,0.0,0.0,nan,0.0,0.0,0.09032137,0.002535536,0.0025413446,0.0025458185,0.0,0.0,0.0,0.0,0.0,0.0
835588000,835508000,0.09016128,0.09016128,0.2026682,1.0015408,1.0015408,0.0,0.0,0.0,0.0,0.0,0.0,0.0,0.0,12.25353,0.0,0.0,nan,0.0,0.0,0.09032147,0.002535536,0.0025413446,0.0025458185,0.0,0.0,0.0,0.0,0.0,0.0
836092000,836012000,0.09016132,0.09016133,0.2026682,1.0015376,1.0015376,0.0,0.0,0.0,0.0,0.0,0.0,0.0,0.0,12.253524,0.0,0.0,nan,0.0,0.0,0.09032156,0.002535536,0.0025413446,0.0025458185,0.0,0.0,0.0,0.0,0.0,0.0
836588000,836508000,0.09011694,0.09011695,0.20262071,1.001536,1.001536,0.0,0.0,0.0,0.0,0.0,0.0,0.0,0.0,12.25355,0.0,0.0,nan,0.0,0.0,0.09032167,0.002535536,0.0025413446,0.0025458185,0.0,0.0,0.0,0.0,0.0,0.0
837092000,837012000,0.09136997,0.09137011,0.20407195,1.0018704,1.0018704,0.0,0.0,0.0,0.0,0.0,0.0,0.0,0.0,12.253961,0.0,0.0,nan,0.0,0.0,0.09032177,0.002535536,0.0025413446,0.0025458185,0.0,0.0,0.0,0.0,0.0,0.0
837588000,837508000,0.09182753,0.09182754,0.20459436,1.0021856,1.0021856,0.0,0.0,0.0,0.0,0.0,0.0,0.0,0.0,12.25528,0.0,0.0,nan,0.0,0.0,0.09032186,0.002535536,0.0025413446,0.0025458185,0.0,0.0,0.0,0.0,0.0,0.0
838092000,838012000,0.094321,0.094321616,0.20702733,1.0052903,1.0052906,0.0,0.0,0.0,0.0,0.0,0.0,0.0,0.0,12.2585125,0.0,0.0,nan,0.0,0.0,0.09032158,0.002535536,0.0025413446,0.0025458185,0.0,0.0,0.0,0.0,0.0,0.0
838588000,838508000,0.09534229,0.095342994,0.20847166,1.0084753,1.0084759,0.0,0.0,0.0,0.0,0.0,0.0,0.0,0.0,12.263813,0.0,0.0,nan,0.0,0.0,0.1003215,0.002535536,0.0025413446,0.0025458185,0.0,0.0,0.0,0.0,0.0,0.0
839092000,839012000,0.09596385,0.09596476,0.2099669,1.0127313,1.0127324,0.0,0.0,0.0,0.0,0.0,0.0,0.0,0.0,12.273474,0.0,0.0,nan,0.0,0.0,0.095725805,0.002535536,0.0025413446,0.0025458185,0.0,0.0,0.0,0.0,0.0,0.0
839588000,839508000,0.09810394,0.09810481,0.21229734,1.0209405,1.0209424,0.0,0.0,0.0,0.0,0.0,0.0,0.0,0.0,12.284486,0.0,0.0,nan,0.0,0.0,0.09396218,0.002535536,0.0025413446,0.0025458185,0.0,0.0,0.0,0.0,0.0,0.0
840084000,840004000,0.09993056,0.099930525,0.21336298,1.0259184,1.0259203,0.0,0.0,0.0,0.0,0.0,0.0,0.0,0.0,12.299943,0.0,0.0,nan,0.0,0.0,0.093029656,0.002535536,0.0025413446,0.0025458185,0.0,0.0,0.0,0.0,0.0,0.0
840588000,840508000,0.1033123,0.10331187,0.21495102,1.0348943,1.0348964,0.0,0.0,0.0,0.0,0.0,0.0,0.0,0.0,12.3151655,0.0,0.0,nan,0.0,0.0,0.092452906,0.002535536,0.0025413446,0.0025458185,0.0,0.0,0.0,0.0,0.0,0.0
841092000,841012000,0.10445626,0.10445319,0.21555166,1.0416628,1.0416645,0.0,0.0,0.0,0.0,0.0,0.0,0.0,0.0,12.329178,0.0,0.0,nan,0.0,0.0,0.0920611,0.002535536,0.0025413446,0.0025458185,0.0,0.0,0.0,0.0,0.0,0.0
841588000,841508000,0.106853284,0.1067641,0.21641423,1.049095,1.0490965,0.0,0.0,0.0,0.0,0.0,0.0,0.0,0.0,12.34899,0.0,0.0,nan,0.0,0.0,0.09177668,0.002535536,0.0025413446,0.0025458185,0.0,0.0,0.0,0.0,0.0,0.0
842092000,842012000,0.1085704,0.10743951,0.21700715,1.0582194,1.0582192,0.0,0.0,0.0,0.0,0.0,0.0,0.0,0.0,12.362738,0.0,0.0,nan,0.0,0.0,0.0915383,0.002535536,0.0025413446,0.0025458185,0.0,0.0,0.0,0.0,0.0,0.0
842588000,842508000,0.10721561,0.10549067,0.21662197,1.0592166,1.0592034,0.0,0.0,0.0,0.0,0.0,0.0,0.0,0.0,12.377461,0.0,0.0,nan,0.0,0.0,0.09135749,0.005980484,0.006702318,0.0071159657,0.0,0.0,0.0,0.0,0.0,0.0
843084000,843004000,0.10701914,0.10520553,0.21670131,1.0654045,1.0654037,0.0,0.0,0.0,0.0,0.0,0.0,0.0,0.0,12.387852,0.0,0.0,nan,0.0,0.0,0.09135749,0.002831862,0.0028343198,0.002832921,0.0,0.0,0.0,0.0,0.0,0.0
843588000,843508000,0.10464575,0.10362493,0.216263,1.0649308,1.0649288,0.0,0.0,0.0,0.0,0.0,0.0,0.0,0.0,12.397572,0.0,0.0,nan,0.0,0.0,0.09135749,0.0026769286,0.0026751766,0.0026737088,0.0,0.0,0.0,0.0,0.0,0.0
844092000,844012000,0.104095556,0.10382228,0.2164728,1.0706416,1.0706155,0.0,0.0,0.0,0.0,0.0,0.0,0.0,0.0,12.406631,0.0,0.0,nan,0.0,0.0,0.09135749,0.0026188288,0.0026182146,0.0026172015,0.0,0.0,0.0,0.0,0.0,0.0
844588000,844508000,0.10460422,0.104598686,0.21693012,1.077601,1.0775394,0.0,0.0,0.0,0.0,0.0,0.0,0.0,0.0,12.419231,0.0,0.0,nan,0.0,0.0,0.09135749,0.002589264,0.0025891082,0.0025882085,0.0,0.0,0.0,0.0,0.0,0.0
845092000,845012000,0.10214302,0.10220071,0.21632741,1.0728743,1.0728209,0.0,0.0,0.0,0.0,0.0,0.0,0.0,0.0,12.415534,0.0,0.0,nan,0.0,0.0,0.09135749,0.0025697148,0.0025700105,0.002568966,0.0,0.0,0.0,0.0,0.0,0.0
845588000,845508000,0.10274389,0.10273841,0.21657926,1.0772171,1.077169,0.0,0.0,0.0,0.0,0.0,0.0,0.0,0.0,12.426739,0.0,0.0,nan,0.0,0.0,0.09135749,0.0025587196,0.002558942,0.0025577545,0.0,0.0,0.0,0.0,0.0,0.0
846084000,846004000,0.10141094,0.10123558,0.21613526,1.0726378,1.072599,0.0,0.0,0.0,0.0,0.0,0.0,0.0,0.0,12.422348,0.0,0.0,nan,0.0,0.0,0.09122604,0.0025518064,0.0025520008,0.0025509077,0.0,0.0,0.0,0.0,0.0,0.0
846588000,846508000,0.10115647,0.10093122,0.21606767,1.0714682,1.0714352,0.0,0.0,0.0,0.0,0.0,0.0,0.0,0.0,12.431475,0.0,0.0,nan,0.0,0.0,0.091118954,0.0025518064,0.0025520008,0.0025509077,0.0,0.0,0.0,0.0,0.0,0.0
847092000,847012000,0.10313708,0.10267247,0.21707802,1.0815896,1.081583,0.0,0.0,0.0,0.0,0.0,0.0,0.0,0.0,12.4318,0.0,0.0,nan,0.0,0.0,0.0910225,0.0025518064,0.0025520008,0.0025509077,0.0,0.0,0.0,0.0,0.0,0.0
847588000,847508000,0.10203048,0.10161062,0.21668327,1.0771909,1.0771866,0.0,0.0,0.0,0.0,0.0,0.0,0.0,0.0,12.431639,0.0,0.0,nan,0.0,0.0,0.09094081,0.0025518064,0.0025520008,0.0025509077,0.0,0.0,0.0,0.0,0.0,0.0
848092000,848012000,0.10240756,0.10199724,0.21690482,1.0790405,1.0790285,0.0,0.0,0.0,0.0,0.0,0.0,0.0,0.0,12.431833,0.0,0.0,nan,0.0,0.0,0.090871364,0.0025518064,0.0025520008,0.0025509077,0.0,0.0,0.0,0.0,0.0,0.0
848588000,848508000,0.101603754,0.101252645,0.21654913,1.0752784,1.0752686,0.0,0.0,0.0,0.0,0.0,0.0,0.0,0.0,12.432452,0.0,0.0,nan,0.0,0.0,0.09081219,0.0025518064,0.0025520008,0.0025509077,0.0,0.0,0.0,0.0,0.0,0.0
849092000,849012000,0.10111202,0.100818545,0.21627584,1.0723853,1.0723748,0.0,0.0,0.0,0.0,0.0,0.0,0.0,0.0,12.431445,0.0,0.0,nan,0.0,0.0,0.09076158,0.0025518064,0.0025520008,0.0025509077,0.0,0.0,0.0,0.0,0.0,0.0
849588000,849508000,0.10205786,0.101766095,0.21682757,1.0765654,1.0765342,0.0,0.0,0.0,0.0,0.0,0.0,0.0,0.0,12.438863,0.0,0.0,nan,0.0,0.0,0.09071961,0.0025518064,0.0025520008,0.0025509077,0.0,0.0,0.0,0.0,0.0,0.0
850092000,850012000,0.10208869,0.10183981,0.2169292,1.0773759,1.0773313,0.0,0.0,0.0,0.0,0.0,0.0,0.0,0.0,12.432118,0.0,0.0,nan,0.0,0.0,0.090678595,0.0025518064,0.0025520008,0.0025509077,0.0,0.0,0.0,0.0,0.0,0.0
850588000,850508000,0.10173055,0.10151548,0.21677916,1.0755721,1.0755318,0.0,0.0,0.0,0.0,0.0,0.0,0.0,0.0,12.437939,0.0,0.0,nan,0.0,0.0,0.09064626,0.0025518064,0.0025520008,0.0025509077,0.0,0.0,0.0,0.0,0.0,0.0
851092000,851012000,0.10183209,0.101156816,0.21665737,1.0752963,1.075264,0.0,0.0,0.0,0.0,0.0,0.0,0.0,0.0,12.430529,0.0,0.0,nan,0.0,0.0,0.09061113,0.0025518064,0.0025520008,0.0025509077,0.0,0.0,0.0,0.0,0.0,0.0
851588000,851508000,0.10244586,0.10055389,0.21627028,1.0723697,1.0723468,0.0,0.0,0.0,0.0,0.0,0.0,0.0,0.0,12.430195,0.0,0.0,nan,0.0,0.0,0.090594485,0.0028953694,0.0030766549,0.003107075,0.0,0.0,0.0,0.0,0.0,0.0
852084000,852004000,0.10503659,0.10140732,0.21667854,1.0765563,1.076411,0.0,0.0,0.0,0.0,0.0,0.0,0.0,0.0,12.434082,0.0,0.0,nan,0.0,0.0,0.090594485,0.0026867501,0.0027201674,0.002724317,0.0,0.0,0.0,0.0,0.0,0.0
852588000,852508000,0.10593532,0.10224914,0.21683545,1.0795738,1.0791826,0.0,0.0,0.0,0.0,0.0,0.0,0.0,0.0,12.434857,0.0,0.0,nan,0.0,0.0,0.090594485,0.002620592,0.0026367584,0.0026399342,0.0,0.0,0.0,0.0,0.0,0.0
853092000,853012000,0.103307866,0.10151987,0.21643995,1.075437,1.0750939,0.0,0.0,0.0,0.0,0.0,0.0,0.0,0.0,12.434185,0.0,0.0,nan,0.0,0.0,0.090594485,0.0025975346,0.0026043125,0.0026037665,0.0,0.0,0.0,0.0,0.0,0.0
853588000,853508000,0.10214399,0.10202118,0.21678784,1.0773904,1.0768557,0.0,0.0,0.0,0.0,0.0,0.0,0.0,0.0,12.43291,0.0,0.0,nan,0.0,0.0,0.090594485,0.0025764846,0.0025803887,0.0025802222,0.0,0.0,0.0,0.0,0.0,0.0
854084000,854004000,0.100966334,0.101173386,0.21653229,1.0726548,1.0722394,0.0,0.0,0.0,0.0,0.0,0.0,0.0,0.0,12.426028,0.0,0.0,nan,0.0,0.0,0.090594485,0.0025672151,0.0025662093,0.002565578,0.0,0.0,0.0,0.0,0.0,0.0
854588000,854508000,0.10200471,0.10207858,0.21709633,1.076762,1.0764171,0.0,0.0,0.0,0.0,0.0,0.0,0.0,0.0,12.432348,0.0,0.0,nan,0.0,0.0,0.090594485,0.0025607971,0.002555798,0.0025555794,0.0,0.0,0.0,0.0,0.0,0.0
855092000,855012000,0.102917284,0.10252818,0.21760182,1.0795285,1.0793351,0.0,0.0,0.0,0.0,0.0,0.0,0.0,0.0,12.430723,0.0,0.0,nan,0.0,0.0,0.090594485,0.0025538185,0.0025481135,0.0025483798,0.0,0.0,0.0,0.0,0.0,0.0
855588000,855508000,0.102243714,0.10168006,0.21721469,1.0756463,1.075511,0.0,0.0,0.0,0.0,0.0,0.0,0.0,0.0,12.431918,0.0,0.0,nan,0.0,0.0,0.09046413,0.002552055,0.002546326,0.0025466885,0.0,0.0,0.0,0.0,0.0,0.0
856084000,856004000,0.110230595,0.1052737,0.21681091,1.0769836,1.0768408,0.0,0.0,0.0,0.0,0.0,0.0,0.0,0.0,12.431387,0.0,0.0,nan,0.0,0.0,0.09044998,0.0028729984,0.0031612054,0.00308972,0.0,0.0,0.0,0.0,0.0,0.0
856588000,856508000,0.1168482,0.10419789,0.2158252,1.0737867,1.073628,0.0,0.0,0.0,0.0,0.0,0.0,0.0,0.0,12.430641,0.0,0.0,nan,0.0,0.0,0.09044998,0.002660023,0.0027311393,0.0027272233,0.0,0.0,0.0,0.0,0.0,0.0
857092000,857012000,0.114678964,0.10554892,0.21489629,1.076764,1.0766988,0.0,0.0,0.0,0.0,0.0,0.0,0.0,0.0,12.430318,0.0,0.0,nan,0.0,0.0,0.09044998,0.0026054063,0.0026400564,0.0026417184,0.0,0.0,0.0,0.0,0.0,0.0
857588000,857508000,0.11099087,0.106528364,0.21452712,1.0828419,1.0823451,0.0,0.0,0.0,0.0,0.0,0.0,0.0,0.0,12.432802,0.0,0.0,nan,0.0,0.0,0.09044998,0.002579197,0.0026015162,0.0026164635,0.0,0.0,0.0,0.0,0.0,0.0
858084000,858004000,0.104102984,0.1035494,0.21338297,1.0764405,1.0759515,0.0,0.0,0.0,0.0,0.0,0.0,0.0,0.0,12.427635,0.0,0.0,nan,0.0,0.0,0.09044998,0.0025710864,0.0025799926,0.0025899347,0.0,0.0,0.0,0.0,0.0,0.0
858588000,858508000,0.105867855,0.10454592,0.21364278,1.079992,1.079515,0.0,0.0,0.0,0.0,0.0,0.0,0.0,0.0,12.429358,0.0,0.0,nan,0.0,0.0,0.09044998,0.0025609564,0.0025637823,0.002570196,0.0,0.0,0.0,0.0,0.0,0.0
859084000,859004000,0.10561924,0.10330184,0.21372056,1.0743784,1.0740312,0.0,0.0,0.0,0.0,0.0,0.0,0.0,0.0,12.424203,0.0,0.0,nan,0.0,0.0,0.09044998,0.0025622007,0.0025554239,0.0025614414,0.0,0.0,0.0,0.0,0.0,0.0
859588000,859508000,0.10516752,0.10250118,0.21318293,1.0729564,1.0726502,0.0,0.0,0.0,0.0,0.0,0.0,0.0,0.0,12.426762,0.0,0.0,nan,0.0,0.0,0.09044998,0.00256415,0.0025471665,0.002553162,0.0,0.0,0.0,0.0,0.0,0.0
860084000,860004000,0.10811899,0.10464697,0.21281768,1.0822344,1.0820199,0.0,0.0,0.0,0.0,0.0,0.0,0.0,0.0,12.425236,0.0,0.0,nan,0.0,0.0,0.09044998,0.002546484,0.0025415793,0.0025452874,0.0,0.0,0.0,0.0,0.0,0.0
860588000,860508000,0.10539088,0.10365178,0.21250322,1.0779074,1.0777378,0.0,0.0,0.0,0.0,0.0,0.0,0.0,0.0,12.42375,0.0,0.0,nan,0.0,0.0,0.09044998,0.00253808,0.0025375087,0.0025401139,0.0,0.0,0.0,0.0,0.0,0.0
861084000,861004000,0.105216414,0.104499795,0.21282873,1.0797399,1.0795149,0.0,0.0,0.0,0.0,0.0,0.0,0.0,0.0,12.423188,0.0,0.0,nan,0.0,0.0,0.09044998,0.0025342158,0.0025346577,0.0025365045,0.0,0.0,0.0,0.0,0.0,0.0
861588000,861508000,0.10391567,0.10359854,0.21295124,1.0758133,1.0756284,0.0,0.0,0.0,0.0,0.0,0.0,0.0,0.0,12.421237,0.0,0.0,nan,0.0,0.0,0.09044998,0.0025310472,0.0025318828,0.00253293,0.0,0.0,0.0,0.0,0.0,0.0
862092000,862012000,0.103174865,0.10298637,0.21320844,1.0728203,1.0726638,0.0,0.0,0.0,0.0,0.0,0.0,0.0,0.0,12.420434,0.0,0.0,nan,0.0,0.0,0.09044998,0.002528597,0.0025292512,0.0025297243,0.0,0.0,0.0,0.0,0.0,0.0
862588000,862508000,0.10439681,0.104193695,0.21393244,1.0771099,1.076941,0.0,0.0,0.0,0.0,0.0,0.0,0.0,0.0,12.422929,0.0,0.0,nan,0.0,0.0,0.09044998,0.0025270826,0.0025276456,0.0025277024,0.0,0.0,0.0,0.0,0.0,0.0
863092000,863012000,0.104022875,0.1038128,0.21502274,1.0776584,1.0775281,0.0,0.0,0.0,0.0,0.0,0.0,0.0,0.0,12.419311,0.0,0.0,nan,0.0,0.0,0.0902551,0.0025261936,0.002526661,0.0025265482,0.0,0.0,0.0,0.0,0.0,0.0
863588000,863508000,0.10351827,0.10331582,0.2152058,1.0760994,1.0759852,0.0,0.0,0.0,0.0,0.0,0.0,0.0,0.0,12.423109,0.0,0.0,nan,0.0,0.0,0.09025507,0.0025261936,0.002526661,0.0025265482,0.0,0.0,0.0,0.0,0.0,0.0
864084000,864004000,0.1030307,0.1028288,0.21598758,1.0758,1.0757189,0.0,0.0,0.0,0.0,0.0,0.0,0.0,0.0,12.4184885,0.0,0.0,nan,0.0,0.0,0.09025482,0.0025261936,0.002526661,0.0025265482,0.0,0.0,0.0,0.0,0.0,0.0
864588000,864508000,0.10218903,0.10200499,0.21607053,1.072806,1.0727435,0.0,0.0,0.0,0.0,0.0,0.0,0.0,0.0,12.419956,0.0,0.0,nan,0.0,0.0,0.090254836,0.0025261936,0.002526661,0.0025265482,0.0,0.0,0.0,0.0,0.0,0.0
865092000,865012000,0.103087455,0.102877185,0.21686779,1.07709,1.0770291,0.0,0.0,0.0,0.0,0.0,0.0,0.0,0.0,12.423687,0.0,0.0,nan,0.0,0.0,0.09025523,0.0025261936,0.002526661,0.0025265482,0.0,0.0,0.0,0.0,0.0,0.0
865588000,865508000,0.10330192,0.10308712,0.21752255,1.0800148,1.0799581,0.0,0.0,0.0,0.0,0.0,0.0,0.0,0.0,12.424895,0.0,0.0,nan,0.0,0.0,0.09025544,0.0025261936,0.002526661,0.0025265482,0.0,0.0,0.0,0.0,0.0,0.0
866084000,866004000,0.102191694,0.10200864,0.21726091,1.0760076,1.0759646,0.0,0.0,0.0,0.0,0.0,0.0,0.0,0.0,12.425737,0.0,0.0,nan,0.0,0.0,0.09025576,0.0025261936,0.002526661,0.0025265482,0.0,0.0,0.0,0.0,0.0,0.0
866588000,866508000,0.102298394,0.1021244,0.21766469,1.0774939,1.0774521,0.0,0.0,0.0,0.0,0.0,0.0,0.0,0.0,12.426483,0.0,0.0,nan,0.0,0.0,0.09025635,0.0025261936,0.002526661,0.0025265482,0.0,0.0,0.0,0.0,0.0,0.0
867084000,867004000,0.10123661,0.10110102,0.21715447,1.0726986,1.0726682,0.0,0.0,0.0,0.0,0.0,0.0,0.0,0.0,12.422361,0.0,0.0,nan,0.0,0.0,0.090256736,0.0025261936,0.002526661,0.0025265482,0.0,0.0,0.0,0.0,0.0,0.0
867588000,867508000,0.10211751,0.10197801,0.21767186,1.0768974,1.0768578,0.0,0.0,0.0,0.0,0.0,0.0,0.0,0.0,12.427605,0.0,0.0,nan,0.0,0.0,0.09025778,0.0025261936,0.002526661,0.0025265482,0.0,0.0,0.0,0.0,0.0,0.0
868092000,868012000,0.10249917,0.10237455,0.21807547,1.0797534,1.0797081,0.0,0.0,0.0,0.0,0.0,0.0,0.0,0.0,12.428553,0.0,0.0,nan,0.0,0.0,0.09025864,0.0025261936,0.002526661,0.0025265482,0.0,0.0,0.0,0.0,0.0,0.0
868588000,868508000,0.10157082,0.101472616,0.21746212,1.0755396,1.075505,0.0,0.0,0.0,0.0,0.0,0.0,0.0,0.0,12.4269705,0.0,0.0,nan,0.0,0.0,0.09025963,0.0025261936,0.002526661,0.0025265482,0.0,0.0,0.0,0.0,0.0,0.0
869092000,869012000,0.10190161,0.101814725,0.217745,1.0772839,1.0772463,0.0,0.0,0.0,0.0,0.0,0.0,0.0,0.0,12.428449,0.0,0.0,nan,0.0,0.0,0.090260915,0.0025261936,0.002526661,0.0025265482,0.0,0.0,0.0,0.0,0.0,0.0
869588000,869508000,0.10125945,0.10118838,0.21731646,1.0739223,1.073892,0.0,0.0,0.0,0.0,0.0,0.0,0.0,0.0,12.428793,0.0,0.0,nan,0.0,0.0,0.09026225,0.0025261936,0.002526661,0.0025265482,0.0,0.0,0.0,0.0,0.0,0.0
870092000,870012000,0.10196742,0.10189607,0.21763974,1.0766999,1.0766647,0.0,0.0,0.0,0.0,0.0,0.0,0.0,0.0,12.429005,0.0,0.0,nan,0.0,0.0,0.090263784,0.0025261936,0.002526661,0.0025265482,0.0,0.0,0.0,0.0,0.0,0.0
870588000,870508000,0.10295887,0.10288261,0.21816947,1.0816914,1.0816473,0.0,0.0,0.0,0.0,0.0,0.0,0.0,0.0,12.436249,0.0,0.0,nan,0.0,0.0,0.090265386,0.0025261936,0.002526661,0.0025265482,0.0,0.0,0.0,0.0,0.0,0.0
871084000,871004000,0.10157503,0.10151528,0.217433,1.075433,1.0754046,0.0,0.0,0.0,0.0,0.0,0.0,0.0,0.0,12.429083,0.0,0.0,nan,0.0,0.0,0.0902669,0.0025261936,0.002526661,0.0025265482,0.0,0.0,0.0,0.0,0.0,0.0
871588000,871508000,0.10237873,0.102313265,0.21789424,1.0792406,1.0792063,0.0,0.0,0.0,0.0,0.0,0.0,0.0,0.0,12.436079,0.0,0.0,nan,0.0,0.0,0.09026849,0.0025261936,0.002526661,0.0025265482,0.0,0.0,0.0,0.0,0.0,0.0
872084000,872004000,0.10129945,0.10124764,0.21716331,1.0738517,1.0738281,0.0,0.0,0.0,0.0,0.0,0.0,0.0,0.0,12.429019,0.0,0.0,nan,0.0,0.0,0.09027016,0.0025261936,0.002526661,0.0025265482,0.0,0.0,0.0,0.0,0.0,0.0
872588000,872508000,0.101068504,0.101019524,0.217037,1.0724767,1.0724552,0.0,0.0,0.0,0.0,0.0,0.0,0.0,0.0,12.435502,0.0,0.0,nan,0.0,0.0,0.09027202,0.0025261936,0.002526661,0.0025265482,0.0,0.0,0.0,0.0,0.0,0.0
873092000,873012000,0.10303356,0.102976985,0.21818158,1.0819612,1.0819257,0.0,0.0,0.0,0.0,0.0,0.0,0.0,0.0,12.435379,0.0,0.0,nan,0.0,0.0,0.090273604,0.0025261936,0.002526661,0.0025265482,0.0,0.0,0.0,0.0,0.0,0.0
873588000,873508000,0.1019768,0.10193323,0.21764074,1.0774715,1.0774456,0.0,0.0,0.0,0.0,0.0,0.0,0.0,0.0,12.434651,0.0,0.0,nan,0.0,0.0,0.09027563,0.0025261936,0.002526661,0.0025265482,0.0,0.0,0.0,0.0,0.0,0.0
874092000,874012000,0.10232742,0.10228814,0.21778026,1.0791848,1.0791577,0.0,0.0,0.0,0.0,0.0,0.0,0.0,0.0,12.435014,0.0,0.0,nan,0.0,0.0,0.09027777,0.0025261936,0.002526661,0.0025265482,0.0,0.0,0.0,0.0,0.0,0.0
874588000,874508000,0.1015085,0.101478904,0.21731372,1.0753709,1.07535,0.0,0.0,0.0,0.0,0.0,0.0,0.0,0.0,12.434307,0.0,0.0,nan,0.0,0.0,0.09027975,0.0025261936,0.002526661,0.0025265482,0.0,0.0,0.0,0.0,0.0,0.0
875084000,875004000,0.10101112,0.10098679,0.21695194,1.072445,1.0724282,0.0,0.0,0.0,0.0,0.0,0.0,0.0,0.0,12.433802,0.0,0.0,nan,0.0,0.0,0.09028173,0.0025261936,0.002526661,0.0025265482,0.0,0.0,0.0,0.0,0.0,0.0
875588000,875508000,0.10194348,0.10191993,0.21750614,1.0766289,1.076608,0.0,0.0,0.0,0.0,0.0,0.0,0.0,0.0,12.438935,0.0,0.0,nan,0.0,0.0,0.09028378,0.0025261936,0.002526661,0.0025265482,0.0,0.0,0.0,0.0,0.0,0.0
876084000,876004000,0.10193761,0.10213769,0.21745925,1.0771811,1.0771638,0.0,0.0,0.0,0.0,0.0,0.0,0.0,0.0,12.432582,0.0,0.0,nan,0.0,0.0,0.0902843,0.0025261936,0.002526661,0.0025265482,0.0,0.0,0.0,0.0,0.0,0.0
876588000,876508000,0.10163705,0.1019512,0.21730281,1.0756671,1.0756524,0.0,0.0,0.0,0.0,0.0,0.0,0.0,0.0,12.437577,0.0,0.0,nan,0.0,0.0,0.09028401,0.0025887787,0.0027608757,0.0027266773,0.0,0.0,0.0,0.0,0.0,0.0
877092000,877012000,0.10152749,0.10191594,0.21714239,1.075362,1.0753442,0.0,0.0,0.0,0.0,0.0,0.0,0.0,0.0,12.432569,0.0,0.0,nan,0.0,0.0,0.09028401,0.0025702105,0.0026499832,0.0026385542,0.0,0.0,0.0,0.0,0.0,0.0
877588000,877508000,0.10101411,0.10119724,0.21674938,1.0724354,1.0724211,0.0,0.0,0.0,0.0,0.0,0.0,0.0,0.0,12.431964,0.0,0.0,nan,0.0,0.0,0.09028401,0.002558597,0.0026057432,0.0025997967,0.0,0.0,0.0,0.0,0.0,0.0
878092000,878012000,0.10198016,0.101988986,0.21721753,1.076886,1.0768816,0.0,0.0,0.0,0.0,0.0,0.0,0.0,0.0,12.436219,0.0,0.0,nan,0.0,0.0,0.09028401,0.0025506138,0.0025817675,0.0025780844,0.0,0.0,0.0,0.0,0.0,0.0
878588000,878508000,0.10235362,0.10214742,0.21751007,1.079467,1.0794688,0.0,0.0,0.0,0.0,0.0,0.0,0.0,0.0,12.435235,0.0,0.0,nan,0.0,0.0,0.09028401,0.0025444524,0.0025668181,0.0025641879,0.0,0.0,0.0,0.0,0.0,0.0
879084000,879004000,0.101476386,0.10123614,0.21706969,1.0755851,1.0755932,0.0,0.0,0.0,0.0,0.0,0.0,0.0,0.0,12.435055,0.0,0.0,nan,0.0,0.0,0.09028401,0.0025399039,0.0025598512,0.0025573536,0.0,0.0,0.0,0.0,0.0,0.0
879588000,879508000,0.10165547,0.10179277,0.21725167,1.0770714,1.0770605,0.0,0.0,0.0,0.0,0.0,0.0,0.0,0.0,12.434274,0.0,0.0,nan,0.0,0.0,0.09028401,0.002536199,0.0025544686,0.002552953,0.0,0.0,0.0,0.0,0.0,0.0
880092000,880012000,0.100528575,0.1010835,0.2166976,1.072401,1.0723717,0.0,0.0,0.0,0.0,0.0,0.0,0.0,0.0,12.428583,0.0,0.0,nan,0.0,0.0,0.09029856,0.0025332407,0.0025474604,0.002545718,0.0,0.0,0.0,0.0,0.0,0.0
880588000,880508000,0.10127066,0.10238263,0.21722709,1.0765085,1.0764161,0.0,0.0,0.0,0.0,0.0,0.0,0.0,0.0,12.433462,0.0,0.0,nan,0.0,0.0,0.09029968,0.002563325,0.0026746783,0.0026502518,0.0,0.0,0.0,0.0,0.0,0.0
881084000,881004000,0.101830326,0.103150025,0.21755283,1.0792581,1.0791584,0.0,0.0,0.0,0.0,0.0,0.0,0.0,0.0,12.432663,0.0,0.0,nan,0.0,0.0,0.09029968,0.002552953,0.0026169263,0.0026057845,0.0,0.0,0.0,0.0,0.0,0.0
881588000,881508000,0.101174116,0.10192364,0.21711572,1.0753986,1.0753179,0.0,0.0,0.0,0.0,0.0,0.0,0.0,0.0,12.433077,0.0,0.0,nan,0.0,0.0,0.09029968,0.0025457605,0.0025880602,0.0025816404,0.0,0.0,0.0,0.0,0.0,0.0
882084000,882004000,0.10153626,0.10187484,0.21727505,1.0768626,1.0767992,0.0,0.0,0.0,0.0,0.0,0.0,0.0,0.0,12.431878,0.0,0.0,nan,0.0,0.0,0.09029968,0.0025404259,0.0025708016,0.00256653,0.0,0.0,0.0,0.0,0.0,0.0
882588000,882508000,0.10096603,0.10104062,0.21691768,1.0735836,1.0735312,0.0,0.0,0.0,0.0,0.0,0.0,0.0,0.0,12.432425,0.0,0.0,nan,0.0,0.0,0.09029968,0.0025363842,0.0025593347,0.0025562192,0.0,0.0,0.0,0.0,0.0,0.0
883084000,883004000,0.10166744,0.10155612,0.2173041,1.0763717,1.0763123,0.0,0.0,0.0,0.0,0.0,0.0,0.0,0.0,12.431438,0.0,0.0,nan,0.0,0.0,0.09029968,0.002533188,0.0025511663,0.0025487037,0.0,0.0,0.0,0.0,0.0,0.0
883588000,883508000,0.10268621,0.10252035,0.21802473,1.0816371,1.0815456,0.0,0.0,0.0,0.0,0.0,0.0,0.0,0.0,12.436952,0.0,0.0,nan,0.0,0.0,0.09029968,0.0025306856,0.0025450464,0.0025429719,0.0,0.0,0.0,0.0,0.0,0.0
884092000,884012000,0.101363085,0.10126141,0.21728319,1.0754421,1.0753738,0.0,0.0,0.0,0.0,0.0,0.0,0.0,0.0,12.430671,0.0,0.0,nan,0.0,0.0,0.09030563,0.0025294202,0.0025421814,0.0025402526,0.0,0.0,0.0,0.0,0.0,0.0
884588000,884508000,0.10207919,0.102002084,0.21772331,1.0789598,1.0788662,0.0,0.0,0.0,0.0,0.0,0.0,0.0,0.0,12.434559,0.0,0.0,nan,0.0,0.0,0.09030718,0.0025294202,0.0025421814,0.0025402526,0.0,0.0,0.0,0.0,0.0,0.0
885092000,885012000,0.10105778,0.1010419,0.2170653,1.0736617,1.0735942,0.0,0.0,0.0,0.0,0.0,0.0,0.0,0.0,12.429211,0.0,0.0,nan,0.0,0.0,0.09030852,0.0025294202,0.0025421814,0.0025402526,0.0,0.0,0.0,0.0,0.0,0.0
885588000,885508000,0.10084249,0.10084065,0.21695466,1.0723078,1.0722448,0.0,0.0,0.0,0.0,0.0,0.0,0.0,0.0,12.43439,0.0,0.0,nan,0.0,0.0,0.090309806,0.0025294202,0.0025421814,0.0025402526,0.0,0.0,0.0,0.0,0.0,0.0
886084000,886004000,0.10275861,0.10279311,0.21813864,1.0817804,1.0816817,0.0,0.0,0.0,0.0,0.0,0.0,0.0,0.0,12.434321,0.0,0.0,nan,0.0,0.0,0.09031081,0.0025294202,0.0025421814,0.0025402526,0.0,0.0,0.0,0.0,0.0,0.0
886588000,886508000,0.101748385,0.10179575,0.217621,1.077337,1.077264,0.0,0.0,0.0,0.0,0.0,0.0,0.0,0.0,12.433146,0.0,0.0,nan,0.0,0.0,0.090312175,0.0025294202,0.0025421814,0.0025402526,0.0,0.0,0.0,0.0,0.0,0.0
887092000,887012000,0.102098376,0.10216164,0.21779335,1.0790639,1.0789973,0.0,0.0,0.0,0.0,0.0,0.0,0.0,0.0,12.433196,0.0,0.0,nan,0.0,0.0,0.09031313,0.0025294202,0.0025421814,0.0025402526,0.0,0.0,0.0,0.0,0.0,0.0
887588000,887508000,0.10132018,0.10138378,0.21734498,1.075278,1.0752275,0.0,0.0,0.0,0.0,0.0,0.0,0.0,0.0,12.432734,0.0,0.0,nan,0.0,0.0,0.09031425,0.0025294202,0.0025421814,0.0025402526,0.0,0.0,0.0,0.0,0.0,0.0
888092000,888012000,0.10081922,0.100882076,0.21699479,1.0723723,1.0723329,0.0,0.0,0.0,0.0,0.0,0.0,0.0,0.0,12.433028,0.0,0.0,nan,0.0,0.0,0.09031519,0.0025294202,0.0025421814,0.0025402526,0.0,0.0,0.0,0.0,0.0,0.0
888588000,888508000,0.1017152,0.10178704,0.21746664,1.0765429,1.076506,0.0,0.0,0.0,0.0,0.0,0.0,0.0,0.0,12.438423,0.0,0.0,nan,0.0,0.0,0.09031655,0.0025294202,0.0025421814,0.0025402526,0.0,0.0,0.0,0.0,0.0,0.0
889092000,889012000,0.101699375,0.10177321,0.21754876,1.0773764,1.0773538,0.0,0.0,0.0,0.0,0.0,0.0,0.0,0.0,12.4313135,0.0,0.0,nan,0.0,0.0,0.090317376,0.0025294202,0.0025421814,0.0025402526,0.0,0.0,0.0,0.0,0.0,0.0
889588000,889508000,0.10128766,0.10135642,0.21733803,1.0753105,1.075291,0.0,0.0,0.0,0.0,0.0,0.0,0.0,0.0,12.435618,0.0,0.0,nan,0.0,0.0,0.090318605,0.0025294202,0.0025421814,0.0025402526,0.0,0.0,0.0,0.0,0.0,0.0
890092000,890012000,0.10125082,0.10131066,0.21728328,1.0752933,1.0752847,0.0,0.0,0.0,0.0,0.0,0.0,0.0,0.0,12.429609,0.0,0.0,nan,0.0,0.0,0.0903195,0.0025294202,0.0025421814,0.0025402526,0.0,0.0,0.0,0.0,0.0,0.0
890588000,890508000,0.10076128,0.10081209,0.21693967,1.0723813,1.072376,0.0,0.0,0.0,0.0,0.0,0.0,0.0,0.0,12.42948,0.0,0.0,nan,0.0,0.0,0.09032046,0.0025294202,0.0025421814,0.0025402526,0.0,0.0,0.0,0.0,0.0,0.0
891092000,891012000,0.10164376,0.1016968,0.21750431,1.0765388,1.076541,0.0,0.0,0.0,0.0,0.0,0.0,0.0,0.0,12.436363,0.0,0.0,nan,0.0,0.0,0.09032148,0.0025294202,0.0025421814,0.0025402526,0.0,0.0,0.0,0.0,0.0,0.0
891588000,891508000,0.10207742,0.10212414,0.2178702,1.0794064,1.0794158,0.0,0.0,0.0,0.0,0.0,0.0,0.0,0.0,12.435551,0.0,0.0,nan,0.0,0.0,0.090322696,0.0025294202,0.0025421814,0.0025402526,0.0,0.0,0.0,0.0,0.0,0.0
892084000,892004000,0.10129076,0.10132776,0.21739696,1.0755354,1.0755428,0.0,0.0,0.0,0.0,0.0,0.0,0.0,0.0,12.43494,0.0,0.0,nan,0.0,0.0,0.090323806,0.0025294202,0.0025421814,0.0025402526,0.0,0.0,0.0,0.0,0.0,0.0
892588000,892508000,0.10158168,0.10161354,0.21752301,1.0770186,1.0770297,0.0,0.0,0.0,0.0,0.0,0.0,0.0,0.0,12.434752,0.0,0.0,nan,0.0,0.0,0.090324886,0.0025294202,0.0025421814,0.0025402526,0.0,0.0,0.0,0.0,0.0,0.0
893084000,893004000,0.10075846,0.10078079,0.21700028,1.0723538,1.0723627,0.0,0.0,0.0,0.0,0.0,0.0,0.0,0.0,12.427898,0.0,0.0,nan,0.0,0.0,0.090326,0.0025294202,0.0025421814,0.0025402526,0.0,0.0,0.0,0.0,0.0,0.0
893588000,893508000,0.10164079,0.101662755,0.21746941,1.0765091,1.0765221,0.0,0.0,0.0,0.0,0.0,0.0,0.0,0.0,12.434423,0.0,0.0,nan,0.0,0.0,0.09032707,0.0025294202,0.0025421814,0.0025402526,0.0,0.0,0.0,0.0,0.0,0.0
894092000,894012000,0.102023125,0.10204261,0.21779384,1.0790975,1.0791117,0.0,0.0,0.0,0.0,0.0,0.0,0.0,0.0,12.43257,0.0,0.0,nan,0.0,0.0,0.09032793,0.0025294202,0.0025421814,0.0025402526,0.0,0.0,0.0,0.0,0.0,0.0
894588000,894508000,0.10129682,0.10131185,0.21737875,1.0755391,1.0755502,0.0,0.0,0.0,0.0,0.0,0.0,0.0,0.0,12.4336,0.0,0.0,nan,0.0,0.0,0.090328924,0.0025294202,0.0025421814,0.0025402526,0.0,0.0,0.0,0.0,0.0,0.0
895092000,895012000,0.10157663,0.10158974,0.21750925,1.0770226,1.077034,0.0,0.0,0.0,0.0,0.0,0.0,0.0,0.0,12.432871,0.0,0.0,nan,0.0,0.0,0.09032973,0.0025294202,0.0025421814,0.0025402526,0.0,0.0,0.0,0.0,0.0,0.0
895588000,895508000,0.10097284,0.1009836,0.21710704,1.0737178,1.0737269,0.0,0.0,0.0,0.0,0.0,0.0,0.0,0.0,12.432889,0.0,0.0,nan,0.0,0.0,0.090330556,0.0025294202,0.0025421814,0.0025402526,0.0,0.0,0.0,0.0,0.0,0.0
896084000,896004000,0.10164234,0.10165246,0.2175535,1.0765128,1.0765226,0.0,0.0,0.0,0.0,0.0,0.0,0.0,0.0,12.432431,0.0,0.0,nan,0.0,0.0,0.090331614,0.0025294202,0.0025421814,0.0025402526,0.0,0.0,0.0,0.0,0.0,0.0
896588000,896508000,0.103254035,0.1032722,0.21647912,1.0818391,1.0818508,0.0,0.0,0.0,0.0,0.0,0.0,0.0,0.0,12.436999,0.0,0.0,nan,0.0,0.0,0.09033248,0.0025294202,0.0025421814,0.0025402526,0.0,0.0,0.0,0.0,0.0,0.0
897084000,897004000,0.102281585,0.102299556,0.21395762,1.0755838,1.0755906,0.0,0.0,0.0,0.0,0.0,0.0,0.0,0.0,12.431435,0.0,0.0,nan,0.0,0.0,0.09033328,0.0025294202,0.0025421814,0.0025402526,0.0,0.0,0.0,0.0,0.0,0.0
897588000,897508000,0.10359289,0.103613205,0.2135779,1.0791339,1.0791434,0.0,0.0,0.0,0.0,0.0,0.0,0.0,0.0,12.434244,0.0,0.0,nan,0.0,0.0,0.09033418,0.0025294202,0.0025421814,0.0025402526,0.0,0.0,0.0,0.0,0.0,0.0
898092000,898012000,0.103025205,0.10304013,0.212842,1.0737883,1.0737948,0.0,0.0,0.0,0.0,0.0,0.0,0.0,0.0,12.428428,0.0,0.0,nan,0.0,0.0,0.09033471,0.0025294202,0.0025421814,0.0025402526,0.0,0.0,0.0,0.0,0.0,0.0
898588000,898508000,0.10291813,0.102931544,0.21271724,1.0724257,1.0724319,0.0,0.0,0.0,0.0,0.0,0.0,0.0,0.0,12.351635,0.0,0.0,nan,0.0,0.0,0.090335295,0.0025294202,0.0025421814,0.0025402526,0.0,0.0,0.0,0.0,0.0,0.0
899084000,899004000,0.09000891,0.09000891,0.20250891,1.0440361,1.0440323,0.0,0.0,0.0,0.0,0.0,0.0,0.0,0.0,12.342804,0.0,0.0,nan,0.0,0.0,0.09033591,0.0025294202,0.0025421814,0.0025402526,0.0,0.0,0.0,0.0,0.0,0.0
899588000,899508000,0.090009175,0.09000918,0.2025092,1.0401714,1.0401682,0.0,0.0,0.0,0.0,0.0,0.0,0.0,0.0,12.336588,0.0,0.0,nan,0.0,0.0,0.09033648,0.0025294202,0.0025421814,0.0025402526,0.0,0.0,0.0,0.0,0.0,0.0
900092000,900012000,0.09019811,0.09019811,0.20269684,1.0371871,1.0371842,0.0,0.0,0.0,0.0,0.0,0.0,0.0,0.0,12.331947,0.0,0.0,nan,0.0,0.0,0.09033718,0.0025294202,0.0025421814,0.0025402526,0.0,0.0,0.0,0.0,0.0,0.0
