timestamp,timestamp_sample,gyro_device_id,gyro_bias[0],gyro_bias[1],gyro_bias[2],gyro_bias_limit,gyro_bias_variance[0],gyro_bias_variance[1],gyro_bias_variance[2],accel_device_id,accel_bias[0],accel_bias[1],accel_bias[2],accel_bias_limit,accel_bias_variance[0],accel_bias_variance[1],accel_bias_variance[2],mag_device_id,mag_bias[0],mag_bias[1],mag_bias[2],mag_bias_limit,mag_bias_variance[0],mag_bias_variance[1],mag_bias_variance[2],gyro_bias_valid,gyro_bias_stable,accel_bias_valid,accel_bias_stable,mag_bias_valid,mag_bias_stable
828812000,828732000,1310996,0.00030799938,-0.002371172,0.0012482135,0.34906584,1.378742e-07,1.3787307e-07,3.5959758e-07,1310996,0.021046406,0.01199754,-0.13819864,0.4,0.0018083623,0.0018076684,0.00078123936,197644,0.0038710178,-0.0008117982,-1.0750059e-05,0.5,3.6008885e-05,6.1917664e-05,0.00011927717,1,1,1,0,1,0
829436000,829356000,1310996,0.0003184962,-0.0023615994,0.0012458547,0.34906584,1.3787779e-07,1.3787611e-07,3.5997888e-07,1310996,0.021048212,0.012004348,-0.13493492,0.4,0.0018084027,0.0018077062,0.00078123936,197644,0.0038710178,-0.0008117982,-1.0750059e-05,0.5,3.6008885e-05,6.1917664e-05,0.00011927717,1,1,1,0,1,0
829644000,829564000,1310996,0.0003114488,-0.0023574992,0.0012436659,0.34906584,1.3787077e-07,1.3787057e-07,3.5991383e-07,1310996,0.021051537,0.012005608,-0.13704333,0.4,0.0018084148,0.0018077166,0.00078123936,197644,0.0038710178,-0.0008117982,-1.0750059e-05,0.5,3.6008885e-05,6.1917664e-05,0.00011927717,1,1,1,0,1,0
829852000,829772000,1310996,0.00031122376,-0.0023585996,0.0012430171,0.34906584,1.3787697e-07,1.3787638e-07,3.598511e-07,1310996,0.021050205,0.012008039,-0.13408715,0.4,0.0018084279,0.0018077295,0.00078123936,197644,0.0038710178,-0.0008117982,-1.0750059e-05,0.5,3.6008885e-05,6.1917664e-05,0.00011927717,1,1,1,0,1,0
830268000,830188000,1310996,0.00031551943,-0.002366271,0.0012426517,0.34906584,1.3788024e-07,1.3787738e-07,3.5972207e-07,1310996,0.021048104,0.012007912,-0.13189888,0.4,0.0018084567,0.0018077586,0.00078123936,197644,0.0038710178,-0.0008117982,-1.0750059e-05,0.5,3.6008885e-05,6.1917664e-05,0.00011927717,1,1,1,0,1,0
830476000,830396000,1310996,0.0003220523,-0.0023551115,0.0012416794,0.34906584,1.3787387e-07,1.3787178e-07,3.5966107e-07,1310996,0.02105378,0.0120053375,-0.13311297,0.4,0.0018084681,0.0018077716,0.00078123936,197644,0.0038710178,-0.0008117982,-1.0750059e-05,0.5,3.6008885e-05,6.1917664e-05,0.00011927717,1,1,1,0,1,0
830684000,830604000,1310996,0.00031289904,-0.002360406,0.0012393605,0.34906584,1.3787918e-07,1.3787754e-07,3.5959079e-07,1310996,0.021050062,0.012007888,-0.13070734,0.4,0.0018084813,0.0018077835,0.00078123936,197644,0.0038710178,-0.0008117982,-1.0750059e-05,0.5,3.6008885e-05,6.1917664e-05,0.00011927717,1,1,1,0,1,0
831100000,831020000,1310996,0.00032554084,-0.0023718688,0.001235986,0.34906584,1.3788161e-07,1.3787607e-07,3.6003405e-07,1310996,0.021049008,0.012000534,-0.12942421,0.4,0.0018085078,0.0018078092,0.00078123936,197644,0.0038710178,-0.0008117982,-1.0750059e-05,0.5,3.6008885e-05,6.1917664e-05,0.00011927717,1,1,1,0,1,0
831308000,831228000,1310996,0.00033286808,-0.0023794628,0.0012353373,0.34906584,1.3787584e-07,1.37868e-07,3.5996956e-07,1310996,0.021046938,0.011996101,-0.13195731,0.4,0.0018085177,0.0018078196,0.00078123936,197644,0.0038710178,-0.0008117982,-1.0750059e-05,0.5,3.6008885e-05,6.1917664e-05,0.00011927717,1,1,1,0,1,0
831516000,831436000,1310996,0.0003353895,-0.0023918939,0.0012339847,0.34906584,1.3788231e-07,1.378721e-07,3.5989865e-07,1310996,0.021044359,0.011994961,-0.1298414,0.4,0.0018085286,0.0018078337,0.00078123936,197644,0.0038710178,-0.0008117982,-1.0750059e-05,0.5,3.6008885e-05,6.1917664e-05,0.00011927717,1,1,1,0,1,0
831932000,831852000,1310996,0.00033614438,-0.0024019668,0.0012320733,0.34906584,1.3787493e-07,1.3786357e-07,3.597654e-07,1310996,0.021042464,0.011993377,-0.13289273,0.4,0.0018085514,0.0018078573,0.00078123936,197644,0.0038710178,-0.0008117982,-1.0750059e-05,0.5,3.6008885e-05,6.1917664e-05,0.00011927717,1,1,1,0,1,0
832140000,832060000,1310996,0.00034132655,-0.002399604,0.0012296508,0.34906584,1.3788227e-07,1.3787097e-07,3.5970209e-07,1310996,0.021042896,0.0119915595,-0.12952128,0.4,0.0018085631,0.0018078682,0.00078123936,197644,0.0038710178,-0.0008117982,-1.0750059e-05,0.5,3.6008885e-05,6.1917664e-05,0.00011927717,1,1,1,0,1,0
832348000,832268000,1310996,0.0003358636,-0.002392526,0.001227746,0.34906584,1.3787283e-07,1.378641e-07,3.5963637e-07,1310996,0.021044597,0.011996738,-0.13282561,0.4,0.0018085723,0.0018078778,0.00078123936,197644,0.0038710178,-0.0008117982,-1.0750059e-05,0.5,3.6008885e-05,6.1917664e-05,0.00011927717,1,1,1,0,1,0
832556000,832476000,1310996,0.00033766354,-0.0024016039,0.0012271313,0.34906584,1.3786703e-07,1.3785655e-07,3.5957055e-07,1310996,0.021044739,0.011994457,-0.13651936,0.4,0.0018085801,0.0018078875,0.00078123936,197644,0.0038710178,-0.0008117982,-1.0750059e-05,0.5,3.6008885e-05,6.1917664e-05,0.00011927717,1,1,1,0,1,0
833388000,833308000,1310996,0.00033877225,-0.0023861139,0.0012181147,0.34906584,1.3786766e-07,1.3786064e-07,3.5989697e-07,1310996,0.021046747,0.0119987475,-0.137731,0.4,0.001808637,0.0018079446,0.00078123936,197644,0.0038710178,-0.0008117982,-1.0750059e-05,0.5,3.6008885e-05,6.1917664e-05,0.00011927717,1,1,1,0,1,0
834012000,833932000,1310996,0.00036292663,-0.0023674055,0.001212466,0.34906584,1.3786439e-07,1.3785699e-07,3.5970677e-07,1310996,0.021054659,0.012002849,-0.13951486,0.4,0.0018086762,0.0018079831,0.00078123936,197644,0.0038710178,-0.0008117982,-1.0750059e-05,0.5,3.6008885e-05,6.1917664e-05,0.00011927717,1,1,1,0,1,0
834428000,834348000,1310996,0.00036692224,-0.002372289,0.001210518,0.34906584,1.3786472e-07,1.3785598e-07,3.5957999e-07,1310996,0.021058863,0.011999431,-0.14142023,0.4,0.0018087041,0.0018080123,0.00078123936,197644,0.0038710178,-0.0008117982,-1.0750059e-05,0.5,3.6008885e-05,6.1917664e-05,0.00011927717,1,1,1,0,1,0
834844000,834764000,1310996,0.0003819881,-0.002375419,0.0012095046,0.34906584,1.3787378e-07,1.378624e-07,3.6002888e-07,1310996,0.02106014,0.012004756,-0.13921759,0.4,0.0018087315,0.00180804,0.00078123936,197644,0.0038710178,-0.0008117982,-1.0750059e-05,0.5,3.6008885e-05,6.1917664e-05,0.00011927717,1,1,1,0,1,0
835052000,834972000,1310996,0.00038280353,-0.0023767387,0.0012071078,0.34906584,1.3787123e-07,1.3785963e-07,3.5996473e-07,1310996,0.021063315,0.012001849,-0.14077716,0.4,0.0018087453,0.001808054,0.00078123936,197644,0.0038710178,-0.0008117982,-1.0750059e-05,0.5,3.6008885e-05,6.1917664e-05,0.00011927717,1,1,1,0,1,0
835468000,835388000,1310996,0.0004046631,-0.002384326,0.0012039115,0.34906584,1.3787884e-07,1.3786308e-07,3.598265e-07,1310996,0.021069756,0.012007629,-0.13896586,0.4,0.0018087695,0.0018080802,0.00078123936,197644,0.0038710178,-0.0008117982,-1.0750059e-05,0.5,3.6008885e-05,6.1917664e-05,0.00011927717,1,1,1,0,1,0
836468000,836388000,1310996,0.00041842659,-0.002390406,0.001198098,0.34906584,1.4088612e-07,1.4086876e-07,3.603217e-07,1310996,0.021073924,0.012004716,-0.1392555,0.4,0.0018088407,0.0018081513,0.0007812582,197644,0.0038710178,-0.0008117982,-1.0750059e-05,0.5,3.6008885e-05,6.1917664e-05,0.00011927717,1,0,1,0,1,0
837468000,837388000,1310996,0.00041784972,-0.0023926026,0.001187781,0.34906584,1.4849947e-07,1.4848312e-07,3.6024286e-07,1310996,0.021067157,0.012003562,-0.13966161,0.4,0.0018089067,0.0018082173,0.00078124285,197644,0.0038710178,-0.0008117982,-1.0750059e-05,0.5,3.6008885e-05,6.1917664e-05,0.00011927717,1,0,1,0,1,0
838012000,837932000,1310996,0.00042639527,-0.0023913824,0.0011822272,0.34906584,1.5119774e-07,1.5118228e-07,3.5997368e-07,1310996,0.021116205,0.011744943,-0.14062728,0.4,0.0018073383,0.0018066486,0.00078123936,197644,0.0038710178,-0.0008117982,-1.0750059e-05,0.5,3.6008885e-05,6.1917664e-05,0.00011927717,1,0,1,0,1,0
838804000,838724000,1310996,0.00043694038,-0.0023990849,0.0011776746,0.34906584,1.5473925e-07,1.5472328e-07,3.6226783e-07,1310996,0.021089938,0.011676472,-0.13933419,0.4,0.0018055729,0.0018048867,0.00078123936,197644,0.0038710178,-0.0008117982,-1.0750059e-05,0.5,0.0025000002,0.0025000002,0.0025000002,1,0,1,0,1,0
839420000,839340000,1310996,0.00044348944,-0.0024052751,0.0011781253,0.34906584,1.5777188e-07,1.577555e-07,3.6719166e-07,1310996,0.021911822,0.012281633,-0.139588,0.4,0.001777501,0.001776848,0.00078123936,197644,0.0038710178,-0.0008117982,-1.0750059e-05,0.5,0.0025000002,0.0025000002,0.0025000002,1,0,1,0,1,0
839828000,839748000,1310996,0.00045007875,-0.002408438,0.0011785416,0.34906584,1.5953673e-07,1.5952033e-07,3.7044936e-07,1310996,0.02247614,0.013276664,-0.13962816,0.4,0.0017221505,0.0017215521,0.00078123936,197644,0.0038710178,-0.0008117982,-1.0750059e-05,0.5,0.0025000002,0.0025000002,0.0025000002,1,0,1,0,1,0
840404000,840324000,1310996,0.00045356093,-0.0024125772,0.0011790607,0.34906584,1.6295249e-07,1.6293625e-07,3.750437e-07,1310996,0.023572048,0.013827633,-0.13899752,0.4,0.0016296812,0.0016291618,0.00078123936,197644,0.0038710178,-0.0008117982,-1.0750059e-05,0.5,0.0025000002,0.0025000002,0.0025000002,1,0,1,0,1,0
840820000,840740000,1310996,0.00045615455,-0.0024163472,0.0011794737,0.34906584,1.6543795e-07,1.6542178e-07,3.7835585e-07,1310996,0.024761595,0.014305146,-0.13887373,0.4,0.0015391326,0.0015386932,0.00078123936,197644,0.0038710178,-0.0008117982,-1.0750059e-05,0.5,0.0025000002,0.0025000002,0.0025000002,1,0,1,0,1,0
841812000,841732000,1310996,0.00045600696,-0.002414957,0.0011798834,0.34906584,1.7242179e-07,1.7240511e-07,3.8623116e-07,1310996,0.023096226,0.013115229,-0.14054157,0.4,0.00141381,0.0014134618,0.00078123936,197644,0.0038710178,-0.0008117982,-1.0750059e-05,0.5,0.0025000002,0.0025000002,0.0025000002,1,0,1,0,1,0
842012000,841932000,1310996,0.00045470084,-0.0024130875,0.0011796842,0.34906584,1.7376973e-07,1.7375136e-07,3.8781877e-07,1310996,0.021774082,0.012055555,-0.14140038,0.4,0.0013813993,0.0013813658,0.00078123936,197644,0.0038710178,-0.0008117982,-1.0750059e-05,0.5,0.0025000002,0.0025000002,0.0025000002,1,0,1,0,1,0
842228000,842148000,1310996,0.00045308404,-0.0024109713,0.0011799277,0.34906584,1.7528002e-07,1.7525845e-07,3.895265e-07,1310996,0.020423984,0.010808818,-0.1417863,0.4,0.0013554654,0.0013560341,0.00078123936,197644,0.0038710178,-0.0008117982,-1.0750059e-05,0.5,0.0025000002,0.0025000002,0.0025000002,1,0,1,0,1,0
842428000,842348000,1310996,0.0004508947,-0.0024096654,0.0011801143,0.34906584,1.7668998e-07,1.766638e-07,3.9110435e-07,1310996,0.019547248,0.009375876,-0.1425559,0.4,0.0013346709,0.0013360819,0.00078123936,197644,0.0038710178,-0.0008117982,-1.0750059e-05,0.5,0.0025000002,0.0025000002,0.0025000002,1,0,1,0,1,0
842524000,842444000,1310996,0.0004508864,-0.0024096502,0.0011800011,0.34906584,1.7745792e-07,1.7743167e-07,3.9186466e-07,1310996,0.01954228,0.009365736,-0.14253245,0.4,0.0013346635,0.0013360248,0.0007812405,197644,0.0045338767,-0.0008349851,0.0008491019,0.5,0.0014172428,0.0015605674,0.0016221264,1,0,1,0,1,0
842796000,842716000,1310996,0.0004473507,-0.0024076595,0.0011799206,0.34906584,1.7943623e-07,1.7940087e-07,3.940405e-07,1310996,0.018675359,0.00769559,-0.14336202,0.4,0.0013158261,0.0013186372,0.00078123936,197644,0.0045822677,-0.0012250426,0.0009827545,0.5,0.00085589715,0.0011621689,0.001292389,1,0,1,0,1,0
843004000,842924000,1310996,0.00044342197,-0.0024064314,0.0011795615,0.34906584,1.80923e-07,1.808764e-07,3.9570378e-07,1310996,0.018242223,0.005996254,-0.14437716,0.4,0.0013007094,0.0013051755,0.00078123936,197644,0.0045747864,-0.0010660988,0.0009182148,0.5,0.00072173687,0.0010748828,0.0012218301,1,0,1,0,1,0
843212000,843132000,1310996,0.00043948847,-0.0024055385,0.0011788736,0.34906584,1.824217e-07,1.8236177e-07,3.9736528e-07,1310996,0.01811826,0.0044643003,-0.14579532,0.4,0.0012882787,0.0012944539,0.00078123936,197644,0.004207877,-0.0013314105,0.00092658866,0.5,0.00065996114,0.0010373419,0.0011917818,1,0,1,0,1,0
843420000,843340000,1310996,0.00043606578,-0.0024040386,0.0011777983,0.34906584,1.839252e-07,1.8384968e-07,3.9902287e-07,1310996,0.017840879,0.0032686705,-0.14696854,0.4,0.0012778079,0.0012856806,0.00078123936,197644,0.004417358,-0.0016519965,0.0010200143,0.5,0.0006240794,0.0010158777,0.0011756443,1,0,1,0,1,0
843628000,843548000,1310996,0.00043234514,-0.0024030851,0.001176385,0.34906584,1.854221e-07,1.8532762e-07,4.0066868e-07,1310996,0.017702984,0.0021569477,-0.14749733,0.4,0.0012687806,0.0012782086,0.00078123936,197644,0.0044491426,-0.0018937117,0.0009395203,0.5,0.0006002961,0.0010015242,0.0011659847,1,0,1,0,1,0
844004000,843924000,1310996,0.00042873534,-0.0024025848,0.0011745796,0.34906584,1.8818035e-07,1.8805515e-07,4.0361218e-07,1310996,0.017853098,0.0012791367,-0.14829618,0.4,0.0012598458,0.0012706715,0.00078123936,197644,0.0046832245,-0.0021912458,0.00083561556,0.5,0.00057525164,0.0009861303,0.0011556267,1,0,1,0,1,0
844412000,844332000,1310996,0.00042521188,-0.0024017019,0.001172539,0.34906584,1.9108394e-07,1.9091856e-07,4.0675454e-07,1310996,0.018001195,0.0005620838,-0.14932334,0.4,0.0012511131,0.0012634842,0.00078123936,197644,0.004687737,-0.0024146724,0.00093354005,0.5,0.00055591285,0.0009761117,0.0011486616,1,0,1,0,1,0
844612000,844532000,1310996,0.00042129343,-0.002399713,0.0011696204,0.34906584,1.9234375e-07,1.9214131e-07,4.082354e-07,1310996,0.01824145,-0.00013978303,-0.15070546,0.4,0.0012437972,0.0012577752,0.00078123936,197644,0.004871073,-0.0024615582,0.0009872441,0.5,0.00055075,0.0009739955,0.0011470469,1,0,1,0,1,0
844828000,844748000,1310996,0.00041805496,-0.0023986918,0.0011675598,0.34906584,1.9370034e-07,1.934618e-07,4.098112e-07,1310996,0.0186472,-0.000737125,-0.152364,0.4,0.0012373328,0.0012528854,0.00078123936,197644,0.004740317,-0.0025034926,0.0010265674,0.5,0.00054392737,0.00097153336,0.001145047,1,0,1,0,1,0
845036000,844956000,1310996,0.00041552077,-0.0023980867,0.0011655721,0.34906584,1.9496036e-07,1.9468696e-07,4.112924e-07,1310996,0.019170353,-0.0013155274,-0.15403353,0.4,0.0012315754,0.0012487133,0.00078123936,197644,0.0047665467,-0.0027071075,0.0010926749,0.5,0.0005376769,0.0009695055,0.0011434406,1,0,1,0,1,0
845396000,845316000,1310996,0.0004150592,-0.0023976949,0.0011644476,0.34906584,1.9724968e-07,1.9693547e-07,4.1388043e-07,1310996,0.019825736,-0.0016408759,-0.15572731,0.4,0.0012258253,0.001244777,0.00078123936,197644,0.0051311897,-0.0027865723,0.001090106,0.5,0.0005286198,0.00096708955,0.0011411506,1,0,1,0,1,0
845604000,845524000,1310996,0.00041558951,-0.0023973605,0.0011650353,0.34906584,1.9830472e-07,1.9795004e-07,4.152399e-07,1310996,0.020383384,-0.0017890286,-0.15733694,0.4,0.0012206872,0.0012415359,0.00078123936,197644,0.004938903,-0.0027441622,0.0011427011,0.5,0.0005239523,0.0009660666,0.0011399332,1,0,1,0,1,0
845812000,845732000,1310996,0.00041451276,-0.0023978068,0.0011646745,0.34906584,1.99314e-07,1.9891905e-07,4.1656529e-07,1310996,0.020878844,-0.0019436607,-0.15855697,0.4,0.0012159279,0.0012387696,0.00078123936,197644,0.0048900014,-0.0026651698,0.001111537,0.5,0.00051948207,0.00096525584,0.0011390175,1,0,1,0,1,0
846020000,845940000,1310996,0.00041767178,-0.002398047,0.0011666601,0.34906584,2.0026751e-07,1.9983092e-07,4.1785222e-07,1310996,0.02171042,-0.0020837348,-0.16061333,0.4,0.0012114969,0.001236397,0.00078123936,197644,0.004997517,-0.0027015633,0.0010451503,0.5,0.0005151821,0.0009645582,0.0011382406,1,0,1,0,1,0
846228000,846148000,1310996,0.0004192389,-0.0023963444,0.0011670274,0.34906584,2.0120015e-07,2.0071225e-07,4.1898983e-07,1310996,0.022377247,-0.0022940915,-0.16253081,0.4,0.0012072563,0.0012337778,0.00078123936,197644,0.004997646,-0.0027016257,0.0010451893,0.5,0.0005151821,0.0009645582,0.0011382406,1,0,1,0,1,0
846612000,846532000,1310996,0.00042355957,-0.0023953898,0.001169163,0.34906584,2.0324181e-07,2.0267844e-07,4.2129662e-07,1310996,0.023131069,-0.002450051,-0.16465047,0.4,0.0012027728,0.0012310118,0.00078123936,197644,0.004997646,-0.0027016257,0.0010451893,0.5,0.0005151821,0.0009645582,0.0011382406,1,0,1,0,1,0
847012000,846932000,1310996,0.00043177285,-0.0023932185,0.0011739193,0.34906584,2.050661e-07,2.0439454e-07,4.2358488e-07,1310996,0.023785878,-0.0025045737,-0.16661781,0.4,0.001198108,0.0012285721,0.00078123936,197644,0.004997646,-0.0027016257,0.0010451893,0.5,0.0005151821,0.0009645582,0.0011382406,1,0,1,0,1,0
847220000,847140000,1310996,0.0004356225,-0.0023929349,0.0011770073,0.34906584,2.053687e-07,2.0458096e-07,4.2445384e-07,1310996,0.024670709,-0.002672947,-0.16888027,0.4,0.0011938605,0.0012268267,0.00078123936,197644,0.004997646,-0.0027016257,0.0010451893,0.5,0.0005151821,0.0009645582,0.0011382406,1,0,1,0,1,0
847428000,847348000,1310996,0.00043928277,-0.0023901798,0.0011782581,0.34906584,2.0566085e-07,2.0474758e-07,4.2533156e-07,1310996,0.02558299,-0.0029601143,-0.17136411,0.4,0.0011898949,0.001225358,0.00078123936,197644,0.004997646,-0.0027016257,0.0010451893,0.5,0.0005151821,0.0009645582,0.0011382406,1,0,1,0,1,0
847636000,847556000,1310996,0.000442765,-0.0023887253,0.0011800369,0.34906584,2.0592206e-07,2.0487235e-07,4.262115e-07,1310996,0.026186991,-0.0031245511,-0.17301895,0.4,0.0011861143,0.0012241058,0.00078123936,197644,0.004997646,-0.0027016257,0.0010451893,0.5,0.0005151821,0.0009645582,0.0011382406,1,0,1,0,1,0
847996000,847916000,1310996,0.00044813377,-0.0023876412,0.0011837515,0.34906584,2.0704766e-07,2.0582257e-07,4.2809683e-07,1310996,0.026913768,-0.0032892195,-0.17500724,0.4,0.0011821812,0.0012227879,0.00078123936,197644,0.004997646,-0.0027016257,0.0010451893,0.5,0.0005151821,0.0009645582,0.0011382406,1,0,1,0,1,0
848204000,848124000,1310996,0.00045577568,-0.0023850475,0.0011883569,0.34906584,2.0697242e-07,2.0556229e-07,4.2887297e-07,1310996,0.027630484,-0.0034788148,-0.17704669,0.4,0.0011785958,0.0012218324,0.00078123936,197644,0.004997646,-0.0027016257,0.0010451893,0.5,0.0005151821,0.0009645582,0.0011382406,1,0,1,0,1,0
848412000,848332000,1310996,0.00046327934,-0.0023852743,0.0011934676,0.34906584,2.0689107e-07,2.0528817e-07,4.2965942e-07,1310996,0.028222412,-0.003617204,-0.1787378,0.4,0.0011751528,0.0012209748,0.00078123936,197644,0.004997646,-0.0027016257,0.0010451893,0.5,0.0005151821,0.0009645582,0.0011382406,1,0,1,0,1,0
848620000,848540000,1310996,0.00046745947,-0.002383684,0.0011952331,0.34906584,2.0678398e-07,2.0498044e-07,4.3045014e-07,1310996,0.028716356,-0.0037968964,-0.18015708,0.4,0.0011719221,0.0012202022,0.00078123936,197644,0.004997646,-0.0027016257,0.0010451893,0.5,0.0005151821,0.0009645582,0.0011382406,1,0,1,0,1,0
848828000,848748000,1310996,0.00047136942,-0.0023812419,0.0011973011,0.34906584,2.0664365e-07,2.0463145e-07,4.3124268e-07,1310996,0.029292425,-0.003988735,-0.18179543,0.4,0.0011688066,0.0012194845,0.00078123936,197644,0.004997646,-0.0027016257,0.0010451893,0.5,0.0005151821,0.0009645582,0.0011382406,1,0,1,0,1,0
849204000,849124000,1310996,0.00047592018,-0.0023802754,0.0012004905,0.34906584,2.0740396e-07,2.0514305e-07,4.3314918e-07,1310996,0.029713172,-0.004112569,-0.1830736,0.4,0.0011655083,0.0012186227,0.00078123936,197644,0.004997646,-0.0027016257,0.0010451893,0.5,0.0005151821,0.0009645582,0.0011382406,1,0,1,0,1,0
849612000,849532000,1310996,0.00048025645,-0.0023808072,0.0012032768,0.34906584,2.0792864e-07,2.0536903e-07,4.3509388e-07,1310996,0.030180454,-0.004265846,-0.1845631,0.4,0.0011620427,0.0012176838,0.00078123936,197644,0.004997646,-0.0027016257,0.0010451893,0.5,0.0005151821,0.0009645582,0.0011382406,1,0,1,0,1,0
849820000,849740000,1310996,0.00048538132,-0.0023783895,0.0012055764,0.34906584,2.070314e-07,2.0416361e-07,4.356276e-07,1310996,0.03053838,-0.004423771,-0.18575878,0.4,0.0011589811,0.0012169905,0.00078123936,197644,0.004997646,-0.0027016257,0.0010451893,0.5,0.0005151821,0.0009645582,0.0011382406,1,0,1,0,1,0
850028000,849948000,1310996,0.0004907345,-0.0023766502,0.0012086463,0.34906584,2.0623675e-07,2.0307002e-07,4.3621043e-07,1310996,0.030931355,-0.0045755436,-0.1870702,0.4,0.0011561706,0.0012163293,0.00078123936,197644,0.004997646,-0.0027016257,0.0010451893,0.5,0.0005151821,0.0009645582,0.0011382406,1,0,1,0,1,0
850236000,850156000,1310996,0.00049368176,-0.0023756155,0.0012109787,0.34906584,2.0550473e-07,2.020463e-07,4.368301e-07,1310996,0.03129158,-0.0046806335,-0.18823653,0.4,0.0011534767,0.0012156816,0.00078123936,197644,0.004997646,-0.0027016257,0.0010451893,0.5,0.0005151821,0.0009645582,0.0011382406,1,0,1,0,1,0
850804000,850724000,1310996,0.00049698475,-0.0023832254,0.0012140927,0.34906584,2.0490967e-07,2.007595e-07,4.389576e-07,1310996,0.03170125,-0.0047688964,-0.1896945,0.4,0.0011483253,0.001214358,0.00078123936,197644,0.004997646,-0.0027016257,0.0010451893,0.5,0.0005151821,0.0009645582,0.0011382406,1,0,1,0,1,0
851220000,851140000,1310996,0.0005087037,-0.0024151264,0.0012296317,0.34906584,2.0412476e-07,1.9898216e-07,4.3984718e-07,1310996,0.031964835,-0.004543745,-0.19094998,0.4,0.0011443842,0.0012133406,0.00078123936,197644,0.004997646,-0.0027016257,0.0010451893,0.5,0.0005151821,0.0009645582,0.0011382406,1,0,1,0,1,0
851460000,851380000,1310996,0.00051996537,-0.0024375643,0.0012451069,0.34906584,2.041099e-07,1.9839713e-07,4.4038268e-07,1310996,0.032103524,-0.004274333,-0.19150332,0.4,0.0011412847,0.0012108568,0.00078123936,197644,0.005505571,-0.0029318633,-7.128647e-06,0.5,0.0003816664,0.00066874624,0.00077762635,1,0,1,0,1,0
852212000,852132000,1310996,0.0005760126,-0.0024707122,0.001310767,0.34906584,2.0628305e-07,1.981272e-07,4.4306097e-07,1310996,0.032254253,-0.0034771492,-0.19281499,0.4,0.0011378728,0.0012083898,0.00078123936,197644,0.006450216,-0.0029311762,-0.0010825722,0.5,0.00022820896,0.0005006244,0.0006078134,1,0,1,0,1,0
852628000,852548000,1310996,0.0006339008,-0.0024783064,0.0013631027,0.34906584,2.0618081e-07,1.9514921e-07,4.4394318e-07,1310996,0.03228565,-0.003324808,-0.19253483,0.4,0.0011366421,0.0012073098,0.00078123936,197644,0.007313116,-0.0032872797,-0.0014779615,0.5,0.0002016264,0.00047955662,0.00059203873,1,0,1,0,1,0
853196000,853116000,1310996,0.0006863719,-0.0024554993,0.001391751,0.34906584,2.0686107e-07,1.9332278e-07,4.470286e-07,1310996,0.032610804,-0.0037467768,-0.19110742,0.4,0.0011348985,0.0012063365,0.00078123936,197644,0.007534224,-0.0033133419,-0.0013345466,0.5,0.00017961663,0.00045949672,0.0005741333,1,0,1,0,1,0
853404000,853324000,1310996,0.0007049183,-0.0024457918,0.001398754,0.34906584,2.0623999e-07,1.917185e-07,4.482504e-07,1310996,0.03287324,-0.0040102922,-0.18958652,0.4,0.0011337715,0.0012059001,0.00078123936,197644,0.0075652506,-0.0032625324,-0.0012543547,0.5,0.00017390327,0.000453733,0.0005669378,1,0,1,0,1,0
853612000,853532000,1310996,0.00071746035,-0.0024361212,0.0014026901,0.34906584,2.0552507e-07,1.9023778e-07,4.4958978e-07,1310996,0.033184372,-0.004238131,-0.18807505,0.4,0.0011324863,0.001205478,0.00078123936,197644,0.0076006777,-0.0032194091,-0.0012139622,0.5,0.00016932777,0.0004491317,0.0005616719,1,0,1,0,1,0
853820000,853740000,1310996,0.000724507,-0.002423426,0.0014042228,0.34906584,2.0472382e-07,1.8887441e-07,4.5102564e-07,1310996,0.033562128,-0.0044307867,-0.1866846,0.4,0.0011310165,0.0012050736,0.00078123936,197644,0.0076301433,-0.0032212613,-0.001102303,0.5,0.00016665761,0.00044648934,0.0005583688,1,0,1,0,1,0
854028000,853948000,1310996,0.00072878617,-0.0024107746,0.0014055906,0.34906584,2.037873e-07,1.8760784e-07,4.5251718e-07,1310996,0.033949193,-0.0045845686,-0.18531236,0.4,0.0011293599,0.001204645,0.00078123936,197644,0.007510235,-0.0030730395,-0.0011795147,0.5,0.00016309465,0.00044307898,0.00055307953,1,0,1,0,1,0
854404000,854324000,1310996,0.00072748796,-0.0023937528,0.0014056792,0.34906584,2.0336337e-07,1.8723517e-07,4.5538732e-07,1310996,0.034441605,-0.004685815,-0.18395829,0.4,0.001127156,0.0012040896,0.00078123936,197644,0.007422433,-0.003064667,-0.0011384847,0.5,0.00015793309,0.000438602,0.0005425391,1,0,1,0,1,0
854812000,854732000,1310996,0.0007212019,-0.0023763657,0.0014053156,0.34906584,2.0227287e-07,1.8663627e-07,4.5852605e-07,1310996,0.035217643,-0.0047711134,-0.18176319,0.4,0.0011244628,0.0012033762,0.00078123936,197644,0.007437981,-0.0031439099,-0.00091279345,0.5,0.00015277964,0.00043465462,0.00052968366,1,0,1,0,1,0
855020000,854940000,1310996,0.00071561494,-0.0023601353,0.0014056431,0.34906584,1.9986177e-07,1.8480652e-07,4.6011465e-07,1310996,0.03590099,-0.00482487,-0.17988218,0.4,0.001121893,0.001202701,0.00078123936,197644,0.0073971506,-0.003156318,-0.00083227037,0.5,0.00015050118,0.00043297844,0.00052380224,1,0,1,0,1,0
855220000,855140000,1310996,0.000708792,-0.0023467056,0.0014056464,0.34906584,1.9760982e-07,1.8320682e-07,4.6163734e-07,1310996,0.036536835,-0.0048479955,-0.17813204,0.4,0.0011193869,0.0012020431,0.00078123936,197644,0.00743146,-0.0032718698,-0.000697938,0.5,0.0001484342,0.00043145916,0.00051845197,1,0,1,0,1,0
855436000,855356000,1310996,0.00069705944,-0.0023376583,0.0014056709,0.34906584,1.9553244e-07,1.8192698e-07,4.631144e-07,1310996,0.03715574,-0.0048194774,-0.17628847,0.4,0.0011169304,0.0012013685,0.00078123936,197644,0.00743146,-0.0032718698,-0.000697938,0.5,0.0001484342,0.00043145916,0.00051845197,1,0,1,0,1,0
856044000,855964000,1310996,0.0006737672,-0.002194811,0.001417494,0.34906584,1.88726e-07,1.7867134e-07,4.667746e-07,1310996,0.037157003,-0.004818309,-0.17628844,0.4,0.001116844,0.0012013003,0.0007812417,197644,0.0074842735,-0.0034663943,0.000692867,0.5,0.0001349495,0.0003440261,0.0003894793,1,0,1,0,1,0
856188000,856108000,1310996,0.00067518884,-0.0021943045,0.001416267,0.34906584,1.8974572e-07,1.7976961e-07,4.6781219e-07,1310996,0.037157003,-0.004818309,-0.17628844,0.4,0.0011168492,0.0012013055,0.00078124687,197644,0.007530293,-0.0036057418,0.0019712483,0.5,0.00012688228,0.00030791,0.00032633712,1,0,1,0,1,0
856420000,856340000,1310996,0.00055798586,-0.0020420507,0.0014873989,0.34906584,1.8008511e-07,1.738152e-07,4.674191e-07,1310996,0.03590296,-0.0060115084,-0.17653221,0.4,0.0011160234,0.0012002516,0.00078123936,197644,0.007535548,-0.0043248204,0.003202024,0.5,0.0001188362,0.00028062097,0.0002749037,1,0,1,0,1,0
856628000,856548000,1310996,0.0004892206,-0.0020076234,0.0015250864,0.34906584,1.7786458e-07,1.722896e-07,4.6807867e-07,1310996,0.035129566,-0.007636976,-0.17636007,0.4,0.0011141193,0.0011981163,0.00078123936,197644,0.007684529,-0.004747052,0.003723549,0.5,0.00011465187,0.00026969027,0.0002551267,1,0,1,0,1,0
857004000,856924000,1310996,0.0004302026,-0.0019947723,0.0015497167,0.34906584,1.7752005e-07,1.7208458e-07,4.703672e-07,1310996,0.034652967,-0.010076702,-0.17577143,0.4,0.0011087391,0.001192309,0.00078123936,197644,0.008026726,-0.0054348772,0.0045976867,0.5,0.00010556675,0.00025060592,0.00022292111,1,0,1,0,1,0
857412000,857332000,1310996,0.0003785207,-0.0020156698,0.0015585356,0.34906584,1.7800402e-07,1.7238975e-07,4.7338344e-07,1310996,0.03548454,-0.012971054,-0.17373224,0.4,0.0010983625,0.0011809701,0.00078123936,197644,0.008582975,-0.006137908,0.005287106,0.5,9.901837e-05,0.0002407722,0.00021153274,1,0,1,0,1,0
857612000,857532000,1310996,0.00034786048,-0.0020386777,0.0015600335,0.34906584,1.7754253e-07,1.7170105e-07,4.7487632e-07,1310996,0.036542673,-0.014901828,-0.17177802,0.4,0.001086994,0.0011684273,0.00078123936,197644,0.008859028,-0.0065986402,0.005400253,0.5,9.405381e-05,0.00023546007,0.00020771084,1,0,1,0,1,0
857828000,857748000,1310996,0.0003236605,-0.0020626166,0.0015593566,0.34906584,1.7758188e-07,1.7154541e-07,4.7644457e-07,1310996,0.037898295,-0.016608315,-0.16990146,0.4,0.0010742978,0.0011537388,0.00078123936,197644,0.008845227,-0.0066958973,0.0055927234,0.5,8.935365e-05,0.00023080631,0.00020409659,1,0,1,0,1,0
858036000,857956000,1310996,0.00031157566,-0.0020872355,0.0015587686,0.34906584,1.7778915e-07,1.716027e-07,4.777826e-07,1310996,0.039746232,-0.017391633,-0.16834417,0.4,0.0010606016,0.0011372678,0.00078123936,197644,0.009182942,-0.007032092,0.0055281566,0.5,8.529438e-05,0.00022662521,0.00020074216,1,0,1,0,1,0
858396000,858316000,1310996,0.00031239542,-0.0021109963,0.0015656438,0.34906584,1.7916366e-07,1.7284304e-07,4.797974e-07,1310996,0.041702326,-0.016755685,-0.16699052,0.4,0.0010431093,0.001115481,0.00078123936,197644,0.009383314,-0.0071824756,0.0054045334,0.5,7.987471e-05,0.00022068461,0.00019588161,1,0,1,0,1,0
858604000,858524000,1310996,0.0003129074,-0.0021297326,0.0015711666,0.34906584,1.7952556e-07,1.7308723e-07,4.8049776e-07,1310996,0.043483563,-0.016305406,-0.16603893,0.4,0.0010260367,0.0010946636,0.00078123936,197644,0.009616365,-0.00738049,0.0051711947,0.5,7.7108845e-05,0.00021781107,0.00019324452,1,0,1,0,1,0
858812000,858732000,1310996,0.00032233304,-0.0021438485,0.0015848383,0.34906584,1.8004039e-07,1.7347271e-07,4.8109564e-07,1310996,0.04465146,-0.014674511,-0.16518864,0.4,0.0010094711,0.001075195,0.00078123936,197644,0.009680199,-0.007375022,0.0051330957,0.5,7.4612864e-05,0.00021535995,0.00019071926,1,0,1,0,1,0
859020000,858940000,1310996,0.00032862372,-0.0021656055,0.001597427,0.34906584,1.8068354e-07,1.739649e-07,4.815845e-07,1310996,0.046947036,-0.013413946,-0.16406755,0.4,0.0009935026,0.001057237,0.00078123936,197644,0.010158726,-0.00771063,0.004762718,0.5,7.223429e-05,0.00021316658,0.00018785936,1,0,1,0,1,0
859292000,859212000,1310996,0.0003383993,-0.0021807267,0.0016103694,0.34906584,1.8191051e-07,1.7500241e-07,4.82347e-07,1310996,0.04711757,-0.013345387,-0.16404821,0.4,0.0009932831,0.0010566096,0.00078124006,197644,0.010448049,-0.008224412,0.003905474,0.5,6.760813e-05,0.00021002514,0.00017460513,1,0,1,0,1,0
859948000,859868000,1310996,0.00035521828,-0.0021911038,0.001631142,0.34906584,1.8596826e-07,1.7877367e-07,4.855387e-07,1310996,0.047579385,-0.01257322,-0.1640119,0.4,0.0009910096,0.0010532428,0.00078124204,197644,0.010725336,-0.008824212,0.0030887593,0.5,6.195447e-05,0.00020495518,0.00016201499,1,0,1,0,1,0
860004000,859924000,1310996,0.00037779316,-0.0021979185,0.0016582859,0.34906584,1.8511814e-07,1.7754569e-07,4.8435476e-07,1310996,0.047973458,-0.010947757,-0.1636512,0.4,0.0009851597,0.0010470568,0.00078123936,197644,0.010917862,-0.008877483,0.0031164023,0.5,6.18335e-05,0.00020492187,0.00016201215,1,0,1,0,1,0
860220000,860140000,1310996,0.00039737456,-0.0022034175,0.0016786484,0.34906584,1.8560877e-07,1.7765504e-07,4.8481047e-07,1310996,0.048351754,-0.009341945,-0.16324534,0.4,0.0009777325,0.0010392824,0.00078123936,197644,0.01108542,-0.008981424,0.0029838767,0.5,6.0577953e-05,0.00020363569,0.0001601621,1,0,1,0,1,0
860428000,860348000,1310996,0.00041317375,-0.0022031912,0.001691828,0.34906584,1.8609889e-07,1.7778498e-07,4.855476e-07,1310996,0.048298083,-0.007937194,-0.16270606,0.4,0.0009690669,0.0010304265,0.00078123936,197644,0.011142727,-0.009023687,0.0029678699,0.5,5.949648e-05,0.00020254568,0.00015880748,1,0,1,0,1,0
860628000,860548000,1310996,0.00042687755,-0.0022059937,0.0017020561,0.34906584,1.8656645e-07,1.7792809e-07,4.864726e-07,1310996,0.048517246,-0.0066023376,-0.16233072,0.4,0.0009594539,0.001020687,0.00078123936,197644,0.011283681,-0.009046287,0.002868198,0.5,5.853076e-05,0.00020156945,0.00015772623,1,0,1,0,1,0
860996000,860916000,1310996,0.00044080237,-0.002207262,0.0017086086,0.34906584,1.8807874e-07,1.7914714e-07,4.888763e-07,1310996,0.048585057,-0.0051789894,-0.16095945,0.4,0.00094625406,0.0010070209,0.00078123936,197644,0.011297289,-0.009142151,0.0027625614,0.5,5.7176567e-05,0.00020009908,0.00015633299,1,0,1,0,1,0
861204000,861124000,1310996,0.00045240007,-0.002206325,0.0017132589,0.34906584,1.8840115e-07,1.7922696e-07,4.901925e-07,1310996,0.048456598,-0.003960422,-0.16024914,0.4,0.0009330871,0.0009934148,0.00078123936,197644,0.011308666,-0.009164265,0.0026941986,0.5,5.6461973e-05,0.00019931543,0.00015565743,1,0,1,0,1,0
861412000,861332000,1310996,0.0004595118,-0.0022062038,0.0017148473,0.34906584,1.8875639e-07,1.7939652e-07,4.915876e-07,1310996,0.048429277,-0.0031941505,-0.15918384,0.4,0.0009200425,0.0009798127,0.00078123936,197644,0.011365351,-0.00918571,0.002631008,0.5,5.580847e-05,0.0001986274,0.00015506639,1,0,1,0,1,0
861620000,861540000,1310996,0.0004682922,-0.002209213,0.0017166128,0.34906584,1.8912971e-07,1.7963397e-07,4.9303105e-07,1310996,0.048658475,-0.0022692662,-0.15831776,0.4,0.0009072326,0.000966321,0.00078123936,197644,0.011374612,-0.009190099,0.002623709,0.5,5.5203345e-05,0.00019801166,0.00015453585,1,0,1,0,1,0
861828000,861748000,1310996,0.0004734342,-0.00220949,0.0017170355,0.34906584,1.8951144e-07,1.7992535e-07,4.945019e-07,1310996,0.048669904,-0.0017070558,-0.15721834,0.4,0.0008947655,0.0009530592,0.00078123936,197644,0.0114039015,-0.0091912765,0.0025882754,0.5,5.4645185e-05,0.00019744657,0.00015405031,1,0,1,0,1,0
862204000,862124000,1310996,0.00047864535,-0.0022106078,0.0017186075,0.34906584,1.9090582e-07,1.8129859e-07,4.9722604e-07,1310996,0.048692577,-0.0010650657,-0.1558797,0.4,0.0008806353,0.0009377672,0.00078123936,197644,0.011363677,-0.009089933,0.0025990815,0.5,5.3804666e-05,0.00019661653,0.00015330895,1,0,1,0,1,0
862604000,862524000,1310996,0.00048317158,-0.0022109305,0.0017188123,0.34906584,1.9220015e-07,1.8263076e-07,5.001252e-07,1310996,0.048697148,-0.00052485755,-0.15417266,0.4,0.00086548127,0.0009212197,0.00078123936,197644,0.011331667,-0.009070267,0.0025164473,0.5,5.3039636e-05,0.00019591003,0.00015262904,1,0,1,0,1,0
862820000,862740000,1310996,0.0004887082,-0.0022107724,0.0017182741,0.34906584,1.9221606e-07,1.8269472e-07,5.0165556e-07,1310996,0.04864025,3.1623516e-05,-0.15222836,0.4,0.0008522591,0.00090676686,0.00078123936,197644,0.0113283675,-0.009068832,0.0024964956,0.5,5.2604013e-05,0.00019552016,0.00015223857,1,0,1,0,1,0
863020000,862940000,1310996,0.0004909705,-0.0022127894,0.0017172947,0.34906584,1.922736e-07,1.8281176e-07,5.027982e-07,1310996,0.048784167,0.00030553492,-0.15076388,0.4,0.00084077247,0.0008941478,0.00078123936,197644,0.01131492,-0.009057687,0.0024796014,0.5,5.2472446e-05,0.00019540612,0.00015211636,1,0,1,0,1,0
863236000,863156000,1310996,0.00049390097,-0.0022130725,0.001718691,0.34906584,1.9254026e-07,1.8315103e-07,5.03922e-07,1310996,0.048783712,0.0006206282,-0.14923964,0.4,0.00083057256,0.000882889,0.00078123936,197644,0.01131492,-0.009057687,0.0024796014,0.5,5.2472446e-05,0.00019540612,0.00015211636,1,0,1,0,1,0
863596000,863516000,1310996,0.00049350306,-0.0022142641,0.0017182244,0.34906584,1.937257e-07,1.8445519e-07,5.0575517e-07,1310996,0.048844803,0.0006412676,-0.14715657,0.4,0.00082055345,0.00087174965,0.00078123936,197644,0.01131492,-0.009057687,0.0024796014,0.5,5.2472446e-05,0.00019540612,0.00015211636,1,0,1,0,1,0
863804000,863724000,1310996,0.0004978068,-0.0022179205,0.0017168932,0.34906584,1.938045e-07,1.8464581e-07,5.0675e-07,1310996,0.04907819,0.0010351496,-0.14495213,0.4,0.0008119894,0.00086224853,0.00078123936,197644,0.01131492,-0.009057687,0.0024796014,0.5,5.2472446e-05,0.00019540612,0.00015211636,1,0,1,0,1,0
864012000,863932000,1310996,0.0004984726,-0.0022173664,0.0017159681,0.34906584,1.9394548e-07,1.849033e-07,5.0772115e-07,1310996,0.049005933,0.0011293826,-0.14306505,0.4,0.0008046243,0.0008540672,0.00078123936,197644,0.01131492,-0.009057687,0.0024796014,0.5,5.2472446e-05,0.00019540612,0.00015211636,1,0,1,0,1,0
864220000,864140000,1310996,0.00049795944,-0.002217648,0.0017165672,0.34906584,1.9412822e-07,1.8520666e-07,5.086693e-07,1310996,0.049003206,0.0011475912,-0.14103186,0.4,0.0007982497,0.0008469781,0.00078123936,197644,0.01131492,-0.009057687,0.0024796014,0.5,5.2472446e-05,0.00019540612,0.00015211636,1,0,1,0,1,0
864428000,864348000,1310996,0.0005005095,-0.0022177966,0.0017157597,0.34906584,1.9433207e-07,1.8553457e-07,5.095931e-07,1310996,0.048979595,0.0013592871,-0.13915426,0.4,0.00079272944,0.000840832,0.00078123936,197644,0.01131492,-0.009057687,0.0024796014,0.5,5.2472446e-05,0.00019540612,0.00015211636,1,0,1,0,1,0
864804000,864724000,1310996,0.0005006343,-0.0022186793,0.0017142325,0.34906584,1.955625e-07,1.8693156e-07,5.1133094e-07,1310996,0.048997074,0.0014175636,-0.13691083,0.4,0.00078751444,0.00083498354,0.00078123936,197644,0.01131492,-0.009057687,0.0024796014,0.5,5.2472446e-05,0.00019540612,0.00015211636,1,0,1,0,1,0
865212000,865132000,1310996,0.00049969193,-0.0022205976,0.0017181747,0.34906584,1.966862e-07,1.8825683e-07,5.1324787e-07,1310996,0.049081314,0.0014207618,-0.13466264,0.4,0.00078275986,0.00082964037,0.00078123936,197644,0.01131492,-0.009057687,0.0024796014,0.5,5.2472446e-05,0.00019540612,0.00015211636,1,0,1,0,1,0
865420000,865340000,1310996,0.0005003755,-0.0022227655,0.0017163756,0.34906584,1.963592e-07,1.8811143e-07,5.140464e-07,1310996,0.049149062,0.001498978,-0.13241182,0.4,0.00078123936,0.0008253909,0.00078123936,197644,0.01131492,-0.009057687,0.0024796014,0.5,5.2472446e-05,0.00019540612,0.00015211636,1,0,1,0,1,0
865628000,865548000,1310996,0.0004977397,-0.0022238635,0.001715941,0.34906584,1.9612631e-07,1.8805213e-07,5.148233e-07,1310996,0.049176108,0.0014306793,-0.1303439,0.4,0.00078123936,0.0008219681,0.00078123936,197644,0.01131492,-0.009057687,0.0024796014,0.5,5.2472446e-05,0.00019540612,0.00015211636,1,0,1,0,1,0
865836000,865756000,1310996,0.0004936023,-0.0022243185,0.0017153551,0.34906584,1.9595223e-07,1.8804545e-07,5.155786e-07,1310996,0.04917891,0.0013091201,-0.12854746,0.4,0.00078123936,0.0008192006,0.00078123936,197644,0.01131492,-0.009057687,0.0024796014,0.5,5.2472446e-05,0.00019540612,0.00015211636,1,0,1,0,1,0
866196000,866116000,1310996,0.00049045397,-0.0022252668,0.00171703,0.34906584,1.9668903e-07,1.889812e-07,5.1693166e-07,1310996,0.049199842,0.0012412651,-0.12661408,0.4,0.00078123936,0.0008168478,0.00078123936,197644,0.01131492,-0.009057687,0.0024796014,0.5,5.2472446e-05,0.00019540612,0.00015211636,1,1,1,0,1,0
866404000,866324000,1310996,0.00048993196,-0.0022269995,0.0017175761,0.34906584,1.9630436e-07,1.8877836e-07,5.1761793e-07,1310996,0.049234167,0.0012576703,-0.12479197,0.4,0.00078123936,0.0008150291,0.00078123936,197644,0.01131492,-0.009057687,0.0024796014,0.5,5.2472446e-05,0.00019540612,0.00015211636,1,1,1,0,1,0
866612000,866532000,1310996,0.0004877334,-0.002229504,0.0017146539,0.34906584,1.9597279e-07,1.8862185e-07,5.182836e-07,1310996,0.049281165,0.001235979,-0.123190776,0.4,0.00078123936,0.0008136214,0.00078123936,197644,0.01131492,-0.009057687,0.0024796014,0.5,5.2472446e-05,0.00019540612,0.00015211636,1,1,1,0,1,0
866820000,866740000,1310996,0.0004865069,-0.0022323527,0.0017150406,0.34906584,1.9567163e-07,1.8849013e-07,5.189309e-07,1310996,0.049331903,0.001231172,-0.121605024,0.4,0.00078123936,0.00081253925,0.00078123936,197644,0.01131492,-0.009057687,0.0024796014,0.5,5.2472446e-05,0.00019540612,0.00015211636,1,1,1,0,1,0
867028000,866948000,1310996,0.0004864824,-0.0022379206,0.0017143933,0.34906584,1.9538636e-07,1.8836835e-07,5.198803e-07,1310996,0.049420424,0.0012572623,-0.11972049,0.4,0.00078123936,0.00081172236,0.00078123936,197644,0.01131492,-0.009057687,0.0024796014,0.5,5.2472446e-05,0.00019540612,0.00015211636,1,1,1,0,1,0
867404000,867324000,1310996,0.00048288686,-0.0022395763,0.0017127098,0.34906584,1.9603125e-07,1.8921662e-07,5.2082373e-07,1310996,0.049428042,0.0012355192,-0.11793695,0.4,0.00078123936,0.0008111052,0.00078123936,197644,0.01131492,-0.009057687,0.0024796014,0.5,5.2472446e-05,0.00019540612,0.00015211636,1,1,1,0,1,0
867812000,867732000,1310996,0.00048288016,-0.0022422625,0.0017110923,0.34906584,1.9646899e-07,1.8988425e-07,5.2227307e-07,1310996,0.04944019,0.0012611394,-0.11609563,0.4,0.00078123936,0.00081069756,0.00078123936,197644,0.01131492,-0.009057687,0.0024796014,0.5,5.2472446e-05,0.00019540612,0.00015211636,1,1,1,0,1,0
868020000,867940000,1310996,0.0004807371,-0.0022443323,0.001710308,0.34906584,1.9549218e-07,1.8911263e-07,5.227886e-07,1310996,0.04945288,0.0012572707,-0.11506474,0.4,0.00078123936,0.000810425,0.00078123936,197644,0.01131492,-0.009057687,0.0024796014,0.5,5.2472446e-05,0.00019540612,0.00015211636,1,1,1,0,1,0
868260000,868180000,1310996,0.00047832532,-0.0022507296,0.0017081684,0.34906584,1.9489283e-07,1.8870732e-07,5.231757e-07,1310996,0.049485635,0.0012618825,-0.11404526,0.4,0.0007812412,0.00081023725,0.00078123936,197644,0.01131492,-0.009057687,0.0024796014,0.5,5.2472446e-05,0.00019540612,0.00015211636,1,1,1,0,1,0
868716000,868636000,1310996,0.0004799344,-0.0022543888,0.0017054593,0.34906584,1.9612449e-07,1.901255e-07,5.244917e-07,1310996,0.049491815,0.0012838802,-0.11301142,0.4,0.000781258,0.0008101074,0.00078123936,197644,0.01131492,-0.009057687,0.0024796014,0.5,5.2472446e-05,0.00019540612,0.00015211636,1,1,1,0,1,0
868796000,868716000,1310996,0.0004801794,-0.0022569774,0.0017042493,0.34906584,1.939796e-07,1.8818017e-07,5.246648e-07,1310996,0.049483877,0.0012955986,-0.1120046,0.4,0.00078123936,0.00081001315,0.00078123936,197644,0.01131492,-0.009057687,0.0024796014,0.5,5.2472446e-05,0.00019540612,0.00015211636,1,1,1,0,1,0
869420000,869340000,1310996,0.00048692743,-0.0022659164,0.0016996115,0.34906584,1.9126041e-07,1.8600323e-07,5.262606e-07,1310996,0.049446683,0.0012875017,-0.1104962,0.4,0.00078123936,0.0008096833,0.00078123936,197644,0.01131492,-0.009057687,0.0024796014,0.5,5.2472446e-05,0.00019540612,0.00015211636,1,1,1,0,1,0
870420000,870340000,1310996,0.0004944845,-0.0022629437,0.0016930795,0.34906584,1.9059172e-07,1.8591494e-07,5.280284e-07,1310996,0.049471643,0.0012473159,-0.10968166,0.4,0.00078124006,0.0008088634,0.0007812405,197644,0.01131492,-0.009057687,0.0024796014,0.5,5.2472446e-05,0.00019540612,0.00015211636,1,1,1,0,1,0
871420000,871340000,1310996,0.00051281875,-0.0022564558,0.0016845139,0.34906584,1.8670326e-07,1.8276428e-07,5.2967255e-07,1310996,0.049542442,0.0010445792,-0.11027794,0.4,0.00078124105,0.0008068026,0.0007812405,197644,0.01131492,-0.009057687,0.0024796014,0.5,5.2472446e-05,0.00019540612,0.00015211636,1,1,1,0,1,0
872420000,872340000,1310996,0.0005473132,-0.002250223,0.0016737047,0.34906584,1.8376103e-07,1.8044776e-07,5.303765e-07,1310996,0.049634695,0.00052717864,-0.11062924,0.4,0.0007812524,0.0008040124,0.00078124,197644,0.01131492,-0.009057687,0.0024796014,0.5,5.2472446e-05,0.00019540612,0.00015211636,1,1,1,0,1,0
873212000,873132000,1310996,0.0005764916,-0.0022456243,0.0016696628,0.34906584,1.8066595e-07,1.7783196e-07,5.306217e-07,1310996,0.049722828,2.7929826e-05,-0.111510694,0.4,0.00078123936,0.00080111093,0.00078123936,197644,0.01131492,-0.009057687,0.0024796014,0.5,5.2472446e-05,0.00019540612,0.00015211636,1,1,1,0,1,0
873996000,873916000,1310996,0.00060021685,-0.0022507266,0.0016670342,0.34906584,1.7833806e-07,1.7590045e-07,5.305377e-07,1310996,0.049647063,-0.00039683018,-0.11251542,0.4,0.00078123936,0.0007982452,0.00078123936,197644,0.01131492,-0.009057687,0.0024796014,0.5,5.2472446e-05,0.00019540612,0.00015211636,1,1,1,0,1,0
874620000,874540000,1310996,0.0006224454,-0.002251711,0.0016633408,0.34906584,1.7540083e-07,1.7329421e-07,5.30719e-07,1310996,0.049649473,-0.000789817,-0.11381975,0.4,0.00078123936,0.00079553726,0.00078123936,197644,0.01131492,-0.009057687,0.0024796014,0.5,5.2472446e-05,0.00019540612,0.00015211636,1,1,1,0,1,0
875612000,875532000,1310996,0.00065732136,-0.0022642447,0.0016608706,0.34906584,1.7495958e-07,1.7315017e-07,5.2983455e-07,1310996,0.049460266,-0.0014325551,-0.114927046,0.4,0.00078123936,0.0007926469,0.00078123936,197644,0.01131492,-0.009057687,0.0024796014,0.5,5.2472446e-05,0.00019540612,0.00015211636,1,1,1,0,1,0
876020000,875940000,1310996,0.00068906235,-0.0022698941,0.0016557848,0.34906584,1.7267647e-07,1.7102599e-07,5.2849475e-07,1310996,0.04937951,-0.002034413,-0.11582696,0.4,0.00078123936,0.0007906352,0.00078123936,197644,0.01131492,-0.009057687,0.0024796014,0.5,5.2472446e-05,0.00019540612,0.00015211636,1,1,1,0,1,0
876596000,876516000,1310996,0.0007079935,-0.0022673374,0.0016598384,0.34906584,1.7171044e-07,1.7021891e-07,5.250019e-07,1310996,0.049456753,-0.002287577,-0.1168527,0.4,0.00078123936,0.00078642095,0.00078123936,197644,0.0113354,-0.008514014,0.0020296588,0.5,4.8669906e-05,0.00015740623,0.00012748642,1,1,1,0,1,0
877012000,876932000,1310996,0.00071061135,-0.0022620747,0.0016640832,0.34906584,1.6992504e-07,1.6852827e-07,5.218201e-07,1310996,0.04952739,-0.0024047992,-0.11803806,0.4,0.00078123936,0.0007831501,0.00078123936,197644,0.011325203,-0.008441293,0.0020549241,0.5,4.4543325e-05,0.0001342388,0.000111080924,1,1,1,0,1,0
878012000,877932000,1310996,0.0007088236,-0.0022521,0.0016678512,0.34906584,1.707841e-07,1.6955696e-07,5.2060324e-07,1310996,0.049692877,-0.0024613242,-0.11884333,0.4,0.00078124454,0.0007812441,0.00078124227,197644,0.01137595,-0.008185013,0.0021779765,0.5,3.90125e-05,0.00011538454,9.723384e-05,1,1,1,0,1,0
879012000,878932000,1310996,0.00068564725,-0.002239474,0.0016611377,0.34906584,1.68631e-07,1.6787885e-07,5.213598e-07,1310996,0.05000602,-0.0021079902,-0.118826345,0.4,0.00078123936,0.00078123936,0.00078124215,197644,0.011561441,-0.008251046,0.0022359267,0.5,3.532761e-05,0.0001066981,9.057553e-05,1,1,1,0,1,0
880012000,879932000,1310996,0.0006403112,-0.002243575,0.0016731139,0.34906584,1.6746498e-07,1.6732152e-07,5.186547e-07,1310996,0.05012092,-0.0015797598,-0.1189122,0.4,0.00078124227,0.00078124227,0.00078124227,197644,0.011700812,-0.007984094,0.002306429,0.5,3.3011882e-05,0.000100994126,8.587612e-05,1,1,1,0,1,0
880812000,880732000,1310996,0.000608214,-0.0022611585,0.0017005642,0.34906584,1.6683754e-07,1.677748e-07,5.0420573e-07,1310996,0.05030408,-0.001494534,-0.11989786,0.4,0.00078123936,0.00078123936,0.00078123936,197644,0.011841204,-0.008154999,0.0020907323,0.5,3.0695985e-05,8.4487576e-05,7.33628e-05,1,1,1,0,1,0
881812000,881732000,1310996,0.00058701617,-0.0022897206,0.001738043,0.34906584,1.6532005e-07,1.6827306e-07,4.9097736e-07,1310996,0.05054048,-0.0012748159,-0.11996036,0.4,0.0007812404,0.00078123936,0.00078123936,197644,0.012065725,-0.008156225,0.0016668298,0.5,2.7181053e-05,6.955163e-05,6.1089304e-05,1,1,1,0,1,0
882812000,882732000,1310996,0.00057687,-0.0022993619,0.0017388199,0.34906584,1.6474176e-07,1.6931251e-07,4.8935203e-07,1310996,0.05081646,-0.0011977204,-0.11938762,0.4,0.00078123994,0.00078123994,0.0007812405,197644,0.012324614,-0.008363702,0.0015478174,0.5,2.4927487e-05,6.3371466e-05,5.5884582e-05,1,1,1,0,1,0
883812000,883732000,1310996,0.0005712255,-0.0022976662,0.0017342089,0.34906584,1.6530275e-07,1.7052938e-07,4.929684e-07,1310996,0.050958276,-0.0011441775,-0.12008931,0.4,0.0007812434,0.0007812428,0.0007812428,197644,0.012429242,-0.008446134,0.0015134047,0.5,2.3462646e-05,6.010992e-05,5.314822e-05,1,1,1,0,1,0
884812000,884732000,1310996,0.0005508291,-0.002284911,0.001733707,0.34906584,1.624126e-07,1.6748605e-07,4.9078153e-07,1310996,0.05105711,-0.0010489301,-0.12016117,0.4,0.00078123936,0.00078123936,0.00078123936,197644,0.012437477,-0.008467837,0.0015126994,0.5,2.335667e-05,5.9892616e-05,5.2981857e-05,1,1,1,0,1,0
885812000,885732000,1310996,0.00053564215,-0.0022760262,0.0017324657,0.34906584,1.6428669e-07,1.6894613e-07,4.878685e-07,1310996,0.051115286,-0.000946941,-0.12056516,0.4,0.0007812434,0.0007812434,0.00078124227,197644,0.012437477,-0.008467837,0.0015126994,0.5,2.335667e-05,5.9892616e-05,5.2981857e-05,1,1,1,0,1,0
886812000,886732000,1310996,0.00052564027,-0.0022625583,0.0017294633,0.34906584,1.6317416e-07,1.6718079e-07,4.8454973e-07,1310996,0.051197246,-0.00085420336,-0.12107264,0.4,0.0007812428,0.0007812428,0.0007812428,197644,0.012437477,-0.008467837,0.0015126994,0.5,2.335667e-05,5.9892616e-05,5.2981857e-05,1,1,1,0,1,0
887812000,887732000,1310996,0.0005186839,-0.0022557247,0.0017172733,0.34906584,1.627305e-07,1.6611192e-07,4.802893e-07,1310996,0.05119973,-0.0007959029,-0.120901294,0.4,0.00078123936,0.00078123936,0.0007812422,197644,0.012437477,-0.008467837,0.0015126994,0.5,2.335667e-05,5.9892616e-05,5.2981857e-05,1,1,1,0,1,0
888812000,888732000,1310996,0.00051575573,-0.0022519405,0.0017123867,0.34906584,1.6415743e-07,1.6708367e-07,4.776071e-07,1310996,0.051214468,-0.0007250819,-0.12140492,0.4,0.0007812434,0.00078124163,0.00078124163,197644,0.012437477,-0.008467837,0.0015126994,0.5,2.335667e-05,5.9892616e-05,5.2981857e-05,1,1,1,0,1,0
889596000,889516000,1310996,0.0005156105,-0.0022600128,0.0017113014,0.34906584,1.6167262e-07,1.6407823e-07,4.7460878e-07,1310996,0.05114228,-0.0008009927,-0.12031916,0.4,0.00078123936,0.00078123936,0.00078123936,197644,0.012437477,-0.008467837,0.0015126994,0.5,2.335667e-05,5.9892616e-05,5.2981857e-05,1,1,1,0,1,0
890596000,890516000,1310996,0.0005119138,-0.0022686091,0.0017034734,0.34906584,1.6172746e-07,1.6372113e-07,4.7097183e-07,1310996,0.05104816,-0.00081518537,-0.11951548,0.4,0.0007812434,0.0007812413,0.00078123936,197644,0.012437477,-0.008467837,0.0015126994,0.5,2.335667e-05,5.9892616e-05,5.2981857e-05,1,1,1,0,1,0
891596000,891516000,1310996,0.00050384935,-0.0022828528,0.001694728,0.34906584,1.6279306e-07,1.6448722e-07,4.6739123e-07,1310996,0.050916735,-0.0007892779,-0.11901954,0.4,0.0007812434,0.00078124227,0.00078124227,197644,0.012437477,-0.008467837,0.0015126994,0.5,2.335667e-05,5.9892616e-05,5.2981857e-05,1,1,1,1,1,0
892596000,892516000,1310996,0.0004943733,-0.0023045214,0.0016859567,0.34906584,1.6225643e-07,1.6364969e-07,4.63761e-07,1310996,0.05074261,-0.00075362826,-0.1186215,0.4,0.0007812434,0.0007812417,0.0007812417,197644,0.012437477,-0.008467837,0.0015126994,0.5,2.335667e-05,5.9892616e-05,5.2981857e-05,1,1,1,1,1,0
892820000,892740000,1310996,0.00048561164,-0.002316652,0.0016807526,0.34906584,1.6010836e-07,1.6138465e-07,4.622072e-07,1310996,0.050633993,-0.0007549508,-0.11739869,0.4,0.00078123936,0.00078123936,0.00078123936,197644,0.012437477,-0.008467837,0.0015126994,0.5,2.335667e-05,5.9892616e-05,5.2981857e-05,1,1,1,1,1,0
893812000,893732000,1310996,0.0004733762,-0.0023353714,0.0016724688,0.34906584,1.6153797e-07,1.6264241e-07,4.5939666e-07,1310996,0.050481517,-0.00073261803,-0.11619781,0.4,0.00078123936,0.00078123936,0.00078123936,197644,0.012437477,-0.008467837,0.0015126994,0.5,2.335667e-05,5.9892616e-05,5.2981857e-05,1,1,1,1,1,0
894436000,894356000,1310996,0.00046128425,-0.0023477536,0.0016651044,0.34906584,1.6011413e-07,1.610771e-07,4.5692119e-07,1310996,0.05037458,-0.0007008797,-0.1150433,0.4,0.00078123936,0.00078123936,0.00078123936,197644,0.012437477,-0.008467837,0.0015126994,0.5,2.335667e-05,5.9892616e-05,5.2981857e-05,1,1,1,1,1,0
895420000,895340000,1310996,0.00043216403,-0.0023637072,0.001652518,0.34906584,1.5969707e-07,1.6050896e-07,4.5319027e-07,1310996,0.050224327,-0.0005818781,-0.11367096,0.4,0.00078123936,0.00078123936,0.00078123936,197644,0.012437477,-0.008467837,0.0015126994,0.5,2.335667e-05,5.9892616e-05,5.2981857e-05,1,1,1,1,1,0
896004000,895924000,1310996,0.00041147362,-0.0023701552,0.0016445122,0.34906584,1.6035177e-07,1.6110201e-07,4.5122727e-07,1310996,0.050147437,-0.0004997104,-0.112306215,0.4,0.00078123936,0.00078123936,0.00078123936,197644,0.012437477,-0.008467837,0.0015126994,0.5,2.335667e-05,5.9892616e-05,5.2981857e-05,1,1,1,1,1,0
897004000,896924000,1310996,0.0003944175,-0.0023791483,0.0016276314,0.34906584,1.609494e-07,1.6157432e-07,4.4760165e-07,1310996,0.05017152,-0.0005610974,-0.11226146,0.4,0.00078125205,0.00078125205,0.000781252,197644,0.012437477,-0.008467837,0.0015126994,0.5,2.335667e-05,5.9892616e-05,5.2981857e-05,1,1,1,0,1,0
897812000,897732000,1310996,0.00037411958,-0.002393256,0.0016097378,0.34906584,1.5899786e-07,1.5947442e-07,4.449343e-07,1310996,0.050687738,-0.0013547466,-0.11159168,0.4,0.00078123936,0.00078123936,0.00078123936,197644,0.012437477,-0.008467837,0.0015126994,0.5,2.335667e-05,5.9892616e-05,5.2981857e-05,1,1,1,0,1,0
898380000,898300000,1310996,0.00034483647,-0.0024163132,0.0015974869,0.34906584,1.49009e-07,1.4924775e-07,4.4282015e-07,1310996,0.05215915,-0.0032639373,-0.10328301,0.4,0.00078123936,0.00078123936,0.00078123936,197644,0.012437477,-0.008467837,0.0015126994,0.5,2.335667e-05,5.9892616e-05,5.2981857e-05,1,1,1,0,1,0
898692000,898612000,1310996,0.00034427064,-0.002417962,0.0015918411,0.34906584,1.5044046e-07,1.5066061e-07,4.420032e-07,1310996,0.052424207,-0.003372147,-0.10232298,0.4,0.00078124553,0.0007812456,0.00078123936,197644,0.012437477,-0.008467837,0.0015126994,0.5,2.335667e-05,5.9892616e-05,5.2981857e-05,1,1,1,0,1,0
898796000,898716000,1310996,0.0003342382,-0.0024240606,0.0015875018,0.34906584,1.5033665e-07,1.5054445e-07,4.4118335e-07,1310996,0.053448375,-0.005070769,-0.10063744,0.4,0.00078123936,0.00078123936,0.00078123936,197644,0.012437477,-0.008467837,0.0015126994,0.5,2.335667e-05,5.9892616e-05,5.2981857e-05,1,1,1,0,1,0
899004000,898924000,1310996,0.0003322641,-0.0024296374,0.001583622,0.34906584,1.5111439e-07,1.5130931e-07,4.403671e-07,1310996,0.05428766,-0.0053653275,-0.09640217,0.4,0.00078123936,0.00078123936,0.00078123936,197644,0.012437477,-0.008467837,0.0015126994,0.5,2.335667e-05,5.9892616e-05,5.2981857e-05,1,1,1,0,1,0
899188000,899108000,1310996,0.00033231275,-0.0024297363,0.0015801353,0.34906584,1.5257504e-07,1.5276956e-07,4.401891e-07,1310996,0.0,0.0,0.0,0.4,0.040000003,0.040000003,0.040000003,197644,0.012437477,-0.008467837,0.0015126994,0.5,2.335667e-05,5.9892616e-05,5.2981857e-05,1,1,1,0,1,0
899212000,899132000,1310996,0.00033400208,-0.002429003,0.0015801407,0.34906584,1.5179558e-07,1.5197818e-07,4.4037165e-07,1310996,-0.0018009578,0.004165104,-0.00827274,0.4,0.03409108,0.03409071,0.03395927,197644,0.012437477,-0.008467837,0.0015126994,0.5,2.335667e-05,5.9892616e-05,5.2981857e-05,1,1,1,0,1,0
899420000,899340000,1310996,0.0003338219,-0.0024297289,0.0015749951,0.34906584,1.533832e-07,1.5356478e-07,4.3956146e-07,1310996,0.010393282,-0.0012055575,-0.00430996,0.4,0.0049991366,0.0049983114,0.004168275,197644,0.012437477,-0.008467837,0.0015126994,0.5,2.335667e-05,5.9892616e-05,5.2981857e-05,1,1,1,0,1,0
899628000,899548000,1310996,0.00033280137,-0.0024289351,0.001571,0.34906584,1.5501105e-07,1.5519281e-07,4.3874618e-07,1310996,0.0033389868,-0.009767415,0.007969702,0.4,0.0031030308,0.00310216,0.0022117503,197644,0.012437477,-0.008467837,0.0015126994,0.5,2.335667e-05,5.9892616e-05,5.2981857e-05,1,1,1,0,1,0
899836000,899756000,1310996,0.00033272756,-0.0024295852,0.0015661058,0.34906584,1.5661848e-07,1.5679927e-07,4.3793776e-07,1310996,0.005328398,-0.010324738,0.010342905,0.4,0.0024319629,0.0024309927,0.0015052295,197644,0.012437477,-0.008467837,0.0015126994,0.5,2.335667e-05,5.9892616e-05,5.2981857e-05,1,1,1,0,1,0
900044000,899964000,1310996,0.00033336208,-0.0024311284,0.0015613165,0.34906584,1.5819668e-07,1.5837614e-07,4.371291e-07,1310996,0.0081596915,-0.009188139,0.017018447,0.4,0.002094419,0.0020933552,0.0011408255,197644,0.012437477,-0.008467837,0.0015126994,0.5,2.335667e-05,5.9892616e-05,5.2981857e-05,1,1,1,0,1,0
