timestamp,timestamp_sample,gps_hvel[0],gps_hvel[1],gps_vvel,gps_hpos[0],gps_hpos[1],gps_vpos,ev_hvel[0],ev_hvel[1],ev_vvel,ev_hpos[0],ev_hpos[1],ev_vpos,rng_vpos,baro_vpos,aux_hvel[0],aux_hvel[1],aux_vvel,flow[0],flow[1],heading,mag_field[0],mag_field[1],mag_field[2],drag[0],drag[1],airspeed,beta,hagl,hagl_rate
829564000,829484000,-0.0022091027,-0.0012790172,0.0045670117,0.0077760518,-0.0010309219,0.0,0.0,0.0,0.0,0.0,0.0,0.0,0.0,-0.12132263,0.0,0.0,nan,0.0,0.0,-0.008004069,9.009987e-05,0.004588455,0.005083889,0.0,0.0,0.0,0.0,0.0,0.0
830068000,829988000,0.0009566039,-0.011103601,0.0020456905,-0.0029019117,0.0075531006,0.0,0.0,0.0,0.0,0.0,0.0,0.0,0.0,-0.041809082,0.0,0.0,nan,0.0,0.0,-0.028746963,9.009987e-05,0.004588455,0.005083889,0.0,0.0,0.0,0.0,0.0,0.0
830572000,830492000,-0.00050545274,0.022382649,-0.010577026,-0.0030849278,0.0076328516,0.0,0.0,0.0,0.0,0.0,0.0,0.0,0.0,-0.007217407,0.0,0.0,nan,0.0,0.0,-0.00423491,9.009987e-05,0.004588455,0.005083889,0.0,0.0,0.0,0.0,0.0,0.0
831068000,830988000,0.000442332,-0.0014376348,0.009568312,-0.0031597316,0.0070928335,0.0,0.0,0.0,0.0,0.0,0.0,0.0,0.0,0.06903076,0.0,0.0,nan,0.0,0.0,0.020678043,9.009987e-05,0.004588455,0.005083889,0.0,0.0,0.0,0.0,0.0,0.0
831572000,831492000,0.0018889229,-0.0012517538,-0.009573179,-0.0031015873,0.0069845915,0.0,0.0,0.0,0.0,0.0,0.0,0.0,0.0,-0.00010681152,0.0,0.0,nan,0.0,0.0,-0.0027559996,9.009987e-05,0.004588455,0.005083889,0.0,0.0,0.0,0.0,0.0,0.0
832068000,831988000,0.0015783994,0.0012315216,-0.02918954,0.0081959665,0.0069844723,0.0,0.0,0.0,0.0,0.0,0.0,0.0,0.0,0.037109375,0.0,0.0,nan,0.0,0.0,-0.00874114,9.009987e-05,0.004588455,0.005083889,0.0,0.0,0.0,0.0,0.0,0.0
832564000,832484000,-0.010553489,-6.170165e-05,-0.011607157,-0.002927959,0.006971836,0.0,0.0,0.0,0.0,0.0,0.0,0.0,0.0,-0.013977051,0.0,0.0,nan,0.0,0.0,-0.002252221,9.009987e-05,0.004588455,0.005083889,0.0,0.0,0.0,0.0,0.0,0.0
833068000,832988000,-0.0002086693,0.010778804,-0.009838763,0.008353204,0.0066856146,0.0,0.0,0.0,0.0,0.0,0.0,0.0,0.0,-0.058120728,0.0,0.0,nan,0.0,0.0,-0.019008756,9.009987e-05,0.004588455,0.005083889,0.0,0.0,0.0,0.0,0.0,0.0
833564000,833484000,0.001609352,0.0013709116,0.020705033,0.008460134,0.0068342686,0.0,0.0,0.0,0.0,0.0,0.0,0.0,0.0,0.07702637,0.0,0.0,nan,0.0,0.0,-0.007080078,9.009987e-05,0.004588455,0.005083889,0.0,0.0,0.0,0.0,0.0,0.0
834068000,833988000,0.012976707,0.0018014649,-0.023839433,-0.0020002425,0.006940365,0.0,0.0,0.0,0.0,0.0,0.0,0.0,0.0,0.008422852,0.0,0.0,nan,0.0,0.0,0.010683179,9.009987e-05,0.004588455,0.005083889,0.0,0.0,0.0,0.0,0.0,0.0
834572000,834492000,0.0012672865,0.00010088354,-0.02258199,0.0088145435,-0.0015778542,0.0,0.0,0.0,0.0,0.0,0.0,0.0,0.0,-0.06549072,0.0,0.0,nan,0.0,0.0,-0.021616578,9.009987e-05,0.004588455,0.005083889,0.0,0.0,0.0,0.0,0.0,0.0
835068000,834988000,-0.009721068,-0.01976318,0.018749397,-0.0026157796,-0.0012534857,0.0,0.0,0.0,0.0,0.0,0.0,0.0,0.0,-0.08917236,0.0,0.0,nan,0.0,0.0,-0.03362608,9.009987e-05,0.004588455,0.005083889,0.0,0.0,0.0,0.0,0.0,0.0
835564000,835484000,0.022093628,0.008074748,0.004258148,0.008745223,-0.0013604164,0.0,0.0,0.0,0.0,0.0,0.0,0.0,0.0,0.05671692,0.0,0.0,nan,0.0,0.0,-0.014301419,9.009987e-05,0.004588455,0.005083889,0.0,0.0,0.0,0.0,0.0,0.0
836068000,835988000,0.0036300612,6.91872e-05,0.021040428,-0.0023607612,0.007213831,0.0,0.0,0.0,0.0,0.0,0.0,0.0,0.0,-0.14372253,0.0,0.0,nan,0.0,0.0,-0.01095438,9.009987e-05,0.004588455,0.005083889,0.0,0.0,0.0,0.0,0.0,0.0
836572000,836492000,0.011491333,0.0199659,0.038378492,-0.002668649,-0.0012636185,0.0,0.0,0.0,0.0,0.0,0.0,0.0,0.0,0.0,0.0,0.0,nan,0.0,0.0,-0.012977123,9.009987e-05,0.004588455,0.005083889,0.0,0.0,0.0,0.0,0.0,0.0
837068000,836988000,-0.003918985,-0.0052034887,-0.0023410176,0.0005058944,0.004540801,0.0,0.0,0.0,0.0,0.0,0.0,0.0,0.0,0.02557373,0.0,0.0,nan,0.0,0.0,-0.010923505,9.009987e-05,0.004588455,0.005083889,0.0,0.0,0.0,0.0,0.0,0.0
837572000,837492000,0.0046206918,-0.04015656,-0.055983104,0.011763871,0.0017365217,0.0,0.0,0.0,0.0,0.0,0.0,0.0,0.0,0.030639648,0.0,0.0,nan,0.0,0.0,0.007581234,9.009987e-05,0.004588455,0.005083889,0.0,0.0,0.0,0.0,0.0,0.0
838068000,837988000,0.04160943,0.00314588,-0.010368705,0.03187576,-0.0058305264,0.0,0.0,0.0,0.0,0.0,0.0,0.0,0.0,-0.07116699,0.0,0.0,nan,0.0,0.0,-0.0019364357,9.009987e-05,0.004588455,0.005083889,0.0,0.0,0.0,0.0,0.0,0.0
838572000,838492000,0.03331171,-0.01624835,0.07727027,0.03683144,0.005809307,0.0,0.0,0.0,0.0,0.0,0.0,0.0,0.0,-0.049301147,0.0,0.0,nan,0.0,0.0,0.03388822,9.009987e-05,0.004588455,0.005083889,0.0,0.0,0.0,0.0,0.0,0.0
839068000,838988000,0.042739104,-0.0073382864,0.047926247,0.048745245,0.010554671,0.0,0.0,0.0,0.0,0.0,0.0,0.0,0.0,0.06689453,0.0,0.0,nan,0.0,0.0,0.021897674,9.009987e-05,0.004588455,0.005083889,0.0,0.0,0.0,0.0,0.0,0.0
839572000,839492000,0.03814485,-0.03048779,-0.02905503,0.07126433,0.00044441223,0.0,0.0,0.0,0.0,0.0,0.0,0.0,0.0,-0.07675171,0.0,0.0,nan,0.0,0.0,0.0027903318,9.009987e-05,0.004588455,0.005083889,0.0,0.0,0.0,0.0,0.0,0.0
840068000,839988000,0.022013037,-0.0062318733,-0.004603535,0.07537252,0.004489064,0.0,0.0,0.0,0.0,0.0,0.0,0.0,0.0,0.067871094,0.0,0.0,nan,0.0,0.0,0.022772789,9.009987e-05,0.004588455,0.005083889,0.0,0.0,0.0,0.0,0.0,0.0
840564000,840484000,0.015776249,-0.025834257,0.06897305,0.08322042,-0.008754492,0.0,0.0,0.0,0.0,0.0,0.0,0.0,0.0,-0.09059143,0.0,0.0,nan,0.0,0.0,0.00044167042,9.009987e-05,0.004588455,0.005083889,0.0,0.0,0.0,0.0,0.0,0.0
841068000,840988000,0.013471741,-0.026469126,-0.0005193595,0.07384074,-0.020773053,0.0,0.0,0.0,0.0,0.0,0.0,0.0,0.0,0.017654419,0.0,0.0,nan,0.0,0.0,-0.00017857552,9.009987e-05,0.004588455,0.005083889,0.0,0.0,0.0,0.0,0.0,0.0
841564000,841484000,-0.0328193,0.006009653,-0.036491662,0.06417745,-0.012573004,0.0,0.0,0.0,0.0,0.0,0.0,0.0,0.0,-0.06211853,0.0,0.0,nan,0.0,0.0,0.005609274,9.009987e-05,0.004588455,0.005083889,0.0,0.0,0.0,0.0,0.0,0.0
842068000,841988000,-0.093504876,0.044058144,-0.07178128,0.056902498,-0.017139673,0.0,0.0,0.0,0.0,0.0,0.0,0.0,0.0,-0.033111572,0.0,0.0,nan,0.0,0.0,0.036044,9.009987e-05,0.004588455,0.005083889,0.0,0.0,0.0,0.0,0.0,0.0
842564000,842484000,-0.12773152,0.015102744,-0.06599206,0.05451545,-0.021712378,0.0,0.0,0.0,0.0,0.0,0.0,0.0,0.0,-0.02748108,0.0,0.0,nan,0.0,0.0,-0.0015403032,-0.00125302,-0.00030967593,-0.003163129,0.0,0.0,0.0,0.0,0.0,0.0
843068000,842988000,-0.15932204,-0.017635822,-0.09355229,0.024604023,-0.024902225,0.0,0.0,0.0,0.0,0.0,0.0,0.0,0.0,-0.051116943,0.0,0.0,nan,0.0,0.0,-0.0015403032,0.001478102,-0.0005031973,0.00010341406,0.0,0.0,0.0,0.0,0.0,0.0
843564000,843484000,-0.13904917,-0.005203724,-0.10246849,0.028237343,-0.019881248,0.0,0.0,0.0,0.0,0.0,0.0,0.0,0.0,-0.0059661865,0.0,0.0,nan,0.0,0.0,-0.0015403032,-0.0011182651,-5.1498413e-05,-0.0013006926,0.0,0.0,0.0,0.0,0.0,0.0
844068000,843988000,-0.091645524,-0.031746864,-0.08362931,0.010785222,-0.020142317,0.0,0.0,0.0,0.0,0.0,0.0,0.0,0.0,-0.04901123,0.0,0.0,nan,0.0,0.0,-0.0015403032,-0.00017529353,-0.0009883195,-0.002631992,0.0,0.0,0.0,0.0,0.0,0.0
844564000,844484000,-0.07525782,-0.014177322,-0.08815402,-0.0027052164,-0.036551952,0.0,0.0,0.0,0.0,0.0,0.0,0.0,0.0,-0.049118042,0.0,0.0,nan,0.0,0.0,-0.0015403032,-0.004092764,-0.001426816,-0.00047788024,0.0,0.0,0.0,0.0,0.0,0.0
845068000,844988000,-0.056448177,-0.01658845,-0.16475296,0.020192474,-0.02930832,0.0,0.0,0.0,0.0,0.0,0.0,0.0,0.0,-0.112350464,0.0,0.0,nan,0.0,0.0,-0.0015403032,-0.0016323999,0.0042791814,0.00024616718,0.0,0.0,0.0,0.0,0.0,0.0
845572000,845492000,-0.011102475,-0.010782719,-0.15159178,0.01682648,-0.032740116,0.0,0.0,0.0,0.0,0.0,0.0,0.0,0.0,-0.10839844,0.0,0.0,nan,0.0,0.0,-0.0015403032,0.0006742589,0.0019098818,-0.0034270883,0.0,0.0,0.0,0.0,0.0,0.0
846068000,845988000,0.0333284,0.008321762,-0.20460409,0.018731534,-0.03358555,0.0,0.0,0.0,0.0,0.0,0.0,0.0,0.0,-0.122024536,0.0,0.0,nan,0.0,0.0,-0.0015403032,0.00021615997,7.56979e-05,-0.00019535422,0.0,0.0,0.0,0.0,0.0,0.0
846564000,846484000,0.0063809752,0.022857428,-0.18083799,0.013748586,-0.03144741,0.0,0.0,0.0,0.0,0.0,0.0,0.0,0.0,-0.15151978,0.0,0.0,nan,0.0,0.0,-0.006649375,0.00021615997,7.56979e-05,-0.00019535422,0.0,0.0,0.0,0.0,0.0,0.0
847068000,846988000,0.05370562,0.046256542,-0.15569252,0.017732382,-0.025910378,0.0,0.0,0.0,0.0,0.0,0.0,0.0,0.0,-0.2306366,0.0,0.0,nan,0.0,0.0,0.0151513815,0.00021615997,7.56979e-05,-0.00019535422,0.0,0.0,0.0,0.0,0.0,0.0
847572000,847492000,0.015556965,0.032241106,-0.22915012,0.010440052,-0.02913189,0.0,0.0,0.0,0.0,0.0,0.0,0.0,0.0,-0.13378906,0.0,0.0,nan,0.0,0.0,-0.018983841,0.00021615997,7.56979e-05,-0.00019535422,0.0,0.0,0.0,0.0,0.0,0.0
848068000,847988000,0.03222725,0.025999546,-0.17135626,0.014762759,-0.048828125,0.0,0.0,0.0,0.0,0.0,0.0,0.0,0.0,-0.18751526,0.0,0.0,nan,0.0,0.0,0.012688041,0.00021615997,7.56979e-05,-0.00019535422,0.0,0.0,0.0,0.0,0.0,0.0
848564000,848484000,0.05157949,0.024842024,-0.15261686,0.007252693,-0.044052124,0.0,0.0,0.0,0.0,0.0,0.0,0.0,0.0,-0.13391113,0.0,0.0,nan,0.0,0.0,-0.015367508,0.00021615997,7.56979e-05,-0.00019535422,0.0,0.0,0.0,0.0,0.0,0.0
849068000,848988000,0.017285293,0.030354738,-0.15768754,-0.009526551,-0.045000076,0.0,0.0,0.0,0.0,0.0,0.0,0.0,0.0,-0.100997925,0.0,0.0,nan,0.0,0.0,-0.0039008856,0.00021615997,7.56979e-05,-0.00019535422,0.0,0.0,0.0,0.0,0.0,0.0
849564000,849484000,0.02428616,0.021140337,-0.10933721,0.0004184842,-0.03309822,0.0,0.0,0.0,0.0,0.0,0.0,0.0,0.0,-0.1555481,0.0,0.0,nan,0.0,0.0,0.018749237,0.00021615997,7.56979e-05,-0.00019535422,0.0,0.0,0.0,0.0,0.0,0.0
850068000,849988000,0.025071729,0.027477026,-0.11106753,0.0053100586,-0.02794838,0.0,0.0,0.0,0.0,0.0,0.0,0.0,0.0,-0.1403656,0.0,0.0,nan,0.0,0.0,0.0042499304,0.00021615997,7.56979e-05,-0.00019535422,0.0,0.0,0.0,0.0,0.0,0.0
850572000,850492000,0.014746544,0.016893148,-0.103805006,0.003047943,-0.013189316,0.0,0.0,0.0,0.0,0.0,0.0,0.0,0.0,-0.19430542,0.0,0.0,nan,0.0,0.0,0.029873729,0.00021615997,7.56979e-05,-0.00019535422,0.0,0.0,0.0,0.0,0.0,0.0
851068000,850988000,0.054780822,-0.07623196,-0.08767744,0.013045609,-0.03817749,0.0,0.0,0.0,0.0,0.0,0.0,0.0,0.0,-0.112335205,0.0,0.0,nan,0.0,0.0,-0.032826424,0.00021615997,7.56979e-05,-0.00019535422,0.0,0.0,0.0,0.0,0.0,0.0
851572000,851492000,0.15141693,-0.100140214,-0.054784924,0.01599878,-0.03877449,0.0,0.0,0.0,0.0,0.0,0.0,0.0,0.0,0.0,0.0,0.0,nan,0.0,0.0,-0.0057861805,-0.0007573962,-0.001131013,0.0039063096,0.0,0.0,0.0,0.0,0.0,0.0
852068000,851988000,0.2349314,-0.055300966,-0.076408565,0.05151421,-0.03494072,0.0,0.0,0.0,0.0,0.0,0.0,0.0,0.0,0.0,0.0,0.0,nan,0.0,0.0,-0.0057861805,0.003995672,0.0009647161,0.0028372407,0.0,0.0,0.0,0.0,0.0,0.0
852572000,852492000,0.24674037,0.02587533,-0.0046309233,0.07892656,-0.032001495,0.0,0.0,0.0,0.0,0.0,0.0,0.0,0.0,0.0,0.0,0.0,nan,0.0,0.0,-0.0057861805,-0.00044079125,-0.00016131997,-0.0006171763,0.0,0.0,0.0,0.0,0.0,0.0
853068000,852988000,0.16994956,0.10997486,-0.00044339895,0.05515033,-0.00093460083,0.0,0.0,0.0,0.0,0.0,0.0,0.0,0.0,0.0,0.0,0.0,nan,0.0,0.0,-0.0057861805,-0.0002616197,-0.0011637509,-0.0009058714,0.0,0.0,0.0,0.0,0.0,0.0
853572000,853492000,0.08882302,0.08893144,0.12331593,0.06843364,0.015569687,0.0,0.0,0.0,0.0,0.0,0.0,0.0,0.0,0.0,0.0,0.0,nan,0.0,0.0,-0.0057861805,-0.00036543608,-1.7434359e-06,-0.001442641,0.0,0.0,0.0,0.0,0.0,0.0
854068000,853988000,-0.0027698576,0.0780893,0.11292714,0.045112967,0.018455505,0.0,0.0,0.0,0.0,0.0,0.0,0.0,0.0,0.0,0.0,0.0,nan,0.0,0.0,-0.0057861805,0.0014748573,0.0014948994,-0.0007941425,0.0,0.0,0.0,0.0,0.0,0.0
854572000,854492000,-0.042163268,0.082045674,0.104011476,0.033177197,0.034389496,0.0,0.0,0.0,0.0,0.0,0.0,0.0,0.0,0.0,0.0,0.0,nan,0.0,0.0,-0.0057861805,0.002922967,0.0012239814,-0.0009570718,0.0,0.0,0.0,0.0,0.0,0.0
855068000,854988000,-0.056405723,0.06543446,0.1554516,0.020878792,0.04062271,0.0,0.0,0.0,0.0,0.0,0.0,0.0,0.0,0.0,0.0,0.0,nan,0.0,0.0,-0.0057861805,-0.0017523319,-0.0025886893,-0.0030872822,0.0,0.0,0.0,0.0,0.0,0.0
855564000,855484000,-0.078107275,0.017631032,0.16523856,0.006367922,0.038812637,0.0,0.0,0.0,0.0,0.0,0.0,0.0,0.0,0.0,0.0,0.0,nan,0.0,0.0,0.005391121,-0.0003529787,0.0012360066,-0.0015922487,0.0,0.0,0.0,0.0,0.0,0.0
856068000,855988000,-0.22644371,0.5455102,-0.262213,-0.02325505,0.079063416,0.0,0.0,0.0,0.0,0.0,0.0,0.0,0.0,0.0,0.0,0.0,nan,0.0,0.0,0.043804288,0.0030595511,-0.001390934,-0.0069272816,0.0,0.0,0.0,0.0,0.0,0.0
856572000,856492000,-0.40391177,0.18079948,0.15186834,-0.039705694,0.008430481,0.0,0.0,0.0,0.0,0.0,0.0,0.0,0.0,0.10592651,0.0,0.0,nan,0.0,0.0,0.043804288,-0.0048516095,-0.002413869,0.0007725358,0.0,0.0,0.0,0.0,0.0,0.0
857068000,856988000,-0.3377318,-0.07828188,0.13906384,-0.09917261,-0.07042122,0.0,0.0,0.0,0.0,0.0,0.0,0.0,0.0,0.04559326,0.0,0.0,nan,0.0,0.0,0.043804288,-0.0012554526,0.0026027113,-0.0032797456,0.0,0.0,0.0,0.0,0.0,0.0
857564000,857484000,-0.24256065,-0.26425982,0.25495148,-0.134379,-0.099832535,0.0,0.0,0.0,0.0,0.0,0.0,0.0,0.0,0.17944336,0.0,0.0,nan,0.0,0.0,0.043804288,-0.0044001564,0.0034836978,0.0034041405,0.0,0.0,0.0,0.0,0.0,0.0
858068000,857988000,-0.012556627,-0.22905612,0.1450572,-0.06367998,-0.081632614,0.0,0.0,0.0,0.0,0.0,0.0,0.0,0.0,0.044540405,0.0,0.0,nan,0.0,0.0,0.043804288,0.00035634078,0.00042299926,0.0034461021,0.0,0.0,0.0,0.0,0.0,0.0
858572000,858492000,0.08683586,-0.17273521,0.121359795,-0.04270491,-0.11935997,0.0,0.0,0.0,0.0,0.0,0.0,0.0,0.0,0.1328888,0.0,0.0,nan,0.0,0.0,0.043804288,-0.0035031848,0.00093504786,0.006357819,0.0,0.0,0.0,0.0,0.0,0.0
859068000,858988000,0.15053254,-0.17810917,0.09343682,-0.027567625,-0.09370422,0.0,0.0,0.0,0.0,0.0,0.0,0.0,0.0,0.0,0.0,0.0,nan,0.0,0.0,0.043804288,-0.010044381,0.0014975071,0.0068923533,0.0,0.0,0.0,0.0,0.0,0.0
859572000,859492000,0.1622555,-0.11500651,0.14015953,-0.02421236,-0.06919479,0.0,0.0,0.0,0.0,0.0,0.0,0.0,0.0,0.1525116,0.0,0.0,nan,0.0,0.0,0.043804288,-0.0030789077,0.0018784404,0.00080502033,0.0,0.0,0.0,0.0,0.0,0.0
860068000,859988000,0.2135914,0.025635004,0.12055587,0.06678915,-0.06348801,0.0,0.0,0.0,0.0,0.0,0.0,0.0,0.0,0.1056366,0.0,0.0,nan,0.0,0.0,0.043804288,0.0002836734,-0.00036883354,0.0031354725,0.0,0.0,0.0,0.0,0.0,0.0
860572000,860492000,0.1386296,0.061143905,0.117047615,0.036458433,-0.05216217,0.0,0.0,0.0,0.0,0.0,0.0,0.0,0.0,0.15834045,0.0,0.0,nan,0.0,0.0,0.043804288,-0.0056213215,-0.0018771738,0.0015279055,0.0,0.0,0.0,0.0,0.0,0.0
861068000,860988000,0.11398785,0.043999508,0.22852628,0.03278321,-0.034898758,0.0,0.0,0.0,0.0,0.0,0.0,0.0,0.0,0.18255615,0.0,0.0,nan,0.0,0.0,0.043804288,-0.0005824566,0.0021566898,0.003566146,0.0,0.0,0.0,0.0,0.0,0.0
861572000,861492000,0.058737844,0.028024651,0.15456063,0.018704414,-0.034805298,0.0,0.0,0.0,0.0,0.0,0.0,0.0,0.0,0.18000793,0.0,0.0,nan,0.0,0.0,0.043804288,0.00095534325,0.0007264614,-0.00036484003,0.0,0.0,0.0,0.0,0.0,0.0
862068000,861988000,0.04345469,0.017734157,0.14318523,0.021262586,-0.018529892,0.0,0.0,0.0,0.0,0.0,0.0,0.0,0.0,0.20010376,0.0,0.0,nan,0.0,0.0,0.043804288,0.00076524913,-2.501905e-05,0.002601087,0.0,0.0,0.0,0.0,0.0,0.0
862572000,862492000,0.048796132,0.017912313,0.14655909,0.015994847,-0.0119075775,0.0,0.0,0.0,0.0,0.0,0.0,0.0,0.0,0.18618774,0.0,0.0,nan,0.0,0.0,0.043804288,-8.3997846e-05,0.0011123717,0.000498265,0.0,0.0,0.0,0.0,0.0,0.0
863068000,862988000,0.022782404,-0.0049646124,0.14034063,0.015806079,-0.006439209,0.0,0.0,0.0,0.0,0.0,0.0,0.0,0.0,0.26368713,0.0,0.0,nan,0.0,0.0,0.0023527145,-9.713322e-05,0.0018381476,0.0024196208,0.0,0.0,0.0,0.0,0.0,0.0
863564000,863484000,0.026370086,0.0098715685,0.14470464,0.0035597682,-0.0056056976,0.0,0.0,0.0,0.0,0.0,0.0,0.0,0.0,0.24382019,0.0,0.0,nan,0.0,0.0,0.002789855,-9.713322e-05,0.0018381476,0.0024196208,0.0,0.0,0.0,0.0,0.0,0.0
864068000,863988000,0.001541337,0.009708649,0.16312258,0.012620628,-0.008579254,0.0,0.0,0.0,0.0,0.0,0.0,0.0,0.0,0.23516846,0.0,0.0,nan,0.0,0.0,-0.0029797554,-9.713322e-05,0.0018381476,0.0024196208,0.0,0.0,0.0,0.0,0.0,0.0
864572000,864492000,0.019670734,0.0088467,0.15828069,0.011493117,-0.013347626,0.0,0.0,0.0,0.0,0.0,0.0,0.0,0.0,0.18151855,0.0,0.0,nan,0.0,0.0,-0.019386888,-9.713322e-05,0.0018381476,0.0024196208,0.0,0.0,0.0,0.0,0.0,0.0
865068000,864988000,0.0010686424,-0.0032349932,0.17253554,0.0007081628,-0.018013,0.0,0.0,0.0,0.0,0.0,0.0,0.0,0.0,0.31417847,0.0,0.0,nan,0.0,0.0,-0.0040929317,-9.713322e-05,0.0018381476,0.0024196208,0.0,0.0,0.0,0.0,0.0,0.0
865572000,865492000,0.0083018,-0.012320706,0.17553237,-0.004073739,-0.019496918,0.0,0.0,0.0,0.0,0.0,0.0,0.0,0.0,0.26167297,0.0,0.0,nan,0.0,0.0,0.00790453,-9.713322e-05,0.0018381476,0.0024196208,0.0,0.0,0.0,0.0,0.0,0.0
866068000,865988000,-0.029161409,-0.011864426,0.13922225,-0.011491835,-0.020393372,0.0,0.0,0.0,0.0,0.0,0.0,0.0,0.0,0.2856903,0.0,0.0,nan,0.0,0.0,0.002861023,-9.713322e-05,0.0018381476,0.0024196208,0.0,0.0,0.0,0.0,0.0,0.0
866572000,866492000,0.0010352795,-0.012196054,0.13949674,0.001034677,-0.025146484,0.0,0.0,0.0,0.0,0.0,0.0,0.0,0.0,0.29867554,0.0,0.0,nan,0.0,0.0,-0.0139398575,-9.713322e-05,0.0018381476,0.0024196208,0.0,0.0,0.0,0.0,0.0,0.0
867068000,866988000,0.01247981,-0.039592303,0.16099654,-0.008586854,-0.031764984,0.0,0.0,0.0,0.0,0.0,0.0,0.0,0.0,0.14125061,0.0,0.0,nan,0.0,0.0,-0.0024149418,-9.713322e-05,0.0018381476,0.0024196208,0.0,0.0,0.0,0.0,0.0,0.0
867572000,867492000,-0.019882537,-0.017119149,0.12246946,-0.016035944,-0.026813507,0.0,0.0,0.0,0.0,0.0,0.0,0.0,0.0,0.18759155,0.0,0.0,nan,0.0,0.0,-0.0004916191,-9.713322e-05,0.0018381476,0.0024196208,0.0,0.0,0.0,0.0,0.0,0.0
868068000,867988000,-0.008717241,-0.01541063,0.0743116,-0.009459704,-0.0368042,0.0,0.0,0.0,0.0,0.0,0.0,0.0,0.0,0.19432068,0.0,0.0,nan,0.0,0.0,-0.004048109,-9.713322e-05,0.0018381476,0.0024196208,0.0,0.0,0.0,0.0,0.0,0.0
868572000,868492000,0.016675804,-0.019425612,0.058542408,-0.007371962,-0.028457642,0.0,0.0,0.0,0.0,0.0,0.0,0.0,0.0,0.23078918,0.0,0.0,nan,0.0,0.0,-0.0056682825,-9.713322e-05,0.0018381476,0.0024196208,0.0,0.0,0.0,0.0,0.0,0.0
869068000,868988000,0.014360276,-0.016593697,0.030193798,-0.0030482411,-0.014942169,0.0,0.0,0.0,0.0,0.0,0.0,0.0,0.0,0.13604736,0.0,0.0,nan,0.0,0.0,-0.009332657,-9.713322e-05,0.0018381476,0.0024196208,0.0,0.0,0.0,0.0,0.0,0.0
869572000,869492000,0.027764963,-0.029101668,0.05133196,-0.010092318,-0.013008118,0.0,0.0,0.0,0.0,0.0,0.0,0.0,0.0,0.16798401,0.0,0.0,nan,0.0,0.0,-0.012068987,-9.713322e-05,0.0018381476,0.0024196208,0.0,0.0,0.0,0.0,0.0,0.0
870068000,869988000,0.014106674,0.02122518,0.00077168643,-0.005266845,0.0016212463,0.0,0.0,0.0,0.0,0.0,0.0,0.0,0.0,0.17863464,0.0,0.0,nan,0.0,0.0,-0.0039311647,-9.713322e-05,0.0018381476,0.0024196208,0.0,0.0,0.0,0.0,0.0,0.0
870564000,870484000,0.013678318,0.02876796,-0.008062206,0.0068496764,0.0053634644,0.0,0.0,0.0,0.0,0.0,0.0,0.0,0.0,0.15434265,0.0,0.0,nan,0.0,0.0,-6.055832e-05,-9.713322e-05,0.0018381476,0.0024196208,0.0,0.0,0.0,0.0,0.0,0.0
871068000,870988000,0.0019973386,0.03275376,-0.040589396,0.00064471364,0.004722595,0.0,0.0,0.0,0.0,0.0,0.0,0.0,0.0,0.052871704,0.0,0.0,nan,0.0,0.0,0.0023651123,-9.713322e-05,0.0018381476,0.0024196208,0.0,0.0,0.0,0.0,0.0,0.0
871564000,871484000,0.040984582,0.0020060858,-0.05733944,0.017395735,0.013450623,0.0,0.0,0.0,0.0,0.0,0.0,0.0,0.0,0.07208252,0.0,0.0,nan,0.0,0.0,-0.0013341904,-9.713322e-05,0.0018381476,0.0024196208,0.0,0.0,0.0,0.0,0.0,0.0
872068000,871988000,0.055888154,0.021340348,-0.011092071,0.010004938,0.020008087,0.0,0.0,0.0,0.0,0.0,0.0,0.0,0.0,0.015289307,0.0,0.0,nan,0.0,0.0,-0.011071086,-9.713322e-05,0.0018381476,0.0024196208,0.0,0.0,0.0,0.0,0.0,0.0
872564000,872484000,0.0427128,0.016619233,-0.039676696,0.012730479,0.017223358,0.0,0.0,0.0,0.0,0.0,0.0,0.0,0.0,0.022216797,0.0,0.0,nan,0.0,0.0,-0.007046342,-9.713322e-05,0.0018381476,0.0024196208,0.0,0.0,0.0,0.0,0.0,0.0
873068000,872988000,0.03979418,0.02933363,-0.0028570225,0.036561787,0.026275635,0.0,0.0,0.0,0.0,0.0,0.0,0.0,0.0,0.055145264,0.0,0.0,nan,0.0,0.0,0.008972168,-9.713322e-05,0.0018381476,0.0024196208,0.0,0.0,0.0,0.0,0.0,0.0
873572000,873492000,0.034403,0.023449888,-0.024882939,0.025478244,0.015640259,0.0,0.0,0.0,0.0,0.0,0.0,0.0,0.0,-0.038253784,0.0,0.0,nan,0.0,0.0,-0.009082794,-9.713322e-05,0.0018381476,0.0024196208,0.0,0.0,0.0,0.0,0.0,0.0
874068000,873988000,0.052269794,-0.01634888,-0.05104711,0.0354293,0.013702393,0.0,0.0,0.0,0.0,0.0,0.0,0.0,0.0,-0.0861969,0.0,0.0,nan,0.0,0.0,-0.0004335642,-9.713322e-05,0.0018381476,0.0024196208,0.0,0.0,0.0,0.0,0.0,0.0
874572000,874492000,0.054486185,0.0045416066,0.009396083,0.033561885,0.0019569397,0.0,0.0,0.0,0.0,0.0,0.0,0.0,0.0,0.023956299,0.0,0.0,nan,0.0,0.0,-0.0015742779,-9.713322e-05,0.0018381476,0.0024196208,0.0,0.0,0.0,0.0,0.0,0.0
875068000,874988000,0.018760838,-0.010645441,-0.019569062,0.047757804,0.0002593994,0.0,0.0,0.0,0.0,0.0,0.0,0.0,0.0,-0.009552002,0.0,0.0,nan,0.0,0.0,-0.010560751,-9.713322e-05,0.0018381476,0.0024196208,0.0,0.0,0.0,0.0,0.0,0.0
875572000,875492000,0.08210173,0.011452127,-0.050343253,0.05699253,-0.004096985,0.0,0.0,0.0,0.0,0.0,0.0,0.0,0.0,-0.058166504,0.0,0.0,nan,0.0,0.0,0.006520152,-9.713322e-05,0.0018381476,0.0024196208,0.0,0.0,0.0,0.0,0.0,0.0
876068000,875988000,0.09260398,0.016615048,-0.07084548,0.04051526,-0.006034851,0.0,0.0,0.0,0.0,0.0,0.0,0.0,0.0,-0.07470703,0.0,0.0,nan,0.0,0.0,0.006793022,-9.713322e-05,0.0018381476,0.0024196208,0.0,0.0,0.0,0.0,0.0,0.0
876572000,876492000,0.07808995,0.025857076,-0.01298359,0.043497186,-0.015769958,0.0,0.0,0.0,0.0,0.0,0.0,0.0,0.0,-0.075408936,0.0,0.0,nan,0.0,0.0,0.008698702,-0.002095528,-0.0044073462,0.003394872,0.0,0.0,0.0,0.0,0.0,0.0
877068000,876988000,0.0021960735,0.031209797,-0.05049117,0.03395617,0.001964569,0.0,0.0,0.0,0.0,0.0,0.0,0.0,0.0,-0.06513977,0.0,0.0,nan,0.0,0.0,0.008698702,-0.0011501834,-0.0011313558,-0.0028587878,0.0,0.0,0.0,0.0,0.0,0.0
877572000,877492000,-0.014012337,0.011253014,-0.0136246905,0.02041936,-0.0006713867,0.0,0.0,0.0,0.0,0.0,0.0,0.0,0.0,-0.00843811,0.0,0.0,nan,0.0,0.0,0.008698702,0.00033400208,-0.0024511516,8.895993e-05,0.0,0.0,0.0,0.0,0.0,0.0
878068000,877988000,-0.0090100765,0.011671811,-0.06415004,0.017088652,-0.0021705627,0.0,0.0,0.0,0.0,0.0,0.0,0.0,0.0,-0.057266235,0.0,0.0,nan,0.0,0.0,0.008698702,-0.0020394325,0.0009075999,0.0009999573,0.0,0.0,0.0,0.0,0.0,0.0
878572000,878492000,-0.03698492,0.025112286,-0.03180086,0.0016288757,-0.0004348755,0.0,0.0,0.0,0.0,0.0,0.0,0.0,0.0,-0.034484863,0.0,0.0,nan,0.0,0.0,0.008698702,-0.00024405122,0.0015963912,-0.00020694733,0.0,0.0,0.0,0.0,0.0,0.0
879068000,878988000,-0.05996442,0.0017084777,0.010347094,-0.016379833,-0.009895325,0.0,0.0,0.0,0.0,0.0,0.0,0.0,0.0,0.037826538,0.0,0.0,nan,0.0,0.0,0.008698702,-0.001884982,-0.0036209077,-0.0016795397,0.0,0.0,0.0,0.0,0.0,0.0
879572000,879492000,-0.08395004,-0.04138975,-0.04740075,-0.031093597,-0.013305664,0.0,0.0,0.0,0.0,0.0,0.0,0.0,0.0,-0.063201904,0.0,0.0,nan,0.0,0.0,0.008698702,-0.0012469962,0.00074000657,0.0015672445,0.0,0.0,0.0,0.0,0.0,0.0
880068000,879988000,-0.047875106,-0.03766527,0.0007392168,-0.03145933,-0.024772644,0.0,0.0,0.0,0.0,0.0,0.0,0.0,0.0,0.0,0.0,0.0,nan,0.0,0.0,0.012297988,-0.00076432526,0.0021034032,-0.00068220496,0.0,0.0,0.0,0.0,0.0,0.0
880572000,880492000,-0.066239476,-0.05124671,0.0073599815,-0.04354191,-0.04666519,0.0,0.0,0.0,0.0,0.0,0.0,0.0,0.0,0.0,0.0,0.0,nan,0.0,0.0,-0.0030589104,-0.0021241754,-0.001369454,0.0020668507,0.0,0.0,0.0,0.0,0.0,0.0
881068000,880988000,-0.0010834932,-0.07708962,-0.038780212,-0.042024612,-0.051036835,0.0,0.0,0.0,0.0,0.0,0.0,0.0,0.0,0.0,0.0,0.0,nan,0.0,0.0,-0.0030589104,0.0024580732,-0.0013105869,0.009553313,0.0,0.0,0.0,0.0,0.0,0.0
881572000,881492000,-0.03603849,-0.03877666,0.019802392,-0.05111456,-0.04345703,0.0,0.0,0.0,0.0,0.0,0.0,0.0,0.0,0.0,0.0,0.0,nan,0.0,0.0,-0.0030589104,-0.0012802184,-0.0013114959,0.0020641685,0.0,0.0,0.0,0.0,0.0,0.0
882068000,881988000,-0.010797054,-0.061687257,0.028551638,-0.032724857,-0.051158905,0.0,0.0,0.0,0.0,0.0,0.0,0.0,0.0,0.0,0.0,0.0,nan,0.0,0.0,-0.0030589104,-0.001910679,-0.002471462,0.0005981624,0.0,0.0,0.0,0.0,0.0,0.0
882572000,882492000,-0.010693222,-0.027486354,-0.0061987042,-0.033563614,-0.032836914,0.0,0.0,0.0,0.0,0.0,0.0,0.0,0.0,0.0,0.0,0.0,nan,0.0,0.0,-0.0030589104,-0.003430076,-0.0003899634,-0.000990957,0.0,0.0,0.0,0.0,0.0,0.0
883068000,882988000,-0.011811495,-0.011085957,-0.0425995,-0.027897358,-0.035095215,0.0,0.0,0.0,0.0,0.0,0.0,0.0,0.0,0.0,0.0,0.0,nan,0.0,0.0,-0.0030589104,-0.0015092492,-0.003992364,0.0020982027,0.0,0.0,0.0,0.0,0.0,0.0
883564000,883484000,-0.011861458,-0.0010092407,-0.0019818544,-0.025124073,-0.03498459,0.0,0.0,0.0,0.0,0.0,0.0,0.0,0.0,0.0,0.0,0.0,nan,0.0,0.0,-0.0030589104,-0.0013355762,-0.00015319884,-0.00046119094,0.0,0.0,0.0,0.0,0.0,0.0
884068000,883988000,-0.036876313,0.019018989,0.003172636,-0.022367477,-0.028533936,0.0,0.0,0.0,0.0,0.0,0.0,0.0,0.0,0.0,0.0,0.0,nan,0.0,0.0,0.0032829046,-0.0017467812,5.1304698e-05,0.0007210076,0.0,0.0,0.0,0.0,0.0,0.0
884572000,884492000,-0.036982562,0.020179665,-0.026778042,-0.023539543,-0.024734497,0.0,0.0,0.0,0.0,0.0,0.0,0.0,0.0,0.0,0.0,0.0,nan,0.0,0.0,-0.0062117577,-0.0017467812,5.1304698e-05,0.0007210076,0.0,0.0,0.0,0.0,0.0,0.0
885068000,884988000,-0.060022593,0.017428927,-0.044257402,-0.015740871,-0.015598297,0.0,0.0,0.0,0.0,0.0,0.0,0.0,0.0,0.0,0.0,0.0,nan,0.0,0.0,0.0023163557,-0.0017467812,5.1304698e-05,0.0007210076,0.0,0.0,0.0,0.0,0.0,0.0
885572000,885492000,-0.0057743527,-0.0014309018,-0.010733128,-0.013680935,-0.009845734,0.0,0.0,0.0,0.0,0.0,0.0,0.0,0.0,0.0,0.0,0.0,nan,0.0,0.0,0.00024735928,-0.0017467812,5.1304698e-05,0.0007210076,0.0,0.0,0.0,0.0,0.0,0.0
886068000,885988000,-0.020667408,0.031801578,-0.025933683,-0.017868519,-0.006160736,0.0,0.0,0.0,0.0,0.0,0.0,0.0,0.0,0.0,0.0,0.0,nan,0.0,0.0,0.004782319,-0.0017467812,5.1304698e-05,0.0007210076,0.0,0.0,0.0,0.0,0.0,0.0
886564000,886484000,-0.021900753,0.003889991,-0.012187421,-0.014992237,-0.0071983337,0.0,0.0,0.0,0.0,0.0,0.0,0.0,0.0,0.0,0.0,0.0,nan,0.0,0.0,-0.010826707,-0.0017467812,5.1304698e-05,0.0007210076,0.0,0.0,0.0,0.0,0.0,0.0
887068000,886988000,-0.028350767,0.01290048,0.00826329,-0.017092705,0.004627228,0.0,0.0,0.0,0.0,0.0,0.0,0.0,0.0,0.0,0.0,0.0,nan,0.0,0.0,0.0043799877,-0.0017467812,5.1304698e-05,0.0007210076,0.0,0.0,0.0,0.0,0.0,0.0
887564000,887484000,-0.016674623,0.0038889693,0.05143541,-0.01618576,0.004096985,0.0,0.0,0.0,0.0,0.0,0.0,0.0,0.0,0.0,0.0,0.0,nan,0.0,0.0,-0.008302927,-0.0017467812,5.1304698e-05,0.0007210076,0.0,0.0,0.0,0.0,0.0,0.0
888068000,887988000,-0.009123828,0.008658433,-0.020159662,-0.011955261,-0.002632141,0.0,0.0,0.0,0.0,0.0,0.0,0.0,0.0,0.0,0.0,0.0,nan,0.0,0.0,-0.00295794,-0.0017467812,5.1304698e-05,0.0007210076,0.0,0.0,0.0,0.0,0.0,0.0
888564000,888484000,0.006866634,0.007335241,0.008365333,-0.009986401,-0.00969696,0.0,0.0,0.0,0.0,0.0,0.0,0.0,0.0,0.0,0.0,0.0,nan,0.0,0.0,0.0036188364,-0.0017467812,5.1304698e-05,0.0007210076,0.0,0.0,0.0,0.0,0.0,0.0
889068000,888988000,0.015728924,-0.017056705,0.008370936,-0.0069179535,-0.014308929,0.0,0.0,0.0,0.0,0.0,0.0,0.0,0.0,0.0,0.0,0.0,nan,0.0,0.0,-0.009585738,-0.0017467812,5.1304698e-05,0.0007210076,0.0,0.0,0.0,0.0,0.0,0.0
889564000,889484000,-0.0022288905,-0.017619127,0.04824841,-0.0013518333,-0.017547607,0.0,0.0,0.0,0.0,0.0,0.0,0.0,0.0,0.0,0.0,0.0,nan,0.0,0.0,-0.0030978918,-0.0017467812,5.1304698e-05,0.0007210076,0.0,0.0,0.0,0.0,0.0,0.0
890068000,889988000,0.0035654483,-0.0048956177,0.01543051,0.0051994324,-0.021709442,0.0,0.0,0.0,0.0,0.0,0.0,0.0,0.0,0.0,0.0,0.0,nan,0.0,0.0,-0.0033421516,-0.0017467812,5.1304698e-05,0.0007210076,0.0,0.0,0.0,0.0,0.0,0.0
890572000,890492000,-0.004539083,-0.020814236,0.035018444,0.013004303,-0.024246216,0.0,0.0,0.0,0.0,0.0,0.0,0.0,0.0,0.0,0.0,0.0,nan,0.0,0.0,-0.024908781,-0.0017467812,5.1304698e-05,0.0007210076,0.0,0.0,0.0,0.0,0.0,0.0
891068000,890988000,0.005975288,-0.030440984,0.030528963,0.011453152,-0.024009705,0.0,0.0,0.0,0.0,0.0,0.0,0.0,0.0,0.0,0.0,0.0,nan,0.0,0.0,-0.0012387037,-0.0017467812,5.1304698e-05,0.0007210076,0.0,0.0,0.0,0.0,0.0,0.0
891564000,891484000,-0.026126327,-0.03907346,0.0019315481,0.008549213,-0.031597137,0.0,0.0,0.0,0.0,0.0,0.0,0.0,0.0,0.0,0.0,0.0,nan,0.0,0.0,-0.013354659,-0.0017467812,5.1304698e-05,0.0007210076,0.0,0.0,0.0,0.0,0.0,0.0
892068000,891988000,0.00029624667,-0.037681304,0.01106149,0.01382637,-0.024650574,0.0,0.0,0.0,0.0,0.0,0.0,0.0,0.0,0.0,0.0,0.0,nan,0.0,0.0,-0.009832501,-0.0017467812,5.1304698e-05,0.0007210076,0.0,0.0,0.0,0.0,0.0,0.0
892564000,892484000,-0.014549216,-0.054135296,0.014913738,-0.010085106,-0.03195572,0.0,0.0,0.0,0.0,0.0,0.0,0.0,0.0,0.0,0.0,0.0,nan,0.0,0.0,-0.0035871267,-0.0017467812,5.1304698e-05,0.0007210076,0.0,0.0,0.0,0.0,0.0,0.0
893068000,892988000,-0.0138023915,-0.035365928,0.016005158,0.0015416145,-0.025054932,0.0,0.0,0.0,0.0,0.0,0.0,0.0,0.0,0.0,0.0,0.0,nan,0.0,0.0,-0.018903017,-0.0017467812,5.1304698e-05,0.0007210076,0.0,0.0,0.0,0.0,0.0,0.0
893564000,893484000,-0.012048568,-0.06611371,0.058025002,-0.01014328,-0.032173157,0.0,0.0,0.0,0.0,0.0,0.0,0.0,0.0,0.0,0.0,0.0,nan,0.0,0.0,-0.004216671,-0.0017467812,5.1304698e-05,0.0007210076,0.0,0.0,0.0,0.0,0.0,0.0
894068000,893988000,-0.010950245,-0.028272673,0.018980145,-0.018785,-0.025600433,0.0,0.0,0.0,0.0,0.0,0.0,0.0,0.0,0.0,0.0,0.0,nan,0.0,0.0,-0.004552245,-0.0017467812,5.1304698e-05,0.0007210076,0.0,0.0,0.0,0.0,0.0,0.0
894564000,894484000,-0.0147019215,-0.049099084,0.027243495,-0.012199879,-0.03156662,0.0,0.0,0.0,0.0,0.0,0.0,0.0,0.0,0.0,0.0,0.0,nan,0.0,0.0,-0.0158422,-0.0017467812,5.1304698e-05,0.0007210076,0.0,0.0,0.0,0.0,0.0,0.0
895068000,894988000,-0.05425355,-0.047220733,0.008905709,-0.033032417,-0.030124664,0.0,0.0,0.0,0.0,0.0,0.0,0.0,0.0,0.0,0.0,0.0,nan,0.0,0.0,-0.00065875053,-0.0017467812,5.1304698e-05,0.0007210076,0.0,0.0,0.0,0.0,0.0,0.0
895564000,895484000,-0.041022185,-0.046978272,0.08183253,-0.018940449,-0.027511597,0.0,0.0,0.0,0.0,0.0,0.0,0.0,0.0,0.0090789795,0.0,0.0,nan,0.0,0.0,-0.012704015,-0.0017467812,5.1304698e-05,0.0007210076,0.0,0.0,0.0,0.0,0.0,0.0
896068000,895988000,-0.08639473,-0.031070871,0.040800154,-0.027230263,-0.019752502,0.0,0.0,0.0,0.0,0.0,0.0,0.0,0.0,0.0,0.0,0.0,nan,0.0,0.0,-0.0044620037,-0.0017467812,5.1304698e-05,0.0007210076,0.0,0.0,0.0,0.0,0.0,0.0
896564000,896484000,-0.036698647,-0.03009986,0.024115613,-0.02650404,-0.03112793,0.0,0.0,0.0,0.0,0.0,0.0,0.0,0.0,0.002090454,0.0,0.0,nan,0.0,0.0,-0.004856825,-0.0017467812,5.1304698e-05,0.0007210076,0.0,0.0,0.0,0.0,0.0,0.0
897068000,896988000,-0.024922675,-0.02522593,0.03538192,-0.019003391,-0.025291443,0.0,0.0,0.0,0.0,0.0,0.0,0.0,0.0,0.0,0.0,0.0,nan,0.0,0.0,-0.0023875237,-0.0017467812,5.1304698e-05,0.0007210076,0.0,0.0,0.0,0.0,0.0,0.0
897564000,897484000,-0.026144926,-0.026009992,0.03414171,-0.022274494,-0.027477264,0.0,0.0,0.0,0.0,0.0,0.0,0.0,0.0,-0.061447144,0.0,0.0,nan,0.0,0.0,-0.017918348,-0.0017467812,5.1304698e-05,0.0007210076,0.0,0.0,0.0,0.0,0.0,0.0
898068000,897988000,-0.021630691,-0.022409575,0.06561373,-0.015624046,-0.010433197,0.0,0.0,0.0,0.0,0.0,0.0,0.0,0.0,-0.05419922,0.0,0.0,nan,0.0,0.0,-0.013465166,-0.0017467812,5.1304698e-05,0.0007210076,0.0,0.0,0.0,0.0,0.0,0.0
898564000,898484000,-0.030372594,-0.022794327,0.057812423,-0.01458168,-0.010139465,0.0,0.0,0.0,0.0,0.0,0.0,0.0,0.0,-0.14746094,0.0,0.0,nan,0.0,0.0,-0.014680266,-0.0017467812,5.1304698e-05,0.0007210076,0.0,0.0,0.0,0.0,0.0,0.0
899068000,898988000,0.00055943575,0.00036771077,-0.04350093,0.003534317,0.01064682,0.0,0.0,0.0,0.0,0.0,0.0,0.0,0.0,-0.27445984,0.0,0.0,nan,0.0,0.0,-0.015150309,-0.0017467812,5.1304698e-05,0.0007210076,0.0,0.0,0.0,0.0,0.0,0.0
899564000,899484000,-0.0010829631,0.030270105,0.0023389603,0.0041766167,0.01084137,0.0,0.0,0.0,0.0,0.0,0.0,0.0,0.0,-0.1506958,0.0,0.0,nan,0.0,0.0,-0.02365005,-0.0017467812,5.1304698e-05,0.0007210076,0.0,0.0,0.0,0.0,0.0,0.0
900068000,899988000,0.010920579,-0.0025890807,0.0013698931,0.0038909912,0.010135651,0.0,0.0,0.0,0.0,0.0,0.0,0.0,0.0,-0.17686462,0.0,0.0,nan,0.0,0.0,-0.0057394505,-0.0017467812,5.1304698e-05,0.0007210076,0.0,0.0,0.0,0.0,0.0,0.0
